"lineid","car","time","location","longitude","latitude","cityid","cityname"
"241031","653-BX","2017/08/17 06:59:13","新北市五股區中興路二段83巷26-1號","121.459515","25.07572","6500200","三重區"
"232007","290-BY","2017/08/17 06:59:30","新北市坪林區九芎林39-3號","121.702095","24.918525","6502000","坪林區"
"232001","291-BY","2017/08/17 06:59:16","新北市坪林區桶盤嶼1號","121.706728333333","24.9554566666667","6502000","坪林區"
"232010","375-UM","2017/08/17 06:59:28","新北市坪林區水聳淒坑13號","121.720158333333","24.930355","6502000","坪林區"
"232014","705-BZ","2017/08/17 06:59:21","新北市坪林區仁里13號","121.685615","24.929255","6502000","坪林區"
"232017","758-BX","2017/08/17 06:56:37","新北市坪林區坪雙路一段88號","121.718651666667","24.9450983333333","6502000","坪林區"
"244003","248-BX","2017/08/17 06:59:11","新北市林口區湖南里70-9號","121.376118333333","25.08978","6501700","林口區"
"222006","289-BY","2017/08/17 06:59:12","新北市深坑區深坑街75號","121.614678333333","25.0013683333333","6501800","深坑區"
"235001","255-BX","2017/08/17 06:59:21","新北市中和區廟美街5號","121.500735","25.0015516666667","6500300","中和區"
"223006","022-BY","2017/08/17 06:59:18","新北市石碇區深按1號","121.657235","25.0164483333333","6501900","石碇區"
"223002","198-BX","2017/08/17 06:59:16","新北市石碇區四分子路小粗坑巷7號","121.651858333333","24.9636933333333","6501900","石碇區"
"223003","205-TH","2017/08/17 06:59:23","新北市石碇區石碇東街143號","121.658901666667","24.9891","6501900","石碇區"
"223008","406-TH","2017/08/17 06:59:09","新北市石碇區雙溪84-1號","121.662266666667","25.0088833333333","6501900","石碇區"
"223001","437-BY","2017/08/17 06:59:12","新北市石碇區石碇西街18號","121.659013333333","24.9908333333333","6501900","石碇區"
"223007","661-BX","2017/08/17 06:59:22","新北市石碇區雙溪81-1號","121.664143333333","25.0091983333333","6501900","石碇區"
"227007","282-VK","2017/08/17 06:59:17","新北市雙溪區新基里自強路5號","121.866326666667","25.0390216666667","6502500","雙溪區"
"252004","249-BX","2017/08/17 06:59:29","新北市三芝區埔坪里埔頭坑43號","121.504595","25.2617866666667","6502100","三芝區"
"252007","AAC-283","2017/08/17 06:59:20","新北市三芝區古庄里山豬堀2號","121.500835","25.2497566666667","6502100","三芝區"
"236009","165-UM","2017/08/17 06:59:13","新北市土城區永平街51號","121.427895","24.959185","6501300","土城區"
"236003","339-SR","2017/08/17 06:59:16","新北市土城區和平路21號","121.443158333333","24.9733216666667","6501300","土城區"
"220073","282-UM","2017/08/17 06:52:19","新北市板橋區國光路67巷14號","121.458963333333","25.0187166666667","6500100","板橋區"
