"lineid","car","time","location","longitude","latitude","cityid","cityname"
"234044","148-BY","2017/08/25 12:48:45","新北市永和區秀朗路二段148巷12弄15號","121.524711666667","25.0008633333333","6500400","永和區"
"234013","149-BY","2017/08/25 12:48:31","新北市永和區保福路二段139號","121.509711666667","25.0140283333333","6500400","永和區"
"234005","207-UY","2017/08/25 12:48:33","新北市永和區光復街60巷31號","121.518348333333","25.0173533333333","6500400","永和區"
"234078","298-R6","2017/08/25 12:48:36","新北市永和區永利路112號","121.521323333333","25.003235","6500400","永和區"
"234036","336-UY","2017/08/25 12:48:30","新北市永和區成功路一段131號","121.52683","25.0017616666667","6500400","永和區"
"234062","337-UY","2017/08/25 12:48:39","新北市永和區環河東路二段92號","121.52444","25.01065","6500400","永和區"
"234084","338-UY","2017/08/25 12:48:39","新北市永和區中正路3-1號","121.513891666667","24.995495","6500400","永和區"
"234068","552-UM","2017/08/25 12:48:29","新北市永和區竹林路96巷2號","121.519241666667","25.012155","6500400","永和區"
"234052","553-UM","2017/08/25 12:48:37","新北市永和區豫溪街141號","121.52059","25.01036","6500400","永和區"
"234015","745-BX","2017/08/25 12:48:33","新北市永和區永和路二段297號","121.516025","25.01604","6500400","永和區"
"234028","746-BX","2017/08/25 12:48:46","新北市永和區得和路393號","121.525283333333","24.9993883333333","6500400","永和區"
"234040","862-TW","2017/08/25 12:48:25","新北市永和區永貞路267號","121.511768333333","25.0048016666667","6500400","永和區"
"234048","863-TW","2017/08/25 12:48:34","新北市永和區保安路2號","121.510858333333","25.0175166666667","6500400","永和區"
"234025","9371-KE","2017/08/25 12:48:34","新北市永和區永和路一段151巷14號","121.513751666667","25.0094266666667","6500400","永和區"
"234010","9373-KE","2017/08/25 12:48:34","新北市永和區保福路二段156號","121.509133333333","25.014985","6500400","永和區"
"248019","225-UY","2017/08/25 12:48:31","新北市五股區中興路二段63巷17號","121.460236666667","25.0752383333333","6501500","五股區"
"234022","9380-KE","2017/08/25 12:48:35","新北市永和區竹林路119巷18弄5號","121.521481666667","25.0115133333333","6500400","永和區"
"234076","969-R7","2017/08/25 12:48:44","新北市中和區安樂路101-3號","121.513438333333","24.995065","6500400","永和區"
"234072","AAC-211","2017/08/25 12:48:36","新北市永和區福和路1號","121.526501666667","25.0097783333333","6500400","永和區"
"234066","AAC-212","2017/08/25 12:48:47","新北市永和區中和路573號","121.511725","25.0036566666667","6500400","永和區"
"234001","AAC-295","2017/08/25 12:48:29","新北市永和區福和路292號","121.517296666667","25.0074683333333","6500400","永和區"
"231028","001-UM","2017/08/25 12:48:36","新北市新店區安華路28-1號","121.519478333333","24.96084","6500600","新店區"
"231030","047-UY","2017/08/25 12:48:43","新北市新店區安華路28-1號","121.519235","24.9609766666667","6500600","新店區"
"231029","106-UY","2017/08/25 12:48:42","新北市新店區安華路28-1號","121.519631666667","24.9608783333333","6500600","新店區"
"231022","187-VK","2017/08/25 12:48:45","新北市新店區安華路28-1號","121.51955","24.9611183333333","6500600","新店區"
"231010","278-BY","2017/08/25 12:48:35","新北市新店區安華路28-1號","121.519968333333","24.9612166666667","6500600","新店區"
"231016","AAD-862","2017/08/25 12:48:35","新北市新店區安華路28-1號","121.519918333333","24.961275","6500600","新店區"
"231027","3712-VJ","2017/08/25 12:48:41","新北市新店區安華路1-1號","121.519345","24.9605416666667","6500600","新店區"
"231036","512-UM","2017/08/25 12:48:44","新北市新店區安華路28-1號","121.519273333333","24.9611233333333","6500600","新店區"
"231023","513-UM","2017/08/25 12:48:33","新北市新店區安華路28-1號","121.519623333333","24.9611116666667","6500600","新店區"
"231006","617-UM","2017/08/25 12:48:35","新北市新店區安華路28-1號","121.519483333333","24.9608433333333","6500600","新店區"
"231001","619-UM","2017/08/25 12:48:40","新北市新店區安華路28-1號","121.519613333333","24.9607383333333","6500600","新店區"
"231013","719-UM","2017/08/25 12:48:38","新北市新店區安華路28-1號","121.51953","24.961225","6500600","新店區"
"231032","720-UM","2017/08/25 12:48:28","新北市新店區安華路28-1號","121.519303333333","24.9612383333333","6500600","新店區"
"231005","897-TW","2017/08/25 12:48:37","新北市新店區安華路28-1號","121.519585","24.9609133333333","6500600","新店區"
"231004","899-TW","2017/08/24 22:06:29","新北市新店區薏仁坑路自強巷6號","121.496415","24.958435","6500600","新店區"
"235001","150-BY","2017/08/25 12:48:33","新北市中和區和城路一段271巷1號","121.485505","24.9919966666667","6500300","中和區"
"235002","185-VK","2017/08/25 12:48:46","新北市中和區中正路589巷9號","121.48587","24.9940166666667","6500300","中和區"
"235031","255-BX","2017/08/25 12:48:40","新北市中和區新生街38號","121.483233333333","25.00357","6500300","中和區"
"235032","377-QA","2017/08/24 20:18:34","新北市中和區勝利路35巷1弄35號","121.500151666667","25.0079483333333","6500300","中和區"
"235025","378-QA","2017/08/25 12:43:08","新北市中和區員山路36巷16-2號","121.485345","24.9917","6500300","中和區"
"227011","400-TW","2017/08/24 20:20:32","新北市雙溪區三貂里政光路3-1號","121.85093","25.0631516666667","6502500","雙溪區"
"207002","749-BX","2017/08/25 12:48:29","新北市萬里區雙興里二坪路6-2號","121.650861666667","25.1751266666667","6502800","萬里區"
"207001","662-BX","2017/08/25 12:48:40","新北市萬里區萬里里瑪鋉路314號","121.688126666667","25.1821583333333","6502800","萬里區"
"236006","498-BY","2017/08/25 12:48:34","新北市土城區永平街51號","121.427488333333","24.95916","6501300","土城區"
"221032","280-BY","2017/08/25 12:48:30","新北市汐止區大同路二段663號","121.664943333333","25.0717416666667","6501100","汐止區"
"221002","753-BX","2017/08/25 12:48:38","新北市汐止區康寧街749號","121.63854","25.073355","6501100","汐止區"
