"lineid","car","time","location","longitude","latitude","cityid","cityname"
"249005","172-UM","2017/08/25 16:58:42","新北市八里區渡船頭3-7號","121.434328333333","25.153165","6502300","八里區"
"249001","173-UM","2017/08/25 16:58:53","新北市八里區商港路48號","121.39572","25.14543","6502300","八里區"
"249004","303-UY","2017/08/25 16:58:41","新北市八里區挖子尾街73-1號","121.414541666667","25.167125","6502300","八里區"
"249002","305-UY","2017/08/25 16:58:51","新北市八里區牛寮埔4號","121.433471666667","25.1422216666667","6502300","八里區"
"249003","593-UM","2017/08/25 16:58:40","新北市八里區中山路二段277號","121.401883333333","25.1487433333333","6502300","八里區"
"244007","080-UY","2017/08/25 16:58:42","新北市林口區竹林路546號","121.387216666667","25.0849283333333","6501700","林口區"
"244023","657-BX","2017/08/25 16:58:34","新北市林口區粉寮69號","121.405063333333","25.0908566666667","6501700","林口區"
"231046","278-BY","2017/08/25 16:58:49","新北市新店區永業路81巷12號","121.533861666667","24.947455","6500600","新店區"
"241011","013-R5","2017/08/25 16:58:40","新北市三重區仁愛街55巷73號","121.499786666667","25.07292","6500200","三重區"
"241028","022-UY","2017/08/25 16:58:56","新北市三重區中正南路41巷1號","121.493735","25.0599566666667","6500200","三重區"
"241008","059-VK","2017/08/25 16:58:40","新北市三重區永福街179巷36號","121.477645","25.0748016666667","6500200","三重區"
"241009","060-VK","2017/08/25 16:58:54","新北市三重區仁美街108巷24號","121.48473","25.08051","6500200","三重區"
"241031","061-VK","2017/08/25 16:58:43","新北市三重區三寧街18號","121.489341666667","25.0598383333333","6500200","三重區"
"241015","062-VK","2017/08/25 16:58:50","新北市三重區長安街58號","121.500536666667","25.0673266666667","6500200","三重區"
"241017","063-VK","2017/08/25 16:58:46","新北市三重區大同北路120巷1-5號","121.493203333333","25.064015","6500200","三重區"
"241024","065-VK","2017/08/25 16:58:42","新北市三重區大勇街32號","121.481695","25.0718183333333","6500200","三重區"
"241026","066-VK","2017/08/25 16:58:35","新北市三重區文化南路36號","121.500335","25.0614016666667","6500200","三重區"
"241002","090-VK","2017/08/25 16:58:44","新北市三重區仁義街101巷26號","121.498796666667","25.08038","6500200","三重區"
"241003","091-VK","2017/08/25 16:58:53","新北市三重區集賢路87-1號","121.493805","25.0870183333333","6500200","三重區"
"241006","156-TC","2017/08/25 16:58:52","新北市三重區車路頭街117巷34號","121.485138333333","25.0755733333333","6500200","三重區"
"241005","262-UM","2017/08/25 16:58:52","新北市三重區仁華街106號","121.485275","25.083285","6500200","三重區"
"241030","265-UM","2017/08/25 16:58:44","新北市三重區昌隆街41號","121.491436666667","25.051705","6500200","三重區"
"241016","266-UM","2017/08/25 16:58:34","新北市三重區大智街12號","121.495358333333","25.0644433333333","6500200","三重區"
"241022","267-UM","2017/08/25 16:58:36","新北市三重區中華路123巷29號","121.484641666667","25.0638583333333","6500200","三重區"
"241018","268-UM","2017/08/25 16:58:46","新北市三重區六張街126巷2弄34號","121.49277","25.0695716666667","6500200","三重區"
"241032","269-UM","2017/08/25 16:58:37","新北市三重區重陽路一段130巷26號","121.485728333333","25.0603483333333","6500200","三重區"
"241013","270-UM","2017/08/25 16:58:45","新北市三重區仁和街71號","121.497486666667","25.0739666666667","6500200","三重區"
"241025","271-UM","2017/08/25 16:58:43","新北市三重區中正北路361-1號","121.472645","25.07176","6500200","三重區"
"241007","398-BY","2017/08/25 16:58:46","新北市三重區溪尾街126巷33號","121.488566666667","25.0792833333333","6500200","三重區"
"241020","413-TH","2017/08/25 16:58:50","新北市三重區後竹圍街175巷27號","121.485611666667","25.07284","6500200","三重區"
"241004","475-VK","2017/08/25 16:58:41","新北市三重區五華街98巷11號","121.49205","25.0822166666667","6500200","三重區"
"241019","478-VK","2017/08/25 16:58:50","新北市三重區三張街104號","121.48785","25.0698533333333","6500200","三重區"
"241014","543-UM","2017/08/25 16:58:47","新北市三重區三和路二段173巷149號","121.501158333333","25.0707033333333","6500200","三重區"
"241023","545-UM","2017/08/25 16:58:46","新北市三重區興華街81號","121.48467","25.0600983333333","6500200","三重區"
"241001","887-TS","2017/08/25 16:58:54","新北市三重區仁愛街192巷3號","121.493855","25.077085","6500200","三重區"
"241012","941-UM","2017/08/25 16:58:45","新北市三重區仁和街165號","121.499886666667","25.0747316666667","6500200","三重區"
"241029","942-UM","2017/08/25 16:58:54","新北市三重區環河南路220-8號","121.493313333333","25.052555","6500200","三重區"
"241033","AAC-255","2017/08/25 16:58:41","新北市三重區新北大道二段65號","121.46901","25.060965","6500200","三重區"
"235022","151-BY","2017/08/25 15:18:09","新北市中和區員山路36巷16-2號","121.485226666667","24.991635","6500300","中和區"
"235067","255-BX","2017/08/25 16:23:05","新北市中和區員山路36巷13號","121.484351666667","24.9913183333333","6500300","中和區"
"235036","301-VK","2017/08/25 15:10:43","新北市中和區員山路36巷12號","121.484015","24.9907783333333","6500300","中和區"
"235064","911-UM","2017/08/25 16:54:46","新北市中和區員山路36巷16-3號","121.485115","24.9914116666667","6500300","中和區"
"247020","893-R6","2017/08/25 16:58:53","新北市蘆洲區民族路422巷35號","121.473475","25.09358","6501400","蘆洲區"
"247008","339-TH","2017/08/25 16:58:50","新北市蘆洲區中山一路197巷30號","121.475078333333","25.0797366666667","6501400","蘆洲區"
"247024","337-TH","2017/08/25 16:58:41","新北市蘆洲區長興路202號","121.460653333333","25.0874833333333","6501400","蘆洲區"
"247002","336-TH","2017/08/25 16:58:51","新北市蘆洲區永平街20號","121.459163333333","25.09071","6501400","蘆洲區"
"247016","335-TH","2017/08/25 15:46:43","新北市五股區中興路三段2巷10號","121.449315","25.0811733333333","6501400","蘆洲區"
"247014","057-VK","2017/08/25 16:57:59","新北市蘆洲區中山二路36巷42號","121.47408","25.0836016666667","6501400","蘆洲區"
"247004","056-VK","2017/08/25 16:58:52","新北市蘆洲區長安街131巷7號","121.460563333333","25.0811116666667","6501400","蘆洲區"
"247006","053-VK","2017/08/25 16:58:42","新北市蘆洲區長安街99巷29號","121.460781666667","25.0797683333333","6501400","蘆洲區"
"247012","007-UY","2017/08/25 16:58:33","新北市蘆洲區信義路298號","121.47759","25.08758","6501400","蘆洲區"
"247016","001-UY","2017/08/25 16:58:51","新北市蘆洲區正和街9號","121.470401666667","25.0824633333333","6501400","蘆洲區"
"228003","097-TW","2017/08/25 16:58:43","新北市貢寮區福隆里興隆街13-5號","121.944173333333","25.0165366666667","6502600","貢寮區"
"228002","663-BX","2017/08/25 16:58:38","新北市貢寮區貢寮里朝陽街86號","121.908936666667","25.0221333333333","6502600","貢寮區"
"228001","670-TC","2017/08/25 16:58:44","新北市貢寮區貢寮里朝陽街1-2號","121.91232","25.0212883333333","6502600","貢寮區"
"224010","AGQ-8101","2017/08/24 20:30:33","新北市瑞芳區明燈路二段44-1號","121.809566666667","25.108325","6501200","瑞芳區"
"224006","676-BX","2017/08/25 16:58:54","新北市瑞芳區大寮路356-1號","121.784853333333","25.103255","6501200","瑞芳區"
"224009","285-BY","2017/08/25 16:58:55","新北市瑞芳區明燈路一段15號","121.824441666667","25.107725","6501200","瑞芳區"
"224008","275-VK","2017/08/25 16:58:52","新北市瑞芳區明燈路一段175號","121.819235","25.1076316666667","6501200","瑞芳區"
"224007","273-VK","2017/08/25 16:58:46","新北市瑞芳區瑞竹路44號","121.763635","25.1033766666667","6501200","瑞芳區"
"224005","271-BY","2017/08/25 16:58:48","新北市瑞芳區南雅路29-1號","121.888028333333","25.12076","6501200","瑞芳區"
"227003","642-TC","2017/08/25 16:58:42","新北市雙溪區長源里土地公山1-1號","121.799728333333","25.01394","6502500","雙溪區"
"227011","400-TW","2017/08/25 16:58:54","新北市雙溪區牡丹里聖南9號","121.859566666667","25.0518516666667","6502500","雙溪區"
"251004","009-UM","2017/08/25 16:58:39","新北市淡水區中正路二段31號","121.419315","25.1816883333333","6501000","淡水區"
"251005","010-UM","2017/08/25 16:58:53","新北市淡水區原德路1號","121.441753333333","25.1709316666667","6501000","淡水區"
"251013","180-VK","2017/08/25 16:58:48","新北市淡水區泉洲厝32號","121.489273333333","25.19255","6501000","淡水區"
"251008","181-VK","2017/08/25 16:58:44","新北市淡水區樹梅坑9號","121.472723333333","25.14267","6501000","淡水區"
"251015","182-VK","2017/08/25 16:58:48","新北市淡水區忠愛街5-2號","121.460021666667","25.17132","6501000","淡水區"
"251010","413-VK","2017/08/25 16:58:42","新北市淡水區崁頂74號","121.434236666667","25.1998033333333","6501000","淡水區"
"251012","441-VK","2017/08/25 16:58:51","新北市淡水區中正路二段31號","121.419715","25.1815366666667","6501000","淡水區"
"251006","561-UM","2017/08/25 16:58:52","新北市淡水區中正路二段31號","121.419485","25.1815966666667","6501000","淡水區"
"251011","650-BX","2017/08/25 16:58:36","新北市淡水區中山路26-1號","121.4444","25.1696333333333","6501000","淡水區"
"251003","673-BX","2017/08/25 16:58:39","新北市淡水區中正路二段31號","121.419513333333","25.1814883333333","6501000","淡水區"
"252002","178-VK","2017/08/25 16:58:54","新北市三芝區忠孝街173號","121.505456666667","25.2613933333333","6502100","三芝區"
"252001","702-TV","2017/08/25 16:58:42","新北市三芝區淡金路二段76-1號","121.50388","25.2608883333333","6502100","三芝區"
"242029","986-R7","2017/08/25 16:58:39","新北市新莊區新泰路255巷83號","121.442343333333","25.0392683333333","6500500","新莊區"
"242048","751-BX","2017/08/25 16:58:49","新北市新莊區新泰路357巷3弄57號","121.442095","25.0391633333333","6500500","新莊區"
"242027","612-BX","2017/08/25 16:58:51","新北市新莊區新泰路357巷3弄57號","121.442418333333","25.0394116666667","6500500","新莊區"
"242032","415-TV","2017/08/25 16:58:39","新北市新莊區新泰路357巷3弄57號","121.442116666667","25.0393416666667","6500500","新莊區"
"242004","132-UY","2017/08/25 14:37:57","新北市新莊區新泰路255巷83號","121.441991666667","25.03894","6500500","新莊區"
"242007","173-VK","2017/08/25 14:40:21","新北市新莊區新泰路357巷2-2號","121.442038333333","25.041055","6500500","新莊區"
"242056","176-VK","2017/08/25 16:58:44","新北市新莊區三和路18-25號","121.441736666667","25.0390883333333","6500500","新莊區"
"242011","346-TH","2017/08/25 16:58:36","新北市新莊區三和路12-16號","121.442073333333","25.0374666666667","6500500","新莊區"
"242044","347-TH","2017/08/25 16:58:47","新北市新莊區三和路12-21號","121.442071666667","25.0387783333333","6500500","新莊區"
"242054","349-TH","2017/08/25 16:58:24","新北市新莊區三和路12-16號","121.442235","25.037415","6500500","新莊區"
"242009","351-TH","2017/08/25 16:58:48","新北市新莊區新泰路357巷3弄57號","121.442041666667","25.0395483333333","6500500","新莊區"
"238019","599-UM","2017/08/25 16:58:42","新北市樹林區育德街78-1號","121.388041666667","24.9680766666667","6500700","樹林區"
"238018","571-TV","2017/08/25 16:58:54","新北市樹林區育德街78-1號","121.38762","24.9682733333333","6500700","樹林區"
"238022","312-TH","2017/08/25 16:58:38","新北市樹林區育德街78-1號","121.388148333333","24.9681316666667","6500700","樹林區"
"238021","311-TH","2017/08/24 20:30:59","新北市樹林區柑園街二段3號","121.388256666667","24.955455","6500700","樹林區"
"238025","303-VK","2017/08/25 16:58:42","新北市樹林區中山路三段204號","121.387278333333","24.9682383333333","6500700","樹林區"
"238020","268-VK","2017/08/24 19:50:33","新北市樹林區樹新路122號","121.430186666667","24.9984466666667","6500700","樹林區"
"239007","AAC-297","2017/08/25 16:58:47","新北市鶯歌區環河路85號","121.347091666667","24.939325","6500800","鶯歌區"
"239006","891-R6","2017/08/25 16:58:36","新北市鶯歌區二甲路175號","121.344793333333","24.9355966666667","6500800","鶯歌區"
"239008","527-UM","2017/08/25 16:58:47","新北市鶯歌區尖山路101巷16-2號","121.347593333333","24.941425","6500800","鶯歌區"
"239005","526-UM","2017/08/25 16:58:53","新北市鶯歌區環河路60-1號","121.351243333333","24.944325","6500800","鶯歌區"
"239001","417-VK","2017/08/25 16:58:46","新北市鶯歌區二甲路13-16號","121.345341666667","24.9353216666667","6500800","鶯歌區"
"239003","360-BY","2017/08/25 16:58:35","新北市鶯歌區環河路91號","121.3489","24.94158","6500800","鶯歌區"
"239002","359-BY","2017/08/25 16:58:57","新北市鶯歌區環河路60-2號","121.351445","24.9445133333333","6500800","鶯歌區"
"239004","193-VK","2017/08/25 16:58:41","新北市鶯歌區二甲路173號","121.344621666667","24.93678","6500800","鶯歌區"
