"lineid","car","time","location","longitude","latitude","cityid","cityname"
"249005","172-UM","2017/08/25 17:08:42","新北市八里區大堀湖28-2號","121.420511666667","25.1464616666667","6502300","八里區"
"249001","173-UM","2017/08/25 17:08:33","新北市八里區中華路二段290號","121.40442","25.1488266666667","6502300","八里區"
"249004","303-UY","2017/08/25 17:08:42","新北市八里區忠孝路298號","121.418373333333","25.1613233333333","6502300","八里區"
"249002","305-UY","2017/08/25 17:08:51","新北市八里區龍米路二段153巷1號","121.440951666667","25.1518416666667","6502300","八里區"
"249003","593-UM","2017/08/25 17:08:40","新北市八里區中山路二段377號","121.398508333333","25.1468483333333","6502300","八里區"
"244007","080-UY","2017/08/25 17:08:42","新北市林口區中湖53-2號","121.375318333333","25.0921333333333","6501700","林口區"
"244009","410-SL","2017/08/25 17:08:39","新北市林口區粉寮路一段98號","121.399675","25.08186","6501700","林口區"
"244023","657-BX","2017/08/25 17:08:34","新北市林口區粉寮路二段66-1號","121.403963333333","25.0876416666667","6501700","林口區"
"244013","658-BX","2017/08/25 17:08:36","新北市林口區粉寮69號","121.405091666667","25.0908233333333","6501700","林口區"
"244021","838-TS","2017/08/25 17:08:43","新北市林口區粉寮路60-16號","121.404413333333","25.089555","6501700","林口區"
"231046","278-BY","2017/08/25 17:08:49","新北市新店區直潭路96號","121.531341666667","24.9369866666667","6500600","新店區"
"241011","013-R5","2017/08/25 17:08:40","新北市三重區龍濱路285號","121.501093333333","25.0733516666667","6500200","三重區"
"241028","022-UY","2017/08/25 17:08:36","新北市三重區重新路三段90號","121.493056666667","25.060705","6500200","三重區"
"241008","059-VK","2017/08/25 17:08:40","新北市三重區力行路二段136巷17弄2號","121.481655","25.075565","6500200","三重區"
"241009","060-VK","2017/08/25 17:08:33","新北市三重區三和路四段215巷2號","121.481835","25.0798216666667","6500200","三重區"
"241031","061-VK","2017/08/25 17:08:43","新北市三重區重陽路一段113巷3號","121.487501666667","25.0596733333333","6500200","三重區"
"241015","062-VK","2017/08/25 17:08:50","新北市三重區長生街31號","121.49965","25.06643","6500200","三重區"
"241017","063-VK","2017/08/25 17:08:47","新北市三重區大仁街30-1號","121.491645","25.06403","6500200","三重區"
"241024","065-VK","2017/08/25 17:08:42","新北市三重區大勇街82巷2號","121.47931","25.07133","6500200","三重區"
"241026","066-VK","2017/08/25 17:08:35","新北市三重區正義南路3號","121.497896666667","25.0619666666667","6500200","三重區"
"241002","090-VK","2017/08/25 17:08:44","新北市三重區仁義街204號","121.496476666667","25.0821183333333","6500200","三重區"
"241003","091-VK","2017/08/25 17:08:33","新北市三重區仁義街252號","121.493818333333","25.0859933333333","6500200","三重區"
"241006","156-TC","2017/08/25 17:08:52","新北市三重區三和路四段274巷18號","121.484818333333","25.0768683333333","6500200","三重區"
"241005","262-UM","2017/08/25 17:08:52","新北市三重區仁愛街642號","121.482998333333","25.0807083333333","6500200","三重區"
"241030","265-UM","2017/08/25 17:08:44","新北市三重區集成路13號","121.488653333333","25.052115","6500200","三重區"
"241016","266-UM","2017/08/25 17:08:34","新北市三重區大仁街52號","121.492111666667","25.064695","6500200","三重區"
"241022","267-UM","2017/08/25 17:08:36","新北市三重區重陽路二段20號","121.486598333333","25.0624283333333","6500200","三重區"
"241018","268-UM","2017/08/25 17:08:46","新北市三重區六張街93號","121.492591666667","25.0698733333333","6500200","三重區"
"241032","269-UM","2017/08/25 17:08:37","新北市三重區三陽路13巷7號","121.48601","25.0597533333333","6500200","三重區"
"241013","270-UM","2017/08/25 17:08:45","新北市三重區仁昌街34號","121.4969","25.0741516666667","6500200","三重區"
"241025","271-UM","2017/08/25 17:08:43","新北市三重區中正北路560巷47號","121.470806666667","25.0702866666667","6500200","三重區"
"241007","398-BY","2017/08/25 17:08:46","新北市三重區三和路四段163巷29號","121.484148333333","25.0788633333333","6500200","三重區"
"241020","413-TH","2017/08/25 17:08:50","新北市三重區後竹圍街173-1號","121.485985","25.0719133333333","6500200","三重區"
"241004","475-VK","2017/08/25 17:08:41","新北市三重區五華街122巷20號","121.491373333333","25.0827066666667","6500200","三重區"
"241019","478-VK","2017/08/25 17:08:50","新北市三重區自強路二段74巷93號","121.487341666667","25.0695183333333","6500200","三重區"
"241014","543-UM","2017/08/25 17:08:47","新北市三重區龍濱路183號","121.50214","25.0707133333333","6500200","三重區"
"241023","545-UM","2017/08/25 17:08:46","新北市三重區忠孝路三段84巷1號","121.48025","25.064505","6500200","三重區"
"241001","887-TS","2017/08/25 17:08:34","新北市三重區仁愛街245巷31號","121.494506666667","25.07855","6500200","三重區"
"241012","941-UM","2017/08/25 17:08:45","新北市三重區仁壽街200號","121.500976666667","25.0748133333333","6500200","三重區"
"241029","942-UM","2017/08/25 17:08:37","新北市三重區重新路三段192號","121.49029","25.0589616666667","6500200","三重區"
"241033","AAC-255","2017/08/25 17:08:41","新北市三重區中興北街234號","121.469018333333","25.0608116666667","6500200","三重區"
"235022","151-BY","2017/08/25 15:18:09","新北市中和區員山路36巷16-2號","121.485226666667","24.991635","6500300","中和區"
"235067","255-BX","2017/08/25 16:23:05","新北市中和區員山路36巷13號","121.484351666667","24.9913183333333","6500300","中和區"
"235036","301-VK","2017/08/25 15:10:43","新北市中和區員山路36巷12號","121.484015","24.9907783333333","6500300","中和區"
"235064","911-UM","2017/08/25 16:54:46","新北市中和區員山路36巷16-3號","121.485115","24.9914116666667","6500300","中和區"
"247020","893-R6","2017/08/25 17:08:33","新北市蘆洲區民族路422巷148弄22號","121.471416666667","25.0945183333333","6501400","蘆洲區"
"247010","546-UM","2017/08/25 17:08:46","新北市蘆洲區民族路26號","121.476208333333","25.0842766666667","6501400","蘆洲區"
"247018","500-BY","2017/08/25 17:08:42","新北市蘆洲區復興路167號","121.478475","25.0891616666667","6501400","蘆洲區"
"247008","339-TH","2017/08/25 17:08:50","新北市蘆洲區信義路30巷83號","121.474921666667","25.0775566666667","6501400","蘆洲區"
"247024","337-TH","2017/08/25 17:08:41","新北市蘆洲區光復路16號","121.463016666667","25.0840883333333","6501400","蘆洲區"
"247002","336-TH","2017/08/25 17:08:31","新北市蘆洲區永樂街48號","121.457665","25.0884983333333","6501400","蘆洲區"
"247016","335-TH","2017/08/25 15:46:43","新北市五股區中興路三段2巷10號","121.449315","25.0811733333333","6501400","蘆洲區"
"247014","057-VK","2017/08/25 17:08:39","新北市蘆洲區中央路7號","121.473221666667","25.0824","6501400","蘆洲區"
"247004","056-VK","2017/08/25 17:08:52","新北市蘆洲區長安街207巷1號","121.459751666667","25.0819516666667","6501400","蘆洲區"
"247006","053-VK","2017/08/25 17:08:42","新北市蘆洲區長安街102巷67號","121.462606666667","25.08231","6501400","蘆洲區"
"247012","007-UY","2017/08/25 17:08:33","新北市蘆洲區信義路296號","121.477696666667","25.0875016666667","6501400","蘆洲區"
"247022","002-UY","2017/08/25 17:08:39","新北市蘆洲區民族路403號","121.469121666667","25.0898816666667","6501400","蘆洲區"
"247016","001-UY","2017/08/25 17:08:51","新北市蘆洲區光華路69號","121.468206666667","25.082625","6501400","蘆洲區"
"228003","097-TW","2017/08/25 17:08:43","新北市貢寮區福隆里東興街6-1號","121.951511666667","25.019935","6502600","貢寮區"
"228002","663-BX","2017/08/25 17:08:38","新北市貢寮區龍崗里嵩陽街55號","121.90769","25.0166033333333","6502600","貢寮區"
"228001","670-TC","2017/08/25 17:08:44","新北市貢寮區仁理村研海街62-2號","121.925758333333","25.0442333333333","6502600","貢寮區"
"224010","AGQ-8101","2017/08/24 20:30:33","新北市瑞芳區明燈路二段44-1號","121.809566666667","25.108325","6501200","瑞芳區"
"224006","676-BX","2017/08/25 17:08:34","新北市瑞芳區大寮路62號","121.78175","25.0983883333333","6501200","瑞芳區"
"224009","285-BY","2017/08/25 17:08:35","新北市瑞芳區濱二路30號","121.841981666667","25.1145883333333","6501200","瑞芳區"
"224008","275-VK","2017/08/25 17:08:52","新北市瑞芳區柴寮路58號","121.82761","25.0871916666667","6501200","瑞芳區"
"224007","273-VK","2017/08/25 17:08:46","新北市瑞芳區粗坑口路66號","121.761295","25.09899","6501200","瑞芳區"
"224005","271-BY","2017/08/25 17:08:48","新北市瑞芳區鼻頭路113號","121.916265","25.1227716666667","6501200","瑞芳區"
"227003","642-TC","2017/08/25 17:08:42","新北市雙溪區長源里柑腳11號","121.805276666667","25.0156383333333","6502500","雙溪區"
"227011","400-TW","2017/08/25 17:08:47","新北市雙溪區三貂里子崙坑1-6號","121.849866666667","25.0575616666667","6502500","雙溪區"
"251004","009-UM","2017/08/25 17:08:39","新北市淡水區中山路42號","121.444246666667","25.170005","6501000","淡水區"
"251005","010-UM","2017/08/25 17:08:33","新北市淡水區鄧公路19-1號","121.450278333333","25.16993","6501000","淡水區"
"251013","180-VK","2017/08/25 17:08:48","新北市淡水區桂花樹1號","121.482593333333","25.1964233333333","6501000","淡水區"
"251008","181-VK","2017/08/25 17:08:44","新北市淡水區民生路169號","121.469578333333","25.1420933333333","6501000","淡水區"
"251015","182-VK","2017/08/25 17:08:48","新北市淡水區鄧公路36巷15號","121.45581","25.1692016666667","6501000","淡水區"
"251010","413-VK","2017/08/25 17:08:42","新北市淡水區新市二路三段20號","121.431536666667","25.1925783333333","6501000","淡水區"
"251012","441-VK","2017/08/25 17:08:51","新北市淡水區新民街322巷1號","121.435271666667","25.18372","6501000","淡水區"
"251006","561-UM","2017/08/25 17:08:52","新北市淡水區沙崙路341號","121.427908333333","25.18779","6501000","淡水區"
"251009","575-R6","2017/08/25 17:08:46","新北市淡水區三民街13號","121.438971666667","25.171745","6501000","淡水區"
"251011","650-BX","2017/08/25 17:08:36","新北市淡水區坪頂路49號","121.457901666667","25.1626366666667","6501000","淡水區"
"251003","673-BX","2017/08/25 17:08:39","新北市淡水區中正路二段31號","121.419488333333","25.18154","6501000","淡水區"
"252002","178-VK","2017/08/25 17:08:34","新北市三芝區忠孝街9號","121.505915","25.2549683333333","6502100","三芝區"
"252001","702-TV","2017/08/25 17:08:50","新北市三芝區淡金路一段4-5號","121.497956666667","25.2600066666667","6502100","三芝區"
"242029","986-R7","2017/08/25 17:08:38","新北市新莊區新泰路357巷3弄57號","121.442445","25.039415","6500500","新莊區"
"242048","751-BX","2017/08/25 17:08:49","新北市新莊區中正路653號","121.429373333333","25.031025","6500500","新莊區"
"242025","615-BX","2017/08/25 17:08:38","新北市新莊區新泰路255巷83號","121.44231","25.038805","6500500","新莊區"
"242023","613-BX","2017/08/25 17:08:32","新北市新莊區新泰路357巷3弄57號","121.442191666667","25.0391666666667","6500500","新莊區"
"242027","612-BX","2017/08/25 17:08:51","新北市新莊區新泰路357巷3弄57號","121.442256666667","25.03927","6500500","新莊區"
"242037","566-BX","2017/08/25 17:08:36","新北市新莊區三和路12-13號","121.442123333333","25.03716","6500500","新莊區"
"242041","497-BY","2017/08/25 17:08:40","新北市新莊區新泰路357巷3弄57號","121.442385","25.0393516666667","6500500","新莊區"
"242002","442-UM","2017/08/25 17:08:36","新北市新莊區三和路12-21號","121.442023333333","25.0387666666667","6500500","新莊區"
"242046","441-UM","2017/08/25 17:08:34","新北市新莊區新泰路357巷3弄1號","121.4424","25.0413566666667","6500500","新莊區"
"242050","440-UM","2017/08/25 17:08:38","新北市新莊區新泰路357巷3弄1號","121.442445","25.0414033333333","6500500","新莊區"
"242032","415-TV","2017/08/25 17:08:39","新北市新莊區新泰路357巷3弄57號","121.442128333333","25.0393183333333","6500500","新莊區"
"242004","132-UY","2017/08/25 17:08:42","新北市新莊區新泰路255巷83號","121.442116666667","25.0389033333333","6500500","新莊區"
"242034","133-UY","2017/08/25 17:08:31","新北市新莊區三和路12-10號","121.44234","25.0367533333333","6500500","新莊區"
"242019","135-UY","2017/08/25 17:08:49","新北市新莊區新泰路255巷83號","121.44217","25.0388483333333","6500500","新莊區"
"242007","173-VK","2017/08/25 14:40:21","新北市新莊區新泰路357巷2-2號","121.442038333333","25.041055","6500500","新莊區"
"242013","175-VK","2017/08/25 17:08:44","新北市新莊區三和路12-21號","121.44196","25.038805","6500500","新莊區"
"242056","176-VK","2017/08/25 17:08:44","新北市新莊區新泰路357巷3弄57號","121.441943333333","25.039035","6500500","新莊區"
"242011","346-TH","2017/08/25 17:08:36","新北市新莊區三和路12-16號","121.441993333333","25.0374333333333","6500500","新莊區"
"242044","347-TH","2017/08/25 17:08:47","新北市新莊區中正路402號","121.441455","25.0338483333333","6500500","新莊區"
"242017","348-TH","2017/08/25 17:08:42","新北市新莊區新泰路357巷3弄57號","121.442043333333","25.03953","6500500","新莊區"
"242054","349-TH","2017/08/25 17:08:44","新北市新莊區三和路12-15號","121.44184","25.03736","6500500","新莊區"
"242015","350-TH","2017/08/25 17:08:49","新北市新莊區新泰路255巷83號","121.442056666667","25.03887","6500500","新莊區"
"242009","351-TH","2017/08/25 17:08:48","新北市新莊區新泰路357巷3弄57號","121.442043333333","25.039525","6500500","新莊區"
"238015","755-BX","2017/08/25 17:08:40","新北市樹林區育德街78-1號","121.387956666667","24.9680233333333","6500700","樹林區"
"238023","601-UM","2017/08/25 17:08:46","新北市樹林區八德街1146號","121.390925","24.9684433333333","6500700","樹林區"
"238019","599-UM","2017/08/25 17:08:42","新北市樹林區八德街1160號","121.390528333333","24.9683416666667","6500700","樹林區"
"238018","571-TV","2017/08/25 17:08:54","新北市樹林區八德街1022號","121.391128333333","24.968475","6500700","樹林區"
"238024","5061-A6","2017/08/25 17:08:37","新北市樹林區環河路600-1號","121.403863333333","24.969325","6500700","樹林區"
"238022","312-TH","2017/08/25 17:07:25","新北市樹林區八德街224號","121.41549","24.9717566666667","6500700","樹林區"
"238021","311-TH","2017/08/24 20:30:59","新北市樹林區柑園街二段3號","121.388256666667","24.955455","6500700","樹林區"
"238025","303-VK","2017/08/25 17:08:42","新北市樹林區八德街1152號","121.39072","24.9683883333333","6500700","樹林區"
"238017","283-BY","2017/08/25 17:08:40","新北市樹林區育德街113號","121.389695","24.968205","6500700","樹林區"
"238014","282-BY","2017/08/25 17:08:43","新北市樹林區八德街1172號","121.39002","24.9682666666667","6500700","樹林區"
"238020","268-VK","2017/08/24 19:50:33","新北市樹林區樹新路122號","121.430186666667","24.9984466666667","6500700","樹林區"
"238026","172-UY","2017/08/25 17:08:32","新北市樹林區育德街78-1號","121.388506666667","24.9676516666667","6500700","樹林區"
"238016","169-UY","2017/08/25 17:08:38","新北市樹林區育德街113號","121.389751666667","24.9682266666667","6500700","樹林區"
"239007","AAC-297","2017/08/25 17:08:47","新北市鶯歌區行政路48號","121.353143333333","24.9560283333333","6500800","鶯歌區"
"239006","891-R6","2017/08/25 17:08:37","新北市鶯歌區八德路2巷37弄10號","121.337143333333","24.9464933333333","6500800","鶯歌區"
"239008","527-UM","2017/08/25 17:08:47","新北市鶯歌區中正二路3號","121.351936666667","24.9515283333333","6500800","鶯歌區"
"239005","526-UM","2017/08/25 17:08:53","新北市鶯歌區德昌街5-1號","121.333716666667","24.9605683333333","6500800","鶯歌區"
"239001","417-VK","2017/08/25 17:08:46","新北市鶯歌區尖山路144-1號","121.346705","24.9486883333333","6500800","鶯歌區"
"239003","360-BY","2017/08/25 17:08:35","新北市鶯歌區德昌二街70巷32弄85號","121.329665","24.9575766666667","6500800","鶯歌區"
"239002","359-BY","2017/08/25 17:08:36","新北市鶯歌區建國路280號","121.346035","24.9532216666667","6500800","鶯歌區"
"239004","193-VK","2017/08/25 17:08:41","新北市鶯歌區文化路300號","121.352423333333","24.9467916666667","6500800","鶯歌區"
