"lineid","car","time","location","longitude","latitude","cityid","cityname"
"234046","148-BY","2017/08/25 19:08:51","新北市永和區永元路18巷9號","121.523108333333","25.0002516666667","6500400","永和區"
"234013","149-BY","2017/08/25 19:09:04","新北市永和區中山路一段76號","121.512258333333","25.010805","6500400","永和區"
"234007","207-UY","2017/08/25 19:09:07","新北市永和區中山路一段326號","121.506346666667","25.0065666666667","6500400","永和區"
"234081","298-R6","2017/08/25 19:08:55","新北市永和區永貞路39巷11號","121.522095","25.0065816666667","6500400","永和區"
"234038","336-UY","2017/08/25 19:09:12","新北市永和區民樂街59巷7號","121.527975","24.9983","6500400","永和區"
"234064","337-UY","2017/08/25 19:09:12","新北市永和區秀朗路二段45號","121.521608333333","25.00232","6500400","永和區"
"234086","338-UY","2017/08/25 19:08:59","新北市永和區中正路500號","121.517516666667","25.004345","6500400","永和區"
"234070","552-UM","2017/08/25 19:09:08","新北市永和區豫溪街89號","121.518413333333","25.010055","6500400","永和區"
"234054","553-UM","2017/08/25 19:09:09","新北市永和區中興街133巷6號","121.518756666667","25.012685","6500400","永和區"
"234017","745-BX","2017/08/25 19:09:13","新北市永和區文化路90巷3弄2號","121.513808333333","25.015625","6500400","永和區"
"234061","AAD-866","2017/08/25 19:09:02","新北市永和區安樂路304巷7號","121.514528333333","25.0050983333333","6500400","永和區"
"234030","847-RS","2017/08/25 19:08:58","新北市永和區四維街78號","121.52342","24.998315","6500400","永和區"
"234042","862-TW","2017/08/25 19:09:12","新北市永和區永貞路307號","121.510588333333","25.0059316666667","6500400","永和區"
"234050","863-TW","2017/08/25 19:08:32","新北市永和區文化路135巷26弄1號","121.510648333333","25.0144333333333","6500400","永和區"
"234026","9371-KE","2017/08/25 19:09:02","新北市永和區安樂路453號","121.514328333333","25.0050383333333","6500400","永和區"
"234011","9373-KE","2017/08/25 19:08:51","新北市永和區中山路一段60巷8號","121.513115","25.0110833333333","6500400","永和區"
"249005","172-UM","2017/08/25 17:21:42","新北市五股區民義路二段132號","121.408595","25.1212183333333","6502300","八里區"
"249001","173-UM","2017/08/25 19:08:53","新北市八里區龍米路二段228-2號","121.432656666667","25.158375","6502300","八里區"
"248016","026-BX","2017/08/25 19:09:08","新北市五股區成泰路三段543巷30號","121.450605","25.1025316666667","6501500","五股區"
"248006","077-UY","2017/08/25 19:09:06","新北市五股區四維路112號","121.467683333333","25.0737933333333","6501500","五股區"
"248008","095-VK","2017/08/25 19:08:58","新北市五股區中興路一段118巷9號","121.465935","25.0738616666667","6501500","五股區"
"248018","225-UY","2017/08/25 19:08:55","新北市五股區民義路一段226號","121.428931666667","25.09052","6501500","五股區"
"248010","272-BY","2017/08/25 19:08:56","新北市五股區水碓一路23號","121.430581666667","25.07128","6501500","五股區"
"248004","677-BX","2017/08/25 19:08:53","新北市五股區六合街3號","121.431828333333","25.0886266666667","6501500","五股區"
"248002","678-BX","2017/08/25 19:09:08","新北市五股區凌雲路一段158巷6號","121.447815","25.10306","6501500","五股區"
"248012","682-TV","2017/08/25 19:09:01","新北市五股區中興路四段48巷16號","121.43862","25.0834016666667","6501500","五股區"
"234023","9380-KE","2017/08/25 19:09:02","新北市永和區中興街10巷11號","121.515575","25.0112683333333","6500400","永和區"
"234077","969-R7","2017/08/25 19:09:09","新北市永和區民權路48號","121.52015","24.99854","6500400","永和區"
"234074","AAC-211","2017/08/25 19:08:52","新北市永和區竹林路174號","121.520423333333","25.0100316666667","6500400","永和區"
"234067","AAC-212","2017/08/25 19:09:03","新北市永和區保平路39號","121.512038333333","25.0072416666667","6500400","永和區"
"234003","AAC-295","2017/08/25 19:08:54","新北市永和區保福路一段52號","121.5127","25.0094516666667","6500400","永和區"
"244019","403-UM","2017/08/25 19:09:05","新北市林口區麗園二街76號","121.381951666667","25.068105","6501700","林口區"
"244009","410-SL","2017/08/25 19:08:58","新北市林口區台電新村146號","121.38882","25.087745","6501700","林口區"
"244023","657-BX","2017/08/25 19:08:54","新北市林口區文化三路一段617巷181號","121.371388333333","25.0782066666667","6501700","林口區"
"244013","658-BX","2017/08/25 19:09:08","新北市林口區麗園二街1巷6-1號","121.377911666667","25.0704566666667","6501700","林口區"
"244011","701-TV","2017/08/25 19:09:13","新北市林口區中正路264巷11號","121.38896","25.0782633333333","6501700","林口區"
"243013","AAD-798","2017/08/25 19:08:59","新北市泰山區明志路三段277號","121.423176666667","25.0367366666667","6501600","泰山區"
"243009","297-R6","2017/08/25 19:09:12","新北市泰山區明志路一段117巷24號","121.43421","25.063405","6501600","泰山區"
"243015","380-SR","2017/08/25 19:09:09","新北市泰山區明志路一段366號","121.43078","25.057915","6501600","泰山區"
"243014","421-VK","2017/08/25 19:09:07","新北市泰山區泰林路二段396號","121.427815","25.06426","6501600","泰山區"
"243010","548-UM","2017/08/25 19:08:56","新北市泰山區仁愛路39巷27號","121.430901666667","25.0553666666667","6501600","泰山區"
"243011","549-UM","2017/08/25 19:08:58","新北市泰山區明志路二段368號","121.42554","25.0448183333333","6501600","泰山區"
"243016","680-BX","2017/08/25 19:09:10","新北市泰山區明志路二段373號","121.425208333333","25.0438983333333","6501600","泰山區"
"222003","436-BY","2017/08/25 19:08:53","新北市深坑區深南路142號","121.623","25.01406","6501800","深坑區"
"222002","659-BX","2017/08/25 19:09:12","新北市深坑區紅葉街61號","121.632273333333","25.0139216666667","6501800","深坑區"
"222001","696-SL","2017/08/25 19:08:58","新北市深坑區北深路一段300號","121.624271666667","25.0058133333333","6501800","深坑區"
"231059","001-UM","2017/08/25 19:09:02","新北市新店區安和路二段222號","121.517385","24.976065","6500600","新店區"
"231041","002-UM","2017/08/25 19:09:02","新北市新店區溪園路405號","121.524043333333","24.9781816666667","6500600","新店區"
"231061","047-UY","2017/08/25 19:09:05","新北市新店區安康路一段105號","121.528916666667","24.9615833333333","6500600","新店區"
"231060","106-UY","2017/08/25 19:09:08","新北市新店區安康路二段238號","121.509301666667","24.9591433333333","6500600","新店區"
"231051","107-UY","2017/08/25 19:09:05","新北市新店區環河路113-1號","121.530918333333","24.9711033333333","6500600","新店區"
"231048","108-UY","2017/08/25 19:09:01","新北市新店區德正街25巷9號","121.544666666667","24.9718666666667","6500600","新店區"
"231053","187-VK","2017/08/25 19:08:54","新北市新店區櫻花街31號","121.547423333333","24.9261233333333","6500600","新店區"
"231063","268-BY","2017/08/25 19:08:58","新北市新店區車子路121號","121.505261666667","24.9503266666667","6500600","新店區"
"231046","278-BY","2017/08/25 19:09:09","新北市新店區永業路81巷12號","121.531403333333","24.945715","6500600","新店區"
"231050","AAD-862","2017/08/25 19:08:59","新北市新店區竹林路2巷29弄1號","121.55009","24.95045","6500600","新店區"
"231058","3712-VJ","2017/08/25 19:09:04","新北市新店區檳榔路1號","121.541051666667","24.9651783333333","6500600","新店區"
"231056","4716-K9","2017/08/25 19:09:05","新北市新店區二十張路46巷37弄21號","121.535773333333","24.98165","6500600","新店區"
"231067","4772-VM","2017/08/25 19:09:07","新北市新店區安康路一段247巷25號","121.524648333333","24.9622966666667","6500600","新店區"
"231065","512-UM","2017/08/25 19:08:52","新北市新店區安祥路145巷27號","121.47537","24.95647","6500600","新店區"
"231054","513-UM","2017/08/25 19:09:08","新北市新店區新店路166號","121.537173333333","24.9557066666667","6500600","新店區"
"231042","616-UM","2017/08/25 19:09:00","新北市新店區中興路一段123號","121.541795","24.963085","6500600","新店區"
"231045","617-UM","2017/08/25 19:08:53","新北市新店區北宜路一段158號","121.540391666667","24.95352","6500600","新店區"
"231040","619-UM","2017/08/25 19:09:02","新北市新店區三民路98-3號","121.534053333333","24.9734166666667","6500600","新店區"
"231049","719-UM","2017/08/25 19:09:07","新北市新店區二十張路25巷18弄16號","121.539253333333","24.98158","6500600","新店區"
"231064","719-UY","2017/08/25 19:09:00","新北市新店區安忠路36號","121.514178333333","24.960855","6500600","新店區"
"231062","720-UM","2017/08/25 19:08:57","新北市新店區安平路20-4號","121.524583333333","24.9663716666667","6500600","新店區"
"231044","897-TW","2017/08/25 19:09:10","新北市新店區寶中路47-3號","121.545606666667","24.9794116666667","6500600","新店區"
"231043","899-TW","2017/08/25 19:09:14","新北市新店區寶橋路98號","121.546773333333","24.9758666666667","6500600","新店區"
"231066","AKT-0513","2017/08/25 19:09:14","新北市新店區安康路三段246號","121.487666666667","24.9517666666667","6500600","新店區"
"241026","066-VK","2017/08/25 19:08:56","新北市三重區泉州街63-2號","121.494675","25.05437","6500200","三重區"
"241020","413-TH","2017/08/25 19:09:05","新北市三重區忠孝路二段34號","121.485765","25.0709683333333","6500200","三重區"
"241035","743-BX","2017/08/25 19:09:10","新北市三重區捷運路36號","121.482796666667","25.0551116666667","6500200","三重區"
"241029","942-UM","2017/08/25 19:09:09","新北市三重區重安街75巷5號","121.491673333333","25.055825","6500200","三重區"
"235066","003-UY","2017/08/25 19:09:11","新北市中和區廣福路12-1號","121.505488333333","25.0028833333333","6500300","中和區"
"235063","006-UY","2017/08/25 19:08:52","新北市中和區連城路249號","121.492801666667","24.996685","6500300","中和區"
"235056","096-UM","2017/08/25 19:09:11","新北市中和區中正路1230號","121.479146666667","25.0110266666667","6500300","中和區"
"235039","097-UM","2017/08/25 19:09:13","新北市永和區民有街7號","121.516125","24.997045","6500300","中和區"
"235065","098-UM","2017/08/25 19:09:09","新北市中和區福祥路136號","121.498945","25.0069083333333","6500300","中和區"
"235040","150-BY","2017/08/25 19:09:10","新北市中和區保健路46巷1號","121.509866666667","24.997035","6500300","中和區"
"235058","151-BY","2017/08/25 19:08:59","新北市中和區員山路143巷6號","121.480676666667","24.9961316666667","6500300","中和區"
"235055","183-VK","2017/08/25 18:40:02","新北市中和區民生街85巷2弄2-2號","121.468875","25.0045966666667","6500300","中和區"
"235038","185-VK","2017/08/25 19:08:57","新北市中和區自強路64號","121.520095","24.9943833333333","6500300","中和區"
"235049","186-VK","2017/08/25 19:09:06","新北市中和區明仁街1號","121.505603333333","24.9956966666667","6500300","中和區"
"235067","255-BX","2017/08/25 19:09:10","新北市中和區新生街213號","121.483926666667","24.999655","6500300","中和區"
"235044","293-VK","2017/08/25 19:09:00","新北市中和區中興街161巷6弄1號","121.500768333333","24.9908833333333","6500300","中和區"
"235072","301-VK","2017/08/25 19:09:09","新北市中和區永和路39巷2號","121.498046666667","25.00499","6500300","中和區"
"235043","352-BY","2017/08/25 19:08:53","新北市中和區景平路116號","121.51949","24.99162","6500300","中和區"
"235051","376-QA","2017/08/25 19:08:52","新北市中和區興南路一段86號","121.510033333333","24.9893483333333","6500300","中和區"
"235068","377-QA","2017/08/25 19:09:10","新北市中和區圓通路175號","121.497521666667","24.9951","6500300","中和區"
"235061","378-QA","2017/08/25 19:09:12","新北市中和區民有街59號","121.476283333333","25.0035466666667","6500300","中和區"
"235050","4979-A6","2017/08/25 19:09:10","新北市中和區復興路280巷36弄10號","121.501616666667","24.9922133333333","6500300","中和區"
"235069","4980-A6","2017/08/25 19:09:03","新北市中和區中和路217巷16號","121.504685","25.0004016666667","6500300","中和區"
"235042","551-UM","2017/08/25 19:09:08","新北市中和區自立路119號","121.522071666667","24.9944133333333","6500300","中和區"
"235070","558-UM","2017/08/25 19:09:02","新北市中和區景安路58號","121.506363333333","24.9978083333333","6500300","中和區"
"235045","565-BX","2017/08/25 19:09:04","新北市中和區景新街467巷20弄9號","121.514651666667","24.987615","6500300","中和區"
"235054","640-BX","2017/08/25 19:09:07","新北市中和區國光街6巷2號","121.472013333333","25.00029","6500300","中和區"
"235060","647-TV","2017/08/25 19:08:52","新北市中和區民享街87號","121.474261666667","25.0014983333333","6500300","中和區"
"235047","732-UM","2017/08/25 19:09:12","新北市中和區興南路一段63-6號","121.510373333333","24.98958","6500300","中和區"
"235046","733-UM","2017/08/25 19:09:01","新北市中和區忠孝街1巷86號","121.508203333333","24.985065","6500300","中和區"
"235057","801-TS","2017/08/25 19:08:55","新北市中和區民利街100巷2弄1號","121.477338333333","24.9981016666667","6500300","中和區"
"235041","802-TS","2017/08/25 19:09:02","新北市中和區宜安路118巷20號","121.510818333333","24.9986716666667","6500300","中和區"
"235052","805-TS","2017/08/25 19:09:03","新北市中和區興南路二段142巷21號","121.50318","24.9835833333333","6500300","中和區"
"235048","896-TW","2017/08/25 19:09:07","新北市中和區華新街143巷55弄30號","121.507845","24.980205","6500300","中和區"
"235053","900-TW","2017/08/25 19:09:12","新北市板橋區和平路174巷1弄8號","121.464446666667","24.9951866666667","6500300","中和區"
"235064","911-UM","2017/08/25 19:09:03","新北市中和區泰和街44巷1號","121.498688333333","25.0001766666667","6500300","中和區"
"235037","AAC-213","2017/08/25 19:09:04","新北市中和區秀朗路三段128巷29號","121.524731666667","24.9942466666667","6500300","中和區"
"235059","AAC-215","2017/08/25 19:08:52","新北市中和區圓通路294巷17-5號","121.488615","24.9904033333333","6500300","中和區"
"220068","013-TV","2017/08/25 19:09:12","新北市板橋區翠華街6巷4號","121.480453333333","25.0239483333333","6500100","板橋區"
"220065","072-UY","2017/08/25 19:09:00","新北市板橋區民族路247巷7弄33號","121.470648333333","25.0082283333333","6500100","板橋區"
"220086","073-UY","2017/08/25 19:09:13","新北市板橋區中正路250巷78號","121.458511666667","25.019805","6500100","板橋區"
"220106","075-UY","2017/08/25 19:08:58","新北市板橋區文化路二段315號","121.472095","25.0297116666667","6500100","板橋區"
"220069","AAD-861","2017/08/25 19:08:59","新北市板橋區館前西路49號","121.457791666667","25.0065066666667","6500100","板橋區"
"220102","120-SR","2017/08/25 19:08:53","新北市板橋區萬板路818巷5號","121.482888333333","25.0270183333333","6500100","板橋區"
"247016","335-TH","2017/08/25 15:46:43","新北市五股區中興路三段2巷10號","121.449315","25.0811733333333","6501400","蘆洲區"
"226004","205-ST","2017/08/25 19:09:11","新北市平溪區靜安路三段132號","121.774403333333","25.03803","6502400","平溪區"
"228003","097-TW","2017/08/25 19:09:02","新北市貢寮區和美里和美街32-7號","121.913108333333","25.0844216666667","6502600","貢寮區"
"228002","663-BX","2017/08/25 19:08:58","新北市貢寮區福隆里福隆街36號","121.945135","25.01745","6502600","貢寮區"
"228001","670-TC","2017/08/25 19:09:04","新北市貢寮區真理里新港街10號","121.92551","25.0543516666667","6502600","貢寮區"
"224006","676-BX","2017/08/25 19:08:54","新北市瑞芳區三爪子坑路106巷1-2號","121.808065","25.1048933333333","6501200","瑞芳區"
"224009","285-BY","2017/08/25 19:08:55","新北市瑞芳區長仁路40號","121.863995","25.11749","6501200","瑞芳區"
"224008","275-VK","2017/08/25 19:08:52","新北市瑞芳區一坑路35號","121.802905","25.1082233333333","6501200","瑞芳區"
"224005","271-BY","2017/08/25 19:09:08","新北市瑞芳區三爪子坑路91巷2號","121.811571666667","25.1073766666667","6501200","瑞芳區"
"227003","642-TC","2017/08/25 19:09:02","新北市雙溪區平林里外平林10-6號","121.859056666667","25.0382983333333","6502500","雙溪區"
"227011","400-TW","2017/08/25 19:08:58","新北市雙溪區牡丹里自強路20號","121.865106666667","25.0392866666667","6502500","雙溪區"
"253006","032-BX","2017/08/25 19:09:04","新北市石門區海灣新城40號","121.527826666667","25.2852283333333","6502200","石門區"
"253005","295-VK","2017/08/25 19:09:04","新北市石門區阿里荖41-1號","121.604663333333","25.2841833333333","6502200","石門區"
"208002","742-BX","2017/08/25 19:08:56","新北市金山區中正路67號","121.633891666667","25.2217166666667","6502700","金山區"
"208003","665-BX","2017/08/25 19:09:03","新北市金山區中正路120號","121.632468333333","25.22157","6502700","金山區"
"208001","761-BX","2017/08/25 19:08:58","新北市金山區福德街14號","121.63928","25.2217716666667","6502700","金山區"
"251005","010-UM","2017/08/25 19:08:53","新北市淡水區原德路11號","121.442123333333","25.1712383333333","6501000","淡水區"
"251002","012-UM","2017/08/25 19:09:05","新北市淡水區中山路77號","121.44273","25.170485","6501000","淡水區"
"251013","180-VK","2017/08/25 19:09:08","新北市淡水區安子內12號","121.48153","25.219105","6501000","淡水區"
"251008","181-VK","2017/08/25 19:09:04","新北市淡水區崁頂131號","121.431693333333","25.20531","6501000","淡水區"
"251015","182-VK","2017/08/25 19:08:48","新北市淡水區南勢埔47巷27號","121.484176666667","25.17849","6501000","淡水區"
"251010","413-VK","2017/08/25 19:09:02","新北市淡水區中正路一段156巷3號","121.421131666667","25.1803233333333","6501000","淡水區"
"251012","441-VK","2017/08/25 19:09:12","新北市淡水區崁頂78-5號","121.429438333333","25.20709","6501000","淡水區"
"251001","559-UM","2017/08/25 19:09:05","新北市淡水區民權路94巷1號","121.4631","25.1251266666667","6501000","淡水區"
"251009","575-R6","2017/08/25 19:08:46","新北市淡水區中正路8巷27號","121.441535","25.1702616666667","6501000","淡水區"
"251007","577-R6","2017/08/25 19:09:10","新北市淡水區民生路117巷15號","121.4649","25.1392333333333","6501000","淡水區"
"251011","650-BX","2017/08/25 19:08:56","新北市淡水區中正東路二段143巷2弄1號","121.460755","25.14736","6501000","淡水區"
"251003","673-BX","2017/08/25 19:08:58","新北市淡水區水碓街15-1號","121.443221666667","25.17726","6501000","淡水區"
"207003","550-UM","2017/08/25 19:08:56","新北市萬里區大鵬里萬里加投24-2號","121.649121666667","25.207285","6502800","萬里區"
"207004","225-TW","2017/08/25 19:09:06","新北市萬里區萬里里瑪鋉下街52號","121.69161","25.1795133333333","6502800","萬里區"
"252002","178-VK","2017/08/25 19:08:54","新北市三芝區中正路一段3號","121.502716666667","25.259045","6502100","三芝區"
"252003","249-BX","2017/08/25 19:09:08","新北市三芝區古庄里四棧橋24-5號","121.487161666667","25.2619233333333","6502100","三芝區"
"252001","702-TV","2017/08/25 19:09:02","新北市三芝區長勤街82號","121.5003","25.255045","6502100","三芝區"
"237004","078-UY","2017/08/25 19:08:58","新北市三峽區有木205-1號","121.439046666667","24.8515","6500900","三峽區"
"237007","153-BY","2017/08/25 19:09:08","新北市三峽區中正路二段42巷84號","121.364268333333","24.9205716666667","6500900","三峽區"
"237013","252-BX","2017/08/25 19:09:07","新北市三峽區光明路69巷25號","121.376786666667","24.929235","6500900","三峽區"
"237012","275-BY","2017/08/25 19:09:12","新北市三峽區三樹路222巷228弄9號","121.391518333333","24.9425066666667","6500900","三峽區"
"237008","302-VK","2017/08/25 19:08:55","新北市三峽區大同路127號","121.374013333333","24.926775","6500900","三峽區"
"237014","433-BY","2017/08/25 19:09:13","新北市三峽區中山路257巷37號","121.362163333333","24.9363183333333","6500900","三峽區"
"237006","5529-G3","2017/08/25 19:09:08","新北市三峽區橫溪路99巷20號","121.400385","24.9361816666667","6500900","三峽區"
"237011","572-TV","2017/08/25 19:08:55","新北市三峽區中正路一段348號","121.371245","24.92442","6500900","三峽區"
"237015","649-BX","2017/08/25 19:09:04","新北市三峽區建安50號","121.446801666667","24.927135","6500900","三峽區"
"237010","706-TV","2017/08/25 19:09:04","新北市三峽區復興路73號","121.372785","24.9374833333333","6500900","三峽區"
"237005","AKY-6261","2017/08/25 19:08:58","新北市三峽區中山路459巷163-3號","121.34866","24.9329066666667","6500900","三峽區"
"236072","105-UM","2017/08/25 19:09:12","新北市土城區裕生路84巷2號","121.447271666667","24.985395","6501300","土城區"
"236043","107-UM","2017/08/25 19:09:09","新北市土城區學府路一段276號","121.449913333333","24.9829716666667","6501300","土城區"
"236079","166-UM","2017/08/25 19:09:09","新北市土城區中央路四段464號","121.409795","24.950365","6501300","土城區"
"236027","269-VK","2017/08/25 19:09:09","新北市土城區中正路56巷2號","121.443796666667","24.9753566666667","6501300","土城區"
"236039","271-VK","2017/08/25 19:09:09","新北市土城區仁愛路17巷2號","121.460651666667","24.9804583333333","6501300","土城區"
"236022","401-BY","2017/08/25 19:08:56","新北市土城區延峰街36巷2號","121.46963","24.9847366666667","6501300","土城區"
"236015","752-BX","2017/08/25 19:08:55","新北市土城區學府路一段75巷10號","121.457053333333","24.9879083333333","6501300","土城區"
"236059","912-UM","2017/08/25 19:09:04","新北市土城區金城路二段252號","121.45717","24.983505","6501300","土城區"
"236050","913-UM","2017/08/25 19:08:57","新北市土城區明德路一段398-1號","121.453656666667","24.97907","6501300","土城區"
"236055","AAC-216","2017/08/25 19:09:08","新北市土城區學府路一段246號","121.45164","24.9846233333333","6501300","土城區"
"242046","441-UM","2017/08/25 19:08:54","新北市樹林區八德街395號","121.41557","24.971385","6500500","新莊區"
"238015","755-BX","2017/08/25 19:09:09","新北市樹林區備內街158巷31號","121.408273333333","24.9899416666667","6500700","樹林區"
"238023","601-UM","2017/08/25 19:09:06","新北市樹林區大慶街124號","121.396076666667","25.0135333333333","6500700","樹林區"
"238019","599-UM","2017/08/25 19:08:58","新北市樹林區東榮街115號","121.415225","24.9820483333333","6500700","樹林區"
"238018","571-TV","2017/08/25 19:08:55","新北市樹林區中華路211號","121.419816666667","24.9815016666667","6500700","樹林區"
"238022","312-TH","2017/08/25 19:08:52","新北市樹林區中山路二段151巷12號","121.406855","24.9782633333333","6500700","樹林區"
"238021","311-TH","2017/08/25 19:09:00","新北市樹林區柑園街二段276巷26號","121.37246","24.9533633333333","6500700","樹林區"
"238025","303-VK","2017/08/25 19:09:02","新北市樹林區中山路三段125-1號","121.397158333333","24.973455","6500700","樹林區"
"238017","283-BY","2017/08/25 19:09:00","新北市樹林區光興街44號","121.409893333333","25.0026966666667","6500700","樹林區"
"238014","282-BY","2017/08/25 19:09:02","新北市樹林區千歲街134巷7號","121.427558333333","24.99846","6500700","樹林區"
"238020","268-VK","2017/08/24 19:50:33","新北市樹林區樹新路122號","121.430186666667","24.9984466666667","6500700","樹林區"
"238026","172-UY","2017/08/25 19:09:12","新北市樹林區地政街41號","121.394915","24.9717716666667","6500700","樹林區"
"238016","169-UY","2017/08/25 19:09:01","新北市樹林區復興路335巷6弄16號","121.417831666667","24.9873316666667","6500700","樹林區"
"239007","AAC-297","2017/08/25 19:09:06","新北市鶯歌區大湖路余厝巷11號","121.34189","24.9613616666667","6500800","鶯歌區"
"239006","891-R6","2017/08/25 19:08:57","新北市鶯歌區鶯桃路91巷42弄2號","121.33695","24.9520666666667","6500800","鶯歌區"
"239008","527-UM","2017/08/25 19:09:07","新北市鶯歌區大湖路530巷31號","121.337998333333","24.973335","6500800","鶯歌區"
"239005","526-UM","2017/08/25 19:08:53","新北市鶯歌區三界公坑2號","121.352648333333","24.9704133333333","6500800","鶯歌區"
"239003","360-BY","2017/08/25 19:09:09","新北市鶯歌區八德路3-7號","121.338511666667","24.9483533333333","6500800","鶯歌區"
"239002","359-BY","2017/08/25 19:08:56","新北市鶯歌區大湖路金包珠巷1號","121.344786666667","24.9734666666667","6500800","鶯歌區"
"239004","193-VK","2017/08/25 19:09:01","新北市鶯歌區中正三路256-2號","121.329515","24.93635","6500800","鶯歌區"
"221008","489-VK","2017/08/25 19:09:07","新北市汐止區康寧街426號","121.63074","25.0680866666667","6501100","汐止區"
"221036","130-UY","2017/08/25 19:09:04","新北市汐止區汐萬路一段302號","121.650518333333","25.0745916666667","6501100","汐止區"
"221015","131-UY","2017/08/25 19:09:10","新北市汐止區康寧街901號","121.65156","25.07488","6501100","汐止區"
"221010","269-BY","2017/08/25 19:08:52","新北市汐止區康寧街901號","121.651396666667","25.0750183333333","6501100","汐止區"
"221031","277-VK","2017/08/25 19:09:06","新北市汐止區福德二路156巷14號","121.629946666667","25.0657966666667","6501100","汐止區"
"221012","278-VK","2017/08/25 19:09:01","新北市汐止區康寧街901號","121.650818333333","25.07533","6501100","汐止區"
"221023","279-VK","2017/08/25 19:09:08","新北市汐止區康寧街901號","121.651023333333","25.0751416666667","6501100","汐止區"
"221027","281-BY","2017/08/25 19:08:53","新北市汐止區康寧街901號","121.65091","25.0752583333333","6501100","汐止區"
"221038","297-VK","2017/08/25 19:08:58","新北市汐止區汐萬路一段312號","121.650691666667","25.0752883333333","6501100","汐止區"
"221029","298-VK","2017/08/25 19:09:00","新北市汐止區汐萬路一段256巷3號","121.652526666667","25.0745783333333","6501100","汐止區"
"221021","299-VK","2017/08/25 19:09:08","新北市汐止區康寧街901號","121.651403333333","25.07498","6501100","汐止區"
"221025","623-UM","2017/08/25 19:08:56","新北市汐止區康寧街901號","121.651568333333","25.07499","6501100","汐止區"
"221033","647-BX","2017/08/25 19:09:09","新北市汐止區南勢街1巷1號","121.62701","25.0374466666667","6501100","汐止區"
"221002","707-TV","2017/08/25 19:08:59","新北市汐止區大同路一段52號","121.622605","25.05484","6501100","汐止區"
"221018","753-BX","2017/08/25 19:09:08","新北市汐止區康寧街901號","121.651593333333","25.0749733333333","6501100","汐止區"
"220079","145-BY","2017/08/25 19:09:06","新北市板橋區民權路260巷62號","121.460238333333","25.01497","6500100","板橋區"
"220080","200-UY","2017/08/25 19:09:05","新北市板橋區大觀路二段19巷95號","121.449736666667","25.002865","6500100","板橋區"
"220082","610-BX","2017/08/25 19:09:07","新北市樹林區博愛街115號","121.42653","24.9907816666667","6500100","板橋區"
"220101","245-BX","2017/08/25 19:09:03","新北市板橋區民生路二段226巷10弄22號","121.470833333333","25.02146","6500100","板橋區"
"220056","276-BY","2017/08/25 19:09:03","新北市板橋區信義路74巷3弄1號","121.457036666667","24.993015","6500100","板橋區"
"220072","277-BY","2017/08/25 19:09:12","新北市板橋區金門街369巷57弄11號","121.429498333333","24.9840883333333","6500100","板橋區"
"220094","283-UM","2017/08/25 19:09:08","新北市板橋區光武街127巷1號","121.466026666667","25.02866","6500100","板橋區"
"220071","283-VK","2017/08/25 19:09:04","新北市板橋區重慶路223巷5號","121.463216666667","25.0013183333333","6500100","板橋區"
"220053","285-VK","2017/08/25 19:09:09","新北市板橋區懷仁街37-4號","121.476661666667","25.019465","6500100","板橋區"
"220081","287-VK","2017/08/25 19:09:09","新北市板橋區南雅西路二段156巷7號","121.452255","25.0133716666667","6500100","板橋區"
"220090","288-VK","2017/08/25 19:09:11","新北市板橋區裕民街31號","121.4618","25.0288283333333","6500100","板橋區"
"220061","293-UM","2017/08/25 19:09:00","新北市板橋區懷仁街93號","121.477558333333","25.0181133333333","6500100","板橋區"
"220062","295-UM","2017/08/25 19:09:07","新北市板橋區三民路二段245巷83號","121.481431666667","25.0125883333333","6500100","板橋區"
"220084","296-UM","2017/08/25 19:09:00","新北市板橋區大觀路三段229號","121.430756666667","24.9921833333333","6500100","板橋區"
"220075","297-UM","2017/08/25 19:09:08","新北市板橋區南雅南路一段1巷25號","121.457268333333","25.006645","6500100","板橋區"
"220092","307-R5","2017/08/25 19:09:05","新北市板橋區文化路一段318號","121.467638333333","25.0220783333333","6500100","板橋區"
"220098","317-R6","2017/08/25 19:08:59","新北市板橋區自由路51巷11號","121.46493","25.0233716666667","6500100","板橋區"
"220064","486-VK","2017/08/25 19:08:58","新北市板橋區民生路一段33號","121.476228333333","25.0119083333333","6500100","板橋區"
"220089","487-VK","2017/08/25 19:09:06","新北市板橋區文化路二段472號","121.475033333333","25.0327383333333","6500100","板橋區"
"220088","491-VK","2017/08/25 19:09:04","新北市板橋區文化路二段182巷1弄12號","121.471448333333","25.0277116666667","6500100","板橋區"
"220035","560-BX","2017/08/25 19:09:11","新北市板橋區中正路379巷32號","121.453248333333","25.022055","6500100","板橋區"
"220103","561-BX","2017/08/25 19:08:56","新北市板橋區文化路一段188巷9弄114號","121.468688333333","25.0193433333333","6500100","板橋區"
"220063","609-BX","2017/08/25 19:09:13","新北市板橋區三民路二段228號","121.478763333333","25.01145","6500100","板橋區"
"220083","630-UY","2017/08/25 19:09:12","新北市板橋區龍興街99巷15號","121.443503333333","25.00318","6500100","板橋區"
"220091","637-BX","2017/08/25 19:09:09","新北市板橋區萬板路710號","121.48189","25.027055","6500100","板橋區"
"220057","686-BX","2017/08/25 19:09:12","新北市板橋區重慶路207號","121.462943333333","25.00159","6500100","板橋區"
"220077","687-BX","2017/08/25 19:09:05","新北市板橋區大觀路一段61號","121.447468333333","25.0057133333333","6500100","板橋區"
"220093","689-BX","2017/08/25 19:09:09","新北市板橋區民生路三段261號","121.464388333333","25.0294883333333","6500100","板橋區"
"220054","741-BX","2017/08/25 19:09:01","新北市板橋區重慶路95號","121.462135","25.0057783333333","6500100","板橋區"
"220055","827-TW","2017/08/25 19:09:12","新北市板橋區中山路一段120號","121.463168333333","25.0107716666667","6500100","板橋區"
"220067","829-TW","2017/08/25 19:09:06","新北市板橋區三民路二段正隆巷50號","121.476803333333","25.0140383333333","6500100","板橋區"
"220096","831-TW","2017/08/25 19:09:08","新北市板橋區雙十路二段37-1號","121.476895","25.0257916666667","6500100","板橋區"
"220074","895-R6","2017/08/25 19:08:53","新北市板橋區中正路43號","121.45629","25.0133","6500100","板橋區"
"220073","985-R7","2017/08/25 19:09:14","新北市板橋區中正路225號","121.456033333333","25.0178333333333","6500100","板橋區"
"220097","AAC-210","2017/08/25 19:09:13","新北市板橋區新生街89巷2號","121.458291666667","25.0223716666667","6500100","板橋區"
"220070","AAC-253","2017/08/25 19:09:03","新北市板橋區四川路一段253號","121.459801666667","25.0025033333333","6500100","板橋區"
