"lineid","car","time","location","longitude","latitude","cityid","cityname"
"234046","148-BY","2017/08/25 19:19:11","新北市永和區得和路373巷6弄1號","121.524833333333","24.9998633333333","6500400","永和區"
"234013","149-BY","2017/08/25 19:19:03","新北市永和區信義路77號","121.512476666667","25.0132883333333","6500400","永和區"
"234007","207-UY","2017/08/25 19:19:07","新北市永和區中山路一段240號","121.507536666667","25.007675","6500400","永和區"
"234081","298-R6","2017/08/25 19:18:56","新北市永和區福和路7巷15弄1號","121.525536666667","25.0069583333333","6500400","永和區"
"234038","336-UY","2017/08/25 19:18:55","新北市永和區民樂街41巷1號","121.527496666667","25.00015","6500400","永和區"
"234064","337-UY","2017/08/25 19:18:52","新北市永和區永元路17巷6弄2號","121.52135","25.0006866666667","6500400","永和區"
"234086","338-UY","2017/08/25 19:18:59","新北市永和區永利路37號","121.51877","25.005605","6500400","永和區"
"234070","552-UM","2017/08/25 19:18:51","新北市永和區中正路666巷57號","121.518973333333","25.0091166666667","6500400","永和區"
"234054","553-UM","2017/08/25 19:19:06","新北市永和區中興街20號","121.516141666667","25.0118316666667","6500400","永和區"
"234017","745-BX","2017/08/25 19:19:01","新北市永和區文化路144巷31弄14號","121.512146666667","25.0168583333333","6500400","永和區"
"234061","AAD-866","2017/08/25 19:19:02","新北市永和區秀朗路一段175號","121.517","25.0037616666667","6500400","永和區"
"234030","847-RS","2017/08/25 19:18:58","新北市永和區厚德街14號","121.52581","24.9979483333333","6500400","永和區"
"234042","862-TW","2017/08/25 19:18:52","新北市永和區保平路151巷2弄6-3號","121.509618333333","25.0052583333333","6500400","永和區"
"234050","863-TW","2017/08/25 19:18:51","新北市永和區仁愛路104巷10號","121.512091666667","25.013645","6500400","永和區"
"234026","9371-KE","2017/08/25 19:19:02","新北市永和區安樂路218號","121.514983333333","25.0021316666667","6500400","永和區"
"234011","9373-KE","2017/08/25 19:18:51","新北市永和區保福路二段9巷9號","121.510563333333","25.010925","6500400","永和區"
"249005","172-UM","2017/08/25 17:21:42","新北市五股區民義路二段132號","121.408595","25.1212183333333","6502300","八里區"
"249001","173-UM","2017/08/25 19:18:53","新北市八里區中華路一段407號","121.410725","25.1527783333333","6502300","八里區"
"249003","593-UM","2017/08/25 19:19:01","新北市八里區中山路二段452號","121.399196666667","25.1478533333333","6502300","八里區"
"248018","225-UY","2017/08/25 19:18:55","新北市五股區壟路1-4號","121.419155","25.095885","6501500","五股區"
"248010","272-BY","2017/08/25 19:18:56","新北市五股區水碓一路23號","121.430595","25.0712883333333","6501500","五股區"
"248004","677-BX","2017/08/25 19:18:53","新北市五股區五福路49號","121.43302","25.0896416666667","6501500","五股區"
"248002","678-BX","2017/08/25 19:19:08","新北市五股區凌雲路一段158巷6號","121.447801666667","25.1030566666667","6501500","五股區"
"248012","682-TV","2017/08/25 19:19:01","新北市五股區中興路四段48巷16號","121.43863","25.0834333333333","6501500","五股區"
"234023","9380-KE","2017/08/25 19:19:06","新北市永和區竹林路91巷12號","121.52015","25.01222","6500400","永和區"
"234077","969-R7","2017/08/25 19:19:09","新北市永和區民族街40號","121.518496666667","24.998955","6500400","永和區"
"234074","AAC-211","2017/08/25 19:18:52","新北市永和區永和路二段254號","121.516221666667","25.0148633333333","6500400","永和區"
"234067","AAC-212","2017/08/25 19:19:03","新北市永和區保平路32號","121.511856666667","25.0072133333333","6500400","永和區"
"234003","AAC-295","2017/08/25 19:18:54","新北市永和區中山路一段105號","121.510965","25.0103383333333","6500400","永和區"
"244019","403-UM","2017/08/25 19:19:05","新北市林口區麗園二街1巷9-1號","121.378958333333","25.0701316666667","6501700","林口區"
"244023","657-BX","2017/08/25 19:18:54","新北市林口區民富街206號","121.371566666667","25.0760933333333","6501700","林口區"
"244013","658-BX","2017/08/25 19:19:08","新北市林口區麗園一街4巷1號","121.376443333333","25.0712266666667","6501700","林口區"
"244011","701-TV","2017/08/25 19:18:53","新北市林口區湖南里70-9號","121.375915","25.0896983333333","6501700","林口區"
"243013","AAD-798","2017/08/25 19:18:59","新北市泰山區明志路三段161號","121.424781666667","25.0395516666667","6501600","泰山區"
"243009","297-R6","2017/08/25 19:18:52","新北市泰山區和平街13巷8號","121.434398333333","25.0648366666667","6501600","泰山區"
"243015","380-SR","2017/08/25 19:18:49","新北市泰山區公園路71號","121.426311666667","25.0554333333333","6501600","泰山區"
"243014","421-VK","2017/08/25 19:19:06","新北市泰山區泰林路二段85號","121.434863333333","25.0587283333333","6501600","泰山區"
"243010","548-UM","2017/08/25 19:18:55","新北市泰山區明志路一段494號","121.430321666667","25.054645","6501600","泰山區"
"243011","549-UM","2017/08/25 19:18:58","新北市泰山區中央路11巷5號","121.426378333333","25.0427333333333","6501600","泰山區"
"243016","680-BX","2017/08/25 19:18:51","新北市泰山區工專路8號","121.42395","25.0395033333333","6501600","泰山區"
"222003","436-BY","2017/08/25 19:18:53","新北市深坑區深南路204號","121.626686666667","25.01603","6501800","深坑區"
"222002","659-BX","2017/08/25 19:18:52","新北市深坑區北深路一段177號","121.632571666667","25.010905","6501800","深坑區"
"222001","696-SL","2017/08/25 19:18:58","新北市深坑區北深路二段82號","121.617555","25.00355","6501800","深坑區"
"231059","001-UM","2017/08/25 19:19:02","新北市新店區安和路三段4巷1-3號","121.518193333333","24.9805383333333","6500600","新店區"
"231041","002-UM","2017/08/25 19:19:02","新北市新店區溪園路247號","121.525196666667","24.9831083333333","6500600","新店區"
"231061","047-UY","2017/08/25 19:19:05","新北市新店區安康路一段222號","121.523811666667","24.9635266666667","6500600","新店區"
"231060","106-UY","2017/08/25 19:19:07","新北市新店區安康路二段138號","121.512498333333","24.96186","6500600","新店區"
"231051","107-UY","2017/08/25 19:18:37","新北市新店區安華路28-1號","121.519371666667","24.961265","6500600","新店區"
"231048","108-UY","2017/08/25 19:19:01","新北市新店區中興路二段25號","121.546061666667","24.9694616666667","6500600","新店區"
"231053","187-VK","2017/08/25 19:18:54","新北市新店區屈尺路55-2號","121.545978333333","24.9226033333333","6500600","新店區"
"231063","268-BY","2017/08/25 19:18:58","新北市新店區達觀路10號","121.503523333333","24.94361","6500600","新店區"
"231046","278-BY","2017/08/25 19:19:09","新北市新店區華城路6號","121.530205","24.9604283333333","6500600","新店區"
"231050","AAD-862","2017/08/25 19:18:59","新北市新店區竹林路97巷17號","121.554613333333","24.9494","6500600","新店區"
"231058","3712-VJ","2017/08/25 19:19:04","新北市新店區光明街286巷21號","121.541131666667","24.96341","6500600","新店區"
"231065","512-UM","2017/08/25 19:18:52","新北市新店區安祥路110巷19號","121.473788333333","24.9560533333333","6500600","新店區"
"231054","513-UM","2017/08/25 19:19:07","新北市新店區國校路25號","121.537951666667","24.95623","6500600","新店區"
"231042","616-UM","2017/08/25 19:19:00","新北市新店區北宜路一段3號","121.538641666667","24.9585033333333","6500600","新店區"
"231045","617-UM","2017/08/25 19:18:53","新北市新店區北宜路一段260號","121.545716666667","24.9527716666667","6500600","新店區"
"231040","619-UM","2017/08/25 19:19:02","新北市新店區三民路24號","121.537108333333","24.97103","6500600","新店區"
"231049","719-UM","2017/08/25 19:19:07","新北市新店區明德路64號","121.541546666667","24.9794466666667","6500600","新店區"
"231064","719-UY","2017/08/25 19:19:00","新北市新店區安忠路86-3號","121.511828333333","24.958415","6500600","新店區"
"231062","720-UM","2017/08/25 19:18:58","新北市新店區莒光路61巷1號","121.52349","24.9583966666667","6500600","新店區"
"231044","897-TW","2017/08/25 19:18:56","新北市新店區中興路三段298號","121.542466666667","24.9850133333333","6500600","新店區"
"231043","899-TW","2017/08/25 19:18:58","新北市新店區北新路二段108號","121.54302","24.9743766666667","6500600","新店區"
"231066","AKT-0513","2017/08/25 19:18:50","新北市新店區安康路三段355巷29號","121.4849","24.9499516666667","6500600","新店區"
"241009","060-VK","2017/08/25 19:18:53","新北市三重區溪尾街218巷49號","121.486016666667","25.0809933333333","6500200","三重區"
"241031","061-VK","2017/08/25 19:19:03","新北市三重區重新路四段101-3號","121.485728333333","25.0542016666667","6500200","三重區"
"241017","063-VK","2017/08/25 19:19:06","新北市三重區大同北路217號","121.491583333333","25.0659933333333","6500200","三重區"
"241026","066-VK","2017/08/25 19:18:56","新北市三重區中正南路226號","121.493575","25.0545833333333","6500200","三重區"
"241022","267-UM","2017/08/25 19:19:04","新北市三重區重陽路二段72號","121.487313333333","25.0640933333333","6500200","三重區"
"241025","271-UM","2017/08/25 19:18:53","新北市三重區中正北路295號","121.474528333333","25.0712633333333","6500200","三重區"
"241020","413-TH","2017/08/25 19:19:05","新北市三重區後竹圍街115號","121.488876666667","25.072775","6500200","三重區"
"241035","743-BX","2017/08/25 19:18:50","新北市三重區新北大道一段7號","121.489715","25.0614666666667","6500200","三重區"
"241029","942-UM","2017/08/25 19:19:04","新北市三重區集美街257號","121.492355","25.0555916666667","6500200","三重區"
"235066","003-UY","2017/08/25 19:19:11","新北市中和區中和路98號","121.501376666667","25.0003333333333","6500300","中和區"
"235063","006-UY","2017/08/25 19:18:52","新北市中和區連城路249巷24號","121.49401","24.9960333333333","6500300","中和區"
"235056","096-UM","2017/08/25 19:18:51","新北市中和區員山路568號","121.478845","25.0107633333333","6500300","中和區"
"235039","097-UM","2017/08/25 19:18:53","新北市中和區自立路58巷19號","121.52319","24.9913733333333","6500300","中和區"
"235065","098-UM","2017/08/25 19:19:09","新北市中和區中山路二段136巷11號","121.501598333333","25.003895","6500300","中和區"
"235040","150-BY","2017/08/25 19:19:04","新北市中和區宜安路112號","121.51043","24.9979366666667","6500300","中和區"
"235058","151-BY","2017/08/25 19:18:59","新北市中和區連城路477巷6弄38號","121.482296666667","24.9949216666667","6500300","中和區"
"235055","183-VK","2017/08/25 18:40:02","新北市中和區民生街85巷2弄2-2號","121.468875","25.0045966666667","6500300","中和區"
"235038","185-VK","2017/08/25 19:18:57","新北市中和區大仁街10巷27弄4號","121.519236666667","24.9927166666667","6500300","中和區"
"235049","186-VK","2017/08/25 19:19:06","新北市中和區景新街229號","121.507865","24.9946833333333","6500300","中和區"
"235067","255-BX","2017/08/25 19:19:10","新北市中和區中正路751巷14弄13號","121.48413","25.0001883333333","6500300","中和區"
"235044","293-VK","2017/08/25 19:19:00","新北市中和區中興街222-5號","121.50058","24.9895766666667","6500300","中和區"
"235072","301-VK","2017/08/25 19:18:52","新北市中和區連城路218號","121.491465","24.9964983333333","6500300","中和區"
"235043","352-BY","2017/08/25 19:18:53","新北市中和區景平路400號","121.509265","24.9929766666667","6500300","中和區"
"235051","376-QA","2017/08/25 19:18:52","新北市中和區興南路一段56巷26號","121.510383333333","24.9912733333333","6500300","中和區"
"235068","377-QA","2017/08/25 19:19:10","新北市中和區景平路545巷1弄1號","121.498365","24.999225","6500300","中和區"
"235061","378-QA","2017/08/25 19:18:52","新北市中和區員山路263號","121.481248333333","24.9992566666667","6500300","中和區"
"235050","4979-A6","2017/08/25 19:19:10","新北市中和區復興路284號","121.502011666667","24.9903433333333","6500300","中和區"
"235069","4980-A6","2017/08/25 19:19:03","新北市中和區中山路二段146-1號","121.501876666667","25.0030483333333","6500300","中和區"
"235042","551-UM","2017/08/25 19:19:01","新北市中和區大勇街78號","121.517888333333","24.9955983333333","6500300","中和區"
"235070","558-UM","2017/08/25 19:19:02","新北市中和區枋寮街51巷5號","121.501426666667","25.00057","6500300","中和區"
"235045","565-BX","2017/08/25 19:19:04","新北市中和區景新街437巷16號","121.514091666667","24.989245","6500300","中和區"
"235054","640-BX","2017/08/25 19:19:07","新北市中和區國光街109巷2弄12號","121.469156666667","25.00068","6500300","中和區"
"235060","647-TV","2017/08/25 19:18:52","新北市中和區員山路449號","121.480666666667","25.00413","6500300","中和區"
"235047","732-UM","2017/08/25 19:18:52","新北市中和區和平街54巷14號","121.509046666667","24.991635","6500300","中和區"
"235046","733-UM","2017/08/25 19:19:01","新北市中和區忠孝街2巷7號","121.510215","24.9823166666667","6500300","中和區"
"235057","801-TS","2017/08/25 19:18:55","新北市中和區民利街80號","121.478076666667","24.9981483333333","6500300","中和區"
"235041","802-TS","2017/08/25 19:19:02","新北市中和區景安路30-5號","121.507233333333","24.9983766666667","6500300","中和區"
"235052","805-TS","2017/08/25 19:19:03","新北市中和區興南路二段128巷1弄8號","121.503643333333","24.9835216666667","6500300","中和區"
"235048","896-TW","2017/08/25 19:19:07","新北市中和區忠孝街39-13號","121.512103333333","24.9843933333333","6500300","中和區"
"235053","900-TW","2017/08/25 19:19:03","新北市中和區華福街71巷30號","121.467588333333","24.996955","6500300","中和區"
"235064","911-UM","2017/08/25 19:19:03","新北市中和區泰和街38巷31號","121.498503333333","25.0011233333333","6500300","中和區"
"235037","AAC-213","2017/08/25 19:19:04","新北市中和區秀朗路三段50巷21號","121.524585","24.995145","6500300","中和區"
"235059","AAC-215","2017/08/25 19:18:52","新北市中和區圓通路286巷2號","121.491536666667","24.9909966666667","6500300","中和區"
"220068","013-TV","2017/08/25 19:18:50","新北市板橋區萬安街132號","121.483336666667","25.0259","6500100","板橋區"
"220065","072-UY","2017/08/25 19:19:00","新北市板橋區海山路17號","121.469041666667","25.0093766666667","6500100","板橋區"
"220086","073-UY","2017/08/25 19:19:07","新北市板橋區中正路216巷150弄1號","121.460695","25.0195333333333","6500100","板橋區"
"220106","075-UY","2017/08/25 19:18:58","新北市板橋區雙十路三段66號","121.4706","25.0318616666667","6500100","板橋區"
"220069","AAD-861","2017/08/25 19:18:58","新北市板橋區四川路一段104號","121.459558333333","25.0045616666667","6500100","板橋區"
"220102","120-SR","2017/08/25 19:18:53","新北市板橋區文聖街115號","121.47789","25.0290033333333","6500100","板橋區"
"247016","335-TH","2017/08/25 15:46:43","新北市五股區中興路三段2巷10號","121.449315","25.0811733333333","6501400","蘆洲區"
"226004","205-ST","2017/08/25 19:18:50","新北市平溪區十分里十分街236號","121.778136666667","25.044095","6502400","平溪區"
"228003","097-TW","2017/08/25 19:19:02","新北市貢寮區和美里和美街22-1號","121.912865","25.0826","6502600","貢寮區"
"228002","663-BX","2017/08/25 19:18:58","新北市貢寮區雙玉里田寮洋街6號","121.928461666667","25.0228433333333","6502600","貢寮區"
"228001","670-TC","2017/08/25 19:19:04","新北市貢寮區真理里新港街10號","121.925526666667","25.054345","6502600","貢寮區"
"224010","AGQ-8101","2017/08/25 19:17:08","新北市瑞芳區基山街7號","121.845246666667","25.1096516666667","6501200","瑞芳區"
"224006","676-BX","2017/08/25 19:19:08","新北市瑞芳區中山路202號","121.800996666667","25.1068016666667","6501200","瑞芳區"
"224009","285-BY","2017/08/25 19:18:35","新北市瑞芳區洞頂路101巷65號","121.86067","25.121225","6501200","瑞芳區"
"224008","275-VK","2017/08/25 19:18:52","新北市瑞芳區一坑路35號","121.802948333333","25.10825","6501200","瑞芳區"
"224005","271-BY","2017/08/25 19:19:08","新北市瑞芳區員山子路3-1號","121.819181666667","25.104765","6501200","瑞芳區"
"227003","642-TC","2017/08/25 19:19:02","新北市雙溪區平林里梅竹蹊64號","121.860581666667","25.03587","6502500","雙溪區"
"227011","400-TW","2017/08/25 19:19:00","新北市雙溪區新基里新基北街33號","121.86912","25.0384216666667","6502500","雙溪區"
"253006","032-BX","2017/08/25 19:19:04","新北市石門區崁子腳27號","121.53535","25.2911133333333","6502200","石門區"
"253005","295-VK","2017/08/25 19:19:04","新北市石門區阿里荖5-4號","121.609755","25.2798416666667","6502200","石門區"
"208002","742-BX","2017/08/25 19:18:56","新北市金山區環金路376巷1號","121.632028333333","25.222215","6502700","金山區"
"208003","665-BX","2017/08/25 19:19:08","新北市金山區中山路118-1號","121.63926","25.2199283333333","6502700","金山區"
"208001","761-BX","2017/08/25 19:18:57","新北市金山區民生路69號","121.640176666667","25.2197316666667","6502700","金山區"
"251005","010-UM","2017/08/25 19:18:53","新北市淡水區水源街一段34巷2號","121.44327","25.17219","6501000","淡水區"
"251002","012-UM","2017/08/25 19:19:05","新北市淡水區中正路362號","121.434151666667","25.1742433333333","6501000","淡水區"
"251013","180-VK","2017/08/25 19:19:08","新北市淡水區安子內12號","121.481531666667","25.2191033333333","6501000","淡水區"
"251008","181-VK","2017/08/25 19:19:04","新北市淡水區中正路二段31號","121.419333333333","25.1818283333333","6501000","淡水區"
"251015","182-VK","2017/08/25 19:19:08","新北市淡水區山子邊16巷5號","121.485891666667","25.1826","6501000","淡水區"
"251010","413-VK","2017/08/25 19:19:02","新北市淡水區沙崙路30號","121.421478333333","25.1814516666667","6501000","淡水區"
"251001","559-UM","2017/08/25 19:19:05","新北市淡水區民權路92巷35-1號","121.462038333333","25.1267883333333","6501000","淡水區"
"251009","575-R6","2017/08/25 19:19:05","新北市淡水區大仁街69號","121.442961666667","25.1762783333333","6501000","淡水區"
"251007","577-R6","2017/08/25 19:19:10","新北市淡水區中正東路二段5巷31號","121.460595","25.1584016666667","6501000","淡水區"
"251011","650-BX","2017/08/25 19:18:56","新北市淡水區中正東路二段143巷2弄1號","121.460788333333","25.14733","6501000","淡水區"
"251003","673-BX","2017/08/25 19:18:58","新北市淡水區中山路185號","121.441286666667","25.174135","6501000","淡水區"
"207003","550-UM","2017/08/25 19:18:56","新北市萬里區大鵬里萬里加投79-3號","121.647376666667","25.212325","6502800","萬里區"
"207004","225-TW","2017/08/25 19:19:06","新北市萬里區萬里里成功新村44號","121.687713333333","25.17464","6502800","萬里區"
"252002","178-VK","2017/08/25 19:18:54","新北市三芝區淡金路二段18-1號","121.502685","25.25949","6502100","三芝區"
"252003","249-BX","2017/08/25 19:19:08","新北市三芝區埔坪里埔頭坑41號","121.504483333333","25.2644783333333","6502100","三芝區"
"252001","702-TV","2017/08/25 19:19:01","新北市三芝區長勤街9巷11弄1號","121.501826666667","25.2547416666667","6502100","三芝區"
"237004","078-UY","2017/08/25 19:18:58","新北市三峽區有木206號","121.439083333333","24.8514966666667","6500900","三峽區"
"237007","153-BY","2017/08/25 19:19:08","新北市三峽區二鬮路178號","121.359065","24.9068616666667","6500900","三峽區"
"237009","210-TH","2017/08/25 19:18:57","新北市三峽區民生街229號","121.371238333333","24.9346783333333","6500900","三峽區"
"237013","252-BX","2017/08/25 19:19:07","新北市三峽區光明路75巷23號","121.377431666667","24.9282416666667","6500900","三峽區"
"237012","275-BY","2017/08/25 19:18:52","新北市三峽區三樹路222巷236弄8-1號","121.391351666667","24.942955","6500900","三峽區"
"237008","302-VK","2017/08/25 19:18:55","新北市三峽區大同路119巷4號","121.374218333333","24.92652","6500900","三峽區"
"237014","433-BY","2017/08/25 19:18:53","新北市三峽區中山路270號","121.361628333333","24.93771","6500900","三峽區"
"237006","5529-G3","2017/08/25 19:19:08","新北市三峽區介壽路一段233號","121.379106666667","24.9303233333333","6500900","三峽區"
"237015","649-BX","2017/08/25 19:19:04","新北市三峽區成福路323號","121.431526666667","24.9239216666667","6500900","三峽區"
"237005","AKY-6261","2017/08/25 19:18:58","新北市三峽區中山路459巷42號","121.357156666667","24.9374416666667","6500900","三峽區"
"236072","105-UM","2017/08/25 19:18:52","新北市土城區中央路一段65-1號","121.44779","24.9899433333333","6501300","土城區"
"236043","107-UM","2017/08/25 19:18:49","新北市土城區學府路一段276號","121.449941666667","24.982965","6501300","土城區"
"236079","166-UM","2017/08/25 19:18:51","新北市土城區中央路四段321巷28號","121.411388333333","24.9513483333333","6501300","土城區"
"236027","269-VK","2017/08/25 19:19:09","新北市土城區中央路二段160號","121.44199","24.9766216666667","6501300","土城區"
"236022","401-BY","2017/08/25 19:18:56","新北市土城區峰廷街3號","121.469096666667","24.9873316666667","6501300","土城區"
"236015","752-BX","2017/08/25 19:18:55","新北市土城區學府路一段23巷16號","121.457931666667","24.9873266666667","6501300","土城區"
"236059","912-UM","2017/08/25 19:19:04","新北市土城區中央路三段38號","121.438278333333","24.9684766666667","6501300","土城區"
"236050","913-UM","2017/08/25 19:18:57","新北市土城區明德路一段398-1號","121.45366","24.97907","6501300","土城區"
"242046","441-UM","2017/08/25 19:18:54","新北市新莊區新樹路497巷1號","121.432745","25.0122066666667","6500500","新莊區"
"238015","755-BX","2017/08/25 19:18:49","新北市樹林區備內街1巷6號","121.41265","24.9864166666667","6500700","樹林區"
"238023","601-UM","2017/08/25 19:19:05","新北市樹林區三興路64號","121.393756666667","25.0145666666667","6500700","樹林區"
"238019","599-UM","2017/08/25 19:18:58","新北市樹林區東榮街90號","121.415983333333","24.9826333333333","6500700","樹林區"
"238018","571-TV","2017/08/25 19:18:54","新北市樹林區太平路48號","121.41893","24.9825033333333","6500700","樹林區"
"238024","5061-A6","2017/08/25 19:18:57","新北市樹林區福德街10號","121.400788333333","24.975565","6500700","樹林區"
"238022","312-TH","2017/08/25 19:18:52","新北市樹林區中山路二段121-3號","121.408138333333","24.9798066666667","6500700","樹林區"
"238021","311-TH","2017/08/25 19:19:08","新北市樹林區柑園街二段372-1號","121.368925","24.950405","6500700","樹林區"
"238025","303-VK","2017/08/25 19:19:02","新北市樹林區中山路一段189號","121.421375","24.9878","6500700","樹林區"
"238017","283-BY","2017/08/25 19:19:00","新北市樹林區光興街44號","121.409893333333","25.0026916666667","6500700","樹林區"
"238014","282-BY","2017/08/25 19:19:02","新北市樹林區中正路22-1號","121.427691666667","24.9994216666667","6500700","樹林區"
"238020","268-VK","2017/08/24 19:50:33","新北市樹林區樹新路122號","121.430186666667","24.9984466666667","6500700","樹林區"
"238026","172-UY","2017/08/25 19:18:52","新北市樹林區佳園路二段157號","121.389861666667","24.9570633333333","6500700","樹林區"
"238016","169-UY","2017/08/25 19:18:58","新北市樹林區中山路一段412號","121.417443333333","24.98531","6500700","樹林區"
"239007","AAC-297","2017/08/25 19:19:06","新北市鶯歌區大湖路326巷46號","121.345965","24.96932","6500800","鶯歌區"
"239006","891-R6","2017/08/25 19:18:57","新北市鶯歌區建國路582號","121.338998333333","24.95163","6500800","鶯歌區"
"239005","526-UM","2017/08/25 19:18:53","新北市鶯歌區中湖街342號","121.346908333333","24.9781","6500800","鶯歌區"
"239003","360-BY","2017/08/25 19:18:55","新北市鶯歌區國華路56號","121.34267","24.95503","6500800","鶯歌區"
"239002","359-BY","2017/08/25 19:18:56","新北市鶯歌區大湖路45號","121.34266","24.961985","6500800","鶯歌區"
"239004","193-VK","2017/08/25 19:19:01","新北市鶯歌區二甲路47號","121.336171666667","24.9339316666667","6500800","鶯歌區"
"221008","489-VK","2017/08/25 19:19:07","新北市汐止區康寧街304號","121.626346666667","25.067135","6501100","汐止區"
"221036","130-UY","2017/08/25 19:19:04","新北市汐止區汐萬路一段256巷1號","121.651718333333","25.07487","6501100","汐止區"
"221015","131-UY","2017/08/25 19:19:10","新北市汐止區康寧街901號","121.651511666667","25.0749016666667","6501100","汐止區"
"221010","269-BY","2017/08/25 19:18:52","新北市汐止區康寧街901號","121.65131","25.0750333333333","6501100","汐止區"
"221031","277-VK","2017/08/25 19:19:06","新北市汐止區康寧街753巷2弄22號","121.640238333333","25.0742483333333","6501100","汐止區"
"221012","278-VK","2017/08/25 19:19:01","新北市汐止區康寧街901號","121.650848333333","25.0753333333333","6501100","汐止區"
"221023","279-VK","2017/08/25 19:18:48","新北市汐止區康寧街901號","121.651058333333","25.075155","6501100","汐止區"
"221027","281-BY","2017/08/25 19:18:53","新北市汐止區康寧街901號","121.65092","25.0752133333333","6501100","汐止區"
"221038","297-VK","2017/08/25 19:18:58","新北市汐止區汐萬路一段312號","121.650686666667","25.075285","6501100","汐止區"
"221029","298-VK","2017/08/25 19:19:00","新北市汐止區汐萬路一段256巷1號","121.651628333333","25.0748316666667","6501100","汐止區"
"221021","299-VK","2017/08/25 19:19:08","新北市汐止區康寧街901號","121.651475","25.074965","6501100","汐止區"
"221025","623-UM","2017/08/25 19:18:56","新北市汐止區康寧街901號","121.650866666667","25.0752466666667","6501100","汐止區"
"221033","647-BX","2017/08/25 19:18:49","新北市汐止區南勢街1巷2號","121.626975","25.0374683333333","6501100","汐止區"
"221002","707-TV","2017/08/25 19:18:59","新北市汐止區大同路一段329號","121.63821","25.0592883333333","6501100","汐止區"
"221018","753-BX","2017/08/25 19:19:08","新北市汐止區康寧街901號","121.6516","25.0749366666667","6501100","汐止區"
"220079","145-BY","2017/08/25 19:19:06","新北市板橋區民權路202巷17弄48-1號","121.45889","25.01664","6500100","板橋區"
"220080","200-UY","2017/08/25 19:19:05","新北市板橋區大觀路二段19巷113號","121.450513333333","25.00271","6500100","板橋區"
"220082","610-BX","2017/08/25 19:19:04","新北市板橋區溪崑二街103巷2號","121.426788333333","24.9889483333333","6500100","板橋區"
"220101","245-BX","2017/08/25 19:19:03","新北市板橋區莊敬路220巷3號","121.47257","25.021235","6500100","板橋區"
"220056","276-BY","2017/08/25 19:19:03","新北市板橋區信義路201號","121.45926","24.9916983333333","6500100","板橋區"
"220072","277-BY","2017/08/25 19:18:52","新北市板橋區金門街260巷10弄6號","121.429266666667","24.9866433333333","6500100","板橋區"
"220094","283-UM","2017/08/25 19:18:51","新北市板橋區光武街110巷45-4號","121.467048333333","25.0301933333333","6500100","板橋區"
"220071","283-VK","2017/08/25 19:19:04","新北市板橋區重慶路351號","121.46432","24.9978416666667","6500100","板橋區"
"220053","285-VK","2017/08/25 19:19:03","新北市板橋區富山街7巷2號","121.478438333333","25.021775","6500100","板橋區"
"220081","287-VK","2017/08/25 19:19:02","新北市板橋區南雅西路一段47號","121.453615","25.0047816666667","6500100","板橋區"
"220090","288-VK","2017/08/25 19:19:08","新北市板橋區長江路一段106巷13弄10號","121.460463333333","25.029265","6500100","板橋區"
"220061","293-UM","2017/08/25 19:19:00","新北市板橋區中山路二段318巷20弄2號","121.480466666667","25.0187483333333","6500100","板橋區"
"220062","295-UM","2017/08/25 19:19:01","新北市板橋區三民路二段153巷36弄2號","121.481188333333","25.01417","6500100","板橋區"
"220084","296-UM","2017/08/25 19:19:00","新北市板橋區溪崑二街66巷20號","121.427363333333","24.9907583333333","6500100","板橋區"
"220075","297-UM","2017/08/25 19:19:08","新北市板橋區南雅西路一段96號","121.453161666667","25.0060266666667","6500100","板橋區"
"220092","307-R5","2017/08/25 19:19:05","新北市板橋區光武街36巷22號","121.468268333333","25.026205","6500100","板橋區"
"220098","317-R6","2017/08/25 19:18:58","新北市板橋區民有街89巷9號","121.464376666667","25.02736","6500100","板橋區"
"220064","486-VK","2017/08/25 19:18:58","新北市板橋區板新路238號","121.468001666667","25.0160566666667","6500100","板橋區"
"220089","487-VK","2017/08/25 19:19:02","新北市板橋區民生路二段250號","121.468226666667","25.0235","6500100","板橋區"
"220088","491-VK","2017/08/25 19:19:04","新北市板橋區雙十路二段143號","121.474918333333","25.02804","6500100","板橋區"
"220035","560-BX","2017/08/25 19:18:51","新北市板橋區中正路360巷24號","121.455338333333","25.023405","6500100","板橋區"
"220103","561-BX","2017/08/25 19:19:01","新北市板橋區文化路一段188巷7弄13號","121.467526666667","25.0198933333333","6500100","板橋區"
"220063","609-BX","2017/08/25 19:18:53","新北市板橋區三民路一段31巷13號","121.479913333333","25.0232516666667","6500100","板橋區"
"220083","630-UY","2017/08/25 19:19:10","新北市板橋區大觀路二段174巷196弄16號","121.44311","25.0036316666667","6500100","板橋區"
"220091","637-BX","2017/08/25 19:18:58","新北市板橋區文聖街207號","121.479595","25.0265316666667","6500100","板橋區"
"220057","686-BX","2017/08/25 19:19:03","新北市板橋區重慶路306號","121.463701666667","24.998205","6500100","板橋區"
"220077","687-BX","2017/08/25 19:19:05","新北市板橋區僑中二街88巷1號","121.446505","25.0093683333333","6500100","板橋區"
"220093","689-BX","2017/08/25 19:18:58","新北市板橋區文化路一段407號","121.46736","25.0221433333333","6500100","板橋區"
"220054","741-BX","2017/08/25 19:19:01","新北市板橋區四川路一段195號","121.46078","25.0037266666667","6500100","板橋區"
"220055","827-TW","2017/08/25 19:18:51","新北市板橋區民族路61號","121.464886666667","25.0086433333333","6500100","板橋區"
"220067","829-TW","2017/08/25 19:19:06","新北市板橋區長安街138巷3弄37號","121.473981666667","25.0096766666667","6500100","板橋區"
"220096","831-TW","2017/08/25 19:19:08","新北市板橋區大同街23號","121.477533333333","25.02705","6500100","板橋區"
"220074","895-R6","2017/08/25 19:18:53","新北市板橋區中正路39巷15號","121.45493","25.0131033333333","6500100","板橋區"
"220073","985-R7","2017/08/25 19:19:02","新北市板橋區金華街77號","121.45764","25.0208066666667","6500100","板橋區"
"220097","AAC-210","2017/08/25 19:19:06","新北市板橋區幸福路51號","121.46114","25.0199533333333","6500100","板橋區"
"220070","AAC-253","2017/08/25 19:19:03","新北市板橋區忠孝路40號","121.46037","25.0018583333333","6500100","板橋區"
