"lineid","car","time","location","longitude","latitude","cityid","cityname"
"234046","148-BY","2017/08/25 19:28:51","新北市永和區秀朗路二段153號","121.524993333333","25.0016133333333","6500400","永和區"
"234013","149-BY","2017/08/25 19:29:04","新北市永和區中山路一段91巷1號","121.511741666667","25.010715","6500400","永和區"
"234007","207-UY","2017/08/25 19:29:07","新北市永和區永和路一段127號","121.514041666667","25.0084083333333","6500400","永和區"
"234081","298-R6","2017/08/25 19:29:02","新北市永和區環河東路三段12號","121.52576","25.007975","6500400","永和區"
"234038","336-UY","2017/08/25 19:28:55","新北市永和區成功路二段3號","121.526983333333","25.0014333333333","6500400","永和區"
"234064","337-UY","2017/08/25 19:28:52","新北市永和區中正路368巷1弄88號","121.520511666667","25.000715","6500400","永和區"
"234086","338-UY","2017/08/25 19:28:59","新北市永和區永利路152號","121.522448333333","25.0028366666667","6500400","永和區"
"234070","552-UM","2017/08/25 19:28:51","新北市永和區永和路二段116號","121.515326666667","25.01219","6500400","永和區"
"234054","553-UM","2017/08/25 19:29:06","新北市永和區永和路二段170號","121.515498333333","25.01319","6500400","永和區"
"234017","745-BX","2017/08/25 19:29:00","新北市永和區環河西路一段51巷1號","121.514343333333","25.0181183333333","6500400","永和區"
"234061","AAD-866","2017/08/25 19:29:02","新北市永和區中正路417-1號","121.517158333333","25.00493","6500400","永和區"
"234030","847-RS","2017/08/25 19:28:58","新北市永和區民權路1巷22號","121.521418333333","24.9982733333333","6500400","永和區"
"234042","862-TW","2017/08/25 19:28:52","新北市永和區水源街39巷26號","121.51068","25.003195","6500400","永和區"
"234050","863-TW","2017/08/25 19:28:51","新北市永和區信義路83號","121.512316666667","25.0135033333333","6500400","永和區"
"234026","9371-KE","2017/08/25 19:29:02","新北市中和區安平路222號","121.514051666667","25.0000316666667","6500400","永和區"
"234011","9373-KE","2017/08/25 19:28:51","新北市永和區保福路二段163巷12號","121.508918333333","25.014665","6500400","永和區"
"249005","172-UM","2017/08/25 17:21:42","新北市五股區民義路二段132號","121.408595","25.1212183333333","6502300","八里區"
"249003","593-UM","2017/08/25 19:29:01","新北市八里區商港六路19號","121.39667","25.148515","6502300","八里區"
"248018","225-UY","2017/08/25 19:24:55","新北市五股區壟路16-1號","121.414921666667","25.085395","6501500","五股區"
"248010","272-BY","2017/08/25 19:28:56","新北市五股區水碓一路23號","121.430628333333","25.0712666666667","6501500","五股區"
"248004","677-BX","2017/08/25 19:28:53","新北市五股區五福路45號","121.43325","25.0896566666667","6501500","五股區"
"248002","678-BX","2017/08/25 19:28:49","新北市五股區凌雲路一段158巷6號","121.447801666667","25.1030666666667","6501500","五股區"
"248012","682-TV","2017/08/25 19:29:01","新北市五股區中興路四段48巷16號","121.438621666667","25.083415","6501500","五股區"
"234023","9380-KE","2017/08/25 19:28:54","新北市永和區環河東路二段8號","121.522206666667","25.0134283333333","6500400","永和區"
"234077","969-R7","2017/08/25 19:28:49","新北市永和區民權路80號","121.519808333333","24.997715","6500400","永和區"
"234074","AAC-211","2017/08/25 19:28:58","新北市永和區竹林路225巷42號","121.52212","25.00864","6500400","永和區"
"234067","AAC-212","2017/08/25 19:29:03","新北市永和區保平路176號","121.510845","25.0066866666667","6500400","永和區"
"234003","AAC-295","2017/08/25 19:28:54","新北市永和區永和路一段176-1號","121.514268333333","25.0088683333333","6500400","永和區"
"244019","403-UM","2017/08/25 19:28:45","新北市林口區仁愛路二段201-1號","121.377561666667","25.074435","6501700","林口區"
"244023","657-BX","2017/08/25 19:28:54","新北市林口區仁愛路二段632號","121.371166666667","25.079375","6501700","林口區"
"244013","658-BX","2017/08/25 19:28:47","新北市林口區文化一路一段126號","121.37551","25.0724183333333","6501700","林口區"
"243013","AAD-798","2017/08/25 19:28:59","新北市泰山區明志路三段145巷30號","121.426101666667","25.0396","6501600","泰山區"
"243009","297-R6","2017/08/25 19:29:01","新北市泰山區半山雅1號","121.431805","25.0673066666667","6501600","泰山區"
"243015","380-SR","2017/08/25 19:28:49","新北市泰山區公園路4號","121.429938333333","25.0540783333333","6501600","泰山區"
"243014","421-VK","2017/08/25 19:29:06","新北市泰山區仁愛路6巷4弄1號","121.43119","25.0537033333333","6501600","泰山區"
"243010","548-UM","2017/08/25 19:29:01","新北市泰山區民生路17巷8號","121.42975","25.0520833333333","6501600","泰山區"
"243011","549-UM","2017/08/25 19:28:58","新北市三重區新北大道六段50-1號","121.429255","25.040155","6501600","泰山區"
"243016","680-BX","2017/08/25 19:28:50","新北市泰山區明志路三段308號","121.420913333333","25.03509","6501600","泰山區"
"222003","436-BY","2017/08/25 19:28:53","新北市深坑區深南路88巷1號","121.620998333333","25.0117116666667","6501800","深坑區"
"222002","659-BX","2017/08/25 19:28:52","新北市深坑區北深路一段177號","121.632585","25.0108883333333","6501800","深坑區"
"222001","696-SL","2017/08/25 19:28:58","新北市深坑區北深路二段130號","121.615931666667","25.0028766666667","6501800","深坑區"
"231059","001-UM","2017/08/25 19:29:02","新北市新店區安和路三段95號","121.51784","24.9841633333333","6500600","新店區"
"231041","002-UM","2017/08/25 19:29:02","新北市新店區中正路630號","121.533993333333","24.9889716666667","6500600","新店區"
"231061","047-UY","2017/08/25 19:28:45","新北市新店區安民街42號","121.515933333333","24.96538","6500600","新店區"
"231060","106-UY","2017/08/25 19:28:48","新北市新店區安和路一段15號","121.516905","24.9640483333333","6500600","新店區"
"231048","108-UY","2017/08/25 19:29:01","新北市新店區五峰路149號","121.544988333333","24.9656283333333","6500600","新店區"
"231018","110-UY","2017/08/25 19:29:07","新北市新店區安康路一段17號","121.533033333333","24.9603416666667","6500600","新店區"
"231053","187-VK","2017/08/25 19:28:54","新北市新店區屈尺路12號","121.548953333333","24.922555","6500600","新店區"
"231057","256-BX","2017/08/25 19:29:05","新北市新店區花園一路三段45號","121.550618333333","24.932875","6500600","新店區"
"231063","268-BY","2017/08/25 19:28:58","新北市新店區達觀路14巷3號","121.503225","24.9417083333333","6500600","新店區"
"231046","278-BY","2017/08/25 19:28:49","新北市新店區北新路一段89號","121.538623333333","24.9616783333333","6500600","新店區"
"231050","AAD-862","2017/08/25 19:28:59","新北市新店區秀水路39號","121.555388333333","24.9561033333333","6500600","新店區"
"231058","3712-VJ","2017/08/25 19:29:04","新北市新店區北新路二段228巷2號","121.543196666667","24.9773216666667","6500600","新店區"
"231065","512-UM","2017/08/25 19:28:52","新北市新店區安祥路109巷1弄67號","121.478318333333","24.960715","6500600","新店區"
"231054","513-UM","2017/08/25 19:28:47","新北市新店區文中路51號","121.539833333333","24.956585","6500600","新店區"
"231042","616-UM","2017/08/25 19:29:00","新北市新店區中興路一段136號","121.542146666667","24.9634866666667","6500600","新店區"
"231045","617-UM","2017/08/25 19:28:53","新北市新店區北宜路二段209號","121.553176666667","24.953295","6500600","新店區"
"231040","619-UM","2017/08/25 19:29:02","新北市新店區中華路12-1號","121.54077","24.9675083333333","6500600","新店區"
"231049","719-UM","2017/08/25 19:29:07","新北市新店區北新路3段65巷34弄29-1號","121.54004","24.9819366666667","6500600","新店區"
"231064","719-UY","2017/08/25 19:29:00","新北市新店區安忠路57巷26弄2號","121.513013333333","24.9588116666667","6500600","新店區"
"231062","720-UM","2017/08/25 19:28:57","新北市新店區安康路一段79巷1號","121.529856666667","24.9612183333333","6500600","新店區"
"231044","897-TW","2017/08/25 19:28:54","新北市新店區中興路三段199號","121.543791666667","24.9815616666667","6500600","新店區"
"231043","899-TW","2017/08/25 19:28:54","新北市新店區北新路二段193號","121.542563333333","24.9780933333333","6500600","新店區"
"231066","AKT-0513","2017/08/25 19:28:50","新北市新店區安康路三段207巷15號","121.488391666667","24.95085","6500600","新店區"
"241028","022-UY","2017/08/25 19:28:51","新北市三重區中寮街90號","121.49324","25.05803","6500200","三重區"
"241008","059-VK","2017/08/25 19:28:49","新北市三重區永福街135巷40號","121.477095","25.0772366666667","6500200","三重區"
"241009","060-VK","2017/08/25 19:28:53","新北市三重區溪尾街242巷68號","121.486136666667","25.0814233333333","6500200","三重區"
"241031","061-VK","2017/08/25 19:29:03","新北市三重區集美街27號","121.488016666667","25.0558283333333","6500200","三重區"
"241017","063-VK","2017/08/25 19:28:46","新北市三重區民生街61巷1號","121.489265","25.0625766666667","6500200","三重區"
"241026","066-VK","2017/08/25 19:28:56","新北市三重區文化南路47巷38號","121.498793333333","25.0610233333333","6500200","三重區"
"241006","156-TC","2017/08/25 19:28:47","新北市三重區三和路四段113號","121.485538333333","25.0773383333333","6500200","三重區"
"241030","265-UM","2017/08/25 19:28:52","新北市三重區成功路41巷6號","121.49022","25.0515183333333","6500200","三重區"
"241022","267-UM","2017/08/25 19:29:04","新北市三重區三民街163號","121.483575","25.0647733333333","6500200","三重區"
"241025","271-UM","2017/08/25 19:28:53","新北市三重區頂崁街210巷28弄5號","121.475795","25.0675383333333","6500200","三重區"
"241007","398-BY","2017/08/25 19:28:51","新北市三重區溪尾街146號","121.489131666667","25.0798333333333","6500200","三重區"
"241020","413-TH","2017/08/25 19:29:05","新北市三重區三和路四段42號","121.490255","25.07441","6500200","三重區"
"241035","743-BX","2017/08/25 19:28:50","新北市三重區信義西街13號","121.497821666667","25.06462","6500200","三重區"
"241029","942-UM","2017/08/25 19:28:49","新北市三重區中正南路269號","121.49307","25.052455","6500200","三重區"
"235066","003-UY","2017/08/25 19:28:51","新北市中和區中和路102號","121.502698333333","24.9997916666667","6500300","中和區"
"235063","006-UY","2017/08/25 19:28:52","新北市中和區連勝街171號","121.494123333333","24.9968133333333","6500300","中和區"
"235056","096-UM","2017/08/25 19:28:51","新北市中和區員山路458號","121.479983333333","25.006245","6500300","中和區"
"235039","097-UM","2017/08/25 19:28:53","新北市中和區秀峰街81巷2號","121.521425","24.99024","6500300","中和區"
"235065","098-UM","2017/08/25 19:28:49","新北市中和區中山路二段64巷12弄16號","121.504061666667","25.0053883333333","6500300","中和區"
"235040","150-BY","2017/08/25 19:29:04","新北市中和區保健路44巷11號","121.509021666667","24.9966533333333","6500300","中和區"
"235058","151-BY","2017/08/25 19:28:59","新北市中和區中正路637巷60弄61號","121.485435","24.99252","6500300","中和區"
"235055","183-VK","2017/08/25 18:40:02","新北市中和區民生街85巷2弄2-2號","121.468875","25.0045966666667","6500300","中和區"
"235038","185-VK","2017/08/25 19:28:57","新北市中和區大智街55巷31號","121.520501666667","24.9927266666667","6500300","中和區"
"235049","186-VK","2017/08/25 19:29:03","新北市中和區安和路11號","121.511368333333","24.9935433333333","6500300","中和區"
"235067","255-BX","2017/08/25 19:28:50","新北市中和區民樂路77號","121.484415","25.00132","6500300","中和區"
"235044","293-VK","2017/08/25 19:29:00","新北市中和區復興路314號","121.500968333333","24.9903133333333","6500300","中和區"
"235072","301-VK","2017/08/25 19:28:49","新北市中和區連城路265巷12弄2號","121.491745","24.995205","6500300","中和區"
"235043","352-BY","2017/08/25 19:28:53","新北市中和區南山路92號","121.502816666667","24.9948533333333","6500300","中和區"
"235051","376-QA","2017/08/25 19:28:52","新北市中和區景新街142巷4號","121.504965","24.997555","6500300","中和區"
"235068","377-QA","2017/08/25 19:28:50","新北市中和區連勝街57巷7號","121.497956666667","24.9969266666667","6500300","中和區"
"235061","378-QA","2017/08/25 19:28:52","新北市中和區民利街61巷15號","121.478823333333","24.9981633333333","6500300","中和區"
"235050","4979-A6","2017/08/25 19:28:50","新北市中和區錦和路204號","121.49041","24.994805","6500300","中和區"
"235069","4980-A6","2017/08/25 19:29:07","新北市中和區景平路736巷10號","121.497043333333","25.0037","6500300","中和區"
"235042","551-UM","2017/08/25 19:29:01","新北市中和區安平路154號","121.512498333333","24.9983966666667","6500300","中和區"
"235070","558-UM","2017/08/25 19:29:02","新北市中和區連城路71號","121.497358333333","25.0011883333333","6500300","中和區"
"235045","565-BX","2017/08/25 19:29:04","新北市中和區景新街423巷33弄25號","121.513735","24.9899683333333","6500300","中和區"
"235054","640-BX","2017/08/25 19:28:47","新北市中和區國光街109巷4-1號","121.46988","25.0003016666667","6500300","中和區"
"235060","647-TV","2017/08/25 19:28:57","新北市中和區新生街112巷2號","121.483016666667","25.0029683333333","6500300","中和區"
"235047","732-UM","2017/08/25 19:28:52","新北市中和區景平路241巷66號","121.507701666667","24.9922433333333","6500300","中和區"
"235046","733-UM","2017/08/25 19:29:01","新北市中和區忠孝街37巷44號","121.510665","24.9847516666667","6500300","中和區"
"235057","801-TS","2017/08/25 19:28:55","新北市中和區員山路423巷9號","121.480568333333","25.0031","6500300","中和區"
"235041","802-TS","2017/08/25 19:29:02","新北市中和區景安路9號","121.50794","24.9990066666667","6500300","中和區"
"235052","805-TS","2017/08/25 19:29:03","新北市中和區華新街143巷65弄2號","121.506621666667","24.9790166666667","6500300","中和區"
"235048","896-TW","2017/08/25 19:29:07","新北市中和區四維街24巷1號","121.512731666667","24.9875683333333","6500300","中和區"
"235053","900-TW","2017/08/25 19:26:51","新北市中和區民德路246號","121.468085","24.9972566666667","6500300","中和區"
"235064","911-UM","2017/08/25 19:29:03","新北市中和區泰和街38巷7號","121.49901","25.000215","6500300","中和區"
"235037","AAC-213","2017/08/25 19:29:04","新北市中和區秀朗路三段10巷14弄70號","121.524011666667","24.9965833333333","6500300","中和區"
"235059","AAC-215","2017/08/25 19:28:52","新北市中和區圓通路252巷4號","121.493198333333","24.991735","6500300","中和區"
"220068","013-TV","2017/08/25 19:28:52","新北市板橋區萬安街118號","121.483683333333","25.024565","6500100","板橋區"
"220065","072-UY","2017/08/25 19:29:00","新北市板橋區國泰街75巷31號","121.467936666667","25.0054333333333","6500100","板橋區"
"220086","073-UY","2017/08/25 19:28:53","新北市板橋區中正路216巷8號","121.456328333333","25.0184083333333","6500100","板橋區"
"220106","075-UY","2017/08/25 19:28:58","新北市板橋區江寧路三段131巷2號","121.47367","25.03335","6500100","板橋區"
"220069","AAD-861","2017/08/25 19:29:07","新北市板橋區貴興路35號","121.45754","25.0038733333333","6500100","板橋區"
"220102","120-SR","2017/08/25 19:29:06","新北市板橋區松柏街20號","121.474586666667","25.0298066666667","6500100","板橋區"
"247016","335-TH","2017/08/25 15:46:43","新北市五股區中興路三段2巷10號","121.449315","25.0811733333333","6501400","蘆洲區"
"247014","057-VK","2017/08/25 19:28:59","新北市蘆洲區中央路87號","121.472791666667","25.0843333333333","6501400","蘆洲區"
"247004","056-VK","2017/08/25 19:28:59","新北市蘆洲區長安街247號","121.45911","25.083255","6501400","蘆洲區"
"247006","053-VK","2017/08/25 19:28:56","新北市五股區中興路三段163號","121.449196666667","25.080805","6501400","蘆洲區"
"226004","205-ST","2017/08/25 19:28:51","新北市平溪區十分里十分街264號","121.778303333333","25.045345","6502400","平溪區"
"228003","097-TW","2017/08/25 19:29:02","新北市貢寮區和美里和美街22-1號","121.912826666667","25.0826016666667","6502600","貢寮區"
"228002","663-BX","2017/08/25 19:28:58","新北市貢寮區龍門里龍門街78號","121.931021666667","25.0265783333333","6502600","貢寮區"
"228001","670-TC","2017/08/25 19:29:04","新北市貢寮區真理里延平街68-1號","121.925405","25.0574416666667","6502600","貢寮區"
"224010","AGQ-8101","2017/08/25 19:17:08","新北市瑞芳區基山街7號","121.845246666667","25.1096516666667","6501200","瑞芳區"
"224006","676-BX","2017/08/25 19:28:54","新北市瑞芳區三爪子坑路118-7號","121.806828333333","25.1051733333333","6501200","瑞芳區"
"224002","640-TC","2017/08/25 19:29:03","新北市瑞芳區三爪子坑路13巷25號","121.81412","25.1069366666667","6501200","瑞芳區"
"224005","271-BY","2017/08/25 19:28:48","新北市瑞芳區三爪子坑路1號","121.814973333333","25.1080366666667","6501200","瑞芳區"
"227003","642-TC","2017/08/25 19:28:42","新北市雙溪區新基里新基西街13號","121.865271666667","25.037205","6502500","雙溪區"
"227011","400-TW","2017/08/25 19:28:58","新北市雙溪區新基里新基北街43號","121.868211666667","25.03975","6502500","雙溪區"
"253006","032-BX","2017/08/25 19:29:04","新北市石門區大溪墘2-4號","121.550571666667","25.2899666666667","6502200","石門區"
"253005","295-VK","2017/08/25 19:29:04","新北市石門區小坑9號","121.594378333333","25.2885783333333","6502200","石門區"
"208002","742-BX","2017/08/25 19:28:56","新北市金山區仁愛路87巷1號","121.634628333333","25.2214983333333","6502700","金山區"
"208003","665-BX","2017/08/25 19:29:03","新北市金山區中山路263巷10號","121.63632","25.22162","6502700","金山區"
"208001","761-BX","2017/08/25 19:28:57","新北市金山區中正路143-1號","121.632058333333","25.2214716666667","6502700","金山區"
"251005","010-UM","2017/08/25 19:28:56","新北市淡水區水源街一段47巷24號","121.443981666667","25.1730866666667","6501000","淡水區"
"251013","180-VK","2017/08/25 19:28:48","新北市淡水區安子內16-1號","121.478231666667","25.2188466666667","6501000","淡水區"
"251008","181-VK","2017/08/25 19:28:57","新北市淡水區中正路一段68號","121.425188333333","25.1769833333333","6501000","淡水區"
"251015","182-VK","2017/08/25 19:28:48","新北市淡水區北新路三段66號","121.485195","25.1876916666667","6501000","淡水區"
"251010","413-VK","2017/08/25 19:29:02","新北市淡水區中正路二段130號","121.4207","25.1870866666667","6501000","淡水區"
"251001","559-UM","2017/08/25 19:29:05","新北市淡水區民權路177號","121.459818333333","25.1353383333333","6501000","淡水區"
"251006","561-UM","2017/08/25 19:28:52","新北市淡水區大義街32號","121.44233","25.1783516666667","6501000","淡水區"
"251009","575-R6","2017/08/25 19:28:46","新北市淡水區大忠街5巷8號","121.443383333333","25.1765016666667","6501000","淡水區"
"251007","577-R6","2017/08/25 19:28:49","新北市淡水區坪頂路22號","121.456483333333","25.1617433333333","6501000","淡水區"
"251011","650-BX","2017/08/25 19:28:56","新北市淡水區中正東路二段143巷2弄1號","121.460705","25.1473766666667","6501000","淡水區"
"251003","673-BX","2017/08/25 19:28:58","新北市淡水區中山北路二段98號","121.444458333333","25.1838616666667","6501000","淡水區"
"207003","550-UM","2017/08/25 19:28:56","新北市萬里區大鵬里萬里加投199號","121.643976666667","25.2151033333333","6502800","萬里區"
"207004","225-TW","2017/08/25 19:28:46","新北市萬里區萬里里瑪鋉路135號","121.688935","25.1777283333333","6502800","萬里區"
"252002","178-VK","2017/08/25 19:28:54","新北市三芝區淡金路二段18-1號","121.502676666667","25.2595183333333","6502100","三芝區"
"252001","702-TV","2017/08/25 19:29:01","新北市三芝區長勤街62號","121.500141666667","25.25584","6502100","三芝區"
"237004","078-UY","2017/08/25 19:28:58","新北市三峽區有木111-1號","121.43496","24.8593166666667","6500900","三峽區"
"237007","153-BY","2017/08/25 19:28:48","新北市三峽區二鬮路9號","121.359021666667","24.9068533333333","6500900","三峽區"
"237009","210-TH","2017/08/25 19:28:57","新北市三峽區長福街2號","121.36991","24.933895","6500900","三峽區"
"237013","252-BX","2017/08/25 19:28:47","新北市三峽區介壽路一段251號","121.37951","24.9301866666667","6500900","三峽區"
"237012","275-BY","2017/08/25 19:28:52","新北市三峽區三樹路98巷175號","121.384546666667","24.9399516666667","6500900","三峽區"
"237008","302-VK","2017/08/25 19:28:55","新北市三峽區光明路48號","121.3745","24.929655","6500900","三峽區"
"237014","433-BY","2017/08/25 19:28:53","新北市三峽區民權街223號","121.367731666667","24.9281","6500900","三峽區"
"237006","5529-G3","2017/08/25 19:29:08","新北市三峽區中正路一段336巷15弄2號","121.369983333333","24.9249483333333","6500900","三峽區"
"237015","649-BX","2017/08/25 19:29:04","新北市三峽區成福路80號","121.420398333333","24.9298533333333","6500900","三峽區"
"237005","AKY-6261","2017/08/25 19:28:58","新北市三峽區復興路367巷1弄2號","121.363935","24.9381116666667","6500900","三峽區"
"236072","105-UM","2017/08/25 19:29:01","新北市土城區學府路一段155巷2號","121.453398333333","24.9856983333333","6501300","土城區"
"236043","107-UM","2017/08/25 19:28:49","新北市土城區學府路一段276號","121.449931666667","24.9829833333333","6501300","土城區"
"236079","166-UM","2017/08/25 19:28:49","新北市土城區中州路3巷43號","121.413436666667","24.9562633333333","6501300","土城區"
"236027","269-VK","2017/08/25 19:28:49","新北市土城區中央路二段61巷20號","121.443183333333","24.978885","6501300","土城區"
"236022","401-BY","2017/08/25 19:28:56","新北市土城區峰廷街3號","121.469071666667","24.9873383333333","6501300","土城區"
"236059","912-UM","2017/08/25 19:28:44","新北市土城區中央路二段219-7號","121.440786666667","24.9738733333333","6501300","土城區"
"236050","913-UM","2017/08/25 19:28:57","新北市土城區清水路162號","121.459548333333","24.981475","6501300","土城區"
"242048","751-BX","2017/08/25 19:28:52","新北市新莊區後港一路17巷1號","121.424346666667","25.0266783333333","6500500","新莊區"
"242046","441-UM","2017/08/25 19:28:54","新北市新莊區民安路100號","121.423936666667","25.0258883333333","6500500","新莊區"
"238015","755-BX","2017/08/25 19:28:53","新北市樹林區復興路196號","121.419986666667","24.9909833333333","6500700","樹林區"
"238023","601-UM","2017/08/25 19:28:45","桃園市龜山區萬壽路一段291號","121.40314","25.0173016666667","6500700","樹林區"
"238019","599-UM","2017/08/25 19:28:58","新北市樹林區八德街37號","121.418611666667","24.98357","6500700","樹林區"
"238018","571-TV","2017/08/25 19:28:54","新北市樹林區中華路213號","121.41967","24.981345","6500700","樹林區"
"238024","5061-A6","2017/08/25 19:29:01","新北市樹林區中山路三段22號","121.395518333333","24.9728416666667","6500700","樹林區"
"238022","312-TH","2017/08/25 19:28:52","新北市樹林區名園街20號","121.419315","24.9792466666667","6500700","樹林區"
"238021","311-TH","2017/08/25 19:26:00","新北市樹林區柑園街二段403-1號","121.36671","24.9485016666667","6500700","樹林區"
"238025","303-VK","2017/08/25 19:29:02","新北市樹林區中山路一段109號","121.423228333333","24.9907716666667","6500700","樹林區"
"238017","283-BY","2017/08/25 19:29:00","新北市樹林區光興街44號","121.409898333333","25.0026983333333","6500700","樹林區"
"238014","282-BY","2017/08/25 19:29:02","新北市樹林區千歲街6巷5號","121.425356666667","24.99538","6500700","樹林區"
"238020","268-VK","2017/08/24 19:50:33","新北市樹林區樹新路122號","121.430186666667","24.9984466666667","6500700","樹林區"
"238026","172-UY","2017/08/25 19:28:52","新北市樹林區佳園路二段175號","121.38975","24.956265","6500700","樹林區"
"238016","169-UY","2017/08/25 19:28:58","新北市樹林區復興路428號","121.414145","24.9846283333333","6500700","樹林區"
"239007","AAC-297","2017/08/25 19:29:06","新北市鶯歌區大湖路18號","121.342916666667","24.96099","6500800","鶯歌區"
"239006","891-R6","2017/08/25 19:28:57","新北市鶯歌區尖山埔路10號","121.349571666667","24.9511183333333","6500800","鶯歌區"
"239003","360-BY","2017/08/25 19:28:55","新北市鶯歌區中正一路113-1號","121.370041666667","24.9581183333333","6500800","鶯歌區"
"221008","489-VK","2017/08/25 19:28:47","新北市汐止區康寧街163號","121.622198333333","25.06676","6501100","汐止區"
"221036","130-UY","2017/08/25 19:29:04","新北市汐止區康寧街901號","121.651755","25.0750083333333","6501100","汐止區"
"221015","131-UY","2017/08/25 19:28:50","新北市汐止區康寧街901號","121.651546666667","25.0749016666667","6501100","汐止區"
"221010","269-BY","2017/08/25 19:28:52","新北市汐止區康寧街901號","121.65141","25.0750166666667","6501100","汐止區"
"221031","277-VK","2017/08/25 19:28:46","新北市汐止區汐萬路一段256巷1號","121.652048333333","25.0747416666667","6501100","汐止區"
"221012","278-VK","2017/08/25 19:29:01","新北市汐止區大同路三段273號","121.67526","25.0763216666667","6501100","汐止區"
"221023","279-VK","2017/08/25 19:28:48","新北市汐止區康寧街747號","121.63829","25.07298","6501100","汐止區"
"221032","280-BY","2017/08/25 19:28:56","新北市汐止區大同路二段175號","121.6516","25.0642016666667","6501100","汐止區"
"221027","281-BY","2017/08/25 19:28:53","新北市汐止區汐萬路一段39號","121.655295","25.0687166666667","6501100","汐止區"
"221038","297-VK","2017/08/25 19:28:58","新北市汐止區汐萬路一段312號","121.650438333333","25.075205","6501100","汐止區"
"221029","298-VK","2017/08/25 19:29:00","新北市汐止區康寧街901號","121.651645","25.0748466666667","6501100","汐止區"
"221021","299-VK","2017/08/25 19:28:48","新北市汐止區康寧街901號","121.651468333333","25.074975","6501100","汐止區"
"221025","623-UM","2017/08/25 19:28:56","新北市汐止區秀峰路60號","121.659448333333","25.0655483333333","6501100","汐止區"
"221033","647-BX","2017/08/25 19:28:49","新北市汐止區南勢街1巷2號","121.626975","25.0374666666667","6501100","汐止區"
"221002","707-TV","2017/08/25 19:28:59","新北市汐止區中興路19號","121.636895","25.0594066666667","6501100","汐止區"
"221018","753-BX","2017/08/25 19:29:08","新北市汐止區康寧街901號","121.651578333333","25.0749466666667","6501100","汐止區"
"220079","145-BY","2017/08/25 19:29:06","新北市板橋區民權路302巷25號","121.458025","25.0164283333333","6500100","板橋區"
"220080","200-UY","2017/08/25 19:29:05","新北市板橋區大觀路二段3巷47號","121.448955","25.00358","6500100","板橋區"
"220082","610-BX","2017/08/25 19:29:04","新北市板橋區金門街328-1號","121.428468333333","24.98491","6500100","板橋區"
"220101","245-BX","2017/08/25 19:29:03","新北市板橋區縣民大道三段121巷22號","121.476628333333","25.0235266666667","6500100","板橋區"
"220056","276-BY","2017/08/25 19:29:05","新北市板橋區信義路1巷26弄35號","121.458908333333","24.9966666666667","6500100","板橋區"
"220072","277-BY","2017/08/25 19:28:52","新北市板橋區篤行路二段161巷15號","121.429968333333","24.9874433333333","6500100","板橋區"
"220094","283-UM","2017/08/25 19:28:55","新北市板橋區吳鳳路50巷9號","121.467918333333","25.0305233333333","6500100","板橋區"
"220071","283-VK","2017/08/25 19:29:04","新北市板橋區大豐街111號","121.46125","25.0011416666667","6500100","板橋區"
"220053","285-VK","2017/08/25 19:29:03","新北市板橋區永豐街189號","121.47613","25.0207833333333","6500100","板橋區"
"220081","287-VK","2017/08/25 19:27:29","新北市板橋區大觀路一段29巷131弄24-1號","121.45012","25.0043633333333","6500100","板橋區"
"220090","288-VK","2017/08/25 19:28:48","新北市板橋區裕民街58號","121.46135","25.0287183333333","6500100","板橋區"
"220061","293-UM","2017/08/25 19:29:00","新北市板橋區中山路二段283號","121.477948333333","25.0178916666667","6500100","板橋區"
"220062","295-UM","2017/08/25 19:29:04","新北市板橋區三民路二段181巷1號","121.47964","25.0144116666667","6500100","板橋區"
"220084","296-UM","2017/08/25 19:29:06","新北市板橋區篤行路三段玉平巷79號","121.428235","24.9860633333333","6500100","板橋區"
"220075","297-UM","2017/08/25 19:28:48","新北市板橋區中正路249號","121.455838333333","25.018325","6500100","板橋區"
"220092","307-R5","2017/08/25 19:29:05","新北市板橋區光武街2巷33號","121.468801666667","25.0257833333333","6500100","板橋區"
"220098","317-R6","2017/08/25 19:29:07","新北市板橋區民生路三段263巷2弄4號","121.4639","25.0295","6500100","板橋區"
"220064","486-VK","2017/08/25 19:28:58","新北市板橋區中山路一段8號","121.46003","25.0078016666667","6500100","板橋區"
"220089","487-VK","2017/08/25 19:29:02","新北市板橋區文化路一段145號","121.462475","25.0155516666667","6500100","板橋區"
"220088","491-VK","2017/08/25 19:29:04","新北市板橋區雙十路二段149號","121.474755","25.028095","6500100","板橋區"
"220035","560-BX","2017/08/25 19:28:51","新北市板橋區中正路399巷26號","121.453298333333","25.0226083333333","6500100","板橋區"
"220103","561-BX","2017/08/25 19:29:07","新北市板橋區文化路一段220號","121.466585","25.0204916666667","6500100","板橋區"
"220063","609-BX","2017/08/25 19:28:53","新北市板橋區三民路一段31巷89弄9號","121.482148333333","25.0234716666667","6500100","板橋區"
"220083","630-UY","2017/08/25 19:28:50","新北市板橋區龍興街73巷28號","121.442883333333","25.0025916666667","6500100","板橋區"
"220091","637-BX","2017/08/25 19:28:58","新北市板橋區文聖街135巷23號","121.478915","25.0289633333333","6500100","板橋區"
"220057","686-BX","2017/08/25 19:28:52","新北市板橋區五權街10號","121.46422","24.994095","6500100","板橋區"
"220077","687-BX","2017/08/25 19:29:05","新北市板橋區僑中三街38號","121.445315","25.0048866666667","6500100","板橋區"
"220093","689-BX","2017/08/25 19:28:58","新北市板橋區新海路120號","121.461151666667","25.02287","6500100","板橋區"
"220054","741-BX","2017/08/25 19:29:01","新北市板橋區光明街45號","121.461491666667","25.0027266666667","6500100","板橋區"
"220055","827-TW","2017/08/25 19:28:51","新北市板橋區重慶路278巷7號","121.462578333333","24.9996483333333","6500100","板橋區"
"220067","829-TW","2017/08/25 19:29:00","新北市板橋區長安街138巷11號","121.472966666667","25.0091983333333","6500100","板橋區"
"220096","831-TW","2017/08/25 19:29:06","新北市板橋區大同街4號","121.476966666667","25.0268066666667","6500100","板橋區"
"220074","895-R6","2017/08/25 19:28:53","新北市板橋區北門街61號","121.45618","25.011875","6500100","板橋區"
"220073","985-R7","2017/08/25 19:29:04","新北市板橋區中正路278號","121.455203333333","25.0199883333333","6500100","板橋區"
"220097","AAC-210","2017/08/25 19:28:53","新北市板橋區漢生西路181號","121.46329","25.0237316666667","6500100","板橋區"
"220070","AAC-253","2017/08/25 19:29:03","新北市板橋區忠孝路118號","121.462951666667","25.002315","6500100","板橋區"
