"lineid","car","time","location","longitude","latitude","cityid","cityname"
"249005","172-UM","2017/08/25 17:21:42","新北市五股區民義路二段132號","121.408595","25.1212183333333","6502300","八里區"
"231064","719-UY","2017/08/25 22:39:00","新北市新店區薏仁坑路2-1號","121.500733333333","24.9581683333333","6500600","新店區"
"235031","255-BX","2017/08/25 21:43:14","新北市中和區員山路36巷13號","121.484358333333","24.9913416666667","6500300","中和區"
"235026","800-TS","2017/08/25 20:27:21","新北市中和區員山路36巷16-3號","121.484925","24.9916616666667","6500300","中和區"
"251004","009-UM","2017/08/25 22:38:53","新北市淡水區淡金路50號","121.456371666667","25.161515","6501000","淡水區"
"251008","181-VK","2017/08/25 22:38:44","新北市淡水區淡金路二段138號","121.446945","25.1879933333333","6501000","淡水區"
"251007","577-R6","2017/08/25 22:38:57","新北市淡水區崁頂64號","121.439768333333","25.2013316666667","6501000","淡水區"
