"lineid","car","time","location","longitude","latitude","cityid","cityname"
"249005","172-UM","2017/08/25 17:21:42","新北市五股區民義路二段132號","121.408595","25.1212183333333","6502300","八里區"
"231064","719-UY","2017/08/25 22:45:00","新北市新店區薏仁坑路自強巷6號","121.496413333333","24.9582866666667","6500600","新店區"
"235031","255-BX","2017/08/25 21:43:14","新北市中和區員山路36巷13號","121.484358333333","24.9913416666667","6500300","中和區"
"235026","800-TS","2017/08/25 20:27:21","新北市中和區員山路36巷16-3號","121.484925","24.9916616666667","6500300","中和區"
"251004","009-UM","2017/08/25 22:44:53","新北市淡水區水源街二段194號","121.456986666667","25.17571","6501000","淡水區"
"251008","181-VK","2017/08/25 22:44:44","新北市淡水區崁頂133號","121.431255","25.2054333333333","6501000","淡水區"
"251007","577-R6","2017/08/25 22:44:37","新北市淡水區下圭柔山90-8號","121.431245","25.2103533333333","6501000","淡水區"
