"lineid","car","time","location","longitude","latitude","cityid","cityname"
"241031","841-RS","2017/11/04 08:48:59","新北市永和區永平路198號","121.509896666667","25.009865","6500200","三重區"
"222004","289-BY","2017/11/04 08:42:55","新北市深坑區大崙尾1-1號","121.615691666667","24.975195","6501800","深坑區"
"231007","189-VK","2017/11/04 08:49:02","新北市新店區新潭路三段215巷25號","121.508161666667","24.9040616666667","6500600","新店區"
"231008","192-VK","2017/11/04 08:49:00","新北市新店區新烏路三段寶島巷4號","121.551125","24.8992216666667","6500600","新店區"
"247012","335-TH","2017/11/04 08:48:54","新北市蘆洲區九芎街39號","121.468021666667","25.0785066666667","6501400","蘆洲區"
"226005","5620-A6","2017/11/04 08:48:47","新北市平溪區南山里南山坪15號","121.76864","25.0339016666667","6502400","平溪區"
"226002","7418-A5","2017/11/04 08:48:56","新北市平溪區東勢里芊蓁林9-1號","121.735715","24.990425","6502400","平溪區"
"226003","AGD-0702","2017/11/04 08:49:04","新北市平溪區十分里十分街182號","121.778658333333","25.0438816666667","6502400","平溪區"
"223006","022-BY","2017/11/04 08:48:49","新北市深坑區昇高坑路51-1號","121.630491666667","24.99405","6501900","石碇區"
"223008","406-TH","2017/11/04 08:49:01","新北市石碇區光明路13號","121.679965","25.0335683333333","6501900","石碇區"
"223004","437-BY","2017/11/04 08:49:04","新北市石碇區磨石坑13號","121.688863333333","24.9735833333333","6501900","石碇區"
"223001","592-UM","2017/11/04 08:49:03","新北市石碇區北宜路五段火燒樟巷11號","121.625738333333","24.9545","6501900","石碇區"
"223007","661-BX","2017/11/04 08:49:04","新北市石碇區光明路12-1號","121.680246666667","25.03057","6501900","石碇區"
"223005","677-TV","2017/11/04 08:49:03","新北市石碇區磨石坑33號","121.692863333333","24.9680916666667","6501900","石碇區"
"227006","282-VK","2017/11/04 08:48:59","新北市雙溪區上林里內平林124-3號","121.823888333333","25.0276816666667","6502500","雙溪區"
"253003","6232-TK","2017/11/04 08:49:02","新北市石門區尖子鹿7-2號","121.574998333333","25.2798583333333","6502200","石門區"
"253001","6251-TK","2017/11/04 08:49:02","新北市石門區下員坑16-7號","121.507943333333","25.27947","6502200","石門區"
"253002","637-UY","2017/11/04 08:48:43","新北市石門區尖山湖16-2號","121.562441666667","25.2435683333333","6502200","石門區"
"253004","8270-PC","2017/11/04 08:44:34","新北市石門區五爪崙8-3號","121.606235","25.2633183333333","6502200","石門區"
"252004","249-BX","2017/11/04 08:48:52","新北市三芝區興華里田心子16號","121.493395","25.2043183333333","6502100","三芝區"
"252007","AAC-283","2017/11/04 08:48:57","新北市三芝區錫板里番婆林44-1號","121.49387","25.23469","6502100","三芝區"
"237001","159-UY","2017/11/04 08:49:01","新北市三峽區大德路268號","121.374336666667","24.9480233333333","6500900","三峽區"
"236011","165-UM","2017/11/04 08:48:51","新北市土城區中央路三段238-6號","121.428226666667","24.96418","6501300","土城區"
"236002","339-SR","2017/11/04 08:49:00","新北市土城區員林街72號","121.44425","24.9770583333333","6501300","土城區"
"236006","498-BY","2017/11/04 08:48:48","新北市土城區承天路4巷10-1號","121.43829","24.959085","6501300","土城區"
"220080","461-BY","2017/11/04 08:49:01","新北市五股區成泰路一段8巷9-9號","121.43755","25.0684716666667","6500100","板橋區"
"220011","609-BX","2017/11/04 08:49:01","新北市板橋區縣民大道二段82號","121.465145","25.0142016666667","6500100","板橋區"
