"lineid","car","time","location","longitude","latitude","cityid","cityname"
"234046","148-BY","2017/11/04 19:09:57","新北市永和區永元路18巷38弄1號","121.524023333333","25.0002583333333","6500400","永和區"
"234013","149-BY","2017/11/04 19:09:53","新北市永和區保福路二段61號","121.510798333333","25.0122883333333","6500400","永和區"
"234007","207-UY","2017/11/04 19:09:42","新北市永和區保平路268巷51弄12號","121.5063","25.006465","6500400","永和區"
"234081","298-R6","2017/11/04 19:09:50","新北市永和區福和路57巷14弄8-1號","121.52239","25.007245","6500400","永和區"
"234038","336-UY","2017/11/04 19:09:59","新北市永和區民樂街69巷1號","121.527411666667","24.99774","6500400","永和區"
"234064","337-UY","2017/11/04 19:10:03","新北市永和區秀朗路二段31號","121.521208333333","25.00244","6500400","永和區"
"234086","338-UY","2017/11/04 19:09:50","新北市永和區永貞路90號","121.519548333333","25.004615","6500400","永和區"
"234070","552-UM","2017/11/04 19:09:55","新北市永和區豫溪街137巷1弄18號","121.51875","25.0104566666667","6500400","永和區"
"234054","553-UM","2017/11/04 19:09:53","新北市永和區竹林路78號","121.519341666667","25.01274","6500400","永和區"
"234017","745-BX","2017/11/04 19:09:53","新北市永和區文化路90巷17號","121.513735","25.01619","6500400","永和區"
"234030","746-BX","2017/11/04 19:09:57","新北市永和區四維街66號","121.524093333333","24.99824","6500400","永和區"
"241031","841-RS","2017/11/04 14:53:29","新北市永和區保生路55-8號","121.504075","25.0103916666667","6500200","三重區"
"234061","AAD-866","2017/11/04 19:10:02","新北市永和區安樂路306-8號","121.514556666667","25.0053683333333","6500400","永和區"
"234042","862-TW","2017/11/04 19:09:55","新北市永和區永貞路346號","121.510748333333","25.005935","6500400","永和區"
"234050","863-TW","2017/11/04 19:09:56","新北市永和區仁愛路104巷7弄62號","121.510826666667","25.0142266666667","6500400","永和區"
"234026","9371-KE","2017/11/04 19:09:48","新北市永和區安樂路198巷4弄2號","121.515708333333","25.0021516666667","6500400","永和區"
"249005","172-UM","2017/11/04 19:10:00","新北市八里區中華路三段77號","121.394458333333","25.14061","6502300","八里區"
"249001","173-UM","2017/11/04 19:09:50","新北市八里區龍米路三段2號","121.429573333333","25.1589633333333","6502300","八里區"
"248016","026-BX","2017/11/04 19:10:02","新北市五股區成泰路三段577巷45號","121.450876666667","25.10312","6501500","五股區"
"248008","095-VK","2017/11/04 19:09:44","新北市五股區中興路一段118巷20號","121.466013333333","25.0743983333333","6501500","五股區"
"248020","225-UY","2017/11/04 19:06:11","新北市五股區凌雲路三段59-2號","121.425181666667","25.1250366666667","6501500","五股區"
"248012","247-BX","2017/11/04 19:09:58","新北市五股區中興路四段48巷16號","121.43861","25.0834516666667","6501500","五股區"
"248010","272-BY","2017/11/04 19:09:50","新北市五股區水碓一路23號","121.430638333333","25.071315","6501500","五股區"
"248004","677-BX","2017/11/04 19:09:53","新北市五股區六合街3號","121.43177","25.08858","6501500","五股區"
"248002","678-BX","2017/11/04 19:09:49","新北市五股區凌雲路一段158巷6號","121.447748333333","25.10295","6501500","五股區"
"234023","9380-KE","2017/11/04 19:09:58","新北市永和區中興街10巷15號","121.51578","25.011225","6500400","永和區"
"234077","969-R7","2017/11/04 19:09:56","新北市永和區民族街25號","121.518846666667","24.9996633333333","6500400","永和區"
"234074","AAC-211","2017/11/04 19:09:45","新北市永和區竹林路187號","121.52059","25.009625","6500400","永和區"
"234067","AAC-212","2017/11/04 19:10:00","新北市永和區保平路43號","121.511945","25.0071983333333","6500400","永和區"
"234003","AAC-295","2017/11/04 19:10:01","新北市永和區保福路一段75號","121.511988333333","25.0104233333333","6500400","永和區"
"244013","069-UM","2017/11/04 19:09:50","新北市林口區麗園二街23巷15-9號","121.379166666667","25.0702183333333","6501700","林口區"
"244019","403-UM","2017/11/04 19:09:56","新北市林口區麗園二街62-2號","121.381276666667","25.0682316666667","6501700","林口區"
"244025","742-UY","2017/11/04 19:09:52","新北市林口區文化北路一段542巷13弄67號","121.369591666667","25.0797","6501700","林口區"
"244009","410-SL","2017/11/04 19:09:58","新北市林口區竹林路462號","121.388001666667","25.08506","6501700","林口區"
"244023","483-VK","2017/11/04 19:09:52","新北市林口區文化三路一段617巷187號","121.371158333333","25.0775783333333","6501700","林口區"
"244011","701-TV","2017/11/04 19:09:52","新北市林口區竹林路56號","121.387533333333","25.07808","6501700","林口區"
"243013","AAD-798","2017/11/04 19:09:50","新北市泰山區漢口街14號","121.423608333333","25.0365233333333","6501600","泰山區"
"243009","297-R6","2017/11/04 19:09:54","新北市泰山區明志路一段115號","121.433585","25.06344","6501600","泰山區"
"243015","380-SR","2017/11/04 19:09:51","新北市泰山區明志路一段384號","121.430758333333","25.05744","6501600","泰山區"
"243014","421-VK","2017/11/04 19:09:54","新北市泰山區泰林路二段438號","121.426598333333","25.0642083333333","6501600","泰山區"
"243010","KEA-2215","2017/11/04 19:09:53","新北市泰山區仁愛路39巷23號","121.431115","25.0553283333333","6501600","泰山區"
"243011","KEA-2216","2017/11/04 19:09:58","新北市泰山區明志路二段372巷2號","121.425371666667","25.04505","6501600","泰山區"
"243012","646-TV","2017/11/04 19:09:56","新北市泰山區吳厝窠1號","121.427911666667","25.0585383333333","6501600","泰山區"
"243016","680-BX","2017/11/04 19:09:55","新北市泰山區明志路二段346號","121.425948333333","25.0452416666667","6501600","泰山區"
"222003","436-BY","2017/11/04 19:09:51","新北市深坑區深南路162號","121.626073333333","25.01494","6501800","深坑區"
"222002","659-BX","2017/11/04 19:09:58","新北市深坑區紅葉街24號","121.632485","25.0136416666667","6501800","深坑區"
"231041","002-UM","2017/11/04 19:09:59","新北市新店區溪園路363號","121.523133333333","24.98082","6500600","新店區"
"231059","046-UY","2017/11/04 19:09:51","新北市新店區安和路二段166-6號","121.519301666667","24.9739233333333","6500600","新店區"
"231061","047-UY","2017/11/04 19:09:45","新北市新店區安康路一段65號","121.530431666667","24.9610333333333","6500600","新店區"
"231060","106-UY","2017/11/04 19:09:55","新北市新店區安康路二段232號","121.509435","24.9591916666667","6500600","新店區"
"231048","108-UY","2017/11/04 19:09:54","新北市新店區德正街27巷29弄19號","121.544828333333","24.971865","6500600","新店區"
"231052","187-VK","2017/11/04 19:09:48","新北市新店區自強路91號","121.546315","24.9237083333333","6500600","新店區"
"231050","KEA-2219","2017/11/04 19:09:53","新北市新店區竹林路2巷31號","121.550361666667","24.9501766666667","6500600","新店區"
"231046","278-BY","2017/11/04 19:09:44","新北市新店區華潭街1巷49號","121.526765","24.9469466666667","6500600","新店區"
"231054","AAD-862","2017/11/04 19:09:43","新北市新店區新店路190號","121.537138333333","24.9561166666667","6500600","新店區"
"231058","3712-VJ","2017/11/04 19:09:53","新北市新店區中興路一段121號","121.541653333333","24.9629883333333","6500600","新店區"
"231056","3713-VJ","2017/11/04 19:09:50","新北市新店區建國路219號","121.537676666667","24.9810916666667","6500600","新店區"
"231055","4716-K9","2017/11/04 19:09:42","新北市新店區環河路176號","121.525221666667","24.975475","6500600","新店區"
"231067","4772-VM","2017/11/04 19:09:50","新北市新店區安華路1-1號","121.519323333333","24.9604683333333","6500600","新店區"
"231065","512-UM","2017/11/04 19:09:53","新北市新店區安祥路143號","121.474495","24.955795","6500600","新店區"
"231064","515-UM","2017/11/04 19:10:01","新北市新店區安忠路86-6號","121.511741666667","24.958295","6500600","新店區"
"231045","617-UM","2017/11/04 19:09:46","新北市新店區北宜路一段164號","121.540476666667","24.9533216666667","6500600","新店區"
"231040","619-UM","2017/11/04 19:09:58","新北市新店區三民路98-2號","121.534","24.97349","6500600","新店區"
"231042","641-BX","2017/11/04 19:09:46","新北市新店區中興路一段115號","121.541541666667","24.96272","6500600","新店區"
"231063","645-TV","2017/11/04 19:09:56","新北市新店區車子路137號","121.505146666667","24.9482283333333","6500600","新店區"
"231049","719-UM","2017/11/04 19:09:55","新北市新店區二十張路25巷20號","121.539258333333","24.9820033333333","6500600","新店區"
"231051","719-UY","2017/11/04 19:09:41","新北市新店區中正路409巷1號","121.534095","24.9774233333333","6500600","新店區"
"231062","720-UM","2017/11/04 19:10:00","新北市新店區安康路一段155-1號","121.527448333333","24.96229","6500600","新店區"
"231044","897-TW","2017/11/04 19:09:43","新北市新店區中興路三段184號","121.544045","24.9814166666667","6500600","新店區"
"231043","899-TW","2017/11/04 19:09:46","新北市新店區寶橋路97號","121.547088333333","24.976215","6500600","新店區"
"231066","AKT-0513","2017/11/04 19:10:02","新北市新店區安康路三段359巷16號","121.484571666667","24.94964","6500600","新店區"
"241026","066-VK","2017/11/04 19:09:44","新北市三重區重安街137號","121.495305","25.0546933333333","6500200","三重區"
"241020","413-TH","2017/11/04 19:09:52","新北市三重區後竹圍街142號","121.487888333333","25.0724716666667","6500200","三重區"
"241035","743-BX","2017/11/04 19:09:59","新北市三重區重新路四段121號","121.484855","25.0519883333333","6500200","三重區"
"241029","942-UM","2017/11/04 19:09:49","新北市三重區集美街222號","121.492048333333","25.055315","6500200","三重區"
"235066","003-UY","2017/11/04 19:09:59","新北市中和區水源路36巷1弄12號","121.505828333333","25.0030166666667","6500300","中和區"
"235064","005-UY","2017/11/04 19:09:57","新北市中和區泰和街29號","121.499268333333","24.99991","6500300","中和區"
"235063","006-UY","2017/11/04 19:09:54","新北市中和區中正路632號","121.485371666667","24.9960183333333","6500300","中和區"
"235056","096-UM","2017/11/04 19:09:48","新北市中和區員山路514巷14弄12號","121.480263333333","25.0091683333333","6500300","中和區"
"235039","097-UM","2017/11/04 19:09:52","新北市永和區民有街15號","121.516455","24.9967583333333","6500300","中和區"
"235065","098-UM","2017/11/04 19:10:00","新北市中和區福祥路158號","121.498656666667","25.007705","6500300","中和區"
"235040","150-BY","2017/11/04 19:09:48","新北市中和區保健路123號","121.51254","24.9962133333333","6500300","中和區"
"235058","151-BY","2017/11/04 19:09:57","新北市中和區員山路122號","121.481086666667","24.9959233333333","6500300","中和區"
"235055","183-VK","2017/11/04 19:09:53","新北市中和區德光路12號","121.471508333333","25.0046183333333","6500300","中和區"
"235038","185-VK","2017/11/04 19:09:56","新北市中和區大仁街20巷1號","121.517768333333","24.9933216666667","6500300","中和區"
"235049","186-VK","2017/11/04 19:09:56","新北市中和區明禮街25巷2號","121.504538333333","24.996025","6500300","中和區"
"235067","255-BX","2017/11/04 19:09:54","新北市中和區新生街176巷17號","121.4827","24.99988","6500300","中和區"
"235044","293-VK","2017/11/04 19:09:57","新北市中和區中興街202巷10號","121.499116666667","24.9898933333333","6500300","中和區"
"235072","301-VK","2017/11/04 19:09:59","新北市中和區連城路215號","121.494356666667","24.9978266666667","6500300","中和區"
"235043","352-BY","2017/11/04 19:09:49","新北市中和區景平路148號","121.518106666667","24.992025","6500300","中和區"
"235068","377-QA","2017/11/04 19:10:01","新北市中和區圓通路158巷1弄9號","121.497293333333","24.9960083333333","6500300","中和區"
"235061","378-QA","2017/11/04 19:09:56","新北市中和區中山路三段63巷13弄61號","121.476605","25.0033866666667","6500300","中和區"
"235035","269-TV","2017/11/04 19:09:55","新北市中和區連城路519號","121.482048333333","24.9953766666667","6500300","中和區"
"235050","4979-A6","2017/11/04 19:09:44","新北市中和區復興路280巷18弄11號","121.501826666667","24.9923483333333","6500300","中和區"
"235069","4980-A6","2017/11/04 19:09:59","新北市中和區中山路二段181巷22號","121.501043333333","25.0019716666667","6500300","中和區"
"235042","551-UM","2017/11/04 19:09:51","新北市中和區自立路16巷4號","121.521585","24.9936416666667","6500300","中和區"
"235070","558-UM","2017/11/04 19:09:56","新北市中和區中和路212號","121.505973333333","24.9994883333333","6500300","中和區"
"235045","565-BX","2017/11/04 19:09:43","新北市中和區景新街467巷38弄2號","121.514525","24.9885833333333","6500300","中和區"
"235054","640-BX","2017/11/04 19:09:58","新北市中和區國光街30號","121.471496666667","25.00016","6500300","中和區"
"235047","732-UM","2017/11/04 19:09:53","新北市中和區興南路一段56巷1弄2號","121.510731666667","24.990815","6500300","中和區"
"235046","733-UM","2017/11/04 19:09:58","新北市中和區忠孝街1巷9號","121.508621666667","24.983585","6500300","中和區"
"235057","801-TS","2017/11/04 19:09:49","新北市中和區民利街100巷6弄2號","121.477098333333","24.9984816666667","6500300","中和區"
"235041","802-TS","2017/11/04 19:09:59","新北市中和區中和路260-1號","121.50818","24.9994633333333","6500300","中和區"
"235052","805-TS","2017/11/04 19:09:45","新北市中和區興南路二段142巷31弄28號","121.502013333333","24.9833983333333","6500300","中和區"
"235048","896-TW","2017/11/04 19:10:02","新北市中和區忠孝街2-8號","121.509185","24.9829333333333","6500300","中和區"
"235053","900-TW","2017/11/04 19:09:52","新北市中和區華福街8號","121.46558","24.99678","6500300","中和區"
"235060","911-UM","2017/11/04 19:09:44","新北市中和區民治街27巷8號","121.475523333333","25.0012483333333","6500300","中和區"
"235037","157-BY","2017/11/04 19:09:54","新北市中和區忠孝街31巷56號","121.509673333333","24.98563","6500300","中和區"
"235037","AAC-213","2017/11/04 19:09:54","新北市中和區自立路99巷4號","121.52238","24.9947483333333","6500300","中和區"
"235059","AAC-215","2017/11/04 19:09:52","新北市中和區圓通路294巷17-5號","121.488601666667","24.990435","6500300","中和區"
"220068","013-TV","2017/11/04 19:09:59","新北市板橋區翠華街6巷10號","121.480685","25.0239566666667","6500100","板橋區"
"220065","072-UY","2017/11/04 19:09:52","新北市板橋區民族路247巷7弄23號","121.47067","25.00804","6500100","板橋區"
"220086","073-UY","2017/11/04 19:09:52","新北市板橋區中正路250巷60號","121.457796666667","25.0196483333333","6500100","板橋區"
"220106","075-UY","2017/11/04 19:09:50","新北市板橋區文化路二段317號","121.472223333333","25.029815","6500100","板橋區"
"220069","AAD-861","2017/11/04 19:09:56","新北市板橋區華興街74號","121.457316666667","25.0051816666667","6500100","板橋區"
"247004","336-TH","2017/11/04 19:09:56","新北市五股區中興路三段163號","121.449213333333","25.08056","6501400","蘆洲區"
"247012","335-TH","2017/11/04 11:30:45","新北市五股區中興路三段163號","121.449108333333","25.0808616666667","6501400","蘆洲區"
"226004","205-ST","2017/11/04 19:09:44","新北市平溪區嶺腳里嶺腳寮1-5號","121.745458333333","25.0279766666667","6502400","平溪區"
"228003","097-TW","2017/11/04 19:09:42","新北市貢寮區和美里和美街32-5號","121.913218333333","25.084305","6502600","貢寮區"
"228001","212-TW","2017/11/04 19:09:52","新北市貢寮區真理里新港街10號","121.925501666667","25.05438","6502600","貢寮區"
"228002","585-TW","2017/11/04 19:10:00","新北市貢寮區福隆里福隆街28號","121.94497","25.01734","6502600","貢寮區"
"224010","AGQ-8101","2017/11/04 19:09:55","新北市瑞芳區基山街71號","121.84504","25.108455","6501200","瑞芳區"
"224006","676-BX","2017/11/04 19:09:53","新北市瑞芳區三爪子坑路110號","121.807601666667","25.1052133333333","6501200","瑞芳區"
"224009","285-BY","2017/11/04 19:09:58","新北市瑞芳區長仁路40號","121.863345","25.1183416666667","6501200","瑞芳區"
"224008","275-VK","2017/11/04 19:09:44","新北市瑞芳區瑞芳街82-1號","121.803011666667","25.1099633333333","6501200","瑞芳區"
"224005","271-BY","2017/11/04 19:09:43","新北市瑞芳區國中新村18號","121.817148333333","25.1073683333333","6501200","瑞芳區"
"227010","642-TC","2017/11/04 19:09:58","新北市雙溪區牡丹里自強路20號","121.865093333333","25.0393016666667","6502500","雙溪區"
"227002","400-TW","2017/11/04 19:09:41","新北市雙溪區平林里外平林9-6號","121.859095","25.0379866666667","6502500","雙溪區"
"253005","032-BX","2017/11/04 19:09:50","新北市石門區阿里荖40-1號","121.606181666667","25.280665","6502200","石門區"
"253006","295-VK","2017/11/04 19:09:59","新北市石門區崁子腳58-19號","121.531413333333","25.2873883333333","6502200","石門區"
"222001","KEA-2212","2017/11/04 19:09:46","新北市深坑區北深路一段300號","121.624085","25.00569","6501800","深坑區"
"208002","742-BX","2017/11/04 19:09:52","新北市金山區中正路67號","121.634003333333","25.2216966666667","6502700","金山區"
"208003","665-BX","2017/11/04 19:09:57","新北市金山區中正路59號","121.63424","25.22186","6502700","金山區"
"208001","761-BX","2017/11/04 19:10:01","新北市金山區福德街14號","121.639285","25.2218","6502700","金山區"
"251014","180-VK","2017/11/04 19:09:56","新北市淡水區小中寮39號","121.487145","25.2273416666667","6501000","淡水區"
"251010","413-VK","2017/11/04 19:10:01","新北市淡水區中正路一段156巷8號","121.421408333333","25.180325","6501000","淡水區"
"251016","442-VK","2017/11/04 19:09:50","新北市淡水區下圭柔山119-51號","121.450718333333","25.208485","6501000","淡水區"
"251005","443-VK","2017/11/04 19:09:46","新北市淡水區中山路127號","121.44143","25.1711433333333","6501000","淡水區"
"251001","559-UM","2017/11/04 19:09:57","新北市淡水區自強路201巷39號","121.462091666667","25.1268233333333","6501000","淡水區"
"251006","561-UM","2017/11/04 19:09:59","新北市淡水區中山北路二段197號","121.444173333333","25.18548","6501000","淡水區"
"251007","577-R6","2017/11/04 19:09:56","新北市淡水區民生路145巷58號","121.468103333333","25.1389233333333","6501000","淡水區"
"251002","672-BX","2017/11/04 19:09:43","新北市淡水區中山路87巷1號","121.442541666667","25.1704283333333","6501000","淡水區"
"251003","673-BX","2017/11/04 19:10:02","新北市淡水區中山北路一段66號","121.442075","25.175785","6501000","淡水區"
"207003","550-UM","2017/11/04 19:09:42","新北市萬里區大鵬里萬里加投24-2號","121.649163333333","25.2075333333333","6502800","萬里區"
"207004","225-TW","2017/11/04 19:09:53","新北市萬里區萬里里瑪鋉下街2號","121.69102","25.17834","6502800","萬里區"
"252002","178-VK","2017/11/04 19:09:48","新北市三芝區埔坪里埔頭坑79號","121.509678333333","25.2542066666667","6502100","三芝區"
"252003","249-BX","2017/11/04 19:09:41","新北市三芝區錫板里南勢崗6號","121.479543333333","25.2619083333333","6502100","三芝區"
"252001","292-VK","2017/11/04 19:09:43","新北市三芝區長勤街45巷2號","121.500321666667","25.2551216666667","6502100","三芝區"
"237004","078-UY","2017/11/04 19:09:59","新北市三峽區有木206號","121.43911","24.8514566666667","6500900","三峽區"
"237007","153-BY","2017/11/04 19:09:57","新北市三峽區中正路二段42巷84號","121.364235","24.9205516666667","6500900","三峽區"
"237009","210-TH","2017/11/04 19:09:51","新北市三峽區文化路27號","121.37311","24.9359583333333","6500900","三峽區"
"237013","252-BX","2017/11/04 19:09:48","新北市三峽區光明路69巷24號","121.376721666667","24.9291183333333","6500900","三峽區"
"237012","275-BY","2017/11/04 19:09:48","新北市三峽區三樹路222巷254弄68-12號","121.395143333333","24.94451","6500900","三峽區"
"237008","302-VK","2017/11/04 19:10:00","新北市三峽區大同路176號","121.372586666667","24.9270066666667","6500900","三峽區"
"237014","433-BY","2017/11/04 19:09:44","新北市三峽區中山路257巷1號","121.362483333333","24.93733","6500900","三峽區"
"237006","5529-G3","2017/11/04 19:09:51","新北市三峽區介壽路三段1號","121.395058333333","24.9361466666667","6500900","三峽區"
"237011","572-TV","2017/11/04 19:02:02","新北市三峽區光明路48號","121.374275","24.9296016666667","6500900","三峽區"
"237016","649-BX","2017/11/04 19:09:49","新北市三峽區安坑27-5號","121.447023333333","24.9284783333333","6500900","三峽區"
"237010","706-TV","2017/11/04 18:59:20","新北市三峽區民生街72號","121.374483333333","24.9359316666667","6500900","三峽區"
"237005","AKY-6261","2017/11/04 19:09:41","新北市三峽區中山路459巷163-3號","121.348651666667","24.9329066666667","6500900","三峽區"
"236073","105-UM","2017/11/04 19:09:45","新北市土城區裕生路84巷2號","121.447338333333","24.9854816666667","6501300","土城區"
"236001","138-TH","2017/11/04 15:37:13","新北市土城區永平街51號","121.427985","24.9592116666667","6501300","土城區"
"236079","166-UM","2017/11/04 19:10:00","新北市土城區龍泉路23-3號","121.411981666667","24.9460716666667","6501300","土城區"
"236027","269-VK","2017/11/04 19:09:57","新北市土城區中正路26號","121.443165","24.9751916666667","6501300","土城區"
"236015","270-VK","2017/11/04 19:09:46","新北市土城區學府路一段75巷1弄2號","121.457213333333","24.9877016666667","6501300","土城區"
"236038","271-VK","2017/11/04 19:10:03","新北市土城區清水路110號","121.457866666667","24.9815133333333","6501300","土城區"
"236023","401-BY","2017/11/04 19:09:46","新北市土城區延峰街34巷2號","121.469505","24.9849316666667","6501300","土城區"
"236049","752-BX","2017/11/04 19:09:46","新北市土城區明德路一段398-1號","121.45365","24.97907","6501300","土城區"
"236059","912-UM","2017/11/04 19:09:50","新北市土城區金城路二段240號","121.456741666667","24.9830066666667","6501300","土城區"
"236055","AAC-216","2017/11/04 19:10:03","新北市土城區學府路一段276號","121.450268333333","24.9833416666667","6501300","土城區"
"238015","755-BX","2017/11/04 19:09:53","新北市樹林區備內街158巷33號","121.40835","24.9899583333333","6500700","樹林區"
"238023","601-UM","2017/11/04 19:09:55","新北市樹林區大慶街49號","121.396368333333","25.0138916666667","6500700","樹林區"
"238019","599-UM","2017/11/04 19:09:52","新北市樹林區東榮街91巷4弄20號","121.415601666667","24.9816083333333","6500700","樹林區"
"238018","571-TV","2017/11/04 19:09:47","新北市樹林區太平路48號","121.419048333333","24.982545","6500700","樹林區"
"238021","KEA-2217","2017/11/04 19:09:52","新北市樹林區柑園街二段300號","121.373645","24.9518383333333","6500700","樹林區"
"238022","KEA-2213","2017/11/04 19:09:58","新北市樹林區中山路二段151巷8弄29號","121.406106666667","24.9776266666667","6500700","樹林區"
"238025","303-VK","2017/11/04 19:09:48","新北市樹林區中山路三段291號","121.391605","24.97202","6500700","樹林區"
"238017","283-BY","2017/11/04 19:09:43","新北市樹林區光興街50號","121.409825","25.00276","6500700","樹林區"
"238014","282-BY","2017/11/04 19:10:02","新北市樹林區千歲街70巷1弄21號","121.426788333333","24.9977283333333","6500700","樹林區"
"238020","268-VK","2017/11/04 19:09:57","新北市樹林區俊英街79號","121.426055","25.0075716666667","6500700","樹林區"
"238026","172-UY","2017/11/04 19:09:55","新北市樹林區佳園路一段74號","121.39319","24.9700466666667","6500700","樹林區"
"238016","169-UY","2017/11/04 19:09:43","新北市樹林區復興路335巷6弄2號","121.41828","24.9874883333333","6500700","樹林區"
"239007","AAC-297","2017/11/04 19:09:47","新北市鶯歌區中山路131號","121.349395","24.9570233333333","6500800","鶯歌區"
"239006","891-R6","2017/11/04 19:10:00","新北市鶯歌區永智街132號","121.337121666667","24.95209","6500800","鶯歌區"
"239008","527-UM","2017/11/04 19:09:44","新北市鶯歌區大湖路532號","121.33707","24.9727316666667","6500800","鶯歌區"
"239005","526-UM","2017/11/04 19:09:44","新北市鶯歌區中湖街268-1號","121.34924","24.9763566666667","6500800","鶯歌區"
"239001","417-VK","2017/11/04 19:09:56","新北市鶯歌區鶯桃路95巷76號","121.337151666667","24.9528783333333","6500800","鶯歌區"
"239003","360-BY","2017/11/04 19:09:49","新北市鶯歌區中正二路134號","121.347561666667","24.9501533333333","6500800","鶯歌區"
"239002","359-BY","2017/11/04 19:09:55","新北市鶯歌區湖山路64巷3號","121.339826666667","24.9767433333333","6500800","鶯歌區"
"239004","193-VK","2017/11/04 19:09:45","新北市鶯歌區二甲路33-13號","121.3401","24.937985","6500800","鶯歌區"
"221008","489-VK","2017/11/04 19:09:59","新北市汐止區康寧街458號","121.631625","25.06819","6501100","汐止區"
"221036","130-UY","2017/11/04 19:10:00","新北市汐止區汐萬路一段256巷3號","121.653453333333","25.074575","6501100","汐止區"
"221015","131-UY","2017/11/04 19:09:55","新北市汐止區康寧街901號","121.651588333333","25.0748916666667","6501100","汐止區"
"221010","269-BY","2017/11/04 19:09:55","新北市汐止區康寧街901號","121.651511666667","25.0749783333333","6501100","汐止區"
"221012","276-VK","2017/11/04 13:22:05","新北市汐止區汐萬路一段256巷3號","121.65347","25.0746033333333","6501100","汐止區"
"221012","278-VK","2017/11/04 19:09:46","新北市汐止區康寧街901號","121.650813333333","25.07522","6501100","汐止區"
"221032","280-BY","2017/11/04 19:09:44","新北市汐止區新台五路一段116號","121.649646666667","25.061275","6501100","汐止區"
"221027","281-BY","2017/11/04 19:09:41","新北市汐止區康寧街901號","121.651438333333","25.07494","6501100","汐止區"
"221029","298-VK","2017/11/04 19:09:58","新北市汐止區汐萬路一段256巷1號","121.651666666667","25.0748483333333","6501100","汐止區"
"221021","299-VK","2017/11/04 19:09:55","新北市汐止區康寧街901號","121.65136","25.074995","6501100","汐止區"
"221031","353-TW","2017/11/04 19:09:47","新北市汐止區福德一路10號","121.638836666667","25.0697683333333","6501100","汐止區"
"221002","358-BY","2017/11/04 19:09:43","新北市汐止區大同路一段89-3號","121.624408333333","25.0546116666667","6501100","汐止區"
"221025","623-UM","2017/11/04 19:09:59","新北市汐止區康寧街901號","121.651568333333","25.0749366666667","6501100","汐止區"
"221038","646-BX","2017/11/04 19:10:02","新北市汐止區汐萬路一段312號","121.650655","25.0752633333333","6501100","汐止區"
"221033","647-BX","2017/11/04 19:10:02","新北市汐止區南勢街3號","121.627031666667","25.0373533333333","6501100","汐止區"
"221018","753-BX","2017/11/04 19:09:43","新北市汐止區汐萬路一段256巷3號","121.652516666667","25.074555","6501100","汐止區"
"220079","145-BY","2017/11/04 19:10:02","新北市板橋區民權路260巷10號","121.458148333333","25.0152933333333","6500100","板橋區"
"220080","200-UY","2017/11/04 19:09:47","新北市板橋區大觀路二段271號","121.442791666667","24.999025","6500100","板橋區"
"220082","610-BX","2017/11/04 19:09:56","新北市板橋區溪崑二街63號","121.42803","24.9904133333333","6500100","板橋區"
"220101","245-BX","2017/11/04 19:09:55","新北市板橋區民生路二段188號","121.47012","25.0207016666667","6500100","板橋區"
"220056","276-BY","2017/11/04 19:09:56","新北市板橋區信義路74巷1弄7號","121.457416666667","24.9929383333333","6500100","板橋區"
"220072","277-BY","2017/11/04 19:10:03","新北市板橋區金門街363號","121.428481666667","24.9848233333333","6500100","板橋區"
"220071","283-VK","2017/11/04 19:10:00","新北市板橋區重慶路327巷24弄11號","121.465143333333","24.998215","6500100","板橋區"
"220094","285-UM","2017/11/04 19:09:56","新北市板橋區光武街108-5號","121.465661666667","25.02922","6500100","板橋區"
"220053","285-VK","2017/11/04 19:09:52","新北市板橋區懷仁街35巷2弄1號","121.476911666667","25.0196766666667","6500100","板橋區"
"220083","286-VK","2017/11/04 19:09:53","新北市板橋區龍興街101巷15號","121.443661666667","25.003445","6500100","板橋區"
"220081","287-VK","2017/11/04 19:09:47","新北市板橋區南雅西路二段110巷14號","121.452475","25.0126066666667","6500100","板橋區"
"220090","288-VK","2017/11/04 19:09:58","新北市板橋區裕民街48號","121.461668333333","25.0287866666667","6500100","板橋區"
"220061","295-UM","2017/11/04 19:09:45","新北市板橋區三民路二段30號","121.479205","25.0180766666667","6500100","板橋區"
"220084","296-UM","2017/11/04 19:09:53","新北市板橋區溪崑一街28號","121.43006","24.991045","6500100","板橋區"
"220075","297-UM","2017/11/04 19:09:56","新北市板橋區南雅南路一段71號","121.45585","25.0056266666667","6500100","板橋區"
"220062","303-R5","2017/11/04 19:09:54","新北市板橋區三民路二段245巷69弄13號","121.481026666667","25.0131733333333","6500100","板橋區"
"220092","307-R5","2017/11/04 19:09:56","新北市板橋區文化路二段225巷60弄67號","121.469013333333","25.0299216666667","6500100","板橋區"
"220098","317-R6","2017/11/04 19:09:50","新北市板橋區四維路103巷30號","121.464545","25.02403","6500100","板橋區"
"220064","486-VK","2017/11/04 19:09:45","新北市板橋區漢生東路166號","121.46702","25.01496","6500100","板橋區"
"220089","487-VK","2017/11/04 19:09:56","新北市板橋區文化路二段367號","121.473065","25.0309483333333","6500100","板橋區"
"220088","491-VK","2017/11/04 19:09:55","新北市板橋區文化路二段182巷1弄6號","121.471236666667","25.02763","6500100","板橋區"
"220035","560-BX","2017/11/04 19:09:48","新北市板橋區中正路379巷3弄1號","121.453463333333","25.021285","6500100","板橋區"
"220103","561-BX","2017/11/04 19:09:55","新北市板橋區文化路一段188巷9弄126號","121.469178333333","25.01895","6500100","板橋區"
"220063","609-BX","2017/11/04 19:10:00","新北市板橋區三民路二段38號","121.479261666667","25.0178333333333","6500100","板橋區"
"220091","637-BX","2017/11/04 19:09:58","新北市板橋區萬板路478號","121.479956666667","25.025975","6500100","板橋區"
"220057","686-BX","2017/11/04 19:09:48","新北市板橋區重慶路232號","121.462845","25.001605","6500100","板橋區"
"220077","687-BX","2017/11/04 19:09:46","新北市板橋區大觀路一段59號","121.447493333333","25.0059333333333","6500100","板橋區"
"220093","689-BX","2017/11/04 19:09:49","新北市板橋區民生路三段251號","121.464603333333","25.029165","6500100","板橋區"
"220054","741-BX","2017/11/04 19:09:52","新北市板橋區重慶路89巷10號","121.462935","25.0064783333333","6500100","板橋區"
"220055","827-TW","2017/11/04 19:09:56","新北市板橋區新民街37號","121.463908333333","25.0105516666667","6500100","板橋區"
"220067","829-TW","2017/11/04 19:09:56","新北市板橋區中山路二段90巷43弄17號","121.476948333333","25.0152366666667","6500100","板橋區"
"220102","830-TW","2017/11/04 19:09:57","新北市板橋區田單街42-1號","121.482535","25.02788","6500100","板橋區"
"220096","831-TW","2017/11/04 19:09:57","新北市板橋區雙十路二段37-1號","121.476828333333","25.0258066666667","6500100","板橋區"
"220074","895-R6","2017/11/04 19:09:58","新北市板橋區中正路13號","121.456143333333","25.0122416666667","6500100","板橋區"
"220073","985-R7","2017/11/04 19:10:02","新北市板橋區中正路302號","121.454793333333","25.0206266666667","6500100","板橋區"
"220097","AAC-210","2017/11/04 19:09:52","新北市板橋區幸福路60巷81號","121.45972","25.02183","6500100","板橋區"
"220070","AAC-253","2017/11/04 19:10:03","新北市板橋區忠孝路28號","121.460346666667","25.0018333333333","6500100","板橋區"
