"lineid","car","time","location","longitude","latitude","cityid","cityname"
"234046","148-BY","2017/11/04 19:39:57","新北市永和區永元路99號","121.522538333333","25.0022183333333","6500400","永和區"
"234013","149-BY","2017/11/04 19:39:45","新北市永和區仁愛路215號","121.509568333333","25.0123716666667","6500400","永和區"
"234007","207-UY","2017/11/04 19:39:56","新北市永和區中和路573號","121.511778333333","25.0034266666667","6500400","永和區"
"234081","298-R6","2017/11/04 19:39:50","新北市永和區林森路46巷1號","121.524941666667","25.004735","6500400","永和區"
"234038","336-UY","2017/11/04 19:39:59","新北市永和區民樂街31巷8弄2號","121.52807","25.0010233333333","6500400","永和區"
"234064","337-UY","2017/11/04 19:39:43","新北市永和區秀朗路一段192巷6弄14號","121.51909","25.002295","6500400","永和區"
"234086","338-UY","2017/11/04 19:39:56","新北市永和區永亨路165巷1-5號","121.526063333333","25.004155","6500400","永和區"
"234070","552-UM","2017/11/04 19:39:55","新北市永和區永和路二段234號","121.515795","25.0145616666667","6500400","永和區"
"234054","553-UM","2017/11/04 19:39:53","新北市永和區竹林路39巷20號","121.51881","25.0146633333333","6500400","永和區"
"234017","745-BX","2017/11/04 19:39:53","新北市永和區文化路90巷32弄7號","121.513336666667","25.0169116666667","6500400","永和區"
"234030","746-BX","2017/11/04 19:39:57","新北市永和區四維街103巷9號","121.523943333333","24.9977883333333","6500400","永和區"
"241031","841-RS","2017/11/04 14:53:29","新北市永和區保生路55-8號","121.504075","25.0103916666667","6500200","三重區"
"234061","AAD-866","2017/11/04 19:39:57","新北市永和區中正路456號","121.517478333333","25.0028883333333","6500400","永和區"
"234042","862-TW","2017/11/04 19:39:55","新北市永和區中和路573號","121.511886666667","25.0035833333333","6500400","永和區"
"234050","863-TW","2017/11/04 19:39:56","新北市永和區保安路132號","121.508955","25.0152733333333","6500400","永和區"
"234026","9371-KE","2017/11/04 19:39:48","新北市永和區雙和街7巷8號","121.509408333333","25.0015633333333","6500400","永和區"
"234011","9373-KE","2017/11/04 19:39:47","新北市永和區保福路二段9巷9號","121.510478333333","25.0108733333333","6500400","永和區"
"249004","303-UY","2017/11/04 19:39:47","新北市八里區博物館路15號","121.41536","25.1637433333333","6502300","八里區"
"249003","593-UM","2017/11/04 19:39:56","新北市八里區荖阡坑路5-22號","121.399343333333","25.145155","6502300","八里區"
"248016","026-BX","2017/11/04 19:39:59","新北市五股區成泰路3段651-1號","121.452876666667","25.1053866666667","6501500","五股區"
"248008","095-VK","2017/11/04 19:39:45","新北市五股區四維路116-2號","121.46795","25.0746233333333","6501500","五股區"
"248012","247-BX","2017/11/04 19:39:58","新北市五股區民義路一段48號","121.43691","25.0847566666667","6501500","五股區"
"248014","261-SL","2017/11/04 19:39:40","新北市五股區五福路23巷8號","121.43352","25.0888033333333","6501500","五股區"
"248010","272-BY","2017/11/04 19:39:50","新北市五股區水碓一路23號","121.430605","25.07128","6501500","五股區"
"248004","677-BX","2017/11/04 19:39:53","新北市五股區工商路104號","121.437518333333","25.08539","6501500","五股區"
"248002","678-BX","2017/11/04 19:39:55","新北市五股區成泰路三段577巷75號","121.449925","25.103635","6501500","五股區"
"234077","969-R7","2017/11/04 19:39:56","新北市永和區民權路29巷14號","121.520856666667","24.9979183333333","6500400","永和區"
"234074","AAC-211","2017/11/04 19:39:45","新北市永和區福和路59號","121.522968333333","25.007955","6500400","永和區"
"234067","AAC-212","2017/11/04 19:40:00","新北市永和區中山路一段211號","121.508741666667","25.008475","6500400","永和區"
"234003","AAC-295","2017/11/04 19:39:41","新北市永和區福和路352號","121.514781666667","25.0074616666667","6500400","永和區"
"244019","403-UM","2017/11/04 19:39:56","新北市林口區四維路102號","121.376396666667","25.0785566666667","6501700","林口區"
"243013","AAD-798","2017/11/04 19:39:41","新北市泰山區應化街7號","121.42387","25.0437","6501600","泰山區"
"243009","297-R6","2017/11/04 19:39:54","新北市泰山區美寧街58號","121.43079","25.0646833333333","6501600","泰山區"
"243015","380-SR","2017/11/04 19:39:52","新北市泰山區民權街55號","121.428886666667","25.05036","6501600","泰山區"
"243014","421-VK","2017/11/04 19:39:54","新北市泰山區泰林路二段33-7號","121.435235","25.056435","6501600","泰山區"
"243010","KEA-2215","2017/11/04 19:39:53","新北市泰山區民生路33號","121.430686666667","25.0521583333333","6501600","泰山區"
"243011","KEA-2216","2017/11/04 19:39:58","新北市泰山區明志路三段204巷1號","121.421531666667","25.0382583333333","6501600","泰山區"
"243012","646-TV","2017/11/04 19:39:56","新北市泰山區中港西路388號","121.434928333333","25.0546666666667","6501600","泰山區"
"243016","680-BX","2017/11/04 19:39:59","新北市泰山區明志路三段438號","121.420885","25.03288","6501600","泰山區"
"222003","436-BY","2017/11/04 19:31:40","新北市深坑區深南路51-1號","121.621115","25.01004","6501800","深坑區"
"222002","659-BX","2017/11/04 19:39:58","新北市深坑區北深路一段177號","121.632503333333","25.0108766666667","6501800","深坑區"
"231041","002-UM","2017/11/04 19:39:59","新北市新店區中正路487號","121.533768333333","24.9820666666667","6500600","新店區"
"231059","046-UY","2017/11/04 19:39:51","新北市新店區安和路二段166-2號","121.519371666667","24.973775","6500600","新店區"
"231061","047-UY","2017/11/04 19:39:45","新北市新店區安民街172號","121.516803333333","24.9707866666667","6500600","新店區"
"231060","106-UY","2017/11/04 19:39:55","新北市新店區安康路二段161號","121.51028","24.9593516666667","6500600","新店區"
"231048","108-UY","2017/11/04 19:39:54","新北市新店區五峰路59-7號","121.547403333333","24.9701216666667","6500600","新店區"
"231052","187-VK","2017/11/04 19:39:48","新北市新店區新烏路二段392號","121.551471666667","24.9093166666667","6500600","新店區"
"231050","KEA-2219","2017/11/04 19:39:52","新北市新店區郵政路3巷2號","121.557343333333","24.9518716666667","6500600","新店區"
"231057","256-BX","2017/11/04 19:39:55","新北市新店區橘園一路11號","121.547956666667","24.9340316666667","6500600","新店區"
"231046","278-BY","2017/11/04 19:39:44","新北市新店區自由街27號","121.535173333333","24.9742566666667","6500600","新店區"
"231054","AAD-862","2017/11/04 19:39:43","新北市新店區文中路34號","121.538991666667","24.956915","6500600","新店區"
"231058","3712-VJ","2017/11/04 19:40:03","新北市新店區中正路102巷8弄6號","121.54365","24.9711816666667","6500600","新店區"
"231055","4716-K9","2017/11/04 19:40:02","新北市新店區中華路83巷67號","121.538353333333","24.96741","6500600","新店區"
"231067","4772-VM","2017/11/04 19:39:50","新北市新店區精忠路10-1號","121.5327","24.9590483333333","6500600","新店區"
"231065","512-UM","2017/11/04 19:39:52","新北市新店區安祥路109巷90弄94號","121.475888333333","24.957895","6500600","新店區"
"231064","515-UM","2017/11/04 19:39:52","新北市新店區安康路二段1-5號","121.517038333333","24.963845","6500600","新店區"
"231045","617-UM","2017/11/04 19:39:46","新北市新店區北宜路二段417號","121.56","24.9544566666667","6500600","新店區"
"231040","619-UM","2017/11/04 19:39:58","新北市新店區中正路75巷71號","121.543065","24.9688116666667","6500600","新店區"
"231042","641-BX","2017/11/04 19:39:46","新北市新店區中興路一段216號","121.543886666667","24.9657233333333","6500600","新店區"
"231063","645-TV","2017/11/04 19:39:56","新北市新店區達觀路41號","121.502801666667","24.9382366666667","6500600","新店區"
"231049","719-UM","2017/11/04 19:39:55","新北市新店區大豐路71號","121.539308333333","24.9794916666667","6500600","新店區"
"231051","719-UY","2017/11/04 19:39:41","新北市新店區中央四街56號","121.527515","24.9751333333333","6500600","新店區"
"231062","720-UM","2017/11/04 19:39:40","新北市新店區碧潭路60-2號","121.53439","24.9568433333333","6500600","新店區"
"231044","897-TW","2017/11/04 19:39:43","新北市新店區北新路三段49號","121.541846666667","24.9805516666667","6500600","新店區"
"231043","899-TW","2017/11/04 19:39:46","新北市新店區北新路二段13號","121.542678333333","24.97145","6500600","新店區"
"231066","AKT-0513","2017/11/04 19:40:02","新北市新店區安康路二段341巷4號","121.496886666667","24.9549916666667","6500600","新店區"
"241011","013-R5","2017/11/04 19:39:50","新北市三重區秀江街214號","121.497255","25.0715433333333","6500200","三重區"
"241028","022-UY","2017/11/04 19:39:50","新北市三重區中正南路147號","121.493975","25.056605","6500200","三重區"
"241009","060-VK","2017/11/04 19:39:49","新北市三重區三和路四段400巷24號","121.480286666667","25.0791733333333","6500200","三重區"
"241031","061-VK","2017/11/04 19:39:52","新北市三重區重新路四段246-2號","121.486008333333","25.0535383333333","6500200","三重區"
"241017","063-VK","2017/11/04 19:39:53","新北市三重區民生街59-1號","121.490858333333","25.0663383333333","6500200","三重區"
"241026","066-VK","2017/11/04 19:39:44","新北市三重區文化南路65巷21號","121.499391666667","25.0607816666667","6500200","三重區"
"241008","156-TC","2017/11/04 19:39:52","新北市三重區永福街133號","121.478795","25.0767716666667","6500200","三重區"
"241015","265-UM","2017/11/04 19:39:51","新北市三重區福德北路46號","121.501981666667","25.065425","6500200","三重區"
"241022","267-UM","2017/11/04 19:39:52","新北市三重區中正北路109號","121.484848333333","25.0658933333333","6500200","三重區"
"241018","268-UM","2017/11/04 19:39:51","新北市三重區大智街61號","121.492706666667","25.0679283333333","6500200","三重區"
"241032","269-UM","2017/11/04 19:39:40","新北市三重區重陽路一段60巷73號","121.48429","25.0582033333333","6500200","三重區"
"241013","270-UM","2017/11/04 19:39:45","新北市三重區仁賢街7號","121.495873333333","25.074625","6500200","三重區"
"241025","271-UM","2017/11/04 19:39:48","新北市三重區頂崁街157號","121.478345","25.0649466666667","6500200","三重區"
"241007","398-BY","2017/11/04 19:39:42","新北市三重區仁美街61號","121.48679","25.0783966666667","6500200","三重區"
"241020","413-TH","2017/11/04 19:39:52","新北市三重區自強路三段99號","121.487663333333","25.0753216666667","6500200","三重區"
"241019","478-VK","2017/11/04 19:39:59","新北市三重區六張街194巷1弄7號","121.488306666667","25.0682083333333","6500200","三重區"
"241030","480-VK","2017/11/04 19:39:53","新北市三重區新興路28巷6號","121.491918333333","25.0530666666667","6500200","三重區"
"241014","543-UM","2017/11/04 19:39:57","新北市三重區河邊北街72號","121.50428","25.0686483333333","6500200","三重區"
"241023","545-UM","2017/11/04 19:39:56","新北市三重區忠孝路三段99巷16號","121.479583333333","25.0642583333333","6500200","三重區"
"241001","547-UM","2017/11/04 19:39:47","新北市三重區仁愛街315巷27號","121.493788333333","25.0798916666667","6500200","三重區"
"241006","AAD-863","2017/11/04 19:39:46","新北市三重區聯華街97號","121.485438333333","25.075245","6500200","三重區"
"241035","743-BX","2017/11/04 19:39:59","新北市三重區信義西街19號","121.497718333333","25.0646","6500200","三重區"
"241012","941-UM","2017/11/04 19:39:52","新北市三重區河邊北街256巷33號","121.500538333333","25.0759433333333","6500200","三重區"
"241029","942-UM","2017/11/04 19:39:49","新北市三重區同安街133號","121.493485","25.0561583333333","6500200","三重區"
"235066","003-UY","2017/11/04 19:39:59","新北市中和區南工路2巷2號","121.505406666667","25.0002066666667","6500300","中和區"
"235064","005-UY","2017/11/04 19:39:50","新北市中和區南山路81巷61-1號","121.504198333333","24.9978833333333","6500300","中和區"
"235063","006-UY","2017/11/04 19:39:54","新北市中和區連城路171巷46號","121.495785","24.9964266666667","6500300","中和區"
"235056","096-UM","2017/11/04 19:39:48","新北市中和區員山路581巷31弄29號","121.476536666667","25.01035","6500300","中和區"
"235039","097-UM","2017/11/04 19:39:52","新北市中和區秀峰街119巷8弄12號","121.519126666667","24.9899383333333","6500300","中和區"
"235065","098-UM","2017/11/04 19:39:49","新北市中和區福美路267號","121.498296666667","25.0051283333333","6500300","中和區"
"235040","150-BY","2017/11/04 19:39:48","新北市中和區宜安路121號","121.51005","24.997945","6500300","中和區"
"235058","151-BY","2017/11/04 19:39:51","新北市中和區連城路374巷11號","121.481426666667","24.99584","6500300","中和區"
"235055","183-VK","2017/11/04 19:39:53","新北市中和區中山路三段181巷8號","121.472828333333","25.0057833333333","6500300","中和區"
"235038","185-VK","2017/11/04 19:39:56","新北市中和區自立路123號","121.521968333333","24.9942516666667","6500300","中和區"
"235049","186-VK","2017/11/04 19:39:56","新北市中和區景新街214號","121.506976666667","24.9951333333333","6500300","中和區"
"235067","255-BX","2017/11/04 19:39:54","新北市中和區新生街220巷4號","121.482883333333","24.9986066666667","6500300","中和區"
"235044","293-VK","2017/11/04 19:39:57","新北市中和區興南路一段71號","121.510105","24.9893616666667","6500300","中和區"
"235072","301-VK","2017/11/04 19:39:58","新北市中和區中正路506號","121.488655","24.9943466666667","6500300","中和區"
"235043","352-BY","2017/11/04 19:39:49","新北市中和區安樂路26號","121.511891666667","24.9922616666667","6500300","中和區"
"235068","377-QA","2017/11/04 19:40:01","新北市中和區廟美街54號","121.500295","25.0023483333333","6500300","中和區"
"235061","378-QA","2017/11/04 19:39:56","新北市中和區民利街9巷3弄1號","121.480675","24.9986833333333","6500300","中和區"
"235035","269-TV","2017/11/04 19:39:55","新北市中和區新生街114巷1號","121.483443333333","25.00243","6500300","中和區"
"235050","4979-A6","2017/11/04 19:39:44","新北市中和區中正路169號","121.498195","24.9936183333333","6500300","中和區"
"235042","551-UM","2017/11/04 19:39:51","新北市中和區中和路378巷14弄21號","121.5109","25.0011883333333","6500300","中和區"
"235070","558-UM","2017/11/04 19:39:59","新北市中和區景平路495號","121.499963333333","24.9981316666667","6500300","中和區"
"235045","565-BX","2017/11/04 19:40:03","新北市中和區景平路151巷47號","121.514783333333","24.990345","6500300","中和區"
"235054","640-BX","2017/11/04 19:39:58","新北市中和區國光街102巷11弄15號","121.470615","25.0014783333333","6500300","中和區"
"235047","732-UM","2017/11/04 19:33:33","新北市中和區景平路259巷31號","121.506725","24.9926283333333","6500300","中和區"
"235046","733-UM","2017/11/04 19:39:58","新北市中和區忠孝街99-2號","121.512075","24.986025","6500300","中和區"
"235057","801-TS","2017/11/04 19:39:49","新北市中和區員山路368號","121.480956666667","25.003895","6500300","中和區"
"235041","802-TS","2017/11/04 19:40:03","新北市中和區中和路416號","121.511563333333","25.0031766666667","6500300","中和區"
"235052","805-TS","2017/11/04 19:39:45","新北市中和區華新街206巷11號","121.506288333333","24.9824166666667","6500300","中和區"
"235048","896-TW","2017/11/04 19:39:42","新北市中和區忠孝街2-6號","121.50911","24.9829733333333","6500300","中和區"
"235053","900-TW","2017/11/04 19:39:52","新北市中和區國光街142巷9號","121.46824","25.0017266666667","6500300","中和區"
"235060","911-UM","2017/11/04 19:39:44","新北市中和區員山路314巷7弄4號","121.48212","25.0030783333333","6500300","中和區"
"235037","157-BY","2017/11/04 19:39:54","新北市中和區南華路57號","121.504373333333","24.996965","6500300","中和區"
"235037","AAC-213","2017/11/04 19:39:52","新北市中和區秀朗路三段10巷14弄76號","121.523753333333","24.9965683333333","6500300","中和區"
"235059","AAC-215","2017/11/04 19:39:51","新北市中和區錦和路201號","121.490821666667","24.990405","6500300","中和區"
"220068","013-TV","2017/11/04 19:39:59","新北市板橋區中山路二段553巷20弄1號","121.482868333333","25.0230183333333","6500100","板橋區"
"220065","072-UY","2017/11/04 19:39:52","新北市板橋區國泰街111巷1號","121.465731666667","25.006235","6500100","板橋區"
"220086","073-UY","2017/11/04 19:39:58","新北市板橋區中正路236巷45-3號","121.457818333333","25.019395","6500100","板橋區"
"220106","075-UY","2017/11/04 19:39:50","新北市板橋區民治街26巷23號","121.47734","25.0335633333333","6500100","板橋區"
"220069","AAD-861","2017/11/04 19:39:56","新北市板橋區稚暉街26號","121.455428333333","25.0042316666667","6500100","板橋區"
"247004","336-TH","2017/11/04 19:39:56","新北市蘆洲區長安街108巷37-2號","121.4621","25.08283","6501400","蘆洲區"
"247012","335-TH","2017/11/04 11:30:45","新北市五股區中興路三段163號","121.449108333333","25.0808616666667","6501400","蘆洲區"
"247008","053-VK","2017/11/04 19:39:44","新北市蘆洲區中山一路174號","121.474358333333","25.08121","6501400","蘆洲區"
"226004","205-ST","2017/11/04 19:40:04","新北市平溪區靜安路三段392巷3號","121.784416666667","25.0495333333333","6502400","平溪區"
"228003","097-TW","2017/11/04 19:40:02","新北市貢寮區真理里美艷山街15-3號","121.92372","25.0679933333333","6502600","貢寮區"
"228001","212-TW","2017/11/04 19:39:52","新北市貢寮區真理里延平街61號","121.924576666667","25.0556566666667","6502600","貢寮區"
"224010","AGQ-8101","2017/11/04 19:39:35","新北市瑞芳區豎崎路9號","121.843525","25.1080083333333","6501200","瑞芳區"
"224002","639-TC","2017/11/04 19:39:58","新北市瑞芳區民享新村23號","121.81714","25.1054366666667","6501200","瑞芳區"
"227010","642-TC","2017/11/04 19:39:44","新北市雙溪區新基里新基北街19巷14號","121.867146666667","25.0382083333333","6502500","雙溪區"
"227002","400-TW","2017/11/04 19:39:42","新北市雙溪區雙溪里內挖路4號","121.863571666667","25.0359983333333","6502500","雙溪區"
"222001","KEA-2212","2017/11/04 19:39:46","新北市深坑區深坑街150號","121.613006666667","25.0014583333333","6501800","深坑區"
"208002","742-BX","2017/11/04 19:39:52","新北市金山區四維路31號","121.634678333333","25.2228166666667","6502700","金山區"
"208003","665-BX","2017/11/04 19:39:57","新北市金山區忠孝一路35號","121.63815","25.2197216666667","6502700","金山區"
"208001","761-BX","2017/11/04 19:40:01","新北市金山區六股里下六股65號","121.61444","25.2234816666667","6502700","金山區"
"251004","009-UM","2017/11/04 19:39:53","新北市淡水區民生路124巷2號","121.463825","25.1381416666667","6501000","淡水區"
"251014","180-VK","2017/11/04 19:39:56","新北市淡水區北勢子23號","121.476671666667","25.2305366666667","6501000","淡水區"
"251008","181-VK","2017/11/04 19:39:45","新北市淡水區中正路32巷9號","121.43025","25.1755","6501000","淡水區"
"251010","413-VK","2017/11/04 19:40:01","新北市淡水區崁頂三路135號","121.431421666667","25.2009766666667","6501000","淡水區"
"251012","441-VK","2017/11/04 19:39:55","新北市淡水區埤島6-10號","121.445801666667","25.1946183333333","6501000","淡水區"
"251016","442-VK","2017/11/04 19:39:50","新北市淡水區下圭柔山119-51號","121.450695","25.2084516666667","6501000","淡水區"
"251005","443-VK","2017/11/04 19:39:45","新北市淡水區原德路114號","121.443563333333","25.1739583333333","6501000","淡水區"
"251001","559-UM","2017/11/04 19:39:57","新北市淡水區民權路51號","121.459698333333","25.138975","6501000","淡水區"
"251006","561-UM","2017/11/04 19:39:59","新北市淡水區中山北路一段207巷40號","121.442881666667","25.179375","6501000","淡水區"
"251009","575-R6","2017/11/04 19:39:51","新北市淡水區中山北路一段196號","121.444781666667","25.179355","6501000","淡水區"
"251007","577-R6","2017/11/04 19:39:56","新北市淡水區中正東路一段111巷2-1號","121.454301666667","25.1602216666667","6501000","淡水區"
"251011","650-BX","2017/11/04 19:39:49","新北市淡水區八勢一街7-19號","121.460613333333","25.1579416666667","6501000","淡水區"
"207003","550-UM","2017/11/04 19:40:02","新北市萬里區大鵬里下社1號","121.647928333333","25.2151816666667","6502800","萬里區"
"207004","225-TW","2017/11/04 19:39:53","新北市萬里區萬里里瑪鋉路21號","121.687468333333","25.175425","6502800","萬里區"
"252002","178-VK","2017/11/04 19:39:48","新北市三芝區三民街29-1號","121.504476666667","25.2585533333333","6502100","三芝區"
"252001","292-VK","2017/11/04 19:39:43","新北市三芝區公正街66號","121.499773333333","25.2574483333333","6502100","三芝區"
"237004","078-UY","2017/11/04 19:39:59","新北市三峽區金敏30-1號","121.389616666667","24.87446","6500900","三峽區"
"237007","153-BY","2017/11/04 19:39:56","新北市三峽區二鬮路178號","121.3592","24.9067583333333","6500900","三峽區"
"237009","210-TH","2017/11/04 19:39:51","新北市三峽區中園街44號","121.368206666667","24.9264266666667","6500900","三峽區"
"237013","252-BX","2017/11/04 19:39:48","新北市三峽區介壽路二段36號","121.391031666667","24.93525","6500900","三峽區"
"237012","275-BY","2017/11/04 19:39:48","新北市三峽區民生街3號","121.374636666667","24.9353966666667","6500900","三峽區"
"237008","302-VK","2017/11/04 19:39:40","新北市三峽區永安街113巷1號","121.374315","24.9285233333333","6500900","三峽區"
"237014","433-BY","2017/11/04 19:39:50","新北市三峽區添福2-8號","121.371781666667","24.906395","6500900","三峽區"
"237006","5529-G3","2017/11/04 19:39:50","新北市三峽區中正路一段336巷15弄2號","121.36993","24.9249333333333","6500900","三峽區"
"237016","649-BX","2017/11/04 19:39:49","新北市三峽區橫溪路99巷42號","121.400083333333","24.9369116666667","6500900","三峽區"
"237005","AKY-6261","2017/11/04 19:40:01","新北市三峽區文化路256號","121.367091666667","24.9358033333333","6500900","三峽區"
"236073","105-UM","2017/11/04 19:39:45","新北市土城區裕民路227號","121.454145","24.9834616666667","6501300","土城區"
"236043","107-UM","2017/11/04 19:39:58","新北市土城區學士路9號","121.453798333333","24.982945","6501300","土城區"
"236001","138-TH","2017/11/04 15:37:13","新北市土城區永平街51號","121.427985","24.9592116666667","6501300","土城區"
"236079","166-UM","2017/11/04 19:40:00","新北市土城區中州路52巷2弄22號","121.412531666667","24.9579766666667","6501300","土城區"
"236031","253-BX","2017/11/04 19:39:46","新北市土城區福祥街58號","121.441546666667","24.9814583333333","6501300","土城區"
"236027","269-VK","2017/11/04 19:39:42","新北市土城區中央路二段61巷22號","121.443156666667","24.9786966666667","6501300","土城區"
"236038","271-VK","2017/11/04 19:40:02","新北市土城區清水路98巷3弄45號","121.458533333333","24.9808466666667","6501300","土城區"
"236023","401-BY","2017/11/04 19:39:46","新北市土城區峰廷街3號","121.469165","24.98736","6501300","土城區"
"236049","752-BX","2017/11/04 19:39:46","新北市土城區明德路一段55號","121.465233333333","24.9846283333333","6501300","土城區"
"236059","912-UM","2017/11/04 19:39:50","新北市土城區中央路二段61巷20號","121.443113333333","24.978675","6501300","土城區"
"236063","915-UM","2017/11/04 19:39:43","新北市土城區延平街37號","121.468018333333","24.99195","6501300","土城區"
"236055","AAC-216","2017/11/04 19:39:43","新北市土城區學府路一段141號","121.453701666667","24.9862516666667","6501300","土城區"
"242031","AAC-296","2017/11/04 19:39:56","新北市新莊區新泰路213巷56號","121.444871666667","25.0384616666667","6500500","新莊區"
"242051","751-BX","2017/11/04 19:39:51","新北市新莊區瓊林路175號","121.435645","25.02209","6500500","新莊區"
"242027","612-BX","2017/11/04 19:39:54","新北市新莊區三和路12-21號","121.442256666667","25.0382983333333","6500500","新莊區"
"242044","497-BY","2017/11/04 19:39:43","新北市泰山區新北大道七段20號","121.420186666667","25.03223","6500500","新莊區"
"242048","442-UM","2017/11/04 19:39:56","新北市新莊區後港一路17巷22號","121.42428","25.0268416666667","6500500","新莊區"
"242004","413-TV","2017/11/04 19:39:58","新北市新莊區化成路11巷19號","121.464123333333","25.0433933333333","6500500","新莊區"
"242036","133-UY","2017/11/04 19:39:47","新北市新莊區民安路211號","121.426478333333","25.0221416666667","6500500","新莊區"
"242009","173-VK","2017/11/04 19:39:48","新北市新莊區三和路12-21號","121.441983333333","25.038695","6500500","新莊區"
"242013","346-TH","2017/11/04 19:39:44","新北市新莊區中泰街90號","121.449508333333","25.0468083333333","6500500","新莊區"
"242034","348-TH","2017/11/04 19:39:52","新北市新莊區仁愛街18號","121.44426","25.03562","6500500","新莊區"
"242017","350-TH","2017/11/04 18:27:45","新北市新莊區新泰路255巷83號","121.442013333333","25.0388766666667","6500500","新莊區"
"238015","755-BX","2017/11/04 19:39:53","新北市樹林區育英街80號","121.420708333333","24.9896616666667","6500700","樹林區"
"238023","601-UM","2017/11/04 19:39:48","新北市樹林區三福街124號","121.40601","25.016265","6500700","樹林區"
"238019","599-UM","2017/11/04 19:39:43","新北市樹林區東榮街8號","121.418106666667","24.9837766666667","6500700","樹林區"
"238018","571-TV","2017/11/04 19:39:46","新北市樹林區水源街74號","121.425798333333","24.98064","6500700","樹林區"
"238024","5061-A6","2017/11/04 19:39:59","新北市樹林區育德街19巷26號","121.392563333333","24.9698866666667","6500700","樹林區"
"238021","KEA-2217","2017/11/04 19:39:52","新北市樹林區大有路65號","121.383416666667","24.94765","6500700","樹林區"
"238022","KEA-2213","2017/11/04 19:39:58","新北市樹林區名園街51巷6弄44號","121.42103","24.9781316666667","6500700","樹林區"
"238025","303-VK","2017/11/04 19:39:48","新北市樹林區中山路一段135-4號","121.422456666667","24.9897616666667","6500700","樹林區"
"238017","283-BY","2017/11/04 19:40:03","新北市樹林區保安街二段169號","121.41487","25.0028933333333","6500700","樹林區"
"238014","282-BY","2017/11/04 19:40:02","新北市樹林區千歲街30巷26弄12號","121.426101666667","24.99559","6500700","樹林區"
"238020","268-VK","2017/11/04 19:39:57","新北市樹林區俊英街83巷1號","121.425773333333","25.0080016666667","6500700","樹林區"
"238016","169-UY","2017/11/04 19:39:43","新北市樹林區東和街50號","121.39897","24.9838366666667","6500700","樹林區"
"239006","891-R6","2017/11/04 19:39:40","新北市鶯歌區文化路161號","121.355563333333","24.9541516666667","6500800","鶯歌區"
"221008","489-VK","2017/11/04 19:39:59","新北市汐止區康寧街141巷36號","121.620893333333","25.0681416666667","6501100","汐止區"
"221036","130-UY","2017/11/04 19:40:00","新北市汐止區康寧街901號","121.651466666667","25.0749416666667","6501100","汐止區"
"221015","131-UY","2017/11/04 19:39:55","新北市汐止區汐萬路一段261號","121.65076","25.074115","6501100","汐止區"
"221010","269-BY","2017/11/04 19:39:55","新北市汐止區汐萬路二段23巷2號","121.649526666667","25.081255","6501100","汐止區"
"221012","276-VK","2017/11/04 13:22:05","新北市汐止區汐萬路一段256巷3號","121.65347","25.0746033333333","6501100","汐止區"
"221012","278-VK","2017/11/04 19:39:58","新北市汐止區汐平路一段9號","121.680975","25.0713283333333","6501100","汐止區"
"221023","279-VK","2017/11/04 19:39:55","新北市汐止區民族六街21-2號","121.630143333333","25.06899","6501100","汐止區"
"221032","280-BY","2017/11/04 19:39:44","新北市汐止區橫科路119號","121.620061666667","25.050365","6501100","汐止區"
"221027","281-BY","2017/11/04 19:39:45","新北市汐止區忠孝東路9號","121.658273333333","25.06596","6501100","汐止區"
"221029","298-VK","2017/11/04 19:39:58","新北市汐止區康寧街901號","121.651646666667","25.0748816666667","6501100","汐止區"
"221021","299-VK","2017/11/04 19:39:55","新北市汐止區南興路6巷4號","121.651745","25.063165","6501100","汐止區"
"221031","353-TW","2017/11/04 19:39:47","新北市汐止區福德三路127號","121.633513333333","25.0675733333333","6501100","汐止區"
"221002","358-BY","2017/11/04 19:40:03","新北市汐止區大同路一段219巷27號","121.633345","25.0582633333333","6501100","汐止區"
"221025","623-UM","2017/11/04 19:39:59","新北市汐止區秀峰路81巷43號","121.661701666667","25.0648683333333","6501100","汐止區"
"221038","646-BX","2017/11/04 19:39:42","新北市汐止區忠孝東路210號","121.662036666667","25.0664916666667","6501100","汐止區"
"221033","647-BX","2017/11/04 19:40:02","新北市汐止區芳園街4號","121.624906666667","25.0378333333333","6501100","汐止區"
"220079","145-BY","2017/11/04 19:40:02","新北市板橋區建國街96號","121.459751666667","25.0173383333333","6500100","板橋區"
"220080","200-UY","2017/11/04 19:39:47","新北市板橋區大觀路二段19巷20號","121.447535","25.00317","6500100","板橋區"
"220082","610-BX","2017/11/04 19:39:56","新北市板橋區大觀路三段212巷34號","121.429478333333","24.993075","6500100","板橋區"
"220101","245-BX","2017/11/04 19:39:55","新北市板橋區萬板路48號","121.472108333333","25.0227133333333","6500100","板橋區"
"220056","276-BY","2017/11/04 19:39:49","新北市板橋區四川路二段47巷2弄1號","121.454123333333","24.9948716666667","6500100","板橋區"
"220072","277-BY","2017/11/04 19:39:43","新北市板橋區金門街215巷2弄28號","121.432448333333","24.9889533333333","6500100","板橋區"
"220071","283-VK","2017/11/04 19:40:00","新北市板橋區四川路一段327號","121.45865","25.00041","6500100","板橋區"
"220094","285-UM","2017/11/04 19:39:55","新北市板橋區銘傳街96-3號","121.469676666667","25.031585","6500100","板橋區"
"220053","285-VK","2017/11/04 19:39:52","新北市板橋區民享街89號","121.47695","25.0158916666667","6500100","板橋區"
"220083","286-VK","2017/11/04 19:39:41","新北市板橋區龍興街71巷5號","121.443503333333","25.001925","6500100","板橋區"
"220081","287-VK","2017/11/04 19:39:47","新北市板橋區大觀路一段29巷137弄1號","121.450205","25.0054366666667","6500100","板橋區"
"220090","288-VK","2017/11/04 19:39:58","新北市板橋區長江路一段48巷4弄1號","121.459148333333","25.028455","6500100","板橋區"
"220061","295-UM","2017/11/04 19:39:45","新北市板橋區中山路一段265巷30號","121.468765","25.0146883333333","6500100","板橋區"
"220084","296-UM","2017/11/04 19:40:00","新北市板橋區滿平二街36號","121.425136666667","24.987685","6500100","板橋區"
"220075","297-UM","2017/11/04 19:39:56","新北市板橋區大勇街8巷1號","121.454048333333","25.0170633333333","6500100","板橋區"
"220062","303-R5","2017/11/04 19:39:48","新北市板橋區三民路二段29巷12號","121.481846666667","25.0180783333333","6500100","板橋區"
"220092","307-R5","2017/11/04 19:39:59","新北市板橋區自由路51巷22號","121.464558333333","25.0233766666667","6500100","板橋區"
"220098","317-R6","2017/11/04 19:39:50","新北市板橋區四維路269巷47號","121.461245","25.027405","6500100","板橋區"
"220064","486-VK","2017/11/04 19:39:45","新北市板橋區重慶路2號","121.46042","25.0081033333333","6500100","板橋區"
"220089","487-VK","2017/11/04 19:39:55","新北市板橋區陽明街249號","121.462778333333","25.0250333333333","6500100","板橋區"
"242019","280-VK","2017/11/04 19:39:47","新北市新莊區三和路12-21號","121.44229","25.0379733333333","6500500","新莊區"
"220088","491-VK","2017/11/04 19:39:55","新北市板橋區文化路二段576號","121.476641666667","25.0345716666667","6500100","板橋區"
"220035","560-BX","2017/11/04 19:39:48","新北市板橋區金華街85巷42號","121.459161666667","25.0213416666667","6500100","板橋區"
"220103","561-BX","2017/11/04 19:39:45","新北市板橋區文化路一段286巷10-2號","121.467941666667","25.0214083333333","6500100","板橋區"
"220063","609-BX","2017/11/04 19:40:00","新北市板橋區中山路二段531巷17弄18號","121.482311666667","25.02199","6500100","板橋區"
"220091","637-BX","2017/11/04 19:39:58","新北市板橋區懷德街139巷20弄8號","121.48017","25.0305433333333","6500100","板橋區"
"220057","686-BX","2017/11/04 19:39:48","新北市板橋區和平路61號","121.461158333333","24.9945733333333","6500100","板橋區"
"220077","687-BX","2017/11/04 19:39:58","新北市板橋區僑中一街126號","121.445831666667","25.0117983333333","6500100","板橋區"
"220093","689-BX","2017/11/04 19:39:48","新北市板橋區長江路一段16號","121.457926666667","25.0287433333333","6500100","板橋區"
"220054","741-BX","2017/11/04 19:39:51","新北市板橋區忠孝路239巷36號","121.467485","25.0036033333333","6500100","板橋區"
"220055","827-TW","2017/11/04 19:39:56","新北市板橋區國慶路149巷13弄14號","121.460253333333","24.9971433333333","6500100","板橋區"
"220067","829-TW","2017/11/04 19:39:58","新北市板橋區長安街168巷10弄18號","121.473418333333","25.0105833333333","6500100","板橋區"
"220102","830-TW","2017/11/04 19:39:57","新北市板橋區雙十路二段46巷35號","121.476135","25.0289583333333","6500100","板橋區"
"220096","831-TW","2017/11/04 19:39:57","新北市板橋區民生路二段234巷41號","121.469401666667","25.0227833333333","6500100","板橋區"
"220074","895-R6","2017/11/04 19:40:00","新北市板橋區文化路一段9號","121.457845","25.0098783333333","6500100","板橋區"
"220073","985-R7","2017/11/04 19:40:02","新北市板橋區國光路49巷17號","121.458998333333","25.0188166666667","6500100","板橋區"
"220097","AAC-210","2017/11/04 19:39:44","新北市板橋區幸福路32巷14號","121.461401666667","25.0208516666667","6500100","板橋區"
"220070","AAC-253","2017/11/04 19:40:03","新北市板橋區民族路271號","121.470728333333","25.0068133333333","6500100","板橋區"
