"lineid","car","time","location","longitude","latitude","cityid","cityname"
"234046","148-BY","2017/11/04 19:49:57","新北市永和區永利路153號","121.524655","25.0035466666667","6500400","永和區"
"234013","149-BY","2017/11/04 19:49:45","新北市永和區永平路316號","121.50689","25.0126683333333","6500400","永和區"
"234007","207-UY","2017/11/04 19:49:42","新北市中和區中和路212號","121.50584","24.9997016666667","6500400","永和區"
"234081","298-R6","2017/11/04 19:49:49","新北市永和區永亨路121號","121.523828333333","25.004515","6500400","永和區"
"234038","336-UY","2017/11/04 19:49:59","新北市永和區秀朗路二段275號","121.52615","24.9984316666667","6500400","永和區"
"234064","337-UY","2017/11/04 19:49:43","新北市永和區中正路368巷29號","121.518588333333","25.0007916666667","6500400","永和區"
"234086","338-UY","2017/11/04 19:49:50","新北市永和區永利路34-2號","121.51854","25.0056366666667","6500400","永和區"
"234070","552-UM","2017/11/04 19:49:55","新北市永和區竹林路86號","121.519401666667","25.01268","6500400","永和區"
"234054","553-UM","2017/11/04 19:49:53","新北市永和區竹林路73-1號","121.518695","25.0131816666667","6500400","永和區"
"234017","745-BX","2017/11/04 19:49:53","新北市永和區永和路二段299號","121.515973333333","25.0161116666667","6500400","永和區"
"234030","746-BX","2017/11/04 19:49:57","新北市永和區民生路67巷54號","121.525426666667","24.997505","6500400","永和區"
"241031","841-RS","2017/11/04 14:53:29","新北市永和區保生路55-8號","121.504075","25.0103916666667","6500200","三重區"
"234061","AAD-866","2017/11/04 19:49:57","新北市永和區中正路136號","121.514656666667","24.9961366666667","6500400","永和區"
"234042","862-TW","2017/11/04 19:49:55","新北市永和區中和路389巷8號","121.508085","25.0009583333333","6500400","永和區"
"234050","863-TW","2017/11/04 19:49:56","新北市永和區保安路77號","121.508701666667","25.01485","6500400","永和區"
"234026","9371-KE","2017/11/04 19:49:47","新北市永和區雙和街52巷2號","121.508956666667","25.0031566666667","6500400","永和區"
"249001","173-UM","2017/11/04 19:49:48","新北市八里區中華路二段252號","121.405436666667","25.1496816666667","6502300","八里區"
"249004","303-UY","2017/11/04 19:48:47","新北市八里區中山路一段268巷50號","121.414925","25.1611266666667","6502300","八里區"
"249003","593-UM","2017/11/04 19:49:56","新北市八里區中華路二段560巷21號","121.398278333333","25.1453683333333","6502300","八里區"
"248016","026-BX","2017/11/04 19:49:59","新北市五股區成泰路四段15-6號","121.45318","25.1069833333333","6501500","五股區"
"248008","095-VK","2017/11/04 19:49:44","新北市五股區四維路140號","121.46816","25.07532","6501500","五股區"
"248012","247-BX","2017/11/04 19:50:00","新北市五股區蓬萊路10-2號","121.435215","25.0794933333333","6501500","五股區"
"248014","261-SL","2017/11/04 19:50:00","新北市五股區五福路42巷12號","121.434341666667","25.0896316666667","6501500","五股區"
"248010","272-BY","2017/11/04 19:49:57","新北市五股區自強路184號","121.431455","25.0695366666667","6501500","五股區"
"248004","677-BX","2017/11/04 19:49:53","新北市五股區成泰路一段219-1號","121.435326666667","25.077305","6501500","五股區"
"248002","678-BX","2017/11/04 19:49:49","新北市五股區成泰路四段12-1號","121.453315","25.10662","6501500","五股區"
"234077","969-R7","2017/11/04 19:49:57","新北市永和區民治街79巷8號","121.517393333333","24.9978316666667","6500400","永和區"
"234074","AAC-211","2017/11/04 19:49:59","新北市永和區竹林路179巷36號","121.521928333333","25.0101316666667","6500400","永和區"
"234067","AAC-212","2017/11/04 19:50:00","新北市永和區中山路一段207號","121.508813333333","25.0084733333333","6500400","永和區"
"234003","AAC-295","2017/11/04 19:49:41","新北市永和區福和路307號","121.51629","25.0072883333333","6500400","永和區"
"243013","AAD-798","2017/11/04 19:50:01","新北市泰山區應化街13號","121.42386","25.043705","6501600","泰山區"
"243009","297-R6","2017/11/04 19:49:54","新北市泰山區美寧街58號","121.43074","25.06467","6501600","泰山區"
"243015","380-SR","2017/11/04 19:49:52","新北市泰山區明志路二段237巷2號","121.427461666667","25.0481066666667","6501600","泰山區"
"243014","421-VK","2017/11/04 19:49:54","新北市泰山區泰林路二段33-8號","121.435203333333","25.0565183333333","6501600","泰山區"
"243010","KEA-2215","2017/11/04 19:49:53","新北市泰山區民生路33號","121.430655","25.0521533333333","6501600","泰山區"
"243011","KEA-2216","2017/11/04 19:49:58","新北市泰山區明志路三段196巷32號","121.422541666667","25.03965","6501600","泰山區"
"243012","646-TV","2017/11/04 19:49:56","新北市泰山區全興路13號","121.432341666667","25.0590083333333","6501600","泰山區"
"243016","680-BX","2017/11/04 19:49:55","新北市泰山區新北大道七段93號","121.417998333333","25.0320833333333","6501600","泰山區"
"222003","436-BY","2017/11/04 19:31:40","新北市深坑區深南路51-1號","121.621115","25.01004","6501800","深坑區"
"222002","659-BX","2017/11/04 19:49:58","新北市深坑區北深路二段2巷1號","121.621366666667","25.0046233333333","6501800","深坑區"
"231041","002-UM","2017/11/04 19:49:59","新北市新店區中央路153號","121.529933333333","24.9730166666667","6500600","新店區"
"231059","046-UY","2017/11/04 19:49:51","新北市新店區安康路二段156號","121.512295","24.9609416666667","6500600","新店區"
"231061","047-UY","2017/11/04 19:49:45","新北市新店區安民街281號","121.51752","24.9732433333333","6500600","新店區"
"231060","106-UY","2017/11/04 19:49:55","新北市新店區安康路二段210-1號","121.51001","24.9594116666667","6500600","新店區"
"231048","108-UY","2017/11/04 19:49:54","新北市新店區寶興路61巷1號","121.550765","24.97199","6500600","新店區"
"231052","187-VK","2017/11/04 19:49:57","新北市新店區新烏路三段86號","121.553645","24.9038883333333","6500600","新店區"
"231050","KEA-2219","2017/11/04 19:49:32","新北市新店區北宜路二段579巷13號","121.565505","24.9543833333333","6500600","新店區"
"231057","256-BX","2017/11/04 19:49:55","新北市新店區梅崗三路1號","121.558346666667","24.9312633333333","6500600","新店區"
"231046","278-BY","2017/11/04 19:49:44","新北市新店區三民路159巷19弄46號","121.532206666667","24.9732133333333","6500600","新店區"
"231054","AAD-862","2017/11/04 19:50:03","新北市新店區光明街105號","121.539205","24.961225","6500600","新店區"
"231056","3713-VJ","2017/11/04 19:49:50","新北市新店區中正路504號","121.533831666667","24.982465","6500600","新店區"
"231055","4716-K9","2017/11/04 19:50:02","新北市新店區新生街1號","121.540366666667","24.9655916666667","6500600","新店區"
"231067","4772-VM","2017/11/04 19:49:50","新北市新店區精忠路10-1號","121.53268","24.9590433333333","6500600","新店區"
"231065","512-UM","2017/11/04 19:49:52","新北市新店區安祥路109巷151弄12號","121.478068333333","24.9589183333333","6500600","新店區"
"231064","515-UM","2017/11/04 19:49:52","新北市新店區安和路二段113巷1弄2號","121.518273333333","24.9702283333333","6500600","新店區"
"231045","617-UM","2017/11/04 19:49:46","新北市新店區北宜路二段384號","121.564495","24.952865","6500600","新店區"
"231040","619-UM","2017/11/04 19:49:58","新北市新店區北新路一段96巷23號","121.543048333333","24.96877","6500600","新店區"
"231042","641-BX","2017/11/04 19:49:46","新北市新店區中興路一段279號","121.545235","24.9682016666667","6500600","新店區"
"231063","645-TV","2017/11/04 19:49:56","新北市新店區黎明路3號","121.503526666667","24.9524216666667","6500600","新店區"
"231068","718-UY","2017/11/04 19:50:03","新北市新店區安華路28-1號","121.519055","24.9610966666667","6500600","新店區"
"231049","719-UM","2017/11/04 19:49:55","新北市新店區民權路127巷13號","121.535713333333","24.9817483333333","6500600","新店區"
"231051","719-UY","2017/11/04 19:50:01","新北市新店區中央三街64號","121.526881666667","24.974995","6500600","新店區"
"231062","720-UM","2017/11/04 19:49:59","新北市新店區永業路101號","121.528748333333","24.9486266666667","6500600","新店區"
"231044","897-TW","2017/11/04 19:49:43","新北市新店區復興路44-1號","121.538616666667","24.9867433333333","6500600","新店區"
"231043","899-TW","2017/11/04 19:49:46","新北市新店區中正路245號","121.539113333333","24.97332","6500600","新店區"
"241011","013-R5","2017/11/04 19:49:50","新北市三重區三和路二段173巷43號","121.499265","25.0702066666667","6500200","三重區"
"241028","022-UY","2017/11/04 19:49:50","新北市三重區中正南路157號","121.49385","25.0560516666667","6500200","三重區"
"241009","060-VK","2017/11/04 19:49:42","新北市三重區三和路四段396巷40號","121.479585","25.07876","6500200","三重區"
"241031","061-VK","2017/11/04 19:49:52","新北市三重區重新路四段242-1號","121.485708333333","25.053625","6500200","三重區"
"241017","063-VK","2017/11/04 19:49:53","新北市三重區重陽路三段5巷2號","121.489236666667","25.0661433333333","6500200","三重區"
"241024","065-VK","2017/11/04 19:49:43","新北市三重區中正北路165巷2號","121.478681666667","25.0697","6500200","三重區"
"241026","066-VK","2017/11/04 19:49:44","新北市三重區文化南路42號","121.500426666667","25.0602483333333","6500200","三重區"
"241003","091-VK","2017/11/04 19:49:59","新北市三重區五華街93巷45號","121.492921666667","25.0842966666667","6500200","三重區"
"241008","156-TC","2017/11/04 19:49:52","新北市三重區永福街96號","121.478838333333","25.075975","6500200","三重區"
"241015","265-UM","2017/11/04 19:49:51","新北市三重區三和路一段2號","121.503871666667","25.0642716666667","6500200","三重區"
"241016","266-UM","2017/11/04 19:49:56","新北市三重區正德街43號","121.495901666667","25.0627816666667","6500200","三重區"
"241022","267-UM","2017/11/04 19:49:52","新北市三重區新北大道一段7號","121.48977","25.0615066666667","6500200","三重區"
"241018","268-UM","2017/11/04 19:49:52","新北市三重區自強路一段157號","121.493371666667","25.067145","6500200","三重區"
"241032","269-UM","2017/11/04 19:50:00","新北市三重區重陽路一段44巷10號","121.485986666667","25.057765","6500200","三重區"
"241013","270-UM","2017/11/04 19:49:45","新北市三重區仁愛街112巷14號","121.494755","25.0739133333333","6500200","三重區"
"241025","271-UM","2017/11/04 19:49:48","新北市三重區大有街1-1號","121.477646666667","25.0653016666667","6500200","三重區"
"241007","398-BY","2017/11/04 19:49:42","新北市三重區慈愛街1號","121.484625","25.0783566666667","6500200","三重區"
"241020","413-TH","2017/11/04 19:49:52","新北市三重區後竹圍街43號","121.490548333333","25.0733683333333","6500200","三重區"
"241004","475-VK","2017/11/04 19:49:54","新北市三重區五華街74號","121.493366666667","25.082025","6500200","三重區"
"241019","478-VK","2017/11/04 19:49:39","新北市三重區自強路二段74巷25號","121.487748333333","25.0696766666667","6500200","三重區"
"241030","480-VK","2017/11/04 19:49:53","新北市三重區環河南路254巷42號","121.489645","25.051245","6500200","三重區"
"241014","543-UM","2017/11/04 19:49:57","新北市三重區三和路二段37-8號","121.501321666667","25.0675066666667","6500200","三重區"
"241023","545-UM","2017/11/04 19:49:46","新北市三重區頂崁街172號","121.477568333333","25.0659433333333","6500200","三重區"
"241001","547-UM","2017/11/04 19:49:47","新北市三重區仁愛街327巷9號","121.49267","25.0797283333333","6500200","三重區"
"241006","AAD-863","2017/11/04 19:49:50","新北市三重區力行路二段82號","121.48158","25.0739316666667","6500200","三重區"
"241035","743-BX","2017/11/04 19:49:59","新北市三重區大榮街53號","121.499136666667","25.0635566666667","6500200","三重區"
"241012","941-UM","2017/11/04 19:49:52","新北市三重區仁興街56巷46號","121.498088333333","25.07542","6500200","三重區"
"241029","942-UM","2017/11/04 19:49:49","新北市三重區光明路47號","121.49155","25.05801","6500200","三重區"
"241033","AAC-255","2017/11/04 19:49:45","新北市三重區中興南街29-1號","121.47057","25.043985","6500200","三重區"
"235066","003-UY","2017/11/04 19:49:59","新北市中和區光華街22號","121.504463333333","25.0042366666667","6500300","中和區"
"235064","005-UY","2017/11/04 19:49:50","新北市中和區南山路127巷35號","121.503745","24.9976083333333","6500300","中和區"
"235063","006-UY","2017/11/04 19:49:54","新北市中和區連城路263巷27弄4號","121.492808333333","24.99449","6500300","中和區"
"235056","096-UM","2017/11/04 19:49:48","新北市中和區中山路三段114巷26弄1號","121.475833333333","25.0070783333333","6500300","中和區"
"235039","097-UM","2017/11/04 19:49:52","新北市中和區大勇街8號","121.517108333333","24.992685","6500300","中和區"
"235065","098-UM","2017/11/04 19:49:44","新北市中和區中山路二段187號","121.500436666667","25.0027716666667","6500300","中和區"
"235040","150-BY","2017/11/04 19:49:47","新北市中和區安平路59號","121.50945","24.9951583333333","6500300","中和區"
"235058","151-BY","2017/11/04 19:49:51","新北市中和區員山路142巷23號","121.482516666667","24.9966283333333","6500300","中和區"
"235055","183-VK","2017/11/04 19:49:53","新北市中和區德光路27巷1弄2號","121.470851666667","25.0038883333333","6500300","中和區"
"235038","185-VK","2017/11/04 19:49:56","新北市中和區自立路141巷5號","121.522596666667","24.99373","6500300","中和區"
"235049","186-VK","2017/11/04 19:49:56","新北市中和區中正路72號","121.500873333333","24.993805","6500300","中和區"
"235067","255-BX","2017/11/04 19:49:54","新北市中和區新生街242巷3號","121.48329","24.9976933333333","6500300","中和區"
"235044","293-VK","2017/11/04 19:49:57","新北市中和區南山路186號","121.505636666667","24.9906866666667","6500300","中和區"
"235072","301-VK","2017/11/04 19:49:59","新北市新店區車子路115-11號","121.508148333333","24.954695","6500300","中和區"
"235043","352-BY","2017/11/04 19:49:49","新北市中和區華新街232巷2號","121.50597","24.9818233333333","6500300","中和區"
"235068","377-QA","2017/11/04 19:50:01","新北市中和區莊敬路7號","121.499736666667","25.0045083333333","6500300","中和區"
"235061","378-QA","2017/11/04 19:49:56","新北市中和區員山路174巷11號","121.482068333333","24.9999566666667","6500300","中和區"
"235035","269-TV","2017/11/04 19:49:55","新北市中和區永和路335-1號","121.484888333333","25.011475","6500300","中和區"
"235050","4979-A6","2017/11/04 19:50:03","新北市中和區景平路241巷87號","121.507283333333","24.9919583333333","6500300","中和區"
"235069","4980-A6","2017/11/04 19:49:59","新北市中和區景新街34巷2弄5號","121.502986666667","24.9991","6500300","中和區"
"235042","551-UM","2017/11/04 19:49:51","新北市中和區景安路79巷37弄16-8號","121.508416666667","24.9960016666667","6500300","中和區"
"235070","558-UM","2017/11/04 19:49:55","新北市中和區連勝街6號","121.499045","24.99858","6500300","中和區"
"235045","565-BX","2017/11/04 19:49:43","新北市中和區興南路一段2號","121.511625","24.9916166666667","6500300","中和區"
"235054","640-BX","2017/11/04 19:49:58","新北市中和區民德路65號","121.468946666667","25.00153","6500300","中和區"
"235047","732-UM","2017/11/04 19:33:33","新北市中和區景平路259巷31號","121.506725","24.9926283333333","6500300","中和區"
"235046","733-UM","2017/11/04 19:49:58","新北市中和區仁愛街82號","121.511436666667","24.987495","6500300","中和區"
"235057","801-TS","2017/11/04 19:49:49","新北市中和區員山路173號","121.481193333333","24.996925","6500300","中和區"
"235041","802-TS","2017/11/04 19:49:43","新北市中和區永貞路221號","121.513646666667","25.00364","6500300","中和區"
"235052","805-TS","2017/11/04 19:49:45","新北市中和區興南路二段79巷7號","121.506758333333","24.9846633333333","6500300","中和區"
"235048","896-TW","2017/11/04 19:50:02","新北市中和區興南路一段129號","121.508995","24.9876766666667","6500300","中和區"
"235053","900-TW","2017/11/04 19:49:52","新北市中和區民德路146巷7弄1號","121.46769","25.0004933333333","6500300","中和區"
"235060","911-UM","2017/11/04 19:49:44","新北市中和區新生街16巷11號","121.482625","25.0042933333333","6500300","中和區"
"235037","157-BY","2017/11/04 19:49:54","新北市中和區中興街132巷11號","121.498871666667","24.9916866666667","6500300","中和區"
"235037","AAC-213","2017/11/04 19:49:52","新北市中和區秀朗路三段10巷29弄5號","121.525125","24.996025","6500300","中和區"
"235059","AAC-215","2017/11/04 19:49:52","新北市中和區圓通路305巷18號","121.49491","24.9890816666667","6500300","中和區"
"220068","013-TV","2017/11/04 19:49:59","新北市板橋區中山路二段412巷29弄30號","121.48487","25.019945","6500100","板橋區"
"220065","072-UY","2017/11/04 19:49:52","新北市板橋區國泰街39巷7弄1號","121.468668333333","25.00568","6500100","板橋區"
"220086","073-UY","2017/11/04 19:49:52","新北市板橋區中正路185號","121.45659","25.0166333333333","6500100","板橋區"
"220106","075-UY","2017/11/04 19:49:50","新北市板橋區民治街57巷32-1號","121.480246666667","25.034305","6500100","板橋區"
"220069","AAD-861","2017/11/04 19:49:56","新北市板橋區南雅南路二段18號","121.454615","25.0036466666667","6500100","板橋區"
"247002","337-TH","2017/11/04 19:50:02","新北市蘆洲區永樂街38巷57弄2號","121.458465","25.0901766666667","6501400","蘆洲區"
"247004","336-TH","2017/11/04 19:49:56","新北市蘆洲區中原路81號","121.458188333333","25.0817716666667","6501400","蘆洲區"
"247012","335-TH","2017/11/04 11:30:45","新北市五股區中興路三段163號","121.449108333333","25.0808616666667","6501400","蘆洲區"
"247006","056-VK","2017/11/04 19:49:50","新北市蘆洲區永安南路二段44-1號","121.466526666667","25.07743","6501400","蘆洲區"
"247008","053-VK","2017/11/04 19:49:58","新北市蘆洲區信義路139號","121.479265","25.0803683333333","6501400","蘆洲區"
"247014","007-UY","2017/11/04 19:49:50","新北市蘆洲區復興路30-7號","121.47277","25.0845133333333","6501400","蘆洲區"
"226004","205-ST","2017/11/04 19:49:44","新北市平溪區十分里十分街62號","121.775801666667","25.0416866666667","6502400","平溪區"
"228003","097-TW","2017/11/04 19:50:02","新北市貢寮區真理里美艷山街5-1號","121.926548333333","25.05969","6502600","貢寮區"
"228001","212-TW","2017/11/04 19:49:52","新北市貢寮區仁理村仁愛路95號","121.927423333333","25.05514","6502600","貢寮區"
"227010","642-TC","2017/11/04 19:49:43","新北市雙溪區新基里自強路7號","121.866278333333","25.0389816666667","6502500","雙溪區"
"227002","400-TW","2017/11/04 19:49:41","新北市雙溪區雙溪里內挖路36號","121.86319","25.0367133333333","6502500","雙溪區"
"222001","KEA-2212","2017/11/04 19:49:56","新北市深坑區北深路三段112號","121.606736666667","25.001585","6501800","深坑區"
"208002","742-BX","2017/11/04 19:49:52","新北市金山區中華路168號","121.632761666667","25.2222633333333","6502700","金山區"
"208003","665-BX","2017/11/04 19:49:57","新北市金山區清泉里清水路41巷2號","121.629773333333","25.232265","6502700","金山區"
"208001","761-BX","2017/11/04 19:49:41","新北市金山區重和里林口28-2號","121.59693","25.2091966666667","6502700","金山區"
"251004","009-UM","2017/11/04 19:49:53","新北市淡水區民權路185巷17號","121.46041","25.1339566666667","6501000","淡水區"
"251014","180-VK","2017/11/04 19:49:56","新北市淡水區番社前1-7號","121.468215","25.2360066666667","6501000","淡水區"
"251008","181-VK","2017/11/04 19:49:45","新北市淡水區中正路二段24巷2-1號","121.42682","25.1769766666667","6501000","淡水區"
"251012","441-VK","2017/11/04 19:49:55","新北市淡水區淡金路三段27號","121.446338333333","25.1972816666667","6501000","淡水區"
"251016","442-VK","2017/11/04 19:49:50","新北市淡水區下圭柔山121-12號","121.454798333333","25.2094183333333","6501000","淡水區"
"251005","443-VK","2017/11/04 19:49:45","新北市淡水區中正東路49號","121.446533333333","25.16746","6501000","淡水區"
"251001","559-UM","2017/11/04 19:49:57","新北市淡水區中正東路二段37號","121.459253333333","25.1561933333333","6501000","淡水區"
"251006","561-UM","2017/11/04 19:49:59","新北市淡水區水碓街15號","121.443516666667","25.1769616666667","6501000","淡水區"
"251009","575-R6","2017/11/04 19:49:42","新北市淡水區中正路38-1號","121.44373","25.1693183333333","6501000","淡水區"
"251011","650-BX","2017/11/04 19:49:49","新北市淡水區淡金路二段371號","121.447093333333","25.1857333333333","6501000","淡水區"
"207003","550-UM","2017/11/04 19:49:42","新北市萬里區磺潭里公館崙5號","121.641948333333","25.2143183333333","6502800","萬里區"
"207004","225-TW","2017/11/04 19:49:53","新北市萬里區萬里里瑪鋉路190號","121.689453333333","25.1801016666667","6502800","萬里區"
"252002","178-VK","2017/11/04 19:49:48","新北市三芝區三民街33-1號","121.504635","25.2584883333333","6502100","三芝區"
"252001","292-VK","2017/11/04 19:49:43","新北市三芝區公正街66號","121.49981","25.2574933333333","6502100","三芝區"
"237004","078-UY","2017/11/04 19:49:59","新北市三峽區添福14-3號","121.373663333333","24.902215","6500900","三峽區"
"237007","153-BY","2017/11/04 19:49:56","新北市三峽區二鬮路136巷18弄2號","121.358866666667","24.908335","6500900","三峽區"
"237009","210-TH","2017/11/04 19:49:51","新北市三峽區民族街78巷14號","121.368368333333","24.929525","6500900","三峽區"
"237013","252-BX","2017/11/04 19:49:48","新北市三峽區溪北街17號","121.396453333333","24.93634","6500900","三峽區"
"237012","275-BY","2017/11/04 19:49:48","新北市三峽區中華路11巷2號","121.373923333333","24.9322783333333","6500900","三峽區"
"237008","302-VK","2017/11/04 19:50:00","新北市三峽區大同路147巷6號","121.371118333333","24.9266116666667","6500900","三峽區"
"237014","433-BY","2017/11/04 19:49:44","新北市三峽區添福59-1號","121.374886666667","24.90345","6500900","三峽區"
"237006","5529-G3","2017/11/04 19:49:50","新北市三峽區中正路一段336巷15弄2號","121.369938333333","24.924945","6500900","三峽區"
"237016","649-BX","2017/11/04 19:49:49","新北市三峽區介壽路二段138巷11-1號","121.395693333333","24.9339533333333","6500900","三峽區"
"237005","AKY-6261","2017/11/04 19:50:01","新北市三峽區民生街85號","121.374733333333","24.9354566666667","6500900","三峽區"
"236073","105-UM","2017/11/04 19:49:45","新北市土城區水源街21號","121.44109","24.975325","6501300","土城區"
"236043","107-UM","2017/11/04 19:49:58","新北市土城區金城路二段245巷40號","121.455523333333","24.9831483333333","6501300","土城區"
"236001","138-TH","2017/11/04 15:37:13","新北市土城區永平街51號","121.427985","24.9592116666667","6501300","土城區"
"236079","166-UM","2017/11/04 19:50:00","新北市土城區溪頭路133號","121.409646666667","24.95123","6501300","土城區"
"236031","253-BX","2017/11/04 19:49:46","新北市土城區中央路一段294號","121.443321666667","24.982395","6501300","土城區"
"236027","269-VK","2017/11/04 19:50:02","新北市土城區中央路二段61巷22號","121.443151666667","24.978705","6501300","土城區"
"236038","271-VK","2017/11/04 19:50:01","新北市土城區國際路158巷54號","121.467968333333","24.97475","6501300","土城區"
"236023","401-BY","2017/11/04 19:49:45","新北市土城區金城路三段198號","121.468495","24.9880033333333","6501300","土城區"
"236049","752-BX","2017/11/04 19:49:53","新北市土城區青雲路299-1號","121.459096666667","24.9795266666667","6501300","土城區"
"236059","912-UM","2017/11/04 19:49:50","新北市土城區中央路二段16-2號","121.442883333333","24.9804566666667","6501300","土城區"
"236063","915-UM","2017/11/04 19:49:43","新北市土城區延和路105巷5弄1號","121.467293333333","24.9910716666667","6501300","土城區"
"236055","AAC-216","2017/11/04 19:50:03","新北市土城區延和路92號","121.466516666667","24.9895583333333","6501300","土城區"
"242031","AAC-296","2017/11/04 19:49:56","新北市新莊區忠孝街99號","121.443866666667","25.03716","6500500","新莊區"
"242051","751-BX","2017/11/04 19:49:51","新北市新莊區民安路298號","121.428145","25.0218816666667","6500500","新莊區"
"242025","615-BX","2017/11/04 19:49:40","新北市新莊區五權一路12巷21弄6號","121.457903333333","25.064465","6500500","新莊區"
"242023","613-BX","2017/11/04 19:49:59","新北市新莊區化成路162號","121.465525","25.045305","6500500","新莊區"
"242027","612-BX","2017/11/04 19:49:54","新北市新莊區立信五街10號","121.444168333333","25.0516516666667","6500500","新莊區"
"242039","566-BX","2017/11/04 19:49:47","新北市新莊區民安路309號","121.429831666667","25.0225866666667","6500500","新莊區"
"242044","497-BY","2017/11/04 19:50:03","新北市新莊區新北大道七段712號","121.412273333333","25.0265466666667","6500500","新莊區"
"242048","442-UM","2017/11/04 19:49:56","新北市新莊區建安街76巷3弄18號","121.42564","25.0247633333333","6500500","新莊區"
"242004","413-TV","2017/11/04 19:49:59","新北市新莊區化成路63巷24號","121.463243333333","25.0458933333333","6500500","新莊區"
"242061","362-BY","2017/11/04 19:49:45","新北市新莊區中正路473-1號","121.441976666667","25.033125","6500500","新莊區"
"242058","353-BY","2017/11/04 19:49:42","新北市新莊區八德街80號","121.424561666667","25.0218533333333","6500500","新莊區"
"242007","132-UY","2017/11/04 19:49:59","新北市新莊區新北大道三段5號","121.458358333333","25.0600083333333","6500500","新莊區"
"242036","133-UY","2017/11/04 19:49:47","新北市新莊區建安街85號","121.427241666667","25.024595","6500500","新莊區"
"242021","135-UY","2017/11/04 19:49:49","新北市新莊區新泰路151號","121.447923333333","25.0367266666667","6500500","新莊區"
"242009","173-VK","2017/11/04 19:45:48","新北市新莊區三和路12-21號","121.441741666667","25.0386233333333","6500500","新莊區"
"242013","346-TH","2017/11/04 19:49:44","新北市新莊區中誠街71號","121.450646666667","25.0477733333333","6500500","新莊區"
"242034","348-TH","2017/11/04 19:49:52","新北市新莊區建中街90巷7弄17號","121.445675","25.0374416666667","6500500","新莊區"
"242056","349-TH","2017/11/04 19:49:53","新北市新莊區新泰路87號","121.448753333333","25.0344516666667","6500500","新莊區"
"242017","350-TH","2017/11/04 19:49:49","新北市新莊區中港路287號","121.452788333333","25.0439633333333","6500500","新莊區"
"242011","351-TH","2017/11/04 19:49:45","新北市新莊區中信街93號","121.447808333333","25.0533","6500500","新莊區"
"238015","755-BX","2017/11/04 19:49:53","新北市樹林區樹德街8號","121.42291","24.9914533333333","6500700","樹林區"
"238023","601-UM","2017/11/04 19:49:48","新北市樹林區忠信街15號","121.407803333333","25.0149583333333","6500700","樹林區"
"238024","5061-A6","2017/11/04 19:48:38","新北市樹林區中山路三段214號","121.380398333333","24.967965","6500700","樹林區"
"238021","KEA-2217","2017/11/04 19:49:52","新北市樹林區佳園路三段181巷27號","121.387241666667","24.9479583333333","6500700","樹林區"
"238025","303-VK","2017/11/04 19:49:48","新北市樹林區鎮前街457號","121.41304","24.9826816666667","6500700","樹林區"
"238017","283-BY","2017/11/04 19:49:43","新北市樹林區保安街二段45巷21弄7號","121.414848333333","24.999885","6500700","樹林區"
"238014","282-BY","2017/11/04 19:49:42","新北市樹林區千歲街68號","121.426175","24.9974333333333","6500700","樹林區"
"238020","268-VK","2017/11/04 19:49:56","新北市板橋區大觀路三段59巷47號","121.435098333333","24.9933933333333","6500700","樹林區"
"239006","891-R6","2017/11/04 19:50:00","新北市鶯歌區中正一路阿四巷3-5號","121.369103333333","24.9577733333333","6500800","鶯歌區"
"221008","489-VK","2017/11/04 19:49:59","新北市汐止區康寧街141巷39弄1號","121.621301666667","25.0674066666667","6501100","汐止區"
"221036","130-UY","2017/11/04 19:50:00","新北市汐止區禮門街1號","121.656718333333","25.06712","6501100","汐止區"
"221015","131-UY","2017/11/04 19:49:55","新北市汐止區忠孝東路424-4號","121.666025","25.071875","6501100","汐止區"
"221010","269-BY","2017/11/04 19:49:35","新北市汐止區汐萬路一段333巷1號","121.649926666667","25.076215","6501100","汐止區"
"221012","276-VK","2017/11/04 13:22:05","新北市汐止區汐萬路一段256巷3號","121.65347","25.0746033333333","6501100","汐止區"
"221012","278-VK","2017/11/04 19:49:52","新北市汐止區汐平路一段9號","121.680948333333","25.0712316666667","6501100","汐止區"
"221023","279-VK","2017/11/04 19:49:55","新北市汐止區民族六街4巷2號","121.629431666667","25.0702616666667","6501100","汐止區"
"221032","280-BY","2017/11/04 19:49:44","新北市汐止區橫科路119號","121.620058333333","25.05034","6501100","汐止區"
"221027","281-BY","2017/11/04 19:49:45","新北市汐止區忠孝東路9號","121.658323333333","25.06598","6501100","汐止區"
"221029","298-VK","2017/11/04 19:49:58","新北市汐止區康寧街901號","121.651538333333","25.0749283333333","6501100","汐止區"
"221021","299-VK","2017/11/04 19:49:55","新北市汐止區莊敬街29巷13號","121.657206666667","25.06084","6501100","汐止區"
"221031","353-TW","2017/11/04 19:49:47","新北市汐止區福德三路127號","121.633583333333","25.0676533333333","6501100","汐止區"
"221035","622-UM","2017/11/04 19:49:46","新北市汐止區長江街13巷5弄2號","121.654651666667","25.0716933333333","6501100","汐止區"
"221025","623-UM","2017/11/04 19:49:59","新北市汐止區秀峰路81巷44號","121.661561666667","25.0647333333333","6501100","汐止區"
"221038","646-BX","2017/11/04 19:50:02","新北市汐止區忠孝東路328號","121.664886666667","25.06936","6501100","汐止區"
"221033","647-BX","2017/11/04 19:50:02","新北市汐止區東勢街76巷100-1號","121.636408333333","25.0389183333333","6501100","汐止區"
"221018","753-BX","2017/11/04 19:50:03","新北市汐止區大同路二段340號","121.656503333333","25.06708","6501100","汐止區"
"220079","145-BY","2017/11/04 19:49:42","新北市板橋區大仁街62-1號","121.454678333333","25.01657","6500100","板橋區"
"220080","200-UY","2017/11/04 19:49:47","新北市板橋區大觀路二段37巷126號","121.44942","25.0021966666667","6500100","板橋區"
"220082","610-BX","2017/11/04 19:49:57","新北市板橋區溪北路92號","121.428408333333","24.9893383333333","6500100","板橋區"
"220101","245-BX","2017/11/04 19:49:54","新北市板橋區縣民大道三段91號","121.475761666667","25.021985","6500100","板橋區"
"220056","276-BY","2017/11/04 19:49:49","新北市板橋區四川路二段99巷2弄2-3號","121.452698333333","24.9944","6500100","板橋區"
"220072","277-BY","2017/11/04 19:49:59","新北市板橋區金門街151巷25號","121.434203333333","24.9901483333333","6500100","板橋區"
"220071","283-VK","2017/11/04 19:49:40","新北市板橋區信義路279巷23號","121.465021666667","24.990385","6500100","板橋區"
"220094","285-UM","2017/11/04 19:49:55","新北市板橋區長江路一段108號","121.459651666667","25.0295916666667","6500100","板橋區"
"220053","285-VK","2017/11/04 19:49:32","新北市板橋區中山路二段90巷12號","121.47539","25.0159","6500100","板橋區"
"220083","286-VK","2017/11/04 19:50:01","新北市板橋區龍興街99巷2號","121.444326666667","25.0030083333333","6500100","板橋區"
"220081","287-VK","2017/11/04 19:49:47","新北市板橋區大觀路一段29巷15號","121.450153333333","25.0080533333333","6500100","板橋區"
"220090","288-VK","2017/11/04 19:49:58","新北市板橋區龍泉街54巷7弄14號","121.456551666667","25.0264766666667","6500100","板橋區"
"220061","295-UM","2017/11/04 19:49:50","新北市板橋區板新路131號","121.470746666667","25.0152683333333","6500100","板橋區"
"220084","296-UM","2017/11/04 19:49:53","新北市板橋區溪崑二街124巷3號","121.425786666667","24.9881933333333","6500100","板橋區"
"220075","297-UM","2017/11/04 19:49:59","新北市板橋區金華街10巷46號","121.456955","25.0200683333333","6500100","板橋區"
"220062","303-R5","2017/11/04 19:49:48","新北市板橋區光復街33巷5號","121.481801666667","25.0190083333333","6500100","板橋區"
"220092","307-R5","2017/11/04 19:49:56","新北市板橋區四維路259巷55號","121.461288333333","25.0270983333333","6500100","板橋區"
"220098","317-R6","2017/11/04 19:50:01","新北市板橋區裕民街133巷1號","121.459213333333","25.0270683333333","6500100","板橋區"
"220064","486-VK","2017/11/04 19:49:45","新北市板橋區中山路一段85號","121.461513333333","25.0100283333333","6500100","板橋區"
"220089","487-VK","2017/11/04 19:49:55","新北市板橋區龍泉街108巷104號","121.455296666667","25.0255233333333","6500100","板橋區"
"242019","280-VK","2017/11/04 19:49:27","新北市新莊區中華路一段112號","121.452513333333","25.040335","6500500","新莊區"
"220088","491-VK","2017/11/04 19:49:54","新北市板橋區文聖街72-6號","121.477123333333","25.0305566666667","6500100","板橋區"
"220035","560-BX","2017/11/04 19:49:59","新北市板橋區金華街25號","121.4559","25.0205","6500100","板橋區"
"220103","561-BX","2017/11/04 19:49:45","新北市板橋區陽明街29巷5號","121.465088333333","25.021715","6500100","板橋區"
"220063","609-BX","2017/11/04 19:50:00","新北市板橋區三民路一段89號","121.479545","25.0216433333333","6500100","板橋區"
"220091","637-BX","2017/11/04 19:49:58","新北市板橋區懷德街127巷23弄33號","121.480318333333","25.032145","6500100","板橋區"
"220057","686-BX","2017/11/04 19:49:48","新北市板橋區和平路安樂巷35號","121.461788333333","24.9933816666667","6500100","板橋區"
"220077","687-BX","2017/11/04 19:49:46","新北市板橋區僑中一街124巷17弄1號","121.446101666667","25.0137316666667","6500100","板橋區"
"220093","689-BX","2017/11/04 19:49:53","新北市板橋區長江路二段230號","121.468506666667","25.032525","6500100","板橋區"
"220054","741-BX","2017/11/04 19:49:51","新北市板橋區實踐路93巷38號","121.465525","25.0050283333333","6500100","板橋區"
"220055","827-TW","2017/11/04 19:49:56","新北市板橋區國慶路149巷4弄16-4號","121.461913333333","24.99703","6500100","板橋區"
"220067","829-TW","2017/11/04 19:49:53","新北市板橋區長安街291號","121.47456","25.0118833333333","6500100","板橋區"
"220102","830-TW","2017/11/04 19:49:58","新北市板橋區仁化街42巷3號","121.475421666667","25.0313633333333","6500100","板橋區"
"220096","831-TW","2017/11/04 19:49:57","新北市板橋區莒光路39巷20號","121.471141666667","25.025245","6500100","板橋區"
"220074","895-R6","2017/11/04 19:49:58","新北市板橋區館前西路132號","121.456413333333","25.00797","6500100","板橋區"
"220073","985-R7","2017/11/04 19:50:02","新北市板橋區大仁街71號","121.454013333333","25.0162366666667","6500100","板橋區"
"220097","AAC-210","2017/11/04 19:49:49","新北市板橋區文化路一段285巷2弄1號","121.46466","25.0191483333333","6500100","板橋區"
"220070","AAC-253","2017/11/04 19:49:43","新北市板橋區成都街72-3號","121.463545","25.0052766666667","6500100","板橋區"
