"lineid","car","time","location","longitude","latitude","cityid","cityname"
"234054","553-UM","2017/11/04 20:39:53","新北市永和區環河東路一段80號","121.519606666667","25.01646","6500400","永和區"
"234017","745-BX","2017/11/04 20:39:53","新北市新店區安興路33-1號","121.516081666667","24.9704866666667","6500400","永和區"
"234030","746-BX","2017/11/04 20:39:57","新北市新店區安康路二段320巷6號","121.504991666667","24.9599883333333","6500400","永和區"
"241031","841-RS","2017/11/04 14:53:29","新北市永和區保生路55-8號","121.504075","25.0103916666667","6500200","三重區"
"234061","AAD-866","2017/11/04 20:39:57","新北市永和區中正路381號","121.517123333333","25.00369","6500400","永和區"
"249001","173-UM","2017/11/04 20:39:47","新北市八里區中山路三段363號","121.374751666667","25.13832","6502300","八里區"
"249004","303-UY","2017/11/04 20:39:47","新北市八里區中山路一段157巷26號","121.412955","25.15811","6502300","八里區"
"234023","9380-KE","2017/11/04 20:39:58","新北市永和區竹林路25巷34號","121.518155","25.014955","6500400","永和區"
"234074","AAC-211","2017/11/04 20:39:45","新北市永和區竹林路119巷18弄1號","121.521086666667","25.011425","6500400","永和區"
"243009","297-R6","2017/11/04 20:39:53","新北市泰山區泰林路二段542巷1弄5號","121.423243333333","25.0640933333333","6501600","泰山區"
"243010","KEA-2215","2017/11/04 20:39:53","新北市泰山區黎明路23-1號","121.421335","25.0612433333333","6501600","泰山區"
"243016","680-BX","2017/11/04 20:39:55","新北市泰山區明志路二段220號","121.427233333333","25.0485783333333","6501600","泰山區"
"222003","436-BY","2017/11/04 20:40:01","新北市深坑區阿柔洋1號","121.612785","25.000485","6501800","深坑區"
"222002","659-BX","2017/11/04 20:39:58","新北市深坑區萬福路45號","121.599428333333","25.00689","6501800","深坑區"
"231041","002-UM","2017/11/04 20:39:59","新北市新店區中正路545號","121.533691666667","24.987675","6500600","新店區"
"231059","046-UY","2017/11/04 20:39:51","新北市新店區僑愛三路24號","121.499178333333","24.9446816666667","6500600","新店區"
"231061","047-UY","2017/11/04 20:39:45","新北市新店區新和街46號","121.519405","24.9850266666667","6500600","新店區"
"231060","106-UY","2017/11/04 20:39:55","新北市新店區安康路三段545號","121.477685","24.9452933333333","6500600","新店區"
"231048","108-UY","2017/11/04 20:39:54","新北市新店區寶慶街66號","121.541851666667","24.98667","6500600","新店區"
"231052","187-VK","2017/11/04 20:39:48","新北市新店區廣興路7-9號","121.545708333333","24.9118166666667","6500600","新店區"
"231050","KEA-2219","2017/11/04 20:39:52","新北市新店區建安街15巷1號","121.539728333333","24.9753966666667","6500600","新店區"
"231057","256-BX","2017/11/04 20:39:55","新北市新店區花園六路二段4號","121.554351666667","24.9334633333333","6500600","新店區"
"231054","AAD-862","2017/11/04 20:39:43","新北市新店區北新路一段64巷39弄2號","121.542396666667","24.9658416666667","6500600","新店區"
"231058","3712-VJ","2017/11/04 20:39:53","新北市新店區中正路307巷22號","121.536116666667","24.9740566666667","6500600","新店區"
"231056","3713-VJ","2017/11/04 20:39:53","新北市新店區民生路75巷221號","121.532095","24.9817883333333","6500600","新店區"
"231065","512-UM","2017/11/04 20:39:52","新北市新店區安祥路102巷119號","121.486283333333","24.964295","6500600","新店區"
"231064","515-UM","2017/11/04 20:39:52","新北市新店區安和路三段171號","121.515956666667","24.9861","6500600","新店區"
"231045","617-UM","2017/11/04 20:39:46","新北市新店區長春路172號","121.557711666667","24.96155","6500600","新店區"
"231040","619-UM","2017/11/04 20:39:58","新北市新店區中正路247巷4弄9號","121.538331666667","24.97325","6500600","新店區"
"231042","641-BX","2017/11/04 20:39:46","新北市新店區寶高路120巷1-1號","121.554673333333","24.9758433333333","6500600","新店區"
"231063","645-TV","2017/11/04 20:39:56","新北市新店區玫瑰路4-1號","121.493605","24.9513616666667","6500600","新店區"
"231068","718-UY","2017/11/04 20:40:03","新北市新店區寶元路一段85巷10號","121.543133333333","24.986005","6500600","新店區"
"231049","719-UM","2017/11/04 20:39:56","新北市新店區永業路81巷9弄12號","121.531403333333","24.950805","6500600","新店區"
"231051","719-UY","2017/11/04 20:40:01","新北市新店區中央八街86號","121.527023333333","24.9773266666667","6500600","新店區"
"231062","720-UM","2017/11/04 20:39:45","新北市新店區雙城路4巷1號","121.49137","24.9507733333333","6500600","新店區"
"231044","897-TW","2017/11/04 20:39:43","新北市新店區建國路293巷1號","121.536691666667","24.9861816666667","6500600","新店區"
"231043","899-TW","2017/11/04 20:39:46","新北市新店區建國路31號","121.540263333333","24.9741116666667","6500600","新店區"
"231066","AKT-0513","2017/11/04 20:40:02","新北市新店區安興路105-1號","121.514578333333","24.9776966666667","6500600","新店區"
"241011","013-R5","2017/11/04 20:39:50","新北市三重區龍濱路219巷9號","121.502183333333","25.07206","6500200","三重區"
"241028","022-UY","2017/11/04 20:39:50","新北市三重區光興街91號","121.497411666667","25.0599716666667","6500200","三重區"
"241009","060-VK","2017/11/04 20:39:42","新北市三重區碧華街55號","121.484715","25.0813016666667","6500200","三重區"
"241031","061-VK","2017/11/04 20:39:52","新北市三重區重陽路一段113巷1弄49號","121.488098333333","25.0585433333333","6500200","三重區"
"241017","063-VK","2017/11/04 20:39:53","新北市三重區大同北路263號","121.49087","25.0671866666667","6500200","三重區"
"241024","065-VK","2017/11/04 20:39:43","新北市三重區中正北路165巷2號","121.478548333333","25.0696333333333","6500200","三重區"
"241026","066-VK","2017/11/04 20:39:44","新北市三重區文化南路3號","121.500043333333","25.0623916666667","6500200","三重區"
"241003","091-VK","2017/11/04 20:39:59","新北市三重區五華街141巷58號","121.493576666667","25.0867383333333","6500200","三重區"
"241008","156-TC","2017/11/04 20:39:52","新北市三重區下竹圍街91號","121.481085","25.074845","6500200","三重區"
"241005","262-UM","2017/11/04 20:39:59","新北市三重區碧華街426號","121.49253","25.085465","6500200","三重區"
"241015","265-UM","2017/11/04 20:39:51","新北市三重區文化北路200巷13號","121.497878333333","25.068185","6500200","三重區"
"241016","266-UM","2017/11/04 20:39:55","新北市三重區長壽西街143-1號","121.494591666667","25.0666716666667","6500200","三重區"
"241022","267-UM","2017/11/04 20:39:52","新北市三重區重陽路二段19巷15號","121.487991666667","25.0622533333333","6500200","三重區"
"241018","268-UM","2017/11/04 20:39:51","新北市三重區重陽路四段20-1號","121.491041666667","25.0692833333333","6500200","三重區"
"241032","269-UM","2017/11/04 20:39:40","新北市三重區重陽路一段120巷35號","121.485101666667","25.0601766666667","6500200","三重區"
"241013","270-UM","2017/11/04 20:39:45","新北市三重區仁賢街4號","121.495613333333","25.0748116666667","6500200","三重區"
"241025","271-UM","2017/11/04 20:39:48","新北市三重區頂崁街140號","121.47764","25.0650466666667","6500200","三重區"
"241007","398-BY","2017/11/04 20:40:02","新北市三重區三和路四段111-2號","121.485718333333","25.0772616666667","6500200","三重區"
"241020","413-TH","2017/11/04 20:39:52","新北市三重區忠孝路一段101號","121.489463333333","25.0721266666667","6500200","三重區"
"241004","475-VK","2017/11/04 20:39:55","新北市三重區仁愛街409號","121.490775","25.0812133333333","6500200","三重區"
"241019","478-VK","2017/11/04 20:39:59","新北市三重區重陽路四段114巷11號","121.491811666667","25.0706466666667","6500200","三重區"
"241030","480-VK","2017/11/04 20:39:52","新北市三重區成功路73巷11號","121.48946","25.0519","6500200","三重區"
"241014","543-UM","2017/11/04 20:39:57","新北市三重區萬壽街2號","121.499013333333","25.0693466666667","6500200","三重區"
"241023","545-UM","2017/11/04 20:39:46","新北市三重區自由街35巷2號","121.478966666667","25.0668716666667","6500200","三重區"
"241001","547-UM","2017/11/04 20:39:56","新北市三重區自強路三段110巷23號","121.48616","25.0746366666667","6500200","三重區"
"241006","AAD-863","2017/11/04 20:39:46","新北市三重區車路頭街139巷14號","121.484273333333","25.076205","6500200","三重區"
"241035","743-BX","2017/11/04 20:39:59","新北市三重區重陽路四段158號","121.493191666667","25.07205","6500200","三重區"
"241002","887-TS","2017/11/04 20:38:11","新北市三重區仁義街167巷40號","121.49876","25.0824866666667","6500200","三重區"
"241012","941-UM","2017/11/04 20:39:52","新北市三重區秀江街31號","121.501975","25.0728683333333","6500200","三重區"
"241029","942-UM","2017/11/04 20:39:49","新北市三重區集美街126巷27號","121.490081666667","25.0537766666667","6500200","三重區"
"241033","AAC-255","2017/11/04 20:39:45","新北市三重區興德路100號","121.472373333333","25.053205","6500200","三重區"
"235069","4980-A6","2017/11/04 20:39:59","新北市中和區連城路469巷70弄4號","121.483355","24.9936433333333","6500300","中和區"
"235070","558-UM","2017/11/04 20:39:55","新北市五股區中直路21號","121.421716666667","25.1117533333333","6500300","中和區"
"247022","893-R6","2017/11/04 20:39:59","新北市蘆洲區中正路243巷7弄2號","121.467271666667","25.0861","6501400","蘆洲區"
"247012","546-UM","2017/11/04 20:39:55","新北市蘆洲區民族路236巷42號","121.481508333333","25.0888883333333","6501400","蘆洲區"
"247020","500-BY","2017/11/04 20:39:47","新北市蘆洲區民族路422巷3號","121.473945","25.0919483333333","6501400","蘆洲區"
"247002","337-TH","2017/11/04 20:39:42","新北市蘆洲區長安街375巷35號","121.455648333333","25.087985","6501400","蘆洲區"
"247004","336-TH","2017/11/04 20:39:56","新北市蘆洲區長安街295號","121.458188333333","25.0847816666667","6501400","蘆洲區"
"247012","335-TH","2017/11/04 11:30:45","新北市五股區中興路三段163號","121.449108333333","25.0808616666667","6501400","蘆洲區"
"247016","057-VK","2017/11/04 20:39:47","新北市蘆洲區中山二路309號","121.469166666667","25.0769733333333","6501400","蘆洲區"
"247006","056-VK","2017/11/04 20:39:50","新北市蘆洲區和平路134號","121.467106666667","25.0805","6501400","蘆洲區"
"247008","053-VK","2017/11/04 20:39:44","新北市蘆洲區重陽街17號","121.480926666667","25.082215","6501400","蘆洲區"
"247014","007-UY","2017/11/04 20:39:50","新北市蘆洲區中山二路95號","121.472823333333","25.08179","6501400","蘆洲區"
"247024","002-UY","2017/11/04 20:39:48","新北市蘆洲區長樂路35-3號","121.463281666667","25.08557","6501400","蘆洲區"
"222001","KEA-2212","2017/11/04 20:39:46","新北市深坑區北深路三段230號","121.600778333333","25.00401","6501800","深坑區"
"251014","180-VK","2017/11/04 20:39:56","新北市淡水區桂竹圍13號","121.472386666667","25.2322466666667","6501000","淡水區"
"251008","181-VK","2017/11/04 20:39:45","新北市淡水區新民街一段117號","121.428705","25.1873133333333","6501000","淡水區"
"251010","413-VK","2017/11/04 20:39:41","新北市淡水區沙崙路181巷15號","121.423985","25.18434","6501000","淡水區"
"251012","441-VK","2017/11/04 20:39:55","新北市淡水區興仁路109號","121.451601666667","25.2181633333333","6501000","淡水區"
"251016","442-VK","2017/11/04 20:39:50","新北市淡水區後洲子8-2號","121.449618333333","25.224025","6501000","淡水區"
"251001","559-UM","2017/11/04 20:39:57","新北市淡水區淡金路65號","121.456111666667","25.1616166666667","6501000","淡水區"
"251006","561-UM","2017/11/04 20:39:59","新北市淡水區商工路186巷35號","121.451133333333","25.1864683333333","6501000","淡水區"
"251011","650-BX","2017/11/04 20:39:49","新北市淡水區新市一路一段359號","121.436108333333","25.1862066666667","6501000","淡水區"
"251002","672-BX","2017/11/04 20:39:43","新北市淡水區中正路38-1號","121.443735","25.169255","6501000","淡水區"
"251003","673-BX","2017/11/04 20:39:41","新北市淡水區新民街120巷52號","121.438661666667","25.1784216666667","6501000","淡水區"
"252002","178-VK","2017/11/04 20:39:48","新北市三芝區淡金路二段47-2號","121.503675","25.2605116666667","6502100","三芝區"
"252001","292-VK","2017/11/04 20:39:43","新北市三芝區長安街36號","121.501555","25.256175","6502100","三芝區"
"237007","153-BY","2017/11/04 20:39:56","新北市樹林區柑園街二段337-6號","121.370435","24.9504333333333","6500900","三峽區"
"236001","138-TH","2017/11/04 15:37:13","新北市土城區永平街51號","121.427985","24.9592116666667","6501300","土城區"
"242031","AAC-296","2017/11/04 20:39:56","新北市新莊區三泰路56-5號","121.43556","25.0366816666667","6500500","新莊區"
"242029","986-R7","2017/11/04 20:40:01","新北市新莊區中華路二段161號","121.4528","25.05176","6500500","新莊區"
"242051","751-BX","2017/11/04 20:39:51","新北市新莊區西盛街280巷3號","121.427713333333","25.0152666666667","6500500","新莊區"
"242025","615-BX","2017/11/04 20:39:39","新北市三重區頂崁街23號","121.47578","25.05755","6500500","新莊區"
"242023","613-BX","2017/11/04 20:39:59","新北市新莊區復興路三段8號","121.460566666667","25.0444966666667","6500500","新莊區"
"242027","612-BX","2017/11/04 20:39:54","新北市新莊區思源路63號","121.459861666667","25.040405","6500500","新莊區"
"242039","566-BX","2017/11/04 20:39:47","新北市新莊區民安路344號","121.429373333333","25.022365","6500500","新莊區"
"242044","497-BY","2017/11/04 20:39:46","新北市新莊區龍安路100號","121.418115","25.0206533333333","6500500","新莊區"
"242048","442-UM","2017/11/04 20:39:56","新北市新莊區中正路773號","121.421811666667","25.028615","6500500","新莊區"
"242053","440-UM","2017/11/04 20:39:49","新北市新莊區西盛街323巷24號","121.428983333333","25.01481","6500500","新莊區"
"242004","413-TV","2017/11/04 20:39:58","新北市新莊區中原東路200號","121.460611666667","25.0542916666667","6500500","新莊區"
"242042","400-BY","2017/11/04 20:39:56","新北市新莊區天祥街47巷4弄2號","121.41641","25.0284883333333","6500500","新莊區"
"242061","362-BY","2017/11/04 20:39:45","新北市新莊區新樹路268巷1號","121.432578333333","25.0135266666667","6500500","新莊區"
"242058","353-BY","2017/11/04 20:39:42","新北市新莊區民安路138號","121.424211666667","25.025305","6500500","新莊區"
"242007","132-UY","2017/11/04 20:39:59","新北市新莊區思源路38號","121.459846666667","25.04289","6500500","新莊區"
"242036","133-UY","2017/11/04 20:39:47","新北市新莊區建安街10-1號","121.428451666667","25.026465","6500500","新莊區"
"242021","135-UY","2017/11/04 20:39:49","新北市新莊區建興街101號","121.449533333333","25.0396516666667","6500500","新莊區"
"242046","172-VK","2017/11/04 20:40:00","新北市新莊區裕民街136號","121.417731666667","25.02199","6500500","新莊區"
"242009","173-VK","2017/11/04 20:39:48","新北市新莊區昌隆街118號","121.45726","25.0510083333333","6500500","新莊區"
"242015","175-VK","2017/11/04 20:39:45","新北市新莊區中港一街153號","121.447611666667","25.045025","6500500","新莊區"
"242002","176-VK","2017/11/04 20:39:54","新北市新莊區中港路五守新村37巷1號","121.454623333333","25.0388566666667","6500500","新莊區"
"242013","346-TH","2017/11/04 20:39:44","新北市新莊區中和街175巷11號","121.447276666667","25.0505716666667","6500500","新莊區"
"242034","348-TH","2017/11/04 20:39:52","新北市新莊區中正路437號","121.44333","25.0340916666667","6500500","新莊區"
"242056","349-TH","2017/11/04 20:39:53","新北市新莊區瓊泰路69號","121.443215","25.0288066666667","6500500","新莊區"
"242011","351-TH","2017/11/04 20:39:52","新北市新莊區中榮街128號","121.446381666667","25.0527383333333","6500500","新莊區"
"221008","489-VK","2017/11/04 20:39:59","新北市汐止區康寧街861巷3號","121.645298333333","25.0761166666667","6501100","汐止區"
"221036","130-UY","2017/11/04 20:39:59","新北市汐止區新昌路78號","121.663708333333","25.06889","6501100","汐止區"
"221015","131-UY","2017/11/04 20:39:55","新北市汐止區建成路38號","121.664058333333","25.0728","6501100","汐止區"
"221012","276-VK","2017/11/04 13:22:05","新北市汐止區汐萬路一段256巷3號","121.65347","25.0746033333333","6501100","汐止區"
"221023","279-VK","2017/11/04 20:39:55","新北市汐止區明峰街15號","121.634938333333","25.0713833333333","6501100","汐止區"
"221032","280-BY","2017/11/04 20:39:44","新北市汐止區民權街二段28號","121.6195","25.0500016666667","6501100","汐止區"
"221027","281-BY","2017/11/04 20:39:45","新北市汐止區大同路二段533號","121.66182","25.0691","6501100","汐止區"
"221029","298-VK","2017/11/04 20:39:58","新北市汐止區大同路一段421號","121.642635","25.06117","6501100","汐止區"
"221021","299-VK","2017/11/04 20:39:55","新北市汐止區水源路一段293號","121.654331666667","25.0582483333333","6501100","汐止區"
"221031","353-TW","2017/11/04 20:39:47","新北市汐止區中興路27巷10號","121.634503333333","25.06084","6501100","汐止區"
"221002","358-BY","2017/11/04 20:39:43","新北市汐止區福德二路165號","121.631018333333","25.0651733333333","6501100","汐止區"
"221035","622-UM","2017/11/04 20:39:46","新北市汐止區長江街101-5號","121.65872","25.0731766666667","6501100","汐止區"
"221025","623-UM","2017/11/04 20:39:59","新北市汐止區水源路二段283巷1號","121.659176666667","25.0498466666667","6501100","汐止區"
"221038","646-BX","2017/11/04 20:40:01","新北市汐止區大同路二段191號","121.652351666667","25.064365","6501100","汐止區"
"221033","647-BX","2017/11/04 20:40:02","新北市汐止區合順街18巷8弄5號","121.620303333333","25.0419066666667","6501100","汐止區"
"221018","753-BX","2017/11/04 20:39:43","新北市汐止區茄苳路225巷16號","121.671488333333","25.0690683333333","6501100","汐止區"
"220094","285-UM","2017/11/04 20:39:55","新北市林口區汕頭32號","121.366491666667","25.135015","6500100","板橋區"
"220062","303-R5","2017/11/04 20:39:48","新北市三重區後埔街61號","121.479591666667","25.0486583333333","6500100","板橋區"
"242019","280-VK","2017/11/04 20:39:47","新北市新莊區銘德街129號","121.455041666667","25.0431116666667","6500500","新莊區"
"220103","561-BX","2017/11/04 20:39:50","新北市板橋區漢生東路73巷27號","121.467176666667","25.01702","6500100","板橋區"
"220070","AAC-253","2017/11/04 20:38:03","新北市五股區中直路15號","121.42342","25.111075","6500100","板橋區"
