"lineid","car","time","location","longitude","latitude","cityid","cityname"
"241031","841-RS","2017/11/04 14:53:29","新北市永和區保生路55-8號","121.504075","25.0103916666667","6500200","三重區"
"234074","AAC-211","2017/11/04 20:50:01","新北市永和區環河東路二段10號","121.52219","25.0132616666667","6500400","永和區"
"222003","436-BY","2017/11/04 20:49:45","新北市深坑區阿柔洋40號","121.61028","24.9984733333333","6501800","深坑區"
"222002","659-BX","2017/11/04 20:49:58","新北市深坑區北深路三段107巷26號","121.604006666667","25.0007416666667","6501800","深坑區"
"231059","046-UY","2017/11/04 20:49:51","新北市新店區僑信路114巷42號","121.499105","24.9462233333333","6500600","新店區"
"231061","047-UY","2017/11/04 20:49:45","新北市新店區新和街93巷8號","121.520835","24.9866983333333","6500600","新店區"
"231060","106-UY","2017/11/04 20:49:55","新北市新店區安康路三段740號","121.47383","24.941955","6500600","新店區"
"231048","108-UY","2017/11/04 20:49:54","新北市新店區寶元路二段1巷2號","121.550681666667","24.9840933333333","6500600","新店區"
"231052","187-VK","2017/11/04 20:49:48","新北市新店區新烏路二段42-1號","121.546408333333","24.929115","6500600","新店區"
"231050","KEA-2219","2017/11/04 20:49:52","新北市新店區中正路263-1號","121.538595","24.9736666666667","6500600","新店區"
"231057","256-BX","2017/11/04 20:49:55","新北市新店區新烏路一段189號","121.54688","24.9326583333333","6500600","新店區"
"231054","AAD-862","2017/11/04 20:50:03","新北市新店區北新路一段126巷27號","121.543218333333","24.96956","6500600","新店區"
"231058","3712-VJ","2017/11/04 20:49:53","新北市新店區平等街67號","121.535906666667","24.9724333333333","6500600","新店區"
"231056","3713-VJ","2017/11/04 20:49:50","新北市新店區中央七街61巷24號","121.529206666667","24.9759933333333","6500600","新店區"
"231065","512-UM","2017/11/04 20:49:53","新北市新店區安祥路69巷17號","121.481888333333","24.96134","6500600","新店區"
"231064","515-UM","2017/11/04 20:49:52","新北市新店區安民街381號","121.516288333333","24.9764483333333","6500600","新店區"
"231045","617-UM","2017/11/04 20:49:46","新北市新店區中興路一段203號","121.543718333333","24.9657866666667","6500600","新店區"
"231040","619-UM","2017/11/04 20:49:58","新北市新店區中正路272號","121.538946666667","24.9736766666667","6500600","新店區"
"231042","641-BX","2017/11/04 20:49:46","新北市新店區寶高路120巷1-1號","121.55464","24.97586","6500600","新店區"
"231063","645-TV","2017/11/04 20:49:56","新北市新店區如意街7-1號","121.49519","24.948645","6500600","新店區"
"231068","718-UY","2017/11/04 20:49:43","新北市新店區寶元路一段107號","121.545588333333","24.98285","6500600","新店區"
"231049","719-UM","2017/11/04 20:49:55","新北市新店區安康路一段107-2號","121.528671666667","24.96174","6500600","新店區"
"231051","719-UY","2017/11/04 20:49:41","新北市新店區中央路78巷72號","121.5309","24.9799","6500600","新店區"
"231062","720-UM","2017/11/04 20:49:59","新北市新店區裕合街359號","121.489138333333","24.9483466666667","6500600","新店區"
"231044","897-TW","2017/11/04 20:49:43","新北市新店區民族路192號","121.536213333333","24.9754383333333","6500600","新店區"
"231043","899-TW","2017/11/04 20:49:52","新北市新店區建國路51號","121.54051","24.9757533333333","6500600","新店區"
"231066","AKT-0513","2017/11/04 20:49:42","新北市新店區安興路105-1號","121.514595","24.9776933333333","6500600","新店區"
"241011","013-R5","2017/11/04 20:49:50","新北市三重區龍濱路251號","121.501423333333","25.0725766666667","6500200","三重區"
"241028","022-UY","2017/11/04 20:49:50","新北市三重區中正南路40號","121.493758333333","25.0601033333333","6500200","三重區"
"241009","060-VK","2017/11/04 20:49:42","新北市三重區三和路四段388-2號","121.482115","25.0791433333333","6500200","三重區"
"241031","061-VK","2017/11/04 20:49:52","新北市三重區重陽路一段113巷2弄2號","121.487506666667","25.0598516666667","6500200","三重區"
"241017","063-VK","2017/11/04 20:49:53","新北市三重區民生街18號","121.491946666667","25.0673616666667","6500200","三重區"
"241024","065-VK","2017/11/04 20:50:03","新北市三重區國道路一段58巷20號","121.481315","25.0720433333333","6500200","三重區"
"241026","066-VK","2017/11/04 20:49:44","新北市三重區文化南路3號","121.500016666667","25.0624033333333","6500200","三重區"
"241008","156-TC","2017/11/04 20:49:52","新北市三重區永福街72巷11號","121.47947","25.0767533333333","6500200","三重區"
"241005","262-UM","2017/11/04 20:49:59","新北市三重區五華街141巷42號","121.492686666667","25.0859816666667","6500200","三重區"
"241015","265-UM","2017/11/04 20:49:51","新北市三重區自強路一段8號","121.498796666667","25.0682266666667","6500200","三重區"
"241016","266-UM","2017/11/04 20:49:55","新北市三重區自強路一段101號","121.495698333333","25.0662933333333","6500200","三重區"
"241022","267-UM","2017/11/04 20:49:52","新北市三重區過圳街27-5號","121.487938333333","25.0624016666667","6500200","三重區"
"241018","268-UM","2017/11/04 20:49:51","新北市三重區正義北路281-1號","121.495155","25.0704066666667","6500200","三重區"
"241032","269-UM","2017/11/04 20:49:40","新北市三重區重陽路一段120巷35號","121.485078333333","25.0601833333333","6500200","三重區"
"241013","270-UM","2017/11/04 20:49:45","新北市三重區仁賢街6號","121.49568","25.0748033333333","6500200","三重區"
"241025","271-UM","2017/11/04 20:49:48","新北市三重區貴陽街14號","121.484211666667","25.0618633333333","6500200","三重區"
"241007","398-BY","2017/11/04 20:49:42","新北市三重區慈愛街10號","121.484563333333","25.0783916666667","6500200","三重區"
"241020","413-TH","2017/11/04 20:49:51","新北市三重區忠孝路一段101號","121.48945","25.072125","6500200","三重區"
"241004","475-VK","2017/11/04 20:49:54","新北市三重區分子尾街15-1號","121.489481666667","25.0807283333333","6500200","三重區"
"241019","478-VK","2017/11/04 20:49:59","新北市三重區大智街139-1號","121.490875","25.0709433333333","6500200","三重區"
"241030","480-VK","2017/11/04 20:49:53","新北市三重區昌隆街26號","121.49193","25.0522933333333","6500200","三重區"
"241014","543-UM","2017/11/04 20:49:57","新北市三重區長壽街120巷60號","121.501711666667","25.070295","6500200","三重區"
"241023","545-UM","2017/11/04 20:49:46","新北市三重區忠孝路三段99巷4號","121.480173333333","25.064245","6500200","三重區"
"241001","547-UM","2017/11/04 20:49:47","新北市三重區自強路三段97號","121.487635","25.07514","6500200","三重區"
"241006","AAD-863","2017/11/04 20:49:46","新北市三重區車路頭街135-1號","121.484223333333","25.0761733333333","6500200","三重區"
"241002","887-TS","2017/11/04 20:49:59","新北市三重區仁義街211巷58號","121.49824","25.0828016666667","6500200","三重區"
"241012","941-UM","2017/11/04 20:49:52","新北市三重區仁信街29號","121.50122","25.0755833333333","6500200","三重區"
"241029","942-UM","2017/11/04 20:49:49","新北市三重區重安街24號","121.490358333333","25.0580233333333","6500200","三重區"
"241033","AAC-255","2017/11/04 20:49:45","新北市三重區光復路二段1號","121.472285","25.0532916666667","6500200","三重區"
"235070","558-UM","2017/11/04 20:49:55","新北市八里區中山路三段390號","121.368356666667","25.135655","6500300","中和區"
"247022","893-R6","2017/11/04 20:49:59","新北市蘆洲區三民路118號","121.471515","25.087065","6501400","蘆洲區"
"247012","546-UM","2017/11/04 20:49:55","新北市蘆洲區復興路340巷22號","121.482931666667","25.0895833333333","6501400","蘆洲區"
"247020","500-BY","2017/11/04 20:49:47","新北市蘆洲區仁愛街64號","121.471428333333","25.0938816666667","6501400","蘆洲區"
"247010","339-TH","2017/11/04 20:49:58","新北市蘆洲區鷺江街91號","121.476855","25.0837733333333","6501400","蘆洲區"
"247002","337-TH","2017/11/04 20:49:53","新北市蘆洲區長安街307號","121.458013333333","25.0851966666667","6501400","蘆洲區"
"247004","336-TH","2017/11/04 20:49:56","新北市蘆洲區長安街100號","121.461716666667","25.08086","6501400","蘆洲區"
"247012","335-TH","2017/11/04 11:30:45","新北市五股區中興路三段163號","121.449108333333","25.0808616666667","6501400","蘆洲區"
"247016","057-VK","2017/11/04 20:49:47","新北市蘆洲區中山二路225號","121.470313333333","25.0802","6501400","蘆洲區"
"247006","056-VK","2017/11/04 20:49:50","新北市蘆洲區九芎街154號","121.464333333333","25.078265","6501400","蘆洲區"
"247008","053-VK","2017/11/04 20:49:55","新北市蘆洲區集賢路269巷28號","121.48228","25.0833","6501400","蘆洲區"
"247014","007-UY","2017/11/04 20:49:50","新北市蘆洲區三民路33號","121.4754","25.083","6501400","蘆洲區"
"247024","002-UY","2017/11/04 20:49:48","新北市蘆洲區長樂路136號","121.462078333333","25.09011","6501400","蘆洲區"
"247018","001-UY","2017/11/04 20:49:48","新北市蘆洲區民權路74號","121.474825","25.0873116666667","6501400","蘆洲區"
"222001","KEA-2212","2017/11/04 20:49:46","新北市深坑區北深路三段105-1號","121.6053","25.0018816666667","6501800","深坑區"
"251014","180-VK","2017/11/04 20:49:56","新北市淡水區公埔子36號","121.46189","25.2322783333333","6501000","淡水區"
"251010","413-VK","2017/11/04 20:49:41","新北市淡水區沙崙路141-1號","121.423356666667","25.1829716666667","6501000","淡水區"
"251012","441-VK","2017/11/04 20:49:55","新北市淡水區興仁路165號","121.45156","25.21998","6501000","淡水區"
"251016","442-VK","2017/11/04 20:49:50","新北市淡水區淡金路四段215號","121.451691666667","25.2223516666667","6501000","淡水區"
"251001","559-UM","2017/11/04 20:49:57","新北市淡水區淡金路218號","121.460531666667","25.1671866666667","6501000","淡水區"
"251007","577-R6","2017/11/04 20:49:56","新北市淡水區鄧公路35巷1號","121.451641666667","25.1713783333333","6501000","淡水區"
"251011","650-BX","2017/11/04 20:49:49","新北市淡水區新民街一段13-1號","121.432995","25.184545","6501000","淡水區"
"251002","672-BX","2017/11/04 20:49:43","新北市淡水區英專路26號","121.44555","25.169965","6501000","淡水區"
"251003","673-BX","2017/11/04 20:50:01","新北市淡水區中山北路一段247巷44號","121.443453333333","25.1797566666667","6501000","淡水區"
"252002","178-VK","2017/11/04 20:49:48","新北市三芝區淡金路二段76-1號","121.503951666667","25.2609233333333","6502100","三芝區"
"237007","153-BY","2017/11/04 20:49:56","新北市樹林區中山路三段214號","121.380483333333","24.9666883333333","6500900","三峽區"
"236001","138-TH","2017/11/04 15:37:13","新北市土城區永平街51號","121.427985","24.9592116666667","6501300","土城區"
"242031","AAC-296","2017/11/04 20:49:56","新北市新莊區中正路506號","121.435733333333","25.032905","6500500","新莊區"
"242029","986-R7","2017/11/04 20:49:41","新北市新莊區昌平街19號","121.454345","25.05138","6500500","新莊區"
"242051","751-BX","2017/11/04 20:49:51","新北市新莊區民安西路90-2號","121.426951666667","25.0189733333333","6500500","新莊區"
"242025","615-BX","2017/11/04 20:49:59","新北市新莊區環河路462號","121.440326666667","25.0192433333333","6500500","新莊區"
"242039","566-BX","2017/11/04 20:49:54","新北市新莊區瓊林北路15號","121.439246666667","25.02221","6500500","新莊區"
"242053","440-UM","2017/11/04 20:49:49","新北市新莊區西盛街324巷42號","121.42666","25.0149433333333","6500500","新莊區"
"242004","413-TV","2017/11/04 20:49:58","新北市新莊區思源路39號","121.46002","25.0397383333333","6500500","新莊區"
"242061","362-BY","2017/11/04 20:49:45","新北市新莊區新樹路745號","121.432373333333","24.9997116666667","6500500","新莊區"
"242007","132-UY","2017/11/04 20:49:59","新北市新莊區瓊林路46-6號","121.447273333333","25.0292233333333","6500500","新莊區"
"242036","133-UY","2017/11/04 20:49:47","新北市新莊區中正路471號","121.441833333333","25.0338316666667","6500500","新莊區"
"242021","135-UY","2017/11/04 20:50:00","新北市新莊區中華路一段30號","121.451965","25.0376166666667","6500500","新莊區"
"242046","172-VK","2017/11/04 20:49:40","新北市樹林區中正路103號","121.425408333333","25.00088","6500500","新莊區"
"242009","173-VK","2017/11/04 20:49:28","新北市新莊區幸福路53號","121.457638333333","25.049275","6500500","新莊區"
"242002","176-VK","2017/11/04 20:49:54","新北市新莊區瓊林路59-90號","121.441145","25.02236","6500500","新莊區"
"242034","348-TH","2017/11/04 20:49:52","新北市新莊區瓊林路46-9號","121.447056666667","25.0293016666667","6500500","新莊區"
"242056","349-TH","2017/11/04 20:49:53","新北市新莊區瓊林路108號","121.442133333333","25.0262633333333","6500500","新莊區"
"242011","351-TH","2017/11/04 20:49:45","新北市新莊區瓊林路118號","121.442175","25.0255083333333","6500500","新莊區"
"221008","489-VK","2017/11/04 20:49:59","新北市汐止區康寧街901號","121.65127","25.0750133333333","6501100","汐止區"
"221036","130-UY","2017/11/04 20:49:59","新北市汐止區秀峰路57號","121.659975","25.0650783333333","6501100","汐止區"
"221012","276-VK","2017/11/04 13:22:05","新北市汐止區汐萬路一段256巷3號","121.65347","25.0746033333333","6501100","汐止區"
"221032","280-BY","2017/11/04 20:49:44","新北市汐止區大同路二段187巷53號","121.652213333333","25.0663466666667","6501100","汐止區"
"221027","281-BY","2017/11/04 20:49:45","新北市汐止區大同路二段364號","121.657495","25.0671483333333","6501100","汐止區"
"221029","298-VK","2017/11/04 20:49:58","新北市汐止區樟樹二路349號","121.642296666667","25.07348","6501100","汐止區"
"221031","353-TW","2017/11/04 20:49:47","新北市汐止區福德一路256號","121.633595","25.0647666666667","6501100","汐止區"
"221002","358-BY","2017/11/04 20:49:43","新北市汐止區福德二路138號","121.630756666667","25.0651766666667","6501100","汐止區"
"221035","622-UM","2017/11/04 20:49:46","新北市汐止區康寧街901號","121.651715","25.0749283333333","6501100","汐止區"
"221038","646-BX","2017/11/04 20:49:41","新北市汐止區汐萬路一段256巷1號","121.651993333333","25.07477","6501100","汐止區"
"221033","647-BX","2017/11/04 20:49:42","台北市南港區合順街8巷7弄38號","121.620275","25.041835","6501100","汐止區"
"221018","753-BX","2017/11/04 20:49:43","新北市汐止區茄苳路103號","121.667345","25.071385","6501100","汐止區"
"220094","285-UM","2017/11/04 20:49:55","新北市八里區中山路三段409號","121.368785","25.13557","6500100","板橋區"
"220062","303-R5","2017/11/04 20:49:48","新北市板橋區民生路二段161巷1號","121.470021666667","25.0200483333333","6500100","板橋區"
"220103","561-BX","2017/11/04 20:49:45","新北市板橋區漢生東路63巷1號","121.465858333333","25.01635","6500100","板橋區"
"220070","AAC-253","2017/11/04 20:49:43","新北市林口區太平里180號","121.36734","25.1351366666667","6500100","板橋區"
