"lineid","car","time","location","longitude","latitude","cityid","cityname"
"232017","758-BX","2017/08/07 09:39:37","新北市坪林區坪雙路一段33號","121.711523333333","24.9426966666667","6502000","坪林區"
"244012","069-UM","2017/08/07 09:39:54","新北市林口區麗園二街1巷3-1號","121.377001666667","25.0703266666667","6501700","林口區"
"244006","080-UY","2017/08/07 09:39:37","新北市林口區中湖62號","121.385013333333","25.1006866666667","6501700","林口區"
"244018","403-UM","2017/08/07 09:39:52","新北市林口區忠孝路614號","121.377033333333","25.0683933333333","6501700","林口區"
"244008","410-SL","2017/08/07 09:39:37","新北市林口區林口路226號","121.386838333333","25.08383","6501700","林口區"
"244022","483-VK","2017/08/07 09:39:48","新北市林口區民享路36號","121.38072","25.08053","6501700","林口區"
"244024","837-TS","2017/08/07 09:39:17","新北市林口區粉寮69號","121.405126666667","25.09082","6501700","林口區"
"222005","289-BY","2017/08/07 09:39:53","新北市深坑區昇高坑路34號","121.627925","24.99945","6501800","深坑區"
"231008","192-VK","2017/08/07 09:39:48","新北市新店區平廣路一段151號","121.522066666667","24.8911233333333","6500600","新店區"
"231007","719-UM","2017/08/07 09:39:37","新北市新店區新潭路三段215巷25號","121.508183333333","24.90413","6500600","新店區"
"223002","198-BX","2017/08/07 09:39:49","新北市石碇區員潭子坑4號","121.63755","24.9851866666667","6501900","石碇區"
"223003","205-TH","2017/08/07 09:39:35","新北市石碇區北宜路五段坑內巷6號","121.635608333333","24.9534633333333","6501900","石碇區"
"223008","406-TH","2017/08/07 09:38:20","新北市石碇區光明路17-2號","121.685233333333","25.031875","6501900","石碇區"
"223001","437-BY","2017/08/07 09:39:49","新北市石碇區北宜路五段坑內巷4號","121.635211666667","24.9527783333333","6501900","石碇區"
"223004","660-BX","2017/08/07 09:39:40","新北市石碇區碇坪路二段31號","121.684191666667","24.976295","6501900","石碇區"
"223007","661-BX","2017/08/07 09:38:14","新北市石碇區光明路17-2號","121.685218333333","25.0318583333333","6501900","石碇區"
"223005","677-TV","2017/08/07 09:39:51","新北市石碇區碇坪路二段35號","121.685083333333","24.9765566666667","6501900","石碇區"
"227005","282-VK","2017/08/07 09:39:35","新北市雙溪區泰平里溪尾寮2-2號","121.819303333333","24.9642633333333","6502500","雙溪區"
"253003","6232-TK","2017/08/07 09:39:48","新北市石門區內石門65號","121.579733333333","25.2621766666667","6502200","石門區"
"253001","6251-TK","2017/08/07 09:39:31","新北市石門區崁子腳65-1號","121.532256666667","25.2859883333333","6502200","石門區"
"253002","637-UY","2017/08/07 09:39:47","新北市石門區大溪墘3-1號","121.55168","25.2807816666667","6502200","石門區"
"253004","8270-PC","2017/08/07 09:29:38","新北市石門區阿里磅26號","121.589383333333","25.2580633333333","6502200","石門區"
"252006","073-UM","2017/08/07 09:15:40","新北市三芝區埔坪里埔頭坑41號","121.504498333333","25.264505","6502100","三芝區"
"252004","249-BX","2017/08/07 09:39:50","新北市三芝區店子里店子30-1號","121.50645","25.20906","6502100","三芝區"
"252006","AAC-283","2017/08/07 09:39:43","新北市三芝區新庄里新庄子95號","121.51327","25.273875","6502100","三芝區"
"236007","165-UM","2017/08/07 09:39:49","新北市土城區中央路四段464號","121.409915","24.9506033333333","6501300","土城區"
"236005","498-BY","2017/08/07 09:39:45","新北市土城區忠義路45巷2號","121.44125","24.9692216666667","6501300","土城區"
"242020","AAC-296","2017/08/07 09:39:36","新北市新莊區中正路283號","121.449008333333","25.0354033333333","6500500","新莊區"
"242047","751-BX","2017/08/07 09:39:34","新北市新莊區中正路700-21號","121.417948333333","25.026985","6500500","新莊區"
"242035","566-BX","2017/08/07 09:39:35","新北市新莊區後港一路141號","121.430505","25.0276083333333","6500500","新莊區"
"242003","442-UM","2017/08/07 09:39:49","新北市新莊區頭前路32號","121.46746","25.0525133333333","6500500","新莊區"
"242030","415-TV","2017/08/07 09:39:35","新北市新莊區三和路46號","121.43811","25.038095","6500500","新莊區"
"242038","400-BY","2017/08/07 09:39:48","新北市新莊區瓊林路61巷3號","121.44008","25.0194433333333","6500500","新莊區"
"242059","362-BY","2017/08/07 09:39:46","新北市新莊區新樹路447號","121.432646666667","25.0135166666667","6500500","新莊區"
"242057","353-BY","2017/08/07 09:39:54","新北市新莊區四維路147號","121.422653333333","25.0221583333333","6500500","新莊區"
"242033","133-UY","2017/08/07 09:39:54","新北市新莊區中正路393號","121.44571","25.0345683333333","6500500","新莊區"
"242043","172-VK","2017/08/07 09:39:47","新北市新莊區龍安路90號","121.417646666667","25.0208","6500500","新莊區"
"242055","176-VK","2017/08/07 09:39:53","新北市新莊區瓊泰路161號","121.443176666667","25.03118","6500500","新莊區"
"242052","349-TH","2017/08/07 09:39:43","新北市新莊區民安西路189巷10弄24-1號","121.42652","25.015105","6500500","新莊區"
