"lineid","car","time","location","longitude","latitude","cityid","cityname"
"244025","837-TS","2017/08/07 09:42:56","新北市林口區粉寮路二段160巷28號","121.40522","25.09078","6501700","林口區"
"231008","192-VK","2017/08/07 10:37:08","新北市新店區小坑一路41號","121.527586666667","24.9100616666667","6500600","新店區"
"231007","719-UM","2017/08/07 10:39:37","新北市新店區新潭路三段76號","121.505495","24.91111","6500600","新店區"
"227005","282-VK","2017/08/07 09:39:35","新北市雙溪區泰平里溪尾寮2-2號","121.819303333333","24.9642633333333","6502500","雙溪區"
"253002","637-UY","2017/08/07 10:39:47","新北市石門區小坑9號","121.594461666667","25.2890033333333","6502200","石門區"
"252006","073-UM","2017/08/07 09:15:40","新北市三芝區埔坪里埔頭坑41號","121.504498333333","25.264505","6502100","三芝區"
