"lineid","car","time","location","longitude","latitude","cityid","cityname"
"234044","148-BY","2017/08/07 14:29:21","新北市永和區環河東路二段102號","121.524245","25.0102983333333","6500400","永和區"
"234005","207-UY","2017/08/07 14:29:18","新北市永和區中正路513號","121.516923333333","25.007255","6500400","永和區"
"234078","298-R6","2017/08/07 14:29:31","新北市永和區永貞路54號","121.520871666667","25.0058316666667","6500400","永和區"
"234036","336-UY","2017/08/07 14:29:20","新北市永和區環河東路四段38號","121.528721666667","24.99892","6500400","永和區"
"234062","337-UY","2017/08/07 14:29:32","新北市永和區中正路512號","121.517231666667","25.0046916666667","6500400","永和區"
"234084","338-UY","2017/08/07 14:29:36","新北市永和區永和路二段237-2號","121.515688333333","25.0145083333333","6500400","永和區"
"234068","552-UM","2017/08/07 14:29:29","新北市永和區永亨路7號","121.51948","25.0057133333333","6500400","永和區"
"234052","553-UM","2017/08/07 14:29:26","新北市永和區光復街31-1號","121.516425","25.0178433333333","6500400","永和區"
"234028","746-BX","2017/08/07 14:29:23","新北市中和區中正路76號","121.500658333333","24.9936633333333","6500400","永和區"
"234060","AAD-866","2017/08/07 14:29:21","新北市永和區安樂路166號","121.514665","25.0008283333333","6500400","永和區"
"234040","862-TW","2017/08/07 14:29:30","新北市永和區安樂路431號","121.51433","25.004305","6500400","永和區"
"234048","863-TW","2017/08/07 14:29:22","新北市永和區保福路三段2-1號","121.508486666667","25.015575","6500400","永和區"
"234025","9371-KE","2017/08/07 14:29:22","新北市中和區安平路222號","121.514006666667","25","6500400","永和區"
"234010","9373-KE","2017/08/07 14:29:21","新北市永和區仁愛路352巷124號","121.500215","25.0085266666667","6500400","永和區"
"248013","025-BX","2017/08/07 14:29:20","新北市五股區民義路一段157-3號","121.432263333333","25.08733","6501500","五股區"
"248015","026-BX","2017/08/07 14:29:37","新北市五股區成泰路四段26號","121.45496","25.108245","6501500","五股區"
"248007","095-VK","2017/08/07 14:29:32","新北市五股區中興路一段95巷24號","121.4665","25.0721133333333","6501500","五股區"
"248019","225-UY","2017/08/07 14:06:55","新北市五股區凌雲路三段57號","121.425301666667","25.1250133333333","6501500","五股區"
"248011","247-BX","2017/08/07 14:29:20","新北市五股區蓬萊路6巷1號","121.435543333333","25.0796516666667","6501500","五股區"
"248003","677-BX","2017/08/07 14:29:35","新北市五股區五福路41號","121.433235","25.0894016666667","6501500","五股區"
"248001","678-BX","2017/08/07 14:29:22","新北市五股區成泰路三段487號","121.450803333333","25.0994766666667","6501500","五股區"
"248009","682-TV","2017/08/07 14:29:26","新北市五股區水碓一路23號","121.430573333333","25.07131","6501500","五股區"
"234072","AAC-211","2017/08/07 14:29:17","新北市永和區竹林路119巷22弄9號","121.521958333333","25.0115333333333","6500400","永和區"
"234066","AAC-212","2017/08/07 14:29:30","新北市永和區保平路268巷21號","121.50802","25.0056833333333","6500400","永和區"
"234001","AAC-295","2017/08/07 14:29:20","新北市永和區永和路一段140號","121.514256666667","25.008095","6500400","永和區"
"244025","837-TS","2017/08/07 09:42:56","新北市林口區粉寮路二段160巷28號","121.40522","25.09078","6501700","林口區"
"243005","AAD-798","2017/08/07 14:29:36","新北市泰山區貴子路7號","121.425418333333","25.0421716666667","6501600","泰山區"
"243001","297-R6","2017/08/07 14:29:31","新北市五股區成泰路一段7巷12號","121.433315","25.066805","6501600","泰山區"
"243007","380-SR","2017/08/07 14:29:23","新北市泰山區明志路二段99號","121.428395","25.05191","6501600","泰山區"
"243006","421-VK","2017/08/07 14:29:26","新北市泰山區仁義路220巷53號","121.432065","25.0526883333333","6501600","泰山區"
"243002","548-UM","2017/08/07 14:29:28","新北市泰山區民生路16號","121.430113333333","25.0525566666667","6501600","泰山區"
"243003","549-UM","2017/08/07 14:29:31","新北市泰山區中山路二段661號","121.429806666667","25.03985","6501600","泰山區"
"243004","646-TV","2017/08/07 14:29:23","新北市泰山區全興路18巷29號","121.431928333333","25.0584066666667","6501600","泰山區"
"243008","680-BX","2017/08/07 14:29:33","新北市泰山區新北大道七段21號","121.420368333333","25.0320566666667","6501600","泰山區"
"231002","002-UM","2017/08/07 14:29:26","新北市新店區中央路98號","121.531853333333","24.9758866666667","6500600","新店區"
"231025","0291-UT","2017/08/07 14:29:23","新北市新店區民族路161號","121.537735","24.9767083333333","6500600","新店區"
"231028","046-UY","2017/08/07 14:29:28","新北市新店區安康路二段147號","121.511335","24.95988","6500600","新店區"
"231030","047-UY","2017/08/07 14:29:23","新北市新店區安民街67-3號","121.51621","24.96677","6500600","新店區"
"231029","106-UY","2017/08/07 14:29:32","新北市新店區安康路二段382號","121.500495","24.9570566666667","6500600","新店區"
"231018","107-UY","2017/08/07 14:29:19","新北市新店區中央二街57號","121.52694","24.9746233333333","6500600","新店區"
"231011","108-UY","2017/08/07 14:29:20","新北市新店區寶興路41號","121.548896666667","24.973785","6500600","新店區"
"231019","187-VK","2017/08/07 14:29:35","新北市新店區新烏路三段23號","121.553066666667","24.905545","6500600","新店區"
"231014","AAD-862","2017/08/07 14:29:25","新北市新店區北宜路三段106號","121.579791666667","24.9504183333333","6500600","新店區"
"231001","355-BY","2017/08/07 14:29:18","新北市新店區中正路75巷71號","121.543085","24.9688533333333","6500600","新店區"
"231027","3712-VJ","2017/08/07 14:29:30","新北市新店區北新路二段228巷11號","121.543388333333","24.9772466666667","6500600","新店區"
"231038","4715-K9","2017/08/07 14:29:27","新北市新店區溪洲路8巷101號","121.532843333333","24.9632266666667","6500600","新店區"
"231036","512-UM","2017/08/07 14:29:19","新北市新店區安祥路109巷8號","121.475391666667","24.9588316666667","6500600","新店區"
"231023","513-UM","2017/08/07 14:29:34","新北市新店區光明街115號","121.538951666667","24.9615333333333","6500600","新店區"
"231035","515-UM","2017/08/07 14:29:28","新北市新店區安光路10-1號","121.513808333333","24.9642383333333","6500600","新店區"
"231003","641-BX","2017/08/07 14:29:14","新北市新店區中興路一段274號","121.54537","24.9682316666667","6500600","新店區"
"231034","645-TV","2017/08/07 14:29:27","新北市新店區黎明路9號","121.502468333333","24.9502633333333","6500600","新店區"
"231013","719-UM","2017/08/07 14:29:27","新北市新店區民權路100-1號","121.53614","24.9834116666667","6500600","新店區"
"231005","897-TW","2017/08/07 14:29:21","新北市新店區寶強路6-1號","121.543333333333","24.978425","6500600","新店區"
"231006","898-TW","2017/08/07 14:29:31","新北市新店區北宜路二段489-1號","121.562605","24.9540016666667","6500600","新店區"
"231004","899-TW","2017/08/07 14:29:20","新北市新店區中正路215號","121.539728333333","24.97285","6500600","新店區"
"235030","003-UY","2017/08/07 14:29:32","新北市中和區景新街32號","121.503373333333","24.999305","6500300","中和區"
"235028","005-UY","2017/08/07 14:29:27","新北市中和區南山路81巷29號","121.502965","24.99815","6500300","中和區"
"235027","006-UY","2017/08/07 14:29:21","新北市中和區連城路219巷9號","121.494765","24.9968183333333","6500300","中和區"
"235020","096-UM","2017/08/07 14:29:32","新北市中和區中山路三段102號","121.476866666667","25.0058933333333","6500300","中和區"
"235003","097-UM","2017/08/07 14:29:31","新北市中和區秀峰街103巷7弄4號","121.51943","24.9889316666667","6500300","中和區"
"235029","098-UM","2017/08/07 14:29:22","新北市中和區永和路10號","121.4999","25.0030383333333","6500300","中和區"
"235004","150-BY","2017/08/07 14:29:33","新北市中和區安樂路101-2號","121.513235","24.995165","6500300","中和區"
"235022","151-BY","2017/08/07 14:29:22","新北市中和區連城路469巷58號","121.483435","24.994255","6500300","中和區"
"235019","183-VK","2017/08/07 14:29:19","新北市中和區德光路27巷30號","121.470863333333","25.0034433333333","6500300","中和區"
"235002","185-VK","2017/08/07 14:29:16","新北市中和區大智街55巷33號","121.520438333333","24.992935","6500300","中和區"
"235013","186-VK","2017/08/07 14:29:23","新北市中和區景新街295巷27號","121.51109","24.9934366666667","6500300","中和區"
"235031","255-BX","2017/08/07 14:29:18","新北市中和區連城路467-4號","121.483833333333","24.9961133333333","6500300","中和區"
"235008","293-VK","2017/08/07 14:29:17","新北市中和區復興路306號","121.501248333333","24.9903416666667","6500300","中和區"
"235036","301-VK","2017/08/07 14:29:21","新北市中和區中山路二段64巷16弄1號","121.50323","25.00596","6500300","中和區"
"235007","352-BY","2017/08/07 14:29:24","新北市中和區景平路316號","121.512365","24.9928333333333","6500300","中和區"
"235015","376-QA","2017/08/07 14:29:17","新北市中和區興南路一段75號","121.51021","24.9891783333333","6500300","中和區"
"235032","377-QA","2017/08/07 14:29:32","新北市中和區景平路493巷12弄21-4號","121.498811666667","24.997195","6500300","中和區"
"235025","378-QA","2017/08/07 14:29:20","新北市中和區連城路456巷9號","121.478645","24.99515","6500300","中和區"
"235014","4979-A6","2017/08/07 14:27:41","新北市中和區員山路36巷16-8號","121.485181666667","24.992265","6500300","中和區"
"235006","551-UM","2017/08/07 14:29:14","新北市中和區中和路378巷19號","121.511465","25.0018033333333","6500300","中和區"
"235034","558-UM","2017/08/07 14:29:31","新北市中和區連城路15號","121.49892","25.00218","6500300","中和區"
"235009","565-BX","2017/08/07 14:29:18","新北市中和區景新街425號","121.51318","24.9892966666667","6500300","中和區"
"235018","640-BX","2017/08/07 14:29:24","新北市中和區國光街109巷5號","121.469853333333","25.000135","6500300","中和區"
"235024","647-TV","2017/08/07 14:29:23","新北市中和區中山路三段35巷3號","121.47911","25.00553","6500300","中和區"
"235011","732-UM","2017/08/07 14:29:32","新北市中和區景平路241巷64弄8號","121.50776","24.9926166666667","6500300","中和區"
"235010","733-UM","2017/08/07 14:29:32","新北市中和區忠孝街37巷52號","121.511073333333","24.9850066666667","6500300","中和區"
"235026","800-TS","2017/08/07 14:29:15","新北市中和區中山路二段488-1號","121.487491666667","25.0048883333333","6500300","中和區"
"235021","801-TS","2017/08/07 14:29:22","新北市中和區員山路421號","121.480928333333","25.0033883333333","6500300","中和區"
"235005","802-TS","2017/08/07 14:29:28","新北市中和區中安街230號","121.512248333333","24.9985883333333","6500300","中和區"
"235016","805-TS","2017/08/07 14:29:28","新北市中和區興南路二段142巷17弄6號","121.5033","24.9832333333333","6500300","中和區"
"235012","896-TW","2017/08/07 14:29:32","新北市中和區忠孝街66號","121.511923333333","24.9839733333333","6500300","中和區"
"235017","900-TW","2017/08/07 14:29:27","新北市中和區華安街16巷3號","121.466161666667","24.9983033333333","6500300","中和區"
"235035","911-UM","2017/08/07 14:29:32","新北市中和區連城路469巷52號","121.483476666667","24.99437","6500300","中和區"
"235001","AAC-213","2017/08/07 14:29:37","新北市中和區自立路23號","121.522535","24.9957916666667","6500300","中和區"
"235023","AAC-215","2017/08/07 14:29:25","新北市中和區圓通路252巷1號","121.493541666667","24.9910766666667","6500300","中和區"
"220016","013-TV","2017/08/07 14:29:27","新北市板橋區中山路二段436號","121.483958333333","25.0216383333333","6500100","板橋區"
"220034","073-UY","2017/08/07 14:29:31","新北市板橋區中正路250巷91號","121.459428333333","25.019985","6500100","板橋區"
"220105","075-UY","2017/08/07 14:29:23","新北市板橋區江寧路三段127號","121.473558333333","25.033275","6500100","板橋區"
"220017","AAD-861","2017/08/07 14:29:20","新北市板橋區大明街20巷25-3號","121.458723333333","25.003585","6500100","板橋區"
"220045","120-SR","2017/08/07 14:29:27","新北市板橋區大同街4號","121.476855","25.0267983333333","6500100","板橋區"
"247019","893-R6","2017/08/07 14:29:31","新北市蘆洲區水湳街257號","121.469433333333","25.092455","6501400","蘆洲區"
"247009","546-UM","2017/08/07 14:29:37","新北市蘆洲區信義路148號","121.479446666667","25.0832016666667","6501400","蘆洲區"
"247017","500-BY","2017/08/07 14:29:32","新北市蘆洲區復興路227巷19號","121.479748333333","25.0906166666667","6501400","蘆洲區"
"247005","341-TH","2017/08/07 14:29:23","新北市蘆洲區長安街80號","121.46231","25.08035","6501400","蘆洲區"
"247007","339-TH","2017/08/07 14:29:30","新北市蘆洲區信義路91-5號","121.477496666667","25.079805","6501400","蘆洲區"
"247023","337-TH","2017/08/07 14:29:17","新北市蘆洲區中正路100號","121.469861666667","25.08421","6501400","蘆洲區"
"247001","336-TH","2017/08/07 14:29:29","新北市蘆洲區環堤大道166號","121.456136666667","25.0896283333333","6501400","蘆洲區"
"247013","057-VK","2017/08/07 14:29:23","新北市蘆洲區中山二路170號","121.470713333333","25.080785","6501400","蘆洲區"
"247003","056-VK","2017/08/07 14:29:33","新北市蘆洲區永安南路二段286號","121.45752","25.0813383333333","6501400","蘆洲區"
"247011","007-UY","2017/08/07 14:29:30","新北市蘆洲區民權路54-1號","121.475483333333","25.0868683333333","6501400","蘆洲區"
"247021","002-UY","2017/08/07 14:29:20","新北市蘆洲區三民路128巷51號","121.469666666667","25.09007","6501400","蘆洲區"
"247015","001-UY","2017/08/07 14:29:18","新北市蘆洲區中正路185巷78弄64號","121.465698333333","25.0854683333333","6501400","蘆洲區"
"208004","AAC-292","2017/08/07 14:29:20","新北市金山區重和里磺溪頭81號","121.597848333333","25.2177233333333","6502700","金山區"
"207002","749-BX","2017/08/07 14:28:44","新北市萬里區溪底里富士坪路26-1號","121.621168333333","25.1522016666667","6502800","萬里區"
"252005","073-UM","2017/08/07 14:28:26","新北市三芝區橫山里大坑27號","121.52604","25.25492","6502100","三芝區"
"207001","662-BX","2017/08/07 14:29:23","新北市萬里區磺潭里清水13號","121.639438333333","25.1992333333333","6502800","萬里區"
"236064","105-UM","2017/08/07 14:29:30","新北市土城區永豐路342-1號","121.474453333333","24.9765633333333","6501300","土城區"
"236040","107-UM","2017/08/07 14:29:26","新北市土城區裕民路61巷2號","121.449433333333","24.9878883333333","6501300","土城區"
"236074","166-UM","2017/08/07 14:29:18","新北市土城區中央路四段27巷9號","121.424611666667","24.9620616666667","6501300","土城區"
"236028","253-BX","2017/08/07 14:29:27","新北市土城區水源街81巷1弄5號","121.439798333333","24.9762133333333","6501300","土城區"
"236024","269-VK","2017/08/07 14:29:14","新北市土城區承天路69號","121.439816666667","24.9634216666667","6501300","土城區"
"236012","270-VK","2017/08/07 14:29:15","新北市土城區青雲路39巷7號","121.46031","24.9874116666667","6501300","土城區"
"236032","271-VK","2017/08/07 14:29:26","新北市土城區青雲路451巷15號","121.459628333333","24.9747883333333","6501300","土城區"
"236016","401-BY","2017/08/07 14:29:16","新北市土城區永豐路202巷5-2號","121.466353333333","24.9832916666667","6501300","土城區"
"236005","498-BY","2017/08/07 14:29:17","新北市土城區日新街33巷4號","121.442971666667","24.9872683333333","6501300","土城區"
"236060","752-BX","2017/08/07 14:29:14","新北市土城區延壽路44巷15號","121.471435","24.9930766666667","6501300","土城區"
"236056","912-UM","2017/08/07 14:29:31","新北市土城區中央路四段464號","121.409893333333","24.9506033333333","6501300","土城區"
"236044","913-UM","2017/08/07 14:29:23","新北市土城區明德路一段321號","121.459188333333","24.97707","6501300","土城區"
"236052","AAC-216","2017/08/07 14:29:29","新北市土城區中華路二段189號","121.43838","24.97451","6501300","土城區"
"221002","753-BX","2017/08/07 14:29:23","新北市新店區薏仁坑路自強巷1號","121.497296666667","24.9577316666667","6501100","汐止區"
"220027","145-BY","2017/08/07 14:29:20","新北市板橋區建國街23號","121.45804","25.0171216666667","6500100","板橋區"
"220037","146-RM","2017/08/07 14:29:29","新北市板橋區文化路二段182巷1弄23號","121.471558333333","25.0280833333333","6500100","板橋區"
"220028","200-UY","2017/08/07 14:29:30","新北市板橋區大觀路二段3巷25號","121.448243333333","25.0036733333333","6500100","板橋區"
"220030","610-BX","2017/08/07 14:29:21","新北市板橋區篤行路三段74號","121.426996666667","24.985325","6500100","板橋區"
"220003","255-TC","2017/08/05 21:42:21","新北市板橋區民生路二段56-4號","121.471873333333","25.017225","6500100","板橋區"
"220051","257-TC","2017/08/07 14:29:28","新北市板橋區松柏街22巷36號","121.475056666667","25.0288483333333","6500100","板橋區"
"220043","267-BY","2017/08/07 14:29:24","新北市板橋區吳鳳路50巷77號","121.470041666667","25.0303716666667","6500100","板橋區"
"220004","276-BY","2017/08/07 14:29:18","新北市板橋區信義路150巷18號","121.458161666667","24.9917333333333","6500100","板橋區"
"220020","277-BY","2017/08/07 14:29:29","新北市板橋區篤行路二段149號","121.429705","24.9880533333333","6500100","板橋區"
"220050","285-UM","2017/08/07 14:29:14","新北市板橋區縣民大道三段121巷32號","121.476448333333","25.02345","6500100","板橋區"
"220001","285-VK","2017/08/07 14:29:24","新北市板橋區富山街27號","121.477758333333","25.0218216666667","6500100","板橋區"
"220031","286-VK","2017/08/07 14:29:35","新北市板橋區龍興街73巷56號","121.441755","25.0030983333333","6500100","板橋區"
"220029","287-VK","2017/08/07 14:29:22","新北市板橋區大觀路一段75巷2號","121.447316666667","25.0043683333333","6500100","板橋區"
"220039","288-VK","2017/08/07 14:29:26","新北市板橋區長江路一段106巷13弄4號","121.460193333333","25.0291233333333","6500100","板橋區"
"220009","293-UM","2017/08/07 14:29:16","新北市板橋區漢生東路155號","121.468533333333","25.0136266666667","6500100","板橋區"
"220032","296-UM","2017/08/07 14:29:29","新北市板橋區滿平街136巷10弄2號","121.427625","24.98706","6500100","板橋區"
"220023","297-UM","2017/08/07 14:29:29","新北市板橋區南雅西路一段116號","121.452491666667","25.0064633333333","6500100","板橋區"
"220047","299-UM","2017/08/07 14:29:34","新北市板橋區民生路三段263巷7號","121.463415","25.0290816666667","6500100","板橋區"
"220010","303-R5","2017/08/07 14:29:23","新北市板橋區三民路二段181巷5號","121.479791666667","25.014365","6500100","板橋區"
"220013","305-R5","2017/08/07 14:29:34","新北市板橋區國泰街75巷29-1號","121.467856666667","25.005435","6500100","板橋區"
"220041","307-R5","2017/08/07 14:29:32","新北市板橋區光武街4巷21號","121.468225","25.02581","6500100","板橋區"
"220012","486-VK","2017/08/07 14:29:29","新北市板橋區中山路一段50-1號","121.460943333333","25.0091816666667","6500100","板橋區"
"220038","487-VK","2017/08/07 14:29:30","新北市板橋區文化路一段114號","121.464945","25.018385","6500100","板橋區"
"220104","560-BX","2017/08/07 14:29:21","新北市板橋區中正路377-1號","121.45441","25.0214","6500100","板橋區"
"220052","561-BX","2017/08/07 14:29:29","新北市板橋區介壽街3號","121.467233333333","25.0204683333333","6500100","板橋區"
"220019","568-UM","2017/08/07 14:29:19","新北市板橋區忠孝路48巷64號","121.461166666667","25.0000366666667","6500100","板橋區"
"220011","609-BX","2017/08/07 14:29:31","新北市板橋區三民路二段204號","121.478828333333","25.0122216666667","6500100","板橋區"
"220040","637-BX","2017/08/07 14:29:25","新北市板橋區文聖街182號","121.479381666667","25.026835","6500100","板橋區"
"220005","686-BX","2017/08/07 14:29:18","新北市板橋區國慶路182巷20號","121.463063333333","24.99589","6500100","板橋區"
"220025","687-BX","2017/08/07 14:29:16","新北市板橋區大觀路二段28號","121.446641666667","25.0029066666667","6500100","板橋區"
"220042","689-BX","2017/08/07 14:29:21","新北市板橋區雨農路50號","121.461191666667","25.0242833333333","6500100","板橋區"
"220002","741-BX","2017/08/07 14:29:30","新北市板橋區光明街39號","121.461225","25.002645","6500100","板橋區"
"220014","829-TW","2017/08/07 14:29:33","新北市板橋區漢生東路313巷26號","121.472885","25.0084633333333","6500100","板橋區"
"220022","895-R6","2017/08/07 14:29:33","新北市板橋區倉後街1-3號","121.455478333333","25.0089233333333","6500100","板橋區"
"220021","985-R7","2017/08/07 14:29:34","新北市板橋區中正路213號","121.456101666667","25.017625","6500100","板橋區"
"220046","AAC-210","2017/08/07 14:29:18","新北市板橋區陽明街129巷1號","121.463218333333","25.0235766666667","6500100","板橋區"
"220018","AAC-253","2017/08/07 14:29:24","新北市板橋區忠孝路164號","121.464261666667","25.0024133333333","6500100","板橋區"
