"lineid","car","time","location","longitude","latitude","cityid","cityname"
"234062","337-UY","2017/08/07 14:49:12","新北市板橋區中山路二段617巷1弄2號","121.48547","25.022655","6500400","永和區"
"234068","552-UM","2017/08/07 14:49:09","新北市中和區永和路220巷34號","121.491531666667","25.0085633333333","6500400","永和區"
"234028","746-BX","2017/08/07 14:49:23","新北市八里區商港路50號","121.395513333333","25.1461383333333","6500400","永和區"
"234025","9371-KE","2017/08/07 14:49:22","新北市永和區雙和街52巷2號","121.509031666667","25.0031633333333","6500400","永和區"
"248013","025-BX","2017/08/07 14:49:20","新北市五股區五福路20號","121.434303333333","25.08882","6501500","五股區"
"248015","026-BX","2017/08/07 14:49:17","新北市五股區成泰路三段577巷80弄72號","121.448921666667","25.1047683333333","6501500","五股區"
"248007","095-VK","2017/08/07 14:49:12","新北市五股區國道路三段20號","121.468511666667","25.0752333333333","6501500","五股區"
"248011","247-BX","2017/08/07 14:49:20","新北市五股區民義路一段212號","121.430448333333","25.0894833333333","6501500","五股區"
"248003","677-BX","2017/08/07 14:49:15","新北市五股區成泰路一段149-7號","121.435303333333","25.07372","6501500","五股區"
"248001","678-BX","2017/08/07 14:49:22","新北市五股區成泰路三段111號","121.444113333333","25.0904866666667","6501500","五股區"
"248009","682-TV","2017/08/07 14:49:26","新北市五股區成泰路一段87-1號","121.434921666667","25.0688266666667","6501500","五股區"
"234072","AAC-211","2017/08/07 14:49:17","新北市永和區環河東路二段10號","121.522203333333","25.0133766666667","6500400","永和區"
"234066","AAC-212","2017/08/07 14:49:10","新北市中和區環河西路三段198號","121.487005","25.0158716666667","6500400","永和區"
"244025","837-TS","2017/08/07 09:42:56","新北市林口區粉寮路二段160巷28號","121.40522","25.09078","6501700","林口區"
"243005","AAD-798","2017/08/07 14:49:16","新北市泰山區應化街13號","121.423865","25.04369","6501600","泰山區"
"243001","297-R6","2017/08/07 14:49:21","新北市泰山區泰林路二段116巷4弄2號","121.43508","25.0595083333333","6501600","泰山區"
"243007","380-SR","2017/08/07 14:49:21","新北市泰山區明志路二段214巷11號","121.426673333333","25.04878","6501600","泰山區"
"243006","421-VK","2017/08/07 14:49:26","新北市泰山區明志路一段143號","121.433325","25.0629233333333","6501600","泰山區"
"243002","548-UM","2017/08/07 14:49:08","新北市泰山區明志路二段254巷18號","121.426081666667","25.047895","6501600","泰山區"
"243003","549-UM","2017/08/07 14:49:11","新北市新莊區丹鳳街40號","121.421681666667","25.0296033333333","6501600","泰山區"
"243004","646-TV","2017/08/07 14:49:25","新北市泰山區楓江路86巷9號","121.437428333333","25.0627433333333","6501600","泰山區"
"243008","680-BX","2017/08/07 14:49:13","新北市泰山區貴陽街4-1號","121.421603333333","25.0331883333333","6501600","泰山區"
"231002","002-UM","2017/08/07 14:49:26","新北市新店區民權路68號","121.538298333333","24.9830366666667","6500600","新店區"
"231025","0291-UT","2017/08/07 14:49:23","新北市新店區建國路198巷11號","121.537986666667","24.9805383333333","6500600","新店區"
"231028","046-UY","2017/08/07 14:49:28","新北市新店區安德街164號","121.508456666667","24.9591266666667","6500600","新店區"
"231030","047-UY","2017/08/07 14:49:28","新北市新店區安民街341號","121.517091666667","24.9750583333333","6500600","新店區"
"231029","106-UY","2017/08/07 14:49:12","新北市新店區安康路三段489號","121.48266","24.9492166666667","6500600","新店區"
"231018","107-UY","2017/08/07 14:49:19","新北市新店區中央路236號","121.529208333333","24.9726416666667","6500600","新店區"
"231011","108-UY","2017/08/07 14:49:20","新北市新店區永華街24號","121.544206666667","24.97593","6500600","新店區"
"231019","187-VK","2017/08/07 14:49:15","新北市新店區永福路61號","121.55769","24.9291416666667","6500600","新店區"
"231026","256-BX","2017/08/07 14:49:27","新北市新店區安華路8號","121.519815","24.9618316666667","6500600","新店區"
"231014","AAD-862","2017/08/07 14:49:24","新北市新店區北宜路三段214-1號","121.59039","24.9523916666667","6500600","新店區"
"231001","355-BY","2017/08/07 14:49:18","新北市新店區中華路147號","121.538481666667","24.9706433333333","6500600","新店區"
"231027","3712-VJ","2017/08/07 14:49:10","新北市新店區中正路338號","121.536748333333","24.9752016666667","6500600","新店區"
"231024","3713-VJ","2017/08/07 14:49:25","新北市新店區新生街3巷2號","121.540343333333","24.9656866666667","6500600","新店區"
"231038","4715-K9","2017/08/07 14:49:07","新北市新店區安康路一段351-1號","121.519721666667","24.9638683333333","6500600","新店區"
"231036","512-UM","2017/08/07 14:49:19","新北市新店區安祥路104-8號","121.479471666667","24.9621933333333","6500600","新店區"
"231023","513-UM","2017/08/07 14:49:14","新北市新店區檳榔路109號","121.544458333333","24.9616716666667","6500600","新店區"
"231035","515-UM","2017/08/07 14:49:24","新北市新店區安樂街10號","121.52054","24.9735866666667","6500600","新店區"
"231003","641-BX","2017/08/07 14:49:14","新北市新店區中興路二段121巷1號","121.547408333333","24.9719916666667","6500600","新店區"
"231034","645-TV","2017/08/07 14:49:07","新北市新店區安康路二段450號","121.495403333333","24.95475","6500600","新店區"
"231039","718-UY","2017/08/07 14:49:10","新北市新店區中興路三段184號","121.544116666667","24.9814116666667","6500600","新店區"
"231013","719-UM","2017/08/07 14:49:27","新北市新店區北新路二段59巷7號","121.542211666667","24.9733933333333","6500600","新店區"
"231031","720-UM","2017/08/07 14:49:16","新北市新店區安泰路7巷16號","121.485655","24.9509316666667","6500600","新店區"
"231005","897-TW","2017/08/07 14:49:21","新北市新店區復興路2號","121.532395","24.9882866666667","6500600","新店區"
"231006","898-TW","2017/08/07 14:49:21","新北市新店區北宜路一段224號","121.544336666667","24.9532166666667","6500600","新店區"
"231004","899-TW","2017/08/07 14:49:20","新北市新店區建國路133號","121.5394","24.97822","6500600","新店區"
"231037","AKT-0513","2017/08/07 14:49:17","新北市新店區柴埕路59號","121.513613333333","24.9650033333333","6500600","新店區"
"235030","003-UY","2017/08/07 14:49:20","新北市中和區南工路1號","121.505328333333","24.9999583333333","6500300","中和區"
"235027","006-UY","2017/08/07 14:49:21","新北市中和區中正路406號","121.49255","24.9941933333333","6500300","中和區"
"235020","096-UM","2017/08/07 14:49:12","新北市中和區員山路581巷2-10號","121.477238333333","25.0088516666667","6500300","中和區"
"235003","097-UM","2017/08/07 14:49:19","新北市中和區安樂路251號","121.513975","24.9997216666667","6500300","中和區"
"235029","098-UM","2017/08/07 14:49:22","新北市中和區永和路90巷2弄8-2號","121.4976","25.0055466666667","6500300","中和區"
"235004","150-BY","2017/08/07 14:49:13","新北市中和區安平路59號","121.509618333333","24.9950916666667","6500300","中和區"
"235022","151-BY","2017/08/07 14:49:22","新北市中和區員山路199號","121.481216666667","24.997405","6500300","中和區"
"235019","183-VK","2017/08/07 14:49:21","新北市中和區民德路8巷6號","121.468606666667","25.003005","6500300","中和區"
"235002","185-VK","2017/08/07 14:49:16","新北市中和區自立路99巷16號","121.522888333333","24.9947816666667","6500300","中和區"
"235013","186-VK","2017/08/07 14:49:23","新北市中和區中正路58-1號","121.501795","24.9937233333333","6500300","中和區"
"235031","255-BX","2017/08/07 14:49:18","新北市中和區員山路148巷23弄7號","121.482156666667","24.9976266666667","6500300","中和區"
"235008","293-VK","2017/08/07 14:49:18","新北市中和區興南路一段113號","121.509293333333","24.9880266666667","6500300","中和區"
"235036","301-VK","2017/08/07 14:49:21","新北市中和區板南路403號","121.493183333333","24.9991416666667","6500300","中和區"
"235007","352-BY","2017/08/07 14:49:24","新北市中和區安和路25號","121.510618333333","24.9941866666667","6500300","中和區"
"235015","376-QA","2017/08/07 14:49:17","新北市中和區中興街235巷1號","121.500718333333","24.9896533333333","6500300","中和區"
"235032","377-QA","2017/08/07 14:49:11","新北市中和區莊敬路16巷3號","121.499996666667","25.004195","6500300","中和區"
"235025","378-QA","2017/08/07 14:49:20","新北市中和區員山路226巷18-1號","121.481813333333","25.0004316666667","6500300","中和區"
"235014","4979-A6","2017/08/07 14:48:21","新北市中和區景平路241巷82弄2號","121.50734","24.9920183333333","6500300","中和區"
"235033","4980-A6","2017/08/07 14:49:21","新北市中和區中和路100號","121.501855","24.9993266666667","6500300","中和區"
"235034","558-UM","2017/08/07 14:48:51","新北市中和區景平路575號","121.497803333333","24.9999383333333","6500300","中和區"
"235009","565-BX","2017/08/07 14:49:18","新北市中和區景平路400號","121.509235","24.992995","6500300","中和區"
"235018","640-BX","2017/08/07 14:49:18","新北市中和區莒光路122號","121.472455","25.00179","6500300","中和區"
"235024","647-TV","2017/08/07 14:49:23","新北市中和區中山路二段523巷14號","121.481483333333","25.0043616666667","6500300","中和區"
"235011","732-UM","2017/08/07 14:49:12","新北市中和區和平街25號","121.507895","24.9908916666667","6500300","中和區"
"235010","733-UM","2017/08/07 14:49:12","新北市中和區仁愛街102號","121.511513333333","24.9870966666667","6500300","中和區"
"235026","800-TS","2017/08/07 14:49:15","新北市中和區錦和路6號","121.486106666667","25.003225","6500300","中和區"
"235021","801-TS","2017/08/07 14:49:21","新北市中和區員山路221號","121.48126","24.9980516666667","6500300","中和區"
"235016","805-TS","2017/08/07 14:49:28","新北市中和區華新街208號","121.506588333333","24.9818766666667","6500300","中和區"
"235012","896-TW","2017/08/07 14:49:13","新北市中和區忠孝街39-7號","121.511905","24.9840316666667","6500300","中和區"
"235017","900-TW","2017/08/07 14:49:17","新北市中和區國光街142巷46號","121.46755","25.002125","6500300","中和區"
"235035","911-UM","2017/08/07 14:49:12","新北市中和區建一路92-1號","121.488075","25.0007266666667","6500300","中和區"
"235001","AAC-213","2017/08/07 14:49:17","新北市中和區成功路9號","121.526386666667","24.99404","6500300","中和區"
"235023","AAC-215","2017/08/07 14:49:25","新北市中和區圓通路305巷5弄44號","121.494898333333","24.9902033333333","6500300","中和區"
"220016","013-TV","2017/08/07 14:49:27","新北市板橋區中山路二段412巷29弄8號","121.484148333333","25.019935","6500100","板橋區"
"220105","075-UY","2017/08/07 14:49:26","新北市板橋區文化路二段650巷13號","121.478175","25.03516","6500100","板橋區"
"220017","AAD-861","2017/08/07 14:49:20","新北市板橋區貴興路106巷33號","121.454886666667","25.0032166666667","6500100","板橋區"
"220045","120-SR","2017/08/07 14:49:27","新北市板橋區民生路二段226巷34號","121.471246666667","25.02209","6500100","板橋區"
"247007","339-TH","2017/08/07 14:49:10","新北市蘆洲區中山一路103巷25號","121.475845","25.0809766666667","6501400","蘆洲區"
"247023","337-TH","2017/08/07 14:49:17","新北市蘆洲區中山二路309號","121.468711666667","25.0774066666667","6501400","蘆洲區"
"247001","336-TH","2017/08/07 14:49:09","新北市蘆洲區長安街246巷30號","121.458666666667","25.0864733333333","6501400","蘆洲區"
"247003","056-VK","2017/08/07 14:49:13","新北市蘆洲區長安街267巷16號","121.457801666667","25.0835566666667","6501400","蘆洲區"
"247011","007-UY","2017/08/07 14:49:10","新北市蘆洲區集賢路226號","121.482358333333","25.0866633333333","6501400","蘆洲區"
"247021","002-UY","2017/08/07 14:49:20","新北市蘆洲區中正路436號","121.462656666667","25.0946266666667","6501400","蘆洲區"
"208004","AAC-292","2017/08/07 14:49:20","新北市金山區兩湖里倒照湖48號","121.5973","25.239115","6502700","金山區"
"207002","749-BX","2017/08/07 14:49:24","新北市萬里區崁腳里崁腳路73號","121.647608333333","25.1596383333333","6502800","萬里區"
"252005","073-UM","2017/08/07 14:48:06","新北市三芝區埔坪里埔頭坑151號","121.509188333333","25.2496466666667","6502100","三芝區"
"207001","662-BX","2017/08/07 14:44:23","新北市萬里區雙興里豐稟路21-1號","121.64034","25.1858683333333","6502800","萬里區"
"236064","105-UM","2017/08/07 14:49:30","新北市土城區金城路二段214號","121.455805","24.9824733333333","6501300","土城區"
"236040","107-UM","2017/08/07 14:49:26","新北市土城區裕民路92巷25弄1號","121.449703333333","24.985975","6501300","土城區"
"236074","166-UM","2017/08/07 14:49:18","新北市土城區中央路四段185巷23號","121.415753333333","24.955875","6501300","土城區"
"236028","253-BX","2017/08/07 14:49:07","新北市土城區忠義路36巷16號","121.4399","24.969825","6501300","土城區"
"236024","269-VK","2017/08/07 14:49:14","新北市土城區慶安街82號","121.440706666667","24.9727016666667","6501300","土城區"
"236012","270-VK","2017/08/07 14:49:15","新北市土城區金城路二段354巷4號","121.460698333333","24.9846116666667","6501300","土城區"
"236032","271-VK","2017/08/07 14:49:25","新北市土城區明德路一段134號","121.46357","24.9789183333333","6501300","土城區"
"236016","401-BY","2017/08/07 14:49:24","新北市土城區延吉街253巷15號","121.467991666667","24.9843","6501300","土城區"
"236060","752-BX","2017/08/07 14:49:14","新北市土城區延和路177巷22號","121.470123333333","24.9907866666667","6501300","土城區"
"236056","912-UM","2017/08/07 14:49:11","新北市土城區中央路三段149號","121.432181666667","24.96553","6501300","土城區"
"236044","913-UM","2017/08/07 14:49:27","新北市土城區青雲路99號","121.459186666667","24.9856866666667","6501300","土城區"
"236052","AAC-216","2017/08/07 14:49:29","新北市土城區裕民路83號","121.450096666667","24.987405","6501300","土城區"
"242047","751-BX","2017/08/07 14:49:14","新北市新莊區新泰路357巷3弄57號","121.442106666667","25.0392366666667","6500500","新莊區"
"221002","753-BX","2017/08/07 14:49:23","台北市文山區老泉街42號","121.564405","24.9772333333333","6501100","汐止區"
"220027","145-BY","2017/08/07 14:49:20","新北市板橋區中正路183巷42號","121.455083333333","25.0161483333333","6500100","板橋區"
"220037","146-RM","2017/08/07 14:49:29","新北市板橋區雙十路二段126號","121.474116666667","25.02887","6500100","板橋區"
"220028","200-UY","2017/08/07 14:49:30","新北市板橋區大觀路二段37巷332號","121.449996666667","25.0023383333333","6500100","板橋區"
"220030","610-BX","2017/08/07 14:49:21","新北市板橋區金門街249號","121.431883333333","24.9890983333333","6500100","板橋區"
"220003","255-TC","2017/08/05 21:42:21","新北市板橋區民生路二段56-4號","121.471873333333","25.017225","6500100","板橋區"
"220034","256-TC","2017/08/07 14:49:27","新北市板橋區中正路11號","121.456135","25.01216","6500100","板橋區"
"220051","257-TC","2017/08/07 14:49:27","新北市板橋區文化路二段410巷1弄2號","121.474306666667","25.0311233333333","6500100","板橋區"
"220043","267-BY","2017/08/07 14:49:24","新北市板橋區長江路一段1號","121.457423333333","25.0286566666667","6500100","板橋區"
"220004","276-BY","2017/08/07 14:49:18","新北市板橋區國慶路49巷19弄15號","121.458898333333","24.9960516666667","6500100","板橋區"
"220020","277-BY","2017/08/07 14:49:30","新北市板橋區金門街215巷6號","121.433048333333","24.9897166666667","6500100","板橋區"
"220050","285-UM","2017/08/07 14:49:14","新北市板橋區莒光路200-1號","121.4742","25.0220166666667","6500100","板橋區"
"220001","285-VK","2017/08/07 14:49:24","新北市板橋區民享街89號","121.476976666667","25.0159033333333","6500100","板橋區"
"220031","286-VK","2017/08/07 14:49:15","新北市板橋區僑中三街40號","121.445333333333","25.00511","6500100","板橋區"
"220029","287-VK","2017/08/07 14:49:22","新北市板橋區僑中一街80巷6弄8號","121.447885","25.0115716666667","6500100","板橋區"
"220039","288-VK","2017/08/07 14:49:26","新北市板橋區新海路431巷6號","121.457838333333","25.0272816666667","6500100","板橋區"
"220009","293-UM","2017/08/07 14:49:16","新北市板橋區板新路128號","121.470985","25.0157383333333","6500100","板橋區"
"220032","296-UM","2017/08/07 14:49:09","新北市板橋區滿平二街12號","121.425451666667","24.98684","6500100","板橋區"
"220023","297-UM","2017/08/07 14:49:28","新北市板橋區大勇街12號","121.454656666667","25.01732","6500100","板橋區"
"220047","299-UM","2017/08/07 14:49:14","新北市板橋區新海路385巷8號","121.458563333333","25.0258483333333","6500100","板橋區"
"220010","303-R5","2017/08/07 14:49:23","新北市板橋區光復街23號","121.481338333333","25.0192516666667","6500100","板橋區"
"220013","305-R5","2017/08/07 14:49:14","新北市板橋區國泰街39巷4弄4號","121.468391666667","25.0061516666667","6500100","板橋區"
"220041","307-R5","2017/08/07 14:49:28","新北市板橋區四維路259巷21號","121.462318333333","25.0275633333333","6500100","板橋區"
"220012","486-VK","2017/08/07 14:49:29","新北市板橋區民族路34巷18號","121.462261666667","25.0091716666667","6500100","板橋區"
"220038","487-VK","2017/08/07 14:49:10","新北市板橋區英士路61號","121.460545","25.0243083333333","6500100","板橋區"
"220104","560-BX","2017/08/07 14:49:21","新北市板橋區金華街69號","121.457545","25.0207866666667","6500100","板橋區"
"220052","561-BX","2017/08/07 14:49:24","新北市板橋區萬板路53巷2號","121.47161","25.0217366666667","6500100","板橋區"
"220019","568-UM","2017/08/07 14:49:21","新北市板橋區信義路279巷23號","121.465125","24.99044","6500100","板橋區"
"220011","609-BX","2017/08/07 14:49:21","新北市板橋區三民路一段31巷15號","121.479941666667","25.023245","6500100","板橋區"
"220040","637-BX","2017/08/07 14:49:25","新北市板橋區懷德街181巷26號","121.480456666667","25.03005","6500100","板橋區"
"220005","686-BX","2017/08/07 14:49:18","新北市板橋區國慶路158巷7-4號","121.462075","24.9956883333333","6500100","板橋區"
"220025","687-BX","2017/08/07 14:49:16","新北市板橋區僑中三街3號","121.446683333333","25.0043516666667","6500100","板橋區"
"220042","689-BX","2017/08/07 14:49:21","新北市板橋區長江路一段371號","121.461611666667","25.0305733333333","6500100","板橋區"
"220002","741-BX","2017/08/07 14:49:20","新北市板橋區忠孝路忠義巷15弄45號","121.46548","25.0046416666667","6500100","板橋區"
"220014","829-TW","2017/08/07 14:49:25","新北市板橋區漢生東路193巷87-3號","121.472986666667","25.0119633333333","6500100","板橋區"
"220022","895-R6","2017/08/07 14:49:13","新北市板橋區文化路一段46巷38號","121.460456666667","25.0111816666667","6500100","板橋區"
"220021","985-R7","2017/08/07 14:49:15","新北市板橋區瑞安街4號","121.454565","25.0232216666667","6500100","板橋區"
"220046","AAC-210","2017/08/07 14:49:18","新北市板橋區文化路一段285巷2弄28號","121.464113333333","25.0196566666667","6500100","板橋區"
"220018","AAC-253","2017/08/07 14:49:24","新北市板橋區民族路216號","121.468478333333","25.0074333333333","6500100","板橋區"
