"lineid","car","time","location","longitude","latitude","cityid","cityname"
"234068","552-UM","2017/08/07 14:59:10","新北市五股區成泰路四段22巷10-2號","121.454378333333","25.1044833333333","6500400","永和區"
"234028","746-BX","2017/08/07 14:59:23","新北市林口區太平里180號","121.36811","25.13442","6500400","永和區"
"234025","9371-KE","2017/08/07 14:59:22","新北市永和區永貞路271號","121.511698333333","25.00475","6500400","永和區"
"248013","025-BX","2017/08/07 14:59:20","新北市五股區成泰路二段250號","121.440135","25.087085","6501500","五股區"
"248015","026-BX","2017/08/07 14:59:17","新北市五股區凌雲路一段158巷39弄16號","121.446445","25.104185","6501500","五股區"
"248007","095-VK","2017/08/07 14:59:12","新北市五股區四維路155巷2號","121.467718333333","25.074635","6501500","五股區"
"248011","247-BX","2017/08/07 14:59:20","新北市五股區六合街124號","121.429985","25.0907516666667","6501500","五股區"
"248003","677-BX","2017/08/07 14:59:15","新北市五股區成泰路一段32巷60號","121.435038333333","25.06711","6501500","五股區"
"248009","682-TV","2017/08/07 14:59:06","新北市五股區成泰路一段7巷12號","121.433246666667","25.0667833333333","6501500","五股區"
"244025","837-TS","2017/08/07 09:42:56","新北市林口區粉寮路二段160巷28號","121.40522","25.09078","6501700","林口區"
"243005","AAD-798","2017/08/07 14:59:25","新北市泰山區中央路5巷17弄22號","121.42734","25.0439783333333","6501600","泰山區"
"243001","297-R6","2017/08/07 14:59:11","新北市泰山區泰林路二段281號","121.430583333333","25.062805","6501600","泰山區"
"243007","380-SR","2017/08/07 14:59:21","新北市泰山區明志路一段216號","121.432625","25.06151","6501600","泰山區"
"243006","421-VK","2017/08/07 14:59:26","新北市泰山區泰林路二段2-8號","121.419848333333","25.065095","6501600","泰山區"
"243002","548-UM","2017/08/07 14:59:08","新北市泰山區新生路33號","121.427456666667","25.04543","6501600","泰山區"
"243003","549-UM","2017/08/07 14:59:11","新北市泰山區壽山路134巷18號","121.418288333333","25.0311233333333","6501600","泰山區"
"243004","646-TV","2017/08/07 14:59:23","新北市泰山區文化街29號","121.435056666667","25.0636266666667","6501600","泰山區"
"243008","680-BX","2017/08/07 14:59:13","新北市泰山區明志路二段327號","121.425708333333","25.0450283333333","6501600","泰山區"
"231002","002-UM","2017/08/07 14:59:06","新北市新店區民權路101號","121.536808333333","24.9828783333333","6500600","新店區"
"231025","0291-UT","2017/08/07 14:59:23","新北市新店區大同街20號","121.539351666667","24.9801883333333","6500600","新店區"
"231028","046-UY","2017/08/07 14:59:08","新北市新店區安豐路49號","121.499996666667","24.9548816666667","6500600","新店區"
"231030","047-UY","2017/08/07 14:59:23","新北市新店區安民街339號","121.516978333333","24.97488","6500600","新店區"
"231029","106-UY","2017/08/07 14:59:12","新北市新店區錦秀路13號","121.479438333333","24.9447666666667","6500600","新店區"
"231018","107-UY","2017/08/07 14:59:19","新北市新店區中央二街5巷3號","121.529113333333","24.9728983333333","6500600","新店區"
"231011","108-UY","2017/08/07 14:59:20","新北市新店區中興路三段205巷7弄1號","121.543248333333","24.981535","6500600","新店區"
"231019","187-VK","2017/08/07 14:59:15","新北市新店區永福路54-2號","121.558166666667","24.9287416666667","6500600","新店區"
"231026","256-BX","2017/08/07 14:59:07","新北市新店區博愛街3號","121.540553333333","24.9727066666667","6500600","新店區"
"231014","AAD-862","2017/08/07 14:59:25","新北市新店區銀河路68-1號","121.580433333333","24.9586066666667","6500600","新店區"
"231001","355-BY","2017/08/07 14:59:18","新北市新店區中正路261號","121.538746666667","24.97359","6500600","新店區"
"231024","3713-VJ","2017/08/07 14:59:25","新北市新店區中華路83巷21號","121.5387","24.9681183333333","6500600","新店區"
"231036","512-UM","2017/08/07 14:59:23","新北市新店區安祥路102巷46弄71號","121.486843333333","24.96337","6500600","新店區"
"231023","513-UM","2017/08/07 14:59:14","新北市新店區檳榔路109號","121.544496666667","24.9616383333333","6500600","新店區"
"231035","515-UM","2017/08/07 14:59:08","新北市新店區永安街74巷16號","121.519298333333","24.9861666666667","6500600","新店區"
"231003","641-BX","2017/08/07 14:59:14","新北市新店區中興路二段192號","121.548383333333","24.9735433333333","6500600","新店區"
"231034","645-TV","2017/08/07 14:59:07","新北市新店區玫瑰路4-1號","121.493621666667","24.9513833333333","6500600","新店區"
"231039","718-UY","2017/08/07 14:59:10","新北市新店區寶安街13號","121.541983333333","24.98189","6500600","新店區"
"231031","720-UM","2017/08/07 14:59:16","新北市新店區安泰路60巷96號","121.484026666667","24.9452783333333","6500600","新店區"
"231005","897-TW","2017/08/07 14:59:21","新北市新店區復興路43-1號","121.536948333333","24.98697","6500600","新店區"
"231006","898-TW","2017/08/07 14:59:21","新北市新店區中興路一段152號","121.542458333333","24.9639666666667","6500600","新店區"
"231004","899-TW","2017/08/07 14:59:20","新北市新店區民族路6號","121.541678333333","24.9788966666667","6500600","新店區"
"231037","AKT-0513","2017/08/07 14:59:17","新北市新店區柴埕路60巷19號","121.508168333333","24.96533","6500600","新店區"
"241009","060-VK","2017/08/07 14:59:25","新北市三重區重新路四段121號","121.484986666667","25.0519083333333","6500200","三重區"
"235030","003-UY","2017/08/07 14:59:12","新北市中和區光華街5號","121.504395","25.0044266666667","6500300","中和區"
"235020","096-UM","2017/08/07 14:59:12","新北市中和區中山路三段114巷16號","121.475985","25.00677","6500300","中和區"
"235003","097-UM","2017/08/07 14:59:11","新北市中和區宜安路18巷2號","121.51345","24.9959933333333","6500300","中和區"
"235029","098-UM","2017/08/07 14:59:22","新北市中和區橋和路312號","121.497261666667","25.0070833333333","6500300","中和區"
"235004","150-BY","2017/08/07 14:59:13","新北市中和區保健路10巷21弄1號","121.507721666667","24.9970116666667","6500300","中和區"
"235022","151-BY","2017/08/07 14:59:22","新北市中和區員山路148巷7號","121.481681666667","24.9971183333333","6500300","中和區"
"235002","185-VK","2017/08/07 14:59:16","新北市中和區自強路54號","121.520035","24.9947483333333","6500300","中和區"
"235013","186-VK","2017/08/07 14:59:23","新北市中和區中正路2-1號","121.503211666667","24.9935983333333","6500300","中和區"
"235031","255-BX","2017/08/07 14:59:18","新北市中和區新生街231號","121.484048333333","24.9991533333333","6500300","中和區"
"235008","293-VK","2017/08/07 14:59:16","新北市中和區南山路279號","121.504135","24.9923483333333","6500300","中和區"
"235036","301-VK","2017/08/07 14:59:21","新北市中和區安邦街8號","121.495645","24.9982283333333","6500300","中和區"
"235007","352-BY","2017/08/07 14:59:24","新北市中和區興南路一段142-6號","121.508473333333","24.9871533333333","6500300","中和區"
"235015","376-QA","2017/08/07 14:59:17","新北市中和區景安路247巷12號","121.504291666667","24.990485","6500300","中和區"
"235032","377-QA","2017/08/07 14:59:11","新北市中和區中山路二段262號","121.497301666667","25.0024466666667","6500300","中和區"
"235025","378-QA","2017/08/07 14:59:20","新北市中和區員山路174巷18號","121.482083333333","24.999655","6500300","中和區"
"235014","4979-A6","2017/08/07 14:58:41","新北市中和區景平路155號","121.513403333333","24.992475","6500300","中和區"
"235033","4980-A6","2017/08/07 14:59:21","新北市中和區南山路37巷3弄15號","121.502495","24.998835","6500300","中和區"
"235034","558-UM","2017/08/07 14:59:10","新北市中和區連城路171巷46號","121.49585","24.996465","6500300","中和區"
"235018","640-BX","2017/08/07 14:59:18","新北市中和區莒光路167號","121.472765","25.0000333333333","6500300","中和區"
"235024","647-TV","2017/08/07 14:59:23","新北市中和區員山路360號","121.480991666667","25.00372","6500300","中和區"
"235010","733-UM","2017/08/07 14:59:12","新北市中和區興南路一段93巷40號","121.510398333333","24.986435","6500300","中和區"
"235026","800-TS","2017/08/07 14:59:15","新北市中和區中山路二段329號","121.492886666667","25.0020533333333","6500300","中和區"
"235021","801-TS","2017/08/07 14:59:21","新北市中和區民樂路81號","121.484796666667","25.0013033333333","6500300","中和區"
"235016","805-TS","2017/08/07 14:59:08","新北市中和區華新街96號","121.508518333333","24.9830916666667","6500300","中和區"
"235012","896-TW","2017/08/07 14:59:12","新北市中和區忠孝街5巷9號","121.50922","24.9831666666667","6500300","中和區"
"235017","900-TW","2017/08/07 14:59:17","新北市中和區國光街189巷12弄2號","121.467486666667","25.0015083333333","6500300","中和區"
"235035","911-UM","2017/08/07 14:59:12","新北市中和區建三路38號","121.485971666667","25.0015716666667","6500300","中和區"
"235001","AAC-213","2017/08/07 14:59:17","新北市中和區自立路62號","121.523736666667","24.991465","6500300","中和區"
"235023","AAC-215","2017/08/07 14:59:25","新北市中和區圓通路365號","121.491381666667","24.9897383333333","6500300","中和區"
"220016","013-TV","2017/08/07 14:59:27","新北市板橋區中山路二段416巷66弄2號","121.482788333333","25.0185333333333","6500100","板橋區"
"220105","075-UY","2017/08/07 14:59:23","新北市板橋區民治街71巷15號","121.480291666667","25.03286","6500100","板橋區"
"220017","AAD-861","2017/08/07 14:59:24","新北市板橋區貴興路49號","121.457305","25.0032533333333","6500100","板橋區"
"220045","120-SR","2017/08/07 14:59:07","新北市板橋區莊敬路132-3號","121.470908333333","25.023565","6500100","板橋區"
"247007","339-TH","2017/08/07 14:59:10","新北市五股區中興路三段2巷10號","121.448098333333","25.0843933333333","6501400","蘆洲區"
"208004","AAC-292","2017/08/07 14:59:20","新北市金山區法鼓路555號","121.6167","25.2419966666667","6502700","金山區"
"207002","749-BX","2017/08/07 14:59:24","新北市萬里區崁腳里崁腳路64號","121.64853","25.15981","6502800","萬里區"
"207001","662-BX","2017/08/07 14:59:23","新北市萬里區雙興里麗水路2號","121.653978333333","25.1793866666667","6502800","萬里區"
"236064","105-UM","2017/08/07 14:59:10","新北市土城區中央路一段291巷18號","121.44476","24.9839116666667","6501300","土城區"
"236040","107-UM","2017/08/07 14:59:26","新北市土城區學府路一段229巷2號","121.451295","24.9839816666667","6501300","土城區"
"236074","166-UM","2017/08/07 14:59:24","新北市土城區中央路四段125巷2弄2號","121.41657","24.9572466666667","6501300","土城區"
"236028","253-BX","2017/08/07 14:59:07","新北市土城區慶利街9號","121.439595","24.9735616666667","6501300","土城區"
"236024","269-VK","2017/08/07 14:59:20","新北市土城區中正路56巷10號","121.443906666667","24.9749916666667","6501300","土城區"
"236012","270-VK","2017/08/07 14:59:15","新北市土城區永豐路29巷1號","121.462941666667","24.9882166666667","6501300","土城區"
"236032","271-VK","2017/08/07 14:59:25","新北市土城區仁愛路4號","121.459728333333","24.9811466666667","6501300","土城區"
"236016","401-BY","2017/08/07 14:59:16","新北市土城區明峰街50號","121.467716666667","24.9865116666667","6501300","土城區"
"236060","752-BX","2017/08/07 14:59:14","新北市土城區金城路三段195號","121.470048333333","24.98901","6501300","土城區"
"236056","912-UM","2017/08/07 14:59:10","新北市土城區金城路二段10號","121.449131666667","24.977215","6501300","土城區"
"236044","913-UM","2017/08/07 14:59:23","新北市土城區明德路一段398-1號","121.453643333333","24.9791016666667","6501300","土城區"
"236052","AAC-216","2017/08/07 14:59:13","新北市土城區裕民路124號","121.451253333333","24.9864866666667","6501300","土城區"
"242047","751-BX","2017/08/07 14:49:14","新北市新莊區新泰路357巷3弄57號","121.442106666667","25.0392366666667","6500500","新莊區"
"238006","599-UM","2017/08/07 14:59:11","新北市樹林區育德街78-1號","121.388085","24.9682233333333","6500700","樹林區"
"238005","571-TV","2017/08/07 14:59:16","新北市樹林區中山路三段204號","121.387015","24.968375","6500700","樹林區"
"238009","312-TH","2017/08/07 14:59:07","新北市樹林區育德街78-1號","121.387478333333","24.9681683333333","6500700","樹林區"
"238008","311-TH","2017/08/07 13:35:26","新北市樹林區中山路三段204號","121.38694","24.96858","6500700","樹林區"
"238012","303-VK","2017/08/07 14:59:25","新北市樹林區中山路三段198號","121.387353333333","24.9685866666667","6500700","樹林區"
"238020","268-VK","2017/08/07 14:59:06","新北市樹林區育德街121巷7號","121.389128333333","24.9681716666667","6500700","樹林區"
"221002","753-BX","2017/08/07 14:59:23","新北市汐止區大同路一段146巷19號","121.633283333333","25.0533916666667","6501100","汐止區"
"220027","145-BY","2017/08/07 14:59:20","新北市板橋區南雅西路二段211號","121.451196666667","25.0135483333333","6500100","板橋區"
"220037","146-RM","2017/08/07 14:59:09","新北市板橋區文化路二段550號","121.476186666667","25.0341083333333","6500100","板橋區"
"220028","200-UY","2017/08/07 14:59:10","新北市板橋區大觀路二段79巷2弄15號","121.44736","25.00168","6500100","板橋區"
"220030","610-BX","2017/08/07 14:59:21","新北市板橋區大觀路三段236-6號","121.429323333333","24.9922683333333","6500100","板橋區"
"220003","255-TC","2017/08/05 21:42:21","新北市板橋區民生路二段56-4號","121.471873333333","25.017225","6500100","板橋區"
"220034","256-TC","2017/08/07 14:59:23","新北市板橋區南雅西路二段7巷25號","121.451895","25.0094866666667","6500100","板橋區"
"220051","257-TC","2017/08/07 14:59:08","新北市板橋區仁化街64巷28號","121.47569","25.030965","6500100","板橋區"
"220043","267-BY","2017/08/07 14:59:24","新北市板橋區陽明街243號","121.462903333333","25.0245016666667","6500100","板橋區"
"220004","276-BY","2017/08/07 14:59:18","新北市板橋區四川路二段47巷2弄1號","121.454035","24.99493","6500100","板橋區"
"220020","277-BY","2017/08/07 14:59:08","新北市板橋區篤行路二段1巷8-3號","121.432165","24.9928766666667","6500100","板橋區"
"220050","285-UM","2017/08/07 14:59:14","新北市板橋區縣民大道三段101號","121.476236666667","25.0222633333333","6500100","板橋區"
"220001","285-VK","2017/08/07 14:59:24","新北市板橋區中山路二段90巷10號","121.47541","25.0159566666667","6500100","板橋區"
"220031","286-VK","2017/08/07 14:59:15","新北市板橋區僑中二街26號","121.445925","25.0107066666667","6500100","板橋區"
"220029","287-VK","2017/08/07 14:59:22","新北市板橋區僑中一街124巷18弄24號","121.447123333333","25.013595","6500100","板橋區"
"220039","288-VK","2017/08/07 14:59:05","新北市板橋區綠堤街29號","121.455766666667","25.0264633333333","6500100","板橋區"
"220009","293-UM","2017/08/07 14:59:16","新北市板橋區民生路二段109巷1號","121.470996666667","25.017855","6500100","板橋區"
"220032","296-UM","2017/08/07 14:59:09","新北市板橋區溪崑二街111巷7號","121.42678","24.98863","6500100","板橋區"
"220023","297-UM","2017/08/07 14:59:10","新北市板橋區金華街10巷48弄27號","121.457936666667","25.0200116666667","6500100","板橋區"
"220047","299-UM","2017/08/07 14:59:14","新北市板橋區新海路72巷48號","121.462155","25.0230416666667","6500100","板橋區"
"220010","303-R5","2017/08/07 14:59:23","新北市板橋區光復街172巷31弄5-2號","121.48627","25.0190433333333","6500100","板橋區"
"220013","305-R5","2017/08/07 14:59:15","新北市板橋區民族路65號","121.465333333333","25.0087916666667","6500100","板橋區"
"220041","307-R5","2017/08/07 14:59:28","新北市板橋區裕民街129號","121.45931","25.0272516666667","6500100","板橋區"
"220012","486-VK","2017/08/07 14:59:19","新北市板橋區館前東路110號","121.46324","25.0078533333333","6500100","板橋區"
"220038","487-VK","2017/08/07 14:59:19","新北市板橋區綠堤街41-1號","121.455285","25.0259616666667","6500100","板橋區"
"220104","560-BX","2017/08/07 14:59:21","新北市板橋區新生街87巷22號","121.457151666667","25.022105","6500100","板橋區"
"220052","561-BX","2017/08/07 14:59:24","新北市板橋區陽明街31號","121.465246666667","25.0219516666667","6500100","板橋區"
"220019","568-UM","2017/08/07 14:59:25","新北市板橋區五權街30巷24弄25號","121.46367","24.9936916666667","6500100","板橋區"
"220011","609-BX","2017/08/07 14:59:11","新北市板橋區中山路二段531巷17弄1號","121.482828333333","25.02223","6500100","板橋區"
"220040","637-BX","2017/08/07 14:59:25","新北市板橋區懷德街127巷25號","121.47965","25.0313433333333","6500100","板橋區"
"220005","686-BX","2017/08/07 14:59:18","新北市板橋區廣權路33號","121.462533333333","24.991685","6500100","板橋區"
"220025","687-BX","2017/08/07 14:59:23","新北市板橋區僑中一街122號","121.445918333333","25.0119166666667","6500100","板橋區"
"220042","689-BX","2017/08/07 14:59:23","新北市板橋區長江路二段216號","121.467833333333","25.032345","6500100","板橋區"
"220002","741-BX","2017/08/07 14:59:10","新北市板橋區忠孝路201巷101號","121.464578333333","25.0051716666667","6500100","板橋區"
"220014","829-TW","2017/08/07 14:59:05","新北市板橋區中山路一段206巷95號","121.472166666667","25.0133766666667","6500100","板橋區"
"220022","895-R6","2017/08/07 14:59:13","新北市板橋區府後街1巷7-1號","121.459291666667","25.0109666666667","6500100","板橋區"
"220021","985-R7","2017/08/07 14:59:17","新北市板橋區大仁街108-1號","121.453056666667","25.0160116666667","6500100","板橋區"
"220046","AAC-210","2017/08/07 14:58:58","新北市板橋區光正街45巷2弄3號","121.461786666667","25.0172616666667","6500100","板橋區"
"220018","AAC-253","2017/08/07 14:58:54","新北市板橋區民族路168-2號","121.467428333333","25.0078516666667","6500100","板橋區"
