"lineid","car","time","location","longitude","latitude","cityid","cityname"
"248003","677-BX","2017/08/07 15:19:55","新北市五股區中興路四段23號","121.438821666667","25.0826983333333","6501500","五股區"
"244025","837-TS","2017/08/07 09:42:56","新北市林口區粉寮路二段160巷28號","121.40522","25.09078","6501700","林口區"
"243003","549-UM","2017/08/07 15:25:12","新北市泰山區橫窠雅10-18號","121.4145","25.0675","6501600","泰山區"
"231002","002-UM","2017/08/07 15:25:06","新北市新店區中央一街22號","121.527771666667","24.9728816666667","6500600","新店區"
"231025","0291-UT","2017/08/07 15:26:03","新北市新店區中央路165-1號","121.532873333333","24.9706183333333","6500600","新店區"
"231028","046-UY","2017/08/07 15:18:48","新北市新店區僑愛一路1號","121.499945","24.9447566666667","6500600","新店區"
"231030","047-UY","2017/08/07 15:28:23","新北市新店區新和街35號","121.51925","24.9849233333333","6500600","新店區"
"231029","106-UY","2017/08/07 15:26:12","新北市新店區安康路三段800號","121.47095","24.9399583333333","6500600","新店區"
"231018","107-UY","2017/08/07 15:28:38","新北市新店區中央八街122號","121.525255","24.9782016666667","6500600","新店區"
"231011","108-UY","2017/08/07 15:22:40","新北市新店區復興路19號","121.539353333333","24.9866733333333","6500600","新店區"
"231019","187-VK","2017/08/07 15:27:55","新北市新店區新烏路一段245號","121.547826666667","24.929815","6500600","新店區"
"231026","256-BX","2017/08/07 15:19:07","新北市新店區中正路265巷15號","121.537946666667","24.973135","6500600","新店區"
"231014","AAD-862","2017/08/07 15:28:25","新北市新店區明山路45號","121.563526666667","24.95579","6500600","新店區"
"231001","355-BY","2017/08/07 15:18:58","新北市新店區北新路一段283號","121.541153333333","24.9668633333333","6500600","新店區"
"231036","512-UM","2017/08/07 15:26:39","新北市新店區安祥路67巷50弄10號","121.484793333333","24.9590566666667","6500600","新店區"
"231023","513-UM","2017/08/07 15:25:54","新北市新店區北新路一段96巷23號","121.542855","24.9687183333333","6500600","新店區"
"231035","515-UM","2017/08/07 15:28:28","新北市新店區安民街365巷7弄2號","121.516038333333","24.9754433333333","6500600","新店區"
"231003","641-BX","2017/08/07 15:28:14","新北市新店區寶高路116號","121.554548333333","24.9760533333333","6500600","新店區"
"231034","645-TV","2017/08/07 15:23:47","新北市新店區如意街11-2號","121.494985","24.9483266666667","6500600","新店區"
"231039","718-UY","2017/08/07 15:27:10","新北市新店區寶慶街35巷1弄1號","121.543216666667","24.986395","6500600","新店區"
"231031","720-UM","2017/08/07 15:28:36","新北市新店區裕合街31號","121.489866666667","24.9497683333333","6500600","新店區"
"231005","897-TW","2017/08/07 15:20:01","新北市新店區民族路23號","121.541156666667","24.9785683333333","6500600","新店區"
"231006","898-TW","2017/08/07 15:21:21","新北市新店區新坡一街109號","121.547555","24.9632066666667","6500600","新店區"
"231004","899-TW","2017/08/07 15:25:20","新北市新店區建國路105號","121.540056666667","24.9775216666667","6500600","新店區"
"231037","AKT-0513","2017/08/07 15:27:57","新北市新店區安興路112號","121.514616666667","24.9775983333333","6500600","新店區"
"241003","091-VK","2017/08/07 15:28:22","新北市三重區重新路四段121號","121.484825","25.051915","6500200","三重區"
"241029","887-TS","2017/08/07 15:26:58","新北市三重區重新路四段121號","121.485181666667","25.0522216666667","6500200","三重區"
"241033","AAC-255","2017/08/07 15:28:50","新北市三重區重新路四段121號","121.484758333333","25.052485","6500200","三重區"
"235014","4979-A6","2017/08/07 15:24:21","新北市中和區景新街160巷14號","121.504955","24.996785","6500300","中和區"
"235033","4980-A6","2017/08/07 15:26:01","新北市中和區中正路641號","121.48525","24.9956683333333","6500300","中和區"
"235034","558-UM","2017/08/07 15:27:35","新北市中和區圓通路240巷10弄9-1號","121.494271666667","24.9935516666667","6500300","中和區"
"235016","805-TS","2017/08/07 15:27:48","新北市新店區薏仁坑路自強巷1號","121.497338333333","24.9578016666667","6500300","中和區"
"235023","AAC-215","2017/08/07 15:17:25","新北市中和區圓通路435巷1號","121.486403333333","24.98714","6500300","中和區"
"220017","AAD-861","2017/08/07 15:11:00","新北市板橋區大明街18-5號","121.458751666667","25.002945","6500100","板橋區"
"208004","AAC-292","2017/08/07 15:15:40","新北市金山區六股里下六股14號","121.625408333333","25.2241366666667","6502700","金山區"
"207001","662-BX","2017/08/07 15:18:43","新北市萬里區大鵬里萬里加投25-1號","121.648116666667","25.2064633333333","6502800","萬里區"
"236064","105-UM","2017/08/07 15:19:10","新北市土城區裕民路185巷36弄10號","121.454391666667","24.9845316666667","6501300","土城區"
"236040","107-UM","2017/08/07 15:22:46","新北市土城區金城路二段245巷1號","121.455755","24.9828816666667","6501300","土城區"
"236074","166-UM","2017/08/07 15:21:38","新北市土城區溪頭路88號","121.409496666667","24.9509866666667","6501300","土城區"
"236028","253-BX","2017/08/07 15:14:27","新北市土城區福祥街89號","121.44119","24.9812433333333","6501300","土城區"
"236024","269-VK","2017/08/07 15:18:14","新北市土城區中央路二段177巷15-1號","121.443598333333","24.9763033333333","6501300","土城區"
"236012","270-VK","2017/08/07 15:23:15","新北市土城區廣福街10號","121.457238333333","24.9889483333333","6501300","土城區"
"236032","271-VK","2017/08/07 15:19:46","新北市土城區國際路139巷28號","121.468458333333","24.9770366666667","6501300","土城區"
"236016","401-BY","2017/08/07 15:11:56","新北市土城區延吉街134號","121.469171666667","24.98567","6501300","土城區"
"236060","752-BX","2017/08/07 15:16:34","新北市土城區金城路三段203號","121.470228333333","24.98929","6501300","土城區"
"236056","912-UM","2017/08/07 15:21:50","新北市土城區金城路一段21號","121.439738333333","24.9690833333333","6501300","土城區"
"236044","913-UM","2017/08/07 15:17:03","新北市土城區清水路328號","121.463931666667","24.98541","6501300","土城區"
"236052","AAC-216","2017/08/07 15:11:48","新北市土城區學府路一段141號","121.453606666667","24.9862583333333","6501300","土城區"
"242047","751-BX","2017/08/07 14:49:14","新北市新莊區新泰路357巷3弄57號","121.442106666667","25.0392366666667","6500500","新莊區"
"238002","755-BX","2017/08/07 15:28:36","新北市樹林區復興路196號","121.419996666667","24.9909616666667","6500700","樹林區"
"238010","601-UM","2017/08/07 15:28:53","新北市樹林區中正路350-1號","121.414296666667","25.01063","6500700","樹林區"
"238006","599-UM","2017/08/07 15:25:31","新北市樹林區八德街69號","121.419443333333","24.982205","6500700","樹林區"
"238005","571-TV","2017/08/07 15:23:36","新北市樹林區樹新路247號","121.43125","25.0007866666667","6500700","樹林區"
"238011","5061-A6","2017/08/07 15:26:27","新北市樹林區太平路1-10號","121.41868","24.9843583333333","6500700","樹林區"
"238009","312-TH","2017/08/07 15:23:47","新北市樹林區仁愛街58號","121.42394","24.9829166666667","6500700","樹林區"
"238008","311-TH","2017/08/07 15:13:15","新北市樹林區西圳街一段165巷20弄11號","121.395501666667","24.96027","6500700","樹林區"
"238012","303-VK","2017/08/07 15:23:05","新北市樹林區中山路一段175號","121.421626666667","24.9884683333333","6500700","樹林區"
"238004","283-BY","2017/08/07 15:28:48","新北市樹林區光武街5-1號","121.415083333333","25.004885","6500700","樹林區"
"238001","282-BY","2017/08/07 15:25:55","新北市樹林區保安街一段220號","121.421075","24.99637","6500700","樹林區"
"238007","268-VK","2017/08/07 15:26:06","新北市樹林區俊英街122號","121.427295","25.0056683333333","6500700","樹林區"
"238013","172-UY","2017/08/07 15:25:31","新北市樹林區新興街9號","121.400301666667","24.973555","6500700","樹林區"
"238003","169-UY","2017/08/07 15:27:50","新北市樹林區中山路一段147號","121.42221","24.9894233333333","6500700","樹林區"
"220037","146-RM","2017/08/07 15:11:29","新北市板橋區文聖街95號","121.477553333333","25.0296366666667","6500100","板橋區"
"220028","200-UY","2017/08/07 15:14:30","新北市板橋區大觀路二段153巷44弄1號","121.446193333333","24.9993183333333","6500100","板橋區"
"220030","610-BX","2017/08/07 15:10:41","新北市板橋區溪崑一街46號","121.429756666667","24.9904866666667","6500100","板橋區"
"220051","257-TC","2017/08/07 15:23:48","新北市板橋區文化路一段102號","121.464593333333","25.018065","6500100","板橋區"
"220050","285-UM","2017/08/07 15:19:14","新北市板橋區莊敬路75巷35號","121.474026666667","25.0262266666667","6500100","板橋區"
"220001","285-VK","2017/08/07 15:11:05","新北市板橋區懷仁街53-3號","121.4768","25.0190283333333","6500100","板橋區"
"220031","286-VK","2017/08/07 15:19:15","新北市板橋區僑中二街102巷10號","121.445686666667","25.0084966666667","6500100","板橋區"
"220039","288-VK","2017/08/07 15:17:05","新北市板橋區幸福路32巷69號","121.460486666667","25.022305","6500100","板橋區"
"220009","293-UM","2017/08/07 15:20:16","新北市板橋區四川路一段387號","121.458111666667","24.9994266666667","6500100","板橋區"
"220041","307-R5","2017/08/07 15:20:09","新北市板橋區文化路一段81巷5號","121.460685","25.0141433333333","6500100","板橋區"
"220012","486-VK","2017/08/07 15:15:29","新北市板橋區區運路31號","121.466093333333","25.0102933333333","6500100","板橋區"
"220038","487-VK","2017/08/07 15:18:50","新北市板橋區互助街80號","121.46065","25.0263966666667","6500100","板橋區"
"220052","561-BX","2017/08/07 15:14:25","新北市板橋區文化路一段421巷9號","121.466948333333","25.022785","6500100","板橋區"
"220019","568-UM","2017/08/07 15:19:50","新北市中和區莒光路47號","121.472088333333","25.0046666666667","6500100","板橋區"
"220011","609-BX","2017/08/07 15:11:31","新北市板橋區三民路一段143號","121.479236666667","25.0198333333333","6500100","板橋區"
"220005","686-BX","2017/08/07 15:11:58","新北市板橋區四川路二段130巷1號","121.449818333333","24.993665","6500100","板橋區"
"220042","689-BX","2017/08/07 15:11:21","新北市板橋區長江路三段21號","121.472301666667","25.0336666666667","6500100","板橋區"
"220021","985-R7","2017/08/07 15:10:15","新北市板橋區館前西路168-1號","121.452168333333","25.008605","6500100","板橋區"
"220046","AAC-210","2017/08/07 15:14:38","新北市板橋區公館街102號","121.461305","25.0166916666667","6500100","板橋區"
"220018","AAC-253","2017/08/07 15:22:24","新北市板橋區德興街32號","121.453393333333","24.9938533333333","6500100","板橋區"
