"lineid","car","time","location","longitude","latitude","cityid","cityname"
"244025","837-TS","2017/08/07 09:42:56","新北市林口區粉寮路二段160巷28號","121.40522","25.09078","6501700","林口區"
"231002","002-UM","2017/08/07 15:36:46","新北市新店區環河路18號","121.536931666667","24.961695","6500600","新店區"
"231028","046-UY","2017/08/07 15:25:28","新北市新店區僑信路57號","121.499391666667","24.9492483333333","6500600","新店區"
"231030","047-UY","2017/08/07 15:31:43","新北市新店區新和街59巷1號","121.519908333333","24.985505","6500600","新店區"
"231029","106-UY","2017/08/07 15:37:12","新北市新店區安康路三段361號","121.483826666667","24.9506266666667","6500600","新店區"
"231018","107-UY","2017/08/07 15:37:19","新北市新店區民生路156巷2號","121.52876","24.98102","6500600","新店區"
"231011","108-UY","2017/08/07 15:36:58","新北市新店區寶元路一段109號","121.545825","24.9829716666667","6500600","新店區"
"231019","187-VK","2017/08/07 15:36:35","新北市新店區新烏路一段87巷3號","121.5462","24.9418783333333","6500600","新店區"
"231026","256-BX","2017/08/07 15:27:47","新北市新店區三民路20巷22號","121.537943333333","24.9712016666667","6500600","新店區"
"231046","278-BY","2017/08/07 14:47:57","新北市新店區安華路28-1號","121.519731666667","24.9611566666667","6500600","新店區"
"231014","AAD-862","2017/08/07 15:38:45","新北市新店區北宜路二段10號","121.54785","24.9517583333333","6500600","新店區"
"231001","355-BY","2017/08/07 15:21:38","新北市新店區北新路一段211號","121.540446666667","24.96508","6500600","新店區"
"231038","4715-K9","2017/08/07 15:36:07","新北市新店區安康路一段258號","121.520535","24.9642516666667","6500600","新店區"
"231036","512-UM","2017/08/07 15:34:39","新北市新店區安祥路69巷89弄9號","121.4832","24.959475","6500600","新店區"
"231023","513-UM","2017/08/07 15:35:14","新北市新店區五峰路28號","121.543976666667","24.9690416666667","6500600","新店區"
"231035","515-UM","2017/08/07 15:38:48","新北市新店區安民街365巷5號","121.516101666667","24.9756133333333","6500600","新店區"
"231003","641-BX","2017/08/07 15:36:34","新北市新店區中興路二段196號","121.548496666667","24.9740116666667","6500600","新店區"
"231034","645-TV","2017/08/07 15:34:27","新北市新店區玫瑰路28號","121.495261666667","24.9501716666667","6500600","新店區"
"231039","718-UY","2017/08/07 15:29:30","新北市新店區寶慶街35巷3弄2號","121.543251666667","24.9859916666667","6500600","新店區"
"231013","719-UM","2017/08/07 15:37:14","新北市新店區永業路81巷1弄1-1號","121.529563333333","24.9493683333333","6500600","新店區"
"231031","720-UM","2017/08/07 15:37:36","新北市新店區雙城路156號","121.496103333333","24.9430816666667","6500600","新店區"
"231005","897-TW","2017/08/07 15:25:01","新北市新店區建國路188號","121.537811666667","24.9802316666667","6500600","新店區"
"231004","899-TW","2017/08/07 15:32:20","新北市新店區民族路161號","121.537755","24.9768116666667","6500600","新店區"
"231037","AKT-0513","2017/08/07 15:36:57","新北市新店區安興路112號","121.514661666667","24.977645","6500600","新店區"
"241011","013-R5","2017/08/07 15:38:45","新北市三重區河邊北街96-1號","121.504213333333","25.0701316666667","6500200","三重區"
"241028","022-UY","2017/08/07 15:38:38","新北市三重區重新路四段121號","121.484741666667","25.0517716666667","6500200","三重區"
"241003","091-VK","2017/08/07 15:38:02","新北市三重區重新路四段121號","121.484703333333","25.051815","6500200","三重區"
"241018","268-UM","2017/08/07 15:36:11","新北市三重區重新路四段121號","121.485036666667","25.0524","6500200","三重區"
"241020","412-TH","2017/08/07 15:38:36","新北市三重區忠孝路二段50號","121.485093333333","25.0702466666667","6500200","三重區"
"241023","545-UM","2017/08/07 15:38:03","新北市三重區重新路四段121號","121.484743333333","25.0525416666667","6500200","三重區"
"241029","887-TS","2017/08/07 15:35:18","新北市三重區中正南路252巷5號","121.493475","25.05267","6500200","三重區"
"241033","AAC-255","2017/08/07 15:38:31","新北市三重區中興南街29-1號","121.470535","25.0440416666667","6500200","三重區"
"235014","4979-A6","2017/08/07 15:37:01","新北市中和區中正路305號","121.492763333333","24.9940783333333","6500300","中和區"
"235033","4980-A6","2017/08/07 15:38:01","新北市中和區連城路469巷79弄2號","121.483493333333","24.993995","6500300","中和區"
"235016","805-TS","2017/08/07 15:38:08","新北市新店區安華路16號","121.517301666667","24.9578166666667","6500300","中和區"
"235023","AAC-215","2017/08/07 15:35:25","新北市中和區員山路5-4號","121.48319","24.9843366666667","6500300","中和區"
"220017","AAD-861","2017/08/07 15:15:39","新北市板橋區貴興路86號","121.456011666667","25.0027033333333","6500100","板橋區"
"227001","642-TC","2017/08/07 15:37:50","新北市雙溪區牡丹里中正路103號","121.861628333333","25.0474816666667","6502500","雙溪區"
"208004","AAC-292","2017/08/07 15:22:40","新北市金山區南勢35號","121.626768333333","25.219535","6502700","金山區"
"236064","105-UM","2017/08/07 15:34:10","新北市土城區中央路二段223-4號","121.440641666667","24.9735","6501300","土城區"
"236040","107-UM","2017/08/07 15:30:26","新北市土城區學府路一段98巷16號","121.455898333333","24.9885783333333","6501300","土城區"
"236074","166-UM","2017/08/07 15:31:18","新北市土城區中山路5號","121.413653333333","24.9613533333333","6501300","土城區"
"236028","253-BX","2017/08/07 15:27:47","新北市土城區中華路一段201號","121.443141666667","24.9850216666667","6501300","土城區"
"236024","269-VK","2017/08/07 15:20:15","新北市土城區中央路二段145號","121.442148333333","24.9767816666667","6501300","土城區"
"236012","270-VK","2017/08/07 15:27:55","新北市土城區廣福街123號","121.45627","24.99295","6501300","土城區"
"236032","271-VK","2017/08/07 15:27:46","新北市土城區明德路一段20巷1弄3號","121.464806666667","24.9848066666667","6501300","土城區"
"236016","401-BY","2017/08/07 15:23:56","新北市土城區峰廷街3號","121.469105","24.98735","6501300","土城區"
"236060","752-BX","2017/08/07 15:16:34","新北市土城區金城路三段203號","121.470228333333","24.98929","6501300","土城區"
"236056","912-UM","2017/08/07 15:33:11","新北市土城區中央路二段162號","121.442","24.9765316666667","6501300","土城區"
"236044","913-UM","2017/08/07 15:26:03","新北市土城區明德路一段219號","121.463218333333","24.9785266666667","6501300","土城區"
"236052","AAC-216","2017/08/07 15:18:48","新北市土城區學府路一段276號","121.450026666667","24.9830916666667","6501300","土城區"
"242047","751-BX","2017/08/07 14:49:14","新北市新莊區新泰路357巷3弄57號","121.442106666667","25.0392366666667","6500500","新莊區"
"238002","755-BX","2017/08/07 15:36:16","新北市樹林區中興街53-4號","121.421005","24.99103","6500700","樹林區"
"238010","601-UM","2017/08/07 15:33:13","新北市樹林區三福街25號","121.408755","25.016725","6500700","樹林區"
"238006","599-UM","2017/08/07 15:29:31","新北市樹林區太平路45號","121.4192","24.9830183333333","6500700","樹林區"
"238005","571-TV","2017/08/07 15:30:16","新北市樹林區樹新路81號","121.427683333333","24.9953416666667","6500700","樹林區"
"238011","5061-A6","2017/08/07 15:32:26","新北市樹林區太平路247巷24-4號","121.41971","24.974875","6500700","樹林區"
"238009","312-TH","2017/08/07 15:34:27","新北市樹林區信義街28號","121.423331666667","24.9821766666667","6500700","樹林區"
"238008","311-TH","2017/08/07 15:13:15","新北市樹林區西圳街一段165巷20弄11號","121.395501666667","24.96027","6500700","樹林區"
"238012","303-VK","2017/08/07 15:25:45","新北市樹林區中山路一段10號","121.424185","24.992815","6500700","樹林區"
"238004","283-BY","2017/08/07 15:38:48","新北市樹林區保安街二段146號","121.413373333333","25.00424","6500700","樹林區"
"238001","282-BY","2017/08/07 15:35:15","新北市樹林區大安路125巷10號","121.422728333333","24.997135","6500700","樹林區"
"238007","268-VK","2017/08/07 15:30:26","新北市樹林區俊英街116巷31號","121.428508333333","25.0061033333333","6500700","樹林區"
"238013","172-UY","2017/08/07 15:27:11","新北市樹林區新興街11號","121.400143333333","24.9732183333333","6500700","樹林區"
"238003","169-UY","2017/08/07 15:33:50","新北市樹林區長壽街28巷4弄1-2號","121.423295","24.99451","6500700","樹林區"
"220037","146-RM","2017/08/07 15:15:29","新北市板橋區懷德街189號","121.479825","25.0296333333333","6500100","板橋區"
"220028","200-UY","2017/08/07 15:18:50","新北市板橋區大觀路二段37巷282-17號","121.451678333333","25.00062","6500100","板橋區"
"220030","610-BX","2017/08/07 15:16:21","新北市板橋區大觀路三段263號","121.42907","24.9921083333333","6500100","板橋區"
"220051","257-TC","2017/08/07 15:28:08","新北市板橋區文化路一段309-1號","121.465865","25.019895","6500100","板橋區"
"220050","285-UM","2017/08/07 15:38:14","新北市板橋區板新路200巷22號","121.468688333333","25.0166616666667","6500100","板橋區"
"220031","286-VK","2017/08/07 15:26:54","新北市板橋區僑中二街104巷1號","121.445963333333","25.0077583333333","6500100","板橋區"
"220039","288-VK","2017/08/07 15:29:46","新北市三重區光復路二段171號","121.473121666667","25.0614366666667","6500100","板橋區"
"220012","486-VK","2017/08/07 15:20:29","新北市板橋區漢生東路217號","121.470756666667","25.0102116666667","6500100","板橋區"
"220038","487-VK","2017/08/07 15:27:10","新北市板橋區四維路232號","121.463635","25.0279016666667","6500100","板橋區"
"220052","561-BX","2017/08/07 15:20:05","新北市板橋區英士路58巷14號","121.460668333333","25.0253066666667","6500100","板橋區"
"220019","568-UM","2017/08/07 15:29:54","新北市板橋區民生路一段1-2號","121.476973333333","25.01195","6500100","板橋區"
"220011","609-BX","2017/08/07 15:16:31","新北市板橋區縣民大道三段310號","121.478701666667","25.0236916666667","6500100","板橋區"
"220042","689-BX","2017/08/07 15:13:21","新北市板橋區長江路二段245號","121.469055","25.032655","6500100","板橋區"
"220018","AAC-253","2017/08/07 15:27:24","新北市板橋區四川路二段245巷52號","121.451963333333","24.9923266666667","6500100","板橋區"
