"lineid","car","time","location","longitude","latitude","cityid","cityname"
"244025","837-TS","2017/08/07 09:42:56","新北市林口區粉寮路二段160巷28號","121.40522","25.09078","6501700","林口區"
"231028","046-UY","2017/08/07 15:32:28","新北市新店區僑信路118號","121.500408333333","24.9465283333333","6500600","新店區"
"231030","047-UY","2017/08/07 15:38:04","新北市新店區新和街116巷2號","121.521056666667","24.9864066666667","6500600","新店區"
"231029","106-UY","2017/08/07 15:44:32","新北市新店區安康路二段454號","121.494466666667","24.9542566666667","6500600","新店區"
"231018","107-UY","2017/08/07 15:48:38","新北市新店區復興路86號","121.533706666667","24.98823","6500600","新店區"
"231011","108-UY","2017/08/07 15:45:20","新北市新店區文化路67號","121.544751666667","24.9818283333333","6500600","新店區"
"231026","256-BX","2017/08/07 15:42:47","新北市新店區三民路51巷5弄3號","121.536466666667","24.9700166666667","6500600","新店區"
"231046","278-BY","2017/08/07 14:47:57","新北市新店區安華路28-1號","121.519731666667","24.9611566666667","6500600","新店區"
"231014","AAD-862","2017/08/07 15:48:25","新北市新店區中華路83巷2弄5號","121.538895","24.9685233333333","6500600","新店區"
"231001","355-BY","2017/08/07 15:25:18","新北市新店區北新路一段153號","121.539731666667","24.96344","6500600","新店區"
"231038","4715-K9","2017/08/07 15:47:07","新北市新店區安康路二段24號","121.515828333333","24.9637716666667","6500600","新店區"
"231023","513-UM","2017/08/07 15:45:54","新北市新店區大新街7巷2號","121.543315","24.9683766666667","6500600","新店區"
"231035","515-UM","2017/08/07 15:46:48","新北市新店區安興路96號","121.515156666667","24.976425","6500600","新店區"
"231003","641-BX","2017/08/07 15:47:54","新北市新店區寶興路60巷3號","121.549913333333","24.9718033333333","6500600","新店區"
"231034","645-TV","2017/08/07 15:48:27","新北市新店區玫瑰路57巷1號","121.495725","24.9462883333333","6500600","新店區"
"231039","718-UY","2017/08/07 15:44:30","新北市新店區寶元路二段31巷4號","121.546863333333","24.9816833333333","6500600","新店區"
"231013","719-UM","2017/08/07 15:46:05","新北市新店區永業路81巷1弄17號","121.530476666667","24.950385","6500600","新店區"
"231031","720-UM","2017/08/07 15:47:16","新北市新店區雙城路175-2號","121.494511666667","24.94489","6500600","新店區"
"231005","897-TW","2017/08/07 15:30:21","新北市新店區建國路297號","121.537075","24.9861216666667","6500600","新店區"
"231037","AKT-0513","2017/08/07 15:47:57","新北市新店區安興路112號","121.514598333333","24.977645","6500600","新店區"
"241011","013-R5","2017/08/07 15:46:24","新北市三重區文化北路248號","121.497393333333","25.069945","6500200","三重區"
"241028","022-UY","2017/08/07 15:47:58","新北市三重區仁化街107號","121.494406666667","25.0580833333333","6500200","三重區"
"241015","062-VK","2017/08/07 15:47:47","新北市三重區重新路四段121號","121.485046666667","25.0517633333333","6500200","三重區"
"241024","065-VK","2017/08/07 15:47:19","新北市三重區重新路四段121號","121.484618333333","25.05191","6500200","三重區"
"241026","066-VK","2017/08/07 15:48:40","新北市三重區文化南路42號","121.50034","25.0602483333333","6500200","三重區"
"241003","091-VK","2017/08/07 15:48:22","新北市三重區自強路三段15號","121.487131666667","25.0719983333333","6500200","三重區"
"241016","266-UM","2017/08/07 15:47:25","新北市三重區重新路四段121號","121.485128333333","25.05199","6500200","三重區"
"241022","267-UM","2017/08/07 15:46:39","新北市三重區重新路四段121號","121.484705","25.0525216666667","6500200","三重區"
"241018","268-UM","2017/08/07 15:48:11","新北市三重區成功路112-4號","121.486098333333","25.052035","6500200","三重區"
"241013","270-UM","2017/08/07 15:48:25","新北市三重區正義北路281-1號","121.494953333333","25.0704016666667","6500200","三重區"
"241020","412-TH","2017/08/07 15:46:36","新北市三重區忠孝路二段50號","121.485153333333","25.0702383333333","6500200","三重區"
"241019","478-VK","2017/08/07 15:47:07","新北市三重區三陽路170-1號","121.481531666667","25.05771","6500200","三重區"
"241014","543-UM","2017/08/07 15:45:54","新北市三重區重新路四段121號","121.484871666667","25.0518133333333","6500200","三重區"
"241023","545-UM","2017/08/07 15:47:23","新北市三重區重新路四段121號","121.484391666667","25.0522133333333","6500200","三重區"
"241001","547-UM","2017/08/07 15:47:34","新北市三重區重新路四段121號","121.484716666667","25.0524666666667","6500200","三重區"
"241029","887-TS","2017/08/07 15:48:38","新北市三重區正義南路169號","121.498926666667","25.0574766666667","6500200","三重區"
"241012","941-UM","2017/08/07 15:48:29","新北市三重區自強路一段69號","121.49756","25.0669133333333","6500200","三重區"
"241033","AAC-255","2017/08/07 15:45:11","新北市三重區重新路五段447號","121.474421666667","25.04746","6500200","三重區"
"235033","4980-A6","2017/08/07 15:44:01","新北市中和區中正路637巷17號","121.484923333333","24.994635","6500300","中和區"
"235026","800-TS","2017/08/07 15:46:55","新北市中和區橋和路117-1號","121.49163","25.0057766666667","6500300","中和區"
"235016","805-TS","2017/08/07 15:48:28","新北市中和區中正路637巷52弄1號","121.485595","24.9939383333333","6500300","中和區"
"235023","AAC-215","2017/08/07 15:48:01","新北市中和區員山路36巷2-1號","121.482866666667","24.9906933333333","6500300","中和區"
"220017","AAD-861","2017/08/07 15:23:00","新北市新莊區環漢路三段1號","121.442971666667","25.02369","6500100","板橋區"
"247002","336-TH","2017/08/07 15:47:09","新北市五股區中興路三段163號","121.449235","25.08093","6501400","蘆洲區"
"224007","273-VK","2017/08/07 09:50:56","新北市瑞芳區大寮路356-1號","121.784666666667","25.10353","6501200","瑞芳區"
"227001","642-TC","2017/08/07 15:46:10","新北市雙溪區平林里外平林36號","121.854075","25.036625","6502500","雙溪區"
"208004","AAC-292","2017/08/07 15:24:20","新北市金山區南勢25號","121.628816666667","25.2177966666667","6502700","金山區"
"236064","105-UM","2017/08/07 15:40:50","新北市土城區中央路三段142號","121.432991666667","24.9655016666667","6501300","土城區"
"236040","107-UM","2017/08/07 15:36:06","新北市土城區學府路一段164巷21號","121.453523333333","24.987375","6501300","土城區"
"236074","166-UM","2017/08/07 15:33:58","新北市土城區福安街98號","121.417786666667","24.964095","6501300","土城區"
"236028","253-BX","2017/08/07 15:35:07","新北市土城區中央路一段242巷3號","121.444236666667","24.9849766666667","6501300","土城區"
"236024","269-VK","2017/08/07 15:30:54","新北市土城區員林街61巷2弄9號","121.444398333333","24.97777","6501300","土城區"
"236012","270-VK","2017/08/07 15:32:15","新北市土城區廣明街8號","121.45598","24.9919883333333","6501300","土城區"
"236032","271-VK","2017/08/07 15:33:46","新北市土城區明德路一段60巷14號","121.464633333333","24.9835583333333","6501300","土城區"
"236016","401-BY","2017/08/07 15:34:16","新北市土城區峰廷街14號","121.46882","24.9875266666667","6501300","土城區"
"236060","752-BX","2017/08/07 15:26:34","新北市土城區延和路105巷7弄2號","121.467176666667","24.991455","6501300","土城區"
"236056","912-UM","2017/08/07 15:40:50","新北市土城區中央路一段254號","121.444361666667","24.9844366666667","6501300","土城區"
"236044","913-UM","2017/08/07 15:32:03","新北市土城區青雲路188號","121.45912","24.98218","6501300","土城區"
"236052","AAC-216","2017/08/07 15:26:49","新北市土城區學府路一段154號","121.454458333333","24.9868383333333","6501300","土城區"
"242047","751-BX","2017/08/07 15:46:03","新北市新莊區新泰路255巷83號","121.442023333333","25.0389283333333","6500500","新莊區"
"238002","755-BX","2017/08/07 15:44:16","新北市樹林區長壽街10號","121.42366","24.993445","6500700","樹林區"
"238010","601-UM","2017/08/07 15:37:13","新北市樹林區三福街77號","121.407418333333","25.016405","6500700","樹林區"
"238006","599-UM","2017/08/07 15:42:31","新北市樹林區太平路196-1號","121.418386666667","24.97599","6500700","樹林區"
"238005","571-TV","2017/08/07 15:38:36","新北市樹林區博愛街236號","121.42313","24.9884716666667","6500700","樹林區"
"238011","5061-A6","2017/08/07 15:41:27","新北市樹林區太平路263號","121.418535","24.9742333333333","6500700","樹林區"
"238009","312-TH","2017/08/07 15:41:47","新北市樹林區和平街2巷1號","121.421071666667","24.9812133333333","6500700","樹林區"
"238008","311-TH","2017/08/07 15:13:15","新北市樹林區西圳街一段165巷20弄11號","121.395501666667","24.96027","6500700","樹林區"
"238012","303-VK","2017/08/07 15:34:05","新北市樹林區中山路一段276號","121.420825","24.9870566666667","6500700","樹林區"
"238004","283-BY","2017/08/07 15:44:09","新北市樹林區光榮街79號","121.412035","25.002995","6500700","樹林區"
"238001","282-BY","2017/08/07 15:46:35","新北市樹林區潭興街59號","121.424165","24.9981183333333","6500700","樹林區"
"238007","268-VK","2017/08/07 15:42:46","新北市樹林區俊英街254-2號","121.424486666667","25.0112","6500700","樹林區"
"238013","172-UY","2017/08/07 15:30:31","新北市樹林區味王街46巷31號","121.403198333333","24.9734583333333","6500700","樹林區"
"238003","169-UY","2017/08/07 15:40:50","新北市樹林區育英街64號","121.421128333333","24.98923","6500700","樹林區"
"220037","146-RM","2017/08/07 15:19:09","新北市板橋區懷德街115號","121.478545","25.031255","6500100","板橋區"
"220030","610-BX","2017/08/07 15:19:21","新北市板橋區篤行路二段107號","121.431541666667","24.9912566666667","6500100","板橋區"
"220051","257-TC","2017/08/07 15:30:28","新北市板橋區民生路二段251號","121.468348333333","25.0221066666667","6500100","板橋區"
"220050","285-UM","2017/08/07 15:44:54","新北市板橋區萬安街146號","121.483185","25.0262983333333","6500100","板橋區"
"220031","286-VK","2017/08/07 15:35:14","新北市板橋區僑中二街112巷3號","121.44551","25.0070633333333","6500100","板橋區"
"220012","486-VK","2017/08/07 15:27:09","新北市板橋區長安街331巷100號","121.471855","25.0127","6500100","板橋區"
"220038","487-VK","2017/08/07 15:33:10","新北市板橋區四維路137巷1弄3號","121.464951666667","25.02508","6500100","板橋區"
"220052","561-BX","2017/08/07 15:30:05","新北市板橋區漢生西路17號","121.463566666667","25.0181283333333","6500100","板橋區"
"220011","609-BX","2017/08/07 15:17:31","新北市板橋區三民路一段70號","121.479436666667","25.0222216666667","6500100","板橋區"
"220042","689-BX","2017/08/07 15:19:41","新北市板橋區長江路二段6號","121.464568333333","25.03117","6500100","板橋區"
"220018","AAC-253","2017/08/07 15:33:04","新北市板橋區四川路二段243號","121.450411666667","24.993405","6500100","板橋區"
