"lineid","car","time","location","longitude","latitude","cityid","cityname"
"249005","172-UM","2017/08/07 16:59:35","新北市八里區渡船頭3-19號","121.43393","25.1518083333333","6502300","八里區"
"249001","173-UM","2017/08/07 16:59:30","新北市八里區中山路三段106號","121.392868333333","25.1435333333333","6502300","八里區"
"249004","303-UY","2017/08/07 16:59:41","新北市八里區挖子尾街40號","121.415691666667","25.1659716666667","6502300","八里區"
"249002","305-UY","2017/08/07 16:59:42","新北市八里區牛寮埔22號","121.432878333333","25.14256","6502300","八里區"
"249003","593-UM","2017/08/07 16:59:38","新北市八里區中山路二段297號","121.401071666667","25.148275","6502300","八里區"
"244007","080-UY","2017/08/07 16:59:45","新北市林口區中湖43-5號","121.381805","25.0923566666667","6501700","林口區"
"244019","403-UM","2017/08/07 16:59:34","新北市林口區粉寮路一段77-2號","121.397181666667","25.0796366666667","6501700","林口區"
"244009","410-SL","2017/08/07 16:59:43","新北市林口區粉寮69號","121.40502","25.0908566666667","6501700","林口區"
"244023","483-VK","2017/08/07 16:59:50","新北市林口區粉寮69號","121.40509","25.09079","6501700","林口區"
"244025","837-TS","2017/08/07 16:59:20","新北市林口區粉寮路二段160巷28號","121.405168333333","25.09077","6501700","林口區"
"243009","297-R6","2017/08/07 16:06:52","新北市泰山區黎明路25號","121.422108333333","25.060935","6501600","泰山區"
"231046","278-BY","2017/08/07 16:59:36","新北市新店區永業路81巷60號","121.52956","24.9478666666667","6500600","新店區"
"241011","013-R5","2017/08/07 16:59:45","新北市三重區仁愛街55巷150號","121.499443333333","25.0730333333333","6500200","三重區"
"241028","022-UY","2017/08/07 16:59:38","新北市三重區中正南路62號","121.494121666667","25.059575","6500200","三重區"
"241008","059-VK","2017/08/07 16:59:42","新北市三重區永安北路一段3巷29號","121.47729","25.07468","6500200","三重區"
"241009","060-VK","2017/08/07 16:59:45","新北市三重區仁美街111號","121.485773333333","25.080945","6500200","三重區"
"241031","061-VK","2017/08/07 16:59:34","新北市三重區三寧街18號","121.489396666667","25.05989","6500200","三重區"
"241015","062-VK","2017/08/07 16:59:47","新北市三重區長安街56號","121.500445","25.067215","6500200","三重區"
"241017","063-VK","2017/08/07 16:59:46","新北市三重區國隆路12巷1號","121.492898333333","25.0638033333333","6500200","三重區"
"241024","065-VK","2017/08/07 16:59:39","新北市蘆洲區國道路二段39號","121.473836666667","25.07416","6500200","三重區"
"241026","066-VK","2017/08/07 16:59:40","新北市三重區文化南路42號","121.50041","25.060215","6500200","三重區"
"241002","090-VK","2017/08/07 16:59:36","新北市三重區仁義街101巷2號","121.497816666667","25.07983","6500200","三重區"
"241003","091-VK","2017/08/07 16:59:36","新北市三重區五華街71巷36號","121.493091666667","25.0834316666667","6500200","三重區"
"241005","262-UM","2017/08/07 16:59:48","新北市三重區仁華街106號","121.485296666667","25.0832","6500200","三重區"
"241006","265-UM","2017/08/07 16:59:30","新北市三重區車路頭街119號","121.48441","25.075365","6500200","三重區"
"241016","266-UM","2017/08/07 16:59:45","新北市三重區大智街12號","121.495195","25.064605","6500200","三重區"
"241022","267-UM","2017/08/07 16:59:39","新北市三重區貴陽街20號","121.484236666667","25.0621733333333","6500200","三重區"
"241018","268-UM","2017/08/07 16:59:30","新北市三重區六張街126巷2弄20號","121.4925","25.06944","6500200","三重區"
"241032","269-UM","2017/08/07 16:59:29","新北市三重區重陽路一段130巷11號","121.486018333333","25.0605816666667","6500200","三重區"
"241013","270-UM","2017/08/07 16:59:45","新北市三重區仁壽街22號","121.496838333333","25.07352","6500200","三重區"
"241025","271-UM","2017/08/07 16:59:44","新北市三重區中正北路510號","121.472613333333","25.071745","6500200","三重區"
"241007","398-BY","2017/08/07 16:59:42","新北市三重區溪尾街169號","121.48903","25.0800466666667","6500200","三重區"
"241020","412-TH","2017/08/07 16:59:36","新北市三重區後竹圍街175巷31號","121.486068333333","25.0734316666667","6500200","三重區"
"241004","475-VK","2017/08/07 16:59:49","新北市三重區五華街98巷10號","121.491738333333","25.0817666666667","6500200","三重區"
"241019","478-VK","2017/08/07 16:59:46","新北市三重區自強路二段84巷1號","121.487636666667","25.07037","6500200","三重區"
"241030","480-VK","2017/08/07 16:59:35","新北市三重區昌隆街56號","121.491341666667","25.0514216666667","6500200","三重區"
"241014","543-UM","2017/08/07 16:59:34","新北市三重區三和路二段173巷149號","121.501148333333","25.0707816666667","6500200","三重區"
"241023","545-UM","2017/08/07 16:59:43","新北市三重區名源街54號","121.482473333333","25.0593133333333","6500200","三重區"
"241001","547-UM","2017/08/07 16:59:34","新北市三重區仁愛街180號","121.494138333333","25.0769116666667","6500200","三重區"
"241029","887-TS","2017/08/07 16:59:38","新北市三重區新興路41號","121.491756666667","25.0535966666667","6500200","三重區"
"241012","941-UM","2017/08/07 16:59:29","新北市三重區仁壽街196號","121.500778333333","25.0749566666667","6500200","三重區"
"241033","AAC-255","2017/08/07 16:59:30","新北市三重區中興北街275號","121.469103333333","25.0608283333333","6500200","三重區"
"235064","005-UY","2017/08/07 16:59:46","新北市中和區員山路36巷16-3號","121.484978333333","24.9911983333333","6500300","中和區"
"235067","255-BX","2017/08/07 16:22:26","新北市中和區員山路36巷16號","121.484415","24.991385","6500300","中和區"
"235062","800-TS","2017/08/07 16:59:35","新北市中和區員山路36巷16-3號","121.485098333333","24.991355","6500300","中和區"
"247020","893-R6","2017/08/07 16:59:48","新北市蘆洲區民族路422巷84號","121.47384","25.0938966666667","6501400","蘆洲區"
"247010","546-UM","2017/08/07 16:59:32","新北市蘆洲區三民路26巷51號","121.478118333333","25.083165","6501400","蘆洲區"
"247018","500-BY","2017/08/07 16:59:42","新北市蘆洲區復興路111-9號","121.476948333333","25.08867","6501400","蘆洲區"
"247006","341-TH","2017/08/07 16:59:47","新北市蘆洲區長安街99巷27號","121.46088","25.079865","6501400","蘆洲區"
"247008","339-TH","2017/08/07 16:59:44","新北市蘆洲區中山一路197巷26號","121.47498","25.0798616666667","6501400","蘆洲區"
"247024","337-TH","2017/08/07 16:59:31","新北市蘆洲區長興路245號","121.46051","25.0874683333333","6501400","蘆洲區"
"247002","336-TH","2017/08/07 16:59:29","新北市蘆洲區長榮路468號","121.459476666667","25.089085","6501400","蘆洲區"
"247014","057-VK","2017/08/07 16:59:48","新北市蘆洲區中山二路46巷13號","121.474291666667","25.0823483333333","6501400","蘆洲區"
"247004","056-VK","2017/08/07 16:59:35","新北市蘆洲區長安街193巷41弄1號","121.459356666667","25.081015","6501400","蘆洲區"
"247012","007-UY","2017/08/07 16:59:47","新北市蘆洲區信義路298號","121.477576666667","25.0875233333333","6501400","蘆洲區"
"247022","002-UY","2017/08/07 16:59:31","新北市蘆洲區三民路128巷140號","121.46845","25.09243","6501400","蘆洲區"
"247016","001-UY","2017/08/07 16:59:29","新北市蘆洲區光華路73巷27-1號","121.468626666667","25.082125","6501400","蘆洲區"
"228003","097-TW","2017/08/07 16:59:29","新北市貢寮區福隆里興隆街21-1號","121.94342","25.0164783333333","6502600","貢寮區"
"228002","585-TW","2017/08/07 16:59:32","新北市貢寮區貢寮里朝陽街1號","121.910248333333","25.021305","6502600","貢寮區"
"228001","670-TC","2017/08/07 16:59:46","新北市貢寮區貢寮里朝陽街2號","121.912498333333","25.0214933333333","6502600","貢寮區"
"224010","AGQ-8101","2017/08/07 14:18:02","新北市瑞芳區民權街3-1號","121.809293333333","25.1080583333333","6501200","瑞芳區"
"224006","676-BX","2017/08/07 16:59:48","新北市瑞芳區大寮路356-1號","121.784651666667","25.1031933333333","6501200","瑞芳區"
"224009","285-BY","2017/08/07 16:59:42","新北市瑞芳區明燈路一段1號","121.826613333333","25.1093566666667","6501200","瑞芳區"
"224008","275-VK","2017/08/07 16:59:28","新北市瑞芳區瑞柑新村31號","121.83082","25.10624","6501200","瑞芳區"
"224007","273-VK","2017/08/07 16:59:38","新北市瑞芳區瑞竹路44號","121.763663333333","25.1033766666667","6501200","瑞芳區"
"224005","271-BY","2017/08/07 16:59:37","新北市瑞芳區明里路54號","121.86939","25.1228616666667","6501200","瑞芳區"
"227001","642-TC","2017/08/07 16:59:50","新北市雙溪區長源里內柑腳45號","121.799998333333","25.0130333333333","6502500","雙溪區"
"227008","400-TW","2017/08/07 16:59:46","新北市雙溪區牡丹里聖南10號","121.859523333333","25.0519016666667","6502500","雙溪區"
"208004","AAC-292","2017/08/07 15:51:03","新北市金山區磺清路135號","121.639385","25.2277033333333","6502700","金山區"
"251005","010-UM","2017/08/07 16:59:36","新北市淡水區中正路257號","121.433078333333","25.1745233333333","6501000","淡水區"
"251007","179-VK","2017/08/07 16:59:44","新北市淡水區清水街56巷1號","121.44408","25.17029","6501000","淡水區"
"251008","181-VK","2017/08/07 16:59:31","新北市淡水區樹梅坑9號","121.472743333333","25.142665","6501000","淡水區"
"251013","182-VK","2017/08/07 16:59:50","新北市淡水區泉洲厝32號","121.48928","25.1925233333333","6501000","淡水區"
"251010","413-VK","2017/08/07 16:59:38","新北市淡水區新市二路三段16號","121.432356666667","25.194785","6501000","淡水區"
"251012","441-VK","2017/08/07 16:59:46","新北市淡水區中正路二段31號","121.419701666667","25.1815016666667","6501000","淡水區"
"251015","442-VK","2017/08/07 16:59:46","新北市淡水區忠愛街12號","121.457148333333","25.1743533333333","6501000","淡水區"
"251006","561-UM","2017/08/07 16:59:45","新北市淡水區中正路二段31號","121.419605","25.1815066666667","6501000","淡水區"
"251011","650-BX","2017/08/07 16:59:40","新北市淡水區真理街4-1號","121.438368333333","25.1729783333333","6501000","淡水區"
"252002","178-VK","2017/08/07 16:59:48","新北市三芝區忠孝街173號","121.505415","25.2613833333333","6502100","三芝區"
"252001","702-TV","2017/08/07 16:59:37","新北市三芝區淡金路二段76-1號","121.503871666667","25.2609133333333","6502100","三芝區"
"236062","752-BX","2017/08/07 16:51:06","新北市土城區城林路6巷80號","121.43839","24.9798383333333","6501300","土城區"
"242048","751-BX","2017/08/07 16:59:41","新北市新莊區三和路12-21號","121.442076666667","25.0387133333333","6500500","新莊區"
"242025","615-BX","2017/08/07 16:59:49","新北市新莊區新泰路255巷83號","121.442203333333","25.038775","6500500","新莊區"
"242027","612-BX","2017/08/07 16:59:29","新北市新莊區新泰路357巷3弄57號","121.441975","25.0390283333333","6500500","新莊區"
"242036","566-BX","2017/08/07 16:59:39","新北市新莊區新泰路357巷3弄57號","121.442025","25.0391416666667","6500500","新莊區"
"242002","413-TV","2017/08/07 16:59:29","新北市新莊區新泰路357巷3弄57號","121.442105","25.0394883333333","6500500","新莊區"
"242039","400-BY","2017/08/07 16:59:29","新北市新莊區新泰路357巷3弄57號","121.442188333333","25.03956","6500500","新莊區"
"242060","362-BY","2017/08/07 16:59:31","新北市新莊區新泰路255巷83號","121.44221","25.0387233333333","6500500","新莊區"
"242034","133-UY","2017/08/07 16:59:29","新北市新莊區三和路12-21號","121.442006666667","25.0388633333333","6500500","新莊區"
"242044","172-VK","2017/08/07 16:42:42","新北市新莊區新泰路255巷83號","121.442105","25.0387933333333","6500500","新莊區"
"242007","173-VK","2017/08/07 10:16:55","新北市新莊區新泰路357巷3弄57號","121.442121666667","25.039315","6500500","新莊區"
"242013","175-VK","2017/08/07 16:59:45","新北市新莊區三和路18-21號","121.441558333333","25.0387183333333","6500500","新莊區"
"242011","346-TH","2017/08/07 16:26:23","新北市新莊區三和路12-16號","121.442108333333","25.0373966666667","6500500","新莊區"
"242017","348-TH","2017/08/07 16:59:36","新北市新莊區新泰路357巷3弄57號","121.442093333333","25.0394883333333","6500500","新莊區"
"242015","350-TH","2017/08/07 16:59:42","新北市新莊區三和路18-23號","121.44183","25.0388816666667","6500500","新莊區"
"242009","351-TH","2017/08/07 16:59:47","新北市新莊區新泰路357巷3弄57號","121.442055","25.0395133333333","6500500","新莊區"
"238010","601-UM","2017/08/07 16:59:33","新北市樹林區中山路三段79號","121.400395","24.9748333333333","6500700","樹林區"
"238004","283-BY","2017/08/07 16:59:48","新北市樹林區中正路433-1號","121.414911666667","25.0081066666667","6500700","樹林區"
"238001","282-BY","2017/08/07 16:59:35","新北市樹林區中正路22-1號","121.427761666667","24.999555","6500700","樹林區"
"238007","268-VK","2017/08/07 16:59:46","新北市樹林區千歲街128號","121.427038333333","24.9985216666667","6500700","樹林區"
"239007","AAC-297","2017/08/07 16:59:44","新北市鶯歌區環河路159號","121.346416666667","24.937705","6500800","鶯歌區"
"239006","891-R6","2017/08/07 16:59:46","新北市鶯歌區二甲路171-1號","121.344095","24.93634","6500800","鶯歌區"
"239008","527-UM","2017/08/07 16:59:33","新北市鶯歌區環河路155-1號","121.346471666667","24.938895","6500800","鶯歌區"
"239005","526-UM","2017/08/07 16:59:36","新北市鶯歌區尖山路101巷18號","121.348035","24.9408816666667","6500800","鶯歌區"
"239001","417-VK","2017/08/07 16:59:33","新北市鶯歌區二甲路12-2號","121.345576666667","24.93516","6500800","鶯歌區"
"239003","360-BY","2017/08/07 16:59:40","新北市鶯歌區環河路85-1號","121.34763","24.9399983333333","6500800","鶯歌區"
"239002","359-BY","2017/08/07 16:59:39","新北市鶯歌區環河路85-1號","121.347825","24.94025","6500800","鶯歌區"
"239004","193-VK","2017/08/07 16:59:31","新北市鶯歌區環河路175號","121.345725","24.9362083333333","6500800","鶯歌區"
"220018","AAC-253","2017/08/07 16:59:44","新北市板橋區民生路二段36-1號","121.472651666667","25.0165883333333","6500100","板橋區"
