"lineid","car","time","location","longitude","latitude","cityid","cityname"
"234026","9371-KE","2017/08/07 17:49:39","新北市永和區中山路一段15號","121.51384","25.0102016666667","6500400","永和區"
"249005","172-UM","2017/08/07 17:49:08","新北市八里區荖阡坑路34-2號","121.402685","25.1301883333333","6502300","八里區"
"249001","173-UM","2017/08/07 17:49:30","新北市八里區龍米路二段129巷1號","121.445943333333","25.1468","6502300","八里區"
"249004","303-UY","2017/08/07 17:49:41","新北市八里區中華路一段309巷19-7號","121.416868333333","25.1535916666667","6502300","八里區"
"249002","305-UY","2017/08/07 17:49:22","新北市八里區龍形二街21號","121.45061","25.1316916666667","6502300","八里區"
"249003","593-UM","2017/08/07 17:49:38","新北市八里區中山路二段119號","121.40547","25.1519816666667","6502300","八里區"
"248016","026-BX","2017/08/07 17:49:35","新北市五股區中興路二段83巷26-6號","121.460065","25.0752233333333","6501500","五股區"
"248006","077-UY","2017/08/07 17:49:38","新北市五股區中興路二段57-6號","121.460473333333","25.0757016666667","6501500","五股區"
"248008","095-VK","2017/08/07 17:49:28","新北市五股區中興路二段37巷28號","121.460141666667","25.0750066666667","6501500","五股區"
"232011","375-UM","2017/08/07 17:49:31","新北市坪林區北宜路八段66號","121.705143333333","24.935255","6502000","坪林區"
"244013","069-UM","2017/08/07 17:49:40","新北市林口區中正路446號","121.383675","25.0777983333333","6501700","林口區"
"244007","080-UY","2017/08/07 17:49:25","新北市林口區佳林路25號","121.386741666667","25.0821483333333","6501700","林口區"
"244019","403-UM","2017/08/07 17:49:34","新北市林口區文化一路一段83巷14弄66號","121.372631666667","25.0715666666667","6501700","林口區"
"244009","410-SL","2017/08/07 17:49:23","新北市林口區中山路270號","121.383121666667","25.08095","6501700","林口區"
"244023","483-VK","2017/08/07 17:49:30","新北市林口區興林路366號","121.388963333333","25.0690633333333","6501700","林口區"
"244017","485-VK","2017/08/07 17:49:39","新北市林口區忠孝路383號","121.369506666667","25.07134","6501700","林口區"
"244011","701-TV","2017/08/07 17:49:30","新北市林口區中正路303號","121.38927","25.0776616666667","6501700","林口區"
"244025","837-TS","2017/08/07 17:49:40","新北市林口區文化三路一段249巷73號","121.362896666667","25.0723716666667","6501700","林口區"
"244020","838-TS","2017/08/07 17:49:41","新北市林口區仁愛路一段139巷13號","121.397953333333","25.0717033333333","6501700","林口區"
"243009","297-R6","2017/08/07 16:06:52","新北市泰山區黎明路25號","121.422108333333","25.060935","6501600","泰山區"
"222003","436-BY","2017/08/07 17:49:41","新北市深坑區阿柔洋60-1號","121.608578333333","24.99853","6501800","深坑區"
"222002","659-BX","2017/08/07 17:49:42","新北市深坑區平埔街22巷8號","121.614935","25.0008583333333","6501800","深坑區"
"222001","696-SL","2017/08/07 17:49:45","新北市深坑區深南路51-1號","121.62142","25.010075","6501800","深坑區"
"231046","278-BY","2017/08/07 17:49:37","新北市新店區下石厝路27-1號","121.533735","24.9281033333333","6500600","新店區"
"241005","262-UM","2017/08/07 17:49:28","新北市三重區碧華街309號","121.490835","25.0841233333333","6500200","三重區"
"241016","266-UM","2017/08/07 17:49:25","新北市三重區新北大道一段7號","121.48967","25.0613883333333","6500200","三重區"
"241013","270-UM","2017/08/07 17:49:25","新北市三重區龍濱路204號","121.5007","25.07355","6500200","三重區"
"241024","462-BY","2017/08/07 17:49:36","新北市三重區力行路二段9巷12號","121.483006666667","25.0722183333333","6500200","三重區"
"241012","941-UM","2017/08/07 17:49:29","新北市三重區龍濱路190號","121.501106666667","25.073295","6500200","三重區"
"241033","AAC-255","2017/08/07 17:49:30","新北市三重區重新路五段545號","121.47079","25.046055","6500200","三重區"
"235064","005-UY","2017/08/07 17:49:28","新北市中和區員山路36巷16-3號","121.485005","24.99137","6500300","中和區"
"235067","255-BX","2017/08/07 17:45:25","新北市中和區和城路一段271巷1號","121.485598333333","24.99203","6500300","中和區"
"235051","376-QA","2017/08/07 17:42:39","新北市中和區員山路36巷13號","121.484151666667","24.9908316666667","6500300","中和區"
"235061","378-QA","2017/08/07 16:00:40","新北市中和區員山路36巷13號","121.484166666667","24.9915333333333","6500300","中和區"
"235062","800-TS","2017/08/07 17:49:28","新北市中和區員山路36巷16-3號","121.485013333333","24.9914716666667","6500300","中和區"
"247020","893-R6","2017/08/07 17:49:28","新北市蘆洲區民義街71巷24號","121.472568333333","25.090695","6501400","蘆洲區"
"247010","546-UM","2017/08/07 17:49:32","新北市蘆洲區信義路277號","121.478916666667","25.0851216666667","6501400","蘆洲區"
"247018","500-BY","2017/08/07 17:49:41","新北市蘆洲區復興路227巷2弄21號","121.481055","25.090415","6501400","蘆洲區"
"247006","341-TH","2017/08/07 17:49:27","新北市蘆洲區九芎街109號","121.465663333333","25.079655","6501400","蘆洲區"
"247008","339-TH","2017/08/07 17:49:43","新北市蘆洲區和平路31號","121.471856666667","25.0792083333333","6501400","蘆洲區"
"247024","337-TH","2017/08/07 17:49:31","新北市蘆洲區光榮路59號","121.461058333333","25.088455","6501400","蘆洲區"
"247002","336-TH","2017/08/07 17:49:29","新北市蘆洲區永平街32巷45弄10號","121.459265","25.0926116666667","6501400","蘆洲區"
"247012","007-UY","2017/08/07 17:49:26","新北市蘆洲區復興路210號","121.478701666667","25.0890033333333","6501400","蘆洲區"
"247022","002-UY","2017/08/07 17:49:31","新北市蘆洲區中正路312號","121.46467","25.090785","6501400","蘆洲區"
"247016","001-UY","2017/08/07 17:49:29","新北市蘆洲區中正路185巷78弄42號","121.465678333333","25.0850066666667","6501400","蘆洲區"
"228003","097-TW","2017/08/07 17:49:29","新北市貢寮區真理里延平街143-1號","121.924951666667","25.05766","6502600","貢寮區"
"228002","585-TW","2017/08/07 17:49:32","新北市貢寮區福隆里外隆林街14-1號","121.959158333333","25.003645","6502600","貢寮區"
"228001","670-TC","2017/08/07 17:49:26","新北市貢寮區仁理村仁愛路95-1號","121.927685","25.0554416666667","6502600","貢寮區"
"224006","676-BX","2017/08/07 17:49:28","新北市瑞芳區傑魚坑路356號","121.790961666667","25.110075","6501200","瑞芳區"
"224002","639-TC","2017/08/07 16:20:44","新北市瑞芳區明燈路二段46號","121.809533333333","25.1081333333333","6501200","瑞芳區"
"224009","285-BY","2017/08/07 17:49:22","新北市瑞芳區金光路372號","121.849776666667","25.110435","6501200","瑞芳區"
"224008","275-VK","2017/08/07 17:49:28","新北市瑞芳區明燈路一段163號","121.81943","25.1074566666667","6501200","瑞芳區"
"224007","273-VK","2017/08/07 17:49:38","新北市瑞芳區八分寮路10號","121.797753333333","25.089805","6501200","瑞芳區"
"224005","271-BY","2017/08/07 17:49:37","新北市瑞芳區豎崎路32-5號","121.82405","25.1209616666667","6501200","瑞芳區"
"253006","032-BX","2017/08/07 17:49:27","新北市石門區中山路64-1號","121.567473333333","25.2904666666667","6502200","石門區"
"208002","742-BX","2017/08/07 17:49:38","新北市金山區磺清路135號","121.639366666667","25.22766","6502700","金山區"
"208003","665-BX","2017/08/07 17:49:29","新北市金山區磺清路135號","121.639505","25.2277416666667","6502700","金山區"
"208001","761-BX","2017/08/07 17:49:38","新北市金山區磺清路121號","121.639581666667","25.2278583333333","6502700","金山區"
"251009","008-UM","2017/08/07 17:31:30","新北市淡水區重建街1巷7號","121.439736666667","25.1737166666667","6501000","淡水區"
"251004","009-UM","2017/08/07 17:49:34","新北市淡水區民權一街2號","121.459443333333","25.1375266666667","6501000","淡水區"
"251005","010-UM","2017/08/07 17:49:36","新北市淡水區學府路96號","121.44928","25.1711133333333","6501000","淡水區"
"251007","179-VK","2017/08/07 17:49:24","新北市淡水區民生路18號","121.460985","25.1376983333333","6501000","淡水區"
"251008","181-VK","2017/08/07 17:49:31","新北市淡水區八勢路一段125號","121.467171666667","25.156995","6501000","淡水區"
"251013","182-VK","2017/08/07 17:49:30","新北市淡水區泉洲厝31號","121.479505","25.191025","6501000","淡水區"
"251010","413-VK","2017/08/07 17:49:38","新北市淡水區中正路二段54號","121.418645","25.184355","6501000","淡水區"
"251012","441-VK","2017/08/07 17:49:26","新北市淡水區北新路一段156-1號","121.460865","25.1824233333333","6501000","淡水區"
"251015","442-VK","2017/08/07 17:49:26","新北市淡水區興福寮32-3號","121.49027","25.1628683333333","6501000","淡水區"
"251001","559-UM","2017/08/07 17:49:41","新北市淡水區民權路92巷35-1號","121.462186666667","25.126685","6501000","淡水區"
"251006","561-UM","2017/08/07 17:49:26","新北市淡水區大信街3號","121.441505","25.1763433333333","6501000","淡水區"
"251011","650-BX","2017/08/07 17:49:00","新北市淡水區吳(仔)厝20號","121.479386666667","25.1484666666667","6501000","淡水區"
"251002","672-BX","2017/08/07 17:49:37","新北市淡水區中山路70-1號","121.443191666667","25.1705983333333","6501000","淡水區"
"251003","766-UM","2017/08/07 17:49:23","新北市淡水區大忠街15號","121.443573333333","25.1759783333333","6501000","淡水區"
"207003","550-UM","2017/08/07 17:49:36","新北市萬里區野柳里東澳路66號","121.692693333333","25.2009383333333","6502800","萬里區"
"207004","225-TW","2017/08/07 17:49:40","新北市萬里區萬里里瑪鋉頂街61號","121.688378333333","25.1804483333333","6502800","萬里區"
"252002","178-VK","2017/08/07 17:49:28","新北市三芝區中正路二段3號","121.504676666667","25.2555916666667","6502100","三芝區"
"252001","702-TV","2017/08/07 17:49:37","新北市三芝區中山路一段18號","121.50098","25.2583816666667","6502100","三芝區"
"237004","078-UY","2017/08/07 17:49:34","新北市三峽區中山路124號","121.365573333333","24.936005","6500900","三峽區"
"237009","210-TH","2017/08/07 17:49:30","新北市三峽區大勇路3巷41號","121.367446666667","24.936755","6500900","三峽區"
"237013","252-BX","2017/08/07 17:49:33","新北市三峽區安溪路309巷7號","121.37343","24.9333883333333","6500900","三峽區"
"237012","275-BY","2017/08/07 17:49:27","新北市三峽區文化路129號","121.36978","24.9360366666667","6500900","三峽區"
"237008","302-VK","2017/08/07 17:49:41","新北市三峽區中園街225號","121.366938333333","24.91995","6500900","三峽區"
"237014","433-BY","2017/08/07 17:49:33","新北市三峽區文化路120巷21號","121.370985","24.93677","6500900","三峽區"
"237006","5529-G3","2017/08/07 17:49:40","新北市三峽區介壽路二段136巷71號","121.392251666667","24.932945","6500900","三峽區"
"237011","572-TV","2017/08/07 17:42:03","新北市三峽區中山路91號","121.366446666667","24.935395","6500900","三峽區"
"237015","649-BX","2017/08/07 17:49:31","新北市三峽區正義街123號","121.368643333333","24.9170633333333","6500900","三峽區"
"237010","706-TV","2017/08/07 17:49:28","新北市三峽區文化路158號","121.370185","24.9361383333333","6500900","三峽區"
"237005","AKY-6261","2017/08/07 17:49:28","新北市三峽區中山路365-2號","121.358548333333","24.9369983333333","6500900","三峽區"
"236069","105-UM","2017/08/07 17:49:31","新北市土城區城林路6巷80號","121.438463333333","24.9797333333333","6501300","土城區"
"236078","166-UM","2017/08/07 17:49:27","新北市土城區永寧路109-2號","121.43063","24.9542566666667","6501300","土城區"
"236026","269-VK","2017/08/07 17:49:36","新北市土城區中華路二段2號","121.439168333333","24.9797266666667","6501300","土城區"
"236014","270-VK","2017/08/07 17:49:26","新北市土城區城林路6巷80號","121.438491666667","24.9796116666667","6501300","土城區"
"236036","271-VK","2017/08/07 17:49:30","新北市土城區城林路6巷80號","121.438466666667","24.9798066666667","6501300","土城區"
"236020","401-BY","2017/08/07 17:49:27","新北市土城區城林路6巷80號","121.438775","24.9796466666667","6501300","土城區"
"236062","752-BX","2017/08/07 17:49:30","新北市土城區城林路6巷80號","121.438458333333","24.97967","6501300","土城區"
"236058","912-UM","2017/08/07 17:49:33","新北市土城區城林路6巷80號","121.438521666667","24.9796166666667","6501300","土城區"
"236048","913-UM","2017/08/07 17:49:44","新北市土城區城林路6巷80號","121.438603333333","24.9797516666667","6501300","土城區"
"236053","AAC-216","2017/08/07 17:49:42","新北市土城區城林路6巷80號","121.438523333333","24.9796766666667","6501300","土城區"
"242021","AAC-296","2017/08/07 17:49:28","新北市新莊區永寧街32巷2號","121.45289","25.039245","6500500","新莊區"
"242029","986-R7","2017/08/07 17:49:28","新北市新莊區復興路一段45號","121.446996666667","25.0421333333333","6500500","新莊區"
"242048","751-BX","2017/08/07 17:49:41","新北市新莊區萬安街102巷1號","121.420188333333","25.02242","6500500","新莊區"
"242025","615-BX","2017/08/07 17:49:42","新北市新莊區新北大道二段286號","121.465403333333","25.0613566666667","6500500","新莊區"
"242023","613-BX","2017/08/07 17:49:33","新北市新莊區福樂街60號","121.457821666667","25.046125","6500500","新莊區"
"242027","612-BX","2017/08/07 17:49:29","新北市新莊區福壽街173號","121.457991666667","25.053875","6500500","新莊區"
"242036","566-BX","2017/08/07 17:49:39","新北市新莊區建福路71號","121.426956666667","25.0269333333333","6500500","新莊區"
"242004","442-UM","2017/08/07 17:49:34","新北市新莊區自立街237號","121.45826","25.045585","6500500","新莊區"
"242046","441-UM","2017/08/07 17:49:35","新北市新莊區建國一路72號","121.434373333333","25.0305233333333","6500500","新莊區"
"242050","440-UM","2017/08/07 17:49:40","新北市新莊區西盛街269巷21號","121.428896666667","25.0155816666667","6500500","新莊區"
"242031","415-TV","2017/08/07 17:49:32","新北市新莊區新泰路321巷37號","121.443121666667","25.0412116666667","6500500","新莊區"
"242002","413-TV","2017/08/07 17:49:29","新北市新莊區景德路169號","121.45021","25.0340633333333","6500500","新莊區"
"242039","400-BY","2017/08/07 17:49:38","新北市新莊區民安路144巷1號","121.424405","25.0251416666667","6500500","新莊區"
"242060","362-BY","2017/08/07 17:49:36","新北市新莊區新樹路513號","121.432723333333","25.01053","6500500","新莊區"
"242058","353-BY","2017/08/07 17:49:35","新北市新莊區中正路722-1號","121.41605","25.0248116666667","6500500","新莊區"
"242042","132-UY","2017/08/07 17:49:21","新北市新莊區中正路612-1號","121.426168333333","25.030235","6500500","新莊區"
"242034","133-UY","2017/08/07 17:49:29","新北市新莊區新莊路769號","121.442336666667","25.0326566666667","6500500","新莊區"
"242019","135-UY","2017/08/07 17:49:38","新北市新莊區民樂街79號","121.457926666667","25.0427716666667","6500500","新莊區"
"242044","172-VK","2017/08/07 17:49:41","新北市新莊區中正路853-6號","121.419813333333","25.02783","6500500","新莊區"
"242007","173-VK","2017/08/07 17:49:40","新北市新莊區福樂街69號","121.45711","25.047695","6500500","新莊區"
"242013","175-VK","2017/08/07 17:49:45","新北市新莊區中誠街164號","121.448208333333","25.0473933333333","6500500","新莊區"
"242056","176-VK","2017/08/07 17:49:29","新北市新莊區瓊林路40巷2號","121.448038333333","25.03023","6500500","新莊區"
"242011","346-TH","2017/08/07 17:49:33","新北市新莊區中港路699號","121.450686666667","25.0570533333333","6500500","新莊區"
"242017","348-TH","2017/08/07 17:49:41","新北市新莊區永安街101號","121.450385","25.0444616666667","6500500","新莊區"
"242053","349-TH","2017/08/07 17:49:41","新北市新莊區民安西路488號","121.432531666667","25.0073416666667","6500500","新莊區"
"242015","350-TH","2017/08/07 17:49:45","新北市新莊區新泰路502巷30號","121.443356666667","25.0464183333333","6500500","新莊區"
"242009","351-TH","2017/08/07 17:49:27","新北市新莊區昌平街35號","121.454756666667","25.0521133333333","6500500","新莊區"
"238015","755-BX","2017/08/07 17:49:25","新北市樹林區復興路37號","121.422113333333","24.9937266666667","6500700","樹林區"
"238023","601-UM","2017/08/07 17:49:33","新北市樹林區三福街60號","121.405261666667","25.0162783333333","6500700","樹林區"
"238019","599-UM","2017/08/07 17:49:25","新北市樹林區太平路112號","121.418573333333","24.9787533333333","6500700","樹林區"
"238018","571-TV","2017/08/07 17:49:38","新北市樹林區鎮前街3號","121.426023333333","24.9928383333333","6500700","樹林區"
"238022","312-TH","2017/08/07 17:49:26","新北市樹林區太順街62巷3弄4號","121.41741","24.9796566666667","6500700","樹林區"
"238021","311-TH","2017/08/07 15:13:15","新北市樹林區西圳街一段165巷20弄11號","121.395501666667","24.96027","6500700","樹林區"
"238025","303-VK","2017/08/07 17:49:25","新北市樹林區三俊街75號","121.415205","25.0155066666667","6500700","樹林區"
"238017","283-BY","2017/08/07 17:49:28","新北市樹林區三俊街74巷47號","121.414251666667","25.013035","6500700","樹林區"
"238014","282-BY","2017/08/07 17:49:35","新北市樹林區保安街一段289巷48號","121.417121666667","24.996725","6500700","樹林區"
"238020","268-VK","2017/08/07 17:49:26","新北市新莊區龍安路254巷18-1號","121.420675","25.0184816666667","6500700","樹林區"
"238026","172-UY","2017/08/07 17:49:35","新北市樹林區新興街47號","121.399886666667","24.971455","6500700","樹林區"
"238016","169-UY","2017/08/07 17:49:30","新北市樹林區復興路288號","121.417591666667","24.9877216666667","6500700","樹林區"
"239007","AAC-297","2017/08/07 17:49:44","新北市鶯歌區鶯桃路96號","121.339535","24.9537766666667","6500800","鶯歌區"
"239006","891-R6","2017/08/07 17:49:27","新北市鶯歌區鶯桃路438號","121.332948333333","24.9647333333333","6500800","鶯歌區"
"239008","527-UM","2017/08/07 17:49:41","新北市鶯歌區香賓街9巷11號","121.336233333333","24.9791866666667","6500800","鶯歌區"
"239005","526-UM","2017/08/07 17:49:36","新北市鶯歌區鳳吉五街21號","121.327011666667","24.9725616666667","6500800","鶯歌區"
"239001","417-VK","2017/08/07 17:49:33","新北市鶯歌區中正三路454號","121.322268333333","24.9346066666667","6500800","鶯歌區"
"239003","360-BY","2017/08/07 17:49:40","新北市鶯歌區鶯桃路285巷2-5號","121.334371666667","24.9591233333333","6500800","鶯歌區"
"239002","359-BY","2017/08/07 17:49:39","新北市鶯歌區國華路55號","121.34289","24.9550616666667","6500800","鶯歌區"
"221008","489-VK","2017/08/07 17:49:34","新北市汐止區康寧街901號","121.651295","25.0749316666667","6501100","汐止區"
"221036","130-UY","2017/08/07 17:49:35","新北市汐止區汐萬路一段220號","121.651718333333","25.072775","6501100","汐止區"
"221015","131-UY","2017/08/07 17:49:29","新北市汐止區汐萬路一段310號","121.650346666667","25.074755","6501100","汐止區"
"221010","269-BY","2017/08/07 17:49:37","新北市汐止區汐萬路一段418巷1弄13號","121.650275","25.078075","6501100","汐止區"
"221012","278-VK","2017/08/07 15:10:04","新北市汐止區汐萬路一段256巷1號","121.651786666667","25.0748533333333","6501100","汐止區"
"221023","279-VK","2017/08/07 02:07:52","新北市汐止區康寧街901號","121.651818333333","25.0750333333333","6501100","汐止區"
"221032","280-BY","2017/08/07 17:49:33","新北市汐止區大同路一段5號","121.621935","25.054965","6501100","汐止區"
"221027","281-BY","2017/08/07 17:49:36","新北市汐止區康寧街901號","121.65128","25.075105","6501100","汐止區"
"221038","297-VK","2017/08/07 17:49:39","新北市汐止區汐萬路一段312號","121.650481666667","25.07535","6501100","汐止區"
"221029","298-VK","2017/08/07 17:49:28","新北市汐止區汐萬路一段256巷1號","121.651865","25.0749766666667","6501100","汐止區"
"221021","299-VK","2017/08/07 15:09:23","新北市汐止區汐萬路一段256巷3號","121.652118333333","25.0749033333333","6501100","汐止區"
"221031","353-TW","2017/08/07 17:49:35","新北市汐止區樟樹二路243號","121.640678333333","25.067865","6501100","汐止區"
"221035","622-UM","2017/08/07 17:49:34","新北市汐止區汐萬路一段312號","121.650486666667","25.0751216666667","6501100","汐止區"
"221025","623-UM","2017/08/07 17:49:43","新北市汐止區大同路二段173號","121.65166","25.0645666666667","6501100","汐止區"
"221033","647-BX","2017/08/07 17:49:44","新北市汐止區橫科路119號","121.61996","25.0504166666667","6501100","汐止區"
"221018","753-BX","2017/08/07 17:49:38","新北市汐止區忠孝東路382巷1弄3號","121.665886666667","25.0701166666667","6501100","汐止區"
