"lineid","car","time","location","longitude","latitude","cityid","cityname"
"234007","207-UY","2017/08/07 18:05:40","新北市永和區光復街60巷4弄10號","121.51693","25.017975","6500400","永和區"
"234026","9371-KE","2017/08/07 18:05:39","新北市永和區秀朗路一段10巷21號","121.51332","25.00632","6500400","永和區"
"234011","9373-KE","2017/08/07 18:05:42","新北市永和區福和路1號","121.525673333333","25.0092866666667","6500400","永和區"
"249005","172-UM","2017/08/07 18:05:08","新北市八里區荖阡坑路17-12號","121.401748333333","25.13812","6502300","八里區"
"249001","173-UM","2017/08/07 18:05:30","新北市八里區龍米路二段36號","121.448615","25.1401283333333","6502300","八里區"
"249004","303-UY","2017/08/07 18:05:41","新北市八里區龍米路二段159-2號","121.438953333333","25.1542666666667","6502300","八里區"
"249002","305-UY","2017/08/07 18:05:42","新北市八里區龍米路一段356巷20號","121.452216666667","25.130965","6502300","八里區"
"249003","593-UM","2017/08/07 18:05:38","新北市八里區中山路二段306號","121.404638333333","25.150115","6502300","八里區"
"248014","025-BX","2017/08/07 18:05:27","新北市五股區中興路四段40-3號","121.43883","25.0828916666667","6501500","五股區"
"248016","026-BX","2017/08/07 18:05:36","新北市五股區中興路二段182巷3號","121.456501666667","25.0780916666667","6501500","五股區"
"248006","077-UY","2017/08/07 18:05:18","新北市五股區中興路二段128-8號","121.459146666667","25.078185","6501500","五股區"
"248008","095-VK","2017/08/07 18:05:41","新北市五股區中興路二段182巷16號","121.456588333333","25.08079","6501500","五股區"
"248018","225-UY","2017/08/07 18:05:40","新北市五股區中興路三段198號","121.44115","25.08219","6501500","五股區"
"248012","247-BX","2017/08/07 18:05:27","新北市五股區中興路二段182巷3號","121.456636666667","25.0781","6501500","五股區"
"248004","677-BX","2017/08/07 18:05:42","新北市五股區新五路二段258號","121.440936666667","25.0822416666667","6501500","五股區"
"248002","678-BX","2017/08/07 18:05:29","新北市五股區中興路三段163號","121.446833333333","25.08059","6501500","五股區"
"248010","682-TV","2017/08/07 18:05:27","新北市五股區中興路三段198號","121.441531666667","25.0820983333333","6501500","五股區"
"232011","375-UM","2017/08/07 18:05:31","新北市坪林區北宜路八段205號","121.708208333333","24.9347516666667","6502000","坪林區"
"244013","069-UM","2017/08/07 18:05:40","新北市林口區中山路18號","121.3961","25.0783483333333","6501700","林口區"
"244007","080-UY","2017/08/07 18:05:25","新北市林口區林口路130號","121.388351666667","25.0817983333333","6501700","林口區"
"244019","403-UM","2017/08/07 18:05:34","新北市林口區忠孝路542巷8號","121.37276","25.06709","6501700","林口區"
"244009","410-SL","2017/08/07 18:05:23","新北市林口區佳林路56巷13號","121.385473333333","25.081495","6501700","林口區"
"244023","483-VK","2017/08/07 18:05:30","新北市林口區東湖路75巷50號","121.385366666667","25.071645","6501700","林口區"
"244017","485-VK","2017/08/07 18:05:26","新北市林口區忠孝路372號","121.369266666667","25.0714333333333","6501700","林口區"
"244011","701-TV","2017/08/07 18:05:30","新北市林口區中正路32號","121.395723333333","25.0775116666667","6501700","林口區"
"244025","837-TS","2017/08/07 18:05:40","新北市林口區文化北路一段64號","121.356986666667","25.0685816666667","6501700","林口區"
"244020","838-TS","2017/08/07 18:05:41","新北市林口區仁愛路一段29號","121.398115","25.0681716666667","6501700","林口區"
"243009","297-R6","2017/08/07 16:06:52","新北市泰山區黎明路25號","121.422108333333","25.060935","6501600","泰山區"
"243016","680-BX","2017/08/07 15:50:16","新北市泰山區黎明路25號","121.422031666667","25.0606733333333","6501600","泰山區"
"222003","436-BY","2017/08/07 18:05:21","新北市深坑區腳坑5號","121.608761666667","24.994155","6501800","深坑區"
"222002","659-BX","2017/08/07 18:05:22","新北市深坑區文化街35號","121.619223333333","25.0015016666667","6501800","深坑區"
"222001","696-SL","2017/08/07 18:05:25","新北市深坑區北深路二段220號","121.612548333333","25.0013133333333","6501800","深坑區"
"231046","278-BY","2017/08/07 18:05:36","新北市新店區康雅崙路12號","121.536281666667","24.92653","6500600","新店區"
"231045","898-TW","2017/08/07 18:05:29","新北市新店區安華路28-1號","121.519471666667","24.96105","6500600","新店區"
"241024","462-BY","2017/08/07 18:05:36","新北市三重區大勇街82巷15弄23號","121.48093","25.0720116666667","6500200","三重區"
"241033","AAC-255","2017/08/07 18:05:30","新北市三重區中興北街127號","121.469678333333","25.0494366666667","6500200","三重區"
"235064","005-UY","2017/08/07 18:05:28","新北市中和區員山路36巷16-3號","121.485146666667","24.9914083333333","6500300","中和區"
"235056","096-UM","2017/08/07 18:05:42","新北市中和區連城路469巷70弄2號","121.48341","24.9937133333333","6500300","中和區"
"235065","098-UM","2017/08/07 18:05:34","新北市中和區橋和路56號","121.489448333333","25.005175","6500300","中和區"
"235058","151-BY","2017/08/07 18:05:43","新北市中和區圓通路367巷33弄63號","121.495676666667","24.98619","6500300","中和區"
"235055","183-VK","2017/08/07 18:05:34","新北市中和區員山路36巷16-3號","121.485075","24.9913283333333","6500300","中和區"
"235038","185-VK","2017/08/07 18:05:39","新北市中和區中正路14號","121.50284","24.993605","6500300","中和區"
"235067","255-BX","2017/08/07 18:05:24","新北市中和區和城路一段271巷1號","121.485471666667","24.9918666666667","6500300","中和區"
"235051","376-QA","2017/08/07 17:42:39","新北市中和區員山路36巷13號","121.484151666667","24.9908316666667","6500300","中和區"
"235061","378-QA","2017/08/07 18:05:41","新北市中和區連城路523巷13弄1號","121.481675","24.9939366666667","6500300","中和區"
"235050","4979-A6","2017/08/07 15:48:27","新北市中和區員山路36巷13號","121.484215","24.9913233333333","6500300","中和區"
"235042","551-UM","2017/08/07 18:05:30","新北市中和區中正路271號","121.495883333333","24.993825","6500300","中和區"
"235046","733-UM","2017/08/07 18:05:21","新北市中和區員山路36巷13號","121.484161666667","24.9909116666667","6500300","中和區"
"235062","800-TS","2017/08/07 18:05:28","新北市中和區中正路818號","121.484895","25.00338","6500300","中和區"
"235037","AAC-213","2017/08/07 18:05:28","新北市中和區中正路589巷15號","121.485983333333","24.9936416666667","6500300","中和區"
"247008","339-TH","2017/08/07 18:05:23","新北市蘆洲區中山一路312號","121.469413333333","25.0772633333333","6501400","蘆洲區"
"226004","312-R5","2017/08/07 18:05:24","新北市平溪區菁桐里菁桐街133號","121.723903333333","25.023775","6502400","平溪區"
"228003","097-TW","2017/08/07 18:05:29","新北市貢寮區真理里美艷山街6-2號","121.928941666667","25.0607116666667","6502600","貢寮區"
"228002","585-TW","2017/08/07 18:05:32","新北市貢寮區福連里香蘭街32號","121.98634","25.0200166666667","6502600","貢寮區"
"228001","670-TC","2017/08/07 18:05:26","新北市貢寮區真理里新港街26巷55弄2-1號","121.927288333333","25.052855","6502600","貢寮區"
"224006","676-BX","2017/08/07 18:05:35","新北市瑞芳區傑魚坑路85號","121.79272","25.110455","6501200","瑞芳區"
"224002","639-TC","2017/08/07 18:05:42","新北市瑞芳區三爪子坑路32巷126號","121.809086666667","25.1060933333333","6501200","瑞芳區"
"224011","420-VK","2017/08/07 18:05:22","新北市瑞芳區三爪子坑路53號","121.812738333333","25.107965","6501200","瑞芳區"
"224009","285-BY","2017/08/07 18:05:22","新北市瑞芳區金光路255號","121.850216666667","25.1077433333333","6501200","瑞芳區"
"224008","275-VK","2017/08/07 18:05:28","新北市瑞芳區員山子路23號","121.821386666667","25.1029983333333","6501200","瑞芳區"
"224007","273-VK","2017/08/07 18:05:38","新北市瑞芳區大寮路84號","121.780565","25.1013433333333","6501200","瑞芳區"
"224005","271-BY","2017/08/07 18:05:37","新北市瑞芳區深澳路185號","121.820631666667","25.1337216666667","6501200","瑞芳區"
"253006","032-BX","2017/08/07 18:05:27","新北市石門區大丘田20號","121.547631666667","25.2816033333333","6502200","石門區"
"253005","295-VK","2017/08/07 18:05:37","新北市石門區中山路62-7號","121.567453333333","25.2902383333333","6502200","石門區"
"208002","742-BX","2017/08/07 18:05:41","新北市金山區三界壇路99巷5號","121.621938333333","25.22875","6502700","金山區"
"208003","665-BX","2017/08/07 18:05:29","新北市金山區磺港里磺港路11號","121.6497","25.2306233333333","6502700","金山區"
"208001","761-BX","2017/08/07 18:05:38","新北市金山區磺港里磺港路96號","121.646711666667","25.2260633333333","6502700","金山區"
"251009","008-UM","2017/08/07 17:31:30","新北市淡水區重建街1巷7號","121.439736666667","25.1737166666667","6501000","淡水區"
"251004","009-UM","2017/08/07 18:05:34","新北市淡水區民族路110巷43弄5號","121.461431666667","25.13509","6501000","淡水區"
"251005","010-UM","2017/08/07 18:05:36","新北市淡水區英專路188號","121.448566666667","25.1731116666667","6501000","淡水區"
"251008","181-VK","2017/08/07 18:05:31","新北市淡水區中正東路二段5巷1號","121.458598333333","25.159045","6501000","淡水區"
"251013","182-VK","2017/08/07 18:05:30","新北市淡水區泉洲厝31號","121.47949","25.191025","6501000","淡水區"
"251010","413-VK","2017/08/07 18:05:38","新北市淡水區淡海路143號","121.42127","25.1830433333333","6501000","淡水區"
"251012","441-VK","2017/08/07 18:05:26","新北市淡水區北新路三段38巷7號","121.484523333333","25.1870016666667","6501000","淡水區"
"251015","442-VK","2017/08/07 18:05:26","新北市淡水區興福寮88巷1號","121.485235","25.164985","6501000","淡水區"
"251001","559-UM","2017/08/07 18:05:41","新北市淡水區自立路16號","121.463701666667","25.128485","6501000","淡水區"
"251006","561-UM","2017/08/07 18:05:26","新北市淡水區真理街3巷21號","121.437681666667","25.1761716666667","6501000","淡水區"
"251011","650-BX","2017/08/07 18:05:40","新北市淡水區三空泉9-2號","121.474076666667","25.1635583333333","6501000","淡水區"
"251002","672-BX","2017/08/07 18:05:37","新北市淡水區中正東路40號","121.450106666667","25.1651066666667","6501000","淡水區"
"251003","766-UM","2017/08/07 18:05:23","新北市淡水區大忠街113巷31號","121.447658333333","25.17753","6501000","淡水區"
"207003","550-UM","2017/08/07 18:05:36","新北市萬里區野柳里港西路8號","121.685175","25.2035633333333","6502800","萬里區"
"207004","225-TW","2017/08/07 18:05:40","新北市萬里區中幅里中福路58-12號","121.67933","25.1717933333333","6502800","萬里區"
"252002","178-VK","2017/08/07 18:05:28","新北市三芝區中山路二段5號","121.502488333333","25.2558116666667","6502100","三芝區"
"252003","249-BX","2017/08/07 18:05:42","新北市三芝區埔坪里埔頭坑41號","121.50456","25.2631966666667","6502100","三芝區"
"252001","702-TV","2017/08/07 18:05:37","新北市三芝區中興街二段2號","121.498358333333","25.2566733333333","6502100","三芝區"
"237004","078-UY","2017/08/07 18:05:34","新北市三峽區大埔路150-2號","121.364891666667","24.8970033333333","6500900","三峽區"
"237007","153-BY","2017/08/07 18:05:38","新北市三峽區中正路二段326號","121.365916666667","24.9106983333333","6500900","三峽區"
"237009","210-TH","2017/08/07 18:05:30","新北市三峽區大勇路36巷13號","121.365956666667","24.9370966666667","6500900","三峽區"
"237013","252-BX","2017/08/07 18:05:33","新北市三峽區長泰街84號","121.376418333333","24.9331966666667","6500900","三峽區"
"237012","275-BY","2017/08/07 18:05:27","新北市三峽區民生街27巷26號","121.37605","24.9359166666667","6500900","三峽區"
"237008","302-VK","2017/08/07 18:05:41","新北市三峽區白雞35-1號","121.375683333333","24.9120233333333","6500900","三峽區"
"237014","433-BY","2017/08/07 18:05:33","新北市三峽區和平街38號","121.370418333333","24.9372266666667","6500900","三峽區"
"237006","5529-G3","2017/08/07 18:05:40","新北市三峽區介壽路二段167號","121.39473","24.9358666666667","6500900","三峽區"
"237011","572-TV","2017/08/07 18:03:55","新北市三峽區大同路17號","121.377161666667","24.9286533333333","6500900","三峽區"
"237015","649-BX","2017/08/07 18:05:31","新北市三峽區紫微路83號","121.411313333333","24.9156","6500900","三峽區"
"237010","706-TV","2017/08/07 18:05:28","新北市三峽區民權街173號","121.367958333333","24.9299733333333","6500900","三峽區"
"237005","AKY-6261","2017/08/07 18:05:28","新北市三峽區和平街79巷7號","121.369828333333","24.9372666666667","6500900","三峽區"
"236069","105-UM","2017/08/07 18:05:31","新北市土城區中華路一段301號","121.439916666667","24.97962","6501300","土城區"
"236042","107-UM","2017/08/07 18:05:40","新北市土城區裕生路82巷2號","121.447581666667","24.9859866666667","6501300","土城區"
"236078","166-UM","2017/08/07 18:05:27","新北市土城區永寧路32巷10弄85號","121.429096666667","24.961585","6501300","土城區"
"236030","253-BX","2017/08/07 18:05:24","新北市土城區城林路6巷80號","121.438536666667","24.9796016666667","6501300","土城區"
"236026","269-VK","2017/08/07 18:05:36","新北市土城區承天路18號","121.439401666667","24.9634383333333","6501300","土城區"
"236014","270-VK","2017/08/07 18:05:26","新北市土城區員林街10-3號","121.443046666667","24.9779966666667","6501300","土城區"
"236036","271-VK","2017/08/07 18:05:30","新北市土城區學士路123號","121.446533333333","24.9758783333333","6501300","土城區"
"236020","401-BY","2017/08/07 18:05:27","新北市土城區城林路6巷80號","121.438726666667","24.9796833333333","6501300","土城區"
"236062","752-BX","2017/08/07 18:05:30","新北市土城區中華路二段2號","121.43953","24.9795183333333","6501300","土城區"
"236058","912-UM","2017/08/07 18:05:33","新北市土城區中央路三段244巷5號","121.427881666667","24.9642433333333","6501300","土城區"
"236048","913-UM","2017/08/07 18:05:24","新北市土城區中正路69號","121.444568333333","24.975725","6501300","土城區"
"236053","AAC-216","2017/08/07 18:05:41","新北市土城區中華路二段181號","121.438458333333","24.974915","6501300","土城區"
"242021","AAC-296","2017/08/07 18:05:28","新北市新莊區建興街52-1號","121.450068333333","25.0379566666667","6500500","新莊區"
"242029","986-R7","2017/08/07 18:05:28","新北市新莊區中平路110巷11號","121.44559","25.046035","6500500","新莊區"
"242048","751-BX","2017/08/07 18:05:41","新北市新莊區萬安街5號","121.421766666667","25.0248783333333","6500500","新莊區"
"242025","615-BX","2017/08/07 18:05:28","新北市新莊區五權一路120號","121.460125","25.0681716666667","6500500","新莊區"
"242023","613-BX","2017/08/07 18:05:33","新北市新莊區幸福路593號","121.453508333333","25.0492533333333","6500500","新莊區"
"242027","612-BX","2017/08/07 18:05:29","新北市新莊區幸福路83號","121.456448333333","25.04932","6500500","新莊區"
"242036","566-BX","2017/08/07 18:05:39","新北市新莊區後港一路65號","121.426526666667","25.0265933333333","6500500","新莊區"
"242004","442-UM","2017/08/07 18:05:37","新北市新莊區自由街34號","121.45585","25.0465916666667","6500500","新莊區"
"242046","441-UM","2017/08/07 18:05:44","新北市新莊區中正路649-8號","121.430493333333","25.03035","6500500","新莊區"
"242050","440-UM","2017/08/07 18:05:40","新北市新莊區民本街27巷17號","121.42921","25.0191933333333","6500500","新莊區"
"242031","415-TV","2017/08/07 18:05:32","新北市新莊區新泰路277巷24號","121.444608333333","25.04027","6500500","新莊區"
"242002","413-TV","2017/08/07 18:05:38","新北市新莊區新莊路2號","121.459361666667","25.0380683333333","6500500","新莊區"
"242039","400-BY","2017/08/07 18:05:29","新北市新莊區民安西路88巷2號","121.426431666667","25.0199866666667","6500500","新莊區"
"242060","362-BY","2017/08/07 18:05:39","新北市新莊區新樹路69-28號","121.438555","25.029455","6500500","新莊區"
"242058","353-BY","2017/08/07 18:05:35","新北市新莊區雙鳳路134巷34號","121.412441666667","25.0286283333333","6500500","新莊區"
"242042","132-UY","2017/08/07 18:05:41","新北市新莊區天祥街52號","121.416638333333","25.0290733333333","6500500","新莊區"
"242034","133-UY","2017/08/07 18:05:29","新北市新莊區福海街8號","121.445351666667","25.03341","6500500","新莊區"
"242019","135-UY","2017/08/07 18:05:32","新北市新莊區民樂街20巷1號","121.457748333333","25.04037","6500500","新莊區"
"242044","172-VK","2017/08/07 18:05:41","新北市新莊區中正路力行巷3號","121.416781666667","25.026335","6500500","新莊區"
"242007","173-VK","2017/08/07 18:05:35","新北市新莊區自重街2號","121.453366666667","25.047505","6500500","新莊區"
"242013","175-VK","2017/08/07 18:05:25","新北市新莊區幸福路914號","121.442343333333","25.0490333333333","6500500","新莊區"
"242056","176-VK","2017/08/07 18:05:29","新北市新莊區泰豐街11巷9號","121.448018333333","25.03133","6500500","新莊區"
"242011","346-TH","2017/08/07 18:05:23","新北市新莊區中榮街56巷13弄2號","121.449105","25.0534133333333","6500500","新莊區"
"242017","348-TH","2017/08/07 18:05:36","新北市新莊區永樂街186號","121.448246666667","25.0446066666667","6500500","新莊區"
"242053","349-TH","2017/08/07 18:05:41","新北市新莊區西盛街395巷25弄10號","121.428303333333","25.0122233333333","6500500","新莊區"
"242015","350-TH","2017/08/07 18:05:41","新北市新莊區中平路132巷14號","121.445616666667","25.0466966666667","6500500","新莊區"
"242009","351-TH","2017/08/07 18:05:27","新北市新莊區昌平街30號","121.454923333333","25.0530666666667","6500500","新莊區"
"238015","755-BX","2017/08/07 18:05:25","新北市樹林區大安路493號","121.4145","24.9868016666667","6500700","樹林區"
"238023","601-UM","2017/08/07 18:05:39","新北市樹林區龍興街31巷29號","121.404055","25.016195","6500700","樹林區"
"238019","599-UM","2017/08/07 18:05:25","新北市樹林區水源街32巷13號","121.425165","24.981185","6500700","樹林區"
"238018","571-TV","2017/08/07 18:05:38","新北市樹林區中正路7-1號","121.430266666667","24.99761","6500700","樹林區"
"238022","312-TH","2017/08/07 18:05:34","新北市樹林區太平路150巷70號","121.417201666667","24.977385","6500700","樹林區"
"238021","311-TH","2017/08/07 18:04:33","新北市樹林區田尾街56-1號","121.409468333333","24.96079","6500700","樹林區"
"238025","303-VK","2017/08/07 18:05:25","新北市樹林區三俊街4號","121.410878333333","25.0153316666667","6500700","樹林區"
"238017","283-BY","2017/08/07 18:05:28","新北市樹林區中正路464號","121.412781666667","25.0126816666667","6500700","樹林區"
"238014","282-BY","2017/08/07 18:05:35","新北市樹林區中正路89號","121.425871666667","25.000525","6500700","樹林區"
"238020","268-VK","2017/08/07 18:05:26","新北市樹林區三龍街76號","121.413861666667","25.0186383333333","6500700","樹林區"
"238026","172-UY","2017/08/07 18:05:31","新北市樹林區佳園路一段35號","121.393105","24.9709716666667","6500700","樹林區"
"238016","169-UY","2017/08/07 18:05:30","新北市樹林區日新街168號","121.420023333333","24.9883916666667","6500700","樹林區"
"239007","AAC-297","2017/08/07 18:05:24","新北市鶯歌區尖山埔路149號","121.34636","24.9510016666667","6500800","鶯歌區"
"239006","891-R6","2017/08/07 18:05:27","新北市鶯歌區鶯桃路381巷2弄22號","121.332925","24.9642583333333","6500800","鶯歌區"
"239008","527-UM","2017/08/07 18:05:32","新北市鶯歌區朝陽街53巷22號","121.338735","24.9777033333333","6500800","鶯歌區"
"239005","526-UM","2017/08/07 18:05:42","新北市鶯歌區大湖路584號","121.335675","24.9732333333333","6500800","鶯歌區"
"239001","417-VK","2017/08/07 18:05:33","新北市鶯歌區尖山路卓厝巷7號","121.341726666667","24.9453","6500800","鶯歌區"
"239003","360-BY","2017/08/07 18:05:40","新北市鶯歌區鶯桃路377號","121.333701666667","24.9631833333333","6500800","鶯歌區"
"239002","359-BY","2017/08/07 18:05:39","新北市鶯歌區中山路329巷26弄2號","121.345076666667","24.9564983333333","6500800","鶯歌區"
"221008","489-VK","2017/08/07 18:05:34","新北市汐止區明峰街198號","121.627793333333","25.0694366666667","6501100","汐止區"
"221036","130-UY","2017/08/07 18:05:34","新北市汐止區大同路三段257號","121.673488333333","25.0760166666667","6501100","汐止區"
"221015","131-UY","2017/08/07 18:05:29","新北市汐止區長江街281號","121.664743333333","25.0807383333333","6501100","汐止區"
"221010","269-BY","2017/08/07 18:05:37","新北市汐止區汐萬路二段245巷35號","121.644015","25.08758","6501100","汐止區"
"221012","278-VK","2017/08/07 15:10:04","新北市汐止區汐萬路一段256巷1號","121.651786666667","25.0748533333333","6501100","汐止區"
"221023","279-VK","2017/08/07 02:07:52","新北市汐止區康寧街901號","121.651818333333","25.0750333333333","6501100","汐止區"
"221032","280-BY","2017/08/07 18:05:34","新北市汐止區力行街22號","121.616905","25.0506216666667","6501100","汐止區"
"221027","281-BY","2017/08/07 18:05:36","新北市汐止區大同路二段480號","121.660328333333","25.0680333333333","6501100","汐止區"
"221038","297-VK","2017/08/07 18:05:39","新北市汐止區水源路一段238巷5弄1號","121.653933333333","25.0605066666667","6501100","汐止區"
"221029","298-VK","2017/08/07 18:05:35","新北市汐止區樟樹二路130號","121.639933333333","25.0654566666667","6501100","汐止區"
"221021","299-VK","2017/08/07 15:09:23","新北市汐止區汐萬路一段256巷3號","121.652118333333","25.0749033333333","6501100","汐止區"
"221031","353-TW","2017/08/07 18:05:35","新北市汐止區中興路147號","121.631278333333","25.065765","6501100","汐止區"
"221035","622-UM","2017/08/07 18:04:14","新北市汐止區新江北路30巷30弄9號","121.651155","25.0697083333333","6501100","汐止區"
"221025","623-UM","2017/08/07 18:05:43","新北市汐止區秀峰路135號","121.660203333333","25.0625216666667","6501100","汐止區"
"221033","647-BX","2017/08/07 18:05:24","新北市汐止區宜興街4號","121.621075","25.0412966666667","6501100","汐止區"
"221002","707-TV","2017/08/07 18:05:35","新北市汐止區福德一路253號","121.633493333333","25.0645883333333","6501100","汐止區"
"221018","753-BX","2017/08/07 18:05:38","新北市汐止區招商街19巷7號","121.666963333333","25.0686233333333","6501100","汐止區"
