"lineid","car","time","location","longitude","latitude","cityid","cityname"
"234046","148-BY","2017/08/07 19:59:20","新北市永和區永亨路203號","121.526075","25.0026933333333","6500400","永和區"
"234013","149-BY","2017/08/07 19:59:19","新北市永和區永平路316號","121.506906666667","25.0126966666667","6500400","永和區"
"234007","207-UY","2017/08/07 19:59:24","新北市永和區保生路22巷19弄6號","121.507143333333","25.0082883333333","6500400","永和區"
"234081","298-R6","2017/08/07 19:59:14","新北市永和區永利路83-1號","121.521371666667","25.0034533333333","6500400","永和區"
"234038","336-UY","2017/08/07 19:59:22","新北市永和區成功路二段163號","121.526596666667","24.9972116666667","6500400","永和區"
"234064","337-UY","2017/08/07 19:59:16","新北市永和區中正路412巷2弄11號","121.518516666667","25.00189","6500400","永和區"
"234086","338-UY","2017/08/07 19:59:26","新北市永和區中正路612號","121.517025","25.0075016666667","6500400","永和區"
"234070","552-UM","2017/08/07 19:59:19","新北市永和區大新街80巷4號","121.517385","25.0080783333333","6500400","永和區"
"234054","553-UM","2017/08/07 19:59:17","新北市永和區竹林路39巷26-2號","121.519228333333","25.014885","6500400","永和區"
"234017","745-BX","2017/08/07 19:59:25","新北市永和區文化路51號","121.514311666667","25.0149733333333","6500400","永和區"
"234030","746-BX","2017/08/07 19:59:36","新北市永和區民權路49巷39號","121.522038333333","24.99771","6500400","永和區"
"234061","AAD-866","2017/08/07 19:59:16","新北市永和區中正路93號","121.515433333333","24.9972333333333","6500400","永和區"
"234042","862-TW","2017/08/07 19:59:19","新北市永和區中和路421巷5弄1號","121.50873","25.0010516666667","6500400","永和區"
"234050","863-TW","2017/08/07 19:59:27","新北市永和區保安路254號","121.506248333333","25.0126333333333","6500400","永和區"
"234026","9371-KE","2017/08/07 19:59:19","新北市永和區水源街27巷11號","121.51133","25.003965","6500400","永和區"
"234011","9373-KE","2017/08/07 19:59:21","新北市永和區仁愛路352巷112弄17號","121.501121666667","25.0086133333333","6500400","永和區"
"249005","172-UM","2017/08/07 19:59:27","新北市八里區楓林路1-12號","121.38565","25.1312283333333","6502300","八里區"
"249001","173-UM","2017/08/07 19:59:32","新北市八里區中華路二段249-1號","121.403973333333","25.1483466666667","6502300","八里區"
"249004","303-UY","2017/08/07 19:59:19","新北市八里區中華路一段333-1號","121.413238333333","25.1539533333333","6502300","八里區"
"249002","305-UY","2017/08/07 19:59:22","新北市八里區頂寮二街3號","121.450831666667","25.12381","6502300","八里區"
"249003","593-UM","2017/08/07 19:59:29","新北市八里區中華路二段538-3號","121.398981666667","25.1449283333333","6502300","八里區"
"248014","025-BX","2017/08/07 19:59:35","新北市五股區五福路22巷6號","121.434635","25.0890283333333","6501500","五股區"
"248016","026-BX","2017/08/07 19:59:29","新北市五股區成泰路三段577巷80弄50號","121.4497","25.104845","6501500","五股區"
"248008","095-VK","2017/08/07 19:59:28","新北市五股區四維路30巷36弄1號","121.468933333333","25.07146","6501500","五股區"
"248018","225-UY","2017/08/07 19:58:40","新北市五股區登林路126號","121.409673333333","25.078275","6501500","五股區"
"248012","247-BX","2017/08/07 19:59:27","新北市五股區民義路一段25號","121.436603333333","25.0842166666667","6501500","五股區"
"248004","677-BX","2017/08/07 19:59:21","新北市五股區成泰路一段8巷2-3號","121.434956666667","25.0668783333333","6501500","五股區"
"248002","678-BX","2017/08/07 19:59:29","新北市五股區成泰路三段436號","121.45085","25.0994883333333","6501500","五股區"
"248010","682-TV","2017/08/07 19:59:27","新北市五股區登林路92號","121.428803333333","25.0693466666667","6501500","五股區"
"234077","969-R7","2017/08/07 19:59:28","新北市永和區民有街23巷1號","121.516853333333","24.996365","6500400","永和區"
"234074","AAC-211","2017/08/07 19:59:16","新北市永和區福和路10巷13號","121.524305","25.0092883333333","6500400","永和區"
"234067","AAC-212","2017/08/07 19:59:27","新北市永和區中山路一段281巷3號","121.507341666667","25.0066933333333","6500400","永和區"
"234003","AAC-295","2017/08/07 19:59:25","新北市永和區中正路605號","121.51643","25.0096583333333","6500400","永和區"
"243013","AAD-798","2017/08/07 19:59:25","新北市泰山區應化街7號","121.423873333333","25.0437133333333","6501600","泰山區"
"243009","297-R6","2017/08/07 19:59:30","新北市泰山區楓江路16巷7號","121.433915","25.0619516666667","6501600","泰山區"
"243015","380-SR","2017/08/07 19:59:21","新北市泰山區明志路二段214巷9號","121.426751666667","25.0487683333333","6501600","泰山區"
"243014","421-VK","2017/08/07 19:59:26","新北市泰山區泰林路二段171號","121.433708333333","25.0606533333333","6501600","泰山區"
"243010","548-UM","2017/08/07 19:59:28","新北市泰山區中華街10巷1號","121.427908333333","25.052475","6501600","泰山區"
"243011","549-UM","2017/08/07 19:59:30","新北市泰山區明志路三段182巷32號","121.423306666667","25.0394166666667","6501600","泰山區"
"243012","646-TV","2017/08/07 19:59:22","新北市泰山區福興街22號","121.4343","25.0576516666667","6501600","泰山區"
"243016","680-BX","2017/08/07 19:59:22","新北市泰山區新北大道六段310號","121.425386666667","25.03541","6501600","泰山區"
"222003","436-BY","2017/08/07 19:59:32","新北市深坑區埔新街14號","121.620706666667","25.0039383333333","6501800","深坑區"
"222002","659-BX","2017/08/07 19:59:22","新北市深坑區北深路二段81巷8弄6號","121.618225","25.0030883333333","6501800","深坑區"
"222001","696-SL","2017/08/07 19:59:25","新北市深坑區北深路三段165-1號","121.602218333333","25.0034","6501800","深坑區"
"231041","001-UM","2017/08/07 19:59:35","新北市新店區中正路331-1號","121.53606","24.9752633333333","6500600","新店區"
"231056","0291-UT","2017/08/07 19:59:20","新北市新店區民權路74號","121.538151666667","24.98329","6500600","新店區"
"231059","046-UY","2017/08/07 19:59:18","新北市新店區安康路二段188號","121.511385","24.960075","6500600","新店區"
"231060","106-UY","2017/08/07 19:59:30","新北市新店區安康路二段341巷3號","121.497605","24.95557","6500600","新店區"
"231051","107-UY","2017/08/07 19:59:16","新北市新店區中央四街28號","121.528688333333","24.9742683333333","6500600","新店區"
"231047","108-UY","2017/08/07 19:59:26","新北市新店區中興路二段226號","121.54801","24.9751583333333","6500600","新店區"
"231052","187-VK","2017/08/07 19:59:17","新北市新店區新烏路三段350號","121.546278333333","24.8951966666667","6500600","新店區"
"231057","256-BX","2017/08/07 19:59:24","新北市新店區花園二路一段11號","121.55551","24.93249","6500600","新店區"
"231063","268-BY","2017/08/07 19:59:26","新北市新店區黎明路9號","121.502505","24.95028","6500600","新店區"
"231050","AAD-862","2017/08/07 19:59:29","新北市新店區北宜路二段360-1號","121.564783333333","24.9522916666667","6500600","新店區"
"231040","355-BY","2017/08/07 19:59:35","新北市新店區中正路72號","121.544028333333","24.970175","6500600","新店區"
"231055","3713-VJ","2017/08/07 19:59:19","新北市新店區中華路83巷67號","121.538338333333","24.9672633333333","6500600","新店區"
"231067","4772-VM","2017/08/07 19:59:35","新北市新店區秀山路11巷28號","121.531515","24.95865","6500600","新店區"
"231065","512-UM","2017/08/07 19:59:26","新北市新店區安祥路106-18號","121.47631","24.9605583333333","6500600","新店區"
"231054","513-UM","2017/08/07 19:59:29","新北市新店區光明街135號","121.539436666667","24.9619583333333","6500600","新店區"
"231064","515-UM","2017/08/07 19:59:30","新北市新店區安民街141號","121.516486666667","24.96943","6500600","新店區"
"231061","618-UM","2017/08/07 19:59:15","新北市新店區安民街379巷16號","121.515506666667","24.9766333333333","6500600","新店區"
"231042","641-BX","2017/08/07 19:59:22","新北市新店區中興路一段292號","121.545935","24.9691733333333","6500600","新店區"
"231068","718-UY","2017/08/07 19:59:24","新北市新店區安康路一段355-10號","121.520473333333","24.963875","6500600","新店區"
"231049","719-UM","2017/08/07 19:59:27","新北市新店區民族路9號","121.541758333333","24.9786883333333","6500600","新店區"
"231062","720-UM","2017/08/07 19:57:33","新北市新店區華潭街52號","121.528563333333","24.9542416666667","6500600","新店區"
"231044","897-TW","2017/08/07 19:59:33","新北市新店區中正路602號","121.534098333333","24.9880233333333","6500600","新店區"
"231045","898-TW","2017/08/07 19:59:30","新北市新店區北宜路二段126號","121.556978333333","24.9538466666667","6500600","新店區"
"231043","899-TW","2017/08/07 19:59:34","新北市新店區中正路263-2號","121.538456666667","24.9737166666667","6500600","新店區"
"231066","AKT-0513","2017/08/07 19:59:24","新北市新店區柴埕路57號","121.513648333333","24.9651333333333","6500600","新店區"
"241011","013-R5","2017/08/07 19:59:24","新北市三重區三和路二段212號","121.497983333333","25.06945","6500200","三重區"
"241028","022-UY","2017/08/07 19:59:28","新北市三重區中正南路50號","121.493968333333","25.0598983333333","6500200","三重區"
"241008","059-VK","2017/08/07 19:59:26","新北市三重區力行路二段136巷49弄10號","121.479555","25.0753283333333","6500200","三重區"
"241009","060-VK","2017/08/07 19:59:25","新北市三重區三和路四段390巷14號","121.481451666667","25.07885","6500200","三重區"
"241031","061-VK","2017/08/07 19:59:14","新北市三重區重新路四段184巷16號","121.487111666667","25.05497","6500200","三重區"
"241015","062-VK","2017/08/07 19:59:13","新北市三重區三和路二段8號","121.501166666667","25.0668083333333","6500200","三重區"
"241017","063-VK","2017/08/07 19:59:25","新北市三重區自強路一段314號","121.491168333333","25.0685516666667","6500200","三重區"
"241024","065-VK","2017/08/07 19:59:16","新北市三重區力行路一段178巷18號","121.481393333333","25.0713283333333","6500200","三重區"
"241026","066-VK","2017/08/07 19:59:20","新北市三重區仁慈街7號","121.501691666667","25.0630616666667","6500200","三重區"
"241003","091-VK","2017/08/07 19:59:28","新北市三重區仁愛街445巷36號","121.491411666667","25.0833583333333","6500200","三重區"
"241005","262-UM","2017/08/07 19:59:28","新北市三重區溪尾街325巷21號","121.488611666667","25.0834366666667","6500200","三重區"
"241006","265-UM","2017/08/07 19:59:30","新北市三重區力行路二段76巷23號","121.480838333333","25.0735616666667","6500200","三重區"
"241016","266-UM","2017/08/07 19:59:23","新北市三重區正義北路50號","121.497071666667","25.0637433333333","6500200","三重區"
"241022","267-UM","2017/08/07 19:59:30","新北市三重區過圳街31巷2號","121.488896666667","25.06063","6500200","三重區"
"241018","268-UM","2017/08/07 19:59:30","新北市三重區雙園街74號","121.495598333333","25.06769","6500200","三重區"
"241032","269-UM","2017/08/07 19:59:23","新北市三重區朝陽街26巷1弄22號","121.483026666667","25.05695","6500200","三重區"
"241013","270-UM","2017/08/07 19:59:24","新北市三重區三和路三段115號","121.493038333333","25.0729783333333","6500200","三重區"
"241025","271-UM","2017/08/07 19:59:30","新北市三重區頂崁街210巷16號","121.476453333333","25.0676633333333","6500200","三重區"
"241007","398-BY","2017/08/07 19:59:22","新北市三重區慈愛街53號","121.486278333333","25.0791783333333","6500200","三重區"
"241020","412-TH","2017/08/07 19:59:16","新北市三重區忠孝路一段101號","121.489523333333","25.072185","6500200","三重區"
"241004","475-VK","2017/08/07 19:59:29","新北市三重區仁愛街397巷116號","121.492993333333","25.0823233333333","6500200","三重區"
"241019","478-VK","2017/08/07 19:59:21","新北市三重區重陽路四段18號","121.490821666667","25.0690316666667","6500200","三重區"
"241030","480-VK","2017/08/07 19:59:30","新北市三重區成功路173號","121.485953333333","25.0527","6500200","三重區"
"241014","543-UM","2017/08/07 19:59:14","新北市三重區中央北路125-3號","121.499848333333","25.068125","6500200","三重區"
"241023","545-UM","2017/08/07 19:59:23","新北市三重區頂崁街172號","121.47765","25.0659366666667","6500200","三重區"
"241001","547-UM","2017/08/07 19:59:16","新北市三重區仁愛街283巷28號","121.49407","25.0798066666667","6500200","三重區"
"241035","743-BX","2017/08/07 19:59:31","新北市三重區大榮街7號","121.49825","25.0630033333333","6500200","三重區"
"241029","887-TS","2017/08/07 19:59:33","新北市三重區重新路三段204號","121.490048333333","25.0583666666667","6500200","三重區"
"241012","941-UM","2017/08/07 19:59:29","新北市三重區仁厚街68號","121.500578333333","25.0766633333333","6500200","三重區"
"241033","AAC-255","2017/08/07 19:59:25","新北市三重區中興北街77號","121.469486666667","25.0477266666667","6500200","三重區"
"235066","003-UY","2017/08/07 19:59:13","新北市中和區光華街8號","121.504133333333","25.0042783333333","6500300","中和區"
"235056","096-UM","2017/08/07 19:59:22","新北市中和區中山路三段170巷8弄15號","121.472946666667","25.0076733333333","6500300","中和區"
"235039","097-UM","2017/08/07 19:59:27","新北市中和區大勇街27巷31號","121.516163333333","24.99385","6500300","中和區"
"235065","098-UM","2017/08/07 19:59:34","新北市中和區福祥路90巷5號","121.499533333333","25.0059366666667","6500300","中和區"
"235040","150-BY","2017/08/07 19:59:24","新北市中和區保健路10巷1弄1號","121.507938333333","24.9979333333333","6500300","中和區"
"235058","151-BY","2017/08/07 19:59:22","新北市中和區員山路225號","121.481268333333","24.9980833333333","6500300","中和區"
"235055","183-VK","2017/08/07 19:59:16","新北市中和區德光路15巷12號","121.471331666667","25.0037866666667","6500300","中和區"
"235038","185-VK","2017/08/07 19:59:19","新北市中和區大智街55巷30弄2號","121.52098","24.9929833333333","6500300","中和區"
"235049","186-VK","2017/08/07 19:59:26","新北市中和區景平路385巷85號","121.50097","24.9942633333333","6500300","中和區"
"235067","255-BX","2017/08/07 19:59:25","新北市中和區中正路751巷3弄4號","121.484335","24.9996666666667","6500300","中和區"
"235044","293-VK","2017/08/07 19:59:30","新北市中和區南山路162號","121.504745","24.9915416666667","6500300","中和區"
"235072","301-VK","2017/08/07 19:59:12","新北市八里區荖阡坑路22-6號","121.398971666667","25.134285","6500300","中和區"
"235043","352-BY","2017/08/07 19:59:17","新北市中和區興南路二段159巷12號","121.505181666667","24.98317","6500300","中和區"
"235051","376-QA","2017/08/07 19:59:19","新北市中和區中興街180巷52弄2號","121.498916666667","24.9885916666667","6500300","中和區"
"235068","377-QA","2017/08/07 19:59:32","新北市中和區福美路270號","121.498023333333","25.0050833333333","6500300","中和區"
"235061","378-QA","2017/08/07 19:59:01","新北市中和區員山路325-3號","121.481258333333","25.0008166666667","6500300","中和區"
"235050","4979-A6","2017/08/07 19:59:31","新北市中和區景平路155巷2弄2號","121.513226666667","24.991885","6500300","中和區"
"235069","4980-A6","2017/08/07 19:59:12","新北市中和區景新街34巷2弄7號","121.502886666667","24.998995","6500300","中和區"
"235070","558-UM","2017/08/07 19:59:31","新北市中和區連勝街33號","121.498293333333","24.9978133333333","6500300","中和區"
"235054","640-BX","2017/08/07 19:59:30","新北市中和區莒光路131號","121.472651666667","25.0018666666667","6500300","中和區"
"235060","647-TV","2017/08/07 19:59:21","新北市中和區新生街16巷11號","121.48264","25.0042766666667","6500300","中和區"
"235047","732-UM","2017/08/07 19:59:22","新北市中和區和平街74號","121.507755","24.9911233333333","6500300","中和區"
"235046","733-UM","2017/08/07 19:59:21","新北市中和區興南路一段93巷43號","121.510113333333","24.9875833333333","6500300","中和區"
"235057","801-TS","2017/08/07 19:59:29","新北市中和區員山路130號","121.48112","24.9963166666667","6500300","中和區"
"235041","802-TS","2017/08/07 19:59:14","新北市中和區永貞路274-5號","121.51337","25.0038383333333","6500300","中和區"
"235052","805-TS","2017/08/07 19:59:32","新北市中和區華新街192巷22弄8號","121.506933333333","24.983475","6500300","中和區"
"235048","896-TW","2017/08/07 19:59:20","新北市中和區興南路一段25號","121.511198333333","24.99088","6500300","中和區"
"235053","900-TW","2017/08/07 19:59:33","新北市中和區國光街189巷1號","121.467751666667","25.0010783333333","6500300","中和區"
"235071","911-UM","2017/08/07 19:59:25","新北市中和區永和路464號","121.483403333333","25.0121366666667","6500300","中和區"
"235037","AAC-213","2017/08/07 19:59:27","新北市中和區自立路175號","121.523295","24.9921533333333","6500300","中和區"
"235059","AAC-215","2017/08/07 19:59:31","新北市中和區圓通路355號","121.491443333333","24.9901","6500300","中和區"
"220068","013-TV","2017/08/07 19:59:23","新北市板橋區光復街175號","121.485146666667","25.020775","6500100","板橋區"
"220106","075-UY","2017/08/07 19:59:25","新北市板橋區民治街96巷24號","121.478528333333","25.0322133333333","6500100","板橋區"
"220069","AAD-861","2017/08/07 19:59:31","新北市板橋區貴興路60號","121.456701666667","25.0030616666667","6500100","板橋區"
"220096","120-SR","2017/08/07 19:59:26","新北市板橋區莒光路15巷18號","121.470411666667","25.0255083333333","6500100","板橋區"
"247020","893-R6","2017/08/07 19:59:15","新北市蘆洲區民義街59號","121.472896666667","25.0898333333333","6501400","蘆洲區"
"247010","546-UM","2017/08/07 19:59:29","新北市蘆洲區集賢路232號","121.482173333333","25.0862","6501400","蘆洲區"
"247018","500-BY","2017/08/07 19:59:21","新北市蘆洲區民族路290巷7號","121.47827","25.0898266666667","6501400","蘆洲區"
"247006","341-TH","2017/08/07 19:59:27","新北市蘆洲區九芎街115號","121.465481666667","25.0795316666667","6501400","蘆洲區"
"247008","339-TH","2017/08/07 19:58:58","新北市蘆洲區信義路111號","121.478318333333","25.08028","6501400","蘆洲區"
"247024","337-TH","2017/08/07 19:59:23","新北市蘆洲區光榮路120巷12號","121.465481666667","25.0884416666667","6501400","蘆洲區"
"247002","336-TH","2017/08/07 19:59:25","新北市蘆洲區長安街270號","121.457438333333","25.0869083333333","6501400","蘆洲區"
"247014","057-VK","2017/08/07 19:59:20","新北市蘆洲區成功路102號","121.472505","25.0821683333333","6501400","蘆洲區"
"247004","056-VK","2017/08/07 19:59:14","新北市蘆洲區永康街77號","121.455761666667","25.0851983333333","6501400","蘆洲區"
"247012","007-UY","2017/08/07 19:59:21","新北市蘆洲區中興街15巷42號","121.479855","25.0885133333333","6501400","蘆洲區"
"247016","001-UY","2017/08/07 19:59:14","新北市蘆洲區光華路94號","121.467665","25.082585","6501400","蘆洲區"
"226004","312-R5","2017/08/07 19:59:04","新北市平溪區靜安路三段67號","121.76686","25.032945","6502400","平溪區"
"228003","097-TW","2017/08/07 19:59:29","新北市貢寮區仁理村仁和路35號","121.924","25.0538816666667","6502600","貢寮區"
"224010","AGQ-8101","2017/08/07 19:59:24","新北市瑞芳區輕便路348號","121.839568333333","25.1087383333333","6501200","瑞芳區"
"224011","420-VK","2017/08/07 19:59:22","新北市瑞芳區崙頂路3-1號","121.847021666667","25.1047133333333","6501200","瑞芳區"
"227001","642-TC","2017/08/07 19:59:30","新北市雙溪區雙溪里長安街16號","121.864961666667","25.034655","6502500","雙溪區"
"227008","400-TW","2017/08/07 19:59:17","新北市雙溪區新基里新基南街24號","121.866268333333","25.0381666666667","6502500","雙溪區"
"253006","032-BX","2017/08/07 19:59:27","新北市石門區小坑9號","121.594345","25.288325","6502200","石門區"
"208002","742-BX","2017/08/07 19:59:21","新北市金山區中正路134-5號","121.632208333333","25.220365","6502700","金山區"
"208003","665-BX","2017/08/07 19:59:29","新北市金山區永興里忠義路30號","121.630986666667","25.2629383333333","6502700","金山區"
"208001","761-BX","2017/08/07 19:59:18","新北市金山區南勢80號","121.626626666667","25.2202883333333","6502700","金山區"
"251009","008-UM","2017/08/07 19:11:10","新北市淡水區中正路51號","121.441865","25.1695416666667","6501000","淡水區"
"251004","009-UM","2017/08/07 19:59:34","新北市淡水區民族路50巷2弄4號","121.46128","25.1358266666667","6501000","淡水區"
"251005","010-UM","2017/08/07 19:59:15","新北市淡水區學府路104號","121.449848333333","25.1717466666667","6501000","淡水區"
"251007","179-VK","2017/08/07 19:59:24","新北市淡水區淡金路一段158號","121.45462","25.1792316666667","6501000","淡水區"
"251008","181-VK","2017/08/07 19:59:31","新北市淡水區淡海路72巷22號","121.424131666667","25.1810183333333","6501000","淡水區"
"251013","182-VK","2017/08/07 19:59:30","新北市淡水區淡金路三段329號","121.448943333333","25.2062483333333","6501000","淡水區"
"251010","413-VK","2017/08/07 19:57:58","新北市淡水區崁頂100號","121.43449","25.2037666666667","6501000","淡水區"
"251012","441-VK","2017/08/07 19:59:25","新北市淡水區下圭柔山70-18號","121.4459","25.2090933333333","6501000","淡水區"
"251015","442-VK","2017/08/07 19:59:26","新北市淡水區埤島76-2號","121.451846666667","25.1930383333333","6501000","淡水區"
"251001","559-UM","2017/08/07 19:59:21","新北市淡水區忠愛街12號","121.457418333333","25.1751566666667","6501000","淡水區"
"251006","561-UM","2017/08/07 19:59:25","新北市淡水區北新路8號","121.444475","25.1773816666667","6501000","淡水區"
"251011","650-BX","2017/08/07 19:59:23","新北市淡水區中山北路三段165-1號","121.44453","25.197045","6501000","淡水區"
"207003","550-UM","2017/08/07 19:59:15","新北市萬里區大鵬里萬里加投61號","121.641231666667","25.2129016666667","6502800","萬里區"
"207004","225-TW","2017/08/07 19:59:20","新北市萬里區北基里忠二街35號","121.685633333333","25.1757583333333","6502800","萬里區"
"252002","178-VK","2017/08/07 19:59:28","新北市三芝區三民街27巷9號","121.504806666667","25.258365","6502100","三芝區"
"252001","702-TV","2017/08/07 19:59:16","新北市三芝區公正街66號","121.499818333333","25.2574583333333","6502100","三芝區"
"237004","078-UY","2017/08/07 19:59:34","新北市三峽區添福2-1號","121.370453333333","24.9095333333333","6500900","三峽區"
"237007","153-BY","2017/08/07 19:59:18","新北市三峽區二鬮路136巷123號","121.355973333333","24.910545","6500900","三峽區"
"237009","210-TH","2017/08/07 19:59:30","新北市三峽區民族街78巷2弄11號","121.368318333333","24.9299566666667","6500900","三峽區"
"237013","252-BX","2017/08/07 19:59:33","新北市三峽區介壽路二段165號","121.394053333333","24.9360033333333","6500900","三峽區"
"237012","275-BY","2017/08/07 19:59:27","新北市三峽區中華路3巷8-1號","121.374961666667","24.9311266666667","6500900","三峽區"
"237008","302-VK","2017/08/07 19:59:21","新北市三峽區安溪路340號","121.370153333333","24.9266283333333","6500900","三峽區"
"237014","433-BY","2017/08/07 19:59:13","新北市三峽區添福9-37號","121.371731666667","24.9066483333333","6500900","三峽區"
"237006","5529-G3","2017/08/07 19:59:20","新北市三峽區中正路二段168號","121.365978333333","24.9157066666667","6500900","三峽區"
"237015","649-BX","2017/08/07 19:59:31","新北市三峽區橫溪路99巷64號","121.400565","24.93751","6500900","三峽區"
"237005","AKY-6261","2017/08/07 19:59:27","新北市三峽區介壽路一段9-8號","121.375266666667","24.933735","6500900","三峽區"
"236069","105-UM","2017/08/07 19:59:31","新北市土城區千歲路26號","121.441633333333","24.968865","6501300","土城區"
"236042","107-UM","2017/08/07 19:59:25","新北市土城區學府路一段143巷25號","121.454195","24.9854116666667","6501300","土城區"
"236078","166-UM","2017/08/07 19:59:07","新北市土城區福安街68號","121.418303333333","24.96453","6501300","土城區"
"236030","253-BX","2017/08/07 19:59:23","新北市土城區中央路一段250巷2-7號","121.443628333333","24.984945","6501300","土城區"
"236026","269-VK","2017/08/07 19:59:36","新北市土城區中央路二段94號","121.442285","24.9786116666667","6501300","土城區"
"236014","270-VK","2017/08/07 19:59:26","新北市土城區廣福街123號","121.456293333333","24.992895","6501300","土城區"
"236036","271-VK","2017/08/07 19:59:30","新北市土城區國際路93號","121.467428333333","24.9756983333333","6501300","土城區"
"236020","401-BY","2017/08/07 19:59:27","新北市土城區延吉街165巷16號","121.470131666667","24.98548","6501300","土城區"
"236062","752-BX","2017/08/07 19:59:30","新北市土城區延平街41號","121.468015","24.9920316666667","6501300","土城區"
"236058","912-UM","2017/08/07 19:59:13","新北市土城區中央路一段141號","121.446618333333","24.9880183333333","6501300","土城區"
"236048","913-UM","2017/08/07 19:59:24","新北市土城區金城路三段186號","121.468215","24.9879416666667","6501300","土城區"
"236053","AAC-216","2017/08/07 19:59:35","新北市土城區延和路11號","121.463973333333","24.98804","6501300","土城區"
"242021","AAC-296","2017/08/07 19:59:27","新北市新莊區建中街16巷28號","121.449196666667","25.0387816666667","6500500","新莊區"
"242029","986-R7","2017/08/07 19:59:29","新北市新莊區中平路288-17號","121.44483","25.0512766666667","6500500","新莊區"
"242048","751-BX","2017/08/07 19:59:21","新北市新莊區富國路109巷2號","121.423776666667","25.0250933333333","6500500","新莊區"
"242025","615-BX","2017/08/07 19:59:35","新北市新莊區五工一路88號","121.461305","25.067525","6500500","新莊區"
"242023","613-BX","2017/08/07 19:59:29","新北市新莊區化成路372號","121.465873333333","25.0497683333333","6500500","新莊區"
"242027","612-BX","2017/08/07 19:59:22","新北市新莊區立信一街60號","121.44308","25.0497516666667","6500500","新莊區"
"242036","566-BX","2017/08/07 19:59:28","新北市新莊區建安街37號","121.428998333333","25.0256083333333","6500500","新莊區"
"242004","442-UM","2017/08/07 19:59:28","新北市新莊區化成路390號","121.465951666667","25.0503316666667","6500500","新莊區"
"242050","440-UM","2017/08/07 19:59:27","新北市新莊區西盛街161號","121.428296666667","25.01784","6500500","新莊區"
"242031","415-TV","2017/08/07 19:59:14","新北市新莊區公園一路41號","121.443221666667","25.03565","6500500","新莊區"
"242002","413-TV","2017/08/07 19:59:26","新北市新莊區登龍路9號","121.456913333333","25.0368066666667","6500500","新莊區"
"242039","400-BY","2017/08/07 19:59:31","新北市新莊區民安路286號","121.427856666667","25.0216666666667","6500500","新莊區"
"242060","362-BY","2017/08/07 19:59:26","新北市新莊區瓊泰路1號","121.445103333333","25.0285966666667","6500500","新莊區"
"242058","353-BY","2017/08/07 19:59:21","新北市新莊區八德街107號","121.424198333333","25.0210666666667","6500500","新莊區"
"242042","132-UY","2017/08/07 19:59:21","新北市新莊區青山路一段50號","121.409985","25.0278333333333","6500500","新莊區"
"242034","133-UY","2017/08/07 19:59:29","新北市新莊區建中街84號","121.44723","25.0367183333333","6500500","新莊區"
"242019","135-UY","2017/08/07 19:59:26","新北市新莊區民生街28號","121.45633","25.0422916666667","6500500","新莊區"
"242044","172-VK","2017/08/07 19:59:21","新北市新莊區中正路746巷43號","121.411765","25.0253416666667","6500500","新莊區"
"242007","173-VK","2017/08/07 19:59:15","新北市新莊區思源路710號","121.45978","25.0583183333333","6500500","新莊區"
"242013","175-VK","2017/08/07 19:59:25","新北市新莊區中港路467號","121.452378333333","25.049005","6500500","新莊區"
"242056","176-VK","2017/08/07 19:59:29","新北市新莊區中正路347巷20號","121.44706","25.034285","6500500","新莊區"
"242011","346-TH","2017/08/07 19:59:28","新北市新莊區中港路531巷33號","121.450156666667","25.0514933333333","6500500","新莊區"
"242017","348-TH","2017/08/07 19:59:32","新北市新莊區中安街5巷3號","121.452671666667","25.0456766666667","6500500","新莊區"
"242015","350-TH","2017/08/07 19:59:26","新北市新莊區復興路一段47巷4號","121.446965","25.0423516666667","6500500","新莊區"
"242009","351-TH","2017/08/07 19:59:23","新北市新莊區昌盛街25號","121.453723333333","25.04998","6500500","新莊區"
"238015","755-BX","2017/08/07 19:59:24","新北市樹林區中山路三段125-5號","121.398466666667","24.9740366666667","6500700","樹林區"
"238023","601-UM","2017/08/07 19:59:32","新北市樹林區中正路815號","121.409416666667","25.0169583333333","6500700","樹林區"
"238021","311-TH","2017/08/07 19:59:32","新北市樹林區佳園路三段113巷1號","121.387108333333","24.9506266666667","6500700","樹林區"
"238025","303-VK","2017/08/07 19:59:24","新北市樹林區中山路三段125號","121.39889","24.974255","6500700","樹林區"
"238017","283-BY","2017/08/07 19:59:28","新北市樹林區保安街二段117巷1號","121.415216666667","25.00118","6500700","樹林區"
"239006","891-R6","2017/08/07 19:59:27","新北市鶯歌區文化路123號","121.356613333333","24.95484","6500800","鶯歌區"
"221008","489-VK","2017/08/07 19:59:34","新北市汐止區康寧街39號","121.61854","25.066805","6501100","汐止區"
"221036","130-UY","2017/08/07 19:59:14","新北市汐止區忠孝東路258巷11弄5號","121.66391","25.0674183333333","6501100","汐止區"
"221015","131-UY","2017/08/07 19:59:29","新北市汐止區大同路三段21號","121.666423333333","25.0761","6501100","汐止區"
"221010","269-BY","2017/08/07 19:59:17","新北市汐止區連峰街270號","121.644235","25.0814733333333","6501100","汐止區"
"221012","278-VK","2017/08/07 15:10:04","新北市汐止區汐萬路一段256巷1號","121.651786666667","25.0748533333333","6501100","汐止區"
"221023","279-VK","2017/08/07 02:07:52","新北市汐止區康寧街901號","121.651818333333","25.0750333333333","6501100","汐止區"
"221032","280-BY","2017/08/07 19:59:13","新北市汐止區橫科路18巷32弄12號","121.617383333333","25.04979","6501100","汐止區"
"221027","281-BY","2017/08/07 19:59:32","新北市汐止區中正路68號","121.661735","25.0699133333333","6501100","汐止區"
"221038","297-VK","2017/08/07 19:59:19","新北市汐止區忠孝東路421號","121.665906666667","25.071505","6501100","汐止區"
"221029","298-VK","2017/08/07 19:59:28","新北市汐止區樟樹一路137巷26號","121.64104","25.06599","6501100","汐止區"
"221021","299-VK","2017/08/07 15:09:23","新北市汐止區汐萬路一段256巷3號","121.652118333333","25.0749033333333","6501100","汐止區"
"221031","353-TW","2017/08/07 19:59:21","新北市汐止區福德一路176巷14號","121.635266666667","25.0666716666667","6501100","汐止區"
"221035","622-UM","2017/08/07 19:59:14","新北市汐止區長江街39巷21號","121.655333333333","25.0720716666667","6501100","汐止區"
"221025","623-UM","2017/08/07 19:59:23","新北市汐止區仁愛路113巷14號","121.662021666667","25.0639783333333","6501100","汐止區"
"221033","647-BX","2017/08/07 19:59:24","新北市汐止區東勢街190巷3號","121.633883333333","25.0416383333333","6501100","汐止區"
"221002","707-TV","2017/08/07 19:59:15","新北市汐止區大同路一段219巷27號","121.633276666667","25.0583766666667","6501100","汐止區"
"221018","753-BX","2017/08/07 19:59:17","新北市汐止區茄苳路31號","121.665373333333","25.0709116666667","6501100","汐止區"
"220079","145-BY","2017/08/07 19:59:18","新北市板橋區大仁街95號","121.45315","25.0158516666667","6500100","板橋區"
"220088","146-RM","2017/08/07 19:59:14","新北市板橋區懷德街181巷5號","121.479465","25.029985","6500100","板橋區"
"220080","200-UY","2017/08/07 19:59:26","新北市板橋區大觀路二段37巷46號","121.448881666667","25.0025616666667","6500100","板橋區"
"220082","610-BX","2017/08/07 19:59:27","新北市板橋區存德街64號","121.431055","24.99139","6500100","板橋區"
"220055","255-TC","2017/08/07 19:59:28","新北市板橋區仁愛路62巷17弄1號","121.460166666667","24.9982533333333","6500100","板橋區"
"220103","257-TC","2017/08/07 19:59:18","新北市板橋區文化路一段421巷27號","121.466046666667","25.0232716666667","6500100","板橋區"
"220094","267-BY","2017/08/07 19:59:24","新北市板橋區陽明街249號","121.462758333333","25.0250633333333","6500100","板橋區"
"220072","277-BY","2017/08/07 19:59:20","新北市板橋區金門街127巷17號","121.433711666667","24.9911583333333","6500100","板橋區"
"220101","285-UM","2017/08/07 19:59:19","新北市板橋區縣民大道三段61號","121.47476","25.0213283333333","6500100","板橋區"
"220053","285-VK","2017/08/07 19:59:20","新北市板橋區永豐街53號","121.47402","25.0180683333333","6500100","板橋區"
"220083","286-VK","2017/08/07 19:59:24","新北市板橋區僑中二街8巷17號","121.4463","25.0113","6500100","板橋區"
"220081","287-VK","2017/08/07 19:59:20","新北市板橋區僑中一街124巷18弄3號","121.446295","25.0137366666667","6500100","板橋區"
"220090","288-VK","2017/08/07 19:59:22","新北市板橋區新海路135巷29號","121.460055","25.0230266666667","6500100","板橋區"
"220061","293-UM","2017/08/07 19:59:29","新北市板橋區觀光街33巷2號","121.471241666667","25.01606","6500100","板橋區"
"220084","296-UM","2017/08/07 19:59:30","新北市板橋區溪崑二街96巷22號","121.426013333333","24.9897366666667","6500100","板橋區"
"220075","297-UM","2017/08/07 19:59:30","新北市板橋區金華街10巷48弄48號","121.458688333333","25.0201033333333","6500100","板橋區"
"220098","299-UM","2017/08/07 19:59:28","新北市板橋區新海路72巷62號","121.461898333333","25.0234216666667","6500100","板橋區"
"220062","303-R5","2017/08/07 19:59:26","新北市板橋區中山路二段416巷54弄7號","121.48251","25.0192583333333","6500100","板橋區"
"220065","305-R5","2017/08/07 19:59:15","新北市板橋區海山路33號","121.467505","25.0092416666667","6500100","板橋區"
"220092","307-R5","2017/08/07 19:59:32","新北市板橋區四維路259巷69號","121.460653333333","25.0267466666667","6500100","板橋區"
"220064","486-VK","2017/08/07 19:59:32","新北市板橋區實踐路185號","121.464453333333","25.0033233333333","6500100","板橋區"
"220089","487-VK","2017/08/07 19:59:35","新北市板橋區龍泉街55巷22號","121.457586666667","25.0252483333333","6500100","板橋區"
"220035","560-BX","2017/08/07 19:59:24","新北市板橋區新生街28號","121.45613","25.02116","6500100","板橋區"
"220071","568-UM","2017/08/07 19:59:29","新北市板橋區五權街32巷20號","121.464173333333","24.9928683333333","6500100","板橋區"
"220091","637-BX","2017/08/07 19:59:28","新北市板橋區文聖街101號","121.477725","25.0295116666667","6500100","板橋區"
"220057","686-BX","2017/08/07 19:59:28","新北市板橋區廣權路9號","121.460716666667","24.991325","6500100","板橋區"
"220093","689-BX","2017/08/07 19:59:19","新北市板橋區長江路三段122號","121.475318333333","25.03439","6500100","板橋區"
"220054","741-BX","2017/08/07 19:59:27","新北市板橋區實踐路93巷50號","121.46589","25.0050583333333","6500100","板橋區"
"220067","829-TW","2017/08/07 19:59:21","新北市板橋區漢生東路193巷7-1號","121.470363333333","25.0118133333333","6500100","板橋區"
"220102","830-TW","2017/08/07 19:59:24","新北市板橋區文聖街65號","121.476896666667","25.0309183333333","6500100","板橋區"
"220074","895-R6","2017/08/07 19:59:18","新北市板橋區府中路29-2號","121.458501666667","25.0080516666667","6500100","板橋區"
"220073","985-R7","2017/08/07 19:59:27","新北市板橋區大仁街105號","121.452726666667","25.0157433333333","6500100","板橋區"
"220097","AAC-210","2017/08/07 19:59:19","新北市板橋區光正街45巷29號","121.461636666667","25.0161016666667","6500100","板橋區"
"220070","AAC-253","2017/08/07 19:59:31","新北市板橋區民族路170巷2-2號","121.467445","25.007825","6500100","板橋區"
