"lineid","car","time","location","longitude","latitude","cityid","cityname"
"244019","403-UM","2017/08/07 21:01:20","新北市林口區粉寮路二段160巷28號","121.405128333333","25.09079","6501700","林口區"
"231059","046-UY","2017/08/07 21:19:18","新北市新店區安華路30巷12-1號","121.51866","24.9581866666667","6500600","新店區"
"231051","107-UY","2017/08/07 21:19:16","新北市新店區中正路700巷82號","121.535971666667","24.9932366666667","6500600","新店區"
"231047","108-UY","2017/08/07 21:19:16","新北市新店區中央路151號","121.529455","24.9722766666667","6500600","新店區"
"231063","268-BY","2017/08/07 21:19:20","新北市新店區玫瑰路57巷18號","121.49638","24.9462566666667","6500600","新店區"
"231050","AAD-862","2017/08/07 21:19:09","新北市新店區中華路68號","121.53913","24.969095","6500600","新店區"
"231040","355-BY","2017/08/07 21:19:18","新北市新店區北新路一段235號","121.540715","24.9656966666667","6500600","新店區"
"231067","4772-VM","2017/08/07 21:19:15","新北市新店區薏仁坑路自強巷6號","121.496821666667","24.95851","6500600","新店區"
"231065","512-UM","2017/08/07 21:19:06","新北市新店區安祥路67巷61號","121.486793333333","24.9583433333333","6500600","新店區"
"231064","515-UM","2017/08/07 21:19:10","新北市新店區安華路28-1號","121.519783333333","24.9615016666667","6500600","新店區"
"231061","618-UM","2017/08/07 21:19:15","新北市新店區安和路二段77號","121.51844","24.9688416666667","6500600","新店區"
"241011","013-R5","2017/08/07 21:19:24","新北市三重區長壽街120巷113號","121.501808333333","25.07144","6500200","三重區"
"241028","022-UY","2017/08/07 21:19:08","新北市三重區正義南路165-1號","121.49891","25.057575","6500200","三重區"
"241008","059-VK","2017/08/07 21:19:26","新北市三重區自強路一段60號","121.497391666667","25.0667516666667","6500200","三重區"
"241009","060-VK","2017/08/07 21:19:25","新北市三重區忠孝路三段13號","121.481691666667","25.067385","6500200","三重區"
"241031","061-VK","2017/08/07 21:19:14","新北市三重區重新路五段408巷19號","121.475751666667","25.045535","6500200","三重區"
"241017","063-VK","2017/08/07 21:19:25","新北市三重區國隆路2巷1號","121.4936","25.06356","6500200","三重區"
"241024","065-VK","2017/08/07 21:19:16","新北市三重區中正北路115巷6號","121.484048333333","25.06775","6500200","三重區"
"241026","066-VK","2017/08/07 21:19:20","新北市三重區大同南路220號","121.49682","25.0562366666667","6500200","三重區"
"241002","090-VK","2017/08/07 21:19:16","新北市三重區五華街16號","121.49485","25.0802666666667","6500200","三重區"
"241003","091-VK","2017/08/07 21:19:20","新北市三重區五華街71巷115號","121.495241666667","25.084325","6500200","三重區"
"241005","262-UM","2017/08/07 21:19:23","新北市三重區三信路188號","121.487758333333","25.085895","6500200","三重區"
"241006","265-UM","2017/08/07 21:19:10","新北市三重區中正北路105號","121.489463333333","25.0632033333333","6500200","三重區"
"241016","266-UM","2017/08/07 21:19:23","新北市三重區自強路一段220號","121.494186666667","25.06663","6500200","三重區"
"241032","269-UM","2017/08/07 21:19:23","新北市三重區光復路二段49號","121.472226666667","25.056235","6500200","三重區"
"241013","270-UM","2017/08/07 21:19:24","新北市三重區仁愛街66號","121.49583","25.073155","6500200","三重區"
"241007","398-BY","2017/08/07 21:19:22","新北市三重區忠孝路一段87號","121.489811666667","25.0720783333333","6500200","三重區"
"241004","475-VK","2017/08/07 21:19:09","新北市三重區碧華街211號","121.488508333333","25.08283","6500200","三重區"
"241019","478-VK","2017/08/07 21:19:21","新北市三重區重陽路三段9號","121.489328333333","25.0665316666667","6500200","三重區"
"241030","480-VK","2017/08/07 21:19:15","新北市三重區五谷王北街42巷2號","121.47579","25.049115","6500200","三重區"
"241014","543-UM","2017/08/07 21:19:14","新北市三重區介壽路39巷14號","121.499123333333","25.0701283333333","6500200","三重區"
"241023","545-UM","2017/08/07 21:19:23","新北市三重區中正北路176巷27號","121.4826","25.0659533333333","6500200","三重區"
"241001","547-UM","2017/08/07 21:19:15","新北市三重區福隆路99號","121.492401666667","25.078305","6500200","三重區"
"241012","941-UM","2017/08/07 21:19:09","新北市三重區龍門路282號","121.50192","25.07406","6500200","三重區"
"241033","AAC-255","2017/08/07 21:19:25","新北市三重區光復路二段102巷40號","121.469923333333","25.0580966666667","6500200","三重區"
"235026","800-TS","2017/08/07 20:43:18","新北市中和區員山路36巷16-3號","121.484843333333","24.9915866666667","6500300","中和區"
"247020","893-R6","2017/08/07 21:19:14","新北市蘆洲區復興路323巷368號","121.474016666667","25.09395","6501400","蘆洲區"
"247010","546-UM","2017/08/07 21:19:09","新北市蘆洲區鷺江街23號","121.478823333333","25.0824466666667","6501400","蘆洲區"
"247018","500-BY","2017/08/07 21:19:21","新北市蘆洲區復興路105巷11號","121.476403333333","25.0883416666667","6501400","蘆洲區"
"247006","341-TH","2017/08/07 21:19:06","新北市蘆洲區長安街63號","121.462851666667","25.0798533333333","6501400","蘆洲區"
"247008","339-TH","2017/08/07 21:19:18","新北市蘆洲區信義路64號","121.476045","25.0792483333333","6501400","蘆洲區"
"247024","337-TH","2017/08/07 21:19:23","新北市蘆洲區光榮路66巷17號","121.463453333333","25.0881","6501400","蘆洲區"
"247002","336-TH","2017/08/07 21:19:05","新北市蘆洲區永樂街52-2號","121.457383333333","25.0884616666667","6501400","蘆洲區"
"247014","057-VK","2017/08/07 21:19:20","新北市蘆洲區保和街30號","121.470345","25.0866316666667","6501400","蘆洲區"
"247004","056-VK","2017/08/07 21:19:14","新北市蘆洲區永安南路二段320號","121.457023333333","25.0826933333333","6501400","蘆洲區"
"247012","007-UY","2017/08/07 21:19:21","新北市蘆洲區中興街113號","121.482256666667","25.0888666666667","6501400","蘆洲區"
"247022","002-UY","2017/08/07 21:19:21","新北市蘆洲區三民路251號","121.468526666667","25.0892866666667","6501400","蘆洲區"
"247016","001-UY","2017/08/07 21:19:19","新北市蘆洲區中正路185巷76號","121.466286666667","25.0843533333333","6501400","蘆洲區"
"224011","420-VK","2017/08/07 20:33:56","新北市瑞芳區明燈路二段66號","121.80948","25.1075816666667","6501200","瑞芳區"
"251009","008-UM","2017/08/07 21:19:10","新北市淡水區民族路33-7號","121.463261666667","25.1357016666667","6501000","淡水區"
"251004","009-UM","2017/08/07 21:19:14","新北市淡水區民族路33號","121.462315","25.1358","6501000","淡水區"
"251005","010-UM","2017/08/07 21:19:15","新北市淡水區仁愛街18巷12號","121.447053333333","25.1703116666667","6501000","淡水區"
"251008","181-VK","2017/08/07 21:19:11","新北市淡水區水源街二段230號","121.460515","25.1763516666667","6501000","淡水區"
"251013","182-VK","2017/08/07 21:19:10","新北市淡水區行忠路328號","121.460508333333","25.1996033333333","6501000","淡水區"
"251010","413-VK","2017/08/07 21:19:18","新北市淡水區淡海路69巷26號","121.421883333333","25.18084","6501000","淡水區"
"251012","441-VK","2017/08/07 21:19:25","新北市淡水區石頭埔8號","121.452651666667","25.2345133333333","6501000","淡水區"
"251015","442-VK","2017/08/07 21:19:26","新北市淡水區興仁路103巷17號","121.449865","25.2178283333333","6501000","淡水區"
"251001","559-UM","2017/08/07 21:19:21","新北市淡水區中山北路二段185號","121.444058333333","25.18519","6501000","淡水區"
"251011","650-BX","2017/08/07 21:19:20","新北市淡水區新民街120巷29號","121.438855","25.178835","6501000","淡水區"
"251002","672-BX","2017/08/07 21:19:17","新北市淡水區學府路172巷21號","121.448268333333","25.1749866666667","6501000","淡水區"
"251003","766-UM","2017/08/07 21:19:22","新北市淡水區新春街85巷25弄6號","121.438571666667","25.1839266666667","6501000","淡水區"
"242046","441-UM","2017/08/07 21:19:14","新北市林口區汕頭32號","121.366275","25.1348516666667","6500500","新莊區"
"221018","753-BX","2017/08/07 21:19:17","新北市汐止區汐萬路一段256巷1號","121.651995","25.0748766666667","6501100","汐止區"
"220070","AAC-253","2017/08/07 21:19:23","新北市林口區太平里180號","121.36703","25.1350633333333","6500100","板橋區"
