"lineid","car","time","location","longitude","latitude","cityid","cityname"
"244019","403-UM","2017/08/07 21:01:20","新北市林口區粉寮路二段160巷28號","121.405128333333","25.09079","6501700","林口區"
"231063","268-BY","2017/08/07 22:49:00","新北市新店區安華路28-1號","121.51968","24.9611416666667","6500600","新店區"
"231050","AAD-862","2017/08/07 22:49:09","新北市新店區薏仁坑路自強巷6號","121.496436666667","24.95831","6500600","新店區"
"241035","743-BX","2017/08/07 22:49:03","新北市三重區重新路三段45-1號","121.493176666667","25.0612466666667","6500200","三重區"
"235031","255-BX","2017/08/07 21:38:33","新北市中和區員山路36巷16號","121.48456","24.9913733333333","6500300","中和區"
"235026","800-TS","2017/08/07 20:43:18","新北市中和區員山路36巷16-3號","121.484843333333","24.9915866666667","6500300","中和區"
"247001","336-TH","2017/08/07 22:32:39","新北市五股區中興路三段163號","121.449166666667","25.0809083333333","6501400","蘆洲區"
"251003","766-UM","2017/08/07 22:49:02","新北市林口區汕頭32號","121.366441666667","25.1348566666667","6501000","淡水區"
