"lineid","car","time","location","longitude","latitude","cityid","cityname"
"244019","403-UM","2017/08/07 21:01:20","新北市林口區粉寮路二段160巷28號","121.405128333333","25.09079","6501700","林口區"
"231063","268-BY","2017/08/07 22:57:00","新北市新店區安華路1-1號","121.519395","24.9605416666667","6500600","新店區"
"231050","AAD-862","2017/08/07 22:57:09","新北市新店區薏仁坑路自強巷6號","121.496596666667","24.9584","6500600","新店區"
"241035","743-BX","2017/08/07 22:57:03","新北市三重區自強路一段61-1號","121.497931666667","25.06754","6500200","三重區"
"235031","255-BX","2017/08/07 21:38:33","新北市中和區員山路36巷16號","121.48456","24.9913733333333","6500300","中和區"
"235026","800-TS","2017/08/07 20:43:18","新北市中和區員山路36巷16-3號","121.484843333333","24.9915866666667","6500300","中和區"
"247001","336-TH","2017/08/07 22:32:39","新北市五股區中興路三段163號","121.449166666667","25.0809083333333","6501400","蘆洲區"
"251003","766-UM","2017/08/07 22:57:02","新北市八里區商港路48號","121.395736666667","25.144995","6501000","淡水區"
