"lineid","car","time","location","longitude","latitude","cityid","cityname"
"232006","290-BY","2017/08/08 06:39:16","新北市坪林區北宜路八段558號","121.718416666667","24.9093283333333","6502000","坪林區"
"232002","291-BY","2017/08/08 06:39:21","新北市坪林區北宜路八段558號","121.718325","24.90928","6502000","坪林區"
"244002","248-BX","2017/08/08 06:26:52","新北市林口區粉寮路二段160巷28號","121.405155","25.090775","6501700","林口區"
"223006","022-BY","2017/08/08 06:39:06","新北市石碇區石崁21號","121.657455","24.99156","6501900","石碇區"
"223002","198-BX","2017/08/08 06:39:18","新北市石碇區碇坪路一段198號","121.671253333333","24.9822583333333","6501900","石碇區"
"223003","205-TH","2017/08/08 06:39:20","新北市石碇區小粗坑(潭邊里)2號","121.669223333333","24.982945","6501900","石碇區"
"223008","406-TH","2017/08/08 06:39:20","新北市石碇區小粗坑(潭邊里)15-5號","121.681396666667","24.98142","6501900","石碇區"
"223001","437-BY","2017/08/08 06:39:12","新北市石碇區碇坪路一段89號","121.662193333333","24.990255","6501900","石碇區"
"223004","660-BX","2017/08/08 06:39:01","新北市石碇區小粗坑(潭邊里)9-2號","121.678601666667","24.9856233333333","6501900","石碇區"
"227006","282-VK","2017/08/08 06:39:16","新北市雙溪區牡丹里聖南2號","121.860278333333","25.05043","6502500","雙溪區"
"236008","165-UM","2017/08/08 06:39:23","新北市土城區永平街51號","121.427911666667","24.95911","6501300","土城區"
