"lineid","car","time","location","longitude","latitude","cityid","cityname"
"232001","290-BY","2017/10/09 08:19:42","新北市坪林區坪雙路一段115號","121.729943333333","24.9478916666667","6502000","坪林區"
"232012","291-BY","2017/10/09 08:19:46","新北市坪林區九芎根1號","121.67016","24.8906883333333","6502000","坪林區"
"232017","705-BZ","2017/10/09 08:14:11","新北市坪林區柑腳坑17號","121.765646666667","24.9514533333333","6502000","坪林區"
"232005","758-BX","2017/10/09 08:19:39","新北市坪林區鶯子瀨12-1號","121.712766666667","24.9125966666667","6502000","坪林區"
"244012","069-UM","2017/10/09 08:19:35","新北市林口區中正路555號","121.381126666667","25.076855","6501700","林口區"
"244006","080-UY","2017/10/09 08:19:50","新北市林口區菁埔路23號","121.377698333333","25.0969216666667","6501700","林口區"
"244018","403-UM","2017/10/09 08:19:45","新北市林口區公園路223巷1號","121.374118333333","25.0748316666667","6501700","林口區"
"244024","742-UY","2017/10/09 08:19:38","新北市林口區民族路16巷2號","121.364336666667","25.0738633333333","6501700","林口區"
"244008","410-SL","2017/10/09 08:19:32","新北市林口區中北三街262號","121.382006666667","25.08229","6501700","林口區"
"244022","483-VK","2017/10/09 08:19:40","新北市林口區興林路151巷10號","121.389655","25.07379","6501700","林口區"
"244016","485-VK","2017/10/09 08:19:45","新北市林口區文化二路一段260巷4號","121.371145","25.0731583333333","6501700","林口區"
"244010","656-BX","2017/10/09 08:19:37","新北市林口區中正路277號","121.38992","25.077585","6501700","林口區"
"244001","657-BX","2017/10/09 08:19:45","新北市林口區下福里147-22號","121.301203333333","25.1171666666667","6501700","林口區"
"244021","838-TS","2017/10/09 08:19:41","新北市林口區東林街27號","121.395675","25.0791583333333","6501700","林口區"
"222005","289-BY","2017/10/09 08:19:40","新北市深坑區深南路156號","121.624556666667","25.0146933333333","6501800","深坑區"
"231007","189-VK","2017/10/09 08:19:51","新北市新店區新潭路二段2號","121.52789","24.927005","6500600","新店區"
"231008","192-VK","2017/10/09 08:19:46","新北市新店區新烏路一段100-2號","121.545275","24.93659","6500600","新店區"
"231062","720-UM","2017/10/09 08:19:54","新北市新店區北宜路三段132號","121.582966666667","24.9501633333333","6500600","新店區"
"226005","5620-A6","2017/10/09 08:19:46","新北市平溪區南山里乾坑2-5號","121.786793333333","25.0451633333333","6502400","平溪區"
"226001","7418-A5","2017/10/09 08:19:45","新北市平溪區東勢里芊蓁林52號","121.755238333333","25.0091283333333","6502400","平溪區"
"226003","AGD-0702","2017/10/09 08:19:48","新北市平溪區新寮里頂寮子3號","121.771148333333","25.0512683333333","6502400","平溪區"
"223006","022-BY","2017/10/09 08:19:49","新北市深坑區昇高坑路51-1號","121.630281666667","24.9939883333333","6501900","石碇區"
"223002","198-BX","2017/10/09 08:19:54","新北市石碇區碇格路二段9號","121.643433333333","24.9562566666667","6501900","石碇區"
"223003","205-TH","2017/10/09 08:19:40","新北市石碇區北宜路六段塗潭巷53號","121.652411666667","24.9350216666667","6501900","石碇區"
"223008","406-TH","2017/10/09 08:19:44","新北市石碇區靜安路一段279號","121.694421666667","25.0070583333333","6501900","石碇區"
"223001","437-BY","2017/10/09 08:19:42","新北市石碇區北宜路六段塗潭巷15號","121.649835","24.9321766666667","6501900","石碇區"
"223004","660-BX","2017/10/09 08:19:51","新北市石碇區碇坪路一段90號","121.657975","24.9913566666667","6501900","石碇區"
"223007","661-BX","2017/10/09 08:19:49","新北市石碇區靜安路一段269號","121.69412","25.0069166666667","6501900","石碇區"
"223005","677-TV","2017/10/09 08:19:54","新北市石碇區碇坪路一段11號","121.65282","24.9984783333333","6501900","石碇區"
"227005","282-VK","2017/10/09 08:15:13","新北市雙溪區上林里大瀨13號","121.824093333333","25.0202383333333","6502500","雙溪區"
"253003","6232-TK","2017/10/09 08:19:37","新北市石門區老崩山39-3號","121.565503333333","25.2662083333333","6502200","石門區"
"253001","6251-TK","2017/10/09 08:19:54","新北市石門區楓林17-8號","121.537233333333","25.2938866666667","6502200","石門區"
"253002","637-UY","2017/10/09 08:19:50","新北市石門區大溪墘9-1號","121.552616666667","25.2740083333333","6502200","石門區"
"253004","8270-PC","2017/10/09 08:19:49","新北市石門區阿里荖2號","121.61365","25.2787116666667","6502200","石門區"
"252006","073-UM","2017/10/09 08:19:42","新北市三芝區後厝里北勢子45-33號","121.470246666667","25.2511683333333","6502100","三芝區"
"252004","249-BX","2017/10/09 08:19:44","新北市三芝區興華里車埕60號","121.49862","25.19695","6502100","三芝區"
"237001","159-UY","2017/10/09 08:19:45","新北市三峽區學成路398號","121.378486666667","24.944465","6500900","三峽區"
"236007","165-UM","2017/10/09 08:19:54","新北市土城區石門路54號","121.45692","24.95924","6501300","土城區"
"236001","339-SR","2017/10/09 08:19:54","新北市土城區中央路四段281-2號","121.412331666667","24.9536883333333","6501300","土城區"
"236005","498-BY","2017/10/09 08:19:37","新北市土城區中央路三段281巷9-2號","121.426625","24.963025","6501300","土城區"
"242030","AAC-296","2017/10/09 08:19:44","新北市新莊區新泰路321巷37號","121.443056666667","25.0410966666667","6500500","新莊區"
"242028","986-R7","2017/10/09 08:19:54","新北市新莊區新泰路334號","121.444891666667","25.0420183333333","6500500","新莊區"
"242049","751-BX","2017/10/09 08:19:52","新北市新莊區西盛街153巷6號","121.428613333333","25.0179766666667","6500500","新莊區"
"242024","615-BX","2017/10/09 08:19:52","新北市新莊區五工路70號","121.458048333333","25.0633833333333","6500500","新莊區"
"242022","613-BX","2017/10/09 08:19:48","新北市新莊區福壽街43號","121.458241666667","25.048695","6500500","新莊區"
"242026","612-BX","2017/10/09 08:19:57","新北市新莊區中原路9號","121.458861666667","25.0543666666667","6500500","新莊區"
"242038","566-BX","2017/10/09 08:19:43","新北市新莊區民安路99號","121.42447","25.0252333333333","6500500","新莊區"
"242043","497-BY","2017/10/09 08:19:47","新北市新莊區雙鳳路31號","121.416375","25.0269216666667","6500500","新莊區"
"242055","442-UM","2017/10/09 08:19:51","新北市新莊區瓊林路46-4號","121.447318333333","25.0293533333333","6500500","新莊區"
"242047","441-UM","2017/10/09 08:19:48","新北市新莊區萬安街144號","121.420115","25.021225","6500500","新莊區"
"242052","440-UM","2017/10/09 08:19:54","新北市新莊區新樹路699巷51號","121.433236666667","25.0010333333333","6500500","新莊區"
"242003","413-TV","2017/10/09 08:19:43","新北市新莊區思源路177巷17號","121.459258333333","25.0462066666667","6500500","新莊區"
"242033","400-BY","2017/10/09 08:19:45","新北市新莊區景德路463號","121.443651666667","25.0331616666667","6500500","新莊區"
"242059","362-BY","2017/10/09 08:19:53","新北市新莊區新樹路172-13號","121.434631666667","25.0216633333333","6500500","新莊區"
"242057","353-BY","2017/10/09 08:19:44","新北市新莊區雙鳳路134巷7號","121.412611666667","25.028145","6500500","新莊區"
"242006","132-UY","2017/10/09 08:19:45","新北市新莊區福樂街71巷1號","121.457086666667","25.0476416666667","6500500","新莊區"
"242035","133-UY","2017/10/09 08:19:49","新北市新莊區建福路72號","121.4268","25.0268333333333","6500500","新莊區"
"242020","135-UY","2017/10/09 08:19:56","新北市新莊區中華路一段24號","121.451986666667","25.0372683333333","6500500","新莊區"
"242045","172-VK","2017/10/09 08:19:55","新北市新莊區福營路167號","121.431805","25.0311083333333","6500500","新莊區"
"242008","173-VK","2017/10/09 00:42:43","新北市新莊區新泰路255巷83號","121.442233333333","25.038775","6500500","新莊區"
"242014","175-VK","2017/10/09 08:19:46","新北市新莊區中平路120號","121.444848333333","25.0463683333333","6500500","新莊區"
"242001","176-VK","2017/10/09 08:19:43","新北市新莊區中正路147-11號","121.45742","25.0370233333333","6500500","新莊區"
"242012","346-TH","2017/10/09 08:19:44","新北市新莊區中和街108巷1號","121.447566666667","25.04688","6500500","新莊區"
"242040","347-TH","2017/10/09 08:19:47","新北市新莊區壽山路23號","121.42039","25.02904","6500500","新莊區"
"242018","348-TH","2017/10/09 08:19:40","新北市新莊區民樂街42號","121.458086666667","25.0412116666667","6500500","新莊區"
"242016","350-TH","2017/10/09 08:19:40","新北市新莊區中港路339巷22號","121.451208333333","25.0451733333333","6500500","新莊區"
"239006","661-UM","2017/10/09 08:19:49","桃園市龜山區宏德司法新村1號","121.331675","24.9794366666667","6500800","鶯歌區"
"220064","282-UM","2017/10/09 08:19:39","新北市林口區太平里180號","121.36869","25.1340016666667","6500100","板橋區"
"242010","280-VK","2017/10/09 08:19:53","新北市新莊區中港路672號","121.450828333333","25.0565633333333","6500500","新莊區"
