"lineid","car","time","location","longitude","latitude","cityid","cityname"
"244018","403-UM","2017/10/09 10:09:45","新北市林口區麗園二街1巷4-3號","121.377436666667","25.0700933333333","6501700","林口區"
"244024","742-UY","2017/10/09 10:09:38","新北市林口區粉寮路二段160巷28號","121.405186666667","25.0908483333333","6501700","林口區"
"244022","483-VK","2017/10/09 10:09:40","新北市林口區仁愛路二段514號","121.37375","25.0774883333333","6501700","林口區"
"244020","838-TS","2017/10/09 09:21:04","新北市林口區粉寮69號","121.404801666667","25.0908383333333","6501700","林口區"
"243008","680-BX","2017/10/09 09:14:46","新北市泰山區犁頭窠3-1號","121.42232","25.06058","6501600","泰山區"
"231007","189-VK","2017/10/09 10:09:51","新北市新店區新潭路三段215巷25號","121.50813","24.904075","6500600","新店區"
"231008","192-VK","2017/10/09 10:09:46","新北市新店區平廣路一段220號","121.511076666667","24.88943","6500600","新店區"
"223008","406-TH","2017/10/09 10:09:50","新北市石碇區光明路32號","121.696","25.0214866666667","6501900","石碇區"
"223007","661-BX","2017/10/09 10:09:49","新北市石碇區光明路32號","121.696328333333","25.0200783333333","6501900","石碇區"
"227005","282-VK","2017/10/09 10:08:33","新北市雙溪區泰平里灣潭路36號","121.811506666667","24.9287383333333","6502500","雙溪區"
"253003","6232-TK","2017/10/09 10:09:37","新北市石門區小坑12-8號","121.595448333333","25.285405","6502200","石門區"
"253001","6251-TK","2017/10/09 10:09:34","新北市石門區崁子腳36-1號","121.537435","25.2701583333333","6502200","石門區"
"253002","637-UY","2017/10/09 10:09:50","新北市石門區楓林46號","121.542945","25.2786383333333","6502200","石門區"
"253004","8270-PC","2017/10/09 10:05:05","新北市石門區坪林52號","121.595401666667","25.270855","6502200","石門區"
"252004","249-BX","2017/10/09 10:09:44","新北市三芝區福德里埔尾2號","121.502003333333","25.2470183333333","6502100","三芝區"
"252006","AAC-283","2017/10/09 10:09:49","新北市三芝區新庄里番社后12-7號","121.498896666667","25.2681683333333","6502100","三芝區"
"237001","159-UY","2017/10/09 10:09:40","新北市三峽區大學路149號","121.374348333333","24.9442183333333","6500900","三峽區"
"242022","613-BX","2017/10/09 10:09:48","新北市五股區新五路三段2號","121.444783333333","25.0884233333333","6500500","新莊區"
