"lineid","car","time","location","longitude","latitude","cityid","cityname"
"244024","742-UY","2017/10/09 10:42:18","新北市林口區粉寮路二段160巷28號","121.405175","25.0907933333333","6501700","林口區"
"244020","838-TS","2017/10/09 09:21:04","新北市林口區粉寮69號","121.404801666667","25.0908383333333","6501700","林口區"
"243008","680-BX","2017/10/09 09:14:46","新北市泰山區犁頭窠3-1號","121.42232","25.06058","6501600","泰山區"
"231007","189-VK","2017/10/09 10:59:51","新北市新店區新潭路二段62巷28號","121.520313333333","24.9268466666667","6500600","新店區"
"231008","192-VK","2017/10/09 10:59:46","新北市新店區松林路16巷41號","121.545311666667","24.9060583333333","6500600","新店區"
"223008","406-TH","2017/10/09 10:59:50","新北市石碇區小粗坑(潭邊里)9-2號","121.679033333333","24.9862816666667","6501900","石碇區"
"227005","282-VK","2017/10/09 10:20:13","新北市雙溪區泰平里灣潭路36號","121.812431666667","24.9289933333333","6502500","雙溪區"
