"lineid","car","time","location","longitude","latitude","cityid","cityname"
"234044","148-BY","2017/10/09 14:19:42","新北市永和區得和路393號","121.52528","24.999255","6500400","永和區"
"234012","149-BY","2017/10/09 14:19:51","新北市永和區保生路3號","121.506295","25.0072666666667","6500400","永和區"
"234005","207-UY","2017/10/09 14:19:44","新北市永和區中正路644號","121.516946666667","25.0083666666667","6500400","永和區"
"234078","298-R6","2017/10/09 14:19:39","新北市永和區國中路132巷5號","121.523651666667","25.0070983333333","6500400","永和區"
"234036","336-UY","2017/10/09 14:19:29","新北市永和區成功路一段93巷23弄13號","121.528485","25.00346","6500400","永和區"
"234062","337-UY","2017/10/09 14:19:47","新北市永和區得和路131號","121.519096666667","25.0002666666667","6500400","永和區"
"234084","338-UY","2017/10/09 14:19:53","新北市永和區永和路二段50號","121.514763333333","25.0109333333333","6500400","永和區"
"234068","552-UM","2017/10/09 14:19:42","新北市永和區福和路263巷7弄1號","121.517926666667","25.0070216666667","6500400","永和區"
"234052","553-UM","2017/10/09 14:19:49","新北市永和區光復街4號","121.516511666667","25.0167366666667","6500400","永和區"
"234028","746-BX","2017/10/09 14:19:47","新北市永和區民權路49巷29號","121.521623333333","24.9975216666667","6500400","永和區"
"234060","AAD-866","2017/10/09 14:19:40","新北市永和區得和路1號","121.514826666667","25.0007933333333","6500400","永和區"
"234040","862-TW","2017/10/09 14:19:55","新北市中和區中和路350巷15弄1號","121.510505","25.00099","6500400","永和區"
"234048","863-TW","2017/10/09 14:19:52","新北市永和區新生路73號","121.50866","25.016145","6500400","永和區"
"234025","9371-KE","2017/10/09 14:19:52","新北市中和區安樂路165號","121.514728333333","24.99752","6500400","永和區"
"234010","9373-KE","2017/10/09 14:19:43","新北市永和區環河西路二段241號","121.500576666667","25.0092816666667","6500400","永和區"
"248019","225-UY","2017/10/09 14:06:34","新北市五股區凌雲路三段57號","121.425193333333","25.1250216666667","6501500","五股區"
"248011","247-BX","2017/10/09 14:19:52","新北市五股區民義路一段48號","121.437098333333","25.0846983333333","6501500","五股區"
"248009","272-BY","2017/10/09 14:19:51","新北市五股區自強路90巷72號","121.430788333333","25.071405","6501500","五股區"
"248001","678-BX","2017/10/09 14:18:50","新北市五股區成泰路三段641號","121.452888333333","25.10465","6501500","五股區"
"234022","9380-KE","2017/10/09 14:19:53","新北市永和區竹林路25巷21號","121.518148333333","25.015015","6500400","永和區"
"234076","969-R7","2017/10/09 14:19:48","新北市永和區民權路110號","121.519656666667","24.9965416666667","6500400","永和區"
"234072","AAC-211","2017/10/09 14:19:44","新北市永和區豫溪街189巷1號","121.5226","25.0102733333333","6500400","永和區"
"234066","AAC-212","2017/10/09 14:19:52","新北市永和區保平路268巷51弄4號","121.506968333333","25.0063016666667","6500400","永和區"
"234001","AAC-295","2017/10/09 14:19:45","新北市永和區中正路626號","121.517031666667","25.0079233333333","6500400","永和區"
"244020","838-TS","2017/10/09 09:21:04","新北市林口區粉寮69號","121.404801666667","25.0908383333333","6501700","林口區"
"243005","AAD-798","2017/10/09 14:19:45","新北市泰山區明志路三段145巷53弄2號","121.426831666667","25.0392566666667","6501600","泰山區"
"243001","297-R6","2017/10/09 14:19:54","新北市泰山區明志路一段19巷5弄9號","121.434171666667","25.0662283333333","6501600","泰山區"
"243007","380-SR","2017/10/09 14:19:45","新北市泰山區公園路20號","121.429401666667","25.0542533333333","6501600","泰山區"
"243006","421-VK","2017/10/09 14:19:53","新北市泰山區泰林路二段152號","121.434138333333","25.060055","6501600","泰山區"
"243002","KEA-2215","2017/10/09 14:19:39","新北市泰山區明志路二段32巷1號","121.429313333333","25.053445","6501600","泰山區"
"243003","KEA-2216","2017/10/09 14:19:51","新北市泰山區貴子路13-2號","121.426205","25.0418083333333","6501600","泰山區"
"243004","646-TV","2017/10/09 14:19:55","新北市泰山區仁義路220巷2號","121.43297","25.0538783333333","6501600","泰山區"
"243008","680-BX","2017/10/09 14:19:55","新北市泰山區工專路10號","121.42399","25.0396583333333","6501600","泰山區"
"231028","046-UY","2017/10/09 14:19:42","新北市新店區安康路二段3-3號","121.515815","24.9637316666667","6500600","新店區"
"231030","047-UY","2017/10/09 14:19:47","新北市新店區安民街11號","121.515318333333","24.96451","6500600","新店區"
"231029","106-UY","2017/10/09 14:19:42","新北市新店區安康路二段161號","121.510245","24.9593466666667","6500600","新店區"
"231011","108-UY","2017/10/09 14:19:38","新北市新店區五峰路59-7號","121.547426666667","24.97012","6500600","新店區"
"231018","110-UY","2017/10/09 14:19:52","新北市新店區中央四街45號","121.527911666667","24.9748616666667","6500600","新店區"
"231019","187-VK","2017/10/09 14:19:35","新北市新店區屈尺路83-1號","121.544493333333","24.9224433333333","6500600","新店區"
"231035","188-VK","2017/10/09 14:19:45","新北市新店區光華街5巷36號","121.517463333333","24.9678383333333","6500600","新店區"
"231014","215-TC","2017/10/09 14:19:54","新北市新店區北宜路二段408號","121.56829","24.954255","6500600","新店區"
"231034","268-BY","2017/10/09 14:19:43","新北市新店區黎明路3號","121.503475","24.95243","6500600","新店區"
"231023","AAD-862","2017/10/09 14:19:41","新北市新店區光明街87號","121.53898","24.9608683333333","6500600","新店區"
"231002","355-BY","2017/10/09 14:19:52","新北市新店區中央路200號","121.530501666667","24.9742266666667","6500600","新店區"
"231027","3712-VJ","2017/10/09 14:19:49","新北市新店區光明街286巷6-3號","121.540708333333","24.9636566666667","6500600","新店區"
"231025","4716-K9","2017/10/09 14:19:52","新北市新店區自立街45巷7號","121.536595","24.9795483333333","6500600","新店區"
"231038","4715-K9","2017/10/09 14:19:51","新北市新店區溪洲路6巷32-1號","121.533815","24.9627416666667","6500600","新店區"
"231036","513-UM","2017/10/09 14:19:42","新北市新店區安祥路109巷90弄97號","121.475956666667","24.9575466666667","6500600","新店區"
"231001","619-UM","2017/10/09 14:19:43","新北市新店區北新路一段96巷21號","121.54268","24.9688266666667","6500600","新店區"
"231003","641-BX","2017/10/09 14:19:38","新北市新店區中興路一段203號","121.54374","24.9657383333333","6500600","新店區"
"231013","719-UM","2017/10/09 14:19:54","新北市新店區二十張路59號","121.537676666667","24.9806616666667","6500600","新店區"
"231031","720-UM","2017/10/09 14:19:40","新北市新店區安康路一段32號","121.531491666667","24.9616483333333","6500600","新店區"
"231005","897-TW","2017/10/09 14:19:41","新北市新店區中興路三段208號","121.54379","24.98227","6500600","新店區"
"231006","898-TW","2017/10/09 14:19:57","新北市新店區北宜路二段431號","121.560718333333","24.9543633333333","6500600","新店區"
"231004","899-TW","2017/10/09 14:19:43","新北市新店區中正路160號","121.541428333333","24.97179","6500600","新店區"
"231037","AKT-0513","2017/10/09 14:19:38","新北市新店區車子路10-4號","121.50464","24.954465","6500600","新店區"
"235030","003-UY","2017/10/09 14:19:48","新北市中和區中和路96號","121.501385","25.000455","6500300","中和區"
"235028","005-UY","2017/10/09 14:19:58","新北市中和區連城路66-1號","121.497753333333","25.0016566666667","6500300","中和區"
"235027","006-UY","2017/10/09 14:19:52","新北市中和區連勝街107號","121.495168333333","24.9949366666667","6500300","中和區"
"235020","096-UM","2017/10/09 14:19:49","新北市中和區民富街60-2號","121.476646666667","25.0073716666667","6500300","中和區"
"235003","097-UM","2017/10/09 14:19:50","新北市中和區秀峰街103巷7弄1號","121.520241666667","24.9895883333333","6500300","中和區"
"235029","098-UM","2017/10/09 14:19:44","新北市中和區中山路二段2巷7弄12號","121.50366","25.0063683333333","6500300","中和區"
"235004","150-BY","2017/10/09 14:19:49","新北市中和區保健路106巷44號","121.5112","24.9945966666667","6500300","中和區"
"235022","151-BY","2017/10/09 14:19:55","新北市中和區員山路36巷16-2號","121.485281666667","24.9918133333333","6500300","中和區"
"235019","183-VK","2017/10/09 14:19:43","新北市中和區中山路三段179巷11號","121.473253333333","25.0058666666667","6500300","中和區"
"235002","185-VK","2017/10/09 14:19:50","新北市中和區大仁街20巷51號","121.519583333333","24.9932816666667","6500300","中和區"
"235013","186-VK","2017/10/09 14:19:40","新北市中和區景新街230巷3號","121.5082","24.9940983333333","6500300","中和區"
"235031","255-BX","2017/10/09 14:19:36","新北市中和區新生街154號","121.483646666667","25.0005216666667","6500300","中和區"
"235008","293-VK","2017/10/09 14:19:52","新北市中和區中興街263號","121.499941666667","24.9886916666667","6500300","中和區"
"235036","301-VK","2017/10/09 14:19:41","新北市中和區莊敬路33巷20號","121.500243333333","25.005495","6500300","中和區"
"235007","352-BY","2017/10/09 14:19:38","新北市中和區景平路288號","121.513313333333","24.992675","6500300","中和區"
"235032","375-QA","2017/10/09 14:19:38","新北市中和區連勝街51號","121.49786","24.9973","6500300","中和區"
"235015","376-QA","2017/10/09 14:19:57","新北市中和區興南路一段57號","121.510645","24.98996","6500300","中和區"
"235025","378-QA","2017/10/09 14:19:51","新北市中和區員山路140號","121.481195","24.9964716666667","6500300","中和區"
"235035","269-TV","2017/10/09 14:19:54","新北市中和區建二路56號","121.48601","25.0034583333333","6500300","中和區"
"235014","4979-A6","2017/10/09 14:19:53","新北市中和區景安路206號","121.503936666667","24.9909366666667","6500300","中和區"
"235033","4980-A6","2017/10/09 14:19:40","新北市中和區中山路二段220號","121.499571666667","25.0027716666667","6500300","中和區"
"235006","551-UM","2017/10/09 14:19:50","新北市中和區立人街16號","121.51929","24.9943533333333","6500300","中和區"
"235034","558-UM","2017/10/09 14:18:11","新北市中和區景新街5號","121.50309","24.99958","6500300","中和區"
"235009","565-BX","2017/10/09 14:19:33","新北市中和區景新街437巷30號","121.514771666667","24.9894516666667","6500300","中和區"
"235018","640-BX","2017/10/09 14:19:39","新北市中和區國光街109巷2弄6號","121.46951","25.0006533333333","6500300","中和區"
"235024","647-TV","2017/10/09 14:19:41","新北市中和區中山路三段111號","121.474741666667","25.0060416666667","6500300","中和區"
"235011","732-UM","2017/10/09 14:19:47","新北市中和區景平路241巷53號","121.508153333333","24.9921566666667","6500300","中和區"
"235010","733-UM","2017/10/09 14:19:41","新北市中和區華新街134號","121.508168333333","24.9825966666667","6500300","中和區"
"235026","800-TS","2017/10/09 14:19:46","新北市中和區中山路二段480號","121.487673333333","25.0048816666667","6500300","中和區"
"235021","801-TS","2017/10/09 14:19:47","新北市中和區民利街46號","121.479426666667","24.9988766666667","6500300","中和區"
"235005","802-TS","2017/10/09 14:19:46","新北市中和區宜安路118巷26號","121.511031666667","24.9988483333333","6500300","中和區"
"235016","805-TS","2017/10/09 14:19:46","新北市中和區興南路二段128巷4號","121.50416","24.9837483333333","6500300","中和區"
"235012","896-TW","2017/10/09 14:19:49","新北市中和區華新街109巷5號","121.509055","24.98198","6500300","中和區"
"235017","900-TW","2017/10/09 14:19:54","新北市中和區華福街59號","121.466778333333","24.99676","6500300","中和區"
"235001","AAC-213","2017/10/09 14:19:53","新北市中和區秀朗路三段10巷37弄15號","121.5241","24.9956083333333","6500300","中和區"
"235023","AAC-215","2017/10/09 14:19:47","新北市中和區圓通路286巷16-5號","121.491566666667","24.9914666666667","6500300","中和區"
"220013","072-UY","2017/10/09 14:19:47","新北市板橋區國泰街76巷34號","121.467101666667","25.0071733333333","6500100","板橋區"
"220034","073-UY","2017/10/09 14:19:52","新北市板橋區中正路236巷92號","121.458501666667","25.0194883333333","6500100","板橋區"
"220105","075-UY","2017/10/09 14:19:53","新北市板橋區雙十路三段15號","121.471061666667","25.0311366666667","6500100","板橋區"
"220017","AAD-861","2017/10/09 14:19:52","新北市板橋區華興街46號","121.458411666667","25.00474","6500100","板橋區"
"220016","120-SR","2017/10/09 14:19:42","新北市板橋區翠華街6巷121號","121.481875","25.0246983333333","6500100","板橋區"
"247021","893-R6","2017/10/09 14:19:45","新北市蘆洲區三民路128巷110號","121.469246666667","25.0909916666667","6501400","蘆洲區"
"247011","546-UM","2017/10/09 14:19:52","新北市蘆洲區信義路351巷18號","121.476775","25.0868733333333","6501400","蘆洲區"
"247019","500-BY","2017/10/09 14:19:45","新北市蘆洲區仁愛街35巷12號","121.471556666667","25.09262","6501400","蘆洲區"
"247009","339-TH","2017/10/09 14:19:55","新北市蘆洲區三民路26巷36號","121.478028333333","25.083125","6501400","蘆洲區"
"247001","337-TH","2017/10/09 14:19:50","新北市蘆洲區永樂街80號","121.456803333333","25.088655","6501400","蘆洲區"
"247003","336-TH","2017/10/09 14:19:51","新北市蘆洲區中原路87號","121.457868333333","25.0815933333333","6501400","蘆洲區"
"247015","057-VK","2017/10/09 14:18:16","新北市蘆洲區光華路54巷11號","121.467986666667","25.0832933333333","6501400","蘆洲區"
"247005","056-VK","2017/10/09 14:19:39","新北市蘆洲區長安街23巷21號","121.463555","25.0784583333333","6501400","蘆洲區"
"247007","053-VK","2017/10/09 14:19:38","新北市蘆洲區中山一路225號","121.473933333333","25.0806816666667","6501400","蘆洲區"
"247013","007-UY","2017/10/09 14:19:55","新北市蘆洲區三民路105號","121.472871666667","25.0858283333333","6501400","蘆洲區"
"247023","002-UY","2017/10/09 14:19:54","新北市蘆洲區長榮路792號","121.461341666667","25.0930216666667","6501400","蘆洲區"
"247017","001-UY","2017/10/09 14:19:45","新北市蘆洲區民權路77號","121.47337","25.0885383333333","6501400","蘆洲區"
"208004","AAC-292","2017/10/09 14:19:47","新北市金山區重和里六股林口75號","121.601343333333","25.216915","6502700","金山區"
"207002","749-BX","2017/10/09 14:19:39","新北市萬里區溪底里瑞泉路9號","121.604083333333","25.1450433333333","6502800","萬里區"
"207001","662-BX","2017/10/09 14:19:36","新北市萬里區磺潭里清水18號","121.637831666667","25.197715","6502800","萬里區"
"252005","AAC-283","2017/10/09 14:19:54","新北市三芝區橫山里大坑26號","121.525766666667","25.2546933333333","6502100","三芝區"
"236064","105-UM","2017/10/09 14:19:48","新北市土城區明德路一段128巷1號","121.463446666667","24.979155","6501300","土城區"
"236040","107-UM","2017/10/09 14:19:40","新北市土城區裕生路21巷6弄21號","121.448771666667","24.9868916666667","6501300","土城區"
"236074","166-UM","2017/10/09 14:19:38","新北市土城區永安街115巷24號","121.428933333333","24.9631166666667","6501300","土城區"
"236028","253-BX","2017/10/09 14:19:50","新北市土城區順風路63號","121.440111666667","24.9771916666667","6501300","土城區"
"236024","269-VK","2017/10/09 14:19:40","新北市土城區承天路67號","121.439588333333","24.9635883333333","6501300","土城區"
"236012","270-VK","2017/10/09 14:19:46","新北市土城區青雲路39巷7號","121.460336666667","24.9874133333333","6501300","土城區"
"236032","271-VK","2017/10/09 14:19:46","新北市土城區青雲路449-1號","121.458961666667","24.974655","6501300","土城區"
"236016","401-BY","2017/10/09 14:19:38","新北市土城區金城路二段396號","121.463953333333","24.9857866666667","6501300","土城區"
"236005","498-BY","2017/10/09 14:19:40","新北市土城區日新街47號","121.442766666667","24.988685","6501300","土城區"
"236056","912-UM","2017/10/09 14:19:49","新北市土城區中央路四段191號","121.414775","24.9565466666667","6501300","土城區"
"236044","913-UM","2017/10/09 14:19:53","新北市土城區明德路一段355-5號","121.456935","24.9775733333333","6501300","土城區"
"236060","915-UM","2017/10/09 14:19:51","新北市土城區延壽路44巷14號","121.471043333333","24.9923733333333","6501300","土城區"
"236047","970-R7","2017/10/09 14:19:54","新北市土城區和平路6巷6號","121.443865","24.9727966666667","6501300","土城區"
"236052","AAC-216","2017/10/09 14:19:41","新北市土城區中華路二段92號","121.438218333333","24.9747583333333","6501300","土城區"
"220027","145-BY","2017/10/09 14:19:46","新北市板橋區民權路260巷7號","121.458375","25.015395","6500100","板橋區"
"220030","610-BX","2017/10/09 14:19:55","新北市板橋區篤行路三段玉平巷68弄15號","121.42721","24.986165","6500100","板橋區"
"220040","267-BY","2017/10/09 14:19:45","新北市板橋區三民路一段1巷39號","121.48025","25.0249783333333","6500100","板橋區"
"220004","276-BY","2017/10/09 14:19:47","新北市板橋區信義路201號","121.459153333333","24.99173","6500100","板橋區"
"220020","277-BY","2017/10/09 14:19:37","新北市板橋區金門街337巷9弄1號","121.430411666667","24.9846783333333","6500100","板橋區"
"220050","280-UM","2017/10/09 14:19:52","新北市板橋區莒光路213號","121.474156666667","25.0228433333333","6500100","板橋區"
"220019","283-VK","2017/10/09 14:19:46","新北市板橋區大豐街20號","121.462166666667","25.0014483333333","6500100","板橋區"
"220043","285-UM","2017/10/09 14:19:36","新北市板橋區光武街110巷37號","121.467045","25.03014","6500100","板橋區"
"220001","285-VK","2017/10/09 14:19:43","新北市板橋區縣民大道三段270巷19號","121.478623333333","25.0226883333333","6500100","板橋區"
"220031","286-VK","2017/10/09 14:19:49","新北市板橋區大觀路二段174巷186弄5號","121.442658333333","25.0035816666667","6500100","板橋區"
"220029","287-VK","2017/10/09 14:14:02","新北市板橋區南雅西路二段12號","121.453295","25.00928","6500100","板橋區"
"220039","288-VK","2017/10/09 14:19:51","新北市板橋區裕民街5-1號","121.46241","25.0291316666667","6500100","板橋區"
"220009","293-UM","2017/10/09 14:19:49","新北市板橋區中山路二段255巷7號","121.476996666667","25.0178816666667","6500100","板橋區"
"220045","295-UM","2017/10/09 14:19:45","新北市板橋區大同街8巷17號","121.477263333333","25.0262983333333","6500100","板橋區"
"220032","296-UM","2017/10/09 14:19:52","新北市板橋區溪崑二街17-1號","121.428985","24.9916366666667","6500100","板橋區"
"220023","297-UM","2017/10/09 14:19:35","新北市板橋區南雅南路一段1巷34號","121.457223333333","25.00663","6500100","板橋區"
"220047","299-UM","2017/10/09 14:19:49","新北市板橋區民有街72號","121.465301666667","25.026715","6500100","板橋區"
"220010","303-R5","2017/10/09 14:19:45","新北市板橋區三民路二段居仁巷2弄25號","121.48","25.01308","6500100","板橋區"
"220041","307-R5","2017/10/09 14:19:53","新北市板橋區光武街48巷21號","121.46764","25.0267966666667","6500100","板橋區"
"220028","461-BY","2017/10/09 14:19:43","新北市板橋區大觀路二段19巷101號","121.449906666667","25.002795","6500100","板橋區"
"220012","486-VK","2017/10/09 14:19:35","新北市板橋區縣民大道二段68-1號","121.46351","25.013195","6500100","板橋區"
"220038","487-VK","2017/10/09 14:19:51","新北市板橋區文化路二段59號","121.469123333333","25.0251533333333","6500100","板橋區"
"220037","491-VK","2017/10/09 14:19:39","新北市板橋區文化路二段182巷3弄21號","121.471776666667","25.02798","6500100","板橋區"
"220035","560-BX","2017/10/09 14:19:51","新北市板橋區新生街89巷36號","121.456623333333","25.02261","6500100","板橋區"
"220052","561-BX","2017/10/09 14:19:50","新北市板橋區文化路一段188巷7弄11-3號","121.467545","25.0197216666667","6500100","板橋區"
"220011","609-BX","2017/10/09 14:19:37","新北市板橋區三民路二段202-15號","121.47901","25.0136816666667","6500100","板橋區"
"220002","630-UY","2017/10/09 14:19:42","新北市板橋區後埔街79號","121.460648333333","25.0055433333333","6500100","板橋區"
"220005","686-BX","2017/10/09 14:19:46","新北市板橋區國慶路199-2號","121.463263333333","24.9967583333333","6500100","板橋區"
"220025","687-BX","2017/10/09 14:19:45","新北市板橋區龍興街7號","121.442668333333","24.9994816666667","6500100","板橋區"
"220042","689-BX","2017/10/09 14:18:58","新北市板橋區民生路三段11號","121.467396666667","25.0238166666667","6500100","板橋區"
"220003","827-TW","2017/10/09 14:19:52","新北市板橋區館前東路156巷12號","121.464248333333","25.007025","6500100","板橋區"
"220014","829-TW","2017/10/09 14:19:45","新北市板橋區長安街138巷1弄116號","121.474226666667","25.0104433333333","6500100","板橋區"
"220051","830-TW","2017/10/09 14:19:39","新北市板橋區田單街33號","121.482328333333","25.02869","6500100","板橋區"
"220022","895-R6","2017/10/09 14:19:48","新北市板橋區民權路170巷2號","121.459781666667","25.012945","6500100","板橋區"
"220021","985-R7","2017/10/09 14:19:53","新北市板橋區中正路307號","121.455228333333","25.0197366666667","6500100","板橋區"
"220046","AAC-210","2017/10/09 14:19:54","新北市板橋區幸福路58號","121.461153333333","25.02009","6500100","板橋區"
"220018","AAC-253","2017/10/09 14:19:47","新北市板橋區忠孝路52號","121.460878333333","25.00198","6500100","板橋區"
