"lineid","car","time","location","longitude","latitude","cityid","cityname"
"234026","9371-KE","2017/10/09 17:23:44","新北市永和區福和路1號","121.525728333333","25.009275","6500400","永和區"
"249005","172-UM","2017/10/09 17:23:53","新北市八里區荖阡坑路44號","121.411536666667","25.1248033333333","6502300","八里區"
"249001","173-UM","2017/10/09 17:23:55","新北市八里區中華路一段333-1號","121.413198333333","25.1538316666667","6502300","八里區"
"249004","303-UY","2017/10/09 17:23:43","新北市八里區賢三街17號","121.419051666667","25.1592883333333","6502300","八里區"
"249002","305-UY","2017/10/09 17:23:44","新北市八里區龍米路二段117巷5號","121.446643333333","25.142905","6502300","八里區"
"249003","593-UM","2017/10/09 17:23:46","新北市八里區中山路二段482號","121.398646666667","25.1470533333333","6502300","八里區"
"244013","069-UM","2017/10/09 17:23:36","新北市林口區粉寮69號","121.405076666667","25.0908416666667","6501700","林口區"
"244007","080-UY","2017/10/09 17:23:41","新北市林口區菁埔24-3號","121.377495","25.0970016666667","6501700","林口區"
"244019","403-UM","2017/10/09 17:23:41","新北市林口區公園路227-3號","121.374576666667","25.0749816666667","6501700","林口區"
"244025","742-UY","2017/10/09 17:23:51","新北市林口區民權路203號","121.375448333333","25.0857333333333","6501700","林口區"
"244009","410-SL","2017/10/09 17:23:34","新北市林口區文化北路二段550巷20弄37號","121.378026666667","25.0911466666667","6501700","林口區"
"244023","483-VK","2017/10/09 17:23:37","新北市林口區隆林街2號","121.389576666667","25.07538","6501700","林口區"
"244017","485-VK","2017/10/09 17:23:45","新北市林口區粉寮69號","121.405","25.0908916666667","6501700","林口區"
"244011","656-BX","2017/10/09 17:23:49","新北市林口區竹林路12號","121.386826666667","25.077365","6501700","林口區"
"244021","838-TS","2017/10/09 17:23:46","新北市林口區粉寮路二段458號","121.404261666667","25.098895","6501700","林口區"
"243009","297-R6","2017/10/09 15:46:05","新北市泰山區黎明路25號","121.422011666667","25.0610133333333","6501600","泰山區"
"243016","680-BX","2017/10/09 15:40:07","新北市泰山區犁頭窠3-1號","121.422113333333","25.0606","6501600","泰山區"
"231046","278-BY","2017/10/09 17:23:46","新北市新店區直潭路92號","121.530928333333","24.9377016666667","6500600","新店區"
"241011","013-R5","2017/10/09 17:23:38","新北市三重區河邊北街100巷13號","121.503326666667","25.070325","6500200","三重區"
"241028","022-UY","2017/10/09 17:23:34","新北市三重區中正南路81號","121.494238333333","25.0585416666667","6500200","三重區"
"241008","059-VK","2017/10/09 17:23:38","新北市三重區永福街72巷17號","121.479686666667","25.07656","6500200","三重區"
"241009","060-VK","2017/10/09 17:23:35","新北市三重區仁愛街604號","121.483948333333","25.080745","6500200","三重區"
"241015","062-VK","2017/10/09 17:23:35","新北市三重區長元街82-1號","121.501805","25.0663433333333","6500200","三重區"
"241017","063-VK","2017/10/09 17:23:45","新北市三重區中正北路25巷25弄19號","121.49416","25.0629183333333","6500200","三重區"
"241024","065-VK","2017/10/09 17:23:47","新北市三重區大勇街82巷15弄7號","121.480046666667","25.07185","6500200","三重區"
"241026","066-VK","2017/10/09 17:23:36","新北市三重區光興街57號","121.498931666667","25.0601933333333","6500200","三重區"
"241002","090-VK","2017/10/09 17:23:36","新北市三重區自強路五段16號","121.49239","25.080555","6500200","三重區"
"241003","091-VK","2017/10/09 17:23:51","新北市三重區富福街36號","121.490846666667","25.083765","6500200","三重區"
"241005","262-UM","2017/10/09 17:23:37","新北市三重區永安北路二段35巷36號","121.48322","25.0825983333333","6500200","三重區"
"241016","266-UM","2017/10/09 17:23:42","新北市三重區大同北路54巷1號","121.494183333333","25.0635966666667","6500200","三重區"
"241022","267-UM","2017/10/09 17:23:48","新北市三重區中正北路2號","121.489386666667","25.0630683333333","6500200","三重區"
"241018","268-UM","2017/10/09 17:23:48","新北市三重區安慶街177號","121.49359","25.068515","6500200","三重區"
"241032","269-UM","2017/10/09 17:23:35","新北市三重區新北大道一段133巷5號","121.482811666667","25.0608916666667","6500200","三重區"
"241013","270-UM","2017/10/09 17:23:46","新北市三重區仁愛街104號","121.495351666667","25.0741766666667","6500200","三重區"
"241025","271-UM","2017/10/09 17:23:36","新北市三重區三民街300巷1號","121.477668333333","25.06901","6500200","三重區"
"241007","398-BY","2017/10/09 17:23:36","新北市三重區三和路四段145巷81號","121.48631","25.078815","6500200","三重區"
"241020","413-TH","2017/10/09 17:23:47","新北市三重區自強路三段7巷64號","121.48893","25.0725","6500200","三重區"
"241019","478-VK","2017/10/09 17:23:50","新北市三重區三張街151號","121.486461666667","25.0695666666667","6500200","三重區"
"241030","480-VK","2017/10/09 17:23:44","新北市三重區成功路73巷36號","121.489748333333","25.0523783333333","6500200","三重區"
"241014","543-UM","2017/10/09 17:23:36","新北市三重區長榮路6號","121.500115","25.06849","6500200","三重區"
"241023","545-UM","2017/10/09 17:23:37","新北市三重區忠孝路三段50巷25號","121.48171","25.065195","6500200","三重區"
"241001","547-UM","2017/10/09 17:23:53","新北市三重區仁愛街300號","121.492278333333","25.079395","6500200","三重區"
"241006","AAD-863","2017/10/09 17:23:39","新北市三重區車路頭街139巷14號","121.484455","25.076395","6500200","三重區"
"241012","941-UM","2017/10/09 17:23:41","新北市三重區河邊北街256巷2號","121.501665","25.076185","6500200","三重區"
"241033","AAC-255","2017/10/09 17:23:49","新北市三重區中興北街106號","121.468995","25.0547183333333","6500200","三重區"
"235061","378-QA","2017/10/09 17:10:49","新北市中和區員山路36巷16-2號","121.485255","24.9917433333333","6500300","中和區"
"235026","800-TS","2017/10/09 15:35:06","新北市中和區員山路36巷16-3號","121.484901666667","24.9916433333333","6500300","中和區"
"247022","893-R6","2017/10/09 17:23:38","新北市蘆洲區三民路130號","121.471026666667","25.0875533333333","6501400","蘆洲區"
"247012","546-UM","2017/10/09 17:23:38","新北市蘆洲區信義路319巷10弄17號","121.477443333333","25.0864883333333","6501400","蘆洲區"
"247020","500-BY","2017/10/09 17:23:47","新北市蘆洲區仁愛街35巷14弄1號","121.471326666667","25.092705","6501400","蘆洲區"
"247010","339-TH","2017/10/09 17:23:54","新北市蘆洲區中山一路122巷33號","121.4766","25.08237","6501400","蘆洲區"
"247002","337-TH","2017/10/09 17:23:33","新北市蘆洲區永樂街38巷45弄9號","121.457823333333","25.0899166666667","6501400","蘆洲區"
"247004","336-TH","2017/10/09 17:23:48","新北市蘆洲區長安街231號","121.459331666667","25.08279","6501400","蘆洲區"
"247016","057-VK","2017/10/09 17:23:37","新北市蘆洲區正和街96巷37號","121.467441666667","25.0814866666667","6501400","蘆洲區"
"247006","056-VK","2017/10/09 17:23:33","新北市蘆洲區長安街47號","121.46336","25.0795566666667","6501400","蘆洲區"
"247008","053-VK","2017/10/09 17:23:51","新北市蘆洲區信義路34巷92號","121.475466666667","25.0773683333333","6501400","蘆洲區"
"247014","007-UY","2017/10/09 17:23:40","新北市蘆洲區忠孝路42號","121.471331666667","25.0846116666667","6501400","蘆洲區"
"247023","002-UY","2017/10/09 17:23:54","新北市蘆洲區長榮路526號","121.459626666667","25.0903","6501400","蘆洲區"
"247018","001-UY","2017/10/09 17:23:53","新北市蘆洲區民權路82巷5弄8號","121.474848333333","25.0883716666667","6501400","蘆洲區"
"228003","097-TW","2017/10/09 17:23:38","新北市貢寮區福隆里興隆街100巷7號","121.937478333333","25.018375","6502600","貢寮區"
"228002","585-TW","2017/10/09 17:23:45","新北市貢寮區雙玉里田寮洋街43號","121.925808333333","25.01256","6502600","貢寮區"
"228001","670-TC","2017/10/09 17:23:45","新北市貢寮區仁理村尖山腳街18-3號","121.92551","25.048345","6502600","貢寮區"
"224010","AGQ-8101","2017/10/09 10:16:10","新北市瑞芳區明燈路二段46號","121.809441666667","25.1081933333333","6501200","瑞芳區"
"224006","676-BX","2017/10/09 17:23:40","新北市瑞芳區傑魚坑路195-3號","121.78791","25.10723","6501200","瑞芳區"
"224009","285-BY","2017/10/09 17:23:48","新北市瑞芳區豎崎路24號","121.843091666667","25.109685","6501200","瑞芳區"
"224008","275-VK","2017/10/09 17:23:34","新北市瑞芳區侯硐路290號","121.831186666667","25.0895216666667","6501200","瑞芳區"
"224005","271-BY","2017/10/09 17:23:34","新北市瑞芳區鼻頭路127號","121.916698333333","25.1216666666667","6501200","瑞芳區"
"227001","642-TC","2017/10/09 17:23:51","新北市雙溪區上林里新寮子13-5號","121.838008333333","25.032625","6502500","雙溪區"
"251009","008-UM","2017/10/09 17:23:50","新北市淡水區三民街21號","121.439081666667","25.1719316666667","6501000","淡水區"
"251004","009-UM","2017/10/09 17:23:45","新北市淡水區中正東路二段88巷15號","121.459078333333","25.1504816666667","6501000","淡水區"
"251007","179-VK","2017/10/09 17:23:43","新北市淡水區民生路60號","121.462056666667","25.1379416666667","6501000","淡水區"
"251008","181-VK","2017/10/09 17:23:52","新北市淡水區大同路126巷1號","121.463603333333","25.1406566666667","6501000","淡水區"
"251013","182-VK","2017/10/09 17:23:49","新北市淡水區大竹圍1號","121.470076666667","25.19575","6501000","淡水區"
"251010","413-VK","2017/10/09 17:23:45","新北市淡水區中正路二段215號","121.426241666667","25.18917","6501000","淡水區"
"251012","441-VK","2017/10/09 17:23:54","新北市淡水區北新路53號","121.445811666667","25.1781533333333","6501000","淡水區"
"251015","442-VK","2017/10/09 17:23:52","新北市淡水區三空泉16-10號","121.472245","25.1646283333333","6501000","淡水區"
"251005","443-VK","2017/10/09 17:23:54","新北市淡水區鄧公路19號","121.451405","25.17001","6501000","淡水區"
"251006","561-UM","2017/10/09 17:23:38","新北市淡水區大智街48號","121.442951666667","25.1742","6501000","淡水區"
"251011","650-BX","2017/10/09 17:23:49","新北市淡水區三空泉5號","121.47631","25.1610216666667","6501000","淡水區"
"251002","672-BX","2017/10/09 17:23:53","新北市淡水區中正路二段31號","121.419298333333","25.1816966666667","6501000","淡水區"
"251003","673-BX","2017/10/09 17:23:53","新北市淡水區中正路20巷1號","121.437216666667","25.1730666666667","6501000","淡水區"
"207003","550-UM","2017/10/09 17:23:46","新北市萬里區龜吼里美崙路38號","121.686445","25.1847216666667","6502800","萬里區"
"252002","178-VK","2017/10/09 17:23:45","新北市三芝區忠孝街1-14號","121.505575","25.254015","6502100","三芝區"
"252001","292-VK","2017/10/09 17:23:48","新北市三芝區長安街119號","121.498045","25.2596683333333","6502100","三芝區"
"237015","649-BX","2017/10/09 17:23:52","新北市三峽區中山路459巷163-3號","121.348778333333","24.932945","6500900","三峽區"
"242031","AAC-296","2017/10/09 17:23:43","新北市新莊區新泰路421號","121.442958333333","25.0447616666667","6500500","新莊區"
"242029","986-R7","2017/10/09 17:23:47","新北市新莊區幸福路735號","121.448935","25.0491266666667","6500500","新莊區"
"242050","751-BX","2017/10/09 17:23:45","新北市新莊區瓊林南路59-8號","121.435453333333","25.0163416666667","6500500","新莊區"
"242025","615-BX","2017/10/09 17:23:34","新北市新莊區中港路281號","121.453183333333","25.04386","6500500","新莊區"
"242023","613-BX","2017/10/09 17:23:37","新北市新莊區中港一街17號","121.451415","25.0456216666667","6500500","新莊區"
"242027","612-BX","2017/10/09 17:23:50","新北市新莊區復興路二段72號","121.455418333333","25.0442116666667","6500500","新莊區"
"242039","566-BX","2017/10/09 17:23:40","新北市新莊區民安路426-9號","121.433045","25.02276","6500500","新莊區"
"242044","497-BY","2017/10/09 17:23:51","新北市新莊區富國路101-1號","121.42136","25.0255483333333","6500500","新莊區"
"242056","442-UM","2017/10/09 17:23:43","新北市新莊區新莊路771巷21-1號","121.442318333333","25.0317283333333","6500500","新莊區"
"242048","441-UM","2017/10/09 17:23:40","新北市新莊區龍安路249巷1號","121.419","25.02055","6500500","新莊區"
"242053","440-UM","2017/10/09 17:23:50","新北市新莊區環河路462號","121.440141666667","25.0197666666667","6500500","新莊區"
"242004","413-TV","2017/10/09 17:23:49","新北市新莊區中平路82巷1號","121.445023333333","25.0448633333333","6500500","新莊區"
"242034","400-BY","2017/10/09 17:23:56","新北市新莊區瓊林路50-1號","121.446166666667","25.028845","6500500","新莊區"
"242060","362-BY","2017/10/09 17:23:48","新北市新莊區新樹路67巷5號","121.442085","25.03071","6500500","新莊區"
"242058","353-BY","2017/10/09 17:23:52","新北市新莊區中正路400號","121.441546666667","25.03399","6500500","新莊區"
"242007","132-UY","2017/10/09 17:23:47","新北市新莊區中港路314號","121.452455","25.0454266666667","6500500","新莊區"
"242036","133-UY","2017/10/09 17:23:35","新北市新莊區民安路429巷10號","121.434021666667","25.023515","6500500","新莊區"
"242021","135-UY","2017/10/09 17:23:40","新北市新莊區中港路135號","121.455258333333","25.0404083333333","6500500","新莊區"
"242046","172-VK","2017/10/09 17:23:41","新北市新莊區新樹路65-5號","121.4394","25.0308366666667","6500500","新莊區"
"242009","173-VK","2017/10/09 10:12:10","新北市泰山區泰林路一段2-1號","121.44253","25.0481516666667","6500500","新莊區"
"242015","175-VK","2017/10/09 17:23:37","新北市新莊區公園一路112號","121.444791666667","25.0379333333333","6500500","新莊區"
"242002","176-VK","2017/10/09 17:23:56","新北市新莊區瓊林路50-12號","121.4461","25.0287733333333","6500500","新莊區"
"242013","346-TH","2017/10/09 17:23:45","新北市新莊區中和街59巷16號","121.44672","25.0467833333333","6500500","新莊區"
"242042","347-TH","2017/10/09 17:23:37","新北市新莊區新樹路113巷21號","121.439423333333","25.0264","6500500","新莊區"
"242019","348-TH","2017/10/09 17:23:52","新北市新莊區中正路149號","121.456305","25.0367983333333","6500500","新莊區"
"242017","350-TH","2017/10/09 17:23:42","新北市新莊區中華路一段103號","121.452638333333","25.0438966666667","6500500","新莊區"
"238015","755-BX","2017/10/09 17:23:42","新北市樹林區大安路315號","121.417616666667","24.9920466666667","6500700","樹林區"
"238023","601-UM","2017/10/09 17:23:43","新北市樹林區中正路433號","121.414881666667","25.008565","6500700","樹林區"
"238019","599-UM","2017/10/09 17:23:39","新北市樹林區太平路13號","121.419055","24.9837333333333","6500700","樹林區"
"238018","571-TV","2017/10/09 17:23:34","新北市樹林區樹中街1號","121.420616666667","24.98616","6500700","樹林區"
"238024","5061-A6","2017/10/09 17:23:53","新北市樹林區保安街一段48巷18號","121.42632","24.99483","6500700","樹林區"
"238021","KEA-2217","2017/10/09 17:23:54","新北市樹林區西圳街一段126號","121.397811666667","24.963865","6500700","樹林區"
"238022","KEA-2213","2017/10/09 17:23:49","新北市樹林區仁愛街81號","121.423845","24.982925","6500700","樹林區"
"238025","303-VK","2017/10/09 17:23:40","新北市樹林區保安街一段195號","121.421036666667","24.9960283333333","6500700","樹林區"
"238017","283-BY","2017/10/09 17:23:54","新北市樹林區光武街7-3號","121.415763333333","25.0053966666667","6500700","樹林區"
"238014","282-BY","2017/10/09 17:23:51","新北市樹林區保安二街29號","121.424761666667","24.99368","6500700","樹林區"
"238020","268-VK","2017/10/09 17:23:50","新北市樹林區中正路22-1號","121.427758333333","24.99938","6500700","樹林區"
"238013","172-UY","2017/10/09 17:23:40","新北市樹林區味王街46巷36號","121.402313333333","24.973695","6500700","樹林區"
"238016","169-UY","2017/10/09 17:23:47","新北市樹林區中山路二段10號","121.417586666667","24.9850266666667","6500700","樹林區"
"239007","AAC-297","2017/10/09 17:23:50","新北市鶯歌區仁愛路1號","121.353548333333","24.9568616666667","6500800","鶯歌區"
"239006","891-R6","2017/10/09 17:23:42","新北市鶯歌區福安街7巷24弄52號","121.33476","24.9661833333333","6500800","鶯歌區"
"239008","527-UM","2017/10/09 17:23:46","新北市鶯歌區西湖街249號","121.33931","24.9675833333333","6500800","鶯歌區"
"239005","526-UM","2017/10/09 17:23:50","新北市鶯歌區鶯桃路569號","121.329905","24.96843","6500800","鶯歌區"
"239001","417-VK","2017/10/09 17:23:43","新北市鶯歌區尖山路卓厝巷7號","121.34157","24.945365","6500800","鶯歌區"
"239003","360-BY","2017/10/09 17:23:36","新北市鶯歌區德昌街201號","121.33002","24.9603866666667","6500800","鶯歌區"
"239002","359-BY","2017/10/09 17:23:42","新北市鶯歌區南雅路428號","121.347191666667","24.95406","6500800","鶯歌區"
"239004","193-VK","2017/10/09 17:23:39","新北市鶯歌區文化路224號","121.35281","24.9487883333333","6500800","鶯歌區"
"242011","280-VK","2017/10/09 17:23:55","新北市新莊區中港路397號","121.451896666667","25.0469833333333","6500500","新莊區"
