"lineid","car","time","location","longitude","latitude","cityid","cityname"
"234026","9371-KE","2017/10/09 17:37:44","新北市永和區永平路12巷14號","121.513905","25.0093783333333","6500400","永和區"
"249005","172-UM","2017/10/09 17:37:53","新北市八里區荖阡坑路41-6號","121.402248333333","25.1322083333333","6502300","八里區"
"249001","173-UM","2017/10/09 17:37:35","新北市八里區龍米路二段158號","121.435141666667","25.1577","6502300","八里區"
"249004","303-UY","2017/10/09 17:37:43","新北市八里區賢一街70-3號","121.41885","25.157475","6502300","八里區"
"249002","305-UY","2017/10/09 17:37:44","新北市八里區坪子頂3號","121.441766666667","25.1256066666667","6502300","八里區"
"249003","593-UM","2017/10/09 17:37:54","新北市八里區中山路二段227號","121.403428333333","25.149265","6502300","八里區"
"232011","375-UM","2017/10/09 17:37:39","新北市坪林區水柳腳34號","121.710141666667","24.9353116666667","6502000","坪林區"
"244013","069-UM","2017/10/09 17:37:56","新北市林口區中正路555號","121.381136666667","25.0768633333333","6501700","林口區"
"244007","080-UY","2017/10/09 17:37:41","新北市林口區湖子10-1號","121.387276666667","25.09047","6501700","林口區"
"244019","403-UM","2017/10/09 17:37:42","新北市林口區公園路163號","121.370926666667","25.071515","6501700","林口區"
"244025","742-UY","2017/10/09 17:37:51","新北市林口區文化三路一段383號","121.365508333333","25.072925","6501700","林口區"
"244009","410-SL","2017/10/09 17:37:54","新北市林口區中北三街178號","121.383098333333","25.0827566666667","6501700","林口區"
"244023","483-VK","2017/10/09 17:37:37","新北市林口區東明一街142巷18號","121.389858333333","25.071385","6501700","林口區"
"244017","485-VK","2017/10/09 17:37:45","新北市林口區文化一路一段57號","121.371476666667","25.069995","6501700","林口區"
"244011","656-BX","2017/10/09 17:37:49","新北市林口區中正路350號","121.38651","25.0777533333333","6501700","林口區"
"244021","838-TS","2017/10/09 17:37:46","新北市林口區中山路2號","121.396851666667","25.0784933333333","6501700","林口區"
"243009","297-R6","2017/10/09 15:46:05","新北市泰山區黎明路25號","121.422011666667","25.0610133333333","6501600","泰山區"
"243016","680-BX","2017/10/09 15:40:07","新北市泰山區犁頭窠3-1號","121.422113333333","25.0606","6501600","泰山區"
"231046","278-BY","2017/10/09 17:37:46","新北市新店區直潭路92號","121.530931666667","24.9377133333333","6500600","新店區"
"241011","013-R5","2017/10/09 17:37:38","新北市三重區河邊北街124巷55號","121.502516666667","25.0712033333333","6500200","三重區"
"241017","063-VK","2017/10/09 17:37:45","新北市三重區大同北路32號","121.495331666667","25.0625866666667","6500200","三重區"
"241024","065-VK","2017/10/09 17:37:47","新北市三重區車路頭街52號","121.483895","25.07219","6500200","三重區"
"241005","262-UM","2017/10/09 17:37:37","新北市三重區碧華街79號","121.485161666667","25.0815266666667","6500200","三重區"
"241016","266-UM","2017/10/09 17:37:42","新北市三重區正義北路37號","121.497456666667","25.0636716666667","6500200","三重區"
"241018","268-UM","2017/10/09 17:37:48","新北市三重區新北大道一段168號","121.483685","25.061535","6500200","三重區"
"241032","269-UM","2017/10/09 17:37:55","新北市三重區名源街59號","121.482313333333","25.0594816666667","6500200","三重區"
"241007","398-BY","2017/10/09 17:37:36","新北市三重區車路頭街135-1號","121.484261666667","25.076035","6500200","三重區"
"241019","478-VK","2017/10/09 17:37:50","新北市三重區自強路二段26巷24號","121.488778333333","25.0689866666667","6500200","三重區"
"241030","480-VK","2017/10/09 17:37:44","新北市三重區重新路四段121號","121.484521666667","25.0517833333333","6500200","三重區"
"241014","543-UM","2017/10/09 17:37:35","新北市三重區龍濱路51號","121.502708333333","25.0687483333333","6500200","三重區"
"241023","545-UM","2017/10/09 17:37:46","新北市三重區三民街148號","121.482513333333","25.0652116666667","6500200","三重區"
"241024","743-BX","2017/10/09 17:33:56","新北市三重區力行路一段273號","121.48242","25.0716533333333","6500200","三重區"
"241012","941-UM","2017/10/09 17:37:41","新北市三重區仁興街24巷19號","121.498783333333","25.07504","6500200","三重區"
"241033","AAC-255","2017/10/09 17:37:45","新北市三重區光復路一段55號","121.472068333333","25.0490616666667","6500200","三重區"
"235064","005-UY","2017/10/09 17:37:47","新北市中和區員山路36巷16-2號","121.485215","24.991325","6500300","中和區"
"235061","378-QA","2017/10/09 17:10:49","新北市中和區員山路36巷16-2號","121.485255","24.9917433333333","6500300","中和區"
"235026","800-TS","2017/10/09 15:35:06","新北市中和區員山路36巷16-3號","121.484901666667","24.9916433333333","6500300","中和區"
"247022","893-R6","2017/10/09 17:37:39","新北市蘆洲區民族路550號","121.467701666667","25.0891066666667","6501400","蘆洲區"
"247012","546-UM","2017/10/09 17:37:38","新北市蘆洲區復興路62號","121.474301666667","25.086325","6501400","蘆洲區"
"247020","500-BY","2017/10/09 17:37:47","新北市蘆洲區民族路470號","121.471703333333","25.0916716666667","6501400","蘆洲區"
"247010","339-TH","2017/10/09 17:37:34","新北市蘆洲區中山一路74巷51號","121.479698333333","25.0814483333333","6501400","蘆洲區"
"247002","337-TH","2017/10/09 17:37:54","新北市蘆洲區永平街36號","121.458426666667","25.0910433333333","6501400","蘆洲區"
"247004","336-TH","2017/10/09 17:37:48","新北市蘆洲區長安街172巷13號","121.459638333333","25.0836583333333","6501400","蘆洲區"
"247016","057-VK","2017/10/09 17:37:37","新北市蘆洲區光華路46巷29號","121.468043333333","25.0839","6501400","蘆洲區"
"247006","056-VK","2017/10/09 17:37:53","新北市蘆洲區長安街68巷6號","121.463088333333","25.0803666666667","6501400","蘆洲區"
"247008","053-VK","2017/10/09 17:37:51","新北市蘆洲區和平路16號","121.47248","25.0794333333333","6501400","蘆洲區"
"247014","007-UY","2017/10/09 17:37:40","新北市蘆洲區中山二路89號","121.472968333333","25.081815","6501400","蘆洲區"
"247023","002-UY","2017/10/09 17:37:54","新北市蘆洲區長樂路159號","121.461895","25.0880883333333","6501400","蘆洲區"
"247018","001-UY","2017/10/09 17:37:53","新北市蘆洲區水湳街15號","121.47254","25.088325","6501400","蘆洲區"
"228003","097-TW","2017/10/09 17:37:38","新北市貢寮區仁理村仁和路134號","121.923068333333","25.0514166666667","6502600","貢寮區"
"228002","585-TW","2017/10/09 17:37:45","新北市貢寮區福隆里福隆街4號","121.944978333333","25.01594","6502600","貢寮區"
"228001","670-TC","2017/10/09 17:37:45","新北市貢寮區仁理村仁愛路95-1號","121.927748333333","25.05554","6502600","貢寮區"
"224010","AGQ-8101","2017/10/09 17:37:37","新北市瑞芳區岳王路174號","121.808605","25.1114733333333","6501200","瑞芳區"
"224006","676-BX","2017/10/09 17:37:40","新北市瑞芳區中山路251號","121.797776666667","25.1095166666667","6501200","瑞芳區"
"224009","285-BY","2017/10/09 17:37:48","新北市瑞芳區輕便路39號","121.845471666667","25.1102016666667","6501200","瑞芳區"
"224008","275-VK","2017/10/09 17:37:54","新北市瑞芳區九芎橋路160號","121.833695","25.095605","6501200","瑞芳區"
"224005","271-BY","2017/10/09 17:37:54","新北市瑞芳區鼻頭路247號","121.902771666667","25.1217316666667","6501200","瑞芳區"
"251009","008-UM","2017/10/09 17:37:50","新北市淡水區中正路55號","121.441755","25.169495","6501000","淡水區"
"251004","009-UM","2017/10/09 17:37:25","新北市淡水區中正東路二段88巷21號","121.45917","25.148945","6501000","淡水區"
"251001","011-UM","2017/10/09 17:37:44","新北市淡水區民權路92巷35-1號","121.462233333333","25.126655","6501000","淡水區"
"251007","179-VK","2017/10/09 17:37:43","新北市淡水區民族路33巷2號","121.464295","25.1374683333333","6501000","淡水區"
"251008","181-VK","2017/10/09 17:37:44","新北市淡水區中正東路二段161巷11弄16號","121.461468333333","25.14625","6501000","淡水區"
"251013","182-VK","2017/10/09 17:37:49","新北市淡水區演戲埔腳12號","121.469438333333","25.1942466666667","6501000","淡水區"
"251010","413-VK","2017/10/09 17:37:51","新北市淡水區淡海路280巷16號","121.419918333333","25.1893266666667","6501000","淡水區"
"251012","441-VK","2017/10/09 17:37:54","新北市淡水區北新路200巷8號","121.451726666667","25.1796183333333","6501000","淡水區"
"251015","442-VK","2017/10/09 17:37:52","新北市淡水區興福寮1-8號","121.488668333333","25.1644583333333","6501000","淡水區"
"251005","443-VK","2017/10/09 17:37:54","新北市淡水區鄧公路33巷16號","121.451956666667","25.1708766666667","6501000","淡水區"
"251006","561-UM","2017/10/09 17:37:38","新北市淡水區中山北路一段119巷4號","121.442418333333","25.1769716666667","6501000","淡水區"
"251011","650-BX","2017/10/09 17:37:49","新北市淡水區小坪頂73號","121.484648333333","25.158785","6501000","淡水區"
"251002","672-BX","2017/10/09 17:37:53","新北市淡水區中正路342號","121.435063333333","25.17363","6501000","淡水區"
"251003","673-BX","2017/10/09 17:37:53","新北市淡水區中山北路一段85號","121.442213333333","25.1761633333333","6501000","淡水區"
"207003","550-UM","2017/10/09 17:37:46","新北市萬里區龜吼里漁澳路16號","121.686815","25.1947383333333","6502800","萬里區"
"207004","225-TW","2017/10/09 17:37:45","新北市萬里區中幅里中福路30-1號","121.680293333333","25.16654","6502800","萬里區"
"252002","178-VK","2017/10/09 17:37:45","新北市三芝區智成街95號","121.505363333333","25.2555416666667","6502100","三芝區"
"252001","292-VK","2017/10/09 17:37:48","新北市三芝區中山路一段4號","121.50094","25.2589583333333","6502100","三芝區"
"237008","302-VK","2017/10/09 17:37:51","新北市三峽區中山路459巷92號","121.353766666667","24.9357683333333","6500900","三峽區"
"237011","572-TV","2017/10/09 12:53:40","新北市三峽區中山路459巷163-3號","121.3488","24.933215","6500900","三峽區"
"237015","649-BX","2017/10/09 17:37:52","新北市三峽區中園街46號","121.368168333333","24.9262033333333","6500900","三峽區"
"237010","706-TV","2017/10/09 17:36:03","新北市三峽區中山路223號","121.363185","24.936955","6500900","三峽區"
"236069","105-UM","2017/10/09 17:37:56","新北市土城區城林路6巷80號","121.438413333333","24.9797416666667","6501300","土城區"
"236042","107-UM","2017/10/09 17:37:46","新北市土城區城林路6巷80號","121.438516666667","24.9797333333333","6501300","土城區"
"236078","166-UM","2017/10/09 17:37:38","新北市土城區城林路6巷80號","121.438475","24.97966","6501300","土城區"
"236014","270-VK","2017/10/09 17:37:41","新北市土城區城林路6巷80號","121.438556666667","24.9795566666667","6501300","土城區"
"236036","271-VK","2017/10/09 17:37:44","新北市土城區城林路6巷80號","121.438445","24.979735","6501300","土城區"
"236058","912-UM","2017/10/09 17:37:52","新北市土城區城林路6巷80號","121.438618333333","24.9798","6501300","土城區"
"236048","913-UM","2017/10/09 16:43:17","新北市土城區城林路6巷80號","121.438718333333","24.9795666666667","6501300","土城區"
"236053","AAC-216","2017/10/09 17:37:35","新北市土城區城林路6巷80號","121.438546666667","24.9798616666667","6501300","土城區"
"242031","AAC-296","2017/10/09 17:37:44","新北市新莊區新泰路369巷27號","121.442478333333","25.0431933333333","6500500","新莊區"
"242029","986-R7","2017/10/09 17:37:47","新北市新莊區復興路二段98號","121.456373333333","25.04429","6500500","新莊區"
"242050","751-BX","2017/10/09 17:37:45","新北市新莊區西盛街199-1號","121.428273333333","25.0169566666667","6500500","新莊區"
"242025","615-BX","2017/10/09 17:37:34","新北市新莊區思源路157號","121.459606666667","25.0444816666667","6500500","新莊區"
"242023","613-BX","2017/10/09 17:37:39","新北市新莊區中港路132巷18號","121.456143333333","25.0405883333333","6500500","新莊區"
"242027","612-BX","2017/10/09 17:37:50","新北市新莊區福壽街79號","121.458181666667","25.049865","6500500","新莊區"
"242039","566-BX","2017/10/09 17:37:40","新北市新莊區民全街11號","121.42901","25.0215016666667","6500500","新莊區"
"242044","497-BY","2017/10/09 17:37:51","新北市新莊區中正路871巷9弄41號","121.419843333333","25.0267566666667","6500500","新莊區"
"242056","442-UM","2017/10/09 17:37:43","新北市新莊區泰豐街15號","121.448343333333","25.03154","6500500","新莊區"
"242048","441-UM","2017/10/09 17:37:40","新北市新莊區萬安街153號","121.420375","25.02147","6500500","新莊區"
"242053","440-UM","2017/10/09 17:37:53","新北市新莊區新樹路701號","121.432083333333","25.0022733333333","6500500","新莊區"
"242004","413-TV","2017/10/09 17:37:49","新北市新莊區自立街180號","121.456025","25.0452883333333","6500500","新莊區"
"242034","400-BY","2017/10/09 17:37:56","新北市新莊區新莊路484號","121.446666666667","25.0334416666667","6500500","新莊區"
"242060","362-BY","2017/10/09 17:37:53","新北市新莊區瓊林南路118-16號","121.434601666667","25.00861","6500500","新莊區"
"242058","353-BY","2017/10/09 17:37:52","新北市新莊區中正路690號","121.420341666667","25.0283066666667","6500500","新莊區"
"242007","132-UY","2017/10/09 17:37:47","新北市新莊區自信街51號","121.454786666667","25.04826","6500500","新莊區"
"242036","133-UY","2017/10/09 17:37:55","新北市新莊區後港一路138號","121.429771666667","25.0274083333333","6500500","新莊區"
"242021","135-UY","2017/10/09 17:37:43","新北市新莊區中華路一段67號","121.452206666667","25.0396666666667","6500500","新莊區"
"242046","172-VK","2017/10/09 17:37:41","新北市新莊區福營路92號","121.437061666667","25.0326383333333","6500500","新莊區"
"242009","173-VK","2017/10/09 17:37:46","新北市新莊區昌明街14巷1弄10號","121.457031666667","25.052775","6500500","新莊區"
"242015","175-VK","2017/10/09 17:37:51","新北市新莊區新泰路349號","121.44471","25.0422033333333","6500500","新莊區"
"242002","176-VK","2017/10/09 17:37:47","新北市新莊區新莊路286號","121.451445","25.0338883333333","6500500","新莊區"
"242013","346-TH","2017/10/09 17:37:45","新北市新莊區中誠街96號","121.449955","25.0477716666667","6500500","新莊區"
"242042","347-TH","2017/10/09 17:37:57","新北市新莊區建國一路9號","121.433765","25.0317883333333","6500500","新莊區"
"242019","348-TH","2017/10/09 17:37:52","新北市新莊區中港路205號","121.454735","25.0419966666667","6500500","新莊區"
"242017","350-TH","2017/10/09 17:37:42","新北市新莊區復興路一段149巷21弄23號","121.448925","25.0438483333333","6500500","新莊區"
"238015","755-BX","2017/10/09 17:37:42","新北市樹林區啟智街8號","121.421153333333","24.9942766666667","6500700","樹林區"
"238023","601-UM","2017/10/09 17:37:43","新北市樹林區三福街75號","121.40751","25.016345","6500700","樹林區"
"238019","599-UM","2017/10/09 17:37:39","新北市樹林區太順街14號","121.420051666667","24.9803033333333","6500700","樹林區"
"238018","571-TV","2017/10/09 17:37:40","新北市樹林區鎮前街97巷4號","121.424615","24.9896733333333","6500700","樹林區"
"238024","5061-A6","2017/10/09 17:37:53","新北市樹林區水源街86號","121.425886666667","24.98018","6500700","樹林區"
"238021","KEA-2217","2017/10/09 17:37:54","新北市樹林區西圳街一段203巷13號","121.39334","24.95959","6500700","樹林區"
"238022","KEA-2213","2017/10/09 17:37:49","新北市樹林區和平街2巷20號","121.421156666667","24.980995","6500700","樹林區"
"238025","303-VK","2017/10/09 17:37:40","新北市樹林區保安街二段164號","121.413155","25.004675","6500700","樹林區"
"238017","283-BY","2017/10/09 17:37:34","新北市樹林區中正路248巷28弄2號","121.418338333333","25.00804","6500700","樹林區"
"238014","282-BY","2017/10/09 17:37:49","新北市樹林區保安街一段245號","121.419718333333","24.9963633333333","6500700","樹林區"
"238020","268-VK","2017/10/09 17:37:50","新北市樹林區俊英街116巷41弄23號","121.428528333333","25.0069683333333","6500700","樹林區"
"238013","172-UY","2017/10/09 17:37:40","新北市樹林區新興街19巷34弄19號","121.40225","24.972765","6500700","樹林區"
"238016","169-UY","2017/10/09 17:37:47","新北市樹林區樹德街38巷8號","121.422525","24.9918633333333","6500700","樹林區"
"239007","AAC-297","2017/10/09 17:37:50","新北市鶯歌區鶯桃路180號","121.336993333333","24.9555316666667","6500800","鶯歌區"
"239006","891-R6","2017/10/09 17:37:42","新北市鶯歌區永和街56巷5號","121.333661666667","24.9678316666667","6500800","鶯歌區"
"239008","527-UM","2017/10/09 17:37:46","新北市鶯歌區大湖路393-2號","121.33086","24.97894","6500800","鶯歌區"
"239005","526-UM","2017/10/09 17:37:50","新北市鶯歌區鳳吉四街15號","121.326561666667","24.97263","6500800","鶯歌區"
"239001","417-VK","2017/10/09 17:37:43","新北市鶯歌區中正三路198號","121.332688333333","24.9381916666667","6500800","鶯歌區"
"239003","360-BY","2017/10/09 17:37:36","新北市鶯歌區鶯桃路206巷43號","121.337935","24.9600683333333","6500800","鶯歌區"
"239002","359-BY","2017/10/09 17:37:42","新北市鶯歌區育智路84-1號","121.34505","24.9547383333333","6500800","鶯歌區"
"239004","193-VK","2017/10/09 17:37:39","新北市鶯歌區三鶯路57號","121.357223333333","24.9423916666667","6500800","鶯歌區"
"221023","279-VK","2017/10/09 17:37:44","新北市汐止區汐萬路一段256巷1號","121.651741666667","25.0748966666667","6501100","汐止區"
"221032","280-BY","2017/10/09 17:37:35","新北市汐止區連峰街1巷1號","121.64661","25.07608","6501100","汐止區"
"221029","298-VK","2017/10/09 17:37:37","新北市汐止區汐萬路一段256巷1號","121.651683333333","25.0748066666667","6501100","汐止區"
"221033","647-BX","2017/10/09 17:37:47","新北市汐止區工建路216號","121.636466666667","25.0623383333333","6501100","汐止區"
"221018","753-BX","2017/10/09 17:37:44","新北市汐止區汐萬路一段261號","121.65076","25.0741766666667","6501100","汐止區"
"242011","280-VK","2017/10/09 17:37:35","新北市新莊區中港路607號","121.451376666667","25.0532416666667","6500500","新莊區"
