"lineid","car","time","location","longitude","latitude","cityid","cityname"
"234026","9371-KE","2017/10/09 17:59:44","新北市永和區永和路一段153號","121.514203333333","25.0092833333333","6500400","永和區"
"234011","9373-KE","2017/10/09 17:53:33","新北市永和區福和路1號","121.525548333333","25.0093816666667","6500400","永和區"
"249005","172-UM","2017/10/09 17:59:33","新北市八里區荖阡坑路20-3號","121.397946666667","25.1366066666667","6502300","八里區"
"249001","173-UM","2017/10/09 17:59:35","新北市八里區龍米路二段39號","121.448201666667","25.1400483333333","6502300","八里區"
"249004","303-UY","2017/10/09 17:59:43","新北市八里區龍米路三段15號","121.428056666667","25.1592183333333","6502300","八里區"
"249002","305-UY","2017/10/09 17:59:44","新北市八里區龍米路一段440巷8號","121.451288333333","25.1338333333333","6502300","八里區"
"249003","593-UM","2017/10/09 17:59:46","新北市八里區中山路二段157號","121.404945","25.1508566666667","6502300","八里區"
"248016","026-BX","2017/10/09 17:59:37","新北市五股區中興路二段83巷26-6號","121.459758333333","25.075345","6501500","五股區"
"248006","077-UY","2017/10/09 17:59:42","新北市五股區中興路二段83巷26-6號","121.460048333333","25.0750633333333","6501500","五股區"
"248008","095-VK","2017/10/09 17:59:51","新北市五股區更洲路40號","121.45773","25.0793466666667","6501500","五股區"
"248018","225-UY","2017/10/09 17:59:38","新北市五股區中興路二段83巷26-6號","121.459613333333","25.075315","6501500","五股區"
"248014","261-SL","2017/10/09 17:59:31","新北市五股區中興路二段157巷11-1號","121.45801","25.076805","6501500","五股區"
"248010","272-BY","2017/10/09 17:59:44","新北市五股區中興路二段163號","121.457591666667","25.07771","6501500","五股區"
"248004","677-BX","2017/10/09 17:59:46","新北市五股區中興路二段37巷28號","121.460166666667","25.07499","6501500","五股區"
"248002","678-BX","2017/10/09 17:57:45","新北市五股區中興路二段37巷28號","121.460095","25.0748466666667","6501500","五股區"
"232011","375-UM","2017/10/09 17:59:39","新北市坪林區水柳腳16號","121.710723333333","24.9349583333333","6502000","坪林區"
"244013","069-UM","2017/10/09 17:59:36","新北市林口區林口路31號","121.390776666667","25.0786716666667","6501700","林口區"
"244007","080-UY","2017/10/09 17:59:41","新北市林口區林口路199號","121.387236666667","25.0825533333333","6501700","林口區"
"244019","403-UM","2017/10/09 17:59:42","新北市林口區忠孝路552巷3號","121.374048333333","25.0676783333333","6501700","林口區"
"244025","742-UY","2017/10/09 17:59:31","新北市林口區八德路400-1號","121.359271666667","25.0664216666667","6501700","林口區"
"244009","410-SL","2017/10/09 17:59:34","新北市林口區竹林路578號","121.386625","25.08309","6501700","林口區"
"244023","483-VK","2017/10/09 17:59:37","新北市林口區東湖路105巷92號","121.385071666667","25.0713533333333","6501700","林口區"
"244017","485-VK","2017/10/09 17:59:45","新北市林口區文化二路一段228-1號","121.369748333333","25.0725016666667","6501700","林口區"
"244011","656-BX","2017/10/09 17:59:49","新北市林口區中正路30巷9號","121.39592","25.0778366666667","6501700","林口區"
"244021","838-TS","2017/10/09 17:59:46","新北市林口區新寮37-2號","121.401881666667","25.0656783333333","6501700","林口區"
"243009","297-R6","2017/10/09 15:46:05","新北市泰山區黎明路25號","121.422011666667","25.0610133333333","6501600","泰山區"
"243016","680-BX","2017/10/09 15:40:07","新北市泰山區犁頭窠3-1號","121.422113333333","25.0606","6501600","泰山區"
"222003","436-BY","2017/10/09 17:59:42","新北市深坑區炮子崙9號","121.604308333333","24.986065","6501800","深坑區"
"222002","659-BX","2017/10/09 17:59:36","新北市深坑區文化街118號","121.615673333333","25.00188","6501800","深坑區"
"231046","278-BY","2017/10/09 17:59:46","新北市新店區康雅崙路31號","121.537365","24.9263183333333","6500600","新店區"
"241024","065-VK","2017/10/09 17:59:47","新北市三重區中正北路193巷35弄21號","121.476966666667","25.07098","6500200","三重區"
"241016","266-UM","2017/10/09 17:59:41","新北市五股區成泰路一段98巷77號","121.451251666667","25.076605","6500200","三重區"
"241033","AAC-255","2017/10/09 17:59:45","新北市三重區重新路五段567號","121.470301666667","25.0459516666667","6500200","三重區"
"235064","005-UY","2017/10/09 17:59:47","新北市中和區員山路36巷16-3號","121.48507","24.9913266666667","6500300","中和區"
"235065","098-UM","2017/10/09 17:59:45","新北市中和區新生街278號","121.48366","24.996845","6500300","中和區"
"235058","151-BY","2017/10/09 17:59:52","新北市中和區錦和路350-1號","121.490245","24.993545","6500300","中和區"
"235038","185-VK","2017/10/09 17:59:39","新北市中和區景安路68號","121.505811666667","24.996685","6500300","中和區"
"235051","376-QA","2017/10/09 17:59:37","新北市中和區員山路36巷16-2號","121.485308333333","24.9914233333333","6500300","中和區"
"235061","378-QA","2017/10/09 17:59:49","新北市中和區員山路36巷16-2號","121.48533","24.9916933333333","6500300","中和區"
"235042","551-UM","2017/10/09 17:59:33","新北市中和區和城路一段271巷1號","121.485561666667","24.9916916666667","6500300","中和區"
"235062","800-TS","2017/10/09 17:59:45","新北市中和區中正路476號","121.489708333333","24.994235","6500300","中和區"
"235037","AAC-213","2017/10/09 17:59:35","新北市中和區錦和路350-1號","121.490195","24.9935066666667","6500300","中和區"
"247022","893-R6","2017/10/09 17:59:38","新北市蘆洲區中正路516巷12號","121.46267","25.0981383333333","6501400","蘆洲區"
"247012","546-UM","2017/10/09 17:59:38","新北市蘆洲區民族路171號","121.479138333333","25.088385","6501400","蘆洲區"
"247020","500-BY","2017/10/09 17:59:47","新北市蘆洲區民權路121巷16弄2號","121.471481666667","25.089415","6501400","蘆洲區"
"247010","339-TH","2017/10/09 17:59:34","新北市蘆洲區三民路24號","121.475856666667","25.0825933333333","6501400","蘆洲區"
"247002","337-TH","2017/10/09 17:59:33","新北市蘆洲區永平街32巷45弄14號","121.458943333333","25.09273","6501400","蘆洲區"
"247016","057-VK","2017/10/09 17:59:37","新北市蘆洲區中正路185巷78弄22號","121.46602","25.0848166666667","6501400","蘆洲區"
"247006","056-VK","2017/10/09 17:59:53","新北市蘆洲區中華街2號","121.463693333333","25.0817383333333","6501400","蘆洲區"
"247008","053-VK","2017/10/09 17:59:31","新北市五股區中興路二段182巷15弄13-1號","121.45722","25.0811933333333","6501400","蘆洲區"
"247023","002-UY","2017/10/09 17:59:34","新北市蘆洲區光復路30巷16號","121.463715","25.0842516666667","6501400","蘆洲區"
"247018","001-UY","2017/10/09 17:59:33","新北市蘆洲區復興路298號","121.481195","25.0899933333333","6501400","蘆洲區"
"226004","312-R5","2017/10/09 17:59:47","新北市平溪區石底里公園街18-3號","121.733386666667","25.02577","6502400","平溪區"
"228003","097-TW","2017/10/09 17:59:38","新北市貢寮區真理里美艷山街6-2號","121.929145","25.0607966666667","6502600","貢寮區"
"228002","585-TW","2017/10/09 17:59:45","新北市貢寮區福隆里桂安街3-1號","121.962778333333","25.02093","6502600","貢寮區"
"228001","670-TC","2017/10/09 17:59:45","新北市貢寮區真理里新港街26巷50號","121.927766666667","25.053255","6502600","貢寮區"
"224010","AGQ-8101","2017/10/09 17:59:37","新北市瑞芳區石碑巷41-1號","121.84185","25.108235","6501200","瑞芳區"
"224006","676-BX","2017/10/09 17:59:40","新北市瑞芳區傑魚坑路183號","121.788468333333","25.1083316666667","6501200","瑞芳區"
"224002","639-TC","2017/10/09 17:59:40","新北市瑞芳區三爪子坑路34號","121.81052","25.1061833333333","6501200","瑞芳區"
"224009","285-BY","2017/10/09 17:59:48","新北市瑞芳區山尖路209號","121.849825","25.111835","6501200","瑞芳區"
"224008","275-VK","2017/10/09 17:59:34","新北市瑞芳區明燈路一段167號","121.819306666667","25.1074883333333","6501200","瑞芳區"
"224007","273-VK","2017/10/09 17:59:44","新北市瑞芳區大寮路5-1號","121.782108333333","25.09709","6501200","瑞芳區"
"224005","271-BY","2017/10/09 17:59:34","新北市瑞芳區長仁路1號","121.872211666667","25.1236","6501200","瑞芳區"
"253005","032-BX","2017/10/09 17:59:44","新北市石門區中山路62-11號","121.567525","25.2897","6502200","石門區"
"253006","295-VK","2017/10/09 17:59:44","新北市石門區大丘田45-2號","121.549808333333","25.2748533333333","6502200","石門區"
"208002","742-BX","2017/10/09 17:59:48","新北市金山區三界壇路44號","121.623263333333","25.2291266666667","6502700","金山區"
"208003","665-BX","2017/10/09 17:59:32","新北市金山區磺港里磺港路313號","121.644393333333","25.2279433333333","6502700","金山區"
"208001","761-BX","2017/10/09 17:59:44","新北市金山區磺港里磺港路248號","121.643805","25.2250233333333","6502700","金山區"
"251009","008-UM","2017/10/09 17:59:50","新北市淡水區大仁街6巷1號","121.442386666667","25.17464","6501000","淡水區"
"251004","009-UM","2017/10/09 17:59:45","新北市淡水區民權路191號","121.4597","25.13317","6501000","淡水區"
"251001","011-UM","2017/10/09 17:59:44","新北市淡水區民權路16號","121.463331666667","25.1243533333333","6501000","淡水區"
"251007","179-VK","2017/10/09 17:59:43","新北市淡水區中正東路二段143巷2弄1號","121.460665","25.1473466666667","6501000","淡水區"
"251008","181-VK","2017/10/09 17:59:44","新北市淡水區八勢路30巷19號","121.462816666667","25.15368","6501000","淡水區"
"251013","182-VK","2017/10/09 17:59:49","新北市淡水區泉洲厝31號","121.479535","25.1910666666667","6501000","淡水區"
"251010","413-VK","2017/10/09 17:59:45","新北市淡水區中正路一段132巷22號","121.422971666667","25.17993","6501000","淡水區"
"251012","441-VK","2017/10/09 17:59:34","新北市淡水區北新路三段10號","121.482745","25.185365","6501000","淡水區"
"251015","442-VK","2017/10/09 17:59:52","新北市淡水區興福寮88巷1號","121.485658333333","25.1650833333333","6501000","淡水區"
"251005","443-VK","2017/10/09 17:59:41","新北市淡水區英專路122巷1號","121.446555","25.1726716666667","6501000","淡水區"
"251006","561-UM","2017/10/09 17:59:38","新北市淡水區真理街2-1號","121.438596666667","25.1729083333333","6501000","淡水區"
"251011","650-BX","2017/10/09 17:59:49","新北市淡水區三空泉6-2號","121.477138333333","25.16217","6501000","淡水區"
"251002","672-BX","2017/10/09 17:59:33","新北市淡水區中山路8號","121.444575","25.168785","6501000","淡水區"
"251003","673-BX","2017/10/09 17:59:33","新北市淡水區大忠街79-1號","121.44583","25.1773333333333","6501000","淡水區"
"207003","550-UM","2017/10/09 17:59:46","新北市萬里區港東路野柳風景區攤販68號","121.691271666667","25.2058316666667","6502800","萬里區"
"207004","225-TW","2017/10/09 17:59:29","新北市萬里區中幅里中福路48號","121.683468333333","25.174155","6502800","萬里區"
"252002","178-VK","2017/10/09 17:59:45","新北市三芝區中山路一段155號","121.502381666667","25.2560016666667","6502100","三芝區"
"252001","292-VK","2017/10/09 17:59:48","新北市三芝區中興街一段37號","121.497608333333","25.257825","6502100","三芝區"
"237004","078-UY","2017/10/09 17:59:46","新北市三峽區中正路二段136號","121.366216666667","24.9165733333333","6500900","三峽區"
"237007","153-BY","2017/10/09 17:59:37","新北市三峽區中園街161號","121.367118333333","24.9219616666667","6500900","三峽區"
"237009","210-TH","2017/10/09 17:59:33","新北市三峽區中山路106巷2號","121.366148333333","24.9360683333333","6500900","三峽區"
"237013","252-BX","2017/10/09 17:59:45","新北市三峽區中華路8-1號","121.374973333333","24.93289","6500900","三峽區"
"237012","275-BY","2017/10/09 17:59:43","新北市三峽區民生街27巷30號","121.376023333333","24.9360366666667","6500900","三峽區"
"237008","302-VK","2017/10/09 17:59:31","新北市三峽區正義街75號","121.369081666667","24.9184383333333","6500900","三峽區"
"237014","433-BY","2017/10/09 17:59:39","新北市三峽區復興路101巷1弄28號","121.371033333333","24.93772","6500900","三峽區"
"237006","5529-G3","2017/10/09 17:59:39","新北市三峽區介壽路二段138巷1弄100號","121.397651666667","24.9312583333333","6500900","三峽區"
"237011","572-TV","2017/10/09 17:55:22","新北市三峽區中正路一段45號","121.375603333333","24.9305466666667","6500900","三峽區"
"237015","649-BX","2017/10/09 17:59:52","新北市三峽區紫微路87號","121.404233333333","24.9096433333333","6500900","三峽區"
"237010","706-TV","2017/10/09 17:36:03","新北市三峽區中山路223號","121.363185","24.936955","6500900","三峽區"
"237005","AKY-6261","2017/10/09 17:59:35","新北市三峽區復興路237巷38號","121.369083333333","24.93789","6500900","三峽區"
"236069","105-UM","2017/10/09 17:59:36","新北市土城區中正路69號","121.44472","24.9756166666667","6501300","土城區"
"236042","107-UM","2017/10/09 17:59:46","新北市土城區裕生路61號","121.447606666667","24.9860466666667","6501300","土城區"
"236078","166-UM","2017/10/09 17:59:38","新北市土城區永寧路32巷1號","121.428906666667","24.9596483333333","6501300","土城區"
"236030","253-BX","2017/10/09 17:59:45","新北市土城區城林路6巷80號","121.438553333333","24.9795866666667","6501300","土城區"
"236026","269-VK","2017/10/09 17:59:31","新北市土城區承天路67號","121.43947","24.96359","6501300","土城區"
"236014","270-VK","2017/10/09 17:59:41","新北市土城區城林路6巷80號","121.438536666667","24.9795983333333","6501300","土城區"
"236036","271-VK","2017/10/09 17:59:44","新北市土城區城林路6巷80號","121.438445","24.9797316666667","6501300","土城區"
"236020","401-BY","2017/10/09 17:59:38","新北市土城區城林路6巷80號","121.438775","24.9797416666667","6501300","土城區"
"236058","912-UM","2017/10/09 17:59:52","新北市土城區永寧路6號","121.430363333333","24.9640033333333","6501300","土城區"
"236048","913-UM","2017/10/09 17:54:55","新北市土城區中央路二段268號","121.441416666667","24.974425","6501300","土城區"
"236062","915-UM","2017/10/09 17:59:51","新北市土城區城林路6巷80號","121.438478333333","24.979765","6501300","土城區"
"236053","AAC-216","2017/10/09 17:59:35","新北市土城區城林路6巷80號","121.438558333333","24.9797833333333","6501300","土城區"
"242031","AAC-296","2017/10/09 17:59:43","新北市新莊區新泰路289巷21號","121.444571666667","25.0404016666667","6500500","新莊區"
"242029","986-R7","2017/10/09 17:59:47","新北市新莊區中平路32號","121.444763333333","25.0434783333333","6500500","新莊區"
"242050","751-BX","2017/10/09 17:59:45","新北市新莊區民安西路135號","121.426456666667","25.0177316666667","6500500","新莊區"
"242025","615-BX","2017/10/09 17:59:36","新北市新莊區五工路80號","121.457488333333","25.0638583333333","6500500","新莊區"
"242023","613-BX","2017/10/09 17:59:42","新北市新莊區福壽街58號","121.458271666667","25.0489566666667","6500500","新莊區"
"242027","612-BX","2017/10/09 17:59:49","新北市新莊區中原路1號","121.459503333333","25.054435","6500500","新莊區"
"242039","566-BX","2017/10/09 17:59:43","新北市新莊區民安西路10號","121.426586666667","25.021715","6500500","新莊區"
"242044","497-BY","2017/10/09 17:59:31","新北市新莊區雙鳳路163巷2號","121.412756666667","25.026895","6500500","新莊區"
"242056","442-UM","2017/10/09 17:59:43","新北市新莊區豐年街124巷18號","121.445506666667","25.0298816666667","6500500","新莊區"
"242048","441-UM","2017/10/09 17:59:44","新北市新莊區萬安街40巷2號","121.421141666667","25.0242783333333","6500500","新莊區"
"242053","440-UM","2017/10/09 17:59:51","新北市新莊區光華街40號","121.428741666667","25.011455","6500500","新莊區"
"242004","413-TV","2017/10/09 17:59:49","新北市新莊區思源路177巷31號","121.459211666667","25.04664","6500500","新莊區"
"242034","400-BY","2017/10/09 17:59:36","新北市新莊區中正路421巷19號","121.444635","25.0334883333333","6500500","新莊區"
"242060","362-BY","2017/10/09 17:59:48","新北市新莊區新樹路73號","121.437785","25.0277083333333","6500500","新莊區"
"242058","353-BY","2017/10/09 17:59:52","新北市新莊區壽山路49-1號","121.414663333333","25.0308566666667","6500500","新莊區"
"242007","132-UY","2017/10/09 17:59:51","新北市新莊區自信街65巷16號","121.455563333333","25.0488083333333","6500500","新莊區"
"242036","133-UY","2017/10/09 17:59:35","新北市新莊區中正路685號","121.426","25.029505","6500500","新莊區"
"242021","135-UY","2017/10/09 17:59:40","新北市新莊區建興街41巷4號","121.44989","25.0372233333333","6500500","新莊區"
"242046","172-VK","2017/10/09 17:59:48","新北市新莊區福營路195巷24號","121.431938333333","25.0297716666667","6500500","新莊區"
"242009","173-VK","2017/10/09 17:59:46","新北市新莊區中華路二段282號","121.452638333333","25.0535616666667","6500500","新莊區"
"242015","175-VK","2017/10/09 17:59:43","新北市新莊區中平路87巷1號","121.444541666667","25.0456566666667","6500500","新莊區"
"242002","176-VK","2017/10/09 17:59:36","新北市新莊區中正路161-1號","121.45536","25.0366466666667","6500500","新莊區"
"242013","346-TH","2017/10/09 17:59:45","新北市新莊區中和街125巷5號","121.447018333333","25.0485766666667","6500500","新莊區"
"242042","347-TH","2017/10/09 17:59:37","新北市泰山區壽山路54號","121.420173333333","25.0291483333333","6500500","新莊區"
"242019","348-TH","2017/10/09 17:59:52","新北市新莊區中港路48巷23弄16號","121.456751666667","25.0387183333333","6500500","新莊區"
"242017","350-TH","2017/10/09 17:59:44","新北市新莊區中和街58號","121.448156666667","25.044725","6500500","新莊區"
"238015","755-BX","2017/10/09 17:59:42","新北市樹林區啟智街80巷10號","121.419038333333","24.99244","6500700","樹林區"
"238023","601-UM","2017/10/09 17:59:50","新北市樹林區龍興街29號","121.403255","25.016005","6500700","樹林區"
"238019","599-UM","2017/10/09 17:59:39","新北市樹林區忠孝街101巷1號","121.424691666667","24.9810566666667","6500700","樹林區"
"238018","571-TV","2017/10/09 17:59:34","新北市樹林區樹新路122號","121.43013","24.9984066666667","6500700","樹林區"
"238021","KEA-2217","2017/10/09 17:59:36","新北市樹林區柑園街一段47號","121.403273333333","24.960225","6500700","樹林區"
"238022","KEA-2213","2017/10/09 17:59:49","新北市樹林區太元街66號","121.418618333333","24.979115","6500700","樹林區"
"238025","303-VK","2017/10/09 17:59:40","新北市樹林區三俊街47號","121.412698333333","25.015665","6500700","樹林區"
"238017","283-BY","2017/10/09 17:59:34","新北市樹林區三俊街81巷2號","121.41578","25.0154583333333","6500700","樹林區"
"238014","282-BY","2017/10/09 17:59:49","新北市樹林區保安街一段293號","121.417946666667","24.997215","6500700","樹林區"
"238020","268-VK","2017/10/09 17:59:30","新北市樹林區俊興街282號","121.418288333333","25.0169116666667","6500700","樹林區"
"238026","172-UY","2017/10/09 17:59:40","新北市樹林區中洲街16號","121.397338333333","24.9724216666667","6500700","樹林區"
"238016","169-UY","2017/10/09 17:59:07","新北市樹林區啟智街151巷16號","121.416301666667","24.98749","6500700","樹林區"
"239007","AAC-297","2017/10/09 17:59:30","新北市鶯歌區尖山埔路189號","121.345525","24.9506566666667","6500800","鶯歌區"
"239006","891-R6","2017/10/09 17:59:42","新北市鶯歌區鶯桃路431號","121.332553333333","24.965115","6500800","鶯歌區"
"239008","527-UM","2017/10/09 17:59:46","新北市鶯歌區香賓街13巷9號","121.336663333333","24.9798316666667","6500800","鶯歌區"
"239005","526-UM","2017/10/09 17:59:31","新北市鶯歌區鶯桃路668巷73號","121.32991","24.9717883333333","6500800","鶯歌區"
"239001","417-VK","2017/10/09 17:59:43","新北市鶯歌區中正三路153-1號","121.336581666667","24.940045","6500800","鶯歌區"
"239003","360-BY","2017/10/09 17:59:36","新北市鶯歌區永吉街7巷1號","121.336713333333","24.9586466666667","6500800","鶯歌區"
"239002","359-BY","2017/10/09 17:59:42","新北市鶯歌區中山路249巷4弄69號","121.347848333333","24.95672","6500800","鶯歌區"
"221008","489-VK","2017/10/09 17:59:46","新北市汐止區明峰街17號","121.634666666667","25.07133","6501100","汐止區"
"221036","130-UY","2017/10/09 17:59:41","新北市汐止區大同路三段42號","121.66716","25.07678","6501100","汐止區"
"221015","131-UY","2017/10/09 17:59:44","新北市汐止區長江街333號","121.666921666667","25.0819016666667","6501100","汐止區"
"221010","269-BY","2017/10/09 17:59:48","新北市汐止區汐萬路二段275巷1弄28號","121.646171666667","25.0881033333333","6501100","汐止區"
"221012","278-VK","2017/10/09 17:59:41","新北市汐止區長興街二段32號","121.673358333333","25.0814433333333","6501100","汐止區"
"221023","279-VK","2017/10/09 17:59:48","新北市汐止區民族六街1巷1號","121.629148333333","25.0707866666667","6501100","汐止區"
"221032","280-BY","2017/10/09 17:59:35","新北市汐止區橫科路73巷43號","121.619255","25.0517666666667","6501100","汐止區"
"221027","281-BY","2017/10/09 17:59:38","新北市汐止區大同路二段374號","121.65778","25.067205","6501100","汐止區"
"221029","298-VK","2017/10/09 17:59:37","新北市汐止區樟樹二路344-1號","121.641525","25.07056","6501100","汐止區"
"221021","299-VK","2017/10/09 17:59:39","新北市汐止區新興路22號","121.65645","25.06452","6501100","汐止區"
"221031","353-TW","2017/10/09 17:59:33","新北市汐止區中興路152-3號","121.632451666667","25.0646866666667","6501100","汐止區"
"221035","622-UM","2017/10/09 17:59:40","新北市汐止區新江北路30巷20號","121.651931666667","25.069385","6501100","汐止區"
"221025","623-UM","2017/10/09 17:59:47","新北市汐止區仁愛路49號","121.65976","25.06311","6501100","汐止區"
"221038","646-BX","2017/10/09 17:59:41","新北市汐止區連興街128巷7弄10號","121.6535","25.061255","6501100","汐止區"
"221033","647-BX","2017/10/09 17:59:27","新北市汐止區合順街35號","121.620555","25.0431983333333","6501100","汐止區"
"221002","707-TV","2017/10/09 17:59:41","新北市汐止區工建路161-5號","121.637383333333","25.0631866666667","6501100","汐止區"
"221018","753-BX","2017/10/09 17:59:44","新北市汐止區招商街6號","121.666525","25.0687033333333","6501100","汐止區"
"242011","280-VK","2017/10/09 17:59:48","新北市新莊區中榮街56巷13弄2號","121.449166666667","25.0534966666667","6500500","新莊區"
