"lineid","car","time","location","longitude","latitude","cityid","cityname"
"234007","207-UY","2017/10/09 18:29:33","新北市永和區環河西路二段217巷1號","121.501495","25.0101983333333","6500400","永和區"
"234081","298-R6","2017/10/09 18:29:43","新北市永和區林森路46巷1號","121.524931666667","25.00479","6500400","永和區"
"234038","336-UY","2017/10/09 18:29:36","新北市永和區福和路1號","121.52672","25.0100583333333","6500400","永和區"
"234086","338-UY","2017/10/09 18:29:39","新北市永和區福和路14號","121.524241666667","25.0085133333333","6500400","永和區"
"234042","862-TW","2017/10/09 18:29:46","新北市永和區豫溪街217巷27號","121.524623333333","25.010405","6500400","永和區"
"234050","863-TW","2017/10/09 18:29:33","新北市永和區福和路1號","121.526441666667","25.0097683333333","6500400","永和區"
"234026","9371-KE","2017/10/09 18:29:44","新北市永和區豫溪街52巷18號","121.515706666667","25.00915","6500400","永和區"
"234011","9373-KE","2017/10/09 18:29:38","新北市永和區保福路二段156號","121.509185","25.0150233333333","6500400","永和區"
"249005","172-UM","2017/10/09 18:29:53","新北市八里區中華路三段90號","121.39327","25.13919","6502300","八里區"
"249001","173-UM","2017/10/09 18:29:35","新北市八里區龍米路一段126號","121.453125","25.125325","6502300","八里區"
"249004","303-UY","2017/10/09 18:29:43","新北市八里區忠孝路71-1號","121.4267","25.1603916666667","6502300","八里區"
"249002","305-UY","2017/10/09 18:29:44","新北市八里區龍形三街26號","121.448016666667","25.1316716666667","6502300","八里區"
"248016","026-BX","2017/10/09 18:29:37","新北市五股區凌雲路一段83巷34號","121.449335","25.1010383333333","6501500","五股區"
"248006","077-UY","2017/10/09 18:29:42","新北市五股區四維路4號","121.467236666667","25.0712933333333","6501500","五股區"
"248008","095-VK","2017/10/09 18:29:51","新北市五股區四維路185巷42弄1號","121.463631666667","25.0768766666667","6501500","五股區"
"248018","225-UY","2017/10/09 18:29:38","新北市五股區民義路二段52巷27號","121.411036666667","25.1136983333333","6501500","五股區"
"248012","247-BX","2017/10/09 18:29:40","新北市五股區御成路140號","121.441023333333","25.0943016666667","6501500","五股區"
"248014","261-SL","2017/10/09 18:29:51","新北市五股區明德路7巷20號","121.43462","25.0708683333333","6501500","五股區"
"248010","272-BY","2017/10/09 18:29:44","新北市五股區明德路8號","121.43332","25.071655","6501500","五股區"
"248004","677-BX","2017/10/09 18:29:46","新北市五股區工商路150號","121.433165","25.0873966666667","6501500","五股區"
"248002","678-BX","2017/10/09 18:29:51","新北市五股區西雲路152號","121.446275","25.0944116666667","6501500","五股區"
"234077","969-R7","2017/10/09 18:29:47","新北市永和區環河東路二段92號","121.524513333333","25.0105433333333","6500400","永和區"
"234074","AAC-211","2017/10/09 18:29:51","新北市永和區福和路1號","121.526203333333","25.0095166666667","6500400","永和區"
"244013","069-UM","2017/10/09 18:29:36","新北市林口區中山路262-1號","121.384603333333","25.07992","6501700","林口區"
"244007","080-UY","2017/10/09 18:29:41","新北市林口區林口路113巷6弄1號","121.388695","25.0806066666667","6501700","林口區"
"244019","403-UM","2017/10/09 18:29:41","新北市林口區麗園路89號","121.373101666667","25.0687233333333","6501700","林口區"
"244025","742-UY","2017/10/09 18:29:51","新北市林口區南勢六街30巷52號","121.356593333333","25.0713483333333","6501700","林口區"
"244009","410-SL","2017/10/09 18:29:34","新北市林口區文林一街11巷68號","121.376925","25.086965","6501700","林口區"
"244023","483-VK","2017/10/09 18:29:37","新北市林口區四維路245巷12號","121.381871666667","25.0749983333333","6501700","林口區"
"244017","485-VK","2017/10/09 18:29:45","新北市林口區八德路78號","121.365633333333","25.0656166666667","6501700","林口區"
"244011","656-BX","2017/10/09 18:29:49","新北市林口區興林路17巷5弄1號","121.390536666667","25.07704","6501700","林口區"
"244021","838-TS","2017/10/09 18:29:46","新北市林口區自強二街61號","121.399503333333","25.0769316666667","6501700","林口區"
"243013","AAD-798","2017/10/09 18:29:34","新北市泰山區明志路三段181號","121.424381666667","25.0391016666667","6501600","泰山區"
"243009","297-R6","2017/10/09 15:46:05","新北市泰山區黎明路25號","121.422011666667","25.0610133333333","6501600","泰山區"
"243012","646-TV","2017/10/09 18:29:54","新北市泰山區忠孝街10號","121.427631666667","25.0647033333333","6501600","泰山區"
"243016","680-BX","2017/10/09 15:40:07","新北市泰山區犁頭窠3-1號","121.422113333333","25.0606","6501600","泰山區"
"222003","436-BY","2017/10/09 18:29:42","新北市深坑區旺耽路12-1號","121.628723333333","25.0050633333333","6501800","深坑區"
"222001","628-TS","2017/10/09 18:29:41","新北市深坑區北深路一段185號","121.631643333333","25.010325","6501800","深坑區"
"222002","659-BX","2017/10/09 18:29:37","新北市深坑區雲鄉路135號","121.622558333333","24.9980566666667","6501800","深坑區"
"231059","046-UY","2017/10/09 18:29:39","新北市新店區安華路28-1號","121.519543333333","24.960825","6500600","新店區"
"231061","047-UY","2017/10/09 18:29:39","新北市新店區安華路28-1號","121.519325","24.96093","6500600","新店區"
"231060","106-UY","2017/10/09 18:29:40","新北市新店區安華路28-1號","121.519611666667","24.96081","6500600","新店區"
"231047","108-UY","2017/10/09 18:29:51","新北市新店區安華路28-1號","121.519438333333","24.9610566666667","6500600","新店區"
"231051","110-UY","2017/10/09 18:29:37","新北市新店區安華路28-1號","121.519301666667","24.9613866666667","6500600","新店區"
"231052","187-VK","2017/10/09 18:29:54","新北市新店區新烏路一段18號","121.546601666667","24.9512566666667","6500600","新店區"
"231064","188-VK","2017/10/09 18:29:48","新北市新店區安華路28-1號","121.519235","24.9613266666667","6500600","新店區"
"231050","215-TC","2017/10/09 18:29:53","新北市新店區安華路28-1號","121.519691666667","24.961275","6500600","新店區"
"231057","256-BX","2017/10/09 18:29:39","新北市新店區環河路17號","121.537456666667","24.961435","6500600","新店區"
"231063","268-BY","2017/10/09 18:29:37","新北市新店區安華路28-1號","121.519366666667","24.9605683333333","6500600","新店區"
"231046","278-BY","2017/10/09 18:29:46","新北市新店區直潭八街46號","121.53267","24.9393316666667","6500600","新店區"
"231054","AAD-862","2017/10/09 18:29:54","新北市新店區安華路28-1號","121.519656666667","24.9611616666667","6500600","新店區"
"231041","355-BY","2017/10/09 18:29:45","新北市新店區安華路28-1號","121.519198333333","24.96095","6500600","新店區"
"231058","3712-VJ","2017/10/09 18:29:36","新北市新店區文中路16號","121.537941666667","24.9568633333333","6500600","新店區"
"231055","3713-VJ","2017/10/09 18:29:40","新北市新店區中正路154巷12號","121.541993333333","24.9722483333333","6500600","新店區"
"231056","4716-K9","2017/10/09 18:29:50","新北市新店區二十張路88號","121.53637","24.9799166666667","6500600","新店區"
"231067","4772-VM","2017/10/09 18:29:37","新北市新店區安華路3號","121.519043333333","24.96052","6500600","新店區"
"231065","513-UM","2017/10/09 18:29:37","新北市新店區安華路28-1號","121.519316666667","24.9610733333333","6500600","新店區"
"231040","619-UM","2017/10/09 18:29:44","新北市新店區安華路28-1號","121.519391666667","24.9607533333333","6500600","新店區"
"231042","641-BX","2017/10/09 18:29:42","新北市新店區安華路28-1號","121.519625","24.9605533333333","6500600","新店區"
"231049","719-UM","2017/10/09 18:29:44","新北市新店區安華路28-1號","121.519458333333","24.9613466666667","6500600","新店區"
"231062","720-UM","2017/10/09 18:29:54","新北市新店區安華路28-1號","121.519345","24.9612266666667","6500600","新店區"
"231044","897-TW","2017/10/09 18:29:40","新北市新店區安華路28-1號","121.519568333333","24.9607266666667","6500600","新店區"
"231045","898-TW","2017/10/09 18:29:40","新北市新店區安華路28-1號","121.519395","24.96099","6500600","新店區"
"231043","899-TW","2017/10/09 18:29:54","新北市新店區安華路28-1號","121.51934","24.960815","6500600","新店區"
"231066","AKT-0513","2017/10/09 18:29:46","新北市新店區安華路1-1號","121.519516666667","24.960335","6500600","新店區"
"235066","003-UY","2017/10/09 18:29:43","新北市中和區中山路二段120號","121.502665","25.0038316666667","6500300","中和區"
"235064","005-UY","2017/10/09 18:29:47","新北市中和區連城路139巷64號","121.496801666667","24.9968883333333","6500300","中和區"
"235063","006-UY","2017/10/09 18:29:54","新北市中和區連城路347巷16弄29號","121.487456666667","24.9950733333333","6500300","中和區"
"235056","096-UM","2017/10/09 18:29:45","新北市中和區員山路611巷1號","121.477851666667","25.0112733333333","6500300","中和區"
"235039","097-UM","2017/10/09 18:29:52","新北市中和區安平路149號","121.512148333333","24.9980583333333","6500300","中和區"
"235065","098-UM","2017/10/09 18:29:45","新北市中和區莊敬路49巷18號","121.501685","25.006165","6500300","中和區"
"235004","150-BY","2017/10/09 18:29:41","新北市中和區安平路38號","121.509815","24.9949466666667","6500300","中和區"
"235058","151-BY","2017/10/09 18:29:52","新北市中和區圓通路369巷30弄86號","121.488716666667","24.98496","6500300","中和區"
"235055","183-VK","2017/10/09 18:29:44","新北市中和區中山路三段90號","121.477758333333","25.0056516666667","6500300","中和區"
"235038","185-VK","2017/10/09 18:29:39","新北市中和區自立路127號","121.521883333333","24.9941033333333","6500300","中和區"
"235049","186-VK","2017/10/09 18:29:39","新北市中和區景平路359號","121.50463","24.99329","6500300","中和區"
"235044","293-VK","2017/10/09 18:29:52","新北市中和區復興路301巷7號","121.501546666667","24.9899166666667","6500300","中和區"
"235072","301-VK","2017/10/09 18:29:43","新北市中和區連城路171巷10號","121.495618333333","24.9975766666667","6500300","中和區"
"235043","352-BY","2017/10/09 18:29:38","新北市中和區景平路295號","121.506933333333","24.9931783333333","6500300","中和區"
"235068","375-QA","2017/10/09 18:29:46","新北市中和區錦和路350-1號","121.490473333333","24.9935333333333","6500300","中和區"
"235051","376-QA","2017/10/09 18:29:55","新北市中和區興南路二段128巷7弄6號","121.503025","24.9840366666667","6500300","中和區"
"235061","378-QA","2017/10/09 18:29:49","新北市中和區民享街96號","121.474768333333","24.9997183333333","6500300","中和區"
"235050","4979-A6","2017/10/09 18:29:44","新北市中和區景新街329號","121.511791666667","24.9914","6500300","中和區"
"235069","4980-A6","2017/10/09 18:29:50","新北市中和區連城路125號","121.496128333333","24.9992266666667","6500300","中和區"
"235042","551-UM","2017/10/09 18:29:53","新北市中和區自立路56巷10號","121.522948333333","24.9917833333333","6500300","中和區"
"235070","558-UM","2017/10/09 18:28:34","新北市中和區圓通路115號","121.49931","24.9964033333333","6500300","中和區"
"235045","565-BX","2017/10/09 18:29:37","新北市中和區南山路236巷22弄8號","121.505576666667","24.9892566666667","6500300","中和區"
"235054","640-BX","2017/10/09 18:29:48","新北市中和區民享街95-5號","121.474963333333","24.9999733333333","6500300","中和區"
"235060","647-TV","2017/10/09 18:29:43","新北市中和區員山路357號","121.48124","25.001995","6500300","中和區"
"235047","732-UM","2017/10/09 18:29:53","新北市中和區南山路300號","121.507905","24.9870933333333","6500300","中和區"
"235062","800-TS","2017/10/09 18:29:46","新北市中和區景平路722-2號","121.496821666667","25.003095","6500300","中和區"
"235057","801-TS","2017/10/09 18:29:55","新北市中和區民享街97巷19號","121.475355","24.9995916666667","6500300","中和區"
"235052","805-TS","2017/10/09 18:29:45","新北市中和區興南路二段96號","121.505031666667","24.9841066666667","6500300","中和區"
"235048","896-TW","2017/10/09 18:29:38","新北市中和區中正路83號","121.500641666667","24.99344","6500300","中和區"
"235053","900-TW","2017/10/09 18:29:41","新北市中和區民享街467號","121.469856666667","24.9925716666667","6500300","中和區"
"235037","AAC-213","2017/10/09 18:29:35","新北市中和區景德街95-10號","121.515121666667","24.9911566666667","6500300","中和區"
"235059","AAC-215","2017/10/09 18:29:35","新北市中和區員山路36巷16-3號","121.485086666667","24.9913566666667","6500300","中和區"
"220065","072-UY","2017/10/09 18:29:44","新北市板橋區華東街1-9號","121.448135","24.9949383333333","6500100","板橋區"
"220068","120-SR","2017/10/09 18:29:36","新北市板橋區民生路二段120號","121.470343333333","25.0198016666667","6500100","板橋區"
"247008","053-VK","2017/10/09 18:29:51","新北市八里區中山路三段380號","121.369931666667","25.1365416666667","6501400","蘆洲區"
"226004","312-R5","2017/10/09 18:29:46","新北市平溪區薯榔里一坑路1號","121.714073333333","25.021365","6502400","平溪區"
"228003","097-TW","2017/10/09 18:29:38","新北市貢寮區和美里和美街40-1號","121.912626666667","25.089995","6502600","貢寮區"
"228002","585-TW","2017/10/09 18:29:45","新北市貢寮區福連里福連街7號","121.989203333333","25.014115","6502600","貢寮區"
"228001","670-TC","2017/10/09 18:29:45","新北市貢寮區仁理村仁和路92號","121.922803333333","25.0504366666667","6502600","貢寮區"
"224010","AGQ-8101","2017/10/09 18:22:57","新北市瑞芳區金光路334號","121.848443333333","25.109885","6501200","瑞芳區"
"224006","676-BX","2017/10/09 18:29:40","新北市瑞芳區逢甲路70-1號","121.810785","25.10839","6501200","瑞芳區"
"224002","639-TC","2017/10/09 18:29:46","新北市瑞芳區正貿新村7號","121.812888333333","25.10599","6501200","瑞芳區"
"224009","285-BY","2017/10/09 18:29:48","新北市瑞芳區金光路115號","121.853501666667","25.106255","6501200","瑞芳區"
"224008","275-VK","2017/10/09 18:29:54","新北市瑞芳區逢甲路20-2號","121.80941","25.10877","6501200","瑞芳區"
"224007","273-VK","2017/10/09 18:29:44","新北市瑞芳區大埔路國宅新村58號","121.764813333333","25.10029","6501200","瑞芳區"
"224005","271-BY","2017/10/09 18:29:54","新北市瑞芳區豎崎路32-5號","121.82471","25.1209366666667","6501200","瑞芳區"
"227001","642-TC","2017/10/09 18:29:51","新北市雙溪區魚行里新店76號","121.871848333333","25.026665","6502500","雙溪區"
"227008","400-TW","2017/10/09 18:29:47","新北市雙溪區牡丹里牡丹131號","121.850953333333","25.0591183333333","6502500","雙溪區"
"253005","032-BX","2017/10/09 18:29:44","新北市石門區老崩山6-1號","121.552611666667","25.2912583333333","6502200","石門區"
"253006","295-VK","2017/10/09 18:29:44","新北市石門區公地20號","121.545778333333","25.2902666666667","6502200","石門區"
"208002","742-BX","2017/10/09 18:29:37","新北市金山區民生路69號","121.640138333333","25.2197966666667","6502700","金山區"
"208003","665-BX","2017/10/09 18:29:52","新北市金山區中山路16號","121.64169","25.218125","6502700","金山區"
"208001","761-BX","2017/10/09 18:29:43","新北市金山區中山路92號","121.640098333333","25.2190483333333","6502700","金山區"
"251004","009-UM","2017/10/09 18:23:25","新北市淡水區民族路31-26號","121.461966666667","25.136175","6501000","淡水區"
"251001","011-UM","2017/10/09 18:29:48","新北市淡水區自強路357號","121.464165","25.1329983333333","6501000","淡水區"
"251008","181-VK","2017/10/09 18:29:44","新北市淡水區水源街二段346巷1弄1號","121.465023333333","25.1759583333333","6501000","淡水區"
"251013","182-VK","2017/10/09 18:29:49","新北市淡水區椿子林20-2號","121.481288333333","25.2034633333333","6501000","淡水區"
"251010","413-VK","2017/10/09 18:29:45","新北市淡水區沙崙路181巷1號","121.424156666667","25.1841916666667","6501000","淡水區"
"251012","441-VK","2017/10/09 18:29:54","新北市淡水區北新路一段175號","121.45939","25.1822366666667","6501000","淡水區"
"251015","442-VK","2017/10/09 18:29:52","新北市淡水區興福寮88巷216號","121.48601","25.1665716666667","6501000","淡水區"
"251006","561-UM","2017/10/09 18:29:53","新北市淡水區新生街51巷35號","121.44078","25.1759416666667","6501000","淡水區"
"251011","650-BX","2017/10/09 18:29:49","新北市淡水區中正東路一段87-1號","121.453105","25.1616533333333","6501000","淡水區"
"251002","672-BX","2017/10/09 18:29:53","新北市淡水區中正東路一段21巷12號","121.452518333333","25.164215","6501000","淡水區"
"251003","673-BX","2017/10/09 18:29:53","新北市淡水區北投子1-1號","121.447271666667","25.1805516666667","6501000","淡水區"
"207003","550-UM","2017/10/09 18:29:46","新北市萬里區野柳里港東路162-15號","121.690546666667","25.2041316666667","6502800","萬里區"
"207004","225-TW","2017/10/09 18:29:49","新北市萬里區萬里里瑪鋉路12-3號","121.687673333333","25.1755216666667","6502800","萬里區"
"252003","249-BX","2017/10/09 18:29:45","新北市三芝區後厝里北勢子41-5號","121.472515","25.2530933333333","6502100","三芝區"
"252001","292-VK","2017/10/09 18:29:48","新北市三芝區中興街二段2號","121.4984","25.2566783333333","6502100","三芝區"
"237004","078-UY","2017/10/09 18:29:46","新北市三峽區圳頭96號","121.380731666667","24.8761516666667","6500900","三峽區"
"237007","153-BY","2017/10/09 18:29:37","新北市三峽區中正路三段70巷50號","121.35547","24.9048266666667","6500900","三峽區"
"237009","210-TH","2017/10/09 18:29:53","新北市三峽區大勇路36巷27號","121.365398333333","24.93696","6500900","三峽區"
"237013","252-BX","2017/10/09 18:29:45","新北市三峽區永安街3號","121.377976666667","24.9299783333333","6500900","三峽區"
"237012","275-BY","2017/10/09 18:29:43","新北市三峽區三樹路112號","121.378391666667","24.9393166666667","6500900","三峽區"
"237008","302-VK","2017/10/09 18:29:51","新北市三峽區白雞68-209號","121.390631666667","24.9084733333333","6500900","三峽區"
"237014","433-BY","2017/10/09 18:29:53","新北市三峽區文化路3號","121.373281666667","24.9356016666667","6500900","三峽區"
"237006","5529-G3","2017/10/09 18:29:39","新北市三峽區溪東路473巷75號","121.415353333333","24.929355","6500900","三峽區"
"237011","572-TV","2017/10/09 18:13:28","新北市三峽區介壽路三段20號","121.395988333333","24.93623","6500900","三峽區"
"237015","649-BX","2017/10/09 18:29:52","新北市三峽區竹崙路111號","121.433391666667","24.9116783333333","6500900","三峽區"
"237010","706-TV","2017/10/09 18:14:43","新北市三峽區民族街62號","121.369636666667","24.9303166666667","6500900","三峽區"
"237005","AKY-6261","2017/10/09 18:29:55","新北市三峽區仁愛街5號","121.368475","24.93396","6500900","三峽區"
"236069","105-UM","2017/10/09 18:29:36","新北市土城區永豐路255巷23弄1號","121.475208333333","24.9733983333333","6501300","土城區"
"236042","107-UM","2017/10/09 18:29:46","新北市土城區學成路91巷1號","121.450531666667","24.9878","6501300","土城區"
"236078","166-UM","2017/10/09 18:29:38","新北市土城區中央路三段285號","121.425976666667","24.96318","6501300","土城區"
"236030","253-BX","2017/10/09 18:29:45","新北市土城區水源街81巷4號","121.439531666667","24.9763366666667","6501300","土城區"
"236026","269-VK","2017/10/09 18:29:51","新北市土城區南天母路137-4號","121.447536666667","24.9542383333333","6501300","土城區"
"236014","270-VK","2017/10/09 18:29:41","新北市土城區青雲路39巷7號","121.460325","24.9875966666667","6501300","土城區"
"236036","271-VK","2017/10/09 18:29:44","新北市土城區青雲路483巷13弄44號","121.46034","24.97458","6501300","土城區"
"236020","401-BY","2017/10/09 18:29:38","新北市土城區永豐路202巷7號","121.466301666667","24.9833","6501300","土城區"
"236058","912-UM","2017/10/09 18:29:52","新北市土城區信義路2號","121.412875","24.9544133333333","6501300","土城區"
"236048","913-UM","2017/10/09 18:28:42","新北市土城區青雲路362巷5號","121.458486666667","24.9737666666667","6501300","土城區"
"236062","915-UM","2017/10/09 18:29:52","新北市土城區延壽路41號","121.47081","24.9915733333333","6501300","土城區"
"236053","AAC-216","2017/10/09 18:29:42","新北市土城區中華路二段101號","121.439226666667","24.9773833333333","6501300","土城區"
"242031","AAC-296","2017/10/09 18:29:43","新北市新莊區新泰路357巷3弄1號","121.442316666667","25.0414283333333","6500500","新莊區"
"242029","986-R7","2017/10/09 18:29:46","新北市新莊區新泰路357巷3弄57號","121.442058333333","25.0390516666667","6500500","新莊區"
"242050","751-BX","2017/10/09 18:29:45","新北市新莊區新樹路605號","121.433185","25.00565","6500500","新莊區"
"242053","440-UM","2017/10/09 18:29:48","新北市新莊區保安街一段14巷61弄4號","121.430301666667","24.9964916666667","6500500","新莊區"
"242060","362-BY","2017/10/09 18:29:48","新北市新莊區新樹路69號","121.438893333333","25.0299483333333","6500500","新莊區"
"242058","353-BY","2017/10/09 18:29:52","新北市新莊區中正路879-14號","121.417705","25.0260233333333","6500500","新莊區"
"242007","132-UY","2017/10/09 18:29:47","新北市新莊區中港路259號","121.453795","25.0433033333333","6500500","新莊區"
"242046","172-VK","2017/10/09 18:29:41","新北市新莊區中正路803巷49號","121.422275","25.0279016666667","6500500","新莊區"
"242002","176-VK","2017/10/09 18:29:55","新北市新莊區新莊路16-3號","121.458846666667","25.0375233333333","6500500","新莊區"
"242042","347-TH","2017/10/09 18:29:37","新北市新莊區中正路694巷126號","121.416241666667","25.0299783333333","6500500","新莊區"
"238015","755-BX","2017/10/09 18:29:42","新北市樹林區啟智街173巷2號","121.41566","24.9876383333333","6500700","樹林區"
"238023","601-UM","2017/10/09 18:29:43","新北市樹林區三福街67巷23號","121.407276666667","25.0153266666667","6500700","樹林區"
"238019","599-UM","2017/10/09 18:29:39","新北市樹林區中華路190-16號","121.411628333333","24.980605","6500700","樹林區"
"238018","571-TV","2017/10/09 18:29:55","新北市樹林區樹新路135號","121.428436666667","24.9961883333333","6500700","樹林區"
"238024","5061-A6","2017/10/09 18:29:53","新北市樹林區中山路一段31號","121.424701666667","24.9929216666667","6500700","樹林區"
"238025","303-VK","2017/10/09 18:29:39","新北市樹林區福德街43-1號","121.400206666667","24.9749416666667","6500700","樹林區"
"238017","283-BY","2017/10/09 18:29:54","新北市樹林區光榮街79號","121.412011666667","25.0030533333333","6500700","樹林區"
"238014","282-BY","2017/10/09 18:29:49","新北市樹林區大安路316號","121.417353333333","24.99188","6500700","樹林區"
"238020","268-VK","2017/10/09 18:29:51","新北市樹林區三俊街180號","121.41817","25.0154916666667","6500700","樹林區"
"238026","172-UY","2017/10/09 18:29:40","新北市樹林區八德街828-16號","121.392565","24.9690933333333","6500700","樹林區"
"238016","169-UY","2017/10/09 18:29:47","新北市樹林區文化街28號","121.419388333333","24.987825","6500700","樹林區"
"239007","AAC-297","2017/10/09 18:29:50","新北市鶯歌區建國路278號","121.346975","24.953295","6500800","鶯歌區"
"239008","527-UM","2017/10/09 18:23:15","新北市鶯歌區國際一路179號","121.336265","24.97652","6500800","鶯歌區"
"239005","526-UM","2017/10/09 18:29:50","新北市鶯歌區鳳吉二街23號","121.325908333333","24.973035","6500800","鶯歌區"
"239001","417-VK","2017/10/09 18:29:43","新北市鶯歌區國中街178號","121.338258333333","24.9392166666667","6500800","鶯歌區"
"239003","360-BY","2017/10/09 18:29:36","新北市鶯歌區福安街58號","121.335595","24.9652166666667","6500800","鶯歌區"
"239002","359-BY","2017/10/09 18:29:42","新北市鶯歌區中正一路460號","121.364495","24.9564416666667","6500800","鶯歌區"
"239004","193-VK","2017/10/09 18:29:46","新北市鶯歌區尖山路240巷21弄6號","121.342623333333","24.9476033333333","6500800","鶯歌區"
"221008","489-VK","2017/10/09 18:29:46","新北市汐止區康寧街901號","121.651401666667","25.0750983333333","6501100","汐止區"
"221036","130-UY","2017/10/09 18:29:41","新北市汐止區長興街一段6號","121.669581666667","25.0785183333333","6501100","汐止區"
"221015","131-UY","2017/10/09 18:29:44","新北市汐止區鄉友街72號","121.669705","25.0820716666667","6501100","汐止區"
"221010","269-BY","2017/10/09 18:29:48","新北市汐止區汐萬路三段56號","121.643831666667","25.0929333333333","6501100","汐止區"
"221012","278-VK","2017/10/09 18:29:51","新北市汐止區保長路37巷2號","121.673055","25.07909","6501100","汐止區"
"221023","279-VK","2017/10/09 18:29:44","新北市汐止區康寧街520-1號","121.633788333333","25.0687966666667","6501100","汐止區"
"221032","280-BY","2017/10/09 18:29:55","新北市汐止區民權街二段113號","121.618711666667","25.0467583333333","6501100","汐止區"
"221027","281-BY","2017/10/09 18:29:37","新北市汐止區和平街46巷15號","121.662478333333","25.0717566666667","6501100","汐止區"
"221029","298-VK","2017/10/09 18:29:37","新北市汐止區樟樹一路272-7號","121.642773333333","25.0689683333333","6501100","汐止區"
"221021","299-VK","2017/10/09 18:29:44","新北市汐止區復興路42號","121.656566666667","25.0629983333333","6501100","汐止區"
"221031","353-TW","2017/10/09 18:29:53","新北市汐止區大同路一段405-1號","121.641526666667","25.0602433333333","6501100","汐止區"
"221035","622-UM","2017/10/09 18:29:40","新北市汐止區大同路二段276號","121.654776666667","25.0663433333333","6501100","汐止區"
"221025","623-UM","2017/10/09 18:29:47","新北市汐止區仁愛路122巷18號","121.663515","25.0631533333333","6501100","汐止區"
"221038","646-BX","2017/10/09 18:29:41","新北市汐止區忠孝東路254號","121.663","25.0674933333333","6501100","汐止區"
"221033","647-BX","2017/10/09 18:29:47","新北市汐止區宜興街94號","121.622863333333","25.043135","6501100","汐止區"
"221002","707-TV","2017/10/09 18:29:41","新北市汐止區福德一路146號","121.636745","25.0669733333333","6501100","汐止區"
"221018","753-BX","2017/10/09 18:29:44","新北市汐止區茄苳路213號","121.67071","25.06891","6501100","汐止區"
"220094","283-UM","2017/10/09 04:28:39","新北市板橋區民生路二段161巷1號","121.470121666667","25.0200566666667","6500100","板橋區"
"220084","296-UM","2017/10/09 18:29:38","新北市板橋區華東街1-9號","121.448143333333","24.99496","6500100","板橋區"
"220064","486-VK","2017/10/09 18:29:36","新北市板橋區華東街1-8號","121.447808333333","24.9947966666667","6500100","板橋區"
"220035","560-BX","2017/10/09 18:29:42","新北市板橋區南雅南路二段144巷2號","121.451491666667","24.9963333333333","6500100","板橋區"
