"lineid","car","time","location","longitude","latitude","cityid","cityname"
"234046","148-BY","2017/10/09 18:39:44","新北市永和區林森路46巷1號","121.52489","25.0047566666667","6500400","永和區"
"234013","149-BY","2017/10/09 18:39:49","新北市永和區保安路116號","121.50936","25.0157766666667","6500400","永和區"
"234007","207-UY","2017/10/09 18:39:53","新北市永和區文化路170號","121.511811666667","25.01558","6500400","永和區"
"234081","298-R6","2017/10/09 18:39:43","新北市永和區林森路68號","121.523796666667","25.0040316666667","6500400","永和區"
"234038","336-UY","2017/10/09 18:39:36","新北市永和區福和路1號","121.526735","25.0100466666667","6500400","永和區"
"234086","338-UY","2017/10/09 18:39:39","新北市中和區安和路21號","121.510916666667","24.9940483333333","6500400","永和區"
"234070","552-UM","2017/10/09 18:39:40","新北市永和區環河東路二段92號","121.524431666667","25.0106333333333","6500400","永和區"
"234054","553-UM","2017/10/09 18:39:52","新北市永和區福和路1號","121.525993333333","25.0096516666667","6500400","永和區"
"234017","745-BX","2017/10/09 18:39:38","新北市永和區福和路1號","121.526126666667","25.0096633333333","6500400","永和區"
"234030","746-BX","2017/10/09 18:39:35","新北市永和區成功路一段146號","121.52676","25.0016516666667","6500400","永和區"
"234061","AAD-866","2017/10/09 18:39:53","新北市永和區豫溪街217巷19號","121.524876666667","25.0101716666667","6500400","永和區"
"234042","862-TW","2017/10/09 18:39:45","新北市永和區永貞路306號","121.511933333333","25.0048483333333","6500400","永和區"
"234050","863-TW","2017/10/09 18:39:53","新北市永和區竹林路91巷55弄5-1號","121.521823333333","25.014045","6500400","永和區"
"234026","9371-KE","2017/10/09 18:39:44","新北市永和區永貞路417巷9號","121.50687","25.00918","6500400","永和區"
"234011","9373-KE","2017/10/09 18:39:38","新北市永和區文化路9巷22弄46號","121.51413","25.0145316666667","6500400","永和區"
"249005","172-UM","2017/10/09 18:39:33","新北市八里區中華路三段232號","121.38838","25.1244","6502300","八里區"
"249001","173-UM","2017/10/09 18:39:35","新北市八里區龍米路一段348-3號","121.451528333333","25.1309933333333","6502300","八里區"
"249004","303-UY","2017/10/09 18:39:43","新北市八里區中山路一段29-1號","121.421541666667","25.1591933333333","6502300","八里區"
"249002","305-UY","2017/10/09 18:39:43","新北市八里區頂寮二街138號","121.449323333333","25.1294633333333","6502300","八里區"
"248016","026-BX","2017/10/09 18:39:37","新北市五股區凌雲路一段149巷42號","121.448608333333","25.1009033333333","6501500","五股區"
"248008","095-VK","2017/10/09 18:39:51","新北市五股區中興路一段149號","121.465131666667","25.07356","6501500","五股區"
"248018","225-UY","2017/10/09 18:36:58","新北市五股區民義路二段122號","121.405316666667","25.113985","6501500","五股區"
"248012","247-BX","2017/10/09 18:39:40","新北市五股區西雲路1號","121.442363333333","25.0900133333333","6501500","五股區"
"248014","261-SL","2017/10/09 18:39:51","新北市五股區成泰路一段235-1號","121.436161666667","25.0795066666667","6501500","五股區"
"248010","272-BY","2017/10/09 18:39:44","新北市五股區水碓七路170號","121.431073333333","25.0739516666667","6501500","五股區"
"248004","677-BX","2017/10/09 18:39:46","新北市五股區民義路一段236-6號","121.427478333333","25.091265","6501500","五股區"
"248002","678-BX","2017/10/09 18:39:45","新北市五股區西雲路221號","121.448808333333","25.0968883333333","6501500","五股區"
"234023","9380-KE","2017/10/09 18:39:35","新北市永和區福和路76巷5弄14號","121.522353333333","25.0084266666667","6500400","永和區"
"234077","969-R7","2017/10/09 18:39:47","新北市中和區安樂路101-3號","121.51351","24.9950816666667","6500400","永和區"
"234074","AAC-211","2017/10/09 18:39:51","新北市永和區福和路1號","121.526508333333","25.009875","6500400","永和區"
"234067","AAC-212","2017/10/09 18:39:26","新北市永和區安樂路268號","121.514591666667","25.0038566666667","6500400","永和區"
"234003","AAC-295","2017/10/09 18:39:51","新北市永和區福和路1號","121.526581666667","25.0099416666667","6500400","永和區"
"244013","069-UM","2017/10/09 18:39:36","新北市林口區中正路514巷31號","121.382188333333","25.0781","6501700","林口區"
"244007","080-UY","2017/10/09 18:39:41","新北市林口區後湖11-63號","121.387028333333","25.09762","6501700","林口區"
"244019","403-UM","2017/10/09 18:39:41","新北市林口區忠孝路594巷16號","121.375971666667","25.0674033333333","6501700","林口區"
"244025","742-UY","2017/10/09 18:39:51","新北市林口區南勢三街21號","121.358361666667","25.0775","6501700","林口區"
"244009","410-SL","2017/10/09 18:39:54","新北市林口區林口路202號","121.387255","25.0832266666667","6501700","林口區"
"244023","483-VK","2017/10/09 18:39:37","新北市林口區民享路38號","121.380778333333","25.0807133333333","6501700","林口區"
"244017","485-VK","2017/10/09 18:39:45","新北市林口區文化二路一段112號","121.367358333333","25.0705566666667","6501700","林口區"
"244011","656-BX","2017/10/09 18:39:49","新北市林口區新寮1-82號","121.392675","25.07684","6501700","林口區"
"244021","838-TS","2017/10/09 18:39:46","新北市林口區工六路52號","121.39926","25.0780966666667","6501700","林口區"
"243013","AAD-798","2017/10/09 18:39:34","新北市泰山區明志路三段206巷3號","121.42329","25.037925","6501600","泰山區"
"243009","297-R6","2017/10/09 15:46:05","新北市泰山區黎明路25號","121.422011666667","25.0610133333333","6501600","泰山區"
"243015","380-SR","2017/10/09 18:39:52","新北市泰山區犁頭窠3-1號","121.422298333333","25.0605833333333","6501600","泰山區"
"243012","646-TV","2017/10/09 18:39:54","新北市泰山區福興三街13號","121.43447","25.0577533333333","6501600","泰山區"
"243016","680-BX","2017/10/09 15:40:07","新北市泰山區犁頭窠3-1號","121.422113333333","25.0606","6501600","泰山區"
"222003","436-BY","2017/10/09 18:39:42","新北市深坑區翠谷街81巷1號","121.628043333333","25.0091733333333","6501800","深坑區"
"222001","628-TS","2017/10/09 18:39:41","新北市深坑區北深路一段82號","121.636365","25.010755","6501800","深坑區"
"222002","659-BX","2017/10/09 18:39:36","新北市深坑區雲鄉路2號","121.62095","24.9996283333333","6501800","深坑區"
"231059","046-UY","2017/10/09 18:39:39","新北市新店區安華路28-1號","121.519528333333","24.9608366666667","6500600","新店區"
"231061","047-UY","2017/10/09 18:39:39","新北市新店區安華路28-1號","121.519288333333","24.9609533333333","6500600","新店區"
"231060","106-UY","2017/10/09 18:39:40","新北市新店區安華路28-1號","121.519608333333","24.9608","6500600","新店區"
"231047","108-UY","2017/10/09 18:39:51","新北市新店區光明街141號","121.53932","24.9621633333333","6500600","新店區"
"231051","110-UY","2017/10/09 18:39:37","新北市新店區安康路一段122-1號","121.526951666667","24.9626983333333","6500600","新店區"
"231052","187-VK","2017/10/09 18:39:47","新北市新店區永興路12號","121.54524","24.9400166666667","6500600","新店區"
"231064","188-VK","2017/10/09 18:39:48","新北市新店區安華路28-1號","121.519316666667","24.961305","6500600","新店區"
"231050","215-TC","2017/10/09 18:39:33","新北市新店區安華路28-1號","121.519798333333","24.96124","6500600","新店區"
"231057","256-BX","2017/10/09 18:39:39","新北市新店區新烏路一段201號","121.548155","24.93194","6500600","新店區"
"231063","268-BY","2017/10/09 18:39:37","新北市新店區安華路28-1號","121.519541666667","24.9605666666667","6500600","新店區"
"231046","278-BY","2017/10/09 18:39:46","新北市新店區直潭二街1號","121.535561666667","24.9432083333333","6500600","新店區"
"231054","AAD-862","2017/10/09 18:39:54","新北市新店區安康路一段235-1號","121.525115","24.963285","6500600","新店區"
"231041","355-BY","2017/10/09 18:39:45","新北市新店區安華路28-1號","121.51928","24.9607016666667","6500600","新店區"
"231058","3712-VJ","2017/10/09 18:39:36","新北市新店區國校路76-1號","121.538623333333","24.9531016666667","6500600","新店區"
"231055","3713-VJ","2017/10/09 18:39:40","新北市新店區華興街38巷3號","121.537215","24.9692733333333","6500600","新店區"
"231056","4716-K9","2017/10/09 18:39:50","新北市新店區自立街66號","121.537705","24.9795466666667","6500600","新店區"
"231067","4772-VM","2017/10/09 18:39:37","新北市新店區安華路28-1號","121.519258333333","24.9607416666667","6500600","新店區"
"231065","513-UM","2017/10/09 18:39:37","新北市新店區安華路28-1號","121.51925","24.9611283333333","6500600","新店區"
"231040","619-UM","2017/10/09 18:39:44","新北市新店區安華路28-1號","121.519426666667","24.960745","6500600","新店區"
"231042","641-BX","2017/10/09 18:39:43","新北市新店區安華路28-1號","121.51966","24.9606116666667","6500600","新店區"
"231049","719-UM","2017/10/09 18:39:44","新北市新店區安康路一段105號","121.52891","24.9615916666667","6500600","新店區"
"231062","720-UM","2017/10/09 18:39:54","新北市新店區安華路28-1號","121.519348333333","24.9612","6500600","新店區"
"231044","897-TW","2017/10/09 18:39:40","新北市新店區光明街129號","121.539241666667","24.9619116666667","6500600","新店區"
"231045","898-TW","2017/10/09 18:39:40","新北市新店區安華路28-1號","121.519366666667","24.9608733333333","6500600","新店區"
"231043","899-TW","2017/10/09 18:39:34","新北市新店區安華路28-1號","121.519303333333","24.9608533333333","6500600","新店區"
"231066","AKT-0513","2017/10/09 18:39:46","新北市新店區安華路1-1號","121.519455","24.9604233333333","6500600","新店區"
"235066","003-UY","2017/10/09 18:39:43","新北市中和區水源路20號","121.504195","25.0035266666667","6500300","中和區"
"235064","005-UY","2017/10/09 18:39:47","新北市中和區連城路89巷40號","121.497605","24.9986916666667","6500300","中和區"
"235063","006-UY","2017/10/09 18:39:54","新北市中和區連城路347巷4弄1-3號","121.48823","24.99555","6500300","中和區"
"235056","096-UM","2017/10/09 18:39:45","新北市中和區員山路611巷1號","121.477878333333","25.0112633333333","6500300","中和區"
"235039","097-UM","2017/10/09 18:39:52","新北市永和區安樂路46號","121.51466","24.9970916666667","6500300","中和區"
"235065","098-UM","2017/10/09 18:39:45","新北市中和區莊敬路49巷17號","121.501408333333","25.0056883333333","6500300","中和區"
"235004","150-BY","2017/10/09 18:39:41","新北市中和區宜安路47巷2號","121.511725","24.9964183333333","6500300","中和區"
"235058","151-BY","2017/10/09 18:39:52","新北市中和區員山路66-4號","121.481883333333","24.9918966666667","6500300","中和區"
"235055","183-VK","2017/10/09 18:39:44","新北市中和區中山路三段229巷61-3號","121.468941666667","25.0052116666667","6500300","中和區"
"235038","185-VK","2017/10/09 18:39:39","新北市中和區大勇街45巷1號","121.51815","24.99483","6500300","中和區"
"235049","186-VK","2017/10/09 18:39:39","新北市中和區景安路175號","121.505243333333","24.9943216666667","6500300","中和區"
"235067","255-BX","2017/10/09 18:39:38","新北市中和區新生街264號","121.483741666667","24.9971383333333","6500300","中和區"
"235044","293-VK","2017/10/09 18:39:52","新北市中和區復興路280巷13號","121.502276666667","24.99127","6500300","中和區"
"235072","301-VK","2017/10/09 18:39:37","新北市中和區連城路87號","121.496811666667","25.0002466666667","6500300","中和區"
"235043","352-BY","2017/10/09 18:39:38","新北市中和區景平路151號","121.513728333333","24.992035","6500300","中和區"
"235068","375-QA","2017/10/09 18:39:46","新北市中和區中正路213號","121.497115","24.9937083333333","6500300","中和區"
"235051","376-QA","2017/10/09 18:39:55","新北市中和區華新街143巷106弄11號","121.506281666667","24.978815","6500300","中和區"
"235061","378-QA","2017/10/09 18:39:50","新北市中和區民享街92巷2號","121.474831666667","25.00014","6500300","中和區"
"235050","4979-A6","2017/10/09 18:39:44","新北市中和區忠孝街99-3號","121.512075","24.9862066666667","6500300","中和區"
"235069","4980-A6","2017/10/09 18:39:50","新北市中和區景平路597號","121.497075","25.0005866666667","6500300","中和區"
"235042","551-UM","2017/10/09 18:39:34","新北市中和區成功路97巷5弄13號","121.526485","24.99211","6500300","中和區"
"235070","558-UM","2017/10/09 18:39:34","新北市中和區景新街146號","121.50537","24.9976066666667","6500300","中和區"
"235045","565-BX","2017/10/09 18:39:42","新北市中和區南山路236巷15號","121.505683333333","24.9887433333333","6500300","中和區"
"235054","640-BX","2017/10/09 18:39:48","新北市中和區民享街86巷32號","121.47307","25.00067","6500300","中和區"
"235060","647-TV","2017/10/09 18:39:43","新北市中和區中山路二段562號","121.483051666667","25.00527","6500300","中和區"
"235047","732-UM","2017/10/09 18:39:53","新北市中和區南山路318號","121.50795","24.986645","6500300","中和區"
"235062","800-TS","2017/10/09 18:39:46","新北市中和區中山路二段312巷33弄12號","121.494835","25.0039083333333","6500300","中和區"
"235057","801-TS","2017/10/09 18:39:47","新北市中和區民安街42巷38弄2號","121.47904","25.0015433333333","6500300","中和區"
"235041","802-TS","2017/10/09 18:39:38","新北市中和區景安路40號","121.506951666667","24.9983083333333","6500300","中和區"
"235052","805-TS","2017/10/09 18:39:45","新北市中和區興南路三段52-2號","121.493971666667","24.9755983333333","6500300","中和區"
"235048","896-TW","2017/10/09 18:39:38","新北市中和區南山路168號","121.50483","24.9913966666667","6500300","中和區"
"235053","900-TW","2017/10/09 18:39:54","新北市中和區華安街99號","121.468283333333","24.9962416666667","6500300","中和區"
"235037","AAC-213","2017/10/09 18:39:49","新北市中和區景德街88號","121.516066666667","24.9915516666667","6500300","中和區"
"235059","AAC-215","2017/10/09 18:39:35","新北市中和區錦和路350-1號","121.490276666667","24.99355","6500300","中和區"
"220065","072-UY","2017/10/09 18:39:44","新北市板橋區板城路421號","121.448625","24.9961366666667","6500100","板橋區"
"220086","073-UY","2017/10/09 18:39:39","新北市板橋區南雅西路一段39巷30號","121.452796666667","25.0044333333333","6500100","板橋區"
"220068","120-SR","2017/10/09 18:39:36","新北市板橋區民生路二段120號","121.470415","25.01968","6500100","板橋區"
"247008","053-VK","2017/10/09 18:38:51","新北市八里區荖阡坑路34-2號","121.401231666667","25.130135","6501400","蘆洲區"
"226004","312-R5","2017/10/09 18:39:46","新北市平溪區石底里石底街93-1號","121.732185","25.0230283333333","6502400","平溪區"
"228003","097-TW","2017/10/09 18:39:38","新北市貢寮區和美里龍洞街26號","121.916116666667","25.1087116666667","6502600","貢寮區"
"228002","585-TW","2017/10/09 18:39:45","新北市貢寮區福連里福連街34號","121.988325","25.0121083333333","6502600","貢寮區"
"228001","670-TC","2017/10/09 18:39:45","新北市貢寮區仁理村保健街73號","121.923738333333","25.0517","6502600","貢寮區"
"224010","AGQ-8101","2017/10/09 18:38:22","新北市瑞芳區街頂巷39號","121.84485","25.1073183333333","6501200","瑞芳區"
"224006","676-BX","2017/10/09 18:39:40","新北市瑞芳區明燈路三段55號","121.806108333333","25.108205","6501200","瑞芳區"
"224002","639-TC","2017/10/09 18:39:40","新北市瑞芳區三爪子坑路106巷1-10號","121.808325","25.1052533333333","6501200","瑞芳區"
"224009","285-BY","2017/10/09 18:39:48","新北市瑞芳區新山路43號","121.855926666667","25.1083316666667","6501200","瑞芳區"
"224008","275-VK","2017/10/09 18:39:34","新北市瑞芳區岳王路1巷41號","121.80566","25.110445","6501200","瑞芳區"
"224007","273-VK","2017/10/09 18:39:44","新北市瑞芳區大埔路79號","121.76383","25.1016233333333","6501200","瑞芳區"
"224005","271-BY","2017/10/09 18:39:54","新北市瑞芳區建基路一段50巷51號","121.817918333333","25.1281016666667","6501200","瑞芳區"
"227001","642-TC","2017/10/09 18:39:51","新北市雙溪區魚行里坤溪3-5號","121.875771666667","25.021195","6502500","雙溪區"
"227008","400-TW","2017/10/09 18:39:47","新北市雙溪區牡丹里牡丹216號","121.850661666667","25.0564816666667","6502500","雙溪區"
"253005","032-BX","2017/10/09 18:39:44","新北市石門區石門街9號","121.565951666667","25.2909116666667","6502200","石門區"
"253006","295-VK","2017/10/09 18:39:44","新北市石門區楓林28-5號","121.542623333333","25.2897983333333","6502200","石門區"
"208002","742-BX","2017/10/09 18:39:37","新北市金山區忠孝一路19巷17號","121.637378333333","25.21779","6502700","金山區"
"208003","665-BX","2017/10/09 18:39:53","新北市金山區中山路174-1號","121.638268333333","25.22118","6502700","金山區"
"208001","761-BX","2017/10/09 18:39:43","新北市金山區文化三路26號","121.635756666667","25.2245966666667","6502700","金山區"
"251004","009-UM","2017/10/09 18:39:25","新北市淡水區中正東路143巷10弄1號","121.461928333333","25.1478566666667","6501000","淡水區"
"251001","011-UM","2017/10/09 18:39:44","新北市淡水區自強路415巷2號","121.465501666667","25.13422","6501000","淡水區"
"251008","181-VK","2017/10/09 18:39:44","新北市淡水區北投子73-1號","121.453355","25.18281","6501000","淡水區"
"251013","182-VK","2017/10/09 18:39:49","新北市淡水區雲廣坑9號","121.477466666667","25.2107383333333","6501000","淡水區"
"251010","413-VK","2017/10/09 18:39:45","新北市淡水區沙崙路141-1號","121.423291666667","25.1829316666667","6501000","淡水區"
"251012","441-VK","2017/10/09 18:39:34","新北市淡水區北新路一段22號","121.454706666667","25.181205","6501000","淡水區"
"251015","442-VK","2017/10/09 18:39:52","新北市淡水區興福寮66巷26號","121.486366666667","25.16224","6501000","淡水區"
"251006","561-UM","2017/10/09 18:39:38","新北市淡水區崁頂36-7號","121.438785","25.1931383333333","6501000","淡水區"
"251011","650-BX","2017/10/09 18:39:49","新北市淡水區中正東路83-2號","121.44838","25.1661416666667","6501000","淡水區"
"251002","672-BX","2017/10/09 18:39:53","新北市淡水區中正東路27號","121.448203333333","25.1662833333333","6501000","淡水區"
"251003","673-BX","2017/10/09 18:39:39","新北市淡水區北新路69巷2號","121.446196666667","25.17956","6501000","淡水區"
"207003","550-UM","2017/10/09 18:39:46","新北市萬里區野柳里港東路97-1號","121.688191666667","25.203825","6502800","萬里區"
"207004","225-TW","2017/10/09 18:39:49","新北市萬里區萬里里獅頭路12-4號","121.6936","25.1795266666667","6502800","萬里區"
"252002","178-VK","2017/10/09 18:39:45","新北市三芝區民生街54巷14號","121.503905","25.2553533333333","6502100","三芝區"
"252003","249-BX","2017/10/09 18:39:45","新北市三芝區後厝里北勢子54-3號","121.466968333333","25.249935","6502100","三芝區"
"252001","292-VK","2017/10/09 18:39:48","新北市三芝區中興街二段54號","121.499593333333","25.2549366666667","6502100","三芝區"
"237004","078-UY","2017/10/09 18:39:46","新北市三峽區插角82號","121.406205","24.87087","6500900","三峽區"
"237007","153-BY","2017/10/09 18:39:37","新北市三峽區中正路二段536號","121.360645","24.9063766666667","6500900","三峽區"
"237009","210-TH","2017/10/09 18:39:33","新北市三峽區大勇路36巷27號","121.36544","24.9369733333333","6500900","三峽區"
"237013","252-BX","2017/10/09 18:39:37","新北市三峽區永安街9巷4號","121.37739","24.9296833333333","6500900","三峽區"
"237012","275-BY","2017/10/09 18:39:43","新北市三峽區三樹路322號","121.38158","24.9441283333333","6500900","三峽區"
"237008","302-VK","2017/10/09 18:39:51","新北市三峽區白雞81-1號","121.40343","24.9091916666667","6500900","三峽區"
"237014","433-BY","2017/10/09 18:39:39","新北市三峽區和平街69號","121.370118333333","24.9370133333333","6500900","三峽區"
"237006","5529-G3","2017/10/09 18:39:39","新北市三峽區溪東路315巷42號","121.41126","24.9311866666667","6500900","三峽區"
"237011","572-TV","2017/10/09 18:13:28","新北市三峽區介壽路三段20號","121.395988333333","24.93623","6500900","三峽區"
"237015","649-BX","2017/10/09 18:39:52","新北市三峽區竹崙路61號","121.43132","24.9216133333333","6500900","三峽區"
"237010","706-TV","2017/10/09 18:39:43","新北市三峽區復興路449號","121.362628333333","24.9386833333333","6500900","三峽區"
"237005","AKY-6261","2017/10/09 18:39:35","新北市三峽區清水街314號","121.37251","24.9344266666667","6500900","三峽區"
"236069","105-UM","2017/10/09 18:39:36","新北市土城區永豐路157巷29弄6-1號","121.468373333333","24.98149","6501300","土城區"
"236042","107-UM","2017/10/09 18:39:46","新北市土城區裕民路55巷14號","121.44939","24.98851","6501300","土城區"
"236078","166-UM","2017/10/09 18:39:38","新北市土城區中央路四段46巷28號","121.421936666667","24.961655","6501300","土城區"
"236026","269-VK","2017/10/09 18:39:51","新北市土城區金城路一段66號","121.443031666667","24.9714183333333","6501300","土城區"
"236014","270-VK","2017/10/09 18:39:41","新北市土城區青雲路183巷2號","121.459265","24.9826733333333","6501300","土城區"
"236036","271-VK","2017/10/09 18:39:44","新北市土城區明德路一段313巷7號","121.45967","24.97597","6501300","土城區"
"236020","401-BY","2017/10/09 18:39:38","新北市土城區延吉街311號","121.46597","24.984395","6501300","土城區"
"236058","912-UM","2017/10/09 18:39:52","新北市土城區中央路三段282號","121.426555","24.9634266666667","6501300","土城區"
"236048","913-UM","2017/10/09 18:39:47","新北市土城區明德路一段18號","121.46503","24.984985","6501300","土城區"
"236062","915-UM","2017/10/09 18:39:51","新北市土城區延壽路13巷15號","121.470563333333","24.9906816666667","6501300","土城區"
"236053","AAC-216","2017/10/09 18:39:35","新北市土城區裕民路2號","121.446678333333","24.98926","6501300","土城區"
"242050","751-BX","2017/10/09 18:39:45","新北市樹林區八德街395號","121.4155","24.9714366666667","6500500","新莊區"
"242002","176-VK","2017/10/09 18:39:35","新北市新莊區碧江街18-7號","121.455428333333","25.034645","6500500","新莊區"
"242042","347-TH","2017/10/09 18:39:37","新北市泰山區新生路164號","121.431971666667","25.0423033333333","6500500","新莊區"
"238015","755-BX","2017/10/09 18:39:42","新北市樹林區備內街150-2號","121.407818333333","24.989255","6500700","樹林區"
"238023","601-UM","2017/10/09 18:39:43","新北市樹林區三福街114號","121.406486666667","25.0163333333333","6500700","樹林區"
"238019","599-UM","2017/10/09 18:39:39","新北市樹林區中華路190-6號","121.410775","24.98072","6500700","樹林區"
"238018","571-TV","2017/10/09 18:39:34","新北市樹林區樹新路30-3號","121.427235","24.994725","6500700","樹林區"
"238024","5061-A6","2017/10/09 18:39:53","新北市樹林區中華路190號","121.41207","24.9804483333333","6500700","樹林區"
"238025","303-VK","2017/10/09 18:39:39","新北市樹林區中山路三段22號","121.395636666667","24.973035","6500700","樹林區"
"238014","282-BY","2017/10/09 18:38:49","新北市樹林區中山路三段214號","121.379871666667","24.9677816666667","6500700","樹林區"
"238020","268-VK","2017/10/09 18:39:50","新北市樹林區俊英街282號","121.423728333333","25.01334","6500700","樹林區"
"238026","172-UY","2017/10/09 18:39:40","新北市樹林區育德街78-1號","121.38819","24.9681683333333","6500700","樹林區"
"238016","169-UY","2017/10/09 18:39:47","新北市樹林區文化街28號","121.419276666667","24.9876883333333","6500700","樹林區"
"239007","AAC-297","2017/10/09 18:39:50","新北市鶯歌區中正一路461-2號","121.36343","24.9565866666667","6500800","鶯歌區"
"239008","527-UM","2017/10/09 18:23:15","新北市鶯歌區國際一路179號","121.336265","24.97652","6500800","鶯歌區"
"239005","526-UM","2017/10/09 18:39:50","新北市鶯歌區鳳吉一街141號","121.328431666667","24.975095","6500800","鶯歌區"
"239001","417-VK","2017/10/09 18:39:43","新北市鶯歌區二橋街82巷1號","121.337115","24.9383216666667","6500800","鶯歌區"
"239003","360-BY","2017/10/09 18:39:36","新北市鶯歌區永和街69號","121.33305","24.9678116666667","6500800","鶯歌區"
"239004","193-VK","2017/10/09 18:39:39","新北市鶯歌區尖山路312號","121.340391666667","24.9432683333333","6500800","鶯歌區"
"221008","489-VK","2017/10/09 18:39:46","新北市汐止區康寧街901號","121.65143","25.0750616666667","6501100","汐止區"
"221036","130-UY","2017/10/09 18:39:41","新北市汐止區南昌街27號","121.663205","25.0692466666667","6501100","汐止區"
"221015","131-UY","2017/10/09 18:39:44","新北市汐止區鄉長路二段16號","121.668626666667","25.0815316666667","6501100","汐止區"
"221010","269-BY","2017/10/09 18:39:48","新北市汐止區瑞松街15號","121.645351666667","25.1052266666667","6501100","汐止區"
"221012","278-VK","2017/10/09 18:39:41","新北市汐止區長興街一段37號","121.66995","25.0790683333333","6501100","汐止區"
"221023","279-VK","2017/10/09 18:39:44","新北市汐止區康寧街604號","121.635991666667","25.0708166666667","6501100","汐止區"
"221032","280-BY","2017/10/09 18:39:35","新北市汐止區民權街二段93號","121.618995","25.0474833333333","6501100","汐止區"
"221027","281-BY","2017/10/09 18:39:48","新北市汐止區中正路7號","121.663053333333","25.0699533333333","6501100","汐止區"
"221029","298-VK","2017/10/09 18:39:37","新北市汐止區樟樹一路136號","121.642231666667","25.0648616666667","6501100","汐止區"
"221021","299-VK","2017/10/09 18:39:39","新北市汐止區新興路42號","121.65702","25.0632866666667","6501100","汐止區"
"221031","353-TW","2017/10/09 18:39:33","新北市汐止區中興路108號","121.633325","25.0637583333333","6501100","汐止區"
"221035","622-UM","2017/10/09 18:39:40","新北市汐止區汐萬路一段17號","121.655953333333","25.0674366666667","6501100","汐止區"
"221025","623-UM","2017/10/09 18:39:47","新北市汐止區仁愛路119巷27號","121.661998333333","25.0645","6501100","汐止區"
"221038","646-BX","2017/10/09 18:39:41","新北市汐止區汐萬路一段256巷3號","121.653331666667","25.0746533333333","6501100","汐止區"
"221033","647-BX","2017/10/09 18:39:47","台北市南港區舊莊街二段10巷1號","121.625993333333","25.0375783333333","6501100","汐止區"
"221002","707-TV","2017/10/09 18:39:41","新北市汐止區中興路23號","121.636931666667","25.059595","6501100","汐止區"
"221018","753-BX","2017/10/09 18:39:44","新北市汐止區茄苳路259號","121.672056666667","25.06829","6501100","汐止區"
"220079","145-BY","2017/10/09 18:39:38","新北市板橋區大觀路一段31號","121.449865","25.00851","6500100","板橋區"
"220082","610-BX","2017/10/09 18:39:32","新北市板橋區華東街1-8號","121.447906666667","24.99483","6500100","板橋區"
"220056","276-BY","2017/10/09 18:39:43","新北市板橋區四川路二段140巷16弄23號","121.448366666667","24.9940516666667","6500100","板橋區"
"220072","277-BY","2017/10/09 18:39:39","新北市板橋區四川路二段橋頭7號","121.446595","24.994145","6500100","板橋區"
"220094","283-UM","2017/10/09 04:28:39","新北市板橋區民生路二段161巷1號","121.470121666667","25.0200566666667","6500100","板橋區"
"220053","285-VK","2017/10/09 18:39:45","新北市板橋區民生路二段161巷1號","121.470233333333","25.0200783333333","6500100","板橋區"
"220083","286-VK","2017/10/09 18:39:35","新北市板橋區華東街1-9號","121.448085","24.9949033333333","6500100","板橋區"
"220081","287-VK","2017/10/09 18:39:33","新北市板橋區華東街1-10號","121.448251666667","24.9950316666667","6500100","板橋區"
"220090","288-VK","2017/10/09 18:39:40","新北市板橋區民生路二段161巷3號","121.470133333333","25.0197433333333","6500100","板橋區"
"220061","293-UM","2017/10/09 18:39:36","新北市板橋區民生路二段161巷3號","121.47027","25.019855","6500100","板橋區"
"220084","296-UM","2017/10/09 18:39:38","新北市板橋區板城路421號","121.448135","24.9957166666667","6500100","板橋區"
"220075","297-UM","2017/10/09 18:39:42","新北市板橋區板城路421號","121.448148333333","24.9957166666667","6500100","板橋區"
"220098","299-UM","2017/10/09 16:37:28","新北市板橋區民生路二段120號","121.470303333333","25.019775","6500100","板橋區"
"220080","461-BY","2017/10/09 18:39:45","新北市板橋區大觀路二段435-1號","121.446271666667","24.9944966666667","6500100","板橋區"
"220064","486-VK","2017/10/09 18:39:36","新北市板橋區縣民大道一段295號","121.461","25.01039","6500100","板橋區"
"220035","560-BX","2017/10/09 18:39:42","新北市板橋區南雅西路二段145巷10號","121.451608333333","25.0119633333333","6500100","板橋區"
"220063","609-BX","2017/10/09 16:56:12","新北市板橋區民生路二段161巷1號","121.46994","25.0198583333333","6500100","板橋區"
"220054","630-UY","2017/10/09 18:39:34","新北市板橋區華東街1-9號","121.448131666667","24.9947766666667","6500100","板橋區"
"220057","686-BX","2017/10/09 18:39:43","新北市板橋區華東街1-9號","121.448206666667","24.9948716666667","6500100","板橋區"
"220077","687-BX","2017/10/09 18:39:42","新北市板橋區板城路407號","121.447381666667","24.99517","6500100","板橋區"
"220067","829-TW","2017/10/09 18:39:42","新北市板橋區民生路二段161巷9號","121.47028","25.019585","6500100","板橋區"
"220102","830-TW","2017/10/09 17:08:20","新北市板橋區民生路二段120號","121.470441666667","25.0199266666667","6500100","板橋區"
"220074","895-R6","2017/10/09 18:39:32","新北市板橋區華東街1-10號","121.448801666667","24.9946916666667","6500100","板橋區"
"220073","985-R7","2017/10/09 18:39:40","新北市板橋區華東街1-10號","121.448788333333","24.9947233333333","6500100","板橋區"
"220070","AAC-253","2017/10/09 18:39:37","新北市板橋區華東街1-9號","121.448248333333","24.9948633333333","6500100","板橋區"
