"lineid","car","time","location","longitude","latitude","cityid","cityname"
"234046","148-BY","2017/10/09 19:59:44","新北市永和區永利路151號","121.524613333333","25.0034583333333","6500400","永和區"
"234013","149-BY","2017/10/09 19:59:49","新北市永和區保生路55號","121.504721666667","25.01062","6500400","永和區"
"234007","207-UY","2017/10/09 19:59:33","新北市永和區保生路22巷21號","121.507238333333","25.0081383333333","6500400","永和區"
"234081","298-R6","2017/10/09 19:59:43","新北市永和區國中路12號","121.524366666667","25.0048433333333","6500400","永和區"
"234038","336-UY","2017/10/09 19:59:36","新北市永和區成功路二段165號","121.52667","24.9971916666667","6500400","永和區"
"234064","337-UY","2017/10/09 19:59:46","新北市永和區中正路412巷2弄12號","121.518503333333","25.0018183333333","6500400","永和區"
"234086","338-UY","2017/10/09 19:59:45","新北市永和區竹林路222-1號","121.520551666667","25.0077733333333","6500400","永和區"
"234070","552-UM","2017/10/09 19:59:40","新北市永和區福和路224號","121.519078333333","25.00786","6500400","永和區"
"234054","553-UM","2017/10/09 19:59:52","新北市永和區環河東路一段122號","121.520638333333","25.01549","6500400","永和區"
"234017","745-BX","2017/10/09 19:59:38","新北市永和區文化路108號","121.513513333333","25.0152283333333","6500400","永和區"
"234030","746-BX","2017/10/09 19:59:47","新北市永和區民生路22巷3號","121.522196666667","24.997305","6500400","永和區"
"234061","AAD-866","2017/10/09 19:59:53","新北市永和區中正路277號","121.517303333333","25.0009566666667","6500400","永和區"
"234042","862-TW","2017/10/09 19:59:45","新北市永和區雙和街17巷22號","121.508911666667","25.00145","6500400","永和區"
"234050","863-TW","2017/10/09 19:59:33","新北市永和區保安路210號","121.507545","25.01386","6500400","永和區"
"234026","9371-KE","2017/10/09 19:59:44","新北市永和區水源街21巷14弄3號","121.511371666667","25.0037383333333","6500400","永和區"
"234011","9373-KE","2017/10/09 19:59:37","新北市永和區仁愛路352巷112弄12號","121.501133333333","25.0085933333333","6500400","永和區"
"249005","172-UM","2017/10/09 19:59:52","新北市八里區楓林路1-11號","121.385318333333","25.1313116666667","6502300","八里區"
"249001","173-UM","2017/10/09 19:59:35","新北市八里區中華路二段249-1號","121.403936666667","25.1482666666667","6502300","八里區"
"249004","303-UY","2017/10/09 19:59:32","新北市八里區中華路一段333-1號","121.413035","25.1542","6502300","八里區"
"249002","305-UY","2017/10/09 19:59:43","新北市八里區龍米路一段87巷1號","121.45424","25.123435","6502300","八里區"
"249003","593-UM","2017/10/09 19:59:46","新北市八里區訊塘路2號","121.398428333333","25.1446066666667","6502300","八里區"
"248016","026-BX","2017/10/09 19:59:37","新北市五股區成泰路三段577巷80弄25號","121.449538333333","25.104545","6501500","五股區"
"248008","095-VK","2017/10/09 19:59:51","新北市五股區中興路一段17號","121.469216666667","25.0715183333333","6501500","五股區"
"248018","225-UY","2017/10/09 19:59:18","新北市五股區登林路83-1號","121.425425","25.07051","6501500","五股區"
"248012","247-BX","2017/10/09 19:59:40","新北市五股區民義路一段100號","121.435573333333","25.0851733333333","6501500","五股區"
"248014","261-SL","2017/10/09 19:59:37","新北市五股區五福路22巷6號","121.434665","25.0890066666667","6501500","五股區"
"248010","272-BY","2017/10/09 19:59:44","新北市五股區登林路46巷2號","121.43206","25.0686483333333","6501500","五股區"
"248004","677-BX","2017/10/09 19:59:46","新北市五股區成泰路一段32巷60號","121.434911666667","25.0669616666667","6501500","五股區"
"248002","678-BX","2017/10/09 19:59:45","新北市五股區成泰路三段487號","121.450828333333","25.0994266666667","6501500","五股區"
"234023","9380-KE","2017/10/09 19:59:35","新北市永和區中正路702巷2號","121.516361666667","25.0100966666667","6500400","永和區"
"234077","969-R7","2017/10/09 19:59:47","新北市永和區民有街7號","121.516118333333","24.9970316666667","6500400","永和區"
"234074","AAC-211","2017/10/09 19:59:31","新北市永和區豫溪街215巷11號","121.523866666667","25.00993","6500400","永和區"
"234067","AAC-212","2017/10/09 19:59:45","新北市永和區保平路236巷30號","121.50792","25.007005","6500400","永和區"
"234003","AAC-295","2017/10/09 19:59:51","新北市永和區中正路708號","121.516091666667","25.0099216666667","6500400","永和區"
"243013","AAD-798","2017/10/09 19:59:34","新北市泰山區應化街7號","121.423915","25.0437516666667","6501600","泰山區"
"243009","297-R6","2017/10/09 19:59:47","新北市泰山區楓江路16巷27號","121.43428","25.0613716666667","6501600","泰山區"
"243015","380-SR","2017/10/09 19:59:32","新北市泰山區文程路1號","121.427646666667","25.0497116666667","6501600","泰山區"
"243014","421-VK","2017/10/09 19:59:36","新北市泰山區泰林路二段197號","121.433315","25.06124","6501600","泰山區"
"243010","KEA-2215","2017/10/09 19:59:41","新北市泰山區中華街10巷1號","121.427888333333","25.0525183333333","6501600","泰山區"
"243011","KEA-2216","2017/10/09 19:59:46","新北市泰山區明志路三段217號","121.423906666667","25.038225","6501600","泰山區"
"243012","646-TV","2017/10/09 19:59:34","新北市泰山區全興路105號","121.43363","25.056835","6501600","泰山區"
"243016","680-BX","2017/10/09 19:59:43","新北市泰山區明志路三段423號","121.421408333333","25.03331","6501600","泰山區"
"222003","436-BY","2017/10/09 19:59:47","新北市深坑區北深路二段16號","121.620801666667","25.0044616666667","6501800","深坑區"
"222001","628-TS","2017/10/09 19:59:41","新北市深坑區北深路三段166號","121.602275","25.00346","6501800","深坑區"
"222002","659-BX","2017/10/09 19:59:36","新北市深坑區北深路二段55巷12弄23號","121.618396666667","25.0030833333333","6501800","深坑區"
"231059","046-UY","2017/10/09 19:59:39","新北市新店區安康路二段149-11號","121.511378333333","24.9596166666667","6500600","新店區"
"231061","047-UY","2017/10/09 19:59:39","新北市新店區安民街133巷1號","121.5163","24.9691633333333","6500600","新店區"
"231060","106-UY","2017/10/09 19:59:40","新北市新店區安康路二段341巷3號","121.49738","24.9554566666667","6500600","新店區"
"231047","108-UY","2017/10/09 19:59:31","新北市新店區寶橋路162號","121.549086666667","24.9770766666667","6500600","新店區"
"231051","110-UY","2017/10/09 19:59:49","新北市新店區中央二街22號","121.528521666667","24.973495","6500600","新店區"
"231052","187-VK","2017/10/09 19:59:34","新北市新店區新烏路三段300號","121.548126666667","24.8972316666667","6500600","新店區"
"231064","188-VK","2017/10/09 19:59:48","新北市新店區碧安街7巷9號","121.51662","24.9679866666667","6500600","新店區"
"231050","215-TC","2017/10/09 19:59:53","新北市新店區北宜路二段323號","121.557275","24.9539116666667","6500600","新店區"
"231057","256-BX","2017/10/09 19:59:43","新北市新店區花園二路一段11號","121.555495","24.9324966666667","6500600","新店區"
"231063","268-BY","2017/10/09 19:59:45","新北市新店區黎明路11號","121.502053333333","24.9499733333333","6500600","新店區"
"231054","AAD-862","2017/10/09 19:59:34","新北市新店區北宜路一段7號","121.538073333333","24.9582483333333","6500600","新店區"
"231041","355-BY","2017/10/09 19:59:46","新北市新店區中正路354號","121.535855","24.9756533333333","6500600","新店區"
"231055","3713-VJ","2017/10/09 19:59:40","新北市新店區力行路76號","121.53864","24.9663316666667","6500600","新店區"
"231056","4716-K9","2017/10/09 19:59:30","新北市新店區民權路42巷2號","121.540485","24.98311","6500600","新店區"
"231067","4772-VM","2017/10/09 19:59:37","新北市新店區秀山路11巷8號","121.531831666667","24.95943","6500600","新店區"
"231065","513-UM","2017/10/09 19:59:37","新北市新店區安祥路108巷3號","121.475168333333","24.95878","6500600","新店區"
"231040","619-UM","2017/10/09 19:59:43","新北市新店區中正路100號","121.54326","24.9704733333333","6500600","新店區"
"231042","641-BX","2017/10/09 19:59:42","新北市新店區中正路5號","121.545816666667","24.9691683333333","6500600","新店區"
"231068","718-UY","2017/10/09 19:59:32","新北市新店區安華路28-1號","121.519448333333","24.9612766666667","6500600","新店區"
"231049","719-UM","2017/10/09 19:59:44","新北市新店區明德路38號","121.541445","24.9778216666667","6500600","新店區"
"231062","720-UM","2017/10/09 19:59:54","新北市新店區精忠路7號","121.528628333333","24.955945","6500600","新店區"
"231044","897-TW","2017/10/09 19:59:40","新北市新店區寶慶街70號","121.541785","24.986735","6500600","新店區"
"231045","898-TW","2017/10/09 19:59:40","新北市新店區北宜路二段206號","121.559303333333","24.95432","6500600","新店區"
"231043","899-TW","2017/10/09 19:59:34","新北市新店區中正路263-3號","121.538386666667","24.97389","6500600","新店區"
"231066","AKT-0513","2017/10/09 19:59:46","新北市新店區安興路20號","121.51507","24.9660733333333","6500600","新店區"
"241011","013-R5","2017/10/09 19:59:38","新北市三重區三和路二段220號","121.497823333333","25.0694783333333","6500200","三重區"
"241028","022-UY","2017/10/09 19:59:33","新北市三重區仁化街34號","121.493431666667","25.0601166666667","6500200","三重區"
"241008","059-VK","2017/10/09 19:59:46","新北市三重區永福街179巷3號","121.478665","25.07504","6500200","三重區"
"241009","060-VK","2017/10/09 19:59:35","新北市三重區三和路四段390巷36號","121.480591666667","25.07867","6500200","三重區"
"241031","061-VK","2017/10/09 19:59:52","新北市三重區重新路四段244巷52號","121.48819","25.053845","6500200","三重區"
"241015","062-VK","2017/10/09 19:59:40","新北市三重區三和路二段8號","121.501055","25.0669433333333","6500200","三重區"
"241017","063-VK","2017/10/09 19:59:45","新北市三重區自強路一段306號","121.491301666667","25.068455","6500200","三重區"
"241024","065-VK","2017/10/09 19:59:47","新北市三重區力行路一段277號","121.482138333333","25.0715633333333","6500200","三重區"
"241026","066-VK","2017/10/09 19:59:40","新北市三重區中央南路5號","121.501248333333","25.0629016666667","6500200","三重區"
"241003","091-VK","2017/10/09 19:59:42","新北市三重區仁愛街445巷32號","121.491281666667","25.08322","6500200","三重區"
"241005","262-UM","2017/10/09 19:59:37","新北市三重區溪尾街325巷3弄2號","121.488426666667","25.084285","6500200","三重區"
"241016","266-UM","2017/10/09 19:59:41","新北市三重區正義北路36巷3號","121.497001666667","25.06343","6500200","三重區"
"241022","267-UM","2017/10/09 19:59:48","新北市三重區過圳街31巷2號","121.489018333333","25.0605916666667","6500200","三重區"
"241018","268-UM","2017/10/09 19:59:45","新北市三重區雙園街58號","121.495875","25.067725","6500200","三重區"
"241032","269-UM","2017/10/09 19:59:40","新北市三重區朝陽街46號","121.48326","25.0570416666667","6500200","三重區"
"241013","270-UM","2017/10/09 19:59:45","新北市三重區三和路三段125巷30號","121.493671666667","25.0736966666667","6500200","三重區"
"241025","271-UM","2017/10/09 19:59:48","新北市三重區頂崁街210巷16號","121.4764","25.0677383333333","6500200","三重區"
"241007","398-BY","2017/10/09 19:59:36","新北市三重區慈愛街56號","121.48664","25.0793666666667","6500200","三重區"
"241020","413-TH","2017/10/09 19:59:43","新北市三重區忠孝路一段87號","121.489956666667","25.07211","6500200","三重區"
"241035","462-BY","2017/10/09 19:59:43","新北市三重區大榮街11號","121.498236666667","25.06331","6500200","三重區"
"241004","475-VK","2017/10/09 19:59:47","新北市三重區仁愛街425巷91-1號","121.492263333333","25.08267","6500200","三重區"
"241019","478-VK","2017/10/09 19:59:19","新北市三重區重陽路四段38號","121.491411666667","25.06976","6500200","三重區"
"241030","480-VK","2017/10/09 19:59:52","新北市三重區成功路187號","121.485793333333","25.0529583333333","6500200","三重區"
"241014","543-UM","2017/10/09 19:59:35","新北市三重區三和路二段65號","121.500238333333","25.0678866666667","6500200","三重區"
"241023","545-UM","2017/10/09 19:59:37","新北市三重區大有街1-1號","121.47761","25.0655933333333","6500200","三重區"
"241001","547-UM","2017/10/09 19:59:45","新北市三重區福隆路56號","121.492675","25.07854","6500200","三重區"
"241006","AAD-863","2017/10/09 19:59:43","新北市三重區力行路二段126號","121.482218333333","25.0753883333333","6500200","三重區"
"241012","941-UM","2017/10/09 19:59:41","新北市三重區仁厚街57號","121.500586666667","25.0766366666667","6500200","三重區"
"241029","942-UM","2017/10/09 19:59:46","新北市三重區重新路三段192號","121.490336666667","25.0589283333333","6500200","三重區"
"241033","AAC-255","2017/10/09 19:59:49","新北市三重區中興北街77號","121.469553333333","25.0477983333333","6500200","三重區"
"235066","003-UY","2017/10/09 19:59:43","新北市中和區水源路127巷1號","121.508038333333","25.0033183333333","6500300","中和區"
"235056","096-UM","2017/10/09 19:59:45","新北市中和區中山路三段170巷8弄17號","121.472976666667","25.0076866666667","6500300","中和區"
"235039","097-UM","2017/10/09 19:59:32","新北市中和區景平路278巷14弄15號","121.514725","24.9930333333333","6500300","中和區"
"235065","098-UM","2017/10/09 19:59:45","新北市中和區福美路269號","121.498146666667","25.0050666666667","6500300","中和區"
"235004","150-BY","2017/10/09 19:59:41","新北市中和區保健路12號","121.508036666667","24.9980316666667","6500300","中和區"
"235058","151-BY","2017/10/09 19:59:51","新北市中和區員山路124巷13號","121.481995","24.9960133333333","6500300","中和區"
"235055","183-VK","2017/10/09 19:59:44","新北市中和區德光路15巷2號","121.471203333333","25.0042066666667","6500300","中和區"
"235049","186-VK","2017/10/09 19:59:39","新北市中和區景平路522號","121.50308","24.9941366666667","6500300","中和區"
"235067","255-BX","2017/10/09 19:59:38","新北市中和區新生街186巷12號","121.483033333333","24.9996833333333","6500300","中和區"
"235044","293-VK","2017/10/09 19:59:32","新北市中和區板南路150號","121.502025","24.9927133333333","6500300","中和區"
"235072","301-VK","2017/10/09 19:59:17","新北市樹林區中山路三段214號","121.379966666667","24.9677133333333","6500300","中和區"
"235043","352-BY","2017/10/09 19:59:38","新北市中和區興南路二段159巷7號","121.505403333333","24.9832016666667","6500300","中和區"
"235068","375-QA","2017/10/09 19:59:46","新北市中和區福美路301巷44號","121.497705","25.0034333333333","6500300","中和區"
"235051","376-QA","2017/10/09 19:59:35","新北市中和區中興街233巷8弄8號","121.501261666667","24.989315","6500300","中和區"
"235061","378-QA","2017/10/09 19:59:49","新北市中和區新生街176巷34號","121.48252","24.99973","6500300","中和區"
"235071","269-TV","2017/10/09 19:59:40","新北市中和區永和路504號","121.482841666667","25.0122016666667","6500300","中和區"
"235050","4979-A6","2017/10/09 19:59:44","新北市中和區景平路155巷24號","121.51352","24.9916166666667","6500300","中和區"
"235069","4980-A6","2017/10/09 19:59:29","新北市中和區景新街34巷2弄5號","121.502983333333","24.998985","6500300","中和區"
"235070","558-UM","2017/10/09 19:56:14","新北市中和區連勝街7號","121.499155","24.99834","6500300","中和區"
"235054","640-BX","2017/10/09 19:59:48","新北市中和區莒光路175-3號","121.472713333333","24.9995116666667","6500300","中和區"
"235046","733-UM","2017/10/09 19:59:50","新北市中和區興南路一段93巷58弄1號","121.510635","24.9859316666667","6500300","中和區"
"235062","800-TS","2017/10/09 19:59:46","新北市中和區中正路637巷60弄61號","121.485408333333","24.9927283333333","6500300","中和區"
"235041","802-TS","2017/10/09 19:59:38","新北市中和區中安街18號","121.513383333333","25.0031866666667","6500300","中和區"
"235052","805-TS","2017/10/09 19:59:45","新北市中和區華新街192巷30號","121.506346666667","24.9833466666667","6500300","中和區"
"235048","896-TW","2017/10/09 19:59:38","新北市中和區興南路一段8號","121.511508333333","24.991425","6500300","中和區"
"235053","900-TW","2017/10/09 19:59:34","新北市中和區民德路146巷14號","121.467791666667","25.0005016666667","6500300","中和區"
"235037","AAC-213","2017/10/09 19:59:35","新北市中和區自立路36-8號","121.522736666667","24.9926233333333","6500300","中和區"
"235059","AAC-215","2017/10/09 19:59:35","新北市中和區圓通路337號","121.491615","24.9905533333333","6500300","中和區"
"220065","072-UY","2017/10/09 19:59:44","新北市板橋區長安街23號","121.466765","25.008815","6500100","板橋區"
"220086","073-UY","2017/10/09 19:59:39","新北市板橋區南雅西路二段40號","121.452981666667","25.01003","6500100","板橋區"
"220106","075-UY","2017/10/09 19:59:37","新北市板橋區民治街52巷11號","121.47892","25.0328766666667","6500100","板橋區"
"220069","AAD-861","2017/10/09 19:59:47","新北市板橋區貴興路60號","121.456706666667","25.00299","6500100","板橋區"
"220068","120-SR","2017/10/09 19:59:45","新北市板橋區中山路二段379號","121.480111666667","25.0192483333333","6500100","板橋區"
"247020","500-BY","2017/10/09 19:59:46","新北市蘆洲區民義街65號","121.473025","25.0899733333333","6501400","蘆洲區"
"247008","341-TH","2017/10/09 19:59:44","新北市蘆洲區中山一路61巷34號","121.47736","25.080715","6501400","蘆洲區"
"247010","339-TH","2017/10/09 19:59:32","新北市蘆洲區集賢路232號","121.482213333333","25.0861433333333","6501400","蘆洲區"
"247002","337-TH","2017/10/09 19:59:50","新北市蘆洲區永樂街31巷7號","121.458281666667","25.0873266666667","6501400","蘆洲區"
"247004","336-TH","2017/10/09 19:59:48","新北市蘆洲區永康街39號","121.457175","25.0852233333333","6501400","蘆洲區"
"247016","057-VK","2017/10/09 19:59:50","新北市蘆洲區光華路11號","121.469838333333","25.083465","6501400","蘆洲區"
"247006","056-VK","2017/10/09 19:59:44","新北市蘆洲區九芎街113號","121.465591666667","25.0795416666667","6501400","蘆洲區"
"247014","007-UY","2017/10/09 19:59:39","新北市蘆洲區中山二路105號","121.4726","25.0817816666667","6501400","蘆洲區"
"247018","001-UY","2017/10/09 19:59:53","新北市蘆洲區民族路278號","121.478276666667","25.0894216666667","6501400","蘆洲區"
"226004","312-R5","2017/10/09 19:59:46","新北市平溪區十分里十分街76號","121.776238333333","25.0421316666667","6502400","平溪區"
"228003","097-TW","2017/10/09 19:59:38","新北市貢寮區仁理村仁和路242號","121.924018333333","25.053885","6502600","貢寮區"
"224010","AGQ-8101","2017/10/09 19:59:37","新北市瑞芳區基山街169號","121.843306666667","25.1080733333333","6501200","瑞芳區"
"224006","676-BX","2017/10/09 19:59:40","新北市瑞芳區靜安路四段5號","121.79558","25.0793766666667","6501200","瑞芳區"
"224005","271-BY","2017/10/09 19:59:54","新北市瑞芳區國中新村34號","121.816555","25.10792","6501200","瑞芳區"
"227001","642-TC","2017/10/09 19:59:31","新北市雙溪區雙溪里長安街16號","121.865115","25.034545","6502500","雙溪區"
"227008","400-TW","2017/10/09 19:59:47","新北市雙溪區新基里朝陽街18號","121.865941666667","25.0386516666667","6502500","雙溪區"
"208002","742-BX","2017/10/09 19:59:37","新北市金山區龜子山路33號","121.639216666667","25.217275","6502700","金山區"
"208003","665-BX","2017/10/09 19:59:52","新北市金山區海興路112-1號","121.63104","25.2385933333333","6502700","金山區"
"208001","761-BX","2017/10/09 19:59:43","新北市金山區重和里林口28-3號","121.596643333333","25.2092966666667","6502700","金山區"
"251009","008-UM","2017/10/09 19:59:49","新北市淡水區英專路21巷7號","121.44517","25.1697233333333","6501000","淡水區"
"251004","009-UM","2017/10/09 19:49:25","台北市北投區復興三路355巷64號","121.497883333333","25.155245","6501000","淡水區"
"251001","011-UM","2017/10/09 19:59:43","新北市淡水區水源街二段177巷2弄8號","121.45609","25.1771466666667","6501000","淡水區"
"251008","181-VK","2017/10/09 19:59:43","新北市淡水區淡海路72巷21號","121.424296666667","25.181195","6501000","淡水區"
"251013","182-VK","2017/10/09 19:59:49","新北市淡水區淡金路三段266號","121.448876666667","25.20674","6501000","淡水區"
"251010","413-VK","2017/10/09 19:59:45","新北市淡水區崁頂92號","121.42992","25.2032833333333","6501000","淡水區"
"251012","441-VK","2017/10/09 19:59:34","新北市淡水區下圭柔山105-5號","121.444636666667","25.21087","6501000","淡水區"
"251015","442-VK","2017/10/09 19:59:32","新北市淡水區埤島76-2號","121.451845","25.19315","6501000","淡水區"
"251005","443-VK","2017/10/09 19:59:34","新北市淡水區學府路136巷13號","121.451115","25.172925","6501000","淡水區"
"251006","561-UM","2017/10/09 19:59:38","新北市淡水區北新路16號","121.444828333333","25.1774466666667","6501000","淡水區"
"251011","650-BX","2017/10/09 19:59:49","新北市淡水區崁頂55-3號","121.442321666667","25.1966366666667","6501000","淡水區"
"207003","550-UM","2017/10/09 19:59:46","新北市萬里區大鵬里萬里加投40-1號","121.638601666667","25.2075283333333","6502800","萬里區"
"207004","225-TW","2017/10/09 19:59:49","新北市萬里區北基里忠二街35號","121.685635","25.1757483333333","6502800","萬里區"
"252002","178-VK","2017/10/09 19:59:45","新北市三芝區忠孝街116-3號","121.505471666667","25.2575683333333","6502100","三芝區"
"252001","292-VK","2017/10/09 19:59:48","新北市三芝區公正街66號","121.49981","25.2574816666667","6502100","三芝區"
"237004","078-UY","2017/10/09 19:59:46","新北市三峽區添福5號","121.370903333333","24.908465","6500900","三峽區"
"237007","153-BY","2017/10/09 19:59:37","新北市三峽區二鬮路136巷16弄25號","121.359128333333","24.90881","6500900","三峽區"
"237009","210-TH","2017/10/09 19:59:53","新北市三峽區中山路13巷9號","121.36913","24.9338966666667","6500900","三峽區"
"237013","252-BX","2017/10/09 19:59:37","新北市三峽區溪北街95號","121.397906666667","24.9356333333333","6500900","三峽區"
"237012","275-BY","2017/10/09 19:59:43","新北市三峽區中華路3巷2-11號","121.374931666667","24.9320566666667","6500900","三峽區"
"237008","302-VK","2017/10/09 19:59:51","新北市三峽區安溪路344號","121.370075","24.9264183333333","6500900","三峽區"
"237014","433-BY","2017/10/09 19:59:39","新北市三峽區添福59-1號","121.374885","24.9034666666667","6500900","三峽區"
"237006","5529-G3","2017/10/09 19:59:39","新北市三峽區正義街27巷7號","121.3701","24.9189766666667","6500900","三峽區"
"237015","649-BX","2017/10/09 19:59:52","新北市三峽區橫溪路99巷12號","121.399925","24.9362266666667","6500900","三峽區"
"237005","AKY-6261","2017/10/09 19:59:35","新北市三峽區民生街1巷20號","121.379606666667","24.9351883333333","6500900","三峽區"
"236069","105-UM","2017/10/09 19:59:36","新北市土城區忠義路83號","121.443496666667","24.9644833333333","6501300","土城區"
"236042","107-UM","2017/10/09 19:59:45","新北市土城區學府路一段143巷2號","121.453736666667","24.9859083333333","6501300","土城區"
"236078","166-UM","2017/10/09 19:59:38","新北市土城區中央路四段260號","121.414958333333","24.95679","6501300","土城區"
"236030","253-BX","2017/10/09 19:59:45","新北市土城區中央路一段252號","121.4443","24.984655","6501300","土城區"
"236026","269-VK","2017/10/09 19:59:31","新北市土城區中央路二段98號","121.442158333333","24.9782716666667","6501300","土城區"
"236014","270-VK","2017/10/09 19:59:41","新北市土城區廣福街123號","121.456203333333","24.9928966666667","6501300","土城區"
"236036","271-VK","2017/10/09 19:59:44","新北市土城區國際路139巷10號","121.468506666667","24.97671","6501300","土城區"
"236020","401-BY","2017/10/09 19:59:38","新北市土城區延吉街165巷16號","121.470058333333","24.985455","6501300","土城區"
"236058","912-UM","2017/10/09 19:59:32","新北市土城區中央路一段213號","121.445755","24.9865866666667","6501300","土城區"
"236048","913-UM","2017/10/09 19:59:15","新北市土城區金城路三段103號","121.467431666667","24.9876583333333","6501300","土城區"
"236062","915-UM","2017/10/09 19:59:52","新北市土城區延和路62巷8弄2號","121.466033333333","24.9884966666667","6501300","土城區"
"236053","AAC-216","2017/10/09 19:59:38","新北市土城區延和路11號","121.463995","24.9880183333333","6501300","土城區"
"242031","AAC-296","2017/10/09 19:59:43","新北市新莊區公園一路39號","121.443266666667","25.0355816666667","6500500","新莊區"
"242029","986-R7","2017/10/09 19:59:48","新北市新莊區中平路254號","121.444883333333","25.04939","6500500","新莊區"
"242025","615-BX","2017/10/09 19:59:43","新北市新莊區五工一路92號","121.46085","25.067645","6500500","新莊區"
"242023","613-BX","2017/10/09 19:59:33","新北市新莊區化成路354號","121.465898333333","25.0492733333333","6500500","新莊區"
"242027","612-BX","2017/10/09 19:59:49","新北市新莊區立信一街53號","121.442993333333","25.0497716666667","6500500","新莊區"
"242039","566-BX","2017/10/09 19:59:34","新北市新莊區民安路287-5號","121.428821666667","25.023035","6500500","新莊區"
"242044","497-BY","2017/10/09 19:59:51","新北市新莊區中正路746巷30號","121.410858333333","25.024235","6500500","新莊區"
"242056","442-UM","2017/10/09 19:59:43","新北市新莊區中正路347巷19號","121.447221666667","25.03432","6500500","新莊區"
"242048","441-UM","2017/10/09 19:59:40","新北市新莊區民安路181巷2弄12號","121.426416666667","25.0225","6500500","新莊區"
"242053","440-UM","2017/10/09 19:59:42","新北市新莊區西盛街416巷2號","121.427243333333","25.012315","6500500","新莊區"
"242004","413-TV","2017/10/09 19:59:49","新北市新莊區化成路205-45號","121.46558","25.0512083333333","6500500","新莊區"
"242034","400-BY","2017/10/09 19:59:46","新北市新莊區建中街100號","121.446508333333","25.0365866666667","6500500","新莊區"
"242060","362-BY","2017/10/09 19:59:37","新北市新莊區瓊林路70號","121.445173333333","25.0287083333333","6500500","新莊區"
"242058","353-BY","2017/10/09 19:59:35","新北市新莊區八德街115號","121.424018333333","25.0207933333333","6500500","新莊區"
"242007","132-UY","2017/10/09 19:59:47","新北市新莊區榮華路一段2號","121.457943333333","25.05585","6500500","新莊區"
"242036","133-UY","2017/10/09 19:59:43","新北市新莊區民安路207巷34弄1號","121.428465","25.024715","6500500","新莊區"
"242021","135-UY","2017/10/09 19:59:44","新北市新莊區建中街16巷29號","121.44891","25.0386133333333","6500500","新莊區"
"242046","172-VK","2017/10/09 19:59:41","新北市新莊區裕民街19巷4號","121.41968","25.0252483333333","6500500","新莊區"
"242009","173-VK","2017/10/09 19:59:46","新北市新莊區幸福路763-6號","121.447475","25.049085","6500500","新莊區"
"242015","175-VK","2017/10/09 19:59:36","新北市新莊區復興路一段35號","121.446598333333","25.041985","6500500","新莊區"
"242002","176-VK","2017/10/09 19:59:35","新北市新莊區新泰路107號","121.448793333333","25.03499","6500500","新莊區"
"242013","346-TH","2017/10/09 19:59:45","新北市新莊區幸福路670巷2弄1號","121.451031666667","25.049445","6500500","新莊區"
"242042","347-TH","2017/10/09 19:59:37","新北市新莊區青山路一段24號","121.411108333333","25.0276433333333","6500500","新莊區"
"242019","348-TH","2017/10/09 19:59:52","新北市新莊區長青街35巷5號","121.456928333333","25.0419466666667","6500500","新莊區"
"242017","350-TH","2017/10/09 19:59:43","新北市新莊區中安街38號","121.452805","25.0464366666667","6500500","新莊區"
"238015","755-BX","2017/10/09 19:59:40","新北市樹林區中山路三段210-2號","121.380828333333","24.9668316666667","6500700","樹林區"
"238024","5061-A6","2017/10/09 19:58:53","新北市樹林區中山路三段214號","121.380178333333","24.9679133333333","6500700","樹林區"
"238021","KEA-2217","2017/10/09 19:59:33","新北市樹林區佳園路三段113巷23號","121.387851666667","24.95017","6500700","樹林區"
"238025","303-VK","2017/10/09 19:56:39","新北市樹林區中山路三段214號","121.380016666667","24.9675683333333","6500700","樹林區"
"238020","268-VK","2017/10/09 19:59:50","新北市樹林區中山路三段210-2號","121.380816666667","24.9661966666667","6500700","樹林區"
"239003","360-BY","2017/10/09 19:59:36","新北市鶯歌區二甲路12-2號","121.345506666667","24.93482","6500800","鶯歌區"
"221008","489-VK","2017/10/09 19:59:45","新北市汐止區忠一街9巷7號","121.620576666667","25.07324","6501100","汐止區"
"221036","130-UY","2017/10/09 19:59:40","新北市汐止區忠孝東路258巷9號","121.663763333333","25.067255","6501100","汐止區"
"221015","131-UY","2017/10/09 19:59:44","新北市汐止區橋東街1號","121.666716666667","25.07625","6501100","汐止區"
"221010","269-BY","2017/10/09 19:59:48","新北市汐止區連峰街225巷20號","121.644266666667","25.081025","6501100","汐止區"
"221012","278-VK","2017/10/09 19:59:40","新北市汐止區大同路三段334號","121.679583333333","25.0711183333333","6501100","汐止區"
"221023","279-VK","2017/10/09 19:59:44","新北市汐止區明峰街218號","121.626911666667","25.068815","6501100","汐止區"
"221032","280-BY","2017/10/09 19:59:35","新北市汐止區橫科路18巷33弄5號","121.617663333333","25.04977","6501100","汐止區"
"221027","281-BY","2017/10/09 19:59:47","新北市汐止區中正路74號","121.66156","25.0698133333333","6501100","汐止區"
"221029","298-VK","2017/10/09 19:59:37","新北市汐止區樟樹一路137巷26號","121.640971666667","25.06595","6501100","汐止區"
"221021","299-VK","2017/10/09 19:59:38","新北市汐止區水源路一段143號","121.65595","25.0622816666667","6501100","汐止區"
"221031","353-TW","2017/10/09 19:59:33","新北市汐止區福德一路176巷14號","121.635426666667","25.0664683333333","6501100","汐止區"
"221035","622-UM","2017/10/09 19:59:43","新北市汐止區長江街39巷1號","121.655513333333","25.0714416666667","6501100","汐止區"
"221025","623-UM","2017/10/09 19:59:47","新北市汐止區秀峰路104號","121.659991666667","25.0638166666667","6501100","汐止區"
"221038","646-BX","2017/10/09 19:59:41","新北市汐止區忠孝東路465號","121.666038333333","25.0727933333333","6501100","汐止區"
"221033","647-BX","2017/10/09 19:59:49","新北市汐止區東勢街203號","121.633775","25.0419166666667","6501100","汐止區"
"221018","753-BX","2017/10/09 19:59:44","新北市汐止區茄苳路290號","121.672953333333","25.0672333333333","6501100","汐止區"
"220079","145-BY","2017/10/09 19:59:38","新北市板橋區僑中一街124巷70-5號","121.448823333333","25.0163333333333","6500100","板橋區"
"220082","610-BX","2017/10/09 19:59:50","新北市板橋區篤行路二段128-3號","121.431133333333","24.9906166666667","6500100","板橋區"
"220091","267-BY","2017/10/09 19:59:34","新北市板橋區文聖街89巷15號","121.478046666667","25.030325","6500100","板橋區"
"220072","277-BY","2017/10/09 19:59:39","新北市板橋區金門街127巷2號","121.433225","24.991375","6500100","板橋區"
"220101","280-UM","2017/10/09 19:59:44","新北市板橋區莒光路180巷23號","121.473088333333","25.0225866666667","6500100","板橋區"
"220094","283-UM","2017/10/09 19:59:47","新北市板橋區陽明街269號","121.46229","25.025895","6500100","板橋區"
"220071","283-VK","2017/10/09 19:59:38","新北市板橋區五權街32巷24號","121.464018333333","24.9928","6500100","板橋區"
"220053","285-VK","2017/10/09 19:59:47","新北市板橋區永豐街95號","121.473741666667","25.01923","6500100","板橋區"
"220083","286-VK","2017/10/09 19:59:35","新北市板橋區僑中二街8巷15號","121.44642","25.0112766666667","6500100","板橋區"
"220081","287-VK","2017/10/09 19:51:53","新北市板橋區大觀路一段29巷179弄32號","121.449751666667","25.0043566666667","6500100","板橋區"
"220090","288-VK","2017/10/09 19:59:20","新北市板橋區新海路135巷17號","121.460356666667","25.0232066666667","6500100","板橋區"
"220061","293-UM","2017/10/09 19:59:37","新北市板橋區板新路110號","121.471481666667","25.0153216666667","6500100","板橋區"
"220096","295-UM","2017/10/09 19:59:45","新北市板橋區莒光路16巷13號","121.46951","25.0240416666667","6500100","板橋區"
"220084","296-UM","2017/10/09 19:59:53","新北市板橋區溪崑二街96巷4號","121.426728333333","24.9892116666667","6500100","板橋區"
"220075","297-UM","2017/10/09 19:59:41","新北市板橋區金華街10巷128號","121.45965","25.0205916666667","6500100","板橋區"
"220098","299-UM","2017/10/09 19:59:52","新北市板橋區漢生西路165巷42號","121.462093333333","25.0236383333333","6500100","板橋區"
"220062","303-R5","2017/10/09 19:59:44","新北市板橋區中山路二段416巷55號","121.483071666667","25.018995","6500100","板橋區"
"220092","307-R5","2017/10/09 19:59:49","新北市板橋區國光路185號","121.460983333333","25.01865","6500100","板橋區"
"220080","461-BY","2017/10/09 19:59:49","新北市板橋區大觀路二段153巷6號","121.44605","25.0006583333333","6500100","板橋區"
"220064","486-VK","2017/10/09 19:59:47","新北市板橋區館前東路63-9號","121.463943333333","25.0079283333333","6500100","板橋區"
"220089","487-VK","2017/10/09 19:59:43","新北市板橋區龍泉街56-1號","121.457103333333","25.0260483333333","6500100","板橋區"
"220088","491-VK","2017/10/09 19:59:41","新北市板橋區大同街89號","121.48006","25.028385","6500100","板橋區"
"220035","560-BX","2017/10/09 19:59:42","新北市板橋區新生街53巷1弄10號","121.45693","25.021505","6500100","板橋區"
"220103","561-BX","2017/10/09 19:59:39","新北市板橋區陽明街29巷1弄7號","121.464716666667","25.0213983333333","6500100","板橋區"
"220063","609-BX","2017/10/09 19:59:41","新北市板橋區中山路二段91號","121.474206666667","25.0159366666667","6500100","板橋區"
"220054","630-UY","2017/10/09 19:59:37","新北市板橋區實踐路93巷80號","121.466836666667","25.0048483333333","6500100","板橋區"
"220057","686-BX","2017/10/09 19:59:43","新北市板橋區四川路二段82號","121.452125","24.994735","6500100","板橋區"
"220093","689-BX","2017/10/09 19:59:38","新北市板橋區文化路二段652號","121.47852","25.0357116666667","6500100","板橋區"
"220055","827-TW","2017/10/09 19:59:41","新北市板橋區仁愛路49巷1號","121.459898333333","24.999475","6500100","板橋區"
"220067","829-TW","2017/10/09 19:59:42","新北市板橋區中山路一段272巷18-1號","121.469391666667","25.0136583333333","6500100","板橋區"
"220102","830-TW","2017/10/09 19:59:41","新北市板橋區懷德街66巷24號","121.476735","25.0319733333333","6500100","板橋區"
"220074","895-R6","2017/10/09 19:59:52","新北市板橋區文化路一段34號","121.459451666667","25.01168","6500100","板橋區"
"220073","985-R7","2017/10/09 19:59:40","新北市板橋區南雅西路二段283號","121.452006666667","25.0152966666667","6500100","板橋區"
"220097","AAC-210","2017/10/09 19:59:47","新北市板橋區光正街45巷5號","121.461775","25.01689","6500100","板橋區"
"220070","AAC-253","2017/10/09 19:59:37","新北市板橋區德興街13號","121.453443333333","24.99439","6500100","板橋區"
