"lineid","car","time","location","longitude","latitude","cityid","cityname"
"234046","148-BY","2017/10/09 20:29:44","新北市永和區永元路120號","121.522746666667","25.002665","6500400","永和區"
"234081","298-R6","2017/10/09 20:29:43","新北市永和區永亨路66號","121.520903333333","25.00589","6500400","永和區"
"234038","336-UY","2017/10/09 20:29:36","新北市永和區民樂街31巷17弄3號","121.528548333333","25.001875","6500400","永和區"
"234064","337-UY","2017/10/09 20:29:46","新北市永和區中正路419號","121.517141666667","25.0049883333333","6500400","永和區"
"234086","338-UY","2017/10/09 20:29:39","新北市永和區光復街21號","121.516478333333","25.0173916666667","6500400","永和區"
"234070","552-UM","2017/10/09 20:29:44","新北市永和區永亨路39號","121.519978333333","25.0063066666667","6500400","永和區"
"234054","553-UM","2017/10/09 20:29:32","新北市永和區環河東路一段64號","121.51913","25.0168783333333","6500400","永和區"
"234030","746-BX","2017/10/09 20:29:35","新北市永和區民權路110號","121.519746666667","24.9965833333333","6500400","永和區"
"234061","AAD-866","2017/10/09 20:29:33","新北市永和區安樂路166號","121.514636666667","25.000825","6500400","永和區"
"234042","862-TW","2017/10/09 20:29:45","新北市永和區安樂路250號","121.51466","25.003615","6500400","永和區"
"234050","863-TW","2017/10/09 20:29:33","新北市永和區環河西路二段7-7號","121.508978333333","25.016765","6500400","永和區"
"249001","173-UM","2017/10/09 20:29:36","新北市八里區中山路三段109號","121.390243333333","25.1421433333333","6502300","八里區"
"249004","303-UY","2017/10/09 20:29:32","新北市八里區中山路一段336號","121.412615","25.1589233333333","6502300","八里區"
"249002","305-UY","2017/10/09 20:29:43","新北市八里區龍米路二段125巷5號","121.44644","25.14486","6502300","八里區"
"249003","593-UM","2017/10/09 20:29:26","新北市八里區中山路二段381號","121.398563333333","25.1466616666667","6502300","八里區"
"234023","9380-KE","2017/10/09 20:29:35","新北市永和區博愛街32巷23號","121.518888333333","25.015095","6500400","永和區"
"234074","AAC-211","2017/10/09 20:29:31","新北市永和區福和路10巷10號","121.524486666667","25.0092316666667","6500400","永和區"
"234067","AAC-212","2017/10/09 20:29:26","新北市永和區保平路268巷51弄2號","121.507063333333","25.006335","6500400","永和區"
"243013","AAD-798","2017/10/09 20:29:33","新北市泰山區民國街40號","121.425751666667","25.0433883333333","6501600","泰山區"
"243009","297-R6","2017/10/09 20:29:27","新北市泰山區忠孝街41巷2號","121.428703333333","25.065485","6501600","泰山區"
"243014","421-VK","2017/10/09 20:29:36","新北市泰山區泰林路三段778號","121.400696666667","25.0716083333333","6501600","泰山區"
"243010","KEA-2215","2017/10/09 20:29:41","新北市泰山區新生路31巷10號","121.427691666667","25.0459483333333","6501600","泰山區"
"243011","KEA-2216","2017/10/09 20:29:27","新北市泰山區明志路三段31號","121.42488","25.0428783333333","6501600","泰山區"
"243012","646-TV","2017/10/09 20:29:34","新北市泰山區忠孝街19巷3弄1號","121.427468333333","25.06588","6501600","泰山區"
"243016","680-BX","2017/10/09 20:29:23","新北市泰山區黎明路15號","121.420913333333","25.063145","6501600","泰山區"
"222003","436-BY","2017/10/09 20:29:45","新北市深坑區深坑街27號","121.615943333333","25.0023966666667","6501800","深坑區"
"222001","628-TS","2017/10/09 20:29:41","新北市深坑區北深路三段329號","121.597261666667","25.005005","6501800","深坑區"
"222002","659-BX","2017/10/09 20:29:36","新北市深坑區萬福路16巷3號","121.602556666667","25.0082383333333","6501800","深坑區"
"231059","046-UY","2017/10/09 20:29:39","新北市新店區安豐路46號","121.50005","24.9549116666667","6500600","新店區"
"231061","047-UY","2017/10/09 20:29:39","新北市新店區新和街37號","121.519305","24.9849666666667","6500600","新店區"
"231060","106-UY","2017/10/09 20:29:40","新北市新店區錦秀路13號","121.479466666667","24.9447216666667","6500600","新店區"
"231047","108-UY","2017/10/09 20:29:31","新北市新店區寶慶街58巷21-1號","121.542051666667","24.9872983333333","6500600","新店區"
"231051","110-UY","2017/10/09 20:29:37","新北市新店區中央七街57號","121.528293333333","24.976125","6500600","新店區"
"231052","187-VK","2017/10/09 20:29:34","新北市新店區松林路6-6號","121.546631666667","24.9110666666667","6500600","新店區"
"231064","188-VK","2017/10/09 20:29:41","新北市新店區永安街74巷13號","121.519526666667","24.9860166666667","6500600","新店區"
"231050","215-TC","2017/10/09 20:29:33","新北市新店區博愛街17號","121.541168333333","24.9734466666667","6500600","新店區"
"231057","256-BX","2017/10/09 20:29:43","新北市新店區花園五路二段1號","121.553558333333","24.9341416666667","6500600","新店區"
"231063","268-BY","2017/10/09 20:29:37","新北市新店區安康路三段51號","121.492435","24.9522616666667","6500600","新店區"
"231054","AAD-862","2017/10/09 20:29:34","新北市新店區檳榔路109號","121.544543333333","24.96163","6500600","新店區"
"231041","355-BY","2017/10/09 20:29:46","新北市新店區中正路501-2號","121.533621666667","24.9837416666667","6500600","新店區"
"231058","3712-VJ","2017/10/09 20:29:36","新北市新店區中央路13號","121.533325","24.9784116666667","6500600","新店區"
"231056","4716-K9","2017/10/09 20:29:30","新北市新店區建安街33巷28號","121.538355","24.9754333333333","6500600","新店區"
"231067","4772-VM","2017/10/09 20:29:37","新北市新店區安華路28-1號","121.51967","24.9609483333333","6500600","新店區"
"231065","513-UM","2017/10/09 20:29:37","新北市新店區安祥路102巷46弄87號","121.487273333333","24.9632233333333","6500600","新店區"
"231040","619-UM","2017/10/09 20:29:24","新北市新店區三民路185號","121.535253333333","24.9753033333333","6500600","新店區"
"231042","641-BX","2017/10/09 20:29:42","新北市新店區寶橋路230號","121.551521666667","24.97882","6500600","新店區"
"231068","718-UY","2017/10/09 20:29:32","新北市新店區寶元路一段65號","121.542211666667","24.9858533333333","6500600","新店區"
"231049","719-UM","2017/10/09 20:29:44","新北市新店區永業路81巷32號","121.53022","24.9483966666667","6500600","新店區"
"231062","720-UM","2017/10/09 20:29:34","新北市新店區安泰路60巷55弄131號","121.484338333333","24.94689","6500600","新店區"
"231044","897-TW","2017/10/09 20:29:40","新北市新店區建國路149號","121.538908333333","24.978855","6500600","新店區"
"231045","898-TW","2017/10/09 20:29:40","新北市新店區新坡一街16號","121.548471666667","24.961955","6500600","新店區"
"231043","899-TW","2017/10/09 20:29:36","新北市新店區建國路129號","121.539605","24.9780816666667","6500600","新店區"
"231066","AKT-0513","2017/10/09 20:29:46","新北市新店區安興路105-1號","121.514613333333","24.9777083333333","6500600","新店區"
"241011","013-R5","2017/10/09 20:29:38","新北市三重區龍門路51號","121.496255","25.0723533333333","6500200","三重區"
"241028","022-UY","2017/10/09 20:29:33","新北市三重區光興街93號","121.497328333333","25.05988","6500200","三重區"
"241008","059-VK","2017/10/09 20:29:43","新北市三重區下竹圍街91號","121.481093333333","25.0748266666667","6500200","三重區"
"241009","060-VK","2017/10/09 20:29:35","新北市三重區永福街46-2號","121.481993333333","25.0781833333333","6500200","三重區"
"241031","061-VK","2017/10/09 20:29:32","新北市三重區三寧街15號","121.48953","25.05983","6500200","三重區"
"241015","062-VK","2017/10/09 20:29:41","新北市三重區文化北路47號","121.49886","25.065495","6500200","三重區"
"241017","063-VK","2017/10/09 20:29:04","新北市三重區自強路一段288號","121.491583333333","25.0682916666667","6500200","三重區"
"241024","065-VK","2017/10/09 20:29:47","新北市三重區中正北路276巷26號","121.480325","25.0673733333333","6500200","三重區"
"241026","066-VK","2017/10/09 20:29:36","新北市三重區環河南路17號","121.503663333333","25.0628016666667","6500200","三重區"
"241002","090-VK","2017/10/09 20:29:36","新北市三重區仁義街211巷33號","121.497813333333","25.0824816666667","6500200","三重區"
"241003","091-VK","2017/10/09 20:29:23","新北市三重區富華街186號","121.492943333333","25.084835","6500200","三重區"
"241005","262-UM","2017/10/09 20:29:37","新北市三重區碧華街209號","121.488325","25.0828816666667","6500200","三重區"
"241016","266-UM","2017/10/09 20:29:41","新北市三重區正義北路113號","121.496871666667","25.06561","6500200","三重區"
"241022","267-UM","2017/10/09 20:29:27","新北市三重區重陽路二段19巷6號","121.48757","25.0625716666667","6500200","三重區"
"241018","268-UM","2017/10/09 20:29:45","新北市三重區正義北路210號","121.495981666667","25.0675216666667","6500200","三重區"
"241032","269-UM","2017/10/09 20:29:40","新北市三重區重陽路一段120巷40號","121.485186666667","25.0601166666667","6500200","三重區"
"241013","270-UM","2017/10/09 20:29:25","新北市三重區三和路三段167巷56號","121.493756666667","25.0747733333333","6500200","三重區"
"241025","271-UM","2017/10/09 20:29:28","新北市三重區頂崁街210巷23弄1號","121.475821666667","25.068135","6500200","三重區"
"241007","398-BY","2017/10/09 20:29:36","新北市三重區自強路四段28號","121.488861666667","25.0768066666667","6500200","三重區"
"241020","413-TH","2017/10/09 20:29:43","新北市三重區三和路三段109-5號","121.493455","25.0726966666667","6500200","三重區"
"241035","462-BY","2017/10/09 20:29:43","新北市三重區正義北路110號","121.496935","25.06511","6500200","三重區"
"241004","475-VK","2017/10/09 20:29:27","新北市三重區溪尾街233號","121.48818","25.0812966666667","6500200","三重區"
"241019","478-VK","2017/10/09 20:29:38","新北市三重區重陽路四段83號","121.49261","25.0710466666667","6500200","三重區"
"241030","480-VK","2017/10/09 20:29:44","新北市三重區成功路62號","121.48864","25.0509833333333","6500200","三重區"
"241014","543-UM","2017/10/09 20:29:35","新北市三重區長壽街120巷23號","121.502365","25.0692483333333","6500200","三重區"
"241023","545-UM","2017/10/09 20:29:37","新北市三重區自由街17巷1號","121.47988","25.0665533333333","6500200","三重區"
"241001","547-UM","2017/10/09 20:29:45","新北市三重區福隆路12號","121.490325","25.077465","6500200","三重區"
"241012","941-UM","2017/10/09 20:29:41","新北市三重區龍濱路172號","121.50138","25.07284","6500200","三重區"
"241029","942-UM","2017/10/09 20:29:26","新北市三重區集美街225號","121.492061666667","25.05513","6500200","三重區"
"241033","AAC-255","2017/10/09 20:29:29","新北市三重區五谷王北街80巷59號","121.47465","25.0529466666667","6500200","三重區"
"235065","098-UM","2017/10/09 20:29:45","新北市中和區景平路754號","121.496543333333","25.0046283333333","6500300","中和區"
"235004","150-BY","2017/10/09 20:29:41","新北市中和區中正路446號","121.490951666667","24.9942483333333","6500300","中和區"
"235072","301-VK","2017/10/09 20:29:37","新北市中和區中正路637巷52弄1號","121.485503333333","24.9936783333333","6500300","中和區"
"235050","4979-A6","2017/10/09 20:29:44","新北市中和區景平路415號","121.502006666667","24.9949833333333","6500300","中和區"
"235069","4980-A6","2017/10/09 20:29:29","新北市中和區連城路347巷18弄34號","121.487273333333","24.9947733333333","6500300","中和區"
"235070","558-UM","2017/10/09 20:29:34","新北市土城區永和街35號","121.435268333333","24.961425","6500300","中和區"
"235026","800-TS","2017/10/09 20:12:44","新北市中和區員山路36巷16-3號","121.484835","24.9915716666667","6500300","中和區"
"235059","AAC-215","2017/10/09 20:29:35","新北市中和區員山路36巷1號","121.482388333333","24.99029","6500300","中和區"
"247022","893-R6","2017/10/09 20:29:42","新北市蘆洲區中正路198號","121.466766666667","25.0883583333333","6501400","蘆洲區"
"247012","546-UM","2017/10/09 20:29:42","新北市蘆洲區民族路165號","121.479311666667","25.0882883333333","6501400","蘆洲區"
"247020","500-BY","2017/10/09 20:29:26","新北市蘆洲區民族路331號","121.473851666667","25.091735","6501400","蘆洲區"
"247008","341-TH","2017/10/09 20:29:44","新北市蘆洲區重陽二街23號","121.482383333333","25.084805","6501400","蘆洲區"
"247010","339-TH","2017/10/09 20:29:32","新北市蘆洲區信義路218號","121.478963333333","25.0852033333333","6501400","蘆洲區"
"247002","337-TH","2017/10/09 20:29:33","新北市蘆洲區環堤大道110號","121.455563333333","25.0868616666667","6501400","蘆洲區"
"247004","336-TH","2017/10/09 20:29:27","新北市蘆洲區長安街307號","121.457966666667","25.0851933333333","6501400","蘆洲區"
"247016","057-VK","2017/10/09 20:29:30","新北市蘆洲區光華路75號","121.468021666667","25.0825916666667","6501400","蘆洲區"
"247006","056-VK","2017/10/09 20:29:45","新北市蘆洲區九芎街113號","121.465638333333","25.0795383333333","6501400","蘆洲區"
"247014","007-UY","2017/10/09 20:29:39","新北市蘆洲區中山二路85號","121.473036666667","25.0818533333333","6501400","蘆洲區"
"247024","002-UY","2017/10/09 20:29:40","新北市蘆洲區光復路70巷21號","121.464813333333","25.08514","6501400","蘆洲區"
"247018","001-UY","2017/10/09 20:29:33","新北市蘆洲區民族路319號","121.474368333333","25.091265","6501400","蘆洲區"
"226004","312-R5","2017/10/09 20:29:46","新北市平溪區嶺腳里田子13-6號","121.747188333333","25.0280583333333","6502400","平溪區"
"224010","AGQ-8101","2017/10/09 20:29:37","新北市瑞芳區輕便路338號","121.840183333333","25.1085383333333","6501200","瑞芳區"
"251001","011-UM","2017/10/09 20:29:39","新北市淡水區中山北路二段167號","121.44431","25.1843783333333","6501000","淡水區"
"251008","181-VK","2017/10/09 20:29:04","新北市淡水區淡海路204號","121.42034","25.18558","6501000","淡水區"
"251013","182-VK","2017/10/09 20:29:09","新北市淡水區後坑子6號","121.46404","25.2063316666667","6501000","淡水區"
"251010","413-VK","2017/10/09 20:29:45","新北市淡水區沙崙路181巷15號","121.42397","25.1843566666667","6501000","淡水區"
"251012","441-VK","2017/10/09 20:29:34","新北市淡水區下圭柔山109-7號","121.442983333333","25.211135","6501000","淡水區"
"251015","442-VK","2017/10/09 20:29:32","新北市淡水區淡金路四段542巷17號","121.452716666667","25.227105","6501000","淡水區"
"251006","561-UM","2017/10/09 20:29:18","新北市淡水區商工路329號","121.464423333333","25.185905","6501000","淡水區"
"251011","650-BX","2017/10/09 20:29:29","新北市淡水區崁頂74號","121.435036666667","25.2012916666667","6501000","淡水區"
"251002","672-BX","2017/10/09 20:29:37","新北市淡水區中正路65號","121.441226666667","25.1695316666667","6501000","淡水區"
"251003","673-BX","2017/10/09 20:29:33","新北市淡水區新生街108巷2號","121.440153333333","25.174755","6501000","淡水區"
"207004","225-TW","2017/10/09 20:29:29","新北市萬里區北基里孝一街7號","121.684508333333","25.177105","6502800","萬里區"
"252002","178-VK","2017/10/09 20:29:45","新北市三芝區淡金路二段8號","121.502566666667","25.25944","6502100","三芝區"
"252001","292-VK","2017/10/09 20:29:28","新北市三芝區中山路一段14號","121.500696666667","25.258035","6502100","三芝區"
"237007","153-BY","2017/10/09 20:29:37","新北市三峽區麻園17-5號","121.363045","24.9146583333333","6500900","三峽區"
"237009","210-TH","2017/10/09 20:29:33","新北市三峽區民族街78巷14號","121.368391666667","24.9294983333333","6500900","三峽區"
"236069","105-UM","2017/10/09 20:29:36","新北市樹林區柑園街一段1號","121.406315","24.9615466666667","6501300","土城區"
"236026","269-VK","2017/10/09 20:29:31","新北市土城區中華路二段2號","121.438846666667","24.9798766666667","6501300","土城區"
"236014","270-VK","2017/10/09 20:29:41","新北市板橋區德興街45號","121.453658333333","24.9930383333333","6501300","土城區"
"242031","AAC-296","2017/10/09 20:29:39","新北市新莊區三和路60-3號","121.437063333333","25.038625","6500500","新莊區"
"242029","986-R7","2017/10/09 20:29:41","新北市新莊區中原路512號","121.446686666667","25.0544883333333","6500500","新莊區"
"242050","751-BX","2017/10/09 20:29:29","新北市新莊區民安西路189巷12號","121.426588333333","25.0153433333333","6500500","新莊區"
"242025","615-BX","2017/10/09 20:29:46","新北市新莊區五工三路50巷21號","121.460541666667","25.064865","6500500","新莊區"
"242023","613-BX","2017/10/09 20:29:36","新北市新莊區化成路1004號","121.465203333333","25.0648033333333","6500500","新莊區"
"242027","612-BX","2017/10/09 20:29:29","新北市新莊區幸福路51號","121.457678333333","25.0494016666667","6500500","新莊區"
"242039","566-BX","2017/10/09 20:29:34","新北市新莊區成功街19號","121.425666666667","25.021525","6500500","新莊區"
"242044","497-BY","2017/10/09 20:29:31","新北市新莊區中正路新建巷55號","121.414808333333","25.0214233333333","6500500","新莊區"
"242056","442-UM","2017/10/09 20:29:43","新北市新莊區新莊路751巷83號","121.442786666667","25.0307983333333","6500500","新莊區"
"242048","441-UM","2017/10/09 20:29:40","新北市樹林區三俊街199巷20弄9號","121.421393333333","25.017795","6500500","新莊區"
"242053","440-UM","2017/10/09 20:29:21","新北市新莊區民安西路245巷1號","121.426328333333","25.0137316666667","6500500","新莊區"
"242004","413-TV","2017/10/09 20:29:28","新北市新莊區化成路387號","121.465311666667","25.05843","6500500","新莊區"
"242034","400-BY","2017/10/09 20:29:44","新北市新莊區新泰路98號","121.448586666667","25.0358433333333","6500500","新莊區"
"242060","362-BY","2017/10/09 20:29:30","新北市新莊區新樹路244巷63號","121.431133333333","25.0195333333333","6500500","新莊區"
"242058","353-BY","2017/10/09 20:29:29","新北市新莊區四維路173號","121.422343333333","25.0215433333333","6500500","新莊區"
"242007","132-UY","2017/10/09 20:29:15","新北市新莊區思源路287巷1弄64號","121.459248333333","25.0478333333333","6500500","新莊區"
"242036","133-UY","2017/10/09 20:29:35","新北市新莊區建安街62巷3弄2號","121.426758333333","25.0252083333333","6500500","新莊區"
"242021","135-UY","2017/10/09 20:29:40","新北市新莊區公園路38號","121.44891","25.0391583333333","6500500","新莊區"
"242046","172-VK","2017/10/09 20:29:21","新北市新莊區裕民街54巷27號","121.417558333333","25.0245833333333","6500500","新莊區"
"242009","173-VK","2017/10/09 20:29:26","新北市新莊區昌隆街78號","121.455628333333","25.0508666666667","6500500","新莊區"
"242015","175-VK","2017/10/09 20:29:35","新北市新莊區中平路36巷22號","121.445676666667","25.04355","6500500","新莊區"
"242002","176-VK","2017/10/09 20:29:35","新北市新莊區中正路74號","121.458748333333","25.0379733333333","6500500","新莊區"
"242013","346-TH","2017/10/09 20:29:45","新北市新莊區中榮街81巷5號","121.445475","25.0524533333333","6500500","新莊區"
"242042","347-TH","2017/10/09 20:29:37","新北市新莊區中正路694巷67號","121.417355","25.029355","6500500","新莊區"
"242019","348-TH","2017/10/09 20:29:48","新北市新莊區銘德街51號","121.457226666667","25.0435666666667","6500500","新莊區"
"242017","350-TH","2017/10/09 20:29:42","新北市新莊區中港三街7號","121.451148333333","25.0464116666667","6500500","新莊區"
"221008","489-VK","2017/10/09 20:29:45","新北市汐止區康寧街861巷3號","121.645336666667","25.0761233333333","6501100","汐止區"
"221036","130-UY","2017/10/09 20:29:40","新北市汐止區仁愛路151巷30號","121.663255","25.06557","6501100","汐止區"
"221015","131-UY","2017/10/09 20:29:44","新北市汐止區建成路56巷37號","121.662591666667","25.07358","6501100","汐止區"
"221010","269-BY","2017/10/09 20:29:28","新北市汐止區八連路二段337巷3號","121.629763333333","25.1012633333333","6501100","汐止區"
"221012","278-VK","2017/10/09 20:29:40","新北市汐止區大同路三段400號","121.681726666667","25.07176","6501100","汐止區"
"221023","279-VK","2017/10/09 20:29:44","新北市汐止區湖東街5巷10號","121.633813333333","25.07289","6501100","汐止區"
"221032","280-BY","2017/10/09 20:29:35","新北市汐止區弘道街53巷13號","121.618705","25.0490916666667","6501100","汐止區"
"221027","281-BY","2017/10/09 20:29:27","新北市汐止區中正路260號","121.6573","25.0686283333333","6501100","汐止區"
"221029","298-VK","2017/10/09 20:29:37","新北市汐止區樟樹一路129巷32號","121.640591666667","25.06511","6501100","汐止區"
"221021","299-VK","2017/10/09 20:29:39","新北市汐止區水源路一段288號","121.654176666667","25.0581466666667","6501100","汐止區"
"221031","353-TW","2017/10/09 20:29:32","新北市汐止區中興路110巷15號","121.633983333333","25.0644366666667","6501100","汐止區"
"221035","622-UM","2017/10/09 20:29:19","新北市汐止區長江街101-5號","121.658715","25.0732366666667","6501100","汐止區"
"221025","623-UM","2017/10/09 20:29:27","新北市汐止區水源路二段88巷1弄16號","121.65649","25.0553616666667","6501100","汐止區"
"221038","646-BX","2017/10/09 20:29:41","新北市汐止區忠孝東路324號","121.6648","25.069285","6501100","汐止區"
"221033","647-BX","2017/10/09 20:29:47","新北市汐止區林森街132巷6弄6號","121.624363333333","25.040635","6501100","汐止區"
"221002","707-TV","2017/10/09 20:29:41","新北市汐止區福德三路75號","121.636465","25.0692516666667","6501100","汐止區"
"221018","753-BX","2017/10/09 20:29:44","新北市汐止區茄苳路225巷11弄38號","121.670595","25.0700666666667","6501100","汐止區"
"220083","286-VK","2017/10/09 20:29:35","新北市板橋區僑中二街102巷2號","121.445938333333","25.008435","6500100","板橋區"
"220081","287-VK","2017/10/09 19:51:53","新北市板橋區大觀路一段29巷179弄32號","121.449751666667","25.0043566666667","6500100","板橋區"
"220061","293-UM","2017/10/09 20:29:36","新北市板橋區文華街4號","121.458198333333","25.0002983333333","6500100","板橋區"
"220089","487-VK","2017/10/09 20:29:43","新北市板橋區四維路255號","121.463486666667","25.02793","6500100","板橋區"
"242011","280-VK","2017/10/09 20:29:35","新北市新莊區中義街2號","121.45159","25.05131","6500500","新莊區"
"220103","561-BX","2017/10/09 20:29:38","新北市板橋區文化路一段90號","121.464225","25.0176733333333","6500100","板橋區"
"220070","AAC-253","2017/10/09 20:29:36","新北市五股區成泰路三段2巷6號","121.442065","25.0844766666667","6500100","板橋區"
