"lineid","car","time","location","longitude","latitude","cityid","cityname"
"244019","403-UM","2017/10/09 20:51:26","新北市林口區粉寮69號","121.405125","25.09081","6501700","林口區"
"235026","800-TS","2017/10/09 20:12:44","新北市中和區員山路36巷16-3號","121.484835","24.9915716666667","6500300","中和區"
"247008","341-TH","2017/10/09 22:26:44","新北市八里區荖阡坑路32-6號","121.404043333333","25.1252066666667","6501400","蘆洲區"
"251004","009-UM","2017/10/09 22:27:45","新北市淡水區民族路33號","121.462316666667","25.1358033333333","6501000","淡水區"
"251007","179-VK","2017/10/09 22:27:51","新北市淡水區北新路135號","121.449388333333","25.1788216666667","6501000","淡水區"
"251008","181-VK","2017/10/09 22:27:43","新北市淡水區學府路104號","121.44986","25.1717783333333","6501000","淡水區"
"251012","441-VK","2017/10/09 22:27:34","新北市淡水區下圭柔山90-8號","121.431301666667","25.2102016666667","6501000","淡水區"
"251015","442-VK","2017/10/09 22:27:54","新北市淡水區水碓街7號","121.443141666667","25.177125","6501000","淡水區"
