"lineid","car","time","location","longitude","latitude","cityid","cityname"
"244002","657-BX","2017/10/17 07:59:48","新北市林口區下福19鄰16號","121.312248333333","25.110695","6501700","林口區"
"222004","289-BY","2017/10/17 07:59:41","新北市深坑區文化街45號","121.616936666667","25.0016933333333","6501800","深坑區"
"231007","189-VK","2017/10/17 07:59:46","新北市新店區新潭路一段71號","121.524541666667","24.9401816666667","6500600","新店區"
"231009","192-VK","2017/10/17 07:59:43","新北市新店區安華路28-1號","121.519305","24.9612633333333","6500600","新店區"
"220034","015-TV","2017/10/17 07:59:47","新北市板橋區華東街330號","121.453061666667","25.0037616666667","6500100","板橋區"
"226005","5620-A6","2017/10/17 07:59:41","新北市平溪區南山里南山坪58號","121.775926666667","25.0400083333333","6502400","平溪區"
"226002","7418-A5","2017/10/17 07:59:52","新北市平溪區十分里姜仔坑14號","121.770258333333","25.0391366666667","6502400","平溪區"
"226003","AGD-0702","2017/10/17 07:59:46","新北市平溪區新寮里頂寮子3-1號","121.769313333333","25.05088","6502400","平溪區"
"223006","022-BY","2017/10/17 07:59:50","新北市坪林區下坑子口7號","121.71086","24.9446233333333","6501900","石碇區"
"223002","198-BX","2017/10/17 07:59:30","新北市石碇區北宜路六段獅子頭坑巷16號","121.642268333333","24.9322133333333","6501900","石碇區"
"223003","205-TH","2017/10/17 07:54:29","新北市石碇區崩山36-1號","121.671721666667","24.9582666666667","6501900","石碇區"
"223008","406-TH","2017/10/17 07:40:58","新北市石碇區靜安路一段337號","121.698776666667","25.0145516666667","6501900","石碇區"
"223001","592-UM","2017/10/17 07:59:26","新北市石碇區樟空子7-2號","121.667686666667","24.963435","6501900","石碇區"
"223004","660-BX","2017/10/17 07:59:50","新北市石碇區外按18-2號","121.651218333333","24.999785","6501900","石碇區"
"223007","661-BX","2017/10/17 07:59:43","新北市石碇區靜安路一段337號","121.698935","25.0146","6501900","石碇區"
"223005","677-TV","2017/10/17 07:59:40","新北市石碇區碇坪路一段18號","121.651671666667","25.0057083333333","6501900","石碇區"
"227006","282-VK","2017/10/17 07:59:48","新北市雙溪區平林里梅竹蹊16號","121.862003333333","25.0359783333333","6502500","雙溪區"
"252004","249-BX","2017/10/17 07:59:35","新北市三芝區興華里車埕31-3號","121.503385","25.1948966666667","6502100","三芝區"
"252007","AAC-283","2017/10/17 07:59:46","新北市三芝區海景四街8號","121.474533333333","25.24728","6502100","三芝區"
"237001","159-UY","2017/10/17 07:59:47","新北市三峽區三樹路128-1號","121.378181666667","24.9395983333333","6500900","三峽區"
"236008","165-UM","2017/10/17 07:59:38","新北市土城區清水路194巷8號","121.460505","24.9814733333333","6501300","土城區"
"236002","339-SR","2017/10/17 07:59:46","新北市土城區龍泉路79-1號","121.429648333333","24.9425433333333","6501300","土城區"
