"lineid","car","time","location","longitude","latitude","cityid","cityname"
"244002","657-BX","2017/10/17 08:09:48","新北市林口區下福里15鄰68號","121.309965","25.1146116666667","6501700","林口區"
"222004","289-BY","2017/10/17 08:09:41","新北市深坑區文化街45號","121.616923333333","25.0017483333333","6501800","深坑區"
"231007","189-VK","2017/10/17 08:09:46","新北市新店區小坑二路2巷7號","121.532488333333","24.9164483333333","6500600","新店區"
"231009","192-VK","2017/10/17 08:09:43","新北市新店區溪洲路55號","121.53323","24.960475","6500600","新店區"
"220034","015-TV","2017/10/17 08:09:47","新北市五股區新五路二段2巷2-1號","121.438028333333","25.0658316666667","6500100","板橋區"
"226005","5620-A6","2017/10/17 08:09:47","新北市平溪區南山里六分11號","121.797631666667","25.0498933333333","6502400","平溪區"
"226002","7418-A5","2017/10/17 08:09:52","新北市平溪區東勢里芊蓁林37號","121.75133","25.01635","6502400","平溪區"
"226003","AGD-0702","2017/10/17 08:09:46","新北市平溪區十分里十分街286號","121.776148333333","25.04686","6502400","平溪區"
"223006","022-BY","2017/10/17 08:09:50","新北市石碇區八分寮47-1號","121.64258","25.01387","6501900","石碇區"
"223002","198-BX","2017/10/17 08:09:51","新北市石碇區北宜路六段塗潭巷2號","121.644908333333","24.93778","6501900","石碇區"
"223003","205-TH","2017/10/17 08:09:49","新北市石碇區小粗坑(格頭里)1號","121.65532","24.9543683333333","6501900","石碇區"
"223008","406-TH","2017/10/17 08:09:48","新北市石碇區靜安路一段312號","121.692813333333","25.0065666666667","6501900","石碇區"
"223001","592-UM","2017/10/17 08:09:46","新北市石碇區小粗坑(格頭里)1號","121.6538","24.9544733333333","6501900","石碇區"
"223004","660-BX","2017/10/17 08:09:50","新北市石碇區外按16-1號","121.65084","24.9974533333333","6501900","石碇區"
"223007","661-BX","2017/10/17 08:09:43","新北市石碇區靜安路一段308號","121.69265","25.0065766666667","6501900","石碇區"
"223005","677-TV","2017/10/17 08:09:40","新北市石碇區外按16-1號","121.65081","24.9975183333333","6501900","石碇區"
"227006","282-VK","2017/10/17 08:09:48","新北市雙溪區牡丹里聖南2號","121.860213333333","25.0506933333333","6502500","雙溪區"
"252004","249-BX","2017/10/17 08:09:35","新北市三芝區興華里車埕60號","121.49863","25.197","6502100","三芝區"
"252007","AAC-283","2017/10/17 08:09:46","新北市三芝區後厝里土地公坑56-1號","121.46464","25.2479883333333","6502100","三芝區"
"237001","159-UY","2017/10/17 08:09:47","新北市三峽區學成路269號","121.37573","24.943055","6500900","三峽區"
"236008","165-UM","2017/10/17 08:09:38","新北市土城區青雲路322巷28號","121.457058333333","24.9749116666667","6501300","土城區"
"236002","339-SR","2017/10/17 08:09:46","新北市土城區龍泉路66-2號","121.415195","24.942015","6501300","土城區"
"236006","498-BY","2017/10/17 08:09:53","新北市土城區永平街51號","121.427551666667","24.959085","6501300","土城區"
