"lineid","car","time","location","longitude","latitude","cityid","cityname"
"222004","289-BY","2017/10/17 09:49:40","新北市深坑區阿柔洋62號","121.607703333333","24.9986466666667","6501800","深坑區"
"231007","189-VK","2017/10/17 09:49:45","新北市新店區新潭路三段215巷25號","121.50819","24.90412","6500600","新店區"
"231009","192-VK","2017/10/17 09:44:03","新北市新店區平廣路一段250號","121.508238333333","24.8885083333333","6500600","新店區"
"223007","661-BX","2017/10/17 09:49:43","新北市新店區安平路42號","121.52213","24.9683266666667","6501900","石碇區"
"227006","282-VK","2017/10/17 09:49:48","新北市雙溪區長源里柑腳8號","121.804628333333","25.0144033333333","6502500","雙溪區"
"227012","030-BX","2017/10/17 09:48:16","新北市雙溪區泰平里烏山路11號","121.796868333333","24.9500883333333","6502500","雙溪區"
"252004","249-BX","2017/10/17 09:49:55","新北市三芝區圓山里石曹子坑43-6號","121.516663333333","25.21664","6502100","三芝區"
"252007","AAC-283","2017/10/17 09:49:46","新北市三芝區埔坪里埔頭坑45號","121.50535","25.2620316666667","6502100","三芝區"
"236006","498-BY","2017/10/17 09:49:53","新北市土城區中華路二段88號","121.438008333333","24.9754666666667","6501300","土城區"
