"lineid","car","time","location","longitude","latitude","cityid","cityname"
"234044","148-BY","2017/10/17 13:19:38","新北市永和區秀朗路二段124-3號","121.524773333333","25.001575","6500400","永和區"
"234012","149-BY","2017/10/17 13:19:38","新北市永和區信義路46-1號","121.513343333333","25.012405","6500400","永和區"
"234005","207-UY","2017/10/17 13:19:36","新北市永和區中山路一段275號","121.50711","25.0070683333333","6500400","永和區"
"234078","298-R6","2017/10/17 13:19:32","新北市永和區林森路10巷35號","121.525753333333","25.0064","6500400","永和區"
"234036","336-UY","2017/10/17 13:19:45","新北市永和區民樂街68號","121.527413333333","24.9986383333333","6500400","永和區"
"234062","337-UY","2017/10/17 13:19:31","新北市永和區永元路17巷9號","121.521286666667","25.0006683333333","6500400","永和區"
"234084","338-UY","2017/10/17 13:19:34","新北市永和區永利路37號","121.518813333333","25.0056733333333","6500400","永和區"
"234068","552-UM","2017/10/17 13:19:45","新北市永和區豫溪街61號","121.517391666667","25.0099533333333","6500400","永和區"
"234052","553-UM","2017/10/17 13:19:36","新北市永和區中興街61號","121.516645","25.01172","6500400","永和區"
"234015","745-BX","2017/10/17 13:19:45","新北市永和區環河西路一段95巷9號","121.511798333333","25.0174566666667","6500400","永和區"
"234028","746-BX","2017/10/17 13:19:45","新北市永和區厚德街46號","121.52504","24.9987866666667","6500400","永和區"
"234060","AAD-866","2017/10/17 13:19:45","新北市永和區秀朗路一段175號","121.517021666667","25.00372","6500400","永和區"
"234040","862-TW","2017/10/17 13:19:36","新北市永和區保平路151巷2弄6-3號","121.509526666667","25.0053","6500400","永和區"
"234048","863-TW","2017/10/17 13:19:33","新北市永和區保福路二段88巷29號","121.512035","25.0138016666667","6500400","永和區"
"234025","9371-KE","2017/10/17 13:19:38","新北市永和區豫溪街42巷8號","121.51537","25.0093633333333","6500400","永和區"
"234010","9373-KE","2017/10/17 13:19:48","新北市永和區忠孝街34巷18號","121.514518333333","25.016825","6500400","永和區"
"248017","225-UY","2017/10/17 13:19:32","新北市五股區御史路138號","121.43324","25.098885","6501500","五股區"
"234022","9380-KE","2017/10/17 13:19:28","新北市永和區竹林路91巷21弄9號","121.52084","25.0125683333333","6500400","永和區"
"234076","969-R7","2017/10/17 13:19:42","新北市永和區民有街28號","121.51693","24.9962616666667","6500400","永和區"
"234072","AAC-211","2017/10/17 13:19:30","新北市永和區竹林路44號","121.517651666667","25.0143266666667","6500400","永和區"
"234066","AAC-212","2017/10/17 13:19:49","新北市永和區保平路50巷1號","121.511233333333","25.0072266666667","6500400","永和區"
"234001","AAC-295","2017/10/17 13:19:46","新北市永和區保福路一段57號","121.51261","25.00948","6500400","永和區"
"231028","046-UY","2017/10/17 13:19:25","新北市新店區安華路28-1號","121.519628333333","24.9608166666667","6500600","新店區"
"231030","047-UY","2017/10/17 13:19:41","新北市新店區安華路28-1號","121.519261666667","24.96104","6500600","新店區"
"231029","106-UY","2017/10/17 13:19:36","新北市新店區安華路28-1號","121.51965","24.96086","6500600","新店區"
"231012","108-UY","2017/10/17 13:19:46","新北市新店區安康路一段124號","121.52694","24.96282","6500600","新店區"
"231020","187-VK","2017/10/17 13:19:38","新北市新店區安華路28-1號","121.519628333333","24.96126","6500600","新店區"
"231069","189-VK","2017/10/17 11:54:20","新北市新店區安華路28-1號","121.51958","24.961045","6500600","新店區"
"231015","KEA-2219","2017/10/17 13:19:34","新北市新店區安康路一段355-3號","121.519801666667","24.962485","6500600","新店區"
"231026","256-BX","2017/10/17 13:19:36","新北市新店區安華路28-1號","121.519641666667","24.961195","6500600","新店區"
"231010","278-BY","2017/10/17 13:19:31","新北市新店區安康路一段116號","121.527115","24.9626466666667","6500600","新店區"
"231023","AAD-862","2017/10/17 13:19:34","新北市新店區安康路一段50-1號","121.529775","24.961385","6500600","新店區"
"231027","3712-VJ","2017/10/17 13:19:30","新北市新店區安康路一段222-1號","121.522768333333","24.9637383333333","6500600","新店區"
"231024","3713-VJ","2017/10/17 13:19:43","新北市新店區安康路一段355-3號","121.519775","24.961855","6500600","新店區"
"231025","4716-K9","2017/10/17 13:19:29","新北市新店區安華路28-1號","121.519283333333","24.961265","6500600","新店區"
"231038","4715-K9","2017/10/17 13:19:37","新北市新店區安華路28-1號","121.51945","24.96067","6500600","新店區"
"231036","513-UM","2017/10/17 13:19:30","新北市新店區安忠路102-1號","121.51033","24.9556916666667","6500600","新店區"
"231035","515-UM","2017/10/17 13:19:44","新北市新店區安華路28-1號","121.51982","24.9612066666667","6500600","新店區"
"231006","617-UM","2017/10/17 13:19:33","新北市新店區安華路28-1號","121.519433333333","24.9609833333333","6500600","新店區"
"231001","619-UM","2017/10/17 13:19:40","新北市新店區安華路28-1號","121.519585","24.960905","6500600","新店區"
"231003","641-BX","2017/10/17 13:19:45","新北市新店區安華路28-1號","121.519543333333","24.960525","6500600","新店區"
"231034","645-TV","2017/10/17 13:19:30","新北市新店區安華路28-1號","121.519523333333","24.9607483333333","6500600","新店區"
"231013","719-UM","2017/10/17 13:19:36","新北市新店區安康路一段355-10號","121.520741666667","24.96392","6500600","新店區"
"231018","719-UY","2017/10/17 13:19:44","新北市新店區安康路一段355-3號","121.519761666667","24.96209","6500600","新店區"
"231032","720-UM","2017/10/17 13:19:29","新北市新店區安華路28-1號","121.519276666667","24.9613833333333","6500600","新店區"
"231005","897-TW","2017/10/17 13:19:32","新北市新店區安華路28-1號","121.519521666667","24.9609133333333","6500600","新店區"
"231004","899-TW","2017/10/17 13:19:40","新北市新店區安華路28-1號","121.519328333333","24.96091","6500600","新店區"
"231037","AKT-0513","2017/10/17 13:19:28","新北市新店區安忠路205巷8號","121.509336666667","24.9549716666667","6500600","新店區"
"235064","005-UY","2017/10/17 13:19:27","新北市中和區中興街118巷8號","121.49989","24.99337","6500300","中和區"
"235027","006-UY","2017/10/17 13:19:44","新北市中和區員山路36巷16-3號","121.484981666667","24.991355","6500300","中和區"
"235020","096-UM","2017/10/17 13:19:43","新北市中和區連城路469巷37號","121.483526666667","24.9945816666667","6500300","中和區"
"235003","097-UM","2017/10/17 13:19:30","新北市中和區景安路78號","121.505711666667","24.996435","6500300","中和區"
"235029","098-UM","2017/10/17 13:19:35","新北市中和區福祥路8號","121.499545","25.00296","6500300","中和區"
"235004","150-BY","2017/10/17 13:19:42","新北市中和區保健路50巷62-1號","121.509375","24.99524","6500300","中和區"
"235022","151-BY","2017/10/17 13:19:45","新北市中和區圓通路367巷60號","121.491651666667","24.98422","6500300","中和區"
"235019","183-VK","2017/10/17 13:19:38","新北市中和區員山路36巷16-3號","121.485033333333","24.9913733333333","6500300","中和區"
"235002","185-VK","2017/10/17 13:19:39","新北市中和區大智街29號","121.520326666667","24.9919883333333","6500300","中和區"
"235031","255-BX","2017/10/17 13:19:34","新北市中和區新生街278號","121.483703333333","24.9968133333333","6500300","中和區"
"235036","301-VK","2017/10/17 13:19:29","新北市中和區錦和路111-1號","121.490138333333","24.9952","6500300","中和區"
"235007","352-BY","2017/10/17 13:19:26","新北市中和區景平路379號","121.504071666667","24.9934566666667","6500300","中和區"
"235015","376-QA","2017/10/17 13:19:45","新北市中和區忠孝街37巷3號","121.510838333333","24.9833733333333","6500300","中和區"
"235025","378-QA","2017/10/17 13:19:36","新北市中和區民德路216號","121.468143333333","24.9979883333333","6500300","中和區"
"235035","269-TV","2017/10/17 13:19:34","新北市中和區永和路317巷8號","121.485461666667","25.01106","6500300","中和區"
"235014","4979-A6","2017/10/17 13:19:42","新北市中和區捷運路61巷28號","121.509088333333","24.9892883333333","6500300","中和區"
"235033","4980-A6","2017/10/17 13:19:36","新北市中和區連城路127巷9號","121.49652","24.9987133333333","6500300","中和區"
"235006","551-UM","2017/10/17 13:19:43","新北市中和區大勇街46巷2號","121.517418333333","24.993715","6500300","中和區"
"235034","558-UM","2017/10/17 13:19:39","新北市中和區圓通路170號","121.497443333333","24.994775","6500300","中和區"
"235009","565-BX","2017/10/17 13:19:28","新北市中和區中正路271號","121.495795","24.9937733333333","6500300","中和區"
"235018","640-BX","2017/10/17 13:19:42","新北市中和區莒光路171號","121.472778333333","24.999795","6500300","中和區"
"235011","732-UM","2017/10/17 13:19:39","新北市中和區中正路273號","121.4957","24.99377","6500300","中和區"
"235026","800-TS","2017/10/17 13:19:38","新北市中和區景平路999巷1號","121.495571666667","25.006135","6500300","中和區"
"235021","801-TS","2017/10/17 13:19:33","新北市中和區員山路36巷16-8號","121.485438333333","24.9922583333333","6500300","中和區"
"235016","805-TS","2017/10/17 13:19:39","新北市中和區南山路373號","121.506195","24.9905033333333","6500300","中和區"
"235017","900-TW","2017/10/17 13:19:43","新北市中和區員山路36巷16-3號","121.484976666667","24.9917933333333","6500300","中和區"
"235030","911-UM","2017/10/17 13:19:45","新北市中和區中山路二段64巷11號","121.503371666667","25.00552","6500300","中和區"
"235005","157-BY","2017/10/17 13:19:48","新北市中和區景安路34號","121.50717","24.998335","6500300","中和區"
"235001","AAC-213","2017/10/17 13:19:33","新北市中和區景平路87號","121.517781666667","24.9916783333333","6500300","中和區"
"235023","AAC-215","2017/10/17 13:19:29","新北市中和區員山路36巷16-3號","121.485006666667","24.9912183333333","6500300","中和區"
"247009","339-TH","2017/10/17 13:19:30","新北市五股區中興路三段163號","121.449258333333","25.0807016666667","6501400","蘆洲區"
"228004","212-TW","2017/10/17 13:19:35","新北市貢寮區吉林里內寮街23號","121.901933333333","24.985625","6502600","貢寮區"
"228005","828-UM","2017/10/17 13:19:34","新北市貢寮區美豐里丹裡街36-1號","121.910065","25.0599533333333","6502600","貢寮區"
"208004","AAC-292","2017/10/17 13:19:45","新北市金山區南勢湖82號","121.611673333333","25.2118133333333","6502700","金山區"
"251009","575-R6","2017/10/17 13:19:43","新北市淡水區沙崙路181巷27號","121.422898333333","25.1849733333333","6501000","淡水區"
"207002","749-BX","2017/10/17 13:19:33","新北市萬里區崁腳里崁腳路166號","121.645145","25.156065","6502800","萬里區"
"252005","249-BX","2017/10/17 13:19:28","新北市三芝區八賢里八連溪64號","121.517346666667","25.2315483333333","6502100","三芝區"
"207001","662-BX","2017/10/17 13:19:32","新北市萬里區龜吼里新墾丁路30號","121.679658333333","25.1944666666667","6502800","萬里區"
"236006","498-BY","2017/10/17 13:19:45","新北市土城區大安路138巷17號","121.43411","24.9713966666667","6501300","土城區"
"238021","KEA-2217","2017/10/17 13:19:39","新北市樹林區東豐街49巷21號","121.415083333333","24.9747416666667","6500700","樹林區"
"221012","276-VK","2017/10/17 13:19:29","新北市汐止區汐萬路一段256巷3號","121.653361666667","25.074745","6501100","汐止區"
"221012","278-VK","2017/10/17 13:19:34","新北市汐止區汐萬路一段312號","121.650425","25.075025","6501100","汐止區"
"221032","280-BY","2017/10/17 13:19:35","新北市汐止區龍安路28巷14號","121.654735","25.0642266666667","6501100","汐止區"
"221031","353-TW","2017/10/17 13:19:40","新北市汐止區水源路二段22巷25號","121.654636666667","25.0566916666667","6501100","汐止區"
"221018","753-BX","2017/10/17 13:19:44","新北市汐止區福德一路392巷41弄23號","121.625373333333","25.0620783333333","6501100","汐止區"
"220004","276-BY","2017/10/17 13:19:31","新北市板橋區華東街1-9號","121.448158333333","24.9949933333333","6500100","板橋區"
