"lineid","car","time","location","longitude","latitude","cityid","cityname"
"231002","002-UM","2017/10/17 15:19:45","台北市文山區景文街146巷28號","121.532675","24.9913583333333","6500600","新店區"
"231028","046-UY","2017/10/17 15:19:49","新北市新店區僑信路74巷44號","121.498656666667","24.9479166666667","6500600","新店區"
"231030","047-UY","2017/10/17 15:19:41","新北市新店區安民街339號","121.516916666667","24.9748666666667","6500600","新店區"
"231029","106-UY","2017/10/17 15:19:36","新北市新店區安康路三段595-1號","121.4717","24.9404316666667","6500600","新店區"
"231012","108-UY","2017/10/17 15:19:52","新北市新店區北新路三段238號","121.540091666667","24.9866666666667","6500600","新店區"
"231020","187-VK","2017/10/17 15:19:38","新北市新店區湖興路128-7號","121.560833333333","24.9303566666667","6500600","新店區"
"231069","189-VK","2017/10/17 11:54:20","新北市新店區安華路28-1號","121.51958","24.961045","6500600","新店區"
"231026","256-BX","2017/10/17 15:19:48","新北市新店區中正路278號","121.538681666667","24.9737066666667","6500600","新店區"
"231023","AAD-862","2017/10/17 15:19:51","新北市新店區行政街14巷1號","121.543171666667","24.9661466666667","6500600","新店區"
"231024","3713-VJ","2017/10/17 15:19:32","新北市新店區北新路一段311號","121.541275","24.967975","6500600","新店區"
"231025","4716-K9","2017/10/17 15:19:49","新北市新店區中央路151號","121.529316666667","24.972315","6500600","新店區"
"231036","513-UM","2017/10/17 15:19:50","新北市新店區安祥路69巷15號","121.481908333333","24.9614166666667","6500600","新店區"
"231035","515-UM","2017/10/17 15:19:44","新北市新店區安和路三段29-1號","121.517473333333","24.9814566666667","6500600","新店區"
"231001","619-UM","2017/10/17 15:19:40","新北市新店區光明街298號","121.540535","24.9647716666667","6500600","新店區"
"231003","641-BX","2017/10/17 15:19:44","新北市新店區寶高路21號","121.553038333333","24.9774883333333","6500600","新店區"
"231034","645-TV","2017/10/17 15:19:50","新北市新店區玫瑰路38號","121.495776666667","24.9499383333333","6500600","新店區"
"231039","718-UY","2017/10/17 15:19:50","新北市新店區寶元路一段65號","121.542276666667","24.9857766666667","6500600","新店區"
"231018","719-UY","2017/10/17 15:19:44","新北市新店區中央七街57號","121.528251666667","24.976195","6500600","新店區"
"231032","720-UM","2017/10/17 15:19:49","新北市新店區和成街15巷2號","121.487745","24.9472916666667","6500600","新店區"
"231005","897-TW","2017/10/17 15:19:49","新北市新店區建國路217號","121.537731666667","24.9807816666667","6500600","新店區"
"231004","899-TW","2017/10/17 15:19:39","新北市新店區博愛街13巷24號","121.54026","24.9740633333333","6500600","新店區"
"231037","AKT-0513","2017/10/17 15:19:48","新北市新店區安興路85-2號","121.515211666667","24.9751316666667","6500600","新店區"
"235036","301-VK","2017/10/17 15:07:30","新北市中和區員山路36巷13號","121.484021666667","24.9909616666667","6500300","中和區"
"235025","378-QA","2017/10/17 15:11:52","新北市中和區員山路36巷16-3號","121.48452","24.991105","6500300","中和區"
"235035","269-TV","2017/10/17 15:19:34","新北市中和區永和路341巷7號","121.4832","25.0105433333333","6500300","中和區"
"235014","4979-A6","2017/10/17 15:19:42","新北市中和區景安路82巷6弄2號","121.50521","24.996245","6500300","中和區"
"235033","4980-A6","2017/10/17 15:19:36","新北市中和區新生街282號","121.48366","24.99674","6500300","中和區"
"235034","558-UM","2017/10/17 15:19:39","新北市中和區圓通路179號","121.497538333333","24.9948666666667","6500300","中和區"
"235026","800-TS","2017/10/17 15:19:36","新北市中和區中正路513號","121.488258333333","24.9942333333333","6500300","中和區"
"235012","896-TW","2017/10/17 15:19:49","新北市中和區景新街368號","121.512071666667","24.990375","6500300","中和區"
"235023","AAC-215","2017/10/17 15:19:49","新北市中和區圓通路320-1號","121.485556666667","24.9879466666667","6500300","中和區"
"220013","072-UY","2017/10/17 15:19:37","新北市板橋區大觀路三段59巷17弄5-1號","121.434855","24.9953366666667","6500100","板橋區"
"247009","339-TH","2017/10/17 15:19:49","新北市五股區中興路三段163號","121.449373333333","25.08052","6501400","蘆洲區"
"247004","336-TH","2017/10/17 14:57:53","新北市五股區中興路三段163號","121.449226666667","25.0806133333333","6501400","蘆洲區"
"208004","AAC-292","2017/10/17 15:19:45","新北市金山區六股里下六股15號","121.625193333333","25.2242666666667","6502700","金山區"
"207002","749-BX","2017/10/17 15:19:53","新北市萬里區崁腳里內中福路2號","121.667576666667","25.1649016666667","6502800","萬里區"
"207001","662-BX","2017/10/17 15:19:52","新北市萬里區大鵬里萬里加投9號","121.652151666667","25.2079766666667","6502800","萬里區"
"236065","105-UM","2017/10/17 15:19:50","新北市土城區裕民路185巷36弄10號","121.45436","24.9846016666667","6501300","土城區"
"236041","107-UM","2017/10/17 15:19:51","新北市土城區學府路一段145號","121.453648333333","24.9860616666667","6501300","土城區"
"236075","166-UM","2017/10/17 15:19:51","新北市土城區中央路四段207號","121.413931666667","24.9559983333333","6501300","土城區"
"236029","253-BX","2017/10/17 15:19:34","新北市土城區中央路一段262巷5號","121.443696666667","24.9840283333333","6501300","土城區"
"236013","270-VK","2017/10/17 15:19:46","新北市土城區廣興街18號","121.456388333333","24.9918133333333","6501300","土城區"
"236034","271-VK","2017/10/17 15:19:48","新北市土城區國際路139巷1號","121.468313333333","24.9765433333333","6501300","土城區"
"236017","401-BY","2017/10/17 15:19:37","新北市土城區峰廷街3號","121.469111666667","24.9873333333333","6501300","土城區"
"236025","752-BX","2017/10/17 15:19:42","新北市土城區員林街12巷12號","121.443073333333","24.97684","6501300","土城區"
"236057","912-UM","2017/10/17 15:19:40","新北市土城區金城路一段11號","121.439415","24.9691016666667","6501300","土城區"
"236045","913-UM","2017/10/17 15:13:06","新北市土城區清水路263號","121.463186666667","24.98463","6501300","土城區"
"236061","915-UM","2017/10/17 15:19:34","新北市土城區延和路217號","121.469975","24.9897416666667","6501300","土城區"
"236054","AAC-216","2017/10/17 15:19:48","新北市土城區學府路一段85號","121.456535","24.987985","6501300","土城區"
"221012","276-VK","2017/10/17 13:28:07","新北市汐止區汐萬路一段256巷3號","121.653411666667","25.0746533333333","6501100","汐止區"
"221012","278-VK","2017/10/17 15:19:34","新北市汐止區汐萬路一段302號","121.65055","25.0746183333333","6501100","汐止區"
"220027","145-BY","2017/10/17 15:19:53","新北市八里區商港路82號","121.395336666667","25.1463616666667","6500100","板橋區"
"220050","245-BX","2017/10/17 15:19:49","新北市板橋區莊敬路113號","121.472091666667","25.0258316666667","6500100","板橋區"
"220019","283-VK","2017/10/17 15:19:41","新北市板橋區溪城路90-2號","121.428898333333","24.980335","6500100","板橋區"
"220001","285-VK","2017/10/17 15:19:43","新北市板橋區中山路二段431號","121.481183333333","25.019995","6500100","板橋區"
"220031","286-VK","2017/10/17 15:19:44","新北市板橋區僑中二街108巷15號","121.445055","25.007315","6500100","板橋區"
"220029","287-VK","2017/10/17 14:49:08","新北市板橋區大觀路一段28巷71號","121.449736666667","25.011025","6500100","板橋區"
"220009","293-UM","2017/10/17 15:19:44","新北市板橋區四川路一段284號","121.458643333333","25.0008166666667","6500100","板橋區"
"220038","487-VK","2017/10/17 15:19:49","新北市板橋區四維路162號","121.46488","25.026015","6500100","板橋區"
"220052","561-BX","2017/10/17 15:19:46","新北市板橋區漢生西路77號","121.462936666667","25.0189033333333","6500100","板橋區"
"220051","830-TW","2017/10/17 15:19:42","新北市板橋區民生路二段251號","121.46832","25.0222316666667","6500100","板橋區"
"220018","AAC-253","2017/10/17 15:19:46","新北市板橋區四川路二段245巷14號","121.451006666667","24.9930466666667","6500100","板橋區"
