"lineid","car","time","location","longitude","latitude","cityid","cityname"
"249005","172-UM","2017/10/17 16:51:35","新北市八里區大堀湖2-9號","121.424121666667","25.1523683333333","6502300","八里區"
"249001","173-UM","2017/10/17 16:51:38","新北市八里區中山路二段210巷128號","121.40385","25.1551183333333","6502300","八里區"
"249004","303-UY","2017/10/17 16:51:55","新北市八里區中山路二段210巷158號","121.404318333333","25.15681","6502300","八里區"
"249002","305-UY","2017/10/17 16:51:21","新北市八里區牛寮埔31號","121.429895","25.1457466666667","6502300","八里區"
"249003","593-UM","2017/10/17 16:51:53","新北市八里區中山路二段277號","121.401851666667","25.1487566666667","6502300","八里區"
"244007","080-UY","2017/10/17 16:51:51","新北市林口區林口路126號","121.388386666667","25.081625","6501700","林口區"
"231069","189-VK","2017/10/17 11:54:20","新北市新店區安華路28-1號","121.51958","24.961045","6500600","新店區"
"231046","278-BY","2017/10/17 16:51:37","新北市新店區灣潭路29-5號","121.539615","24.9387016666667","6500600","新店區"
"241011","013-R5","2017/10/17 16:51:37","新北市三重區龍濱路190號","121.501156666667","25.07319","6500200","三重區"
"241028","022-UY","2017/10/17 16:51:49","新北市三重區大同南路56號","121.4961","25.0597833333333","6500200","三重區"
"241008","059-VK","2017/10/17 16:51:38","新北市三重區永安北路一段11巷11號","121.476733333333","25.0748233333333","6500200","三重區"
"241009","060-VK","2017/10/17 16:51:43","新北市三重區溪尾街220號","121.487653333333","25.0813983333333","6500200","三重區"
"241031","061-VK","2017/10/17 16:51:55","新北市三重區過圳街31巷5號","121.489225","25.0604133333333","6500200","三重區"
"241015","062-VK","2017/10/17 16:51:36","新北市三重區長元街40號","121.499773333333","25.0660316666667","6500200","三重區"
"241017","063-VK","2017/10/17 16:51:43","新北市三重區大同北路56號","121.494276666667","25.0639183333333","6500200","三重區"
"241026","066-VK","2017/10/17 16:51:50","新北市三重區文化南路10巷28號","121.50097","25.0621683333333","6500200","三重區"
"241002","090-VK","2017/10/17 16:51:38","新北市三重區仁義街161-3號","121.497023333333","25.0813083333333","6500200","三重區"
"241003","091-VK","2017/10/17 16:51:50","新北市三重區五華街85號","121.492091666667","25.0832116666667","6500200","三重區"
"241005","262-UM","2017/10/17 16:51:58","新北市三重區仁華街60號","121.483961666667","25.08289","6500200","三重區"
"241016","266-UM","2017/10/17 16:51:36","新北市三重區大同北路135巷38號","121.493723333333","25.0649","6500200","三重區"
"241022","267-UM","2017/10/17 16:51:45","新北市三重區貴陽街47巷19弄16號","121.484846666667","25.06221","6500200","三重區"
"241018","268-UM","2017/10/17 16:51:50","新北市三重區民生東街13號","121.493151666667","25.06897","6500200","三重區"
"241032","269-UM","2017/10/17 16:51:45","新北市三重區三光街47-1號","121.48409","25.0608916666667","6500200","三重區"
"241025","271-UM","2017/10/17 16:51:39","新北市三重區中正北路510號","121.472611666667","25.0717116666667","6500200","三重區"
"241007","398-BY","2017/10/17 16:51:48","新北市三重區三和路四段181巷202號","121.48694","25.0803383333333","6500200","三重區"
"241024","KEA-2210","2017/10/17 16:51:55","新北市三重區中正北路317巷35號","121.47616","25.07308","6500200","三重區"
"241020","413-TH","2017/10/17 16:51:53","新北市三重區忠孝路二段51號","121.485606666667","25.0709566666667","6500200","三重區"
"241004","475-VK","2017/10/17 16:51:46","新北市三重區仁愛街397巷9號","121.491735","25.0812766666667","6500200","三重區"
"241019","478-VK","2017/10/17 16:51:45","新北市三重區忠孝路二段38巷14號","121.485641666667","25.0701366666667","6500200","三重區"
"241030","480-VK","2017/10/17 16:51:53","新北市三重區新興路14號","121.492403333333","25.053125","6500200","三重區"
"241014","543-UM","2017/10/17 16:51:48","新北市三重區長榮路75號","121.50254","25.069085","6500200","三重區"
"241023","545-UM","2017/10/17 16:51:44","新北市三重區中華路76巷27號","121.482498333333","25.0627","6500200","三重區"
"241001","547-UM","2017/10/17 16:51:45","新北市三重區仁政街54巷5號","121.492691666667","25.076985","6500200","三重區"
"241006","AAD-863","2017/10/17 16:51:46","新北市三重區力行路二段182-3號","121.483373333333","25.077455","6500200","三重區"
"241013","887-TS","2017/10/17 16:51:43","新北市三重區三和路三段101巷64號","121.496266666667","25.0730383333333","6500200","三重區"
"241012","941-UM","2017/10/17 16:51:39","新北市三重區仁興街11巷74號","121.501776666667","25.0748033333333","6500200","三重區"
"241029","942-UM","2017/10/17 16:51:46","新北市三重區新興路31巷1號","121.492331666667","25.05361","6500200","三重區"
"241033","AAC-255","2017/10/17 16:51:47","新北市三重區中山路234號","121.468371666667","25.06134","6500200","三重區"
"235036","301-VK","2017/10/17 15:07:30","新北市中和區員山路36巷13號","121.484021666667","24.9909616666667","6500300","中和區"
"235025","378-QA","2017/10/17 15:11:52","新北市中和區員山路36巷16-3號","121.48452","24.991105","6500300","中和區"
"235062","800-TS","2017/10/17 16:28:29","新北市中和區員山路36巷16-3號","121.484886666667","24.9916433333333","6500300","中和區"
"247010","339-TH","2017/10/17 16:51:45","新北市蘆洲區信義路158-6號","121.479431666667","25.08397","6501400","蘆洲區"
"247004","336-TH","2017/10/17 16:51:38","新北市蘆洲區長榮路106號","121.46179","25.084015","6501400","蘆洲區"
"247016","057-VK","2017/10/17 16:51:45","新北市蘆洲區正和街3號","121.47042","25.0827416666667","6501400","蘆洲區"
"247006","056-VK","2017/10/17 16:51:44","新北市蘆洲區長安街73巷30-1號","121.461626666667","25.0793316666667","6501400","蘆洲區"
"247008","053-VK","2017/10/17 16:51:40","新北市蘆洲區中山一路197巷1號","121.47449","25.0809416666667","6501400","蘆洲區"
"247018","001-UY","2017/10/17 16:51:44","新北市蘆洲區中正路520巷10號","121.463418333333","25.09987","6501400","蘆洲區"
"228002","663-BX","2017/10/17 16:51:58","新北市貢寮區貢寮里長潭街7號","121.893935","25.0241116666667","6502600","貢寮區"
"228003","828-UM","2017/10/17 16:51:40","新北市貢寮區雙玉里學苑街21號","121.916586666667","25.0223833333333","6502600","貢寮區"
"224006","676-BX","2017/10/17 16:51:42","新北市瑞芳區大寮路356-1號","121.784868333333","25.1032416666667","6501200","瑞芳區"
"224009","285-BY","2017/10/17 16:51:39","新北市瑞芳區中山路251號","121.798301666667","25.109225","6501200","瑞芳區"
"224008","275-VK","2017/10/17 16:51:55","新北市瑞芳區民權街3-1號","121.809281666667","25.10835","6501200","瑞芳區"
"224007","273-VK","2017/10/17 16:51:45","新北市瑞芳區瑞竹路92號","121.762826666667","25.1036466666667","6501200","瑞芳區"
"224005","271-BY","2017/10/17 16:51:45","新北市瑞芳區明里路90號","121.867736666667","25.1220016666667","6501200","瑞芳區"
"227003","642-TC","2017/10/17 16:51:42","新北市雙溪區外柑里外柑腳94號","121.806495","25.0179816666667","6502500","雙溪區"
"227009","400-TW","2017/10/17 16:51:38","新北市雙溪區牡丹里五分10號","121.8666","25.0471216666667","6502500","雙溪區"
"251014","180-VK","2017/10/17 16:51:47","新北市淡水區興仁路40巷1號","121.452796666667","25.2158716666667","6501000","淡水區"
"251008","181-VK","2017/10/17 16:51:48","新北市淡水區樹梅坑45號","121.474661666667","25.1446","6501000","淡水區"
"251010","413-VK","2017/10/17 16:51:37","新北市淡水區中正路二段18號","121.420165","25.1811433333333","6501000","淡水區"
"251012","441-VK","2017/10/17 16:51:43","新北市淡水區中正路二段31號","121.419596666667","25.1815216666667","6501000","淡水區"
"251016","442-VK","2017/10/17 16:51:55","新北市淡水區水頭42號","121.478158333333","25.185095","6501000","淡水區"
"251007","577-R6","2017/10/17 16:51:47","新北市淡水區中正路28巷1號","121.43311","25.1745333333333","6501000","淡水區"
"251011","650-BX","2017/10/17 16:51:53","新北市淡水區中正路一段87巷1號","121.421848333333","25.1792716666667","6501000","淡水區"
"252001","702-TV","2017/10/17 16:51:38","新北市三芝區淡金路二段76-1號","121.503896666667","25.26085","6502100","三芝區"
"236047","970-R7","2017/10/17 16:51:09","新北市土城區城林路6巷80號","121.43866","24.9797166666667","6501300","土城區"
"242042","400-BY","2017/10/17 16:51:36","新北市新莊區新泰路357巷3弄57號","121.442256666667","25.0396366666667","6500500","新莊區"
"242061","362-BY","2017/10/17 16:51:36","新北市新莊區三和路12-21號","121.442313333333","25.0385916666667","6500500","新莊區"
"242037","133-UY","2017/10/17 16:51:44","新北市新莊區新泰路255巷83號","121.442046666667","25.0390083333333","6500500","新莊區"
"242046","172-VK","2017/10/17 13:46:21","新北市新莊區新泰路255巷83號","121.442083333333","25.0390166666667","6500500","新莊區"
"242013","347-TH","2017/10/17 01:05:02","新北市新莊區公園一路75巷13號","121.442663333333","25.0381316666667","6500500","新莊區"
"239007","AAC-297","2017/10/17 04:44:41","新北市鶯歌區二甲路13-16號","121.34502","24.93515","6500800","鶯歌區"
"239008","527-UM","2017/10/17 02:19:23","新北市鶯歌區二甲路13-16號","121.345006666667","24.9353333333333","6500800","鶯歌區"
"239003","360-BY","2017/10/17 16:51:51","新北市鶯歌區二甲路12-2號","121.345461666667","24.9350616666667","6500800","鶯歌區"
"239002","359-BY","2017/10/16 20:48:29","新北市鶯歌區二甲路13號","121.344055","24.93547","6500800","鶯歌區"
"221012","276-VK","2017/10/17 13:28:07","新北市汐止區汐萬路一段256巷3號","121.653411666667","25.0746533333333","6501100","汐止區"
"221012","278-VK","2017/10/17 15:25:27","新北市汐止區汐萬路一段256巷1號","121.651798333333","25.0748516666667","6501100","汐止區"
"242034","280-VK","2017/10/17 16:51:36","新北市新莊區三和路12-21號","121.441851666667","25.0384383333333","6500500","新莊區"
