"lineid","car","time","location","longitude","latitude","cityid","cityname"
"249005","172-UM","2017/10/17 17:29:35","新北市八里區荖阡坑路30號","121.405043333333","25.129905","6502300","八里區"
"249001","173-UM","2017/10/17 17:29:38","新北市八里區龍米路三段13-1號","121.428433333333","25.1591366666667","6502300","八里區"
"249004","303-UY","2017/10/17 17:29:35","新北市八里區賢一街219號","121.415615","25.1558816666667","6502300","八里區"
"249002","305-UY","2017/10/17 17:29:41","新北市八里區龍米路一段263-2號","121.449731666667","25.1365916666667","6502300","八里區"
"249003","593-UM","2017/10/17 17:29:33","新北市八里區中山路二段317號","121.400668333333","25.1476583333333","6502300","八里區"
"244013","069-UM","2017/10/17 17:29:44","新北市林口區粉寮路17巷1號","121.398393333333","25.0806816666667","6501700","林口區"
"244007","080-UY","2017/10/17 17:29:51","新北市林口區湖子10-2號","121.387741666667","25.09032","6501700","林口區"
"244025","742-UY","2017/10/17 17:29:36","新北市林口區民族路157號","121.367053333333","25.0764883333333","6501700","林口區"
"244009","410-SL","2017/10/17 17:29:31","新北市林口區松柏路73號","121.379206666667","25.08994","6501700","林口區"
"244023","483-VK","2017/10/17 17:29:49","新北市林口區興林路54號","121.389421666667","25.0742116666667","6501700","林口區"
"244017","485-VK","2017/10/17 17:29:41","新北市林口區粉寮路二段46-1號","121.40357","25.0871716666667","6501700","林口區"
"244011","701-TV","2017/10/17 17:29:29","新北市林口區竹林路1-10號","121.386425","25.0769016666667","6501700","林口區"
"231069","189-VK","2017/10/17 11:54:20","新北市新店區安華路28-1號","121.51958","24.961045","6500600","新店區"
"231046","278-BY","2017/10/17 17:29:37","新北市新店區直潭路92號","121.53092","24.937595","6500600","新店區"
"241011","013-R5","2017/10/17 17:29:37","新北市三重區河邊北街122-1號","121.503503333333","25.0714333333333","6500200","三重區"
"241015","062-VK","2017/10/17 17:29:36","新北市三重區長元街65巷16弄15號","121.503506666667","25.0662066666667","6500200","三重區"
"241017","063-VK","2017/10/17 17:29:43","新北市三重區重新路三段47巷3弄36號","121.493616666667","25.06211","6500200","三重區"
"241003","091-VK","2017/10/17 17:29:30","新北市三重區仁義街288號","121.493646666667","25.0863516666667","6500200","三重區"
"241005","262-UM","2017/10/17 17:29:38","新北市三重區永安北路二段5巷47號","121.48321","25.0812883333333","6500200","三重區"
"241016","266-UM","2017/10/17 17:29:36","新北市三重區信義西街49號","121.495181666667","25.0639233333333","6500200","三重區"
"241018","268-UM","2017/10/17 17:29:50","新北市三重區新北大道一段7號","121.489593333333","25.06128","6500200","三重區"
"241032","269-UM","2017/10/17 17:29:45","新北市三重區名源街49號","121.482136666667","25.059745","6500200","三重區"
"241025","271-UM","2017/10/17 17:29:39","新北市三重區中正北路380號","121.476461666667","25.069865","6500200","三重區"
"241007","398-BY","2017/10/17 17:29:48","新北市三重區慈愛街65號","121.48671","25.079315","6500200","三重區"
"241024","KEA-2210","2017/10/17 17:29:35","新北市三重區大勇街51號","121.481288333333","25.07194","6500200","三重區"
"241019","478-VK","2017/10/17 17:29:45","新北市三重區自強路二段48-1號","121.488953333333","25.0696833333333","6500200","三重區"
"241030","480-VK","2017/10/17 17:29:39","新北市三重區新興路5號","121.492738333333","25.0530816666667","6500200","三重區"
"241014","543-UM","2017/10/17 17:29:47","新北市三重區長壽街65號","121.501683333333","25.0685133333333","6500200","三重區"
"241023","545-UM","2017/10/17 17:29:44","新北市三重區忠孝路三段84巷24號","121.481221666667","25.06441","6500200","三重區"
"241013","887-TS","2017/10/17 17:29:43","新北市三重區仁福街16號","121.496306666667","25.074465","6500200","三重區"
"241012","941-UM","2017/10/17 17:29:39","新北市三重區仁興街31巷2號","121.499343333333","25.0752266666667","6500200","三重區"
"241033","AAC-255","2017/10/17 17:29:47","新北市三重區興德路133號","121.470061666667","25.0528433333333","6500200","三重區"
"235036","301-VK","2017/10/17 15:07:30","新北市中和區員山路36巷13號","121.484021666667","24.9909616666667","6500300","中和區"
"235025","378-QA","2017/10/17 15:11:52","新北市中和區員山路36巷16-3號","121.48452","24.991105","6500300","中和區"
"235062","800-TS","2017/10/17 17:19:21","新北市中和區員山路36巷16-4號","121.485095","24.99202","6500300","中和區"
"247022","893-R6","2017/10/17 17:29:47","新北市蘆洲區三民路222號","121.468765","25.0892433333333","6501400","蘆洲區"
"247012","546-UM","2017/10/17 17:29:44","新北市蘆洲區民族路20號","121.476035","25.0841416666667","6501400","蘆洲區"
"247020","500-BY","2017/10/17 17:29:39","新北市蘆洲區水湳街289號","121.469503333333","25.0932566666667","6501400","蘆洲區"
"247010","339-TH","2017/10/17 17:29:45","新北市蘆洲區集賢路402號","121.479888333333","25.08209","6501400","蘆洲區"
"247002","337-TH","2017/10/17 17:29:33","新北市蘆洲區永樂街38巷57弄6-2號","121.45798","25.0903466666667","6501400","蘆洲區"
"247004","336-TH","2017/10/17 17:29:38","新北市蘆洲區長安街233巷45-1號","121.457656666667","25.082045","6501400","蘆洲區"
"247016","057-VK","2017/10/17 17:29:45","新北市蘆洲區中正路185巷3弄48號","121.468953333333","25.0846033333333","6501400","蘆洲區"
"247006","056-VK","2017/10/17 17:29:44","新北市蘆洲區長安街46巷6號","121.463738333333","25.079955","6501400","蘆洲區"
"247008","053-VK","2017/10/17 17:29:40","新北市蘆洲區成功路1號","121.473915","25.0776333333333","6501400","蘆洲區"
"247014","007-UY","2017/10/17 17:29:39","新北市蘆洲區三民路33號","121.475416666667","25.0830116666667","6501400","蘆洲區"
"247024","002-UY","2017/10/17 17:29:45","新北市蘆洲區長興路389號","121.461085","25.0917183333333","6501400","蘆洲區"
"247018","001-UY","2017/10/17 17:29:44","新北市蘆洲區民義街11號","121.4715","25.08869","6501400","蘆洲區"
"228001","212-TW","2017/10/17 17:29:32","新北市貢寮區仁理村仁愛路62巷1號","121.925593333333","25.0534116666667","6502600","貢寮區"
"228002","663-BX","2017/10/17 17:29:38","新北市貢寮區福隆里福隆街14號","121.944878333333","25.01631","6502600","貢寮區"
"228003","828-UM","2017/10/17 17:29:40","新北市貢寮區仁理村仁和路36號","121.922823333333","25.0493266666667","6502600","貢寮區"
"224010","AGQ-8101","2017/10/17 17:29:39","新北市瑞芳區逢甲路96-1號","121.809318333333","25.1088616666667","6501200","瑞芳區"
"224006","676-BX","2017/10/17 17:29:42","新北市瑞芳區傑魚坑路134-1號","121.79114","25.1100066666667","6501200","瑞芳區"
"224009","285-BY","2017/10/17 17:29:39","新北市瑞芳區汽車路9-3號","121.845521666667","25.10981","6501200","瑞芳區"
"224008","275-VK","2017/10/17 17:29:35","新北市瑞芳區侯硐路204號","121.830406666667","25.0881983333333","6501200","瑞芳區"
"224005","271-BY","2017/10/17 17:29:45","新北市瑞芳區海濱路8-6號","121.831695","25.1261333333333","6501200","瑞芳區"
"227003","642-TC","2017/10/17 17:29:42","新北市雙溪區上林里內平林13號","121.836583333333","25.0282533333333","6502500","雙溪區"
"227009","400-TW","2017/10/17 17:29:38","新北市雙溪區三貂里定福路31號","121.851903333333","25.0747033333333","6502500","雙溪區"
"251004","009-UM","2017/10/17 17:29:42","新北市淡水區中正東路二段88巷15號","121.458961666667","25.1506116666667","6501000","淡水區"
"251002","012-UM","2017/10/17 17:29:30","新北市淡水區中正路437號","121.432015","25.1747533333333","6501000","淡水區"
"251014","180-VK","2017/10/17 17:29:47","新北市淡水區八里堆15號","121.469798333333","25.22408","6501000","淡水區"
"251008","181-VK","2017/10/17 17:29:53","新北市淡水區大同路124巷6號","121.463486666667","25.1403616666667","6501000","淡水區"
"251010","413-VK","2017/10/17 17:29:37","新北市淡水區中正路二段211號","121.42615","25.1890033333333","6501000","淡水區"
"251012","441-VK","2017/10/17 17:29:43","新北市淡水區北新路121號","121.449026666667","25.1786316666667","6501000","淡水區"
"251016","442-VK","2017/10/17 17:29:35","新北市淡水區大竹圍10號","121.464546666667","25.1932533333333","6501000","淡水區"
"251005","443-VK","2017/10/17 17:29:48","新北市淡水區鄧公路31巷2號","121.451243333333","25.170735","6501000","淡水區"
"251006","561-UM","2017/10/17 17:29:41","新北市淡水區大仁街55號","121.442711666667","25.1759833333333","6501000","淡水區"
"251009","575-R6","2017/10/17 17:29:36","新北市淡水區新生街108巷12號","121.439728333333","25.174255","6501000","淡水區"
"251007","577-R6","2017/10/17 17:29:47","新北市淡水區民生路47-4號","121.461978333333","25.1381166666667","6501000","淡水區"
"251011","650-BX","2017/10/17 17:29:53","新北市淡水區坪頂路718號","121.482548333333","25.1585183333333","6501000","淡水區"
"251003","673-BX","2017/10/17 17:29:49","新北市淡水區中山路159-1號","121.440753333333","25.1729583333333","6501000","淡水區"
"207003","550-UM","2017/10/17 17:29:38","新北市萬里區龜吼里日光路6巷16號","121.683485","25.18657","6502800","萬里區"
"207004","225-TW","2017/10/17 17:29:40","新北市萬里區萬里里景美路7號","121.684125","25.1726716666667","6502800","萬里區"
"252001","702-TV","2017/10/17 17:29:38","新北市三芝區長安街119號","121.498011666667","25.2596483333333","6502100","三芝區"
"237011","572-TV","2017/10/17 12:45:41","新北市三峽區中山路459巷163-3號","121.348741666667","24.9328283333333","6500900","三峽區"
"237016","649-BX","2017/10/17 17:29:39","新北市三峽區中山路459巷121號","121.352246666667","24.9353466666667","6500900","三峽區"
"242032","AAC-296","2017/10/17 17:29:39","新北市新莊區新泰路413巷21號","121.442683333333","25.0443233333333","6500500","新莊區"
"242029","986-R7","2017/10/17 17:29:42","新北市新莊區幸福路63號","121.457271666667","25.0493266666667","6500500","新莊區"
"242051","751-BX","2017/10/17 17:29:39","新北市新莊區新樹路258巷5號","121.431723333333","25.0162","6500500","新莊區"
"242025","705-TV","2017/10/17 17:29:40","新北市新莊區復興路二段31號","121.454351666667","25.0441066666667","6500500","新莊區"
"242023","613-BX","2017/10/17 17:29:37","新北市新莊區公園路148號","121.453106666667","25.040125","6500500","新莊區"
"242027","612-BX","2017/10/17 17:29:42","新北市新莊區思源路32號","121.460293333333","25.0404516666667","6500500","新莊區"
"242039","566-BX","2017/10/17 17:29:33","新北市新莊區民安路268號","121.427491666667","25.0212833333333","6500500","新莊區"
"242044","442-UM","2017/10/17 17:29:43","新北市新莊區富國路87號","121.420533333333","25.0258216666667","6500500","新莊區"
"242048","441-UM","2017/10/17 17:29:34","新北市新莊區龍安路252-2號","121.42118","25.019525","6500500","新莊區"
"242054","440-UM","2017/10/17 17:29:43","新北市新莊區瓊林南路305巷1號","121.434773333333","25.00553","6500500","新莊區"
"242042","400-BY","2017/10/17 17:29:36","新北市新莊區中正路514巷17號","121.43304","25.0329833333333","6500500","新莊區"
"242061","362-BY","2017/10/17 17:29:36","新北市新莊區瓊林南路23號","121.437115","25.0198033333333","6500500","新莊區"
"242058","353-BY","2017/10/17 17:29:39","新北市新莊區中正路498號","121.436016666667","25.03291","6500500","新莊區"
"242007","132-UY","2017/10/17 17:29:41","新北市新莊區中港路297號","121.452913333333","25.04441","6500500","新莊區"
"242037","133-UY","2017/10/17 17:29:44","新北市新莊區建國二路5-3號","121.4348","25.0237133333333","6500500","新莊區"
"242021","135-UY","2017/10/17 17:29:46","新北市新莊區中華路一段2號","121.452278333333","25.0362","6500500","新莊區"
"242046","172-VK","2017/10/17 17:29:35","新北市新莊區新樹路65-5號","121.439401666667","25.0308533333333","6500500","新莊區"
"242009","173-VK","2017/10/17 17:29:42","新北市新莊區中港路629號","121.45074","25.0540566666667","6500500","新莊區"
"242015","175-VK","2017/10/17 17:29:41","新北市新莊區新泰路182號","121.447291666667","25.0379833333333","6500500","新莊區"
"242002","176-VK","2017/10/17 17:29:49","新北市新莊區新莊路180號","121.454683333333","25.0351483333333","6500500","新莊區"
"242013","347-TH","2017/10/17 17:29:44","新北市新莊區中誠街16巷1號","121.451741666667","25.048375","6500500","新莊區"
"242019","348-TH","2017/10/17 17:29:36","新北市新莊區中港路76號","121.455476666667","25.038995","6500500","新莊區"
"242056","349-TH","2017/10/17 17:29:34","新北市新莊區新莊路364號","121.449571666667","25.0334783333333","6500500","新莊區"
"242017","350-TH","2017/10/17 17:29:50","新北市新莊區建豐街26號","121.451575","25.0440116666667","6500500","新莊區"
"242011","351-TH","2017/10/17 17:29:39","新北市新莊區中港路505號","121.452075","25.0503883333333","6500500","新莊區"
"238015","755-BX","2017/10/17 17:29:53","新北市樹林區大安路267號","121.419065","24.9937416666667","6500700","樹林區"
"238023","601-UM","2017/10/17 17:29:34","新北市樹林區中正路433號","121.415023333333","25.008575","6500700","樹林區"
"238019","599-UM","2017/10/17 17:29:34","新北市樹林區太平路13號","121.41905","24.9836383333333","6500700","樹林區"
"238018","571-TV","2017/10/17 17:29:31","新北市樹林區鎮前街269巷23號","121.419761666667","24.9850933333333","6500700","樹林區"
"238024","5061-A6","2017/10/17 17:29:30","新北市樹林區鎮前街86巷8號","121.425176666667","24.9921016666667","6500700","樹林區"
"238021","KEA-2217","2017/10/17 17:29:48","新北市樹林區民權街一段45號","121.400363333333","24.9616066666667","6500700","樹林區"
"238022","KEA-2213","2017/10/17 17:29:51","新北市樹林區和平街23號","121.422261666667","24.981485","6500700","樹林區"
"238025","303-VK","2017/10/17 17:29:44","新北市樹林區保安二街120號","121.422203333333","24.9956683333333","6500700","樹林區"
"238017","283-BY","2017/10/17 17:29:38","新北市樹林區光武街32巷10號","121.416696666667","25.00554","6500700","樹林區"
"238014","282-BY","2017/10/17 17:29:46","新北市樹林區長壽街70巷31弄14號","121.421543333333","24.99478","6500700","樹林區"
"238020","268-VK","2017/10/17 17:29:45","新北市樹林區俊英街56號","121.428455","25.003375","6500700","樹林區"
"238026","172-UY","2017/10/17 17:29:51","新北市樹林區中山路二段237號","121.40206","24.9760366666667","6500700","樹林區"
"238016","169-UY","2017/10/17 17:29:40","新北市新莊區新樹路699巷1-2號","121.432583333333","25.0020683333333","6500700","樹林區"
"239007","AAC-297","2017/10/17 17:29:37","新北市鶯歌區國光街112號","121.341353333333","24.9560933333333","6500800","鶯歌區"
"239006","891-R6","2017/10/17 17:29:34","新北市鶯歌區鳳鳴路29號","121.33377","24.96535","6500800","鶯歌區"
"239008","527-UM","2017/10/17 17:29:40","新北市鶯歌區大湖路393號","121.33089","24.9789516666667","6500800","鶯歌區"
"239005","526-UM","2017/10/17 17:29:37","桃園市桃園區大仁路101巷9號","121.323828333333","24.9711933333333","6500800","鶯歌區"
"239001","417-VK","2017/10/17 17:29:40","新北市鶯歌區高職西街7號","121.338098333333","24.94236","6500800","鶯歌區"
"239003","360-BY","2017/10/17 17:29:31","新北市鶯歌區鶯桃路179號","121.337951666667","24.9585583333333","6500800","鶯歌區"
"239002","359-BY","2017/10/17 17:29:37","新北市鶯歌區育英街15號","121.346775","24.95518","6500800","鶯歌區"
"239004","193-VK","2017/10/17 17:29:48","新北市鶯歌區三鶯路29巷34號","121.353658333333","24.9392633333333","6500800","鶯歌區"
"221008","489-VK","2017/10/17 17:29:42","新北市汐止區康寧街901號","121.651451666667","25.07503","6501100","汐止區"
"221012","276-VK","2017/10/17 13:28:07","新北市汐止區汐萬路一段256巷3號","121.653411666667","25.0746533333333","6501100","汐止區"
"221012","278-VK","2017/10/17 17:29:38","新北市汐止區汐萬路一段256巷1號","121.65181","25.074845","6501100","汐止區"
"221033","647-BX","2017/10/17 17:29:52","新北市汐止區康寧街861巷1號","121.64545","25.075945","6501100","汐止區"
"242034","280-VK","2017/10/17 17:29:36","新北市新莊區新莊路378號","121.449206666667","25.03343","6500500","新莊區"
