"lineid","car","time","location","longitude","latitude","cityid","cityname"
"234013","149-BY","2017/10/17 18:29:37","新北市永和區福和路1號","121.526253333333","25.0096433333333","6500400","永和區"
"234007","207-UY","2017/10/17 18:29:37","新北市永和區環河西路二段217巷3號","121.501516666667","25.0100616666667","6500400","永和區"
"234081","298-R6","2017/10/17 18:29:45","新北市永和區國中路2號","121.52429","25.0043083333333","6500400","永和區"
"234086","338-UY","2017/10/17 18:29:47","新北市永和區環河東路二段92號","121.524368333333","25.0106016666667","6500400","永和區"
"234042","862-TW","2017/10/17 18:29:47","新北市永和區福和路1號","121.526566666667","25.00966","6500400","永和區"
"234026","9371-KE","2017/10/17 18:29:42","新北市永和區永貞路417巷29號","121.505856666667","25.0089983333333","6500400","永和區"
"234011","9373-KE","2017/10/17 18:29:36","新北市永和區保安路69號","121.50906","25.01541","6500400","永和區"
"249005","172-UM","2017/10/17 18:29:35","新北市八里區中華路三段55號","121.394915","25.1413683333333","6502300","八里區"
"249001","173-UM","2017/10/17 18:29:38","新北市八里區龍米路一段142號","121.45295","25.12565","6502300","八里區"
"249004","303-UY","2017/10/17 18:29:35","新北市八里區忠孝路70號","121.426328333333","25.1603866666667","6502300","八里區"
"249002","305-UY","2017/10/17 18:29:41","新北市八里區龍形三街15巷9號","121.449821666667","25.1316133333333","6502300","八里區"
"248016","026-BX","2017/10/17 18:29:40","新北市五股區凌雲路一段83巷34號","121.44932","25.1010016666667","6501500","五股區"
"248006","077-UY","2017/10/17 18:29:49","新北市五股區四維路38號","121.467251666667","25.0715633333333","6501500","五股區"
"248008","095-VK","2017/10/17 18:29:43","新北市五股區四維路185巷46號","121.463363333333","25.077275","6501500","五股區"
"248020","225-UY","2017/10/17 18:29:38","新北市五股區孝義路64號","121.453923333333","25.112125","6501500","五股區"
"248012","247-BX","2017/10/17 18:29:50","新北市五股區御史路3號","121.442123333333","25.0903483333333","6501500","五股區"
"248014","261-SL","2017/10/17 18:29:47","新北市五股區自強路133號","121.432198333333","25.0697333333333","6501500","五股區"
"248010","272-BY","2017/10/17 18:29:33","新北市五股區明德路8號","121.43334","25.0716733333333","6501500","五股區"
"248004","677-BX","2017/10/17 18:29:45","新北市五股區工商路138號","121.435318333333","25.08641","6501500","五股區"
"248002","678-BX","2017/10/17 18:29:47","新北市五股區西雲路163號","121.446205","25.0944716666667","6501500","五股區"
"234074","AAC-211","2017/10/17 18:29:29","新北市永和區福和路1號","121.526171666667","25.00957","6500400","永和區"
"232011","375-UM","2017/10/17 18:13:35","新北市坪林區坪雙路一段43號","121.711731666667","24.9424333333333","6502000","坪林區"
"244013","069-UM","2017/10/17 18:29:44","新北市林口區文化一路二段100巷17弄16號","121.382826666667","25.0789383333333","6501700","林口區"
"244007","080-UY","2017/10/17 18:29:31","新北市林口區台電新村33號","121.386348333333","25.0864883333333","6501700","林口區"
"244025","742-UY","2017/10/17 18:29:36","新北市林口區南勢四街333號","121.356753333333","25.07508","6501700","林口區"
"244009","410-SL","2017/10/17 18:29:51","新北市林口區文林二街18號","121.37661","25.0894183333333","6501700","林口區"
"244023","483-VK","2017/10/17 18:29:49","新北市林口區仁愛路二段62巷47號","121.383576666667","25.0761083333333","6501700","林口區"
"244017","485-VK","2017/10/17 18:29:41","新北市林口區文化二路一段1-1號","121.364496666667","25.0656316666667","6501700","林口區"
"244011","701-TV","2017/10/17 18:29:50","新北市林口區中正路257巷12號","121.390565","25.07724","6501700","林口區"
"244021","838-TS","2017/10/17 18:29:45","新北市林口區自強二街46號","121.399015","25.0772116666667","6501700","林口區"
"243013","AAD-798","2017/10/17 18:29:47","新北市泰山區明志路三段166號","121.424211666667","25.0394","6501600","泰山區"
"243012","646-TV","2017/10/17 18:29:32","新北市泰山區忠孝街10號","121.427718333333","25.0647","6501600","泰山區"
"222003","436-BY","2017/10/17 18:29:39","新北市深坑區烏月路56-1號","121.631121666667","25.0055883333333","6501800","深坑區"
"222002","659-BX","2017/10/17 18:29:42","新北市深坑區雲鄉路133號","121.622863333333","24.998035","6501800","深坑區"
"231041","002-UM","2017/10/17 18:29:42","新北市新店區安華路28-1號","121.519896666667","24.9607816666667","6500600","新店區"
"231059","046-UY","2017/10/17 18:29:33","新北市新店區安華路28-1號","121.51956","24.9607133333333","6500600","新店區"
"231061","047-UY","2017/10/17 18:29:39","新北市新店區安華路28-1號","121.518995","24.9608783333333","6500600","新店區"
"231060","106-UY","2017/10/17 18:29:43","新北市新店區安華路28-1號","121.519595","24.9607183333333","6500600","新店區"
"231048","108-UY","2017/10/17 18:29:36","新北市新店區安華路28-1號","121.519456666667","24.96124","6500600","新店區"
"231053","187-VK","2017/10/17 18:29:47","新北市新店區新烏路一段12號","121.546648333333","24.9513016666667","6500600","新店區"
"231069","189-VK","2017/10/17 11:54:20","新北市新店區安華路28-1號","121.51958","24.961045","6500600","新店區"
"231050","KEA-2219","2017/10/17 18:29:28","新北市新店區安華路28-1號","121.519601666667","24.9612683333333","6500600","新店區"
"231057","256-BX","2017/10/17 18:29:33","新北市新店區環河路17號","121.537501666667","24.96144","6500600","新店區"
"231046","278-BY","2017/10/17 18:29:37","新北市新店區直潭七街60號","121.532285","24.93988","6500600","新店區"
"231054","AAD-862","2017/10/17 18:29:45","新北市新店區安華路28-1號","121.519986666667","24.961125","6500600","新店區"
"231058","3712-VJ","2017/10/17 18:29:39","新北市新店區新店後街90號","121.537611666667","24.95487","6500600","新店區"
"231055","3713-VJ","2017/10/17 18:29:42","新北市新店區中正路128巷10號","121.542401666667","24.9717566666667","6500600","新店區"
"231056","4716-K9","2017/10/17 18:29:46","新北市新店區中正路418巷5號","121.534743333333","24.9785483333333","6500600","新店區"
"231067","4772-VM","2017/10/17 18:29:33","新北市新店區安華路1-1號","121.519201666667","24.960445","6500600","新店區"
"231065","513-UM","2017/10/17 18:29:31","新北市新店區安華路28-1號","121.5192","24.9612033333333","6500600","新店區"
"231064","515-UM","2017/10/17 18:29:40","新北市新店區安華路28-1號","121.519768333333","24.961195","6500600","新店區"
"231045","617-UM","2017/10/17 18:29:33","新北市新店區安華路28-1號","121.51949","24.9608083333333","6500600","新店區"
"231040","619-UM","2017/10/17 18:29:46","新北市新店區安華路28-1號","121.519555","24.960845","6500600","新店區"
"231042","641-BX","2017/10/17 18:29:43","新北市新店區安華路1-1號","121.519543333333","24.96049","6500600","新店區"
"231063","645-TV","2017/10/17 18:29:40","新北市新店區安華路28-1號","121.51935","24.9606033333333","6500600","新店區"
"231049","719-UM","2017/10/17 18:29:41","新北市新店區安華路28-1號","121.519531666667","24.9614783333333","6500600","新店區"
"231051","719-UY","2017/10/17 18:29:48","新北市新店區秀山路20號","121.532583333333","24.9603633333333","6500600","新店區"
"231062","720-UM","2017/10/17 18:29:39","新北市新店區安華路28-1號","121.519213333333","24.9612183333333","6500600","新店區"
"231044","897-TW","2017/10/17 18:29:48","新北市新店區安華路28-1號","121.51971","24.9605616666667","6500600","新店區"
"231043","899-TW","2017/10/17 18:29:30","新北市新店區安華路28-1號","121.519206666667","24.9609016666667","6500600","新店區"
"231066","AKT-0513","2017/10/17 18:29:47","新北市新店區安華路1-1號","121.519561666667","24.9604933333333","6500600","新店區"
"235064","005-UY","2017/10/17 18:29:45","新北市中和區圓通路141巷37弄1號","121.498993333333","24.995005","6500300","中和區"
"235063","006-UY","2017/10/17 18:29:47","新北市中和區連城路347巷16弄16號","121.48768","24.9950866666667","6500300","中和區"
"235056","096-UM","2017/10/17 18:29:42","新北市中和區員山路611巷1號","121.477861666667","25.0113133333333","6500300","中和區"
"235039","097-UM","2017/10/17 18:29:49","新北市中和區宜安路60號","121.511591666667","24.996925","6500300","中和區"
"235065","098-UM","2017/10/17 18:29:42","新北市中和區莊敬路49巷18號","121.501623333333","25.0061383333333","6500300","中和區"
"235040","150-BY","2017/10/17 18:29:35","新北市中和區安平路38號","121.509713333333","24.9949666666667","6500300","中和區"
"235058","151-BY","2017/10/17 18:29:33","新北市中和區圓通路369巷30弄16號","121.489603333333","24.985285","6500300","中和區"
"235055","183-VK","2017/10/17 18:29:52","新北市中和區員山路226巷3弄5號","121.481713333333","25.001155","6500300","中和區"
"235038","185-VK","2017/10/17 18:29:35","新北市中和區秀朗路三段128巷17弄10號","121.523993333333","24.9933416666667","6500300","中和區"
"235049","186-VK","2017/10/17 18:29:45","新北市中和區景安路120巷3號","121.505218333333","24.9948483333333","6500300","中和區"
"235067","255-BX","2017/10/17 18:29:37","新北市中和區中正路637巷52弄11號","121.48487","24.993725","6500300","中和區"
"235072","301-VK","2017/10/17 18:29:37","新北市中和區連城路144巷3弄1號","121.49532","24.9983933333333","6500300","中和區"
"235043","352-BY","2017/10/17 18:29:50","新北市中和區景平路279-5號","121.507578333333","24.9930616666667","6500300","中和區"
"235051","376-QA","2017/10/17 18:29:48","新北市中和區興南路二段242巷18號","121.502343333333","24.9831283333333","6500300","中和區"
"235068","377-QA","2017/10/17 15:32:57","新北市中和區員山路36巷16-3號","121.485181666667","24.9912283333333","6500300","中和區"
"235061","378-QA","2017/10/17 18:29:31","新北市中和區國光街215巷24弄6號","121.46666","25.0001166666667","6500300","中和區"
"235050","4979-A6","2017/10/17 18:29:41","新北市中和區景新街410巷18弄1號","121.512068333333","24.989335","6500300","中和區"
"235069","4980-A6","2017/10/17 18:29:37","新北市中和區連城路89巷48號","121.497546666667","24.9982833333333","6500300","中和區"
"235042","551-UM","2017/10/17 18:29:46","新北市中和區景平路64巷14弄1號","121.522536666667","24.99134","6500300","中和區"
"235070","558-UM","2017/10/17 18:29:50","新北市中和區圓通路78號","121.499988333333","24.997075","6500300","中和區"
"235045","565-BX","2017/10/17 18:29:40","新北市中和區南山路236巷22弄8號","121.50555","24.9892116666667","6500300","中和區"
"235054","640-BX","2017/10/17 18:29:50","新北市中和區民享街98號","121.474831666667","24.9997","6500300","中和區"
"235060","647-TV","2017/10/17 18:29:36","新北市中和區員山路170號","121.481316666667","24.999875","6500300","中和區"
"235047","732-UM","2017/10/17 18:29:42","新北市中和區南山路479號","121.507913333333","24.9883583333333","6500300","中和區"
"235046","733-UM","2017/10/17 18:29:34","新北市中和區錦和路350-1號","121.490513333333","24.9935633333333","6500300","中和區"
"235062","800-TS","2017/10/17 18:29:48","新北市中和區景平路722-6號","121.49669","25.0032866666667","6500300","中和區"
"235057","801-TS","2017/10/17 18:29:43","新北市中和區民享街97巷11號","121.475266666667","24.999565","6500300","中和區"
"235052","805-TS","2017/10/17 18:29:34","新北市中和區興南路二段96號","121.505225","24.984235","6500300","中和區"
"235048","896-TW","2017/10/17 18:29:45","新北市中和區中正路83號","121.500601666667","24.9934466666667","6500300","中和區"
"235053","900-TW","2017/10/17 18:29:45","新北市中和區連城路506號","121.477463333333","24.992525","6500300","中和區"
"235066","911-UM","2017/10/17 18:29:39","新北市中和區中山路二段122號","121.502476666667","25.0038366666667","6500300","中和區"
"235041","157-BY","2017/10/17 18:29:39","新北市中和區錦和路350-1號","121.490381666667","24.9935766666667","6500300","中和區"
"235037","AAC-213","2017/10/17 18:29:42","新北市中和區景德街122號","121.514636666667","24.9911433333333","6500300","中和區"
"220068","013-TV","2017/10/17 18:29:46","新北市板橋區民生路二段89-6號","121.470416666667","25.0194183333333","6500100","板橋區"
"220065","072-UY","2017/10/17 18:29:38","新北市板橋區華東街1-9號","121.44808","24.9948933333333","6500100","板橋區"
"220086","073-UY","2017/10/17 18:29:50","新北市板橋區板城路407號","121.447453333333","24.99518","6500100","板橋區"
"226004","205-ST","2017/10/17 18:29:47","新北市平溪區靜安路二段294巷6號","121.735648333333","25.0237933333333","6502400","平溪區"
"228001","212-TW","2017/10/17 18:29:46","新北市貢寮區仁理村保健街25號","121.92332","25.049975","6502600","貢寮區"
"228002","663-BX","2017/10/17 18:29:38","新北市貢寮區福連里福連街1號","121.988203333333","25.01833","6502600","貢寮區"
"228003","828-UM","2017/10/17 18:29:50","新北市貢寮區和美里和美街46號","121.915146666667","25.0934833333333","6502600","貢寮區"
"224006","676-BX","2017/10/17 18:29:42","新北市瑞芳區明燈路二段103號","121.809938333333","25.1079083333333","6501200","瑞芳區"
"224002","639-TC","2017/10/17 18:29:47","新北市瑞芳區三爪子坑路31號","121.813446666667","25.1075066666667","6501200","瑞芳區"
"224009","285-BY","2017/10/17 18:29:39","新北市瑞芳區祈堂路239號","121.856263333333","25.10905","6501200","瑞芳區"
"224008","275-VK","2017/10/17 18:29:35","新北市瑞芳區逢甲路230號","121.806271666667","25.1102166666667","6501200","瑞芳區"
"224007","273-VK","2017/10/17 18:29:36","新北市瑞芳區大埔路有勝二村11號","121.764033333333","25.1000333333333","6501200","瑞芳區"
"224005","271-BY","2017/10/17 18:25:45","新北市瑞芳區台電新村123號","121.811256666667","25.127555","6501200","瑞芳區"
"227003","642-TC","2017/10/17 18:29:30","新北市雙溪區魚行里坤溪18號","121.87253","25.02631","6502500","雙溪區"
"227009","400-TW","2017/10/17 18:29:32","新北市雙溪區牡丹里牡丹127號","121.850928333333","25.0593633333333","6502500","雙溪區"
"253005","032-BX","2017/10/17 18:29:34","新北市石門區老崩山11-3號","121.552348333333","25.2908366666667","6502200","石門區"
"253006","295-VK","2017/10/17 18:29:45","新北市石門區老梅路37號","121.544905","25.289405","6502200","石門區"
"222001","KEA-2212","2017/10/17 18:29:34","新北市深坑區北深路一段201巷1號","121.630385","25.0089016666667","6501800","深坑區"
"208003","665-BX","2017/10/17 18:29:37","新北市金山區中山路162號","121.638445","25.2209516666667","6502700","金山區"
"208001","761-BX","2017/10/17 18:29:37","新北市金山區文化二路4號","121.636895","25.2245933333333","6502700","金山區"
"251004","009-UM","2017/10/17 17:58:42","新北市淡水區民權路185-10號","121.459265","25.1337733333333","6501000","淡水區"
"251002","012-UM","2017/10/17 18:29:30","新北市淡水區竿蓁二街34巷1號","121.453836666667","25.1628683333333","6501000","淡水區"
"251014","180-VK","2017/10/17 18:29:47","新北市淡水區南平28號","121.492571666667","25.2156716666667","6501000","淡水區"
"251008","181-VK","2017/10/17 18:29:47","新北市淡水區北投子85號","121.468566666667","25.178835","6501000","淡水區"
"251010","413-VK","2017/10/17 18:29:37","新北市淡水區沙崙路181巷1號","121.424151666667","25.1841916666667","6501000","淡水區"
"251012","441-VK","2017/10/17 18:29:43","新北市淡水區北新路一段169-1號","121.459223333333","25.1822616666667","6501000","淡水區"
"251016","442-VK","2017/10/17 18:29:36","新北市淡水區下圭柔山115-11號","121.446346666667","25.212235","6501000","淡水區"
"251001","559-UM","2017/10/17 18:29:34","新北市淡水區自強路357號","121.464148333333","25.133015","6501000","淡水區"
"251011","650-BX","2017/10/17 18:29:33","新北市淡水區中正東路一段5巷5號","121.45077","25.164385","6501000","淡水區"
"251003","673-BX","2017/10/17 18:29:49","新北市淡水區北新路69巷26號","121.446785","25.1801866666667","6501000","淡水區"
"207003","550-UM","2017/10/17 18:29:38","新北市萬里區野柳里港東路155號","121.689601666667","25.2051383333333","6502800","萬里區"
"207004","225-TW","2017/10/17 18:29:40","新北市萬里區萬里里瑪鋉路272-1號","121.688895","25.180875","6502800","萬里區"
"252002","178-VK","2017/10/17 18:29:31","新北市三芝區中山路二段33號","121.502786666667","25.255215","6502100","三芝區"
"252003","249-BX","2017/10/17 18:29:47","新北市三芝區後厝里北勢子45-33號","121.47028","25.2513916666667","6502100","三芝區"
"252001","702-TV","2017/10/17 18:29:38","新北市三芝區中興街二段2號","121.498316666667","25.25665","6502100","三芝區"
"208002","170-UY","2017/10/17 18:29:43","新北市金山區磺清路135號","121.639395","25.22726","6502700","金山區"
"237004","078-UY","2017/10/17 18:29:46","新北市三峽區金敏189號","121.395388333333","24.8739766666667","6500900","三峽區"
"237007","153-BY","2017/10/17 18:29:44","新北市三峽區中正路三段170巷34號","121.35253","24.90448","6500900","三峽區"
"237009","210-TH","2017/10/17 18:29:38","新北市三峽區大同路268號","121.365466666667","24.9254266666667","6500900","三峽區"
"237013","252-BX","2017/10/17 18:29:38","新北市三峽區永安街9巷3-9號","121.377656666667","24.9297033333333","6500900","三峽區"
"237012","275-BY","2017/10/17 18:29:41","新北市三峽區三樹路112號","121.378285","24.9392416666667","6500900","三峽區"
"237008","302-VK","2017/10/17 18:29:39","新北市三峽區白雞68-223號","121.39063","24.909005","6500900","三峽區"
"237014","433-BY","2017/10/17 18:29:44","新北市三峽區復興路119-3號","121.369615","24.9387866666667","6500900","三峽區"
"237006","5529-G3","2017/10/17 18:29:43","新北市三峽區溪東路367號","121.411661666667","24.929325","6500900","三峽區"
"237011","572-TV","2017/10/17 18:03:29","新北市三峽區橫溪路3號","121.396101666667","24.93616","6500900","三峽區"
"237016","649-BX","2017/10/17 18:29:39","新北市三峽區紫微南路10號","121.422995","24.918365","6500900","三峽區"
"237010","706-TV","2017/10/17 18:22:06","新北市三峽區中山路282號","121.361225","24.937875","6500900","三峽區"
"237005","AKY-6261","2017/10/17 18:29:42","新北市三峽區民族街5巷35號","121.369851666667","24.9325416666667","6500900","三峽區"
"236070","105-UM","2017/10/17 18:29:46","新北市土城區永豐路255巷12號","121.47549","24.9730716666667","6501300","土城區"
"236043","107-UM","2017/10/17 18:29:47","新北市土城區裕民路67巷13號","121.449896666667","24.9882583333333","6501300","土城區"
"236079","166-UM","2017/10/17 18:29:44","新北市土城區中央路四段27巷7號","121.42454","24.96207","6501300","土城區"
"236031","253-BX","2017/10/17 18:29:48","新北市土城區水源街81巷6號","121.439458333333","24.9762833333333","6501300","土城區"
"236015","270-VK","2017/10/17 18:29:47","新北市土城區立清街69號","121.46034","24.9873183333333","6501300","土城區"
"236038","271-VK","2017/10/17 18:29:34","新北市土城區青雲路451巷23號","121.460091666667","24.9748316666667","6501300","土城區"
"236023","401-BY","2017/10/17 18:29:49","新北市土城區永豐路202巷7-1號","121.466266666667","24.98327","6501300","土城區"
"236027","752-BX","2017/10/17 18:28:20","新北市土城區南天母路18-3號","121.448098333333","24.9529633333333","6501300","土城區"
"236059","912-UM","2017/10/17 18:29:47","新北市土城區中央路四段462號","121.410308333333","24.9508016666667","6501300","土城區"
"236049","913-UM","2017/10/17 18:29:42","新北市土城區青雲路455號","121.458666666667","24.9744933333333","6501300","土城區"
"236063","915-UM","2017/10/17 18:29:34","新北市土城區延壽路75巷23弄2號","121.468943333333","24.9917733333333","6501300","土城區"
"236055","AAC-216","2017/10/17 18:29:34","新北市土城區中華路二段61號","121.43948","24.9786966666667","6501300","土城區"
"242032","AAC-296","2017/10/17 18:29:38","新北市新莊區新泰路277巷45號","121.44409","25.0400766666667","6500500","新莊區"
"242029","986-R7","2017/10/17 18:29:42","新北市泰山區泰林路一段2-1號","121.441985","25.0479183333333","6500500","新莊區"
"242044","442-UM","2017/10/17 18:29:43","新北市新莊區龍安路12號","121.414435","25.0227716666667","6500500","新莊區"
"242048","441-UM","2017/10/17 18:29:34","新北市新莊區環河路636-1號","121.437","25.010445","6500500","新莊區"
"242054","440-UM","2017/10/17 18:29:42","新北市樹林區樹新路255號","121.430573333333","24.99933","6500500","新莊區"
"242061","362-BY","2017/10/17 18:29:36","新北市新莊區四維路11號","121.42405","25.0240383333333","6500500","新莊區"
"242058","353-BY","2017/10/17 18:29:39","新北市新莊區中正路889-1號","121.415461666667","25.0238283333333","6500500","新莊區"
"242007","132-UY","2017/10/17 18:29:41","新北市新莊區中正路100號","121.45465","25.0366516666667","6500500","新莊區"
"242046","172-VK","2017/10/17 18:29:35","新北市新莊區中正路829巷21號","121.421101666667","25.0275516666667","6500500","新莊區"
"242056","349-TH","2017/10/17 18:29:34","新北市新莊區瓊林路108號","121.442135","25.0269566666667","6500500","新莊區"
"242011","351-TH","2017/10/17 18:29:37","新北市新莊區中正路473-1號","121.441783333333","25.0332183333333","6500500","新莊區"
"238015","755-BX","2017/10/17 18:29:33","新北市樹林區啟智街173巷2號","121.41573","24.98763","6500700","樹林區"
"238023","601-UM","2017/10/17 18:29:34","新北市樹林區忠信街15號","121.407618333333","25.0150033333333","6500700","樹林區"
"238019","599-UM","2017/10/17 18:29:34","新北市樹林區中華路190號","121.41193","24.9804933333333","6500700","樹林區"
"238018","571-TV","2017/10/17 18:29:31","新北市樹林區保安街一段16巷21號","121.428283333333","24.9939916666667","6500700","樹林區"
"238024","5061-A6","2017/10/17 18:29:50","新北市樹林區中山路一段149-3號","121.422081666667","24.9891516666667","6500700","樹林區"
"238021","KEA-2217","2017/10/17 18:29:48","新北市樹林區柑園街二段175號","121.380453333333","24.9529216666667","6500700","樹林區"
"238025","303-VK","2017/10/17 18:29:32","新北市樹林區東興街3號","121.409368333333","24.98043","6500700","樹林區"
"238017","283-BY","2017/10/17 18:29:38","新北市樹林區光榮街3巷1號","121.413045","25.00399","6500700","樹林區"
"238014","282-BY","2017/10/17 18:29:46","新北市樹林區大安路111巷41號","121.423245","24.997565","6500700","樹林區"
"238020","268-VK","2017/10/17 18:29:45","新北市樹林區中正路642巷19號","121.411506666667","25.01748","6500700","樹林區"
"238026","172-UY","2017/10/17 18:29:51","新北市樹林區佳園路一段75巷202號","121.397125","24.9706133333333","6500700","樹林區"
"238016","169-UY","2017/10/17 18:29:41","新北市樹林區文化街27號","121.4192","24.9876366666667","6500700","樹林區"
"239007","AAC-297","2017/10/17 18:29:52","新北市鶯歌區中正一路461-2號","121.363246666667","24.956635","6500800","鶯歌區"
"239006","891-R6","2017/10/17 18:29:34","新北市鶯歌區鶯桃路296巷53號","121.335883333333","24.96135","6500800","鶯歌區"
"239008","527-UM","2017/10/17 18:29:40","新北市鶯歌區國際一路179號","121.336265","24.9765183333333","6500800","鶯歌區"
"239005","526-UM","2017/10/17 18:29:35","新北市鶯歌區鳳吉一街144號","121.328371666667","24.9752066666667","6500800","鶯歌區"
"239001","417-VK","2017/10/17 18:29:40","新北市鶯歌區高職南街13號","121.337496666667","24.9392266666667","6500800","鶯歌區"
"239003","360-BY","2017/10/17 18:29:31","新北市鶯歌區福安街9巷1號","121.33519","24.9649783333333","6500800","鶯歌區"
"239002","359-BY","2017/10/17 18:29:37","新北市鶯歌區國華路1-1號","121.343108333333","24.9569233333333","6500800","鶯歌區"
"239004","193-VK","2017/10/17 18:29:48","新北市鶯歌區國中街1-2號","121.342131666667","24.9433466666667","6500800","鶯歌區"
"221008","489-VK","2017/10/17 18:23:04","新北市汐止區康寧街901號","121.651405","25.0750783333333","6501100","汐止區"
"221036","130-UY","2017/10/17 18:29:46","新北市汐止區長興街一段50號","121.670821666667","25.0797633333333","6501100","汐止區"
"221015","131-UY","2017/10/17 18:29:50","新北市汐止區鄉友街72號","121.669761666667","25.0821083333333","6501100","汐止區"
"221010","269-BY","2017/10/17 18:29:41","新北市汐止區汐萬路二段339號","121.64482","25.09051","6501100","汐止區"
"221012","276-VK","2017/10/17 13:28:07","新北市汐止區汐萬路一段256巷3號","121.653411666667","25.0746533333333","6501100","汐止區"
"221012","278-VK","2017/10/17 18:29:38","新北市汐止區保長路102號","121.675058333333","25.07834","6501100","汐止區"
"221023","279-VK","2017/10/17 18:29:35","新北市汐止區康寧街523-1號","121.63367","25.06878","6501100","汐止區"
"221032","280-BY","2017/10/17 18:29:46","新北市汐止區民權街二段102號","121.618658333333","25.0468616666667","6501100","汐止區"
"221027","281-BY","2017/10/17 18:29:38","新北市汐止區和平街62號","121.661971666667","25.0710066666667","6501100","汐止區"
"221029","298-VK","2017/10/17 18:29:42","新北市汐止區樟樹一路272-7號","121.642695","25.0689016666667","6501100","汐止區"
"221031","353-TW","2017/10/17 18:29:34","新北市汐止區大同路一段160號","121.633256666667","25.0570233333333","6501100","汐止區"
"221035","622-UM","2017/10/17 18:29:31","新北市汐止區大同路二段33號","121.64755","25.062965","6501100","汐止區"
"221025","623-UM","2017/10/17 18:29:32","新北市汐止區仁愛路116號","121.662735","25.0637083333333","6501100","汐止區"
"221038","646-BX","2017/10/17 18:29:45","新北市汐止區忠孝東路211巷2號","121.662046666667","25.066685","6501100","汐止區"
"221033","647-BX","2017/10/17 18:29:32","新北市汐止區宜興街37巷2號","121.622581666667","25.0425533333333","6501100","汐止區"
"221002","707-TV","2017/10/17 18:29:45","新北市汐止區福德一路151號","121.636508333333","25.0666666666667","6501100","汐止區"
"221018","753-BX","2017/10/17 18:29:32","新北市汐止區茄苳路224巷3弄16號","121.671073333333","25.0681266666667","6501100","汐止區"
"220079","145-BY","2017/10/17 18:29:50","新北市板橋區華東街1-10號","121.448331666667","24.9951033333333","6500100","板橋區"
"220053","285-VK","2017/10/17 18:29:34","新北市板橋區民生路二段161巷1號","121.470231666667","25.01998","6500100","板橋區"
"220084","296-UM","2017/10/17 18:29:47","新北市板橋區華東街1-9號","121.448156666667","24.9949483333333","6500100","板橋區"
"220062","305-R5","2017/10/17 18:29:48","新北市板橋區民生路二段120號","121.4704","25.0196816666667","6500100","板橋區"
"220064","486-VK","2017/10/17 18:29:43","新北市板橋區南雅南路二段120-16號","121.451943333333","24.9990516666667","6500100","板橋區"
"220035","560-BX","2017/10/17 18:29:47","新北市板橋區南雅南路二段144巷68號","121.450081666667","24.99517","6500100","板橋區"
"220057","686-BX","2017/10/17 18:29:31","新北市板橋區華東街1-9號","121.448218333333","24.9948183333333","6500100","板橋區"
"220067","829-TW","2017/10/17 16:19:42","新北市板橋區民生路二段120號","121.470401666667","25.0197116666667","6500100","板橋區"
"220074","895-R6","2017/10/17 18:29:32","新北市板橋區華東街1-9號","121.448188333333","24.9949433333333","6500100","板橋區"
"220073","985-R7","2017/10/17 18:29:38","新北市板橋區華東街1-10號","121.448356666667","24.9949616666667","6500100","板橋區"
"220070","AAC-253","2017/10/17 18:29:47","新北市板橋區華東街1-9號","121.448246666667","24.994855","6500100","板橋區"
