"lineid","car","time","location","longitude","latitude","cityid","cityname"
"234046","148-BY","2017/10/17 18:37:38","新北市永和區環河東路二段92號","121.524395","25.0106183333333","6500400","永和區"
"234013","149-BY","2017/10/17 18:37:16","新北市永和區環河東路二段10號","121.522283333333","25.0133716666667","6500400","永和區"
"234007","207-UY","2017/10/17 18:37:37","新北市永和區保生路55-6號","121.503836666667","25.0124516666667","6500400","永和區"
"234081","298-R6","2017/10/17 18:37:45","新北市永和區林森路81號","121.523935","25.0039016666667","6500400","永和區"
"234086","338-UY","2017/10/17 18:37:47","新北市永和區安樂路242-10號","121.514801666667","25.0029833333333","6500400","永和區"
"234030","746-BX","2017/10/17 18:37:48","新北市永和區環河東路二段92號","121.524496666667","25.0105416666667","6500400","永和區"
"234042","862-TW","2017/10/17 18:37:47","新北市永和區福和路376號","121.51426","25.0077333333333","6500400","永和區"
"234050","863-TW","2017/10/17 18:37:33","新北市永和區豫溪街217巷5號","121.525216666667","25.0098883333333","6500400","永和區"
"234026","9371-KE","2017/10/17 18:37:43","新北市永和區保平路196號","121.510195","25.0064533333333","6500400","永和區"
"234011","9373-KE","2017/10/17 18:37:36","新北市永和區文化路9巷22弄36號","121.514383333333","25.0146216666667","6500400","永和區"
"249005","172-UM","2017/10/17 18:37:35","新北市八里區中華路三段186號","121.390466666667","25.1268583333333","6502300","八里區"
"249001","173-UM","2017/10/17 18:37:38","新北市八里區龍米路一段348-1號","121.451471666667","25.130915","6502300","八里區"
"249004","303-UY","2017/10/17 18:37:35","新北市八里區龍米路三段50號","121.424705","25.15914","6502300","八里區"
"249002","305-UY","2017/10/17 18:37:41","新北市八里區龍形一街31號","121.449661666667","25.1304183333333","6502300","八里區"
"248016","026-BX","2017/10/17 18:37:40","新北市五股區凌雲路一段149巷5-1號","121.448873333333","25.10172","6501500","五股區"
"248008","095-VK","2017/10/17 18:37:43","新北市五股區中興路一段140巷10-1號","121.465063333333","25.07464","6501500","五股區"
"248020","225-UY","2017/10/17 18:37:37","新北市五股區孝義路92號","121.447116666667","25.1186166666667","6501500","五股區"
"248012","247-BX","2017/10/17 18:37:30","新北市五股區御史路43巷2號","121.44228","25.092905","6501500","五股區"
"248014","261-SL","2017/10/17 18:37:47","新北市五股區成泰路一段210號","121.43611","25.07906","6501500","五股區"
"248010","272-BY","2017/10/17 18:37:33","新北市五股區明德路8號","121.433485","25.07138","6501500","五股區"
"248004","677-BX","2017/10/17 18:37:47","新北市五股區民義路一段216-1號","121.430095","25.0893716666667","6501500","五股區"
"248002","678-BX","2017/10/17 18:37:47","新北市五股區西雲路199號","121.448011666667","25.09604","6501500","五股區"
"234023","9380-KE","2017/10/17 18:37:28","新北市永和區福和路18號","121.524191666667","25.00853","6500400","永和區"
"234077","969-R7","2017/10/17 18:37:36","新北市永和區福和路72號","121.523148333333","25.0080666666667","6500400","永和區"
"234074","AAC-211","2017/10/17 18:37:30","新北市永和區福和路1號","121.526553333333","25.009915","6500400","永和區"
"234067","AAC-212","2017/10/17 18:37:50","新北市永和區福和路10巷1號","121.52455","25.0086683333333","6500400","永和區"
"234003","AAC-295","2017/10/17 18:36:55","新北市永和區福和路1號","121.526525","25.009885","6500400","永和區"
"232011","375-UM","2017/10/17 18:13:35","新北市坪林區坪雙路一段43號","121.711731666667","24.9424333333333","6502000","坪林區"
"244013","069-UM","2017/10/17 18:37:44","新北市林口區佳林路134號","121.384735","25.0780133333333","6501700","林口區"
"244007","080-UY","2017/10/17 18:37:51","新北市林口區後湖2-16號","121.389143333333","25.0968833333333","6501700","林口區"
"244025","742-UY","2017/10/17 18:37:35","新北市林口區南勢里53-6號","121.355058333333","25.0749033333333","6501700","林口區"
"244009","410-SL","2017/10/17 18:37:31","新北市林口區文林一街12巷1號","121.377083333333","25.0854","6501700","林口區"
"244023","483-VK","2017/10/17 18:37:42","新北市林口區文化一路二段40號","121.380501666667","25.077025","6501700","林口區"
"244017","485-VK","2017/10/17 18:37:41","新北市林口區文化二路一段289號","121.368316666667","25.0714216666667","6501700","林口區"
"244011","701-TV","2017/10/17 18:37:39","新北市林口區仁愛路一段266號","121.393886666667","25.0759883333333","6501700","林口區"
"244021","838-TS","2017/10/17 18:37:45","新北市林口區工六路26號","121.398331666667","25.0787783333333","6501700","林口區"
"243013","AAD-798","2017/10/17 18:37:47","新北市泰山區明志路三段206巷3號","121.423305","25.0379266666667","6501600","泰山區"
"243012","646-TV","2017/10/17 18:37:32","新北市泰山區泰林路二段168號","121.433856666667","25.06052","6501600","泰山區"
"222003","436-BY","2017/10/17 18:37:38","新北市深坑區翠谷街49號","121.62722","25.0092666666667","6501800","深坑區"
"222002","659-BX","2017/10/17 18:37:42","新北市深坑區雲鄉路2號","121.620958333333","24.9996916666667","6501800","深坑區"
"231041","002-UM","2017/10/17 18:37:42","新北市新店區安華路28-1號","121.519763333333","24.9608333333333","6500600","新店區"
"231059","046-UY","2017/10/17 18:37:33","新北市新店區安華路28-1號","121.519575","24.960775","6500600","新店區"
"231061","047-UY","2017/10/17 18:37:39","新北市新店區安華路28-1號","121.51899","24.9609","6500600","新店區"
"231060","106-UY","2017/10/17 18:37:43","新北市新店區安華路28-1號","121.519563333333","24.9606816666667","6500600","新店區"
"231048","108-UY","2017/10/17 18:37:36","新北市新店區秀山路72號","121.531445","24.96086","6500600","新店區"
"231053","187-VK","2017/10/17 18:37:47","新北市新店區新烏路一段60號","121.546033333333","24.9482266666667","6500600","新店區"
"231069","189-VK","2017/10/17 11:54:20","新北市新店區安華路28-1號","121.51958","24.961045","6500600","新店區"
"231050","KEA-2219","2017/10/17 18:37:48","新北市新店區安華路28-1號","121.519583333333","24.9612666666667","6500600","新店區"
"231057","256-BX","2017/10/17 18:37:33","新北市新店區新烏路一段106號","121.545493333333","24.9365466666667","6500600","新店區"
"231046","278-BY","2017/10/17 18:37:37","新北市新店區直潭一街14號","121.536045","24.9425966666667","6500600","新店區"
"231054","AAD-862","2017/10/17 18:37:45","新北市新店區安華路28-1號","121.519805","24.9610933333333","6500600","新店區"
"231058","3712-VJ","2017/10/17 18:37:40","新北市新店區國校路68號","121.538606666667","24.9531216666667","6500600","新店區"
"231055","3713-VJ","2017/10/17 18:37:42","新北市新店區華興街30號","121.537381666667","24.969015","6500600","新店區"
"231056","4716-K9","2017/10/17 18:37:46","新北市新店區自立街45巷1號","121.537116666667","24.9799366666667","6500600","新店區"
"231067","4772-VM","2017/10/17 18:37:33","新北市新店區安華路1-1號","121.519208333333","24.9604733333333","6500600","新店區"
"231065","513-UM","2017/10/17 18:37:31","新北市新店區安華路28-1號","121.519163333333","24.961235","6500600","新店區"
"231064","515-UM","2017/10/17 18:37:40","新北市新店區安華路28-1號","121.519723333333","24.9612066666667","6500600","新店區"
"231045","617-UM","2017/10/17 18:37:32","新北市新店區安華路28-1號","121.519411666667","24.960775","6500600","新店區"
"231040","619-UM","2017/10/17 18:37:46","新北市新店區安華路28-1號","121.51952","24.9608166666667","6500600","新店區"
"231042","641-BX","2017/10/17 18:37:43","新北市新店區安華路1-1號","121.519513333333","24.96045","6500600","新店區"
"231063","645-TV","2017/10/17 18:37:40","新北市新店區安華路28-1號","121.519401666667","24.960615","6500600","新店區"
"231049","719-UM","2017/10/17 18:37:41","新北市新店區安康路一段323-3號","121.521276666667","24.9638266666667","6500600","新店區"
"231051","719-UY","2017/10/17 18:37:28","新北市新店區中央路63號","121.532596666667","24.97706","6500600","新店區"
"231062","720-UM","2017/10/17 18:37:39","新北市新店區安華路28-1號","121.519203333333","24.96118","6500600","新店區"
"231044","897-TW","2017/10/17 18:37:48","新北市新店區安康路一段35-5號","121.531878333333","24.9606716666667","6500600","新店區"
"231043","899-TW","2017/10/17 18:37:29","新北市新店區安華路28-1號","121.519161666667","24.960765","6500600","新店區"
"231066","AKT-0513","2017/10/17 18:37:47","新北市新店區安華路28-1號","121.519541666667","24.96058","6500600","新店區"
"235064","005-UY","2017/10/17 18:37:45","新北市中和區連城路126號","121.496041666667","24.999245","6500300","中和區"
"235063","006-UY","2017/10/17 18:37:47","新北市中和區連城路341號","121.488266666667","24.9960633333333","6500300","中和區"
"235056","096-UM","2017/10/17 18:37:41","新北市中和區員山路611巷1號","121.477865","25.01133","6500300","中和區"
"235039","097-UM","2017/10/17 18:37:41","新北市中和區安平路202號","121.51343","24.999495","6500300","中和區"
"235065","098-UM","2017/10/17 18:37:43","新北市中和區莊敬路49巷20弄24號","121.502828333333","25.00587","6500300","中和區"
"235040","150-BY","2017/10/17 18:37:35","新北市中和區景安路77號","121.506528333333","24.9974966666667","6500300","中和區"
"235058","151-BY","2017/10/17 18:37:33","新北市中和區圓通路433巷8號","121.488378333333","24.98756","6500300","中和區"
"235055","183-VK","2017/10/17 18:37:32","新北市中和區中山路三段152號","121.473501666667","25.0062966666667","6500300","中和區"
"235038","185-VK","2017/10/17 18:37:35","新北市中和區自強路6-2號","121.519918333333","24.9960566666667","6500300","中和區"
"235049","186-VK","2017/10/17 18:37:45","新北市中和區景平路480號","121.505048333333","24.9938483333333","6500300","中和區"
"235067","255-BX","2017/10/17 18:37:50","新北市中和區新生街132號","121.483533333333","25.0010583333333","6500300","中和區"
"235044","293-VK","2017/10/17 18:37:32","新北市中和區景安路220巷1弄4號","121.503181666667","24.9908316666667","6500300","中和區"
"235072","301-VK","2017/10/17 18:37:37","新北市中和區連城路89巷1號","121.496588333333","25","6500300","中和區"
"235043","352-BY","2017/10/17 18:37:30","新北市中和區景平路157號","121.51285","24.9923866666667","6500300","中和區"
"235051","376-QA","2017/10/17 18:37:44","新北市中和區興南路二段114巷10弄1號","121.503875","24.9850566666667","6500300","中和區"
"235068","377-QA","2017/10/17 15:32:57","新北市中和區員山路36巷16-3號","121.485181666667","24.9912283333333","6500300","中和區"
"235061","378-QA","2017/10/17 18:37:29","新北市中和區民享街116巷14號","121.473895","24.99898","6500300","中和區"
"235050","4979-A6","2017/10/17 18:37:41","新北市中和區忠孝街122-1號","121.512353333333","24.9859283333333","6500300","中和區"
"235069","4980-A6","2017/10/17 18:37:37","新北市中和區連城路59號","121.497741666667","25.0015783333333","6500300","中和區"
"235042","551-UM","2017/10/17 18:37:46","新北市中和區成功路127巷16號","121.527078333333","24.990815","6500300","中和區"
"235070","558-UM","2017/10/17 18:37:30","新北市中和區南華路11號","121.502308333333","24.99554","6500300","中和區"
"235045","565-BX","2017/10/17 18:37:33","新北市中和區復興路49巷2號","121.504623333333","24.9897866666667","6500300","中和區"
"235054","640-BX","2017/10/17 18:37:30","新北市中和區民享街89巷9弄1號","121.47486","25.0017533333333","6500300","中和區"
"235060","647-TV","2017/10/17 18:37:42","新北市中和區員山路469巷1號","121.480311666667","25.0046416666667","6500300","中和區"
"235047","732-UM","2017/10/17 18:37:42","新北市中和區南山路320巷10弄14號","121.506851666667","24.9867783333333","6500300","中和區"
"235046","733-UM","2017/10/17 18:37:34","新北市中和區南山路216號","121.506265","24.990355","6500300","中和區"
"235062","800-TS","2017/10/17 18:37:48","新北市中和區中山路二段312巷31號","121.495201666667","25.0037583333333","6500300","中和區"
"235057","801-TS","2017/10/17 18:37:43","新北市中和區民安街42巷38弄6號","121.47899","25.001605","6500300","中和區"
"235052","805-TS","2017/10/17 18:37:47","新北市中和區興南路三段20巷28-2號","121.49688","24.9796433333333","6500300","中和區"
"235048","896-TW","2017/10/17 18:37:45","新北市中和區南山路235號","121.503553333333","24.9931183333333","6500300","中和區"
"235053","900-TW","2017/10/17 18:37:45","新北市土城區金城路三段271號","121.472776666667","24.9904033333333","6500300","中和區"
"235066","911-UM","2017/10/17 18:37:39","新北市中和區水源路7巷5號","121.503753333333","25.0035866666667","6500300","中和區"
"235041","157-BY","2017/10/17 18:37:39","新北市中和區景平路355號","121.504713333333","24.9933116666667","6500300","中和區"
"235037","AAC-213","2017/10/17 18:37:42","新北市中和區景平路111巷30號","121.515676666667","24.99042","6500300","中和區"
"235059","AAC-215","2017/10/17 18:37:31","新北市中和區中正路395號","121.489846666667","24.993555","6500300","中和區"
"220068","013-TV","2017/10/17 18:37:46","新北市板橋區民生路二段120號","121.47038","25.0195116666667","6500100","板橋區"
"220065","072-UY","2017/10/17 18:37:38","新北市板橋區南雅南路二段120-23號","121.451653333333","24.9987333333333","6500100","板橋區"
"220086","073-UY","2017/10/17 18:37:30","新北市板橋區南雅南路二段120-1號","121.452306666667","24.99972","6500100","板橋區"
"226004","205-ST","2017/10/17 18:37:47","新北市平溪區平溪里三坑路35號","121.735036666667","25.0314066666667","6502400","平溪區"
"228001","212-TW","2017/10/17 18:37:32","新北市貢寮區仁理村研海街12-1號","121.923763333333","25.0516733333333","6502600","貢寮區"
"228002","663-BX","2017/10/17 18:37:38","新北市貢寮區福隆里東興街6-11號","121.950783333333","25.0210916666667","6502600","貢寮區"
"228003","828-UM","2017/10/17 18:37:40","新北市貢寮區和美里龍洞街40號","121.915021666667","25.11176","6502600","貢寮區"
"224010","AGQ-8101","2017/10/17 18:34:59","新北市瑞芳區崙頂路103號","121.84477","25.1068966666667","6501200","瑞芳區"
"224006","676-BX","2017/10/17 18:37:42","新北市瑞芳區明燈路三段55號","121.806183333333","25.1081883333333","6501200","瑞芳區"
"224002","639-TC","2017/10/17 18:37:47","新北市瑞芳區傑魚坑路62號","121.793425","25.110555","6501200","瑞芳區"
"224009","285-BY","2017/10/17 18:37:39","新北市瑞芳區祈堂路12號","121.858395","25.11259","6501200","瑞芳區"
"224008","275-VK","2017/10/17 18:37:35","新北市瑞芳區瑞芳街43號","121.806413333333","25.1094766666667","6501200","瑞芳區"
"224007","273-VK","2017/10/17 18:37:36","新北市瑞芳區大埔路115巷24-4號","121.762765","25.1013833333333","6501200","瑞芳區"
"224005","271-BY","2017/10/17 18:37:48","新北市瑞芳區永龍新村1號","121.819436666667","25.1196866666667","6501200","瑞芳區"
"227003","642-TC","2017/10/17 18:37:50","新北市雙溪區魚行里坤溪3-4號","121.876228333333","25.020725","6502500","雙溪區"
"227009","400-TW","2017/10/17 18:37:32","新北市雙溪區牡丹里下坑11號","121.850953333333","25.05619","6502500","雙溪區"
"253005","032-BX","2017/10/17 18:37:34","新北市石門區石門街9號","121.565955","25.2908733333333","6502200","石門區"
"253006","295-VK","2017/10/17 18:37:45","新北市石門區楓林28-1號","121.542196666667","25.289305","6502200","石門區"
"222001","KEA-2212","2017/10/17 18:37:34","新北市深坑區北深路一段104號","121.63559","25.0107183333333","6501800","深坑區"
"208003","665-BX","2017/10/17 18:37:37","新北市金山區中山路276-3號","121.635056666667","25.2242633333333","6502700","金山區"
"208001","761-BX","2017/10/17 18:37:37","新北市金山區文化三路34號","121.635596666667","25.224765","6502700","金山區"
"251004","009-UM","2017/10/17 17:58:42","新北市淡水區民權路185-10號","121.459265","25.1337733333333","6501000","淡水區"
"251002","012-UM","2017/10/17 18:37:30","新北市淡水區中正東路一段3巷14弄1號","121.450956666667","25.1641833333333","6501000","淡水區"
"251014","180-VK","2017/10/17 18:37:47","新北市淡水區崙頂12-8號","121.495756666667","25.21717","6501000","淡水區"
"251008","181-VK","2017/10/17 18:37:47","新北市淡水區北投子81號","121.462731666667","25.1788233333333","6501000","淡水區"
"251010","413-VK","2017/10/17 18:37:37","新北市淡水區沙崙路122號","121.423265","25.1828516666667","6501000","淡水區"
"251012","441-VK","2017/10/17 18:37:43","新北市淡水區北新路228號","121.452236666667","25.180405","6501000","淡水區"
"251016","442-VK","2017/10/17 18:37:35","新北市淡水區下圭柔山72-1號","121.446076666667","25.2059166666667","6501000","淡水區"
"251001","559-UM","2017/10/17 18:37:34","新北市淡水區自強路415巷2號","121.465515","25.1342566666667","6501000","淡水區"
"251011","650-BX","2017/10/17 18:37:33","新北市淡水區學府路32巷27號","121.448488333333","25.1683733333333","6501000","淡水區"
"251003","673-BX","2017/10/17 18:37:49","新北市淡水區北新路69巷26號","121.446776666667","25.18007","6501000","淡水區"
"207003","550-UM","2017/10/17 18:37:38","新北市萬里區大鵬里頂社2-1號","121.66035","25.207215","6502800","萬里區"
"207004","225-TW","2017/10/17 18:37:39","新北市萬里區萬里里獅頭路7號","121.692005","25.1783566666667","6502800","萬里區"
"252002","178-VK","2017/10/17 18:37:51","新北市三芝區民生街54巷5號","121.503901666667","25.2553266666667","6502100","三芝區"
"252003","249-BX","2017/10/17 18:37:47","新北市三芝區後厝里土地公坑54-17號","121.465943333333","25.249585","6502100","三芝區"
"252001","702-TV","2017/10/17 18:37:51","新北市三芝區中興街二段58號","121.49964","25.254885","6502100","三芝區"
"208002","170-UY","2017/10/17 18:37:43","新北市金山區民生路212號","121.640965","25.2206833333333","6502700","金山區"
"237004","078-UY","2017/10/17 18:37:46","新北市三峽區插角219-3號","121.416048333333","24.8660633333333","6500900","三峽區"
"237007","153-BY","2017/10/17 18:37:44","新北市三峽區中正路三段21號","121.349161666667","24.902935","6500900","三峽區"
"237009","210-TH","2017/10/17 18:37:38","新北市三峽區弘園街91號","121.365708333333","24.92639","6500900","三峽區"
"237013","252-BX","2017/10/17 18:37:37","新北市三峽區光明路69巷25號","121.376683333333","24.92923","6500900","三峽區"
"237012","275-BY","2017/10/17 18:37:41","新北市三峽區三樹路300號","121.380793333333","24.94385","6500900","三峽區"
"237008","302-VK","2017/10/17 18:37:39","新北市三峽區白雞67-6號","121.398381666667","24.9115233333333","6500900","三峽區"
"237014","433-BY","2017/10/17 18:37:44","新北市三峽區復興路480巷41號","121.359838333333","24.9401633333333","6500900","三峽區"
"237006","5529-G3","2017/10/17 18:37:43","新北市三峽區溪東路315巷68號","121.411831666667","24.93135","6500900","三峽區"
"237011","572-TV","2017/10/17 18:03:29","新北市三峽區橫溪路3號","121.396101666667","24.93616","6500900","三峽區"
"237016","649-BX","2017/10/17 18:37:39","新北市三峽區竹崙路155號","121.434588333333","24.90667","6500900","三峽區"
"237010","706-TV","2017/10/17 18:22:06","新北市三峽區中山路282號","121.361225","24.937875","6500900","三峽區"
"237005","AKY-6261","2017/10/17 18:37:42","新北市三峽區民生街104巷15號","121.373578333333","24.9360316666667","6500900","三峽區"
"236070","105-UM","2017/10/17 18:37:47","新北市土城區永豐路157巷4號","121.467961666667","24.981625","6501300","土城區"
"236043","107-UM","2017/10/17 18:37:47","新北市土城區學成路108巷11號","121.45019","24.9897","6501300","土城區"
"236079","166-UM","2017/10/17 18:37:44","新北市土城區中央路四段10號","121.421635","24.9614466666667","6501300","土城區"
"236031","253-BX","2017/10/17 18:37:41","新北市土城區福仁街50巷1號","121.43969","24.9751116666667","6501300","土城區"
"236015","270-VK","2017/10/17 18:37:47","新北市土城區青雲路183巷11弄1號","121.459848333333","24.982935","6501300","土城區"
"236038","271-VK","2017/10/17 18:37:34","新北市土城區青山路57號","121.463978333333","24.97513","6501300","土城區"
"236023","401-BY","2017/10/17 18:37:40","新北市土城區延吉街301號","121.466663333333","24.984635","6501300","土城區"
"236027","752-BX","2017/10/17 18:37:40","新北市土城區千歲路28巷6號","121.441385","24.96874","6501300","土城區"
"236059","912-UM","2017/10/17 18:37:47","新北市土城區中央路四段131號","121.416108333333","24.9575316666667","6501300","土城區"
"236049","913-UM","2017/10/17 18:37:46","新北市土城區明德路一段103號","121.46571","24.982715","6501300","土城區"
"236063","915-UM","2017/10/17 18:37:46","新北市土城區延壽路13巷19號","121.469931666667","24.9913516666667","6501300","土城區"
"236055","AAC-216","2017/10/17 18:37:34","新北市土城區中華路一段49號","121.445701666667","24.9882966666667","6501300","土城區"
"242048","441-UM","2017/10/17 18:36:55","新北市新莊區瓊林路59-66號","121.441221666667","25.0224","6500500","新莊區"
"242054","440-UM","2017/10/17 18:37:42","新北市板橋區大觀路三段50巷79號","121.43145","24.9966133333333","6500500","新莊區"
"242061","362-BY","2017/10/17 18:37:36","新北市新莊區民安東路35號","121.428723333333","25.0209216666667","6500500","新莊區"
"242058","353-BY","2017/10/17 18:37:39","新北市新莊區中正路879-6號","121.41772","25.0261916666667","6500500","新莊區"
"242007","132-UY","2017/10/17 18:37:41","新北市新莊區環漢路二段630號","121.444201666667","25.0255716666667","6500500","新莊區"
"242046","172-VK","2017/10/17 18:37:34","新北市新莊區民安路16-29號","121.422375","25.02797","6500500","新莊區"
"242056","349-TH","2017/10/17 18:37:34","新北市新莊區環河路636-7號","121.437476666667","25.0117016666667","6500500","新莊區"
"238015","755-BX","2017/10/17 18:37:33","新北市樹林區備內街49號","121.411998333333","24.9875583333333","6500700","樹林區"
"238023","601-UM","2017/10/17 18:37:34","新北市樹林區三福街114號","121.406523333333","25.0162833333333","6500700","樹林區"
"238019","599-UM","2017/10/17 18:37:34","新北市樹林區中華路190號","121.411931666667","24.980485","6500700","樹林區"
"238018","571-TV","2017/10/17 18:37:31","新北市樹林區樹新路50號","121.428998333333","24.9965933333333","6500700","樹林區"
"238024","5061-A6","2017/10/17 18:37:30","新北市樹林區中華路190號","121.41211","24.9804533333333","6500700","樹林區"
"238025","303-VK","2017/10/17 18:37:32","新北市樹林區中山路三段22號","121.395601666667","24.97295","6500700","樹林區"
"238017","283-BY","2017/10/17 18:37:38","新北市樹林區光興街44號","121.40998","25.0027916666667","6500700","樹林區"
"238014","282-BY","2017/10/17 18:37:46","新北市樹林區大安路111巷41號","121.423303333333","24.9976133333333","6500700","樹林區"
"238020","268-VK","2017/10/17 18:37:45","新北市樹林區俊安街22號","121.419395","25.01395","6500700","樹林區"
"238026","172-UY","2017/10/17 18:37:51","新北市樹林區中山路三段204號","121.387166666667","24.9682433333333","6500700","樹林區"
"238016","169-UY","2017/10/17 18:37:41","新北市樹林區文化街23號","121.419215","24.9876133333333","6500700","樹林區"
"239007","AAC-297","2017/10/17 18:37:32","新北市鶯歌區中正一路建德巷38號","121.364495","24.9578183333333","6500800","鶯歌區"
"239006","891-R6","2017/10/17 18:37:34","新北市鶯歌區鶯桃路296巷88號","121.33676","24.9620066666667","6500800","鶯歌區"
"239008","527-UM","2017/10/17 18:37:40","新北市鶯歌區國際一路179號","121.336285","24.9765166666667","6500800","鶯歌區"
"239005","526-UM","2017/10/17 18:37:35","新北市鶯歌區鳳吉一街52號","121.3263","24.9739483333333","6500800","鶯歌區"
"239001","417-VK","2017/10/17 18:37:40","新北市鶯歌區中正三路37號","121.338981666667","24.9419083333333","6500800","鶯歌區"
"239003","360-BY","2017/10/17 18:37:31","新北市鶯歌區永和街180號","121.336213333333","24.9705466666667","6500800","鶯歌區"
"239002","359-BY","2017/10/17 18:37:36","新北市鶯歌區中山路255號","121.345603333333","24.9570016666667","6500800","鶯歌區"
"239004","193-VK","2017/10/17 18:37:28","新北市鶯歌區中正三路194巷40號","121.331035","24.94115","6500800","鶯歌區"
"221008","489-VK","2017/10/17 18:23:04","新北市汐止區康寧街901號","121.651405","25.0750783333333","6501100","汐止區"
"221036","130-UY","2017/10/17 18:37:46","新北市汐止區大同路三段67號","121.667355","25.0770716666667","6501100","汐止區"
"221015","131-UY","2017/10/17 18:37:30","新北市汐止區吉祥街27巷2號","121.667993333333","25.0817183333333","6501100","汐止區"
"221010","269-BY","2017/10/17 18:37:41","新北市汐止區瑞松街10號","121.645221666667","25.104815","6501100","汐止區"
"221012","276-VK","2017/10/17 13:28:07","新北市汐止區汐萬路一段256巷3號","121.653411666667","25.0746533333333","6501100","汐止區"
"221012","278-VK","2017/10/17 18:37:38","新北市汐止區保長路13號","121.671781666667","25.0796666666667","6501100","汐止區"
"221023","279-VK","2017/10/17 18:37:47","新北市汐止區民族二街86號","121.633203333333","25.0698483333333","6501100","汐止區"
"221032","280-BY","2017/10/17 18:37:46","新北市汐止區民權街二段125號","121.618293333333","25.04593","6501100","汐止區"
"221027","281-BY","2017/10/17 18:37:45","新北市汐止區禮門街1號","121.656716666667","25.06719","6501100","汐止區"
"221029","298-VK","2017/10/17 18:37:42","新北市汐止區樟樹一路150號","121.642185","25.06522","6501100","汐止區"
"221031","353-TW","2017/10/17 18:37:34","新北市汐止區光復街7巷29號","121.640111666667","25.05954","6501100","汐止區"
"221035","622-UM","2017/10/17 18:37:51","新北市汐止區大同路二段264號","121.654463333333","25.0660816666667","6501100","汐止區"
"221025","623-UM","2017/10/17 18:37:32","新北市汐止區仁愛路124號","121.66293","25.0638866666667","6501100","汐止區"
"221038","646-BX","2017/10/17 18:35:45","新北市汐止區汐萬路一段39號","121.654913333333","25.0689533333333","6501100","汐止區"
"221033","647-BX","2017/10/17 18:37:32","新北市汐止區東勢街15-1號","121.62418","25.0389","6501100","汐止區"
"221002","707-TV","2017/10/17 18:37:32","新北市汐止區中興路64號","121.635298333333","25.0615133333333","6501100","汐止區"
"221018","753-BX","2017/10/17 18:37:32","新北市汐止區茄苳路262號","121.671873333333","25.0681683333333","6501100","汐止區"
"220079","145-BY","2017/10/17 18:37:50","新北市板橋區大觀路二段107號","121.446211666667","25.0016433333333","6500100","板橋區"
"220080","200-UY","2017/10/17 18:37:50","新北市板橋區華東街1-10號","121.448375","24.9949316666667","6500100","板橋區"
"220082","610-BX","2017/10/17 18:37:42","新北市板橋區華東街1-10號","121.448276666667","24.9949283333333","6500100","板橋區"
"220056","276-BY","2017/10/17 18:37:33","新北市板橋區華東街1-9號","121.448143333333","24.9949633333333","6500100","板橋區"
"220072","277-BY","2017/10/17 18:37:32","新北市板橋區華東街1-10號","121.44832","24.9950533333333","6500100","板橋區"
"220071","283-VK","2017/10/17 18:37:33","新北市板橋區華東街1-9號","121.448123333333","24.99492","6500100","板橋區"
"220094","285-UM","2017/10/17 18:37:40","新北市板橋區民生路二段161巷1號","121.47012","25.0198366666667","6500100","板橋區"
"220053","285-VK","2017/10/17 18:37:34","新北市板橋區民生路二段161巷1號","121.4702","25.01997","6500100","板橋區"
"220083","286-VK","2017/10/17 18:37:45","新北市板橋區華東街1-10號","121.448361666667","24.995055","6500100","板橋區"
"220061","293-UM","2017/10/17 18:37:31","新北市板橋區民生路二段120號","121.470338333333","25.01974","6500100","板橋區"
"220084","296-UM","2017/10/17 18:37:47","新北市板橋區華東街1-9號","121.448166666667","24.994955","6500100","板橋區"
"220062","305-R5","2017/10/17 18:37:48","新北市板橋區民生路二段120號","121.470415","25.01972","6500100","板橋區"
"220064","486-VK","2017/10/17 18:37:43","新北市板橋區南雅南路二段116號","121.452451666667","25.0004716666667","6500100","板橋區"
"220035","560-BX","2017/10/17 18:37:47","新北市板橋區南雅西路二段145巷10號","121.451568333333","25.0120716666667","6500100","板橋區"
"220075","568-UM","2017/10/17 18:37:45","新北市板橋區華東街1-9號","121.448116666667","24.9949416666667","6500100","板橋區"
"220063","609-BX","2017/10/17 18:37:39","新北市板橋區民生路二段161巷1號","121.469835","25.0200383333333","6500100","板橋區"
"220057","686-BX","2017/10/17 18:37:51","新北市板橋區華東街1-9號","121.448206666667","24.994845","6500100","板橋區"
"220077","687-BX","2017/10/17 18:37:37","新北市板橋區華東街1-10號","121.448356666667","24.9949716666667","6500100","板橋區"
"220067","829-TW","2017/10/17 16:19:42","新北市板橋區民生路二段120號","121.470401666667","25.0197116666667","6500100","板橋區"
"220074","895-R6","2017/10/17 18:37:32","新北市板橋區華東街1-9號","121.448163333333","24.9949666666667","6500100","板橋區"
"220073","985-R7","2017/10/17 18:37:38","新北市板橋區華東街1-10號","121.44834","24.9949516666667","6500100","板橋區"
"220070","AAC-253","2017/10/17 18:37:47","新北市板橋區華東街1-9號","121.448245","24.9948566666667","6500100","板橋區"
