"lineid","car","time","location","longitude","latitude","cityid","cityname"
"234086","338-UY","2017/10/17 20:49:47","新北市五股區天乙路102-20號","121.447701666667","25.1070683333333","6500400","永和區"
"234030","746-BX","2017/10/17 20:49:47","新北市五股區天乙路101-6號","121.444906666667","25.106975","6500400","永和區"
"234077","969-R7","2017/10/17 20:49:35","新北市林口區汕頭32號","121.36651","25.1350033333333","6500400","永和區"
"234074","AAC-211","2017/10/17 20:49:50","新北市永和區竹林路91巷55弄1號","121.52188","25.0137466666667","6500400","永和區"
"222003","436-BY","2017/10/17 20:49:49","新北市深坑區阿柔洋51-2號","121.609508333333","24.998505","6501800","深坑區"
"222002","659-BX","2017/10/17 20:49:42","新北市深坑區北深路三段93巷71號","121.603468333333","25.0011633333333","6501800","深坑區"
"231059","046-UY","2017/10/17 20:49:53","新北市新店區吉祥街11巷37號","121.498943333333","24.9465083333333","6500600","新店區"
"231061","047-UY","2017/10/17 20:49:39","新北市新店區新和街91號","121.520945","24.9865483333333","6500600","新店區"
"231060","106-UY","2017/10/17 20:49:43","新北市新店區安康路三段740號","121.473813333333","24.942","6500600","新店區"
"231048","108-UY","2017/10/17 20:49:36","新北市新店區寶元路一段109號","121.545748333333","24.9831533333333","6500600","新店區"
"231053","187-VK","2017/10/17 20:49:47","新北市新店區新烏路一段247號","121.546981666667","24.9304233333333","6500600","新店區"
"231069","189-VK","2017/10/17 11:54:20","新北市新店區安華路28-1號","121.51958","24.961045","6500600","新店區"
"231050","KEA-2219","2017/10/17 20:49:48","新北市新店區中正路263號","121.538648333333","24.973615","6500600","新店區"
"231057","256-BX","2017/10/17 20:49:41","新北市新店區新烏路一段159-1號","121.547128333333","24.932405","6500600","新店區"
"231054","AAD-862","2017/10/17 20:49:45","新北市新店區行政街12巷2號","121.542771666667","24.9666233333333","6500600","新店區"
"231058","3712-VJ","2017/10/17 20:49:39","新北市新店區平等街19號","121.536848333333","24.9738266666667","6500600","新店區"
"231065","513-UM","2017/10/17 20:49:51","新北市新店區安祥路69巷17號","121.48195","24.9613533333333","6500600","新店區"
"231064","515-UM","2017/10/17 20:49:40","新北市新店區安民街389號","121.516136666667","24.9771216666667","6500600","新店區"
"231040","619-UM","2017/10/17 20:49:46","新北市新店區中正路272號","121.538966666667","24.9737166666667","6500600","新店區"
"231042","641-BX","2017/10/17 20:49:43","新北市新店區寶高路116號","121.554551666667","24.9760833333333","6500600","新店區"
"231063","645-TV","2017/10/17 20:49:39","新北市新店區如意街5巷2號","121.49536","24.9488516666667","6500600","新店區"
"231068","718-UY","2017/10/17 20:49:50","新北市新店區寶元路一段105號","121.545418333333","24.9829916666667","6500600","新店區"
"231049","719-UM","2017/10/17 20:49:41","新北市新店區安康路一段258號","121.520415","24.9639383333333","6500600","新店區"
"231051","719-UY","2017/10/17 20:49:48","新北市新店區中央七街113號","121.52548","24.977765","6500600","新店區"
"231062","720-UM","2017/10/17 20:49:48","新北市新店區裕合街143號","121.489195","24.9490616666667","6500600","新店區"
"231044","897-TW","2017/10/17 20:49:48","新北市新店區民族路192號","121.536226666667","24.975435","6500600","新店區"
"231043","899-TW","2017/10/17 20:49:49","新北市新店區建國路64號","121.540596666667","24.9758516666667","6500600","新店區"
"231066","AKT-0513","2017/10/17 20:49:47","新北市新店區安興路105-1號","121.514671666667","24.97777","6500600","新店區"
"241011","013-R5","2017/10/17 20:49:52","新北市三重區龍濱路203號","121.5021","25.071715","6500200","三重區"
"241028","022-UY","2017/10/17 20:49:54","新北市三重區中正南路50號","121.493935","25.0598733333333","6500200","三重區"
"241008","059-VK","2017/10/17 20:49:40","新北市三重區永福街72巷11號","121.479436666667","25.0767583333333","6500200","三重區"
"241009","060-VK","2017/10/17 20:49:43","新北市三重區三和路四段388-2號","121.482061666667","25.0790966666667","6500200","三重區"
"241031","061-VK","2017/10/17 20:49:55","新北市三重區重陽路一段113巷1弄1號","121.48745","25.0597933333333","6500200","三重區"
"241015","062-VK","2017/10/17 20:49:55","新北市三重區三和路二段156號","121.499326666667","25.0685883333333","6500200","三重區"
"241017","063-VK","2017/10/17 20:49:43","新北市三重區自強路一段179號","121.492435","25.0676816666667","6500200","三重區"
"241026","066-VK","2017/10/17 20:49:47","新北市三重區文化南路7號","121.500041666667","25.0623133333333","6500200","三重區"
"241002","090-VK","2017/10/17 20:49:38","新北市三重區仁義街167巷55號","121.498906666667","25.0824133333333","6500200","三重區"
"241005","262-UM","2017/10/17 20:49:57","新北市三重區五華街141巷27號","121.49212","25.0854733333333","6500200","三重區"
"241016","266-UM","2017/10/17 20:49:36","新北市三重區自強路一段103號","121.49556","25.06635","6500200","三重區"
"241022","267-UM","2017/10/17 20:49:38","新北市三重區中正北路20巷12號","121.487896666667","25.0624366666667","6500200","三重區"
"241018","268-UM","2017/10/17 20:49:51","新北市三重區正義北路275-1號","121.495263333333","25.070195","6500200","三重區"
"241032","269-UM","2017/10/17 20:49:36","新北市三重區重陽路一段120巷48號","121.484995","25.0601516666667","6500200","三重區"
"241025","271-UM","2017/10/17 20:49:52","新北市三重區貴陽街18-1號","121.484211666667","25.0619133333333","6500200","三重區"
"241007","398-BY","2017/10/17 20:49:47","新北市三重區三和路四段143-1號","121.484393333333","25.07833","6500200","三重區"
"241024","KEA-2210","2017/10/17 20:49:45","新北市三重區國道路一段58巷20號","121.481241666667","25.0720016666667","6500200","三重區"
"241020","413-TH","2017/10/17 20:49:53","新北市三重區忠孝路一段101號","121.489423333333","25.0721283333333","6500200","三重區"
"241004","475-VK","2017/10/17 20:49:36","新北市三重區仁愛街394號","121.490865","25.081045","6500200","三重區"
"241019","478-VK","2017/10/17 20:49:44","新北市三重區三張街81號","121.489943333333","25.0706133333333","6500200","三重區"
"241030","480-VK","2017/10/17 20:49:39","新北市三重區昌隆街26號","121.492041666667","25.0522216666667","6500200","三重區"
"241014","543-UM","2017/10/17 20:49:47","新北市三重區長壽街120巷79號","121.501896666667","25.070335","6500200","三重區"
"241023","545-UM","2017/10/17 20:49:40","新北市三重區忠孝路三段84巷1號","121.480251666667","25.0644083333333","6500200","三重區"
"241001","547-UM","2017/10/17 20:49:54","新北市三重區三和路四段122號","121.489431666667","25.0749933333333","6500200","三重區"
"241006","AAD-863","2017/10/17 20:49:38","新北市三重區車路頭街139巷12號","121.484231666667","25.0762283333333","6500200","三重區"
"241035","743-BX","2017/10/17 20:49:52","新北市三重區三和路三段8號","121.49715","25.0700666666667","6500200","三重區"
"241013","887-TS","2017/10/17 20:49:43","新北市三重區仁賢街4號","121.495615","25.07481","6500200","三重區"
"241012","941-UM","2017/10/17 20:49:38","新北市三重區龍門路274巷45號","121.501221666667","25.0755533333333","6500200","三重區"
"241029","942-UM","2017/10/17 20:49:46","新北市三重區中正南路181號","121.493728333333","25.0552283333333","6500200","三重區"
"241033","AAC-255","2017/10/17 20:49:50","新北市三重區光復路二段1號","121.47222","25.0533533333333","6500200","三重區"
"235069","4980-A6","2017/10/17 20:49:57","新北市中和區連城路523巷11弄28號","121.48246","24.9939783333333","6500300","中和區"
"235026","800-TS","2017/10/17 20:18:13","新北市中和區員山路36巷16-3號","121.48471","24.9917466666667","6500300","中和區"
"220069","AAD-861","2017/10/17 20:49:36","新北市林口區汕頭32號","121.366768333333","25.135025","6500100","板橋區"
"247022","893-R6","2017/10/17 20:49:55","新北市蘆洲區三民路120號","121.47133","25.0872366666667","6501400","蘆洲區"
"247012","546-UM","2017/10/17 20:49:51","新北市蘆洲區復興路340巷32-4號","121.483641666667","25.0888416666667","6501400","蘆洲區"
"247010","339-TH","2017/10/17 20:49:36","新北市蘆洲區鷺江街76號","121.477053333333","25.08383","6501400","蘆洲區"
"247002","337-TH","2017/10/17 20:49:39","新北市蘆洲區長安街307號","121.458005","25.085285","6501400","蘆洲區"
"247004","336-TH","2017/10/17 20:49:50","新北市蘆洲區長安街100號","121.461701666667","25.0809616666667","6501400","蘆洲區"
"247016","057-VK","2017/10/17 20:49:38","新北市蘆洲區中山二路211號","121.470456666667","25.0802583333333","6501400","蘆洲區"
"247006","056-VK","2017/10/17 20:49:52","新北市蘆洲區永安南路二段16巷8號","121.467736666667","25.077225","6501400","蘆洲區"
"247008","053-VK","2017/10/17 20:49:53","新北市蘆洲區重陽街46號","121.481638333333","25.0824983333333","6501400","蘆洲區"
"247014","007-UY","2017/10/17 20:49:51","新北市蘆洲區三民路33號","121.475426666667","25.0829866666667","6501400","蘆洲區"
"247024","002-UY","2017/10/17 20:49:44","新北市蘆洲區長樂路136號","121.462125","25.0901283333333","6501400","蘆洲區"
"222001","KEA-2212","2017/10/17 20:49:53","新北市深坑區北深路三段129號","121.604023333333","25.0024733333333","6501800","深坑區"
"251002","012-UM","2017/10/17 20:49:38","新北市淡水區英專路30號","121.445695","25.1700266666667","6501000","淡水區"
"251014","180-VK","2017/10/17 20:49:47","新北市淡水區公埔子36號","121.461881666667","25.2322983333333","6501000","淡水區"
"251010","413-VK","2017/10/17 20:49:37","新北市淡水區沙崙路156巷15號","121.423931666667","25.1823833333333","6501000","淡水區"
"251012","441-VK","2017/10/17 20:49:40","新北市淡水區興仁路162號","121.451605","25.221045","6501000","淡水區"
"251016","442-VK","2017/10/17 20:49:54","新北市淡水區興仁路165號","121.451498333333","25.220235","6501000","淡水區"
"251001","559-UM","2017/10/17 20:49:54","新北市淡水區淡金路218號","121.46057","25.16718","6501000","淡水區"
"251007","577-R6","2017/10/17 20:49:47","新北市淡水區學府路102巷66號","121.453503333333","25.17117","6501000","淡水區"
"251011","650-BX","2017/10/17 20:49:53","新北市淡水區新民街一段13-1號","121.433093333333","25.1846","6501000","淡水區"
"251003","673-BX","2017/10/17 20:49:49","新北市淡水區中山北路一段247巷92號","121.442311666667","25.179415","6501000","淡水區"
"252002","178-VK","2017/10/17 20:49:51","新北市三芝區淡金路二段93號","121.50411","25.2609433333333","6502100","三芝區"
"242029","986-R7","2017/10/17 20:49:39","新北市新莊區昌隆街3巷1弄2號","121.454208333333","25.0513666666667","6500500","新莊區"
"242025","705-TV","2017/10/17 20:49:52","新北市五股區天乙路101-6號","121.44442","25.10695","6500500","新莊區"
"242027","612-BX","2017/10/17 20:49:46","新北市三重區光復路二段165號","121.47319","25.0610233333333","6500500","新莊區"
"242039","566-BX","2017/10/17 20:49:54","新北市新莊區瓊林北路1-1號","121.440056666667","25.02288","6500500","新莊區"
"242051","497-BY","2017/10/17 20:49:53","新北市新莊區民安西路71號","121.427243333333","25.0199333333333","6500500","新莊區"
"242044","442-UM","2017/10/17 20:49:43","新北市新莊區龍安路108號","121.418306666667","25.020415","6500500","新莊區"
"242048","441-UM","2017/10/17 20:49:54","新北市新莊區中正路596號","121.426743333333","25.030205","6500500","新莊區"
"242042","400-BY","2017/10/17 20:49:53","新北市新莊區天祥街8號","121.417288333333","25.026985","6500500","新莊區"
"242061","362-BY","2017/10/17 20:49:39","新北市新莊區中正路457巷21號","121.442381666667","25.03325","6500500","新莊區"
"242007","132-UY","2017/10/17 20:49:52","新北市三重區光復路二段175號","121.472688333333","25.0617566666667","6500500","新莊區"
"242037","133-UY","2017/10/17 20:49:48","新北市新莊區中正路497號","121.44076","25.033585","6500500","新莊區"
"242009","173-VK","2017/10/17 20:49:55","新北市新莊區幸福路6號","121.459321666667","25.0494733333333","6500500","新莊區"
"242019","348-TH","2017/10/17 20:49:37","新北市新莊區銘德街139號","121.454748333333","25.0429083333333","6500500","新莊區"
"242056","349-TH","2017/10/17 20:49:54","新北市新莊區新莊路751巷114號","121.442508333333","25.0300683333333","6500500","新莊區"
"221036","130-UY","2017/10/17 20:49:46","新北市汐止區南昌街45號","121.66314","25.0685733333333","6501100","汐止區"
"221012","276-VK","2017/10/17 13:28:07","新北市汐止區汐萬路一段256巷3號","121.653411666667","25.0746533333333","6501100","汐止區"
"221027","281-BY","2017/10/17 20:49:37","新北市汐止區水源路一段3號","121.65716","25.0670916666667","6501100","汐止區"
"221029","298-VK","2017/10/17 20:49:41","新北市汐止區康寧街777-1號","121.644843333333","25.0756033333333","6501100","汐止區"
"221031","353-TW","2017/10/17 20:49:54","新北市汐止區康寧街753巷2弄24號","121.640315","25.07461","6501100","汐止區"
"221035","622-UM","2017/10/17 20:49:50","新北市汐止區汐萬路一段256巷3號","121.652323333333","25.074645","6501100","汐止區"
"221033","647-BX","2017/10/17 20:49:52","新北市汐止區合順街18巷8弄5號","121.620355","25.04189","6501100","汐止區"
"221002","707-TV","2017/10/17 20:49:52","新北市汐止區福德二路138號","121.630783333333","25.0652466666667","6501100","汐止區"
"221018","753-BX","2017/10/17 20:49:52","新北市汐止區大同路二段599號","121.663925","25.07048","6501100","汐止區"
"220062","305-R5","2017/10/17 20:49:47","新北市三重區重新路五段326巷12號","121.478838333333","25.0467866666667","6500100","板橋區"
"242034","280-VK","2017/10/17 20:49:36","新北市新莊區中正路371號","121.446465","25.034685","6500500","新莊區"
"220091","637-BX","2017/10/17 19:03:15","新北市板橋區民生路二段161巷1號","121.470106666667","25.0200666666667","6500100","板橋區"
"220070","AAC-253","2017/10/17 20:49:47","新北市五股區中直路3-19號","121.427755","25.10926","6500100","板橋區"
