"lineid","car","time","location","longitude","latitude","cityid","cityname"
"234086","338-UY","2017/10/17 20:59:47","新北市八里區中山路三段331號","121.377555","25.1412333333333","6500400","永和區"
"234077","969-R7","2017/10/17 20:59:35","新北市八里區中山路三段409號","121.368446666667","25.1349183333333","6500400","永和區"
"231059","046-UY","2017/10/17 20:59:52","新北市新店區僑信路57號","121.499416666667","24.9492083333333","6500600","新店區"
"231061","047-UY","2017/10/17 20:59:39","新北市新店區永安街58-2號","121.51876","24.9869","6500600","新店區"
"231060","106-UY","2017/10/17 20:59:43","新北市新店區安康路三段525巷50號","121.482246666667","24.9461166666667","6500600","新店區"
"231048","108-UY","2017/10/17 20:59:57","新北市新店區文化路73巷1號","121.54482","24.9824966666667","6500600","新店區"
"231069","189-VK","2017/10/17 11:54:20","新北市新店區安華路28-1號","121.51958","24.961045","6500600","新店區"
"231050","KEA-2219","2017/10/17 20:59:48","新北市新店區三民路117巷2弄1號","121.534605","24.971805","6500600","新店區"
"231054","AAD-862","2017/10/17 20:59:45","新北市新店區中正路75巷67號","121.543308333333","24.969105","6500600","新店區"
"231058","3712-VJ","2017/10/17 20:59:39","新北市新店區三民路60巷18號","121.535776666667","24.97294","6500600","新店區"
"231067","4772-VM","2017/10/17 20:59:52","新北市新店區車子路10號","121.50458","24.9550983333333","6500600","新店區"
"231065","513-UM","2017/10/17 20:59:51","新北市新店區安祥路67巷28弄1號","121.484798333333","24.9593866666667","6500600","新店區"
"231064","515-UM","2017/10/17 20:59:49","新北市新店區安民街305號","121.517556666667","24.9737766666667","6500600","新店區"
"231040","619-UM","2017/10/17 20:59:46","新北市新店區北新路一段100號","121.542135","24.9692933333333","6500600","新店區"
"231042","641-BX","2017/10/17 20:59:43","新北市新店區中興路二段200-1號","121.54829","24.974085","6500600","新店區"
"231063","645-TV","2017/10/17 20:59:39","新北市新店區富貴街10巷2號","121.494223333333","24.9496533333333","6500600","新店區"
"231068","718-UY","2017/10/17 20:59:37","新北市新店區寶中路61號","121.54712","24.98032","6500600","新店區"
"231051","719-UY","2017/10/17 20:59:50","新北市新店區民生路156巷35號","121.528123333333","24.9813866666667","6500600","新店區"
"231062","720-UM","2017/10/17 20:59:48","新北市新店區雙城路45巷16號","121.493123333333","24.9482383333333","6500600","新店區"
"231043","899-TW","2017/10/17 20:59:49","新北市新店區中正路434號","121.534143333333","24.9782166666667","6500600","新店區"
"231066","AKT-0513","2017/10/17 20:59:47","新北市新店區吉安街14號","121.516743333333","24.9657483333333","6500600","新店區"
"241011","013-R5","2017/10/17 20:59:52","新北市三重區秀江街119-1號","121.499655","25.0721733333333","6500200","三重區"
"241028","022-UY","2017/10/17 20:59:34","新北市三重區新北大道一段1號","121.491431666667","25.0612733333333","6500200","三重區"
"241008","059-VK","2017/10/17 20:59:40","新北市三重區力行路二段136巷1弄17號","121.482268333333","25.076545","6500200","三重區"
"241009","060-VK","2017/10/17 20:59:43","新北市三重區三和路四段386號","121.482401666667","25.0789733333333","6500200","三重區"
"241031","061-VK","2017/10/17 20:59:55","新北市三重區重陽路一段113巷2弄2號","121.487526666667","25.0598533333333","6500200","三重區"
"241015","062-VK","2017/10/17 20:59:36","新北市三重區福德北路46號","121.502021666667","25.0655","6500200","三重區"
"241017","063-VK","2017/10/17 20:59:43","新北市三重區國隆路31號","121.492358333333","25.064475","6500200","三重區"
"241026","066-VK","2017/10/17 20:59:47","新北市三重區文化南路45號","121.500188333333","25.061435","6500200","三重區"
"241002","090-VK","2017/10/17 20:59:38","新北市三重區五華街7巷1號","121.495378333333","25.079875","6500200","三重區"
"241005","262-UM","2017/10/17 20:59:37","新北市三重區五華街166號","121.489203333333","25.08592","6500200","三重區"
"241016","266-UM","2017/10/17 20:59:56","新北市三重區正義北路176號","121.496481666667","25.0664216666667","6500200","三重區"
"241022","267-UM","2017/10/17 20:59:38","新北市三重區重陽路二段19巷10號","121.487893333333","25.0624383333333","6500200","三重區"
"241018","268-UM","2017/10/17 20:59:50","新北市三重區自強路一段157號","121.493443333333","25.067115","6500200","三重區"
"241032","269-UM","2017/10/17 20:59:36","新北市三重區三陽路139號","121.482945","25.058915","6500200","三重區"
"241025","271-UM","2017/10/17 20:59:52","新北市三重區貴陽街18-1號","121.484151666667","25.06192","6500200","三重區"
"241007","398-BY","2017/10/17 20:59:47","新北市三重區三和路四段143-1號","121.484393333333","25.078335","6500200","三重區"
"241024","KEA-2210","2017/10/17 20:59:45","新北市三重區國道路一段58巷20號","121.481278333333","25.072015","6500200","三重區"
"241020","413-TH","2017/10/17 20:59:53","新北市三重區忠孝路二段35號","121.485938333333","25.0710483333333","6500200","三重區"
"241004","475-VK","2017/10/17 20:59:36","新北市三重區仁愛街423-1號","121.490378333333","25.0814383333333","6500200","三重區"
"241019","478-VK","2017/10/17 20:59:44","新北市三重區自強路二段74巷19號","121.48801","25.069875","6500200","三重區"
"241030","480-VK","2017/10/17 20:59:39","新北市三重區中正南路293號","121.492701666667","25.0518833333333","6500200","三重區"
"241014","543-UM","2017/10/17 20:59:47","新北市三重區長壽街120巷19弄9號","121.502378333333","25.0691416666667","6500200","三重區"
"241023","545-UM","2017/10/17 20:59:40","新北市三重區忠孝路三段50巷41弄64號","121.482403333333","25.06374","6500200","三重區"
"241001","547-UM","2017/10/17 20:59:34","新北市三重區自強路三段87巷28號","121.488611666667","25.075115","6500200","三重區"
"241006","AAD-863","2017/10/17 20:59:38","新北市三重區永福街46-4號","121.481855","25.078045","6500200","三重區"
"241013","887-TS","2017/10/17 20:59:43","新北市三重區仁賢街6號","121.495633333333","25.0748433333333","6500200","三重區"
"241012","941-UM","2017/10/17 20:59:38","新北市三重區龍門路274巷45號","121.501216666667","25.075545","6500200","三重區"
"241029","942-UM","2017/10/17 20:59:46","新北市三重區正義南路107號","121.498213333333","25.0585366666667","6500200","三重區"
"241033","AAC-255","2017/10/17 20:59:50","新北市三重區光復路二段73號","121.472168333333","25.0570083333333","6500200","三重區"
"235026","800-TS","2017/10/17 20:18:13","新北市中和區員山路36巷16-3號","121.48471","24.9917466666667","6500300","中和區"
"247022","893-R6","2017/10/17 20:59:51","新北市蘆洲區中正路263巷2號","121.467183333333","25.087695","6501400","蘆洲區"
"247012","546-UM","2017/10/17 20:59:51","新北市蘆洲區民權路6號","121.476958333333","25.08548","6501400","蘆洲區"
"247010","339-TH","2017/10/17 20:59:36","新北市蘆洲區鷺江街82號","121.47728","25.0838633333333","6501400","蘆洲區"
"247002","337-TH","2017/10/17 20:59:39","新北市蘆洲區永樂街38巷36號","121.458456666667","25.08978","6501400","蘆洲區"
"247004","336-TH","2017/10/17 20:59:50","新北市蘆洲區永安南路二段268號","121.458615","25.0807283333333","6501400","蘆洲區"
"247016","057-VK","2017/10/17 20:59:38","新北市蘆洲區正和街65號","121.468735","25.0810916666667","6501400","蘆洲區"
"247006","056-VK","2017/10/17 20:59:52","新北市蘆洲區永安南路二段18號","121.467665","25.0771733333333","6501400","蘆洲區"
"247008","053-VK","2017/10/17 20:59:53","新北市蘆洲區中山一路257號","121.472863333333","25.0802416666667","6501400","蘆洲區"
"247014","007-UY","2017/10/17 20:59:51","新北市蘆洲區中山二路36巷15號","121.474295","25.082865","6501400","蘆洲區"
"247024","002-UY","2017/10/17 20:59:44","新北市蘆洲區長興路198號","121.460893333333","25.0869616666667","6501400","蘆洲區"
"247018","001-UY","2017/10/17 20:59:53","新北市蘆洲區民權路144號","121.472788333333","25.0891883333333","6501400","蘆洲區"
"251002","012-UM","2017/10/17 20:59:37","新北市淡水區水源街一段117號","121.44652","25.172075","6501000","淡水區"
"251014","180-VK","2017/10/17 20:59:47","新北市淡水區淡金路五段85號","121.45491","25.2339416666667","6501000","淡水區"
"251010","413-VK","2017/10/17 20:59:37","新北市淡水區中正路一段116-3號","121.423926666667","25.1787616666667","6501000","淡水區"
"251012","441-VK","2017/10/17 20:59:40","新北市淡水區淡金路五段72號","121.454611666667","25.2335583333333","6501000","淡水區"
"251016","442-VK","2017/10/17 20:59:54","新北市淡水區淡金路四段81號","121.449608333333","25.2182433333333","6501000","淡水區"
"251005","443-VK","2017/10/17 20:59:47","新北市淡水區學府路96號","121.449235","25.17106","6501000","淡水區"
"251001","559-UM","2017/10/17 20:59:34","新北市淡水區淡金路一段158號","121.454795","25.1792433333333","6501000","淡水區"
"251007","577-R6","2017/10/17 20:59:47","新北市淡水區仁愛街2巷35-2號","121.446755","25.1716783333333","6501000","淡水區"
"251011","650-BX","2017/10/17 20:59:53","新北市淡水區新民街276號","121.435513333333","25.1813683333333","6501000","淡水區"
"251003","673-BX","2017/10/17 20:59:49","新北市淡水區新春街146-8號","121.44237","25.1812616666667","6501000","淡水區"
"242029","986-R7","2017/10/17 20:59:39","新北市新莊區中華路二段41號","121.453366666667","25.0466133333333","6500500","新莊區"
"242048","441-UM","2017/10/17 20:59:54","新北市新莊區新樹路17號","121.440546666667","25.0325583333333","6500500","新莊區"
"221012","276-VK","2017/10/17 13:28:07","新北市汐止區汐萬路一段256巷3號","121.653411666667","25.0746533333333","6501100","汐止區"
"221029","298-VK","2017/10/17 20:59:41","新北市汐止區康寧街901號","121.651533333333","25.07486","6501100","汐止區"
"221018","753-BX","2017/10/17 20:59:52","新北市汐止區汐萬路一段256巷3號","121.653446666667","25.0746633333333","6501100","汐止區"
"220062","305-R5","2017/10/17 20:59:47","新北市板橋區民生路二段120號","121.470431666667","25.0196266666667","6500100","板橋區"
"220091","637-BX","2017/10/17 19:03:15","新北市板橋區民生路二段161巷1號","121.470106666667","25.0200666666667","6500100","板橋區"
"220070","AAC-253","2017/10/17 20:59:47","新北市八里區中山路三段409號","121.368611666667","25.135565","6500100","板橋區"
