"lineid","car","time","location","longitude","latitude","cityid","cityname"
"232005","290-BY","2017/07/17 08:10:55","新北市坪林區鶯子瀨3-8號","121.707311666667","24.9138333333333","6502000","坪林區"
"232001","291-BY","2017/07/17 08:18:59","新北市坪林區粗石斛4號","121.747288333333","24.9537466666667","6502000","坪林區"
"232012","705-BZ","2017/07/17 08:18:20","新北市坪林區金瓜寮35號","121.673161666667","24.897555","6502000","坪林區"
"232017","758-BX","2017/07/17 08:19:11","新北市坪林區柑腳坑14號","121.773493333333","24.9485966666667","6502000","坪林區"
"244012","069-UM","2017/07/17 08:19:20","新北市林口區文化一路二段202號","121.383278333333","25.0807133333333","6501700","林口區"
"244006","080-UY","2017/07/17 08:19:07","新北市林口區菁埔路10鄰1號","121.382181666667","25.0965066666667","6501700","林口區"
"244001","248-BX","2017/07/17 08:19:15","新北市林口區下福里12-1號","121.315385","25.1095516666667","6501700","林口區"
"244018","403-UM","2017/07/17 08:19:12","新北市林口區公園路233-4號","121.376115","25.0755583333333","6501700","林口區"
"244008","410-SL","2017/07/17 08:19:07","新北市林口區寶林路105號","121.383581666667","25.0849433333333","6501700","林口區"
"244022","483-VK","2017/07/17 08:19:04","新北市林口區隆林街28號","121.388408333333","25.075405","6501700","林口區"
"244016","485-VK","2017/07/17 08:19:13","新北市林口區文化二路一段260巷10號","121.37106","25.07294","6501700","林口區"
"244020","657-BX","2017/07/17 08:19:20","新北市林口區東林街14號","121.396195","25.0789183333333","6501700","林口區"
"244010","701-TV","2017/07/17 08:19:10","新北市林口區中興街15號","121.38877","25.07707","6501700","林口區"
"244024","837-TS","2017/07/17 08:18:59","新北市林口區文化三路一段249巷75號","121.36292","25.0725716666667","6501700","林口區"
"222005","289-BY","2017/07/17 08:19:12","新北市深坑區風格街2-1號","121.626243333333","25.0162516666667","6501800","深坑區"
"231008","188-VK","2017/07/17 08:19:09","新北市新店區新烏路一段100-2號","121.545838333333","24.9371216666667","6500600","新店區"
"231007","189-VK","2017/07/17 08:19:07","新北市新店區新潭路一段19號","121.523168333333","24.9426933333333","6500600","新店區"
"247001","402-BY","2017/07/17 08:19:08","新北市蘆洲區三民路26巷10號","121.476878333333","25.0827816666667","6501400","蘆洲區"
"226005","5620-A6","2017/07/17 08:17:13","新北市平溪區嶺腳里嶺腳寮83-2號","121.750075","25.0351433333333","6502400","平溪區"
"226001","7418-A5","2017/07/17 08:19:16","新北市平溪區東勢里芊蓁林2號","121.752096666667","25.0202466666667","6502400","平溪區"
"226003","AGD-0702","2017/07/17 08:19:03","新北市平溪區嶺腳里嶺腳寮75號","121.747621666667","25.0325366666667","6502400","平溪區"
"223006","022-BY","2017/07/17 08:19:22","新北市深坑區昇高坑路51-1號","121.630398333333","24.993925","6501900","石碇區"
"223002","198-BX","2017/07/17 08:19:15","新北市石碇區北宜路五段濕水子巷3-1號","121.63439","24.94993","6501900","石碇區"
"223003","205-TH","2017/07/17 08:19:02","新北市石碇區北宜路五段80號","121.646403333333","24.95172","6501900","石碇區"
"223008","406-TH","2017/07/17 07:47:04","新北市石碇區靜安路一段337號","121.698808333333","25.01457","6501900","石碇區"
"223001","437-BY","2017/07/17 08:19:13","新北市石碇區北宜路五段80號","121.646371666667","24.9516366666667","6501900","石碇區"
"223004","660-BX","2017/07/17 08:19:02","新北市石碇區碇坪路一段38號","121.653888333333","24.9967283333333","6501900","石碇區"
"223007","661-BX","2017/07/17 08:19:10","新北市石碇區靜安路一段337號","121.698915","25.0144866666667","6501900","石碇區"
"223005","677-TV","2017/07/17 08:19:02","新北市石碇區石崁2-3號","121.652515","24.99926","6501900","石碇區"
"227005","282-VK","2017/07/17 08:16:05","新北市雙溪區外柑里三叉坑1-2號","121.825061666667","25.0206716666667","6502500","雙溪區"
"253003","6232-TK","2017/07/17 08:19:08","新北市石門區石崩山20-7號","121.56775","25.2757116666667","6502200","石門區"
"253001","6251-TK","2017/07/17 08:19:01","新北市石門區楓林11號","121.537143333333","25.2947383333333","6502200","石門區"
"253002","637-UY","2017/07/17 08:19:12","新北市石門區大溪墘9-2號","121.551915","25.2755516666667","6502200","石門區"
"252006","073-UM","2017/07/17 08:18:30","新北市三芝區後厝里大片頭90號","121.456338333333","25.24572","6502100","三芝區"
"252004","249-BX","2017/07/17 08:19:10","新北市三芝區興華里車埕14號","121.501955","25.19827","6502100","三芝區"
"237001","159-UY","2017/07/14 13:43:26","桃園市八德區興豐路2350巷501號","121.326505","24.9437783333333","6500900","三峽區"
"236007","165-UM","2017/07/17 08:19:19","新北市土城區石門路54號","121.456808333333","24.95951","6501300","土城區"
"236001","370-SL","2017/07/17 07:41:53","新北市土城區龍泉路157號","121.449406666667","24.9443483333333","6501300","土城區"
"236005","498-BY","2017/07/17 08:19:15","新北市土城區中央路三段281巷21號","121.425603333333","24.962235","6501300","土城區"
"242020","AAC-296","2017/07/17 08:19:17","新北市新莊區永寧街6鄰28巷1號","121.452836666667","25.0388033333333","6500500","新莊區"
"242028","986-R7","2017/07/17 08:19:12","新北市新莊區中平路108號","121.444808333333","25.04579","6500500","新莊區"
"242047","751-BX","2017/07/17 08:19:07","新北市新莊區萬安街34號","121.421331666667","25.0242583333333","6500500","新莊區"
"242024","615-BX","2017/07/17 08:19:08","新北市三重區新北大道二段65號","121.469335","25.06122","6500500","新莊區"
"242022","613-BX","2017/07/17 08:19:21","新北市新莊區福樂街35號","121.457658333333","25.0468783333333","6500500","新莊區"
"242026","612-BX","2017/07/17 08:19:20","新北市新莊區福壽街149號","121.45799","25.0530333333333","6500500","新莊區"
"242035","566-BX","2017/07/17 08:19:12","新北市新莊區建福路59巷28號","121.427933333333","25.0275866666667","6500500","新莊區"
"242040","497-BY","2017/07/17 08:19:17","新北市新莊區壽山路31號","121.42003","25.0289916666667","6500500","新莊區"
"242003","442-UM","2017/07/17 08:19:12","新北市新莊區自立街247號","121.458643333333","25.0455933333333","6500500","新莊區"
"242045","441-UM","2017/07/17 08:19:10","新北市新莊區建國一路31巷11號","121.434758333333","25.0316916666667","6500500","新莊區"
"242049","440-UM","2017/07/17 08:19:14","新北市新莊區民安西路155巷7弄19號","121.426598333333","25.01689","6500500","新莊區"
"242030","415-TV","2017/07/17 08:19:22","新北市新莊區新泰路305巷15號","121.444648333333","25.0408783333333","6500500","新莊區"
"242001","413-TV","2017/07/17 08:19:09","新北市新莊區中正路153-1號","121.45599","25.036715","6500500","新莊區"
"242038","400-BY","2017/07/17 08:19:16","新北市新莊區民安路138號","121.424221666667","25.0254033333333","6500500","新莊區"
"242059","362-BY","2017/07/17 08:19:20","新北市新莊區新樹路262號","121.4327","25.014675","6500500","新莊區"
"242057","353-BY","2017/07/17 08:19:08","新北市新莊區雙鳳路134巷28號","121.412491666667","25.028315","6500500","新莊區"
"242010","132-UY","2017/07/17 08:19:11","新北市新莊區富貴路161號","121.450061666667","25.056975","6500500","新莊區"
"242033","133-UY","2017/07/17 08:19:12","新北市新莊區景德路548號","121.443086666667","25.0331083333333","6500500","新莊區"
"242018","135-UY","2017/07/17 08:19:07","新北市新莊區民樂街55號","121.457865","25.0414766666667","6500500","新莊區"
"242043","172-VK","2017/07/17 08:19:16","新北市新莊區中正路857號","121.41965","25.027905","6500500","新莊區"
"242006","173-VK","2017/07/17 08:19:10","新北市新莊區福樂街106號","121.457495","25.0477416666667","6500500","新莊區"
"242055","176-VK","2017/07/17 08:19:18","新北市新莊區瓊林路46-4號","121.447238333333","25.02942","6500500","新莊區"
"242012","346-TH","2017/07/17 08:19:14","新北市新莊區中和街108巷11號","121.448191666667","25.0469816666667","6500500","新莊區"
"242016","348-TH","2017/07/17 08:19:11","新北市新莊區永安街157號","121.449138333333","25.04438","6500500","新莊區"
"242052","349-TH","2017/07/17 08:19:15","新北市板橋區大觀路三段50巷49號","121.432316666667","24.995765","6500500","新莊區"
"242014","350-TH","2017/07/17 08:19:19","新北市新莊區中平路87巷8號","121.444243333333","25.0458033333333","6500500","新莊區"
"242008","351-TH","2017/07/17 08:19:07","新北市新莊區昌平街59巷30號","121.453856666667","25.0532733333333","6500500","新莊區"
