"lineid","car","time","location","longitude","latitude","cityid","cityname"
"232005","290-BY","2017/07/17 08:10:55","新北市坪林區鶯子瀨3-8號","121.707311666667","24.9138333333333","6502000","坪林區"
"232001","291-BY","2017/07/17 08:29:19","新北市坪林區九芎坑16-3號","121.73947","24.9491366666667","6502000","坪林區"
"232012","705-BZ","2017/07/17 08:29:20","新北市坪林區金瓜寮23-3號","121.678056666667","24.9102183333333","6502000","坪林區"
"232017","758-BX","2017/07/17 08:19:50","新北市坪林區柑腳坑15號","121.773273333333","24.94717","6502000","坪林區"
"244012","069-UM","2017/07/17 08:29:20","新北市林口區中正路505巷5號","121.38337","25.0772316666667","6501700","林口區"
"244006","080-UY","2017/07/17 08:29:07","新北市林口區湖子15-1號","121.386735","25.09062","6501700","林口區"
"244001","248-BX","2017/07/17 08:29:15","新北市林口區下福里141-4號","121.298061666667","25.11804","6501700","林口區"
"244018","403-UM","2017/07/17 08:29:10","新北市林口區公園路231-3號","121.375548333333","25.07525","6501700","林口區"
"244008","410-SL","2017/07/17 08:29:07","新北市林口區林口路303號","121.385546666667","25.0851566666667","6501700","林口區"
"244022","483-VK","2017/07/17 08:29:04","新北市林口區東明一街15巷15號","121.393513333333","25.0716133333333","6501700","林口區"
"244016","485-VK","2017/07/17 08:29:13","新北市林口區文化二路一段335號","121.370101666667","25.072995","6501700","林口區"
"244020","657-BX","2017/07/17 08:29:00","新北市林口區自強一街66號","121.399843333333","25.07711","6501700","林口區"
"244010","701-TV","2017/07/17 08:29:09","新北市林口區中正路106號","121.393633333333","25.07722","6501700","林口區"
"244024","837-TS","2017/07/17 08:29:19","新北市林口區文化三路一段39巷179號","121.359095","25.06768","6501700","林口區"
"222005","289-BY","2017/07/17 08:29:12","新北市深坑區風格街2號","121.62678","25.01667","6501800","深坑區"
"231008","188-VK","2017/07/17 08:29:09","新北市新店區新烏路三段101號","121.55259","24.9030683333333","6500600","新店區"
"231007","189-VK","2017/07/17 08:29:07","新北市新店區環湖路5-1號","121.528495","24.9262583333333","6500600","新店區"
"247001","402-BY","2017/07/17 08:29:08","新北市蘆洲區中正路298號","121.464866666667","25.0904616666667","6501400","蘆洲區"
"226005","5620-A6","2017/07/17 08:29:13","新北市平溪區靜安路三段86號","121.77025","25.034975","6502400","平溪區"
"226001","7418-A5","2017/07/17 08:29:16","新北市平溪區東勢里芊蓁林60號","121.751011666667","25.005945","6502400","平溪區"
"226003","AGD-0702","2017/07/17 08:22:23","新北市平溪區嶺腳里嶺腳寮85號","121.749338333333","25.0353216666667","6502400","平溪區"
"223006","022-BY","2017/07/17 08:29:02","新北市深坑區昇高坑路51-1號","121.629726666667","24.9950533333333","6501900","石碇區"
"223002","198-BX","2017/07/17 08:26:44","新北市石碇區北宜路五段80號","121.646541666667","24.951725","6501900","石碇區"
"223003","205-TH","2017/07/17 08:29:02","新北市石碇區北宜路六段塗潭巷3號","121.645205","24.9383083333333","6501900","石碇區"
"223008","406-TH","2017/07/17 08:29:08","新北市石碇區靜安路一段304號","121.692236666667","25.0064","6501900","石碇區"
"223001","437-BY","2017/07/17 08:29:13","新北市石碇區北宜路五段80號","121.646251666667","24.951785","6501900","石碇區"
"223004","660-BX","2017/07/17 08:29:02","新北市石碇區石碇東街12號","121.66178","24.990715","6501900","石碇區"
"223007","661-BX","2017/07/17 08:29:11","新北市石碇區靜安路一段304號","121.692166666667","25.0064133333333","6501900","石碇區"
"223005","677-TV","2017/07/17 08:29:02","新北市石碇區湳窟22-1號","121.661165","24.9908366666667","6501900","石碇區"
"227005","282-VK","2017/07/17 08:20:45","新北市雙溪區外柑里過溪3-1號","121.824683333333","25.0185133333333","6502500","雙溪區"
"253003","6232-TK","2017/07/17 08:29:08","新北市石門區內石門85號","121.569071666667","25.2650516666667","6502200","石門區"
"253001","6251-TK","2017/07/17 08:29:01","新北市石門區白沙灣別墅31號","121.510983333333","25.27753","6502200","石門區"
"253002","637-UY","2017/07/17 08:29:12","新北市石門區九芎林6-3號","121.56107","25.266995","6502200","石門區"
"252006","073-UM","2017/07/17 08:28:51","新北市三芝區後厝里大片頭62-2號","121.462715","25.2452733333333","6502100","三芝區"
"252004","249-BX","2017/07/17 08:29:10","新北市三芝區興華里車埕59號","121.498666666667","25.196975","6502100","三芝區"
"237001","159-UY","2017/07/14 13:43:26","桃園市八德區興豐路2350巷501號","121.326505","24.9437783333333","6500900","三峽區"
"236007","165-UM","2017/07/17 08:29:19","新北市土城區石門路95號","121.468995","24.959735","6501300","土城區"
"236001","370-SL","2017/07/17 07:41:53","新北市土城區龍泉路157號","121.449406666667","24.9443483333333","6501300","土城區"
"236005","498-BY","2017/07/17 08:29:15","新北市土城區中央路四段47號","121.42244","24.96153","6501300","土城區"
"242020","AAC-296","2017/07/17 08:29:04","新北市新莊區新興街37巷12號","121.45024","25.0378133333333","6500500","新莊區"
"242028","986-R7","2017/07/17 08:28:51","新北市新莊區中平路186號","121.444773333333","25.0478266666667","6500500","新莊區"
"242047","751-BX","2017/07/17 08:29:07","新北市新莊區富國路102號","121.421591666667","25.025335","6500500","新莊區"
"242024","615-BX","2017/07/17 08:29:17","新北市新莊區五工路98號","121.456625","25.0645883333333","6500500","新莊區"
"242022","613-BX","2017/07/17 08:29:01","新北市新莊區幸福東路53號","121.465121666667","25.0494033333333","6500500","新莊區"
"242026","612-BX","2017/07/17 08:29:14","新北市新莊區思源路338號","121.460006666667","25.0511683333333","6500500","新莊區"
"242035","566-BX","2017/07/17 08:29:12","新北市新莊區建福路56號","121.426708333333","25.027295","6500500","新莊區"
"242040","497-BY","2017/07/17 08:29:17","新北市新莊區天祥街121巷20號","121.414183333333","25.029045","6500500","新莊區"
"242003","442-UM","2017/07/17 08:29:12","新北市新莊區福樂街122號","121.456966666667","25.0478733333333","6500500","新莊區"
"242045","441-UM","2017/07/17 08:29:10","新北市新莊區福營路195巷14號","121.43165","25.0300116666667","6500500","新莊區"
"242049","440-UM","2017/07/17 08:29:21","新北市新莊區民本街25巷15號","121.429035","25.01957","6500500","新莊區"
"242030","415-TV","2017/07/17 08:29:20","新北市新莊區新泰路277巷25號","121.444846666667","25.0402783333333","6500500","新莊區"
"242001","413-TV","2017/07/17 08:29:09","新北市新莊區新莊路187號","121.455818333333","25.0358366666667","6500500","新莊區"
"242038","400-BY","2017/07/17 08:29:16","新北市新莊區民安西路88巷19號","121.425931666667","25.0200166666667","6500500","新莊區"
"242059","362-BY","2017/07/17 08:29:18","新北市新莊區新樹路207-7號","121.435858333333","25.0239333333333","6500500","新莊區"
"242057","353-BY","2017/07/17 08:29:08","新北市新莊區中山路三段619號","121.412885","25.0251333333333","6500500","新莊區"
"242010","132-UY","2017/07/17 08:29:11","新北市新莊區中信街94巷7號","121.44826","25.05376","6500500","新莊區"
"242033","133-UY","2017/07/17 08:29:12","新北市新莊區福海街8號","121.44527","25.0334116666667","6500500","新莊區"
"242018","135-UY","2017/07/17 08:29:07","新北市新莊區明中街43巷11號","121.457526666667","25.0388683333333","6500500","新莊區"
"242043","172-VK","2017/07/17 08:29:16","新北市新莊區鳳山街56巷53號","121.413091666667","25.0271816666667","6500500","新莊區"
"242006","173-VK","2017/07/17 08:29:10","新北市新莊區自信街65巷7號","121.455411666667","25.0486633333333","6500500","新莊區"
"242055","176-VK","2017/07/17 08:29:18","新北市新莊區豐年街55-3號","121.446571666667","25.0311316666667","6500500","新莊區"
"242012","346-TH","2017/07/17 08:28:43","新北市新莊區中和街121號","121.447263333333","25.0484416666667","6500500","新莊區"
"242016","348-TH","2017/07/17 08:29:11","新北市新莊區中港路339巷38號","121.450531666667","25.04517","6500500","新莊區"
"242052","349-TH","2017/07/17 08:29:17","新北市新莊區新樹路392號","121.432356666667","25.0027866666667","6500500","新莊區"
"242014","350-TH","2017/07/17 08:29:19","新北市新莊區中和街59巷10弄9號","121.446796666667","25.0472416666667","6500500","新莊區"
"242008","351-TH","2017/07/17 08:29:04","新北市新莊區中華路二段248號","121.452986666667","25.0528916666667","6500500","新莊區"
