"lineid","car","time","location","longitude","latitude","cityid","cityname"
"232005","290-BY","2017/07/17 08:46:55","新北市坪林區鶯子瀨12-1號","121.711823333333","24.91312","6502000","坪林區"
"232001","291-BY","2017/07/17 08:58:59","新北市坪林區下坑子口6-15號","121.711458333333","24.9433983333333","6502000","坪林區"
"232012","705-BZ","2017/07/17 08:59:00","新北市坪林區北宜路八段6號","121.701146666667","24.9357666666667","6502000","坪林區"
"232017","758-BX","2017/07/17 08:59:11","新北市坪林區鷺鶿岫4-1號","121.78675","24.9556516666667","6502000","坪林區"
"244012","069-UM","2017/07/17 08:59:20","新北市林口區中山路202-1號","121.3878","25.0791516666667","6501700","林口區"
"244006","080-UY","2017/07/17 08:59:07","新北市林口區竹林路363號","121.387656666667","25.0845266666667","6501700","林口區"
"244001","248-BX","2017/07/17 08:59:15","新北市林口區竹林路548號","121.387488333333","25.0846333333333","6501700","林口區"
"244018","403-UM","2017/07/17 08:59:10","新北市林口區忠孝路528號","121.372116666667","25.0687233333333","6501700","林口區"
"244008","410-SL","2017/07/17 08:59:07","新北市林口區文林三街169號","121.37612","25.0887583333333","6501700","林口區"
"244022","483-VK","2017/07/17 08:56:44","新北市林口區東湖路105巷52號","121.38422","25.0716866666667","6501700","林口區"
"244016","485-VK","2017/07/17 08:59:13","新北市林口區文化二路一段271號","121.367585","25.0708983333333","6501700","林口區"
"244020","657-BX","2017/07/17 08:58:04","新北市林口區粉寮路一段55號","121.396968333333","25.0778116666667","6501700","林口區"
"244010","701-TV","2017/07/17 08:59:09","新北市林口區興林路17巷8號","121.39051","25.076985","6501700","林口區"
"244024","837-TS","2017/07/17 08:59:19","新北市林口區文化北路一段366號","121.361826666667","25.0743566666667","6501700","林口區"
"222005","289-BY","2017/07/17 08:58:11","新北市深坑區土庫尖路75-1號","121.631123333333","25.0182266666667","6501800","深坑區"
"231008","188-VK","2017/07/17 08:59:09","新北市新店區松林路85號","121.548751666667","24.90876","6500600","新店區"
"231007","189-VK","2017/07/17 08:59:07","新北市新店區新潭路三段236號","121.501056666667","24.9042483333333","6500600","新店區"
"247001","402-BY","2017/07/17 08:49:49","新北市蘆洲區民族路408巷84號","121.471998333333","25.0953033333333","6501400","蘆洲區"
"226005","5620-A6","2017/07/17 08:59:13","新北市平溪區南山里六分8號","121.796111666667","25.049625","6502400","平溪區"
"226001","7418-A5","2017/07/17 08:47:16","新北市平溪區東勢里番仔坑16號","121.756333333333","24.9918433333333","6502400","平溪區"
"226003","AGD-0702","2017/07/17 08:59:03","新北市平溪區靜安路三段442號","121.78812","25.056785","6502400","平溪區"
"223006","022-BY","2017/07/17 08:59:02","新北市石碇區碇坪路一段49號","121.659146666667","24.99139","6501900","石碇區"
"223002","198-BX","2017/07/17 08:59:15","新北市石碇區半路店5號","121.644648333333","24.9635183333333","6501900","石碇區"
"223003","205-TH","2017/07/17 08:59:02","新北市石碇區北宜路六段直潭巷26號","121.660003333333","24.9348416666667","6501900","石碇區"
"223008","406-TH","2017/07/17 08:59:08","新北市石碇區十八重溪13號","121.677868333333","25.0112366666667","6501900","石碇區"
"223001","437-BY","2017/07/17 08:59:13","新北市石碇區北宜路六段直潭巷10號","121.660916666667","24.9351816666667","6501900","石碇區"
"223004","660-BX","2017/07/17 08:59:22","新北市石碇區碇坪路二段55號","121.684065","24.9714016666667","6501900","石碇區"
"223007","661-BX","2017/07/17 08:59:10","新北市石碇區十八重溪13號","121.677856666667","25.0112283333333","6501900","石碇區"
"223005","677-TV","2017/07/17 08:59:02","新北市石碇區崩山53號","121.682375","24.9688583333333","6501900","石碇區"
"227005","282-VK","2017/07/17 08:58:05","新北市雙溪區泰平里溪尾寮3號","121.818653333333","24.9703283333333","6502500","雙溪區"
"253003","6232-TK","2017/07/17 08:59:08","新北市石門區尖子鹿8-1號","121.575211666667","25.279925","6502200","石門區"
"253001","6251-TK","2017/07/17 08:59:01","新北市石門區下員坑50-1號","121.518281666667","25.27291","6502200","石門區"
"253002","637-UY","2017/07/17 08:57:32","新北市石門區尖山湖18號","121.559418333333","25.2472333333333","6502200","石門區"
"252006","073-UM","2017/07/17 08:58:11","新北市三芝區樂全街14號","121.486793333333","25.2586216666667","6502100","三芝區"
"252004","249-BX","2017/07/17 08:59:10","新北市三芝區興華里田心子15-4號","121.49242","25.20447","6502100","三芝區"
"237001","159-UY","2017/07/14 13:43:26","桃園市八德區興豐路2350巷501號","121.326505","24.9437783333333","6500900","三峽區"
"236007","165-UM","2017/07/17 08:59:19","新北市土城區明德路一段385-1號","121.452285","24.97991","6501300","土城區"
"236001","370-SL","2017/07/17 07:41:53","新北市土城區龍泉路157號","121.449406666667","24.9443483333333","6501300","土城區"
"236005","498-BY","2017/07/17 08:59:15","新北市土城區承天路31號","121.43706","24.9650916666667","6501300","土城區"
"242020","AAC-296","2017/07/17 08:59:04","新北市新莊區建中街32巷14號","121.44878","25.0381716666667","6500500","新莊區"
"242028","986-R7","2017/07/17 08:59:11","新北市新莊區中原路349號","121.445098333333","25.0542933333333","6500500","新莊區"
"242047","751-BX","2017/07/17 08:59:17","新北市新莊區後港二路13號","121.42304","25.0239133333333","6500500","新莊區"
"242024","615-BX","2017/07/17 08:59:08","新北市新莊區五工三路78巷18號","121.459516666667","25.0656383333333","6500500","新莊區"
"242022","613-BX","2017/07/17 08:59:21","新北市新莊區化成路750號","121.465466666667","25.05773","6500500","新莊區"
"242026","612-BX","2017/07/17 08:59:14","新北市新莊區立信三街12巷10號","121.444408333333","25.050895","6500500","新莊區"
"242035","566-BX","2017/07/17 08:59:13","新北市新莊區建安街97號","121.426806666667","25.0243633333333","6500500","新莊區"
"242040","497-BY","2017/07/17 08:59:17","新北市新莊區新北大道七段370號","121.412736666667","25.03113","6500500","新莊區"
"242003","442-UM","2017/07/17 08:59:12","新北市新莊區化成路63巷6號","121.464958333333","25.045835","6500500","新莊區"
"242045","441-UM","2017/07/17 08:59:19","新北市新莊區福營路405號","121.422273333333","25.027035","6500500","新莊區"
"242049","440-UM","2017/07/17 08:59:14","新北市新莊區民安西路252巷14號","121.425236666667","25.013785","6500500","新莊區"
"242030","415-TV","2017/07/17 08:59:22","新北市新莊區公園一路112號","121.444726666667","25.03787","6500500","新莊區"
"242001","413-TV","2017/07/17 08:59:09","新北市新莊區中正路33號","121.463918333333","25.0409066666667","6500500","新莊區"
"242038","400-BY","2017/07/17 08:59:16","新北市新莊區民安西路111巷1號","121.426915","25.018245","6500500","新莊區"
"242059","362-BY","2017/07/17 08:59:18","新北市新莊區瓊林路204-11號","121.43758","25.021205","6500500","新莊區"
"242057","353-BY","2017/07/17 08:59:09","新北市新莊區八德街103號","121.424375","25.02118","6500500","新莊區"
"242010","132-UY","2017/07/17 08:59:11","新北市新莊區中和街177號","121.447686666667","25.0505416666667","6500500","新莊區"
"242033","133-UY","2017/07/17 08:59:12","新北市新莊區公園一路126號","121.4456","25.0379716666667","6500500","新莊區"
"242018","135-UY","2017/07/17 08:59:15","新北市新莊區民樂街85號","121.457928333333","25.04328","6500500","新莊區"
"242043","172-VK","2017/07/17 08:59:16","新北市新莊區中正路新旺巷11號","121.41582","25.0233733333333","6500500","新莊區"
"242006","173-VK","2017/07/17 08:59:10","新北市新莊區思源路593巷23號","121.458165","25.0596316666667","6500500","新莊區"
"242055","176-VK","2017/07/17 08:59:18","新北市新莊區新豐街31號","121.447965","25.0338466666667","6500500","新莊區"
"242012","346-TH","2017/07/17 08:59:23","新北市新莊區幸福路710巷1弄10號","121.449246666667","25.0495366666667","6500500","新莊區"
"242016","348-TH","2017/07/17 08:59:11","新北市新莊區中港路373號","121.45173","25.046575","6500500","新莊區"
"242052","349-TH","2017/07/17 08:59:15","新北市新莊區民安西路410巷12弄4號","121.427833333333","25.0091","6500500","新莊區"
"242014","350-TH","2017/07/17 08:59:19","新北市新莊區中和街31巷22號","121.447178333333","25.0439216666667","6500500","新莊區"
"242008","351-TH","2017/07/17 08:59:04","新北市新莊區昌隆街110號","121.456995","25.0507833333333","6500500","新莊區"
