"lineid","car","time","location","longitude","latitude","cityid","cityname"
"244025","837-TS","2017/07/17 09:29:10","新北市林口區粉寮路二段160巷28號","121.405186666667","25.09074","6501700","林口區"
"231008","188-VK","2017/07/17 11:49:09","新北市新店區成功路91-1號","121.537751666667","24.8952783333333","6500600","新店區"
"247001","402-BY","2017/07/17 11:42:15","新北市五股區中興路三段3-6號","121.44959","25.078815","6501400","蘆洲區"
"227005","282-VK","2017/07/17 11:49:05","新北市雙溪區魚行里丁子蘭坑47號","121.866006666667","24.9990016666667","6502500","雙溪區"
"252006","AAC-283","2017/07/17 10:56:42","新北市三芝區埔坪里埔頭坑41號","121.504578333333","25.2646616666667","6502100","三芝區"
"236001","370-SL","2017/07/17 07:41:53","新北市土城區龍泉路157號","121.449406666667","24.9443483333333","6501300","土城區"
