"lineid","car","time","location","longitude","latitude","cityid","cityname"
"234044","148-BY","2017/07/17 13:59:47","新北市永和區林森路114號","121.522665","25.00319","6500400","永和區"
"234012","149-BY","2017/07/17 13:59:37","新北市永和區保生路55號","121.50471","25.0105916666667","6500400","永和區"
"234005","207-UY","2017/07/17 13:59:42","新北市中和區中和路324巷3弄5號","121.510031666667","25.0010933333333","6500400","永和區"
"234078","298-R6","2017/07/17 13:59:53","新北市永和區林森路112巷9弄1號","121.522293333333","25.0042983333333","6500400","永和區"
"234036","336-UY","2017/07/17 13:59:52","新北市永和區成功路二段4號","121.526678333333","25.001115","6500400","永和區"
"234062","337-UY","2017/07/17 13:59:44","新北市永和區中正路412巷20弄27號","121.519101666667","25.001395","6500400","永和區"
"234084","338-UY","2017/07/17 13:59:44","新北市永和區中正路485號","121.517011666667","25.0064983333333","6500400","永和區"
"234068","552-UM","2017/07/17 13:59:47","新北市永和區福和路183巷1號","121.520008333333","25.007285","6500400","永和區"
"234052","553-UM","2017/07/17 13:59:52","新北市永和區竹林路39巷18號","121.518658333333","25.0146233333333","6500400","永和區"
"234015","745-BX","2017/07/17 13:59:51","新北市永和區文化路58號","121.51448","25.01513","6500400","永和區"
"234028","746-BX","2017/07/17 13:59:48","新北市永和區民生路22巷27號","121.52122","24.996895","6500400","永和區"
"234060","AAD-866","2017/07/17 13:59:42","新北市永和區中正路283巷13號","121.516923333333","25.0004516666667","6500400","永和區"
"234040","862-TW","2017/07/17 13:59:37","新北市永和區中和路421巷5弄17號","121.508575","25.0007816666667","6500400","永和區"
"234048","863-TW","2017/07/17 13:59:40","新北市永和區保安路264號","121.505823333333","25.01234","6500400","永和區"
"234025","9371-KE","2017/07/17 13:59:49","新北市永和區安樂路467號","121.514358333333","25.0053166666667","6500400","永和區"
"248015","026-BX","2017/07/17 13:59:50","新北市五股區成泰路三段543巷12弄11號","121.451328333333","25.1023766666667","6501500","五股區"
"248007","095-VK","2017/07/17 13:59:52","新北市五股區中興路一段118巷1號","121.4659","25.07365","6501500","五股區"
"248019","225-UY","2017/07/17 13:59:46","新北市五股區凌雲路三段57號","121.42534","25.1249983333333","6501500","五股區"
"248011","247-BX","2017/07/17 13:59:39","新北市五股區成泰路二段195巷1號","121.44037","25.0873616666667","6501500","五股區"
"248013","261-SL","2017/07/17 13:59:42","新北市五股區民義路一段107巷32號","121.432488333333","25.0845716666667","6501500","五股區"
"248009","272-BY","2017/07/17 13:59:50","新北市五股區水碓一路23號","121.430643333333","25.0713783333333","6501500","五股區"
"248003","677-BX","2017/07/17 13:59:55","新北市五股區民義路二段23-1號","121.416975","25.0989033333333","6501500","五股區"
"248001","678-BX","2017/07/17 13:59:50","新北市五股區天乙路1號","121.448215","25.1027033333333","6501500","五股區"
"234022","9380-KE","2017/07/17 13:59:48","新北市永和區中正路662巷14號","121.517795","25.0087666666667","6500400","永和區"
"234076","969-R7","2017/07/17 13:59:54","新北市永和區民族街67巷4號","121.518663333333","24.99719","6500400","永和區"
"234072","AAC-211","2017/07/17 13:59:50","新北市永和區竹林路191巷18號","121.521566666667","25.009565","6500400","永和區"
"234066","AAC-212","2017/07/17 13:59:55","新北市永和區保平路236巷27號","121.508061666667","25.0068383333333","6500400","永和區"
"234001","AAC-295","2017/07/17 13:59:47","新北市永和區福和路315號","121.516","25.0070966666667","6500400","永和區"
"244001","248-BX","2017/07/17 13:59:55","新北市林口區後坑35-1號","121.35389","25.1309166666667","6501700","林口區"
"244025","837-TS","2017/07/17 09:29:10","新北市林口區粉寮路二段160巷28號","121.405186666667","25.09074","6501700","林口區"
"243005","AAD-798","2017/07/17 13:59:45","新北市泰山區明志路三段206巷1號","121.423288333333","25.0376633333333","6501600","泰山區"
"243001","297-R6","2017/07/17 13:59:52","新北市泰山區福德街22號","121.4322","25.0629333333333","6501600","泰山區"
"243007","380-SR","2017/07/17 13:59:43","新北市泰山區泰林路二段328號","121.430146666667","25.0631733333333","6501600","泰山區"
"243006","421-VK","2017/07/17 13:59:37","新北市泰山區黎明路23號","121.4209","25.062565","6501600","泰山區"
"243002","548-UM","2017/07/17 13:59:37","新北市泰山區辭修路24號","121.42904","25.058135","6501600","泰山區"
"243003","549-UM","2017/07/17 13:59:48","新北市泰山區明志路二段320巷2弄10號","121.42619","25.0465433333333","6501600","泰山區"
"243004","646-TV","2017/07/17 13:59:47","新北市泰山區仁德路110號","121.432761666667","25.0568166666667","6501600","泰山區"
"243008","680-BX","2017/07/17 13:59:46","新北市泰山區明志路二段181號","121.4275","25.0498816666667","6501600","泰山區"
"231002","002-UM","2017/07/17 13:59:44","新北市新店區中正路692號","121.53417","24.9903866666667","6500600","新店區"
"231025","0293-UT","2017/07/17 13:59:38","新北市新店區中央路7號","121.533475","24.9785533333333","6500600","新店區"
"231028","046-UY","2017/07/17 13:59:52","新北市新店區安和路三段128號","121.516676666667","24.985695","6500600","新店區"
"231030","047-UY","2017/07/17 13:59:39","新北市新店區安興路7-1號","121.515035","24.9685366666667","6500600","新店區"
"231029","106-UY","2017/07/17 13:59:54","新北市新店區安忠路2號","121.514441666667","24.9634033333333","6500600","新店區"
"231018","107-UY","2017/07/17 13:59:50","新北市新店區中央路99號","121.53108","24.975065","6500600","新店區"
"231011","108-UY","2017/07/17 13:59:53","新北市新店區中興路一段282-5號","121.54631","24.96816","6500600","新店區"
"231019","187-VK","2017/07/17 13:59:44","新北市新店區自強路74巷8號","121.545435","24.9252666666667","6500600","新店區"
"231026","256-BX","2017/07/17 13:59:53","新北市新店區安康路一段9-2號","121.533723333333","24.9606383333333","6500600","新店區"
"231014","AAD-862","2017/07/17 13:59:47","新北市新店區北宜路二段148號","121.557655","24.9538783333333","6500600","新店區"
"231027","3712-VJ","2017/07/17 13:59:40","新北市新店區北宜路一段39巷20號","121.538971666667","24.9583866666667","6500600","新店區"
"231024","3713-VJ","2017/07/17 13:59:51","新北市新店區新生街13巷26號","121.53892","24.9663833333333","6500600","新店區"
"231038","4715-K9","2017/07/17 13:59:49","新北市新店區溪洲路121號","121.531363333333","24.9626516666667","6500600","新店區"
"231036","512-UM","2017/07/17 13:59:45","新北市新店區安祥路130號","121.474375","24.9562966666667","6500600","新店區"
"231023","513-UM","2017/07/17 13:59:52","新北市新店區文中路45號","121.539405","24.9566833333333","6500600","新店區"
"231035","515-UM","2017/07/17 13:59:40","新北市新店區安康路二段1-5號","121.517145","24.96386","6500600","新店區"
"231006","617-UM","2017/07/17 13:59:51","新北市新店區北宜路二段209號","121.553186666667","24.95322","6500600","新店區"
"231001","619-UM","2017/07/17 13:59:46","新北市新店區三民路24號","121.537135","24.9710233333333","6500600","新店區"
"231003","641-BX","2017/07/17 13:59:49","新北市新店區中興路一段12號","121.538631666667","24.95794","6500600","新店區"
"231034","645-TV","2017/07/17 13:59:46","新北市新店區黎明路67巷25號","121.504226666667","24.9454383333333","6500600","新店區"
"231013","719-UM","2017/07/17 13:59:45","新北市新店區明德路68號","121.541531666667","24.9796383333333","6500600","新店區"
"231031","720-UM","2017/07/17 13:59:42","新北市新店區太平路44號","121.533065","24.9592116666667","6500600","新店區"
"231005","897-TW","2017/07/17 13:59:46","新北市新店區中興路三段133號","121.544718333333","24.9793783333333","6500600","新店區"
"231004","899-TW","2017/07/17 13:59:51","新北市新店區北新路二段131號","121.542886666667","24.9753033333333","6500600","新店區"
"231037","AKT-0513","2017/07/17 13:59:48","新北市新店區安康路三段207巷26弄1號","121.488298333333","24.95061","6500600","新店區"
"235030","003-UY","2017/07/17 13:59:49","新北市中和區水源路6巷6號","121.503513333333","25.0034316666667","6500300","中和區"
"235028","005-UY","2017/07/17 13:59:55","新北市中和區景平路634-3號","121.499383333333","24.9990483333333","6500300","中和區"
"235020","096-UM","2017/07/17 13:59:57","新北市中和區中正路1224號","121.479545","25.010865","6500300","中和區"
"235003","097-UM","2017/07/17 13:59:39","新北市中和區景平路64巷13弄1號","121.521965","24.9913166666667","6500300","中和區"
"235029","098-UM","2017/07/17 13:59:36","新北市中和區福祥路135號","121.498406666667","25.0074266666667","6500300","中和區"
"235004","150-BY","2017/07/17 13:59:43","新北市中和區保健路50巷9號","121.510168333333","24.9964983333333","6500300","中和區"
"235022","151-BY","2017/07/17 13:59:50","新北市中和區連城路631-1號","121.476593333333","24.9917316666667","6500300","中和區"
"235019","183-VK","2017/07/17 13:59:39","新北市中和區民生街93-2號","121.468543333333","25.004735","6500300","中和區"
"235002","185-VK","2017/07/17 13:59:51","新北市中和區大勇街43巷16號","121.517163333333","24.99482","6500300","中和區"
"235013","186-VK","2017/07/17 13:59:44","新北市中和區景安路167巷20號","121.506265","24.99469","6500300","中和區"
"235031","255-BX","2017/07/17 13:59:55","新北市中和區新生街262號","121.48376","24.99725","6500300","中和區"
"235008","293-VK","2017/07/17 13:59:36","新北市中和區中興街121號","121.499956666667","24.9918783333333","6500300","中和區"
"235036","301-VK","2017/07/17 13:59:47","新北市中和區中山路二段127號","121.502606666667","25.003455","6500300","中和區"
"235007","352-BY","2017/07/17 13:59:35","新北市永和區成功路二段193號","121.526546666667","24.99639","6500300","中和區"
"235015","376-QA","2017/07/17 13:59:28","新北市中和區忠孝街5巷2號","121.509765","24.982995","6500300","中和區"
"235032","377-QA","2017/07/17 13:43:45","新北市中和區板南路218號","121.498076666667","24.994","6500300","中和區"
"235025","378-QA","2017/07/17 13:59:43","新北市中和區中山路三段65號","121.476535","25.0056933333333","6500300","中和區"
"235014","4979-A6","2017/07/17 13:59:55","新北市中和區興南路二段49號","121.507375","24.9853983333333","6500300","中和區"
"235033","4980-A6","2017/07/17 13:59:50","新北市中和區圓通路108號","121.499366666667","24.996635","6500300","中和區"
"235006","551-UM","2017/07/17 13:59:41","新北市中和區秀朗路三段50巷12弄8號","121.524088333333","24.995405","6500300","中和區"
"235009","565-BX","2017/07/17 13:59:51","新北市中和區景新街467巷6號","121.513798333333","24.9881266666667","6500300","中和區"
"235018","640-BX","2017/07/17 13:59:53","新北市中和區民享街10-2號","121.473961666667","25.0039733333333","6500300","中和區"
"235024","647-TV","2017/07/17 13:59:58","新北市中和區中山路三段144號","121.473683333333","25.006325","6500300","中和區"
"235011","732-UM","2017/07/17 13:59:37","新北市中和區興南路二段54巷2-8號","121.506036666667","24.985615","6500300","中和區"
"235010","733-UM","2017/07/17 13:59:39","新北市中和區興南路二段11號","121.50815","24.9862033333333","6500300","中和區"
"235035","783-BX","2017/07/17 13:59:46","新北市中和區永和路226號","121.49074","25.007725","6500300","中和區"
"235026","800-TS","2017/07/17 13:59:54","新北市中和區中山路二段340巷64號","121.49298","25.00486","6500300","中和區"
"235021","801-TS","2017/07/17 13:59:56","新北市中和區民利街14巷10號","121.480668333333","24.9995616666667","6500300","中和區"
"235005","802-TS","2017/07/17 13:59:52","新北市中和區永貞路243號","121.513066666667","25.0039216666667","6500300","中和區"
"235016","805-TS","2017/07/17 13:59:47","新北市中和區興南路二段131-6號","121.50375","24.9816133333333","6500300","中和區"
"235012","896-TW","2017/07/17 13:59:50","新北市中和區華新街34號","121.507865","24.984395","6500300","中和區"
"235017","900-TW","2017/07/17 13:59:54","新北市中和區華順街135巷5號","121.465715","24.9962433333333","6500300","中和區"
"235027","911-UM","2017/07/17 13:59:45","新北市中和區中正路515號","121.488175","24.9941083333333","6500300","中和區"
"235001","AAC-213","2017/07/17 13:59:55","新北市中和區秀朗路三段173號","121.524576666667","24.9914116666667","6500300","中和區"
"235023","AAC-215","2017/07/17 13:59:49","新北市中和區圓通路367巷20弄29號","121.491311666667","24.9882516666667","6500300","中和區"
"220016","013-TV","2017/07/17 13:59:55","新北市板橋區中山路二段465巷9號","121.481625","25.0208933333333","6500100","板橋區"
"220013","072-UY","2017/07/17 13:59:53","新北市板橋區漢生東路281號","121.47147","25.0089916666667","6500100","板橋區"
"220034","073-UY","2017/07/17 13:59:54","新北市板橋區中正路80巷5號","121.457001666667","25.0146316666667","6500100","板橋區"
"220105","075-UY","2017/07/17 13:59:52","新北市板橋區莊敬路147號","121.471658333333","25.0249316666667","6500100","板橋區"
"247019","893-R6","2017/07/17 13:59:49","新北市蘆洲區民族路422巷82弄2號","121.473616666667","25.0937","6501400","蘆洲區"
"247009","546-UM","2017/07/17 13:59:49","新北市蘆洲區中興街48號","121.48164","25.0871416666667","6501400","蘆洲區"
"247017","500-BY","2017/07/17 13:59:39","新北市蘆洲區民族路257巷17號","121.475163333333","25.08997","6501400","蘆洲區"
"247001","402-BY","2017/07/17 13:59:52","新北市蘆洲區集賢路416號","121.479848333333","25.08129","6501400","蘆洲區"
"247005","341-TH","2017/07/17 13:59:54","新北市蘆洲區永安南路二段50號","121.465926666667","25.0775833333333","6501400","蘆洲區"
"247007","339-TH","2017/07/17 13:59:46","新北市三重區永安北路二段1號","121.480888333333","25.080195","6501400","蘆洲區"
"247023","337-TH","2017/07/17 13:59:42","新北市蘆洲區光榮路120巷9號","121.465208333333","25.0887916666667","6501400","蘆洲區"
"247001","336-TH","2017/07/17 13:59:42","新北市蘆洲區永平街32巷70號","121.460463333333","25.0933683333333","6501400","蘆洲區"
"247013","057-VK","2017/07/17 13:59:42","新北市蘆洲區保和街67號","121.469458333333","25.08609","6501400","蘆洲區"
"247003","056-VK","2017/07/17 13:59:46","新北市蘆洲區長榮路20號","121.463865","25.0822216666667","6501400","蘆洲區"
"247011","007-UY","2017/07/17 13:59:54","新北市蘆洲區民族路156號","121.479566666667","25.0861833333333","6501400","蘆洲區"
"247021","002-UY","2017/07/17 13:59:41","新北市蘆洲區中正路263巷2號","121.467315","25.0874266666667","6501400","蘆洲區"
"247015","001-UY","2017/07/17 13:59:44","新北市蘆洲區光華路42號","121.468875","25.08308","6501400","蘆洲區"
"208004","AAC-292","2017/07/17 13:59:53","新北市金山區山城路91號","121.598975","25.200015","6502700","金山區"
"207002","749-BX","2017/07/17 13:59:32","新北市萬里區溪底里富士坪路21-5號","121.629696666667","25.1495716666667","6502800","萬里區"
"207001","463-BY","2017/07/17 13:59:54","新北市萬里區磺潭里清水18-2號","121.639015","25.198905","6502800","萬里區"
"252005","AAC-283","2017/07/17 13:59:58","新北市三芝區橫山里橫山56-6號","121.535696666667","25.2492116666667","6502100","三芝區"
"236064","105-UM","2017/07/17 13:59:50","新北市土城區城林路6巷80號","121.438321666667","24.9797266666667","6501300","土城區"
"236040","107-UM","2017/07/17 13:59:38","新北市土城區裕生路61號","121.447643333333","24.9860966666667","6501300","土城區"
"236074","166-UM","2017/07/17 13:59:56","新北市土城區永寧路32巷10弄18-2號","121.429125","24.96092","6501300","土城區"
"236028","253-BX","2017/07/17 13:59:54","新北市土城區城林路6巷80號","121.438368333333","24.97975","6501300","土城區"
"236024","269-VK","2017/07/17 13:59:50","新北市土城區承天路67號","121.439571666667","24.96354","6501300","土城區"
"236012","270-VK","2017/07/17 13:59:45","新北市土城區城林路6巷80號","121.438353333333","24.9795883333333","6501300","土城區"
"236032","271-VK","2017/07/17 13:59:37","新北市土城區城林路6巷80號","121.438421666667","24.9797816666667","6501300","土城區"
"236016","401-BY","2017/07/17 13:59:53","新北市土城區城林路6巷80號","121.43857","24.97975","6501300","土城區"
"236005","498-BY","2017/07/17 13:59:40","新北市土城區中央路二段61巷46號","121.444078333333","24.9784066666667","6501300","土城區"
"236056","912-UM","2017/07/17 13:59:36","新北市土城區中央路三段196號","121.43042","24.964855","6501300","土城區"
"236044","913-UM","2017/07/17 13:59:57","新北市土城區城林路6巷80號","121.438515","24.97958","6501300","土城區"
"236060","915-UM","2017/07/17 13:59:53","新北市土城區城林路6巷80號","121.438468333333","24.979825","6501300","土城區"
"236052","AAC-216","2017/07/17 13:59:41","新北市土城區城林路6巷80號","121.438376666667","24.9797383333333","6501300","土城區"
"220027","145-BY","2017/07/17 13:59:54","新北市板橋區民權路202巷8弄2號","121.460085","25.0146833333333","6500100","板橋區"
"220030","610-BX","2017/07/17 13:59:41","新北市板橋區篤行路三段10號","121.429263333333","24.9876566666667","6500100","板橋區"
"220050","245-BX","2017/07/17 13:59:47","新北市板橋區文化路二段182巷5弄1號","121.471578333333","25.0270766666667","6500100","板橋區"
"220052","257-TC","2017/07/17 13:59:52","新北市板橋區縣民大道二段279號","121.469958333333","25.0178016666667","6500100","板橋區"
"220017","258-TC","2017/07/17 13:59:47","新北市板橋區大華街70號","121.459076666667","25.0058733333333","6500100","板橋區"
"220004","276-BY","2017/07/17 13:59:54","新北市板橋區信義路173號","121.458968333333","24.9920733333333","6500100","板橋區"
"220020","277-BY","2017/07/17 13:59:42","新北市板橋區大觀路三段36巷4號","121.433858333333","24.9959583333333","6500100","板橋區"
"220012","280-UM","2017/07/17 13:59:55","新北市板橋區中山路一段267號","121.468898333333","25.0135216666667","6500100","板橋區"
"220019","283-VK","2017/07/17 13:59:39","新北市板橋區館前東路128號","121.463955","25.0077516666667","6500100","板橋區"
"220043","285-UM","2017/07/17 13:59:39","新北市板橋區文化路二段31號","121.468795","25.0249","6500100","板橋區"
"220001","285-VK","2017/07/17 13:59:54","新北市板橋區中山路二段89巷29號","121.47374","25.0167916666667","6500100","板橋區"
"220031","286-VK","2017/07/17 13:59:52","新北市板橋區大觀路一段38巷156弄36-1號","121.442638333333","25.0057783333333","6500100","板橋區"
"220029","287-VK","2017/07/17 13:59:51","新北市板橋區南雅西路二段96號","121.452396666667","25.0113816666667","6500100","板橋區"
"220039","288-VK","2017/07/17 13:59:35","新北市板橋區四維路177巷1弄2號","121.464023333333","25.02621","6500100","板橋區"
"220009","293-UM","2017/07/17 13:59:54","新北市板橋區富山街99號","121.47636","25.0218516666667","6500100","板橋區"
"220032","296-UM","2017/07/17 13:59:51","新北市板橋區大觀路二段156巷40號","121.441286666667","25.0001616666667","6500100","板橋區"
"220023","297-UM","2017/07/17 13:59:55","新北市板橋區南興路58號","121.454245","25.0073716666667","6500100","板橋區"
"220010","303-R5","2017/07/17 13:57:08","新北市板橋區三民路二段257號","121.479086666667","25.0115466666667","6500100","板橋區"
"220041","307-R5","2017/07/17 13:59:40","新北市板橋區文化路一段90號","121.464386666667","25.0177316666667","6500100","板橋區"
"220047","317-R6","2017/07/17 13:59:38","新北市板橋區民有街32號","121.46603","25.02544","6500100","板橋區"
"220038","487-VK","2017/07/17 13:59:54","新北市板橋區文化路二段315號","121.472163333333","25.0297033333333","6500100","板橋區"
"220037","491-VK","2017/07/17 13:59:44","新北市板橋區民生路二段216號","121.46926","25.02156","6500100","板橋區"
"220104","560-BX","2017/07/17 13:59:36","新北市板橋區中正路339號","121.45463","25.0203316666667","6500100","板橋區"
"220011","609-BX","2017/07/17 13:59:46","新北市板橋區中山路二段91號","121.474195","25.01603","6500100","板橋區"
"220028","630-UY","2017/07/17 13:59:50","新北市板橋區大觀路二段265巷3弄9號","121.443241666667","24.99819","6500100","板橋區"
"220040","637-BX","2017/07/17 13:59:46","新北市板橋區大同街52號","121.478858333333","25.0276233333333","6500100","板橋區"
"220005","686-BX","2017/07/17 13:59:52","新北市板橋區文化路一段46巷37號","121.461303333333","25.0109066666667","6500100","板橋區"
"220025","687-BX","2017/07/17 13:59:51","新北市板橋區大觀路二段431-1號","121.440973333333","24.9948516666667","6500100","板橋區"
"220042","689-BX","2017/07/17 13:59:43","新北市板橋區民生路三段64號","121.467025","25.025405","6500100","板橋區"
"220002","741-BX","2017/07/17 13:59:39","新北市板橋區後埔街35-1號","121.460503333333","25.0063483333333","6500100","板橋區"
"220003","827-TW","2017/07/17 13:59:50","新北市板橋區新站路3號","121.466961666667","25.01149","6500100","板橋區"
"220014","829-TW","2017/07/17 13:59:46","新北市板橋區三民路二段正隆巷17號","121.477493333333","25.01313","6500100","板橋區"
"220051","830-TW","2017/07/17 13:59:43","新北市板橋區懷德街235巷2-1號","121.481295","25.0282216666667","6500100","板橋區"
"220045","831-TW","2017/07/17 13:59:37","新北市板橋區莒光路103號","121.472678333333","25.0240333333333","6500100","板橋區"
"220022","895-R6","2017/07/17 13:59:57","新北市板橋區南雅南路一段131號","121.455008333333","25.0043566666667","6500100","板橋區"
"220021","985-R7","2017/07/17 13:59:35","新北市板橋區館前西路195號","121.455283333333","25.0083333333333","6500100","板橋區"
"220046","AAC-210","2017/07/17 13:59:43","新北市板橋區陽明街162號","121.463408333333","25.02436","6500100","板橋區"
"220018","AAC-253","2017/07/17 13:59:52","新北市板橋區館前東路1號","121.459546666667","25.0072633333333","6500100","板橋區"
