"lineid","car","time","location","longitude","latitude","cityid","cityname"
"248015","026-BX","2017/07/17 15:09:50","新北市五股區凌雲路一段158巷14-1號","121.447913333333","25.10358","6501500","五股區"
"248007","095-VK","2017/07/17 15:09:52","新北市五股區中興路一段1巷31-1號","121.469435","25.0698183333333","6501500","五股區"
"248019","225-UY","2017/07/17 15:09:51","新北市五股區凌雲路三段3號","121.431248333333","25.1061966666667","6501500","五股區"
"248003","677-BX","2017/07/17 15:09:55","新北市五股區成泰路一段88號","121.43584","25.0711283333333","6501500","五股區"
"244001","248-BX","2017/07/17 15:09:55","新北市林口區後坑3-9號","121.368528333333","25.117335","6501700","林口區"
"244025","837-TS","2017/07/17 09:29:10","新北市林口區粉寮路二段160巷28號","121.405186666667","25.09074","6501700","林口區"
"243007","380-SR","2017/07/17 15:09:43","新北市泰山區仁德路125號","121.432628333333","25.0560966666667","6501600","泰山區"
"243006","421-VK","2017/07/17 15:09:57","新北市泰山區泰林路三段745巷145號","121.406416666667","25.0689566666667","6501600","泰山區"
"243003","549-UM","2017/07/17 15:09:48","新北市泰山區新北大道六段313巷22號","121.424311666667","25.0332683333333","6501600","泰山區"
"243004","646-TV","2017/07/17 15:09:47","新北市泰山區忠孝街19巷3弄1號","121.42752","25.0659433333333","6501600","泰山區"
"243008","680-BX","2017/07/17 15:09:46","新北市泰山區明志路二段220號","121.427163333333","25.048655","6501600","泰山區"
"231002","002-UM","2017/07/17 15:09:44","新北市新店區中正路545號","121.533753333333","24.9875666666667","6500600","新店區"
"231025","0293-UT","2017/07/17 15:09:38","新北市新店區大同街39號","121.538343333333","24.9810333333333","6500600","新店區"
"231028","046-UY","2017/07/17 15:09:51","新北市新店區僑愛七路20號","121.501511666667","24.9445616666667","6500600","新店區"
"231030","047-UY","2017/07/17 15:09:39","新北市新店區安民街341-1號","121.516845","24.9748416666667","6500600","新店區"
"231029","106-UY","2017/07/17 15:09:54","新北市新店區安康路三段716號","121.473951666667","24.9420566666667","6500600","新店區"
"231018","107-UY","2017/07/17 15:09:50","新北市新店區中央六街76號","121.527108333333","24.976325","6500600","新店區"
"231011","108-UY","2017/07/17 15:09:53","新北市新店區寶慶街58巷10號","121.542036666667","24.9872266666667","6500600","新店區"
"231019","187-VK","2017/07/17 14:51:24","新北市新店區永福路61號","121.557263333333","24.9296183333333","6500600","新店區"
"231026","256-BX","2017/07/17 15:09:48","新北市新店區建興街9巷1號","121.539945","24.9763466666667","6500600","新店區"
"231014","AAD-862","2017/07/17 15:09:47","新北市新店區明山路45號","121.563878333333","24.955825","6500600","新店區"
"231024","3713-VJ","2017/07/17 15:09:51","新北市新店區中華路42巷16號","121.540643333333","24.9686266666667","6500600","新店區"
"231036","512-UM","2017/07/17 15:09:45","新北市新店區安祥路102巷131號","121.48646","24.9647566666667","6500600","新店區"
"231023","513-UM","2017/07/17 15:09:52","新北市新店區檳榔路106號","121.543425","24.9624616666667","6500600","新店區"
"231035","515-UM","2017/07/17 15:09:40","新北市新店區安和路三段120巷20號","121.5179","24.98589","6500600","新店區"
"231006","617-UM","2017/07/17 15:09:51","新北市新店區新坡一街60-3號","121.55015","24.9628183333333","6500600","新店區"
"231001","619-UM","2017/07/17 15:09:45","新北市新店區中正路276號","121.538828333333","24.9736983333333","6500600","新店區"
"231003","641-BX","2017/07/17 15:09:49","新北市新店區寶橋路188號","121.549661666667","24.9776416666667","6500600","新店區"
"231034","645-TV","2017/07/17 15:09:46","新北市新店區玫瑰路4-1號","121.493675","24.9513583333333","6500600","新店區"
"231039","718-UY","2017/07/17 15:09:55","新北市新店區寶元路一段63巷50號","121.542311666667","24.9865916666667","6500600","新店區"
"231031","720-UM","2017/07/17 15:09:42","新北市新店區安泰路157號","121.488191666667","24.93815","6500600","新店區"
"231005","897-TW","2017/07/17 15:09:48","新北市新店區北新路三段173-3號","121.541008333333","24.9840133333333","6500600","新店區"
"231004","899-TW","2017/07/17 15:09:52","新北市新店區建國路8-2號","121.540033333333","24.9735483333333","6500600","新店區"
"231037","AKT-0513","2017/07/17 15:09:48","新北市新店區安興路56號","121.516526666667","24.9749616666667","6500600","新店區"
"241019","156-TC","2017/07/17 15:09:51","新北市三重區重新路四段121號","121.485003333333","25.0523383333333","6500200","三重區"
"235030","003-UY","2017/07/17 15:09:49","新北市中和區水源路154巷2號","121.508088333333","25.0032666666667","6500300","中和區"
"235020","096-UM","2017/07/17 15:09:57","新北市中和區中山路三段170巷8弄19號","121.47303","25.0076816666667","6500300","中和區"
"235003","097-UM","2017/07/17 15:09:39","新北市中和區安樂路143巷32號","121.513081666667","24.9964633333333","6500300","中和區"
"235029","098-UM","2017/07/17 15:09:56","新北市中和區福美路312巷7號","121.496525","25.0051983333333","6500300","中和區"
"235004","150-BY","2017/07/17 15:09:42","新北市中和區保健路44巷5號","121.509323333333","24.996875","6500300","中和區"
"235022","151-BY","2017/07/17 15:09:50","新北市中和區中正路657號","121.485085","24.9962033333333","6500300","中和區"
"235008","293-VK","2017/07/17 15:09:56","新北市中和區板南路182號","121.500688333333","24.992835","6500300","中和區"
"235036","301-VK","2017/07/17 15:09:47","新北市中和區中正路436號","121.491118333333","24.9940733333333","6500300","中和區"
"235007","352-BY","2017/07/17 15:09:55","新北市中和區興南路二段159巷12號","121.505153333333","24.9830616666667","6500300","中和區"
"235015","376-QA","2017/07/17 15:09:46","新北市中和區復興路32號","121.505065","24.9900333333333","6500300","中和區"
"235032","377-QA","2017/07/17 15:09:45","新北市中和區福祥路83號","121.499001666667","25.0058","6500300","中和區"
"235014","4979-A6","2017/07/17 15:09:35","新北市中和區景新街284號","121.51107","24.9922633333333","6500300","中和區"
"235033","4980-A6","2017/07/17 15:09:49","新北市中和區廣福路60號","121.503626666667","25.001855","6500300","中和區"
"235018","640-BX","2017/07/17 15:09:52","新北市中和區民享街38號","121.473896666667","25.003045","6500300","中和區"
"235010","733-UM","2017/07/17 15:09:39","新北市中和區忠孝街31巷22號","121.510088333333","24.9842266666667","6500300","中和區"
"235035","783-BX","2017/07/17 15:09:45","新北市中和區中正路828號","121.484918333333","25.0036833333333","6500300","中和區"
"235012","896-TW","2017/07/17 15:09:50","新北市中和區興南路一段129號","121.509003333333","24.9876666666667","6500300","中和區"
"235027","911-UM","2017/07/17 15:09:45","新北市中和區安邦街1號","121.495846666667","24.998405","6500300","中和區"
"235001","AAC-213","2017/07/17 15:09:35","新北市中和區成功路9號","121.52624","24.9939266666667","6500300","中和區"
"235023","AAC-215","2017/07/17 15:09:49","新北市中和區圓通路335巷39號","121.493975","24.9893083333333","6500300","中和區"
"220016","013-TV","2017/07/17 15:09:47","新北市板橋區光復街215號","121.48476","25.0212966666667","6500100","板橋區"
"220013","072-UY","2017/07/17 15:09:55","新北市板橋區海山路39號","121.467063333333","25.0096516666667","6500100","板橋區"
"220105","075-UY","2017/07/17 15:09:52","新北市板橋區文聖街13號","121.475585","25.0323616666667","6500100","板橋區"
"247001","402-BY","2017/07/17 15:09:52","新北市八里區商港路48號","121.39566","25.14495","6501400","蘆洲區"
"247013","057-VK","2017/07/17 15:07:42","新北市五股區中直路15-2號","121.423278333333","25.111085","6501400","蘆洲區"
"208004","AAC-292","2017/07/17 15:09:43","新北市金山區西湖里尖山仔20-1號","121.617505","25.2450416666667","6502700","金山區"
"207002","749-BX","2017/07/17 15:09:52","新北市萬里區崁腳里內中福路16號","121.662116666667","25.1655416666667","6502800","萬里區"
"207001","463-BY","2017/07/17 15:09:34","新北市萬里區磺潭里員潭路35-1號","121.644833333333","25.1943466666667","6502800","萬里區"
"236064","105-UM","2017/07/17 15:09:50","新北市土城區中華路一段7號","121.446985","24.9895716666667","6501300","土城區"
"236040","107-UM","2017/07/17 15:09:38","新北市土城區裕民路214巷19號","121.452855","24.9838583333333","6501300","土城區"
"236074","166-UM","2017/07/17 15:09:36","新北市土城區中州路24巷14號","121.41492","24.9576933333333","6501300","土城區"
"236028","253-BX","2017/07/17 15:09:54","新北市土城區福祥街47號","121.440806666667","24.97985","6501300","土城區"
"236024","269-VK","2017/07/17 15:09:50","新北市土城區中正路60號","121.444081666667","24.975415","6501300","土城區"
"236012","270-VK","2017/07/17 15:09:45","新北市土城區學府路一段75巷2號","121.456945","24.9881266666667","6501300","土城區"
"236032","271-VK","2017/07/17 15:09:37","新北市土城區仁愛路16巷22號","121.46","24.97976","6501300","土城區"
"236016","401-BY","2017/07/17 15:09:53","新北市土城區延峰街29巷1號","121.469438333333","24.9851416666667","6501300","土城區"
"236056","912-UM","2017/07/17 15:09:56","新北市土城區金城路二段266號","121.45806","24.9839183333333","6501300","土城區"
"236044","913-UM","2017/07/17 15:09:57","新北市土城區清水路76號","121.456758333333","24.9817833333333","6501300","土城區"
"236060","915-UM","2017/07/17 15:09:53","新北市土城區延平街47號","121.467926666667","24.992255","6501300","土城區"
"236052","AAC-216","2017/07/17 15:09:53","新北市土城區學成路34號","121.452611666667","24.9873066666667","6501300","土城區"
"238002","755-BX","2017/07/17 15:09:36","新北市樹林區八德街660號","121.396385","24.96906","6500700","樹林區"
"238010","601-UM","2017/07/17 15:09:48","新北市樹林區八德街1016號","121.391291666667","24.9685016666667","6500700","樹林區"
"238006","599-UM","2017/07/17 15:09:53","新北市樹林區八德街1146號","121.390918333333","24.96845","6500700","樹林區"
"238005","571-TV","2017/07/17 15:09:52","新北市樹林區樹新路106巷1號","121.430131666667","24.9976816666667","6500700","樹林區"
"238011","5061-A6","2017/07/17 15:09:38","新北市樹林區八德街491-8號","121.403023333333","24.96929","6500700","樹林區"
"238009","312-TH","2017/07/17 15:09:41","新北市樹林區八德街1012號","121.391351666667","24.9684683333333","6500700","樹林區"
"238008","311-TH","2017/07/17 01:08:03","新北市樹林區中山路三段204號","121.386755","24.9682233333333","6500700","樹林區"
"238012","303-VK","2017/07/17 15:09:54","新北市樹林區中山路一段308號","121.420173333333","24.9863383333333","6500700","樹林區"
"238004","283-BY","2017/07/17 15:09:48","新北市樹林區八德街650號","121.396456666667","24.9691333333333","6500700","樹林區"
"238001","282-BY","2017/07/17 15:09:51","新北市樹林區八德街1018號","121.391226666667","24.96844","6500700","樹林區"
"238007","268-VK","2017/07/17 15:09:45","新北市樹林區八德街495-2號","121.400938333333","24.9692766666667","6500700","樹林區"
"238013","172-UY","2017/07/17 15:09:35","新北市樹林區八德街1040號","121.391353333333","24.96875","6500700","樹林區"
"238003","169-UY","2017/07/17 15:09:38","新北市樹林區八德街1022號","121.391053333333","24.9684566666667","6500700","樹林區"
"221002","707-TV","2017/07/17 15:09:43","新北市汐止區新興路116號","121.658035","25.0610633333333","6501100","汐止區"
"220030","610-BX","2017/07/17 15:09:41","新北市板橋區篤行路二段3-3號","121.431806666667","24.99335","6500100","板橋區"
"220050","245-BX","2017/07/17 15:09:47","新北市板橋區雙十路一段44巷36號","121.477345","25.0247366666667","6500100","板橋區"
"220052","257-TC","2017/07/17 15:09:52","新北市板橋區英士路58巷9號","121.460631666667","25.0251816666667","6500100","板橋區"
"220017","258-TC","2017/07/17 15:09:47","新北市板橋區南雅南路二段11-27號","121.453798333333","25.00178","6500100","板橋區"
"220012","280-UM","2017/07/17 15:09:55","新北市板橋區實踐路116號","121.464191666667","25.004265","6500100","板橋區"
"220019","283-VK","2017/07/17 15:09:39","新北市板橋區和平路174巷1弄2號","121.464176666667","24.9950133333333","6500100","板橋區"
"220043","285-UM","2017/07/17 15:09:53","新北市板橋區陽明街25巷1號","121.466191666667","25.02169","6500100","板橋區"
"220001","285-VK","2017/07/17 15:09:43","新北市板橋區中山路二段214號","121.477998333333","25.0177733333333","6500100","板橋區"
"220031","286-VK","2017/07/17 15:09:52","新北市板橋區僑中二街100巷36號","121.444503333333","25.0087216666667","6500100","板橋區"
"220029","287-VK","2017/07/17 15:09:51","新北市板橋區僑中一街124巷20弄23號","121.44718","25.0139416666667","6500100","板橋區"
"220039","288-VK","2017/07/17 15:09:55","新北市板橋區幸福路32巷65號","121.46041","25.0222533333333","6500100","板橋區"
"220009","293-UM","2017/07/17 15:09:45","新北市板橋區中山路二段15號","121.472146666667","25.0150016666667","6500100","板橋區"
"220032","296-UM","2017/07/17 15:09:51","新北市板橋區板林路212號","121.424733333333","24.988725","6500100","板橋區"
"220023","297-UM","2017/07/17 15:09:37","新北市板橋區金華街10巷86號","121.458063333333","25.0203566666667","6500100","板橋區"
"220010","303-R5","2017/07/17 15:09:52","新北市板橋區萬安街20巷2弄13號","121.485308333333","25.02279","6500100","板橋區"
"220041","307-R5","2017/07/17 15:09:40","新北市板橋區新海路360號","121.459871666667","25.0250366666667","6500100","板橋區"
"220047","317-R6","2017/07/17 15:09:38","新北市板橋區新海路72巷5弄29號","121.461533333333","25.0230216666667","6500100","板橋區"
"220038","487-VK","2017/07/17 15:09:54","新北市板橋區龍泉街55巷14號","121.457385","25.02548","6500100","板橋區"
"220037","491-VK","2017/07/17 15:09:44","新北市板橋區懷德街183號","121.479665","25.0299683333333","6500100","板橋區"
"220011","609-BX","2017/07/17 15:09:46","新北市板橋區三民路一段140號","121.479131666667","25.0201383333333","6500100","板橋區"
"220028","630-UY","2017/07/17 15:09:41","新北市板橋區大觀路二段153巷33號","121.446818333333","25.000245","6500100","板橋區"
"220040","637-BX","2017/07/17 15:09:46","新北市板橋區文聖街89巷26號","121.478225","25.0303366666667","6500100","板橋區"
"220005","686-BX","2017/07/17 15:09:52","新北市板橋區四川路二段2號","121.456625","24.9966633333333","6500100","板橋區"
"220025","687-BX","2017/07/17 15:09:52","新北市板橋區僑中一街124巷77號","121.446776666667","25.0181766666667","6500100","板橋區"
"220042","689-BX","2017/07/17 15:09:49","新北市板橋區長江路三段130號","121.475533333333","25.0346133333333","6500100","板橋區"
"220002","741-BX","2017/07/17 15:09:39","新北市板橋區忠孝路忠義巷9弄82-2號","121.465063333333","25.0054933333333","6500100","板橋區"
"220003","827-TW","2017/07/17 15:09:50","新北市板橋區仁愛路62巷19號","121.46007","24.9980616666667","6500100","板橋區"
"220014","829-TW","2017/07/17 15:09:23","新北市板橋區三民路二段253-1號","121.478965","25.01162","6500100","板橋區"
"220051","830-TW","2017/07/17 15:09:47","新北市板橋區民治街132號","121.477715","25.030845","6500100","板橋區"
"220045","831-TW","2017/07/17 15:09:37","新北市板橋區莒光路79巷10號","121.47199","25.0245433333333","6500100","板橋區"
"220022","895-R6","2017/07/17 15:09:56","新北市板橋區南雅南路一段1巷1弄19號","121.45711","25.0059883333333","6500100","板橋區"
"220046","AAC-210","2017/07/17 15:09:43","新北市板橋區復興街135號","121.461096666667","25.0180433333333","6500100","板橋區"
"220018","AAC-253","2017/07/17 15:09:52","新北市板橋區成都街16號","121.460633333333","25.0047616666667","6500100","板橋區"
