"lineid","car","time","location","longitude","latitude","cityid","cityname"
"244025","837-TS","2017/07/17 09:29:10","新北市林口區粉寮路二段160巷28號","121.405186666667","25.09074","6501700","林口區"
"231030","047-UY","2017/07/17 15:49:39","新北市新店區永安街22-1號","121.51739","24.9865366666667","6500600","新店區"
"231029","106-UY","2017/07/17 15:49:54","新北市新店區薏仁坑路6-1號","121.49992","24.95846","6500600","新店區"
"231018","107-UY","2017/07/17 15:49:50","新北市新店區中正路504號","121.533811666667","24.98245","6500600","新店區"
"231011","108-UY","2017/07/17 15:49:53","新北市新店區文化路23號","121.54352","24.9798483333333","6500600","新店區"
"231019","187-VK","2017/07/17 15:49:44","新北市新店區新烏路一段1號","121.547445","24.9519133333333","6500600","新店區"
"231026","256-BX","2017/07/17 15:49:48","新北市新店區中正路457號","121.53389","24.98015","6500600","新店區"
"231046","278-BY","2017/07/17 14:09:17","新北市新店區安華路28-1號","121.519723333333","24.9610983333333","6500600","新店區"
"231014","AAD-862","2017/07/17 15:49:47","新北市新店區北新路一段285號","121.541275","24.9669216666667","6500600","新店區"
"231038","4715-K9","2017/07/17 15:49:49","新北市新店區安康路二段208號","121.510206666667","24.9594966666667","6500600","新店區"
"231036","512-UM","2017/07/17 15:49:44","新北市新店區薏仁坑路自強巷1號","121.497426666667","24.9577766666667","6500600","新店區"
"231035","515-UM","2017/07/17 15:49:40","新北市新店區安民街389號","121.515985","24.9768016666667","6500600","新店區"
"231003","641-BX","2017/07/17 15:49:49","新北市新店區寶興路60巷3號","121.549865","24.9718316666667","6500600","新店區"
"231034","645-TV","2017/07/17 15:49:46","新北市新店區玫瑰路57巷15號","121.496306666667","24.9463266666667","6500600","新店區"
"231013","719-UM","2017/07/17 15:49:45","新北市新店區永業路81巷5弄20號","121.530716666667","24.94946","6500600","新店區"
"231031","720-UM","2017/07/17 15:49:41","新北市新店區雙城路60巷6號","121.491853333333","24.9476216666667","6500600","新店區"
"231037","AKT-0513","2017/07/17 15:49:48","新北市新店區安興路112號","121.514618333333","24.9776416666667","6500600","新店區"
"241011","013-R5","2017/07/17 15:49:57","新北市三重區文化北路141號","121.49761","25.0692933333333","6500200","三重區"
"241028","022-UY","2017/07/17 15:49:39","新北市三重區中正南路47號","121.493981666667","25.0595733333333","6500200","三重區"
"241015","062-VK","2017/07/17 15:49:51","新北市三重區重新路四段121號","121.48515","25.051945","6500200","三重區"
"241017","063-VK","2017/07/17 15:49:52","新北市三重區大仁街38號","121.491686666667","25.064275","6500200","三重區"
"241024","065-VK","2017/07/17 15:49:58","新北市三重區忠孝路三段26號","121.481428333333","25.0669166666667","6500200","三重區"
"241026","066-VK","2017/07/17 15:49:53","新北市三重區文化南路42號","121.500385","25.0603016666667","6500200","三重區"
"241003","091-VK","2017/07/17 15:49:49","新北市三重區仁義街101巷52號","121.499815","25.0811566666667","6500200","三重區"
"241019","156-TC","2017/07/17 15:49:51","新北市三重區重新路四段121號","121.484951666667","25.0523833333333","6500200","三重區"
"241005","262-UM","2017/07/17 15:49:49","新北市三重區環河北路353號","121.501965","25.0773616666667","6500200","三重區"
"241016","266-UM","2017/07/17 15:49:58","新北市三重區重新路四段121號","121.485185","25.0521333333333","6500200","三重區"
"241022","267-UM","2017/07/17 15:49:35","新北市三重區重新路四段121號","121.48467","25.0523233333333","6500200","三重區"
"241018","268-UM","2017/07/17 15:49:39","新北市三重區重新路四段2-3號","121.48923","25.0583116666667","6500200","三重區"
"241013","270-UM","2017/07/17 15:49:55","新北市三重區六張街26號","121.495348333333","25.0705933333333","6500200","三重區"
"241020","413-TH","2017/07/17 15:49:48","新北市三重區忠孝路二段71號","121.484681666667","25.070445","6500200","三重區"
"241014","543-UM","2017/07/17 15:49:44","新北市三重區重新路四段121號","121.485118333333","25.0520333333333","6500200","三重區"
"241023","545-UM","2017/07/17 15:49:47","新北市三重區朝陽街4巷23號","121.482351666667","25.056105","6500200","三重區"
"241006","AAD-863","2017/07/17 15:49:53","新北市三重區重新路四段121號","121.484718333333","25.0523","6500200","三重區"
"241001","887-TS","2017/07/17 15:49:48","新北市三重區重新路四段121號","121.485078333333","25.0520716666667","6500200","三重區"
"241012","941-UM","2017/07/17 15:49:39","新北市三重區自強路一段61-1號","121.497926666667","25.067365","6500200","三重區"
"241029","942-UM","2017/07/17 15:49:42","新北市三重區正義南路181巷1號","121.499056666667","25.0569716666667","6500200","三重區"
"241033","AAC-255","2017/07/17 15:49:40","新北市三重區光復路一段66號","121.471873333333","25.0491483333333","6500200","三重區"
"235033","4980-A6","2017/07/17 15:49:49","新北市中和區員山路381巷1弄2號","121.480875","25.0023783333333","6500300","中和區"
"235026","800-TS","2017/07/17 15:49:54","新北市中和區中山路二段492號","121.48707","25.0049333333333","6500300","中和區"
"235001","AAC-213","2017/07/17 15:49:55","新北市中和區秀朗路三段99號","121.526568333333","24.9948866666667","6500300","中和區"
"235023","AAC-215","2017/07/17 15:49:49","新北市中和區員山路49號","121.481143333333","24.9928183333333","6500300","中和區"
"247001","402-BY","2017/07/17 15:49:52","新北市五股區凌雲路三段22號","121.436321666667","25.1040466666667","6501400","蘆洲區"
"224007","273-VK","2017/07/17 15:49:53","新北市瑞芳區大寮路356-1號","121.784331666667","25.1031483333333","6501200","瑞芳區"
"224005","271-BY","2017/07/17 15:49:35","新北市瑞芳區明燈路二段66號","121.809375","25.107545","6501200","瑞芳區"
"227008","642-TC","2017/07/17 15:49:40","新北市雙溪區牡丹里中正路58巷32號","121.866211666667","25.0419116666667","6502500","雙溪區"
"227001","400-TW","2017/07/17 15:49:38","新北市雙溪區平林里外平林44號","121.852926666667","25.0362933333333","6502500","雙溪區"
"236064","105-UM","2017/07/17 15:49:50","新北市土城區中山路34號","121.424871666667","24.9638433333333","6501300","土城區"
"236074","166-UM","2017/07/17 15:49:56","新北市土城區福安街10號","121.420091666667","24.9651533333333","6501300","土城區"
"236024","269-VK","2017/07/17 15:49:50","新北市土城區中央路一段249巷11號","121.445905","24.9855633333333","6501300","土城區"
"236012","270-VK","2017/07/17 15:49:45","新北市土城區廣明街66號","121.455093333333","24.993695","6501300","土城區"
"236016","401-BY","2017/07/17 15:49:53","新北市土城區延吉街55號","121.47224","24.987505","6501300","土城區"
"236056","912-UM","2017/07/17 15:49:56","新北市土城區中央路一段298號","121.443398333333","24.9821333333333","6501300","土城區"
"236044","913-UM","2017/07/17 15:49:37","新北市土城區金城路三段213號","121.47061","24.9893216666667","6501300","土城區"
"236052","AAC-216","2017/07/17 15:49:41","新北市土城區學成路137巷2號","121.449185","24.9893033333333","6501300","土城區"
"238002","755-BX","2017/07/17 15:49:35","新北市樹林區樹德街125號","121.419535","24.9925566666667","6500700","樹林區"
"238010","601-UM","2017/07/17 15:49:52","新北市樹林區龍興街13巷17號","121.403658333333","25.0165683333333","6500700","樹林區"
"238006","599-UM","2017/07/17 15:49:53","新北市樹林區八德街94號","121.420806666667","24.9802416666667","6500700","樹林區"
"238005","571-TV","2017/07/17 15:49:52","新北市樹林區中華路129號","121.421838333333","24.98257","6500700","樹林區"
"238011","5061-A6","2017/07/17 15:49:38","新北市樹林區中山路二段237號","121.402143333333","24.9759016666667","6500700","樹林區"
"238009","312-TH","2017/07/17 15:49:54","新北市樹林區太順街64號","121.417833333333","24.9792833333333","6500700","樹林區"
"238008","311-TH","2017/07/17 15:42:34","新北市樹林區柑園街一段193-2號","121.3988","24.956675","6500700","樹林區"
"238012","303-VK","2017/07/17 15:49:54","新北市樹林區中山路一段180號","121.42181","24.9887533333333","6500700","樹林區"
"238004","283-BY","2017/07/17 15:49:48","新北市樹林區保安街二段179-1號","121.41518","25.0031683333333","6500700","樹林區"
"238001","282-BY","2017/07/17 15:49:50","新北市樹林區潭興街143巷1-1號","121.425695","24.9997183333333","6500700","樹林區"
"238007","268-VK","2017/07/17 15:49:45","新北市樹林區三俊街235號","121.421713333333","25.0147216666667","6500700","樹林區"
"238013","172-UY","2017/07/17 15:49:35","新北市樹林區中洲街30巷14號","121.397651666667","24.9716366666667","6500700","樹林區"
"238003","169-UY","2017/07/17 15:49:41","新北市樹林區復興路310號","121.416706666667","24.9870833333333","6500700","樹林區"
"220050","245-BX","2017/07/17 15:49:47","新北市板橋區文化路二段656號","121.481425","25.039035","6500100","板橋區"
