"lineid","car","time","location","longitude","latitude","cityid","cityname"
"244025","837-TS","2017/07/17 09:29:10","新北市林口區粉寮路二段160巷28號","121.405186666667","25.09074","6501700","林口區"
"243016","680-BX","2017/07/17 16:06:41","新北市泰山區犁頭窠3-1號","121.421835","25.0604816666667","6501600","泰山區"
"231018","107-UY","2017/07/17 16:19:50","新北市新店區中正路694巷15號","121.535401666667","24.9909166666667","6500600","新店區"
"231046","278-BY","2017/07/17 16:19:44","新北市新店區灣潭路3-3號","121.538186666667","24.95075","6500600","新店區"
"241011","013-R5","2017/07/17 16:19:34","新北市三重區龍濱路196號","121.501063333333","25.0732916666667","6500200","三重區"
"241028","022-UY","2017/07/17 16:19:39","新北市三重區正義南路169號","121.498943333333","25.05753","6500200","三重區"
"241009","060-VK","2017/07/17 16:19:58","新北市三重區溪尾街198號","121.488233333333","25.0809833333333","6500200","三重區"
"241031","061-VK","2017/07/17 16:19:47","新北市三重區捷運路2號","121.486208333333","25.0562933333333","6500200","三重區"
"241015","062-VK","2017/07/17 16:19:51","新北市三重區福德北路83號","121.50199","25.06596","6500200","三重區"
"241017","063-VK","2017/07/17 16:19:52","新北市三重區大同北路85號","121.494811666667","25.0636633333333","6500200","三重區"
"241024","065-VK","2017/07/17 16:19:38","新北市三重區中正北路326號","121.478855","25.069165","6500200","三重區"
"241026","066-VK","2017/07/17 16:19:53","新北市三重區正義南路38號","121.498178333333","25.060915","6500200","三重區"
"241002","090-VK","2017/07/17 16:19:41","新北市三重區仁義街47號","121.498373333333","25.0788183333333","6500200","三重區"
"241003","091-VK","2017/07/17 16:19:49","新北市三重區仁義街220巷24號","121.494471666667","25.0836266666667","6500200","三重區"
"241019","156-TC","2017/07/17 16:19:51","新北市三重區重陽路三段97號","121.490325","25.0680366666667","6500200","三重區"
"241005","262-UM","2017/07/17 16:19:49","新北市三重區溪尾街300-2號","121.487451666667","25.08357","6500200","三重區"
"241016","266-UM","2017/07/17 16:19:38","新北市三重區大仁街39號","121.492958333333","25.06548","6500200","三重區"
"241022","267-UM","2017/07/17 16:19:54","新北市三重區過圳街19號","121.48821","25.0602183333333","6500200","三重區"
"241018","268-UM","2017/07/17 16:19:39","新北市三重區重陽路三段144號","121.489538333333","25.0673616666667","6500200","三重區"
"241013","270-UM","2017/07/17 16:19:55","新北市三重區仁愛街63號","121.49622","25.0726466666667","6500200","三重區"
"241025","271-UM","2017/07/17 16:19:35","新北市三重區中正北路560巷100弄2號","121.472436666667","25.068225","6500200","三重區"
"241007","398-BY","2017/07/17 16:19:44","新北市三重區三和路四段163巷66號","121.4867","25.0796583333333","6500200","三重區"
"241008","412-TH","2017/07/17 16:19:47","新北市三重區永福街175-1號","121.47893","25.0754166666667","6500200","三重區"
"241020","413-TH","2017/07/17 16:19:48","新北市三重區車路頭街7號","121.483933333333","25.0702766666667","6500200","三重區"
"241004","475-VK","2017/07/17 16:19:38","新北市三重區五華街74號","121.493475","25.0820533333333","6500200","三重區"
"241030","480-VK","2017/07/17 16:19:51","新北市三重區重新路四段121號","121.485","25.052655","6500200","三重區"
"241014","543-UM","2017/07/17 16:19:44","新北市三重區河邊北街100巷21號","121.502993333333","25.0703583333333","6500200","三重區"
"241023","545-UM","2017/07/17 16:19:47","新北市三重區忠孝路三段52號","121.48065","25.0656433333333","6500200","三重區"
"241006","AAD-863","2017/07/17 16:19:52","新北市三重區永福街46巷41弄17號","121.481766666667","25.0771216666667","6500200","三重區"
"241001","887-TS","2017/07/17 16:19:51","新北市三重區仁政街159號","121.491283333333","25.0795083333333","6500200","三重區"
"241012","941-UM","2017/07/17 16:19:39","新北市三重區秀江街185號","121.498","25.0718016666667","6500200","三重區"
"241029","942-UM","2017/07/17 16:19:42","新北市三重區泉州街84巷18號","121.495781666667","25.054245","6500200","三重區"
"241033","AAC-255","2017/07/17 16:19:40","新北市三重區重新路五段406號","121.475711666667","25.0475433333333","6500200","三重區"
"235026","800-TS","2017/07/17 16:19:54","新北市中和區中山路二段332巷19號","121.494123333333","25.0032833333333","6500300","中和區"
"247001","402-BY","2017/07/17 16:19:52","新北市五股區中興路三段3-6號","121.449683333333","25.078795","6501400","蘆洲區"
"247008","339-TH","2017/07/17 16:19:44","新北市五股區中興路三段163號","121.449286666667","25.0808166666667","6501400","蘆洲區"
"224008","275-VK","2017/07/17 16:19:42","新北市瑞芳區民權街3-1號","121.809246666667","25.1083483333333","6501200","瑞芳區"
"224007","273-VK","2017/07/17 16:19:53","新北市瑞芳區粗坑口路78號","121.76154","25.09943","6501200","瑞芳區"
"224005","271-BY","2017/07/17 16:19:35","新北市瑞芳區連福新城35號","121.820018333333","25.1179883333333","6501200","瑞芳區"
"227008","642-TC","2017/07/17 16:19:40","新北市雙溪區三港里雙澳路80號","121.883716666667","25.0537666666667","6502500","雙溪區"
"227001","400-TW","2017/07/17 16:19:38","新北市雙溪區上林里內平林80號","121.828313333333","25.0279333333333","6502500","雙溪區"
"251008","181-VK","2017/07/17 16:19:56","新北市淡水區中正路一段29-1號","121.452033333333","25.1631166666667","6501000","淡水區"
"251013","182-VK","2017/07/17 16:19:56","新北市淡水區淡金路三段55號","121.447356666667","25.1982133333333","6501000","淡水區"
"251015","442-VK","2017/07/17 16:19:52","新北市淡水區中正路一段102號","121.424031666667","25.177805","6501000","淡水區"
"238002","755-BX","2017/07/17 16:19:55","新北市樹林區東興街3號","121.409576666667","24.9804166666667","6500700","樹林區"
"238010","601-UM","2017/07/17 16:19:48","新北市樹林區三福街121巷16號","121.405945","25.0156516666667","6500700","樹林區"
"238006","599-UM","2017/07/17 16:19:53","新北市樹林區東榮街147巷2弄19號","121.4141","24.9810733333333","6500700","樹林區"
"238005","571-TV","2017/07/17 16:19:52","新北市樹林區八德街395號","121.415638333333","24.9713966666667","6500700","樹林區"
"238011","5061-A6","2017/07/17 16:19:38","新北市樹林區育德街78-1號","121.38765","24.9682866666667","6500700","樹林區"
"238009","312-TH","2017/07/17 16:19:41","新北市樹林區八德街263-1號","121.419305","24.9737583333333","6500700","樹林區"
"238025","303-VK","2017/07/17 16:16:12","新北市樹林區中正路17號","121.427791666667","24.99922","6500700","樹林區"
"238004","283-BY","2017/07/17 16:19:48","新北市樹林區中正路433-1號","121.41462","25.0079866666667","6500700","樹林區"
"238001","282-BY","2017/07/17 16:19:50","新北市樹林區千歲街61巷2號","121.426501666667","24.9979816666667","6500700","樹林區"
"238007","268-VK","2017/07/17 16:19:48","新北市樹林區三龍街94巷2號","121.414385","25.018405","6500700","樹林區"
"238013","172-UY","2017/07/17 16:19:55","新北市樹林區佳園路一段41巷30號","121.39458","24.97098","6500700","樹林區"
"220050","245-BX","2017/07/17 16:19:47","新北市八里區中山路三段409號","121.368735","25.1358633333333","6500100","板橋區"
