"lineid","car","time","location","longitude","latitude","cityid","cityname"
"249005","172-UM","2017/07/17 16:39:57","新北市八里區忠八街59-1號","121.419441666667","25.16118","6502300","八里區"
"249002","305-UY","2017/07/17 16:39:45","新北市八里區忠孝路82號","121.426061666667","25.1603816666667","6502300","八里區"
"249003","593-UM","2017/07/17 16:39:45","新北市八里區挖子尾街6號","121.41575","25.1642766666667","6502300","八里區"
"249001","759-BX","2017/07/17 16:39:53","新北市八里區挖子尾街6號","121.415433333333","25.1642116666667","6502300","八里區"
"244019","403-UM","2017/07/17 16:39:39","新北市林口區粉寮69號","121.405081666667","25.090815","6501700","林口區"
"244025","837-TS","2017/07/17 09:29:10","新北市林口區粉寮路二段160巷28號","121.405186666667","25.09074","6501700","林口區"
"243016","680-BX","2017/07/17 16:06:41","新北市泰山區犁頭窠3-1號","121.421835","25.0604816666667","6501600","泰山區"
"231046","278-BY","2017/07/17 16:39:44","新北市新店區灣潭路58號","121.540168333333","24.9423216666667","6500600","新店區"
"241011","013-R5","2017/07/17 16:39:54","新北市三重區秀江街219號","121.497283333333","25.0718","6500200","三重區"
"241028","022-UY","2017/07/17 16:39:39","新北市三重區重新路三段80號","121.493243333333","25.061045","6500200","三重區"
"241009","060-VK","2017/07/17 16:39:38","新北市三重區三和路四段203巷57號","121.483408333333","25.079765","6500200","三重區"
"241031","061-VK","2017/07/17 16:39:47","新北市三重區重新路四段53號","121.487785","25.057405","6500200","三重區"
"241015","062-VK","2017/07/17 16:39:51","新北市三重區文化北路37-2號","121.499018333333","25.0650683333333","6500200","三重區"
"241017","063-VK","2017/07/17 16:39:52","新北市三重區中正北路25巷2號","121.493281666667","25.062725","6500200","三重區"
"241024","065-VK","2017/07/17 16:39:38","新北市三重區中正北路315巷6弄53號","121.47654","25.0722116666667","6500200","三重區"
"241026","066-VK","2017/07/17 16:39:52","新北市三重區福德南路53號","121.503125","25.06173","6500200","三重區"
"241002","090-VK","2017/07/17 16:39:41","新北市三重區自強路五段105號","121.495695","25.082325","6500200","三重區"
"241003","091-VK","2017/07/17 16:39:49","新北市三重區五華街71巷81號","121.494143333333","25.0837766666667","6500200","三重區"
"241019","156-TC","2017/07/17 16:39:51","新北市三重區力行路一段23巷9號","121.488438333333","25.0675183333333","6500200","三重區"
"241005","262-UM","2017/07/17 16:39:49","新北市三重區仁華街118巷11號","121.486071666667","25.083265","6500200","三重區"
"241016","266-UM","2017/07/17 16:39:37","新北市三重區大智街5號","121.494748333333","25.065055","6500200","三重區"
"241022","267-UM","2017/07/17 16:39:34","新北市三重區新北大道一段100巷31號","121.485425","25.0629016666667","6500200","三重區"
"241018","268-UM","2017/07/17 16:39:39","新北市三重區六張街71號","121.493571666667","25.0701783333333","6500200","三重區"
"241032","269-UM","2017/07/17 16:39:51","新北市三重區中山路40巷1-1號","121.485875","25.06121","6500200","三重區"
"241013","270-UM","2017/07/17 16:39:55","新北市三重區三和路三段101巷40號","121.495313333333","25.07287","6500200","三重區"
"241025","271-UM","2017/07/17 16:39:55","新北市三重區中正北路428巷7弄6號","121.47423","25.070135","6500200","三重區"
"241007","398-BY","2017/07/17 16:39:44","新北市三重區仁美街84號","121.485928333333","25.079575","6500200","三重區"
"241008","412-TH","2017/07/17 16:39:27","新北市三重區永安北路一段27巷29號","121.477403333333","25.07549","6500200","三重區"
"241020","413-TH","2017/07/17 16:39:48","新北市三重區後竹圍街197號","121.485043333333","25.0715366666667","6500200","三重區"
"241004","475-VK","2017/07/17 16:39:38","新北市三重區仁愛街377巷134號","121.493665","25.081595","6500200","三重區"
"241030","480-VK","2017/07/17 16:39:51","新北市三重區成功路50巷36號","121.488485","25.049195","6500200","三重區"
"241014","543-UM","2017/07/17 16:39:44","新北市三重區龍濱路16號","121.503061666667","25.06752","6500200","三重區"
"241023","545-UM","2017/07/17 16:39:47","新北市三重區忠孝路三段50巷51號","121.483171666667","25.0642566666667","6500200","三重區"
"241006","AAD-863","2017/07/17 16:39:52","新北市三重區力行路二段123巷4號","121.483328333333","25.0764633333333","6500200","三重區"
"241001","887-TS","2017/07/17 16:39:48","新北市三重區仁愛街249號","121.493485","25.078105","6500200","三重區"
"241012","941-UM","2017/07/17 16:39:39","新北市三重區仁興街3巷47號","121.501221666667","25.0742433333333","6500200","三重區"
"241029","942-UM","2017/07/17 16:39:42","新北市三重區集美街168號","121.490095","25.05298","6500200","三重區"
"241033","AAC-255","2017/07/17 16:39:40","新北市三重區光復路二段131號","121.47213","25.0588116666667","6500200","三重區"
"235026","800-TS","2017/07/17 16:39:54","新北市中和區建八路195號","121.490281666667","24.9994483333333","6500300","中和區"
"247006","341-TH","2017/07/17 16:39:54","新北市蘆洲區永安南路二段108-1號","121.462915","25.078315","6501400","蘆洲區"
"247008","339-TH","2017/07/17 16:39:44","新北市蘆洲區中山一路415號","121.469025","25.076845","6501400","蘆洲區"
"247014","057-VK","2017/07/17 16:39:54","新北市蘆洲區中正路450號","121.462565","25.0948533333333","6501400","蘆洲區"
"247004","056-VK","2017/07/17 16:39:44","新北市蘆洲區長安街172巷33號","121.460226666667","25.0838866666667","6501400","蘆洲區"
"247016","001-UY","2017/07/17 16:39:52","新北市蘆洲區中正路381號","121.464363333333","25.091155","6501400","蘆洲區"
"228002","585-TW","2017/07/17 16:39:53","新北市貢寮區貢寮里朝陽街18號","121.911513333333","25.021615","6502600","貢寮區"
"228001","670-TC","2017/07/17 16:39:49","新北市貢寮區貢寮里朝陽街1-2號","121.912293333333","25.0212483333333","6502600","貢寮區"
"224010","AGQ-8101","2017/07/17 09:05:14","新北市瑞芳區民權街3-1號","121.80944","25.1082683333333","6501200","瑞芳區"
"224006","676-BX","2017/07/17 16:39:48","新北市瑞芳區大寮路356-1號","121.784778333333","25.1032733333333","6501200","瑞芳區"
"224008","275-VK","2017/07/17 16:39:42","新北市瑞芳區民權街3-1號","121.80928","25.1084083333333","6501200","瑞芳區"
"224007","273-VK","2017/07/17 16:39:53","新北市瑞芳區瑞竹路36巷1號","121.764113333333","25.103535","6501200","瑞芳區"
"224005","271-BY","2017/07/17 16:39:35","新北市瑞芳區明里路122號","121.863263333333","25.1214983333333","6501200","瑞芳區"
"227008","642-TC","2017/07/17 16:39:40","新北市雙溪區牡丹里中正路58巷34號","121.866168333333","25.0421033333333","6502500","雙溪區"
"227001","400-TW","2017/07/17 16:39:38","新北市雙溪區外柑里外柑腳29-1號","121.813548333333","25.0210733333333","6502500","雙溪區"
"251008","181-VK","2017/07/17 16:39:36","新北市淡水區樹梅坑9號","121.472815","25.14264","6501000","淡水區"
"251013","182-VK","2017/07/17 16:39:36","新北市淡水區楓樹湖3-6號","121.497063333333","25.1890316666667","6501000","淡水區"
"251015","442-VK","2017/07/17 16:39:52","新北市淡水區忠愛街5-2號","121.460635","25.1716283333333","6501000","淡水區"
"252002","178-VK","2017/07/17 16:39:41","新北市三芝區觀海街2號","121.510191666667","25.2582083333333","6502100","三芝區"
"252001","292-VK","2017/07/17 16:39:45","","121.50721","25.2645816666667","6502100","三芝區"
"242009","351-TH","2017/07/17 13:46:55","新北市新莊區新泰路357巷3弄57號","121.442046666667","25.0394566666667","6500500","新莊區"
"238010","601-UM","2017/07/17 16:39:48","新北市樹林區大安路380號","121.415915","24.989805","6500700","樹林區"
"238006","599-UM","2017/07/17 16:39:53","新北市樹林區中山路二段219號","121.402806666667","24.97641","6500700","樹林區"
"238011","5061-A6","2017/07/17 16:39:38","新北市樹林區鎮前街299號","121.417893333333","24.9849316666667","6500700","樹林區"
"238009","312-TH","2017/07/17 16:39:41","新北市樹林區八德街263-1號","121.419303333333","24.97376","6500700","樹林區"
"238025","303-VK","2017/07/17 16:39:43","","121.427783333333","24.999325","6500700","樹林區"
"238004","283-BY","2017/07/17 16:39:48","新北市樹林區中正路433-1號","121.414651666667","25.0080116666667","6500700","樹林區"
"238001","282-BY","2017/07/17 16:39:50","新北市樹林區中正路22-1號","121.427775","24.99942","6500700","樹林區"
"238007","268-VK","2017/07/17 16:39:45","新北市樹林區中正路23號","121.427545","24.999325","6500700","樹林區"
"239008","527-UM","2017/07/17 16:39:45","新北市鶯歌區環河路177-23號","121.345028333333","24.9356233333333","6500800","鶯歌區"
"239002","359-BY","2017/07/15 19:57:55","新北市鶯歌區二甲路171-1號","121.344008333333","24.93555","6500800","鶯歌區"
"220050","245-BX","2017/07/17 16:39:47","新北市三重區重新路5段221巷6弄11-1號","121.479148333333","25.0504666666667","6500100","板橋區"
