"lineid","car","time","location","longitude","latitude","cityid","cityname"
"234046","148-BY","2017/07/17 18:49:47","新北市永和區永元路40巷46弄2號","121.523721666667","25.0005733333333","6500400","永和區"
"234013","149-BY","2017/07/17 18:49:37","新北市永和區保福路二段133巷1號","121.509575","25.0138316666667","6500400","永和區"
"234007","207-UY","2017/07/17 18:49:39","新北市永和區永和路二段170號","121.515448333333","25.013065","6500400","永和區"
"234081","298-R6","2017/07/17 18:49:41","新北市永和區永利路112號","121.521335","25.003335","6500400","永和區"
"234038","336-UY","2017/07/17 18:49:41","新北市永和區成功路二段213號","121.526671666667","24.9957333333333","6500400","永和區"
"234064","337-UY","2017/07/17 18:49:58","新北市永和區福和路8巷1號","121.525026666667","25.0090283333333","6500400","永和區"
"234086","338-UY","2017/07/17 18:49:43","新北市永和區中正路1號","121.513598333333","24.9952283333333","6500400","永和區"
"234070","552-UM","2017/07/17 18:49:48","新北市永和區中興街98號","121.518973333333","25.0120666666667","6500400","永和區"
"234054","553-UM","2017/07/17 18:49:39","新北市永和區竹林路66巷2號","121.518255","25.0133616666667","6500400","永和區"
"234017","745-BX","2017/07/17 18:49:53","新北市永和區忠孝街26巷4號","121.515368333333","25.0166533333333","6500400","永和區"
"234030","746-BX","2017/07/17 18:49:52","新北市永和區得和路339號","121.523803333333","24.99958","6500400","永和區"
"234061","AAD-866","2017/07/17 18:49:47","新北市永和區福和路311號","121.516186666667","25.0070683333333","6500400","永和區"
"234042","862-TW","2017/07/17 18:49:51","新北市永和區永貞路304號","121.511966666667","25.0048033333333","6500400","永和區"
"234050","863-TW","2017/07/17 18:49:48","新北市永和區環河西路一段101號","121.510991666667","25.0178633333333","6500400","永和區"
"234011","9373-KE","2017/07/17 18:49:55","新北市永和區保生路55號","121.504918333333","25.0098983333333","6500400","永和區"
"249005","172-UM","2017/07/17 18:48:37","新北市八里區長道坑17號","121.396228333333","25.11575","6502300","八里區"
"249004","303-UY","2017/07/17 18:49:36","新北市八里區中山路一段268巷16號","121.415246666667","25.1600233333333","6502300","八里區"
"249001","759-BX","2017/07/17 18:49:53","新北市八里區龍米路二段3-1號","121.44892","25.1390566666667","6502300","八里區"
"248016","026-BX","2017/07/17 18:49:47","新北市五股區凌雲路一段133巷27-3號","121.448646666667","25.1009016666667","6501500","五股區"
"248008","095-VK","2017/07/17 18:49:48","新北市五股區中興路一段147號","121.46514","25.0734633333333","6501500","五股區"
"248018","225-UY","2017/07/17 18:49:50","新北市五股區民義路二段48巷2-10號","121.415625","25.1018216666667","6501500","五股區"
"248012","247-BX","2017/07/17 18:49:50","新北市五股區成泰路二段147巷6號","121.437755","25.0892833333333","6501500","五股區"
"248014","261-SL","2017/07/17 18:49:38","新北市五股區成泰路二段250號","121.440406666667","25.0871283333333","6501500","五股區"
"248010","272-BY","2017/07/17 18:49:52","新北市五股區水碓七路81號","121.4297","25.0721816666667","6501500","五股區"
"248004","677-BX","2017/07/17 18:49:53","新北市五股區民義路二段40號","121.417746666667","25.0983116666667","6501500","五股區"
"248002","678-BX","2017/07/17 18:49:55","新北市五股區成泰路三段454號","121.451426666667","25.1002833333333","6501500","五股區"
"248006","682-TV","2017/07/17 18:49:55","新北市五股區四維路1巷1號","121.466775","25.07003","6501500","五股區"
"234023","9380-KE","2017/07/17 18:49:54","新北市永和區竹林路119巷45號","121.521918333333","25.0118516666667","6500400","永和區"
"234077","969-R7","2017/07/17 18:49:38","新北市永和區中正路2巷29弄2-1號","121.51387","24.9937","6500400","永和區"
"234074","AAC-211","2017/07/17 18:49:38","新北市永和區福和路1號","121.526508333333","25.00992","6500400","永和區"
"234067","AAC-212","2017/07/17 18:49:55","新北市永和區永和路一段10號","121.512855","25.0046766666667","6500400","永和區"
"234003","AAC-295","2017/07/17 18:49:37","新北市永和區中正路704號","121.516231666667","25.00985","6500400","永和區"
"232011","375-UM","2017/07/17 18:34:27","新北市坪林區坪雙路一段43號","121.711806666667","24.9424633333333","6502000","坪林區"
"244013","069-UM","2017/07/17 18:49:42","新北市林口區文化一路一段118號","121.374158333333","25.0716516666667","6501700","林口區"
"244007","080-UY","2017/07/17 18:49:48","新北市林口區太平里3-3號","121.379186666667","25.1139933333333","6501700","林口區"
"244019","403-UM","2017/07/17 18:49:39","新北市林口區忠孝路646巷11號","121.3791","25.067345","6501700","林口區"
"244009","410-SL","2017/07/17 18:49:53","新北市林口區竹林路326巷11號","121.3918","25.0823666666667","6501700","林口區"
"244023","483-VK","2017/07/17 18:49:39","新北市林口區文化三路二段211巷92號","121.374943333333","25.0838066666667","6501700","林口區"
"244017","485-VK","2017/07/17 18:49:51","新北市林口區文化二路一段68巷18-2號","121.366215","25.06788","6501700","林口區"
"244011","701-TV","2017/07/17 18:49:38","新北市林口區粉寮路一段41號","121.396606666667","25.077355","6501700","林口區"
"244025","837-TS","2017/07/17 18:49:39","新北市林口區南勢一街36號","121.361371666667","25.0765233333333","6501700","林口區"
"243013","AAD-798","2017/07/17 18:49:53","新北市泰山區明志路三段206巷1號","121.423348333333","25.0378816666667","6501600","泰山區"
"243009","297-R6","2017/07/17 18:49:46","新北市泰山區黎明路6-1號","121.421193333333","25.0616816666667","6501600","泰山區"
"243015","380-SR","2017/07/17 18:49:55","新北市泰山區美寧街50號","121.43045","25.0644","6501600","泰山區"
"243014","421-VK","2017/07/17 18:49:39","新北市泰山區犁頭窠3-1號","121.422183333333","25.0605816666667","6501600","泰山區"
"243012","646-TV","2017/07/17 18:49:42","新北市泰山區泰林路二段73巷31號","121.434331666667","25.0578483333333","6501600","泰山區"
"243016","680-BX","2017/07/17 18:49:47","新北市泰山區明志路一段519號","121.430356666667","25.053955","6501600","泰山區"
"222003","436-BY","2017/07/17 18:49:52","新北市深坑區翠谷街17巷30號","121.6259","25.0097583333333","6501800","深坑區"
"222001","628-TS","2017/07/17 18:49:45","新北市深坑區松柏街34號","121.638696666667","25.0113966666667","6501800","深坑區"
"222002","659-BX","2017/07/17 18:49:51","新北市深坑區文山路一段62巷3號","121.622895","25.0008583333333","6501800","深坑區"
"231041","002-UM","2017/07/17 18:49:21","新北市新店區安華路28-1號","121.519513333333","24.9607983333333","6500600","新店區"
"231056","0293-UT","2017/07/17 18:49:40","新北市新店區大豐路68巷11號","121.538653333333","24.9801433333333","6500600","新店區"
"231059","046-UY","2017/07/17 18:49:39","新北市新店區安華路28-1號","121.519578333333","24.9607833333333","6500600","新店區"
"231061","047-UY","2017/07/17 18:49:36","新北市新店區安忠路95號","121.51096","24.9566966666667","6500600","新店區"
"231060","106-UY","2017/07/17 18:49:56","新北市新店區安華路28-1號","121.519571666667","24.9608033333333","6500600","新店區"
"231051","107-UY","2017/07/17 18:49:56","新北市新店區中央路81號","121.53229","24.9765266666667","6500600","新店區"
"231047","108-UY","2017/07/17 18:49:48","新北市新店區德正街22號","121.54378","24.972095","6500600","新店區"
"231052","187-VK","2017/07/17 18:49:49","新北市新店區永興路41號","121.543903333333","24.9378666666667","6500600","新店區"
"231063","268-BY","2017/07/17 18:49:54","新北市新店區車子路110號","121.505243333333","24.9520883333333","6500600","新店區"
"231046","278-BY","2017/07/17 18:49:44","新北市新店區直潭路47號","121.533283333333","24.9424516666667","6500600","新店區"
"231050","AAD-862","2017/07/17 18:49:39","新北市新店區安康路一段61號","121.530588333333","24.9609933333333","6500600","新店區"
"231058","3712-VJ","2017/07/17 18:49:48","新北市新店區北宜路一段107號","121.539468333333","24.9553033333333","6500600","新店區"
"231055","3713-VJ","2017/07/17 18:49:55","新北市新店區新生街21號","121.53973","24.96651","6500600","新店區"
"231067","4772-VM","2017/07/17 18:49:54","新北市新店區安康路一段106巷28號","121.527668333333","24.963045","6500600","新店區"
"231065","512-UM","2017/07/17 18:49:36","新北市新店區安豐路49號","121.50023","24.9540533333333","6500600","新店區"
"231054","513-UM","2017/07/17 18:49:51","新北市新店區安康路一段33-1號","121.532266666667","24.960475","6500600","新店區"
"231064","515-UM","2017/07/17 18:49:41","新北市新店區安華路28-1號","121.519623333333","24.9611416666667","6500600","新店區"
"231045","617-UM","2017/07/17 18:49:45","新北市新店區安華路28-1號","121.519421666667","24.9608133333333","6500600","新店區"
"231040","619-UM","2017/07/17 18:49:40","新北市新店區中央路45號","121.53286","24.97759","6500600","新店區"
"231042","641-BX","2017/07/17 18:49:50","新北市新店區中正路80號","121.54376","24.9702683333333","6500600","新店區"
"231049","719-UM","2017/07/17 18:49:40","新北市新店區中正路454-5號","121.534485","24.9790416666667","6500600","新店區"
"231062","720-UM","2017/07/17 18:49:41","新北市新店區安忠路205巷8號","121.510121666667","24.95547","6500600","新店區"
"231044","897-TW","2017/07/17 18:49:50","新北市新店區寶中路72號","121.547861666667","24.9805633333333","6500600","新店區"
"231043","899-TW","2017/07/17 18:49:54","新北市新店區安康路一段35-5號","121.531946666667","24.9606766666667","6500600","新店區"
"231066","AKT-0513","2017/07/17 18:49:41","新北市新店區安豐路22巷1號","121.50134","24.956165","6500600","新店區"
"241020","413-TH","2017/07/17 18:49:52","新北市三重區忠孝路二段34號","121.485741666667","25.0709433333333","6500200","三重區"
"235066","003-UY","2017/07/17 18:49:47","新北市中和區水源路18巷5號","121.504096666667","25.0030533333333","6500300","中和區"
"235064","005-UY","2017/07/17 18:49:55","新北市中和區連城路103號","121.496375","24.9995483333333","6500300","中和區"
"235063","006-UY","2017/07/17 18:49:42","新北市中和區連城路383號","121.486755","24.9960433333333","6500300","中和區"
"235056","096-UM","2017/07/17 18:49:44","新北市中和區員山路514號","121.479101666667","25.0087816666667","6500300","中和區"
"235039","097-UM","2017/07/17 18:49:52","新北市中和區安樂路135號","121.514308333333","24.9965416666667","6500300","中和區"
"235065","098-UM","2017/07/17 18:49:55","新北市中和區莊敬路49巷29弄26號","121.500846666667","25.00655","6500300","中和區"
"235040","150-BY","2017/07/17 18:49:40","新北市中和區保健路106巷21號","121.51218","24.9955833333333","6500300","中和區"
"235058","151-BY","2017/07/17 18:49:43","新北市中和區連城路532巷12號","121.475046666667","24.992595","6500300","中和區"
"235055","183-VK","2017/07/17 18:49:44","新北市中和區中山路三段229巷15號","121.470491666667","25.0063033333333","6500300","中和區"
"235038","185-VK","2017/07/17 18:49:49","新北市中和區立人街14巷49號","121.519021666667","24.9955733333333","6500300","中和區"
"235013","186-VK","2017/07/17 18:49:52","新北市中和區景安路120巷3號","121.505081666667","24.9949166666667","6500300","中和區"
"235067","255-BX","2017/07/17 18:49:48","新北市中和區中山路二段463號","121.483645","25.0048683333333","6500300","中和區"
"235044","293-VK","2017/07/17 18:49:41","新北市中和區復興路280巷5號","121.502256666667","24.9910333333333","6500300","中和區"
"235072","301-VK","2017/07/17 18:49:55","新北市中和區中山路二段94號","121.503273333333","25.0042933333333","6500300","中和區"
"235043","352-BY","2017/07/17 18:49:48","新北市中和區成功路129號","121.526023333333","24.9908133333333","6500300","中和區"
"235051","376-QA","2017/07/17 18:49:42","新北市中和區華新街143巷106弄1號","121.506005","24.9790883333333","6500300","中和區"
"235068","377-QA","2017/07/17 16:14:39","新北市中和區員山路36巷16-3號","121.485268333333","24.9911483333333","6500300","中和區"
"235061","378-QA","2017/07/17 18:49:50","新北市中和區民享街52號","121.47405","25.0025033333333","6500300","中和區"
"235050","4979-A6","2017/07/17 18:49:42","新北市中和區忠孝街62巷42號","121.513088333333","24.9837333333333","6500300","中和區"
"235069","4980-A6","2017/07/17 18:49:53","新北市中和區南山路52巷12號","121.501501666667","24.99737","6500300","中和區"
"235042","551-UM","2017/07/17 18:49:56","新北市中和區秀朗路三段100巷5弄2號","121.525246666667","24.993325","6500300","中和區"
"235045","565-BX","2017/07/17 18:49:55","新北市中和區復興路8號","121.506155","24.989775","6500300","中和區"
"235070","611-BX","2017/07/17 18:49:47","新北市中和區南華路32號","121.503441666667","24.99611","6500300","中和區"
"235054","640-BX","2017/07/17 18:49:43","新北市中和區民享街54巷3號","121.47377","25.0022966666667","6500300","中和區"
"235060","647-TV","2017/07/17 18:49:42","新北市中和區中山路三段33號","121.478991666667","25.0058883333333","6500300","中和區"
"235047","732-UM","2017/07/17 18:49:45","新北市中和區興南路二段94號","121.505428333333","24.98425","6500300","中和區"
"235046","733-UM","2017/07/17 18:49:53","新北市中和區仁愛街36巷46號","121.511391666667","24.98623","6500300","中和區"
"235071","783-BX","2017/07/17 18:49:55","新北市中和區員山路36巷16-3號","121.485198333333","24.99119","6500300","中和區"
"235062","800-TS","2017/07/17 18:49:49","新北市中和區景平路701號","121.496318333333","25.003485","6500300","中和區"
"235057","801-TS","2017/07/17 18:49:54","新北市中和區民安街5號","121.480786666667","25.00087","6500300","中和區"
"235041","802-TS","2017/07/17 18:49:50","新北市中和區安和路197號","121.506023333333","24.9983966666667","6500300","中和區"
"235052","805-TS","2017/07/17 18:49:45","新北市中和區興南路二段399巷33號","121.499886666667","24.97849","6500300","中和區"
"235048","896-TW","2017/07/17 18:49:46","新北市中和區南山路276號","121.507931666667","24.98791","6500300","中和區"
"235053","900-TW","2017/07/17 18:49:49","新北市中和區華安街16巷16號","121.465996666667","24.9975783333333","6500300","中和區"
"235037","AAC-213","2017/07/17 18:49:43","新北市中和區景平路111巷62號","121.515193333333","24.9903733333333","6500300","中和區"
"235059","AAC-215","2017/07/17 18:49:43","新北市中和區圓通路391-7號","121.489695","24.9889666666667","6500300","中和區"
"220068","013-TV","2017/07/17 18:49:51","新北市板橋區縣民大道三段32號","121.471501666667","25.0186433333333","6500100","板橋區"
"220065","072-UY","2017/07/17 18:49:43","新北市板橋區中山路二段50-1號","121.473101666667","25.01544","6500100","板橋區"
"220086","073-UY","2017/07/17 18:49:42","新北市板橋區南雅西路二段192巷18號","121.452393333333","25.0139983333333","6500100","板橋區"
"220106","075-UY","2017/07/17 18:49:36","新北市板橋區民生路二段120號","121.470496666667","25.01945","6500100","板橋區"
"247008","339-TH","2017/07/17 18:48:34","新北市五股區中興路三段163號","121.449216666667","25.0807466666667","6501400","蘆洲區"
"247024","337-TH","2017/07/17 18:49:56","新北市五股區中興路二段182巷3號","121.456465","25.07805","6501400","蘆洲區"
"247014","057-VK","2017/07/17 18:49:56","新北市五股區中興路三段163號","121.449105","25.0806316666667","6501400","蘆洲區"
"247022","002-UY","2017/07/17 18:49:20","新北市五股區中興路三段5號","121.449331666667","25.0794983333333","6501400","蘆洲區"
"226004","312-R5","2017/07/17 18:49:55","新北市平溪區平溪里平溪街63號","121.737921666667","25.0269683333333","6502400","平溪區"
"228003","097-TW","2017/07/17 18:49:52","新北市貢寮區和美里龍洞街61-2號","121.915836666667","25.11735","6502600","貢寮區"
"228002","585-TW","2017/07/17 18:49:53","新北市貢寮區福隆里東興街6-11號","121.950741666667","25.0210616666667","6502600","貢寮區"
"228001","670-TC","2017/07/17 18:49:48","新北市貢寮區仁理村研海街12-1號","121.923776666667","25.0517","6502600","貢寮區"
"224006","676-BX","2017/07/17 18:49:48","新北市瑞芳區中正路83號","121.805301666667","25.1076433333333","6501200","瑞芳區"
"224009","285-BY","2017/07/17 18:49:55","新北市瑞芳區祈堂路42號","121.859521666667","25.1104033333333","6501200","瑞芳區"
"224008","275-VK","2017/07/17 18:49:42","新北市瑞芳區逢甲路323號","121.801076666667","25.1117566666667","6501200","瑞芳區"
"224007","273-VK","2017/07/17 18:49:55","新北市瑞芳區大埔路115巷24-2號","121.762841666667","25.1015666666667","6501200","瑞芳區"
"224005","271-BY","2017/07/17 18:49:55","新北市瑞芳區永龍新村1號","121.819398333333","25.11962","6501200","瑞芳區"
"227008","642-TC","2017/07/17 18:49:35","新北市雙溪區牡丹里聖南25號","121.856788333333","25.052915","6502500","雙溪區"
"227001","400-TW","2017/07/17 18:49:48","新北市雙溪區平林里梅竹蹊26號","121.861676666667","25.0360483333333","6502500","雙溪區"
"253006","032-BX","2017/07/17 18:49:37","新北市石門區八甲1-10號","121.520851666667","25.2835666666667","6502200","石門區"
"253005","741-TV","2017/07/17 18:49:39","新北市石門區中山路28-1號","121.565815","25.2899483333333","6502200","石門區"
"208003","665-BX","2017/07/17 18:49:40","新北市金山區中山路391號","121.633466666667","25.225195","6502700","金山區"
"208001","761-BX","2017/07/17 18:49:51","新北市金山區文化三路66巷2弄1號","121.634343333333","25.2256583333333","6502700","金山區"
"251001","011-UM","2017/07/17 18:49:49","新北市淡水區自強路88號","121.462651666667","25.1283983333333","6501000","淡水區"
"251007","179-VK","2017/07/17 18:49:51","新北市淡水區民生路115號","121.464355","25.1386283333333","6501000","淡水區"
"251013","182-VK","2017/07/17 18:49:36","新北市淡水區安子內5-6號","121.483495","25.2151066666667","6501000","淡水區"
"251010","413-VK","2017/07/17 18:49:49","新北市淡水區沙崙路16號","121.421098333333","25.1811","6501000","淡水區"
"251012","441-VK","2017/07/17 18:49:55","新北市淡水區北新路10號","121.444548333333","25.1775916666667","6501000","淡水區"
"251015","442-VK","2017/07/17 18:49:52","新北市淡水區興福寮100號","121.4872","25.16447","6501000","淡水區"
"251011","650-BX","2017/07/17 18:49:51","新北市淡水區學府路12號","121.44746","25.1679466666667","6501000","淡水區"
"251002","672-BX","2017/07/17 18:49:38","新北市淡水區學府路65號","121.448373333333","25.169555","6501000","淡水區"
"251003","766-UM","2017/07/17 18:49:49","新北市淡水區中山北路一段149巷27號","121.442993333333","25.1778966666667","6501000","淡水區"
"207003","550-UM","2017/07/17 18:49:57","新北市萬里區大鵬里頂社1號","121.65699","25.209705","6502800","萬里區"
"207004","225-TW","2017/07/17 18:49:44","新北市萬里區萬里里獅頭路23號","121.693286666667","25.178255","6502800","萬里區"
"252002","178-VK","2017/07/17 18:49:41","新北市三芝區中正路一段101-1號","121.504801666667","25.2563666666667","6502100","三芝區"
"252003","249-BX","2017/07/17 18:49:46","新北市三芝區後厝里大片頭83-7號","121.458435","25.243185","6502100","三芝區"
"252001","292-VK","2017/07/17 18:49:45","新北市三芝區中正路三段9號","121.502921666667","25.254005","6502100","三芝區"
"208002","170-UY","2017/07/17 18:49:21","新北市金山區忠孝一路19巷36號","121.63472","25.2179383333333","6502700","金山區"
"237004","078-UY","2017/07/17 18:49:51","新北市三峽區插角222號","121.414981666667","24.8676783333333","6500900","三峽區"
"237007","153-BY","2017/07/17 18:49:39","新北市三峽區柑樹路6巷23號","121.361725","24.9039716666667","6500900","三峽區"
"237009","210-TH","2017/07/17 18:49:41","新北市三峽區仁愛街18號","121.368331666667","24.9322566666667","6500900","三峽區"
"237013","252-BX","2017/07/17 18:49:35","新北市三峽區大同路52號","121.376843333333","24.9291","6500900","三峽區"
"237012","275-BY","2017/07/17 18:48:15","新北市三峽區三樹路340號","121.383941666667","24.9432933333333","6500900","三峽區"
"237008","302-VK","2017/07/17 18:49:47","新北市三峽區白雞33-61號","121.370943333333","24.91309","6500900","三峽區"
"237014","433-BY","2017/07/17 18:49:57","新北市三峽區復興路480巷53號","121.361325","24.9406383333333","6500900","三峽區"
"237006","5529-G3","2017/07/17 18:49:45","新北市三峽區溪東路233巷2弄3號","121.406976666667","24.9335033333333","6500900","三峽區"
"237011","572-TV","2017/07/17 18:09:48","新北市三峽區溪北街2號","121.396005","24.93623","6500900","三峽區"
"237015","649-BX","2017/07/17 18:49:38","新北市三峽區建安25-3號","121.445376666667","24.927215","6500900","三峽區"
"237010","706-TV","2017/07/17 18:49:41","新北市三峽區復興路305號","121.365485","24.9388533333333","6500900","三峽區"
"237005","AKY-6261","2017/07/17 18:49:52","新北市三峽區新興街10號","121.372625","24.935785","6500900","三峽區"
"236069","105-UM","2017/07/17 18:49:36","新北市土城區明德路一段93巷2號","121.465733333333","24.983175","6501300","土城區"
"236042","107-UM","2017/07/17 18:49:51","新北市土城區裕民路114巷27號","121.450476666667","24.9856683333333","6501300","土城區"
"236078","166-UM","2017/07/17 18:49:46","新北市土城區中央路四段165巷55號","121.41668","24.9559816666667","6501300","土城區"
"236030","253-BX","2017/07/17 18:49:36","新北市土城區慶樂街31號","121.438701666667","24.9730666666667","6501300","土城區"
"236026","269-VK","2017/07/17 18:49:49","新北市土城區興城路66號","121.441225","24.972245","6501300","土城區"
"236014","270-VK","2017/07/17 18:49:52","新北市土城區金城路二段354巷18號","121.460968333333","24.9841933333333","6501300","土城區"
"236036","271-VK","2017/07/17 18:49:48","新北市土城區明德路一段221巷11號","121.463761666667","24.9780683333333","6501300","土城區"
"236020","401-BY","2017/07/17 18:49:49","新北市土城區延安街76號","121.468068333333","24.9840416666667","6501300","土城區"
"236058","912-UM","2017/07/17 18:49:42","新北市土城區中央路三段155號","121.432051666667","24.9653616666667","6501300","土城區"
"236048","913-UM","2017/07/17 18:49:53","新北市土城區青雲路61號","121.45943","24.9866433333333","6501300","土城區"
"236062","915-UM","2017/07/17 18:49:52","新北市土城區金城路三段153號","121.468701666667","24.9882916666667","6501300","土城區"
"236053","AAC-216","2017/07/17 18:49:52","新北市土城區裕民路131號","121.451428333333","24.9864983333333","6501300","土城區"
"242002","413-TV","2017/07/17 18:49:33","新北市新莊區新泰路357巷3弄57號","121.442101666667","25.0393666666667","6500500","新莊區"
"238023","601-UM","2017/07/17 18:49:48","新北市樹林區三福街114號","121.406391666667","25.0163816666667","6500700","樹林區"
"238019","599-UM","2017/07/17 18:49:52","新北市樹林區東榮街147巷27弄1號","121.414725","24.980635","6500700","樹林區"
"238018","571-TV","2017/07/17 18:49:51","新北市樹林區鎮前街160號","121.42453","24.9900483333333","6500700","樹林區"
"238024","5061-A6","2017/07/17 18:49:38","新北市樹林區太平路200號","121.41887","24.9753366666667","6500700","樹林區"
"238022","312-TH","2017/07/17 18:49:50","新北市樹林區中華路379巷78弄15號","121.413008333333","24.97676","6500700","樹林區"
"238025","303-VK","2017/07/17 18:49:43","新北市樹林區中山路三段22號","121.395605","24.9728766666667","6500700","樹林區"
"238020","268-VK","2017/07/17 18:49:45","新北市樹林區俊安街33號","121.420146666667","25.0132116666667","6500700","樹林區"
"238026","172-UY","2017/07/17 18:49:56","新北市樹林區中和街29號","121.390816666667","24.9732733333333","6500700","樹林區"
"238016","169-UY","2017/07/17 18:49:57","新北市樹林區文化街23號","121.419273333333","24.9874883333333","6500700","樹林區"
"239007","AAC-297","2017/07/17 18:49:55","新北市鶯歌區成功街12號","121.358555","24.9575133333333","6500800","鶯歌區"
"239008","527-UM","2017/07/17 18:49:45","新北市鶯歌區國際一路14號","121.33618","24.9765233333333","6500800","鶯歌區"
"239005","526-UM","2017/07/17 18:49:53","新北市鶯歌區鳳吉二街158號","121.32896","24.9751566666667","6500800","鶯歌區"
"239001","417-VK","2017/07/17 18:49:55","新北市鶯歌區中正二路187-4號","121.340345","24.947245","6500800","鶯歌區"
"239003","360-BY","2017/07/17 18:49:35","新北市鶯歌區永和二街28號","121.336461666667","24.9719033333333","6500800","鶯歌區"
"239004","193-VK","2017/07/17 18:49:37","新北市鶯歌區中正三路149號","121.336885","24.940105","6500800","鶯歌區"
"221008","489-VK","2017/07/17 18:49:39","新北市汐止區康寧街901號","121.651418333333","25.0750583333333","6501100","汐止區"
"221036","130-UY","2017/07/17 18:49:49","新北市汐止區水碓街63號","121.66511","25.0684383333333","6501100","汐止區"
"221015","131-UY","2017/07/17 18:49:34","新北市汐止區鄉長路一段55巷6號","121.665358333333","25.07613","6501100","汐止區"
"221010","269-BY","2017/07/17 18:49:41","新北市汐止區汐萬路三段246號","121.643461666667","25.0961933333333","6501100","汐止區"
"221031","277-VK","2017/07/17 18:49:37","新北市汐止區福德一路272巷16號","121.63195","25.06421","6501100","汐止區"
"221012","278-VK","2017/07/17 18:49:45","新北市汐止區汐萬路一段256巷3號","121.65329","25.0746483333333","6501100","汐止區"
"221023","279-VK","2017/07/17 14:58:18","新北市汐止區林森街124號","121.624751666667","25.0406333333333","6501100","汐止區"
"221032","280-BY","2017/07/17 18:49:45","新北市汐止區橫科路121巷11弄5號","121.621685","25.0506366666667","6501100","汐止區"
"221027","281-BY","2017/07/17 18:49:54","新北市汐止區康寧街901號","121.6512","25.0751533333333","6501100","汐止區"
"221038","297-VK","2017/07/17 18:49:56","新北市汐止區汐萬路一段256巷3號","121.652238333333","25.0746883333333","6501100","汐止區"
"221029","298-VK","2017/07/17 18:49:44","新北市汐止區樟樹一路87號","121.641745","25.0631883333333","6501100","汐止區"
"221021","299-VK","2017/07/17 18:47:40","新北市汐止區新興路65號","121.65776","25.062785","6501100","汐止區"
"221035","622-UM","2017/07/17 18:49:52","新北市汐止區汐萬路一段1號","121.656088333333","25.0673033333333","6501100","汐止區"
"221025","623-UM","2017/07/17 18:49:55","新北市汐止區仁愛路85號","121.661446666667","25.06301","6501100","汐止區"
"221033","647-BX","2017/07/17 18:49:42","新北市汐止區南勢街3號","121.627098333333","25.03741","6501100","汐止區"
"221002","707-TV","2017/07/17 18:49:43","新北市汐止區大同路一段203號","121.633503333333","25.0572233333333","6501100","汐止區"
"221018","753-BX","2017/07/17 18:49:54","新北市汐止區茄苳路212號","121.670728333333","25.0688133333333","6501100","汐止區"
"220079","145-BY","2017/07/17 18:49:52","新北市板橋區民權路202巷2弄2號","121.459433333333","25.0140583333333","6500100","板橋區"
"220080","200-UY","2017/07/17 18:49:49","新北市板橋區大觀路二段265巷72弄1號","121.442426666667","24.9968333333333","6500100","板橋區"
"220082","610-BX","2017/07/17 18:49:58","新北市板橋區溪北路142號","121.430036666667","24.9886483333333","6500100","板橋區"
"220101","245-BX","2017/07/17 16:47:29","新北市板橋區民生路二段120號","121.47046","25.0194733333333","6500100","板橋區"
"220103","257-TC","2017/07/17 18:49:54","新北市板橋區民生路二段120號","121.470446666667","25.0194566666667","6500100","板橋區"
"220056","276-BY","2017/07/17 18:49:38","新北市板橋區信義路16-7號","121.45698","24.9956816666667","6500100","板橋區"
"220072","277-BY","2017/07/17 18:49:56","新北市板橋區金門街21號","121.433516666667","24.9947233333333","6500100","板橋區"
"220064","280-UM","2017/07/17 18:49:55","新北市板橋區中山路二段50-1號","121.473115","25.015515","6500100","板橋區"
"220071","283-VK","2017/07/17 18:49:40","新北市板橋區觀光街4巷2弄2號","121.472231666667","25.0157266666667","6500100","板橋區"
"220094","285-UM","2017/07/17 18:49:37","新北市板橋區民生路二段120號","121.470333333333","25.0199433333333","6500100","板橋區"
"220053","285-VK","2017/07/17 18:49:55","新北市板橋區民生路二段80號","121.47179","25.0183683333333","6500100","板橋區"
"220083","286-VK","2017/07/17 18:49:43","新北市板橋區大觀路二段22巷22號","121.4456","25.0037716666667","6500100","板橋區"
"220081","287-VK","2017/07/17 18:49:47","新北市板橋區南雅西路二段90號","121.452483333333","25.0111816666667","6500100","板橋區"
"220090","288-VK","2017/07/17 18:49:43","新北市板橋區民生路二段120號","121.470503333333","25.0196616666667","6500100","板橋區"
"220061","293-UM","2017/07/17 18:49:52","新北市板橋區縣民大道三段30巷1號","121.471651666667","25.0185083333333","6500100","板橋區"
"220084","296-UM","2017/07/17 18:49:56","新北市板橋區大觀路二段148巷48號","121.441888333333","25.0003033333333","6500100","板橋區"
"220075","297-UM","2017/07/17 18:49:42","新北市板橋區大觀路一段28巷98號","121.450573333333","25.011015","6500100","板橋區"
"220062","303-R5","2017/07/17 18:49:46","新北市板橋區中山路二段23號","121.472323333333","25.0153416666667","6500100","板橋區"
"220092","307-R5","2017/07/17 16:31:55","新北市板橋區民生路二段120號","121.470446666667","25.0197666666667","6500100","板橋區"
"220098","317-R6","2017/07/17 18:49:51","新北市板橋區民生路二段56-6號","121.47124","25.0190916666667","6500100","板橋區"
"220089","487-VK","2017/07/17 18:49:50","新北市板橋區民生路二段120號","121.4706","25.01955","6500100","板橋區"
"220088","491-VK","2017/07/17 18:49:44","新北市板橋區民生路二段161巷1號","121.470278333333","25.0199183333333","6500100","板橋區"
"220035","560-BX","2017/07/17 18:49:41","新北市板橋區中正路275巷69號","121.452753333333","25.0178383333333","6500100","板橋區"
"220063","609-BX","2017/07/17 18:49:55","新北市板橋區民生路一段135號","121.47359","25.01508","6500100","板橋區"
"220091","637-BX","2017/07/17 18:49:42","新北市板橋區民生路二段161巷1號","121.470256666667","25.0199733333333","6500100","板橋區"
"220057","686-BX","2017/07/17 18:49:45","新北市板橋區中山路二段50-1號","121.47309","25.01534","6500100","板橋區"
"220077","687-BX","2017/07/17 18:49:45","新北市板橋區大觀路二段174巷188號","121.442198333333","25.0038183333333","6500100","板橋區"
"220093","689-BX","2017/07/17 18:49:43","新北市板橋區民生路二段161巷1號","121.470193333333","25.0198983333333","6500100","板橋區"
"220054","741-BX","2017/07/17 18:49:52","新北市板橋區中山路二段23號","121.472408333333","25.01524","6500100","板橋區"
"220055","827-TW","2017/07/17 18:49:48","新北市板橋區民生路二段17號","121.472655","25.0164716666667","6500100","板橋區"
"220067","829-TW","2017/07/17 18:49:53","新北市板橋區民生路一段127號","121.473806666667","25.01485","6500100","板橋區"
"220102","830-TW","2017/07/17 16:41:03","新北市板橋區民生路二段56-2號","121.472346666667","25.0171566666667","6500100","板橋區"
"220096","831-TW","2017/07/17 16:12:36","新北市板橋區民生路二段161巷9號","121.470298333333","25.0196816666667","6500100","板橋區"
"220074","895-R6","2017/07/17 18:49:40","新北市板橋區南門街36號","121.457086666667","25.0082816666667","6500100","板橋區"
"220073","985-R7","2017/07/17 18:49:53","新北市板橋區館前西路68號","121.457676666667","25.0072","6500100","板橋區"
"220097","AAC-210","2017/07/17 18:49:48","新北市板橋區民生路二段161巷9號","121.470266666667","25.019635","6500100","板橋區"
"220070","AAC-253","2017/07/17 18:49:45","新北市板橋區民生路二段36-1號","121.472176666667","25.0168883333333","6500100","板橋區"
