"lineid","car","time","location","longitude","latitude","cityid","cityname"
"234046","148-BY","2017/07/17 19:09:47","新北市永和區永元路52巷50號","121.524406666667","25.0007516666667","6500400","永和區"
"234013","149-BY","2017/07/17 19:09:37","新北市永和區保福路二段20號","121.510948333333","25.0114683333333","6500400","永和區"
"234007","207-UY","2017/07/17 19:09:52","新北市永和區中山路一段331號","121.50604","25.0061666666667","6500400","永和區"
"234081","298-R6","2017/07/17 19:09:41","新北市永和區永亨路83號","121.521943333333","25.0056833333333","6500400","永和區"
"234038","336-UY","2017/07/17 19:09:41","新北市永和區民樂街59巷24號","121.528356666667","24.998195","6500400","永和區"
"234064","337-UY","2017/07/17 19:09:54","新北市永和區秀朗路二段53號","121.521801666667","25.0022766666667","6500400","永和區"
"234086","338-UY","2017/07/17 19:09:43","新北市永和區中正路500號","121.517518333333","25.00421","6500400","永和區"
"234070","552-UM","2017/07/17 19:09:21","新北市永和區豫溪街109號","121.518896666667","25.010165","6500400","永和區"
"234054","553-UM","2017/07/17 19:09:39","新北市永和區竹林路88號","121.51944","25.0126116666667","6500400","永和區"
"234017","745-BX","2017/07/17 19:09:53","新北市永和區忠孝街40-1號","121.514491666667","25.0157033333333","6500400","永和區"
"234030","746-BX","2017/07/17 19:09:52","新北市永和區厚德街98號","121.523451666667","24.998965","6500400","永和區"
"234061","AAD-866","2017/07/17 19:09:47","新北市永和區安樂路330號","121.514506666667","25.0058283333333","6500400","永和區"
"234042","862-TW","2017/07/17 19:09:51","新北市永和區保平路210號","121.509876666667","25.00597","6500400","永和區"
"234050","863-TW","2017/07/17 19:09:48","新北市永和區文化路135巷22弄1號","121.51055","25.01476","6500400","永和區"
"234026","9371-KE","2017/07/17 19:09:43","新北市永和區安樂路419號","121.51449","25.0040266666667","6500400","永和區"
"234011","9373-KE","2017/07/17 19:09:55","新北市永和區仁愛路70號","121.513095","25.0134716666667","6500400","永和區"
"249005","172-UM","2017/07/17 19:09:37","新北市八里區中華路三段89-3號","121.393921666667","25.1391933333333","6502300","八里區"
"249001","759-BX","2017/07/17 19:09:53","新北市八里區龍米路二段236-2號","121.431371666667","25.158635","6502300","八里區"
"248016","026-BX","2017/07/17 19:09:47","新北市五股區成泰路三段543巷36弄2號","121.450706666667","25.1027416666667","6501500","五股區"
"248018","225-UY","2017/07/17 19:09:50","新北市五股區民義路一段287巷2-6號","121.423505","25.0903816666667","6501500","五股區"
"248012","247-BX","2017/07/17 19:09:50","新北市五股區中興路四段38巷9號","121.438823333333","25.0832916666667","6501500","五股區"
"248014","261-SL","2017/07/17 19:09:38","新北市五股區民義路一段107巷23號","121.432038333333","25.0844683333333","6501500","五股區"
"248010","272-BY","2017/07/17 19:09:52","新北市五股區水碓一路23號","121.430615","25.0712633333333","6501500","五股區"
"248004","677-BX","2017/07/17 19:09:53","新北市五股區六合街3號","121.431876666667","25.0886383333333","6501500","五股區"
"248002","678-BX","2017/07/17 19:09:35","新北市五股區凌雲路一段158巷6號","121.447813333333","25.1031216666667","6501500","五股區"
"248006","682-TV","2017/07/17 19:09:51","新北市五股區四維路102號","121.467573333333","25.0736316666667","6501500","五股區"
"234023","9380-KE","2017/07/17 19:09:54","新北市永和區中興街10巷19號","121.515921666667","25.011205","6500400","永和區"
"234077","969-R7","2017/07/17 19:09:38","新北市永和區民權路40號","121.520188333333","24.9987833333333","6500400","永和區"
"234074","AAC-211","2017/07/17 19:09:38","新北市永和區竹林路187號","121.520531666667","25.0095966666667","6500400","永和區"
"234067","AAC-212","2017/07/17 19:09:55","新北市永和區保平路33號","121.512105","25.0073083333333","6500400","永和區"
"234003","AAC-295","2017/07/17 19:09:37","新北市永和區和平街56號","121.512458333333","25.0099466666667","6500400","永和區"
"244013","069-UM","2017/07/17 19:09:42","新北市林口區麗園一街11巷7號","121.378141666667","25.0704616666667","6501700","林口區"
"244019","403-UM","2017/07/17 19:09:39","新北市林口區麗園二街42巷19號","121.381433333333","25.0668516666667","6501700","林口區"
"244009","410-SL","2017/07/17 19:09:53","新北市林口區台電新村146號","121.388723333333","25.08763","6501700","林口區"
"244023","483-VK","2017/07/17 19:09:39","新北市林口區文化三路一段617巷10號","121.37122","25.07788","6501700","林口區"
"244011","701-TV","2017/07/17 19:09:38","新北市林口區中正路296巷1-1號","121.388433333333","25.0779966666667","6501700","林口區"
"244025","837-TS","2017/07/17 19:09:39","新北市林口區湖南里70-9號","121.375935","25.08974","6501700","林口區"
"243013","AAD-798","2017/07/17 19:09:53","新北市泰山區漢口街7號","121.423521666667","25.0366166666667","6501600","泰山區"
"243009","297-R6","2017/07/17 19:09:46","新北市泰山區楓樹街15巷28號","121.434493333333","25.0631216666667","6501600","泰山區"
"243015","380-SR","2017/07/17 19:09:43","新北市泰山區明志路一段453-1號","121.430761666667","25.05637","6501600","泰山區"
"243014","421-VK","2017/07/17 19:09:39","新北市泰山區泰林路二段328號","121.430205","25.06302","6501600","泰山區"
"243010","548-UM","2017/07/17 19:09:53","新北市泰山區明志路一段483巷3弄5號","121.431345","25.0555616666667","6501600","泰山區"
"243011","549-UM","2017/07/17 19:09:51","新北市泰山區明志路二段364號","121.425603333333","25.0449783333333","6501600","泰山區"
"243012","646-TV","2017/07/17 19:09:42","新北市泰山區辭修路36巷8弄1號","121.427881666667","25.0585416666667","6501600","泰山區"
"243016","680-BX","2017/07/17 19:09:47","新北市泰山區明志路三段1號","121.424935","25.0434466666667","6501600","泰山區"
"222003","436-BY","2017/07/17 19:09:52","新北市深坑區深南路156號","121.624621666667","25.0146116666667","6501800","深坑區"
"222001","628-TS","2017/07/17 19:09:45","新北市深坑區北深路一段300號","121.6242","25.0057483333333","6501800","深坑區"
"222002","659-BX","2017/07/17 19:09:51","新北市深坑區北深路一段177號","121.632635","25.0107883333333","6501800","深坑區"
"231041","002-UM","2017/07/17 19:09:44","新北市新店區溪園路409號","121.524306666667","24.9783783333333","6500600","新店區"
"231056","0293-UT","2017/07/17 19:09:40","新北市新店區二十張路46巷37弄45號","121.535488333333","24.98125","6500600","新店區"
"231059","046-UY","2017/07/17 19:09:53","新北市新店區安和路二段148號","121.519711666667","24.9729166666667","6500600","新店區"
"231061","047-UY","2017/07/17 19:09:36","新北市新店區安康路一段90號","121.527998333333","24.96213","6500600","新店區"
"231060","106-UY","2017/07/17 19:09:56","新北市新店區安康路二段296-3號","121.506191666667","24.9580683333333","6500600","新店區"
"231051","107-UY","2017/07/17 19:09:36","新北市新店區中正路380號","121.534953333333","24.9771083333333","6500600","新店區"
"231047","108-UY","2017/07/17 19:09:48","新北市新店區德正街27巷29弄1號","121.545756666667","24.9717916666667","6500600","新店區"
"231052","187-VK","2017/07/17 19:09:49","新北市新店區自強路90號","121.54639","24.92402","6500600","新店區"
"231063","268-BY","2017/07/17 19:09:54","新北市新店區車子路160號","121.504586666667","24.94659","6500600","新店區"
"231046","278-BY","2017/07/17 19:09:44","新北市新店區新潭路一段21號","121.52311","24.9430016666667","6500600","新店區"
"231050","AAD-862","2017/07/17 19:09:39","新北市新店區竹林路2巷29弄9號","121.550445","24.95025","6500600","新店區"
"231058","3712-VJ","2017/07/17 19:09:48","新北市新店區光明街168巷5弄2-2號","121.540486666667","24.9617333333333","6500600","新店區"
"231067","4772-VM","2017/07/17 19:09:40","新北市新店區安康路一段162號","121.526121666667","24.96303","6500600","新店區"
"231065","512-UM","2017/07/17 19:09:36","新北市新店區安祥路145巷12號","121.475096666667","24.9559983333333","6500600","新店區"
"231054","513-UM","2017/07/17 19:09:51","新北市新店區新店路104號","121.537111666667","24.9544983333333","6500600","新店區"
"231064","515-UM","2017/07/17 19:09:41","新北市新店區安忠路63巷1號","121.511668333333","24.9581616666667","6500600","新店區"
"231045","617-UM","2017/07/17 19:09:54","新北市新店區北宜路一段123-2號","121.540603333333","24.95336","6500600","新店區"
"231040","619-UM","2017/07/17 19:09:40","新北市新店區三民路155-1號","121.533896666667","24.97343","6500600","新店區"
"231042","641-BX","2017/07/17 19:09:50","新北市新店區中興路一段88號","121.539891666667","24.9603533333333","6500600","新店區"
"231049","719-UM","2017/07/17 19:09:40","新北市新店區二十張路25巷14號","121.539076666667","24.9820483333333","6500600","新店區"
"231062","720-UM","2017/07/17 19:09:40","新北市新店區安平路7-1號","121.524173333333","24.96475","6500600","新店區"
"231044","897-TW","2017/07/17 19:09:50","新北市新店區中興路三段178號","121.544188333333","24.98114","6500600","新店區"
"231043","899-TW","2017/07/17 19:09:54","新北市新店區寶橋路75號","121.545653333333","24.975245","6500600","新店區"
"231066","AKT-0513","2017/07/17 19:09:41","新北市新店區安康路三段359巷12弄5號","121.484251666667","24.94954","6500600","新店區"
"241026","066-VK","2017/07/17 19:09:52","新北市三重區泉州街72號","121.494773333333","25.0548783333333","6500200","三重區"
"241020","413-TH","2017/07/17 19:09:52","新北市三重區忠孝路二段34號","121.48571","25.0709866666667","6500200","三重區"
"241035","462-BY","2017/07/17 19:09:42","新北市三重區捷運路73號","121.483136666667","25.0555016666667","6500200","三重區"
"241029","942-UM","2017/07/17 19:09:43","新北市三重區重安街87巷25號","121.493081666667","25.05501","6500200","三重區"
"235066","003-UY","2017/07/17 19:09:47","新北市中和區廣福路16號","121.505163333333","25.0027083333333","6500300","中和區"
"235064","005-UY","2017/07/17 19:09:55","新北市中和區泰和街30巷24號","121.498916666667","25.0012383333333","6500300","中和區"
"235063","006-UY","2017/07/17 19:09:42","新北市中和區連城路319巷3弄10號","121.489641666667","24.9956616666667","6500300","中和區"
"235056","096-UM","2017/07/17 19:09:44","新北市中和區員山路540號","121.478673333333","25.0100683333333","6500300","中和區"
"235039","097-UM","2017/07/17 19:09:52","新北市永和區民有街18號","121.51662","24.9966333333333","6500300","中和區"
"235065","098-UM","2017/07/17 19:09:55","新北市中和區福祥路136號","121.498815","25.0069533333333","6500300","中和區"
"235040","150-BY","2017/07/17 19:09:40","新北市中和區宜安路121號","121.510005","24.9979783333333","6500300","中和區"
"235058","151-BY","2017/07/17 19:09:43","新北市中和區員山路119號","121.481005","24.995395","6500300","中和區"
"235055","183-VK","2017/07/17 19:09:44","新北市中和區民德路25巷8號","121.469316666667","25.0026833333333","6500300","中和區"
"235038","185-VK","2017/07/17 19:09:49","新北市中和區自強路48號","121.520106666667","24.9949816666667","6500300","中和區"
"235013","186-VK","2017/07/17 19:09:52","新北市中和區景安路96號","121.505373333333","24.99576","6500300","中和區"
"235067","255-BX","2017/07/17 19:09:48","新北市中和區民樂路81號","121.484646666667","25.0013033333333","6500300","中和區"
"235044","293-VK","2017/07/17 19:09:41","新北市中和區復興路280巷33弄18號","121.501343333333","24.9911733333333","6500300","中和區"
"235072","301-VK","2017/07/17 19:09:35","新北市中和區福美路269號","121.498161666667","25.0049183333333","6500300","中和區"
"235043","352-BY","2017/07/17 19:09:48","新北市中和區景平路38號","121.523131666667","24.99062","6500300","中和區"
"235051","376-QA","2017/07/17 19:09:42","新北市中和區忠孝街31巷33弄3號","121.509741666667","24.98454","6500300","中和區"
"235068","377-QA","2017/07/17 16:14:39","新北市中和區員山路36巷16-3號","121.485268333333","24.9911483333333","6500300","中和區"
"235061","378-QA","2017/07/17 19:09:55","新北市中和區民有街94號","121.47616","25.0034883333333","6500300","中和區"
"235050","4979-A6","2017/07/17 19:09:42","新北市中和區復興路260-1號","121.50352","24.9902966666667","6500300","中和區"
"235069","4980-A6","2017/07/17 19:09:53","新北市中和區中山路二段181巷24號","121.501055","25.001875","6500300","中和區"
"235042","551-UM","2017/07/17 19:09:56","新北市中和區自立路113號","121.522225","24.9944866666667","6500300","中和區"
"235045","565-BX","2017/07/17 19:09:53","新北市中和區景新街467巷20弄25號","121.514991666667","24.9875616666667","6500300","中和區"
"235070","611-BX","2017/07/17 19:09:47","新北市中和區安和路159號","121.506316666667","24.9972533333333","6500300","中和區"
"235054","640-BX","2017/07/17 19:09:43","新北市中和區國光街6巷1號","121.471938333333","25.0002616666667","6500300","中和區"
"235060","647-TV","2017/07/17 19:09:42","新北市中和區自治街38號","121.47519","25.003105","6500300","中和區"
"235047","732-UM","2017/07/17 19:09:45","新北市中和區興南路二段65號","121.506851666667","24.9851416666667","6500300","中和區"
"235046","733-UM","2017/07/17 19:09:53","新北市中和區忠孝街1巷65號","121.50822","24.984715","6500300","中和區"
"235071","783-BX","2017/07/17 19:09:55","新北市中和區員山路107號","121.480738333333","24.9946066666667","6500300","中和區"
"235062","800-TS","2017/07/17 19:09:40","新北市中和區中山路二段530號","121.48583","25.0049216666667","6500300","中和區"
"235057","801-TS","2017/07/17 19:09:54","新北市中和區民利街60號","121.478966666667","24.9988333333333","6500300","中和區"
"235041","802-TS","2017/07/17 19:09:50","新北市中和區安平路145巷14號","121.51149","24.9983133333333","6500300","中和區"
"235052","805-TS","2017/07/17 19:09:44","新北市中和區興南路二段142巷23號","121.50312","24.9838433333333","6500300","中和區"
"235048","896-TW","2017/07/17 19:09:46","新北市中和區工專路147號","121.508516666667","24.9788383333333","6500300","中和區"
"235053","900-TW","2017/07/17 19:09:49","新北市中和區和平路200巷33-3號","121.465288333333","24.994545","6500300","中和區"
"235037","AAC-213","2017/07/17 19:09:43","新北市中和區自立路99巷26號","121.523483333333","24.9945666666667","6500300","中和區"
"235059","AAC-215","2017/07/17 19:09:43","新北市中和區圓通路294巷17-5號","121.488655","24.9903966666667","6500300","中和區"
"220068","013-TV","2017/07/17 19:09:51","新北市板橋區翠華街6巷12-2號","121.480816666667","25.02396","6500100","板橋區"
"220065","072-UY","2017/07/17 19:09:49","新北市板橋區民族路151巷57號","121.469358333333","25.00848","6500100","板橋區"
"220086","073-UY","2017/07/17 19:09:42","新北市板橋區中正路250巷20號","121.45622","25.0193316666667","6500100","板橋區"
"220106","075-UY","2017/07/17 19:09:56","新北市板橋區文化路二段311號","121.471931666667","25.029615","6500100","板橋區"
"247008","339-TH","2017/07/17 19:09:51","新北市五股區中興路三段163號","121.449235","25.080735","6501400","蘆洲區"
"247002","336-TH","2017/07/17 18:54:28","新北市五股區中興路三段163號","121.449173333333","25.080835","6501400","蘆洲區"
"247014","057-VK","2017/07/17 19:09:57","新北市五股區凌雲路一段21號","121.452416666667","25.1004866666667","6501400","蘆洲區"
"226004","312-R5","2017/07/17 19:09:36","新北市平溪區望古里灰3號","121.76029","25.0310833333333","6502400","平溪區"
"228003","097-TW","2017/07/17 19:09:52","新北市貢寮區和美里和美街40號","121.912306666667","25.08947","6502600","貢寮區"
"228002","585-TW","2017/07/17 19:09:53","新北市貢寮區福隆里福隆街36號","121.94511","25.0174466666667","6502600","貢寮區"
"228001","670-TC","2017/07/17 19:09:48","新北市貢寮區真理里新港街10號","121.92551","25.054345","6502600","貢寮區"
"224010","AGQ-8101","2017/07/17 19:08:22","新北市瑞芳區基山街19號","121.845351666667","25.1094766666667","6501200","瑞芳區"
"224006","676-BX","2017/07/17 19:09:56","新北市瑞芳區三爪子坑路106巷122號","121.80912","25.1041333333333","6501200","瑞芳區"
"224009","285-BY","2017/07/17 19:09:55","新北市瑞芳區長仁路40號","121.864548333333","25.1173633333333","6501200","瑞芳區"
"224008","275-VK","2017/07/17 19:09:42","新北市瑞芳區瑞芳街118號","121.801468333333","25.110955","6501200","瑞芳區"
"224007","273-VK","2017/07/17 19:09:53","新北市瑞芳區瑞竹路76號","121.763203333333","25.10347","6501200","瑞芳區"
"224005","271-BY","2017/07/17 19:09:55","新北市瑞芳區海濱路154-1號","121.829863333333","25.1219883333333","6501200","瑞芳區"
"227008","642-TC","2017/07/17 19:09:55","新北市雙溪區牡丹里中正路46-3號","121.865","25.038985","6502500","雙溪區"
"227001","400-TW","2017/07/17 19:09:48","新北市雙溪區平林里梅竹蹊56-4號","121.860726666667","25.036685","6502500","雙溪區"
"253006","032-BX","2017/07/17 19:09:58","新北市石門區八甲3-2號","121.521206666667","25.283665","6502200","石門區"
"253005","741-TV","2017/07/17 19:09:39","新北市石門區阿里磅1號","121.58974","25.2910333333333","6502200","石門區"
"208003","665-BX","2017/07/17 19:09:49","新北市金山區中山路251號","121.63715","25.222075","6502700","金山區"
"208001","761-BX","2017/07/17 19:09:55","新北市金山區福德街14號","121.639276666667","25.2217","6502700","金山區"
"251009","008-UM","2017/07/17 19:09:36","新北市淡水區清水街99-1號","121.44086","25.1705983333333","6501000","淡水區"
"251001","011-UM","2017/07/17 19:09:49","新北市淡水區自強路201巷39號","121.462106666667","25.1268516666667","6501000","淡水區"
"251007","179-VK","2017/07/17 19:09:51","新北市淡水區民生路145巷36-16號","121.467155","25.1389283333333","6501000","淡水區"
"251013","182-VK","2017/07/17 19:09:56","新北市淡水區安子內12號","121.481526666667","25.2190916666667","6501000","淡水區"
"251010","413-VK","2017/07/17 19:09:49","新北市淡水區中正路一段156巷1號","121.42106","25.1801966666667","6501000","淡水區"
"251015","442-VK","2017/07/17 19:09:52","新北市淡水區南勢埔47巷27號","121.48347","25.1784166666667","6501000","淡水區"
"251005","443-VK","2017/07/17 19:09:52","新北市淡水區原德路11號","121.442131666667","25.1712066666667","6501000","淡水區"
"251011","650-BX","2017/07/17 19:09:51","新北市淡水區中正東路二段143巷2弄1號","121.460735","25.1474283333333","6501000","淡水區"
"251002","672-BX","2017/07/17 19:09:53","新北市淡水區中山路88號","121.442941666667","25.1705033333333","6501000","淡水區"
"251003","766-UM","2017/07/17 19:09:49","新北市淡水區中山北路一段50號","121.44197","25.175535","6501000","淡水區"
"207003","550-UM","2017/07/17 19:09:57","新北市萬里區大鵬里萬里加投15-2號","121.650088333333","25.2097016666667","6502800","萬里區"
"207004","225-TW","2017/07/17 19:09:44","新北市萬里區萬里里瑪鋉下街2號","121.691026666667","25.1782883333333","6502800","萬里區"
"252002","178-VK","2017/07/17 19:09:41","新北市三芝區中正路一段3號","121.502706666667","25.2590316666667","6502100","三芝區"
"252003","249-BX","2017/07/17 19:09:46","新北市三芝區錫板里海尾14-15號","121.477278333333","25.25845","6502100","三芝區"
"252001","292-VK","2017/07/17 19:09:45","新北市三芝區長勤街45巷2號","121.500331666667","25.2550466666667","6502100","三芝區"
"208002","170-UY","2017/07/17 18:54:41","新北市金山區信義路28號","121.635501666667","25.21987","6502700","金山區"
"237004","078-UY","2017/07/17 19:09:51","新北市三峽區有木205-1號","121.439053333333","24.85146","6500900","三峽區"
"237007","153-BY","2017/07/17 19:09:39","新北市三峽區中正路二段279號","121.36594","24.9112833333333","6500900","三峽區"
"237013","252-BX","2017/07/17 19:09:55","新北市三峽區大同路52號","121.37706","24.9289666666667","6500900","三峽區"
"237012","275-BY","2017/07/17 19:09:55","新北市三峽區三樹路222巷35號","121.38122","24.9424266666667","6500900","三峽區"
"237008","302-VK","2017/07/17 19:09:47","新北市三峽區大同路174巷1號","121.372503333333","24.9270616666667","6500900","三峽區"
"237014","433-BY","2017/07/17 19:09:36","新北市三峽區隆恩街242號","121.357696666667","24.9410933333333","6500900","三峽區"
"237006","5529-G3","2017/07/17 19:09:45","新北市三峽區溪東路205巷23號","121.405158333333","24.934115","6500900","三峽區"
"237011","572-TV","2017/07/17 18:09:48","新北市三峽區溪北街2號","121.396005","24.93623","6500900","三峽區"
"237015","649-BX","2017/07/17 19:09:38","新北市三峽區建安80-3號","121.452011666667","24.9228066666667","6500900","三峽區"
"237010","706-TV","2017/07/17 19:09:41","新北市三峽區國光街52號","121.374533333333","24.93803","6500900","三峽區"
"237005","AKY-6261","2017/07/17 19:09:52","新北市三峽區中山路459巷163-3號","121.348651666667","24.9329016666667","6500900","三峽區"
"236069","105-UM","2017/07/17 19:09:39","新北市土城區明德路二段112號","121.444978333333","24.9841483333333","6501300","土城區"
"236078","166-UM","2017/07/17 19:09:45","新北市土城區龍泉路23號","121.41173","24.9466683333333","6501300","土城區"
"236026","269-VK","2017/07/17 19:09:49","新北市土城區中正路59號","121.444351666667","24.9755116666667","6501300","土城區"
"236014","270-VK","2017/07/17 19:09:52","新北市土城區學府路一段75巷2號","121.456848333333","24.9881033333333","6501300","土城區"
"236036","271-VK","2017/07/17 19:09:48","新北市土城區清水路143號","121.45838","24.9816183333333","6501300","土城區"
"236020","401-BY","2017/07/17 19:09:48","新北市土城區延峰街36巷2號","121.46965","24.9846633333333","6501300","土城區"
"236058","912-UM","2017/07/17 19:09:42","新北市土城區金城路二段240號","121.456611666667","24.9831366666667","6501300","土城區"
"236048","913-UM","2017/07/17 19:09:49","新北市土城區明德路一段398-1號","121.453645","24.9790816666667","6501300","土城區"
"236053","AAC-216","2017/07/17 19:09:43","新北市土城區學成路58號","121.45222","24.9877683333333","6501300","土城區"
"242002","413-TV","2017/07/17 19:09:53","新北市新莊區新泰路357巷3弄57號","121.442143333333","25.0394866666667","6500500","新莊區"
"238015","755-BX","2017/07/17 19:09:52","新北市樹林區備內街158巷56號","121.408313333333","24.989885","6500700","樹林區"
"238023","601-UM","2017/07/17 19:09:48","新北市樹林區大慶街61號","121.396031666667","25.01356","6500700","樹林區"
"238019","599-UM","2017/07/17 19:09:52","新北市樹林區東榮街57號","121.417335","24.9832166666667","6500700","樹林區"
"238018","571-TV","2017/07/17 19:09:51","新北市樹林區八德街37-3號","121.419008333333","24.9829633333333","6500700","樹林區"
"238022","312-TH","2017/07/17 19:09:41","新北市樹林區中山路二段151巷19號","121.407643333333","24.977935","6500700","樹林區"
"238021","311-TH","2017/07/17 19:02:54","新北市樹林區西圳街二段160號","121.380461666667","24.9562916666667","6500700","樹林區"
"238025","303-VK","2017/07/17 19:09:43","新北市樹林區中山路三段92號","121.393275","24.9722466666667","6500700","樹林區"
"238017","283-BY","2017/07/17 19:09:48","新北市樹林區保安二街二段6-7號","121.41588","25.0012033333333","6500700","樹林區"
"238014","282-BY","2017/07/17 19:09:50","新北市樹林區千歲街92巷7弄27號","121.427368333333","24.9981283333333","6500700","樹林區"
"238020","268-VK","2017/07/17 19:09:45","新北市樹林區俊英街190號","121.425943333333","25.0079466666667","6500700","樹林區"
"238026","172-UY","2017/07/17 19:09:36","新北市樹林區地政街41號","121.394923333333","24.9718016666667","6500700","樹林區"
"238016","169-UY","2017/07/17 19:09:37","新北市樹林區復興路335巷6弄9號","121.418018333333","24.98716","6500700","樹林區"
"239007","AAC-297","2017/07/17 19:09:55","新北市鶯歌區中山路171號","121.348418333333","24.9570416666667","6500800","鶯歌區"
"239006","891-R6","2017/07/17 19:09:42","新北市鶯歌區鶯桃路296巷84弄18號","121.337126666667","24.9615633333333","6500800","鶯歌區"
"239008","527-UM","2017/07/17 19:09:46","新北市鶯歌區國際二路18巷6號","121.337361666667","24.97506","6500800","鶯歌區"
"239005","526-UM","2017/07/17 19:09:47","新北市鶯歌區大湖路361巷46號","121.330838333333","24.9775783333333","6500800","鶯歌區"
"239001","417-VK","2017/07/17 19:09:39","新北市鶯歌區永安街32號","121.337746666667","24.9560233333333","6500800","鶯歌區"
"239003","360-BY","2017/07/17 19:09:55","新北市鶯歌區鶯桃路421號","121.332705","24.9648333333333","6500800","鶯歌區"
"239004","193-VK","2017/07/17 19:09:37","新北市鶯歌區中正三路282巷20號","121.327025","24.9367466666667","6500800","鶯歌區"
"221008","489-VK","2017/07/17 19:09:39","新北市汐止區康寧街467號","121.63182","25.06832","6501100","汐止區"
"221036","130-UY","2017/07/17 19:09:49","新北市汐止區信義路1號","121.662745","25.0692466666667","6501100","汐止區"
"221015","131-UY","2017/07/17 19:09:54","新北市汐止區汐萬路一段310號","121.650431666667","25.0747216666667","6501100","汐止區"
"221031","277-VK","2017/07/17 19:09:37","新北市汐止區中興路181巷29弄8號","121.629755","25.0658716666667","6501100","汐止區"
"221012","278-VK","2017/07/17 19:09:46","新北市汐止區康寧街901號","121.65099","25.07527","6501100","汐止區"
"221023","279-VK","2017/07/17 14:58:18","新北市汐止區林森街124號","121.624751666667","25.0406333333333","6501100","汐止區"
"221032","280-BY","2017/07/17 19:09:45","新北市汐止區橫科路241-1號","121.621946666667","25.0492516666667","6501100","汐止區"
"221027","281-BY","2017/07/17 18:57:46","新北市汐止區康寧街901號","121.650868333333","25.0752666666667","6501100","汐止區"
"221038","297-VK","2017/07/17 19:09:56","新北市汐止區汐萬路一段312號","121.6507","25.0753066666667","6501100","汐止區"
"221029","298-VK","2017/07/17 19:09:44","新北市汐止區汐萬路一段256巷3號","121.652601666667","25.07459","6501100","汐止區"
"221021","299-VK","2017/07/17 19:06:00","新北市汐止區汐萬路一段256巷3號","121.652196666667","25.075195","6501100","汐止區"
"221035","622-UM","2017/07/17 19:09:52","新北市汐止區汐萬路一段256巷3號","121.65217","25.0747","6501100","汐止區"
"221025","623-UM","2017/07/17 19:09:55","新北市汐止區康寧街901號","121.651451666667","25.07495","6501100","汐止區"
"221033","647-BX","2017/07/17 19:09:22","新北市汐止區南勢街1巷1號","121.627103333333","25.0374883333333","6501100","汐止區"
"221002","707-TV","2017/07/17 19:09:43","新北市汐止區環河街189巷5號","121.62713","25.0537966666667","6501100","汐止區"
"221018","753-BX","2017/07/17 19:09:50","新北市汐止區汐萬路一段256巷3號","121.653363333333","25.074655","6501100","汐止區"
"220079","145-BY","2017/07/17 19:09:52","新北市板橋區民權路260巷75號","121.460723333333","25.0149916666667","6500100","板橋區"
"220080","200-UY","2017/07/17 19:09:49","新北市板橋區大觀路二段153巷46弄60號","121.449428333333","25.00044","6500100","板橋區"
"220082","610-BX","2017/07/17 19:09:52","新北市板橋區大觀路三段273號","121.42873","24.992545","6500100","板橋區"
"220101","245-BX","2017/07/17 19:09:46","新北市板橋區萬板路13號","121.4705","25.0209133333333","6500100","板橋區"
"220103","257-TC","2017/07/17 19:09:54","新北市板橋區文化路一段188巷9弄120號","121.4689","25.0192433333333","6500100","板橋區"
"220069","258-TC","2017/07/17 19:09:51","新北市板橋區東興街2號","121.458755","25.0054033333333","6500100","板橋區"
"220056","276-BY","2017/07/17 19:09:38","新北市板橋區信義路74巷1弄15號","121.457628333333","24.9927516666667","6500100","板橋區"
"220072","277-BY","2017/07/17 19:09:36","新北市板橋區金門街369巷57弄8號","121.429298333333","24.983995","6500100","板橋區"
"220064","280-UM","2017/07/17 19:09:34","新北市板橋區板新路2號","121.475143333333","25.0129866666667","6500100","板橋區"
"220071","283-VK","2017/07/17 19:09:40","新北市板橋區忠孝路154巷49號","121.464478333333","25.0008883333333","6500100","板橋區"
"220094","285-UM","2017/07/17 19:09:44","新北市板橋區光武街152號","121.465183333333","25.0304066666667","6500100","板橋區"
"220053","285-VK","2017/07/17 19:09:55","新北市板橋區懷仁街32-3號","121.476508333333","25.0194783333333","6500100","板橋區"
"220083","286-VK","2017/07/17 19:09:43","新北市板橋區龍興街99巷2號","121.444261666667","25.0029916666667","6500100","板橋區"
"220081","287-VK","2017/07/17 19:09:47","新北市板橋區南雅西路二段110巷32號","121.452978333333","25.0126616666667","6500100","板橋區"
"220090","288-VK","2017/07/17 19:09:43","新北市板橋區裕民街54號","121.46141","25.0286516666667","6500100","板橋區"
"220061","293-UM","2017/07/17 19:09:52","新北市板橋區懷仁街91號","121.477508333333","25.0181966666667","6500100","板橋區"
"220084","296-UM","2017/07/17 19:09:36","新北市板橋區大觀路三段52號","121.432511666667","24.9959083333333","6500100","板橋區"
"220075","297-UM","2017/07/17 19:09:53","新北市板橋區南雅南路一段1巷34號","121.45724","25.0066166666667","6500100","板橋區"
"220062","303-R5","2017/07/17 19:09:39","新北市板橋區三民路二段245巷38號","121.480711666667","25.0125433333333","6500100","板橋區"
"220092","307-R5","2017/07/17 19:09:52","新北市板橋區文化路二段225巷60弄42號","121.469196666667","25.0293816666667","6500100","板橋區"
"220098","317-R6","2017/07/17 19:09:52","新北市板橋區自由路51巷14弄5號","121.464625","25.0237283333333","6500100","板橋區"
"220089","487-VK","2017/07/17 19:09:50","新北市板橋區文化路二段389號","121.473596666667","25.0315683333333","6500100","板橋區"
"220088","491-VK","2017/07/17 19:09:44","新北市板橋區文化路二段182巷1弄23號","121.471513333333","25.02816","6500100","板橋區"
"220035","560-BX","2017/07/17 19:09:52","新北市板橋區中正路332號","121.454288333333","25.022095","6500100","板橋區"
"220063","609-BX","2017/07/17 19:09:52","新北市板橋區三民路二段202-6號","121.479078333333","25.014425","6500100","板橋區"
"220091","637-BX","2017/07/17 19:09:44","新北市板橋區萬板路710號","121.481883333333","25.027175","6500100","板橋區"
"220057","686-BX","2017/07/17 19:09:45","新北市板橋區重慶路207號","121.462898333333","25.001595","6500100","板橋區"
"220077","687-BX","2017/07/17 19:09:53","新北市板橋區大觀路二段125-1號","121.445876666667","25.0013066666667","6500100","板橋區"
"220093","689-BX","2017/07/17 19:09:43","新北市板橋區民生路三段251號","121.464678333333","25.0292416666667","6500100","板橋區"
"220054","741-BX","2017/07/17 19:09:52","新北市板橋區重慶路93巷47號","121.463428333333","25.0059916666667","6500100","板橋區"
"220055","827-TW","2017/07/17 19:09:48","新北市板橋區中山路一段128號","121.463323333333","25.01094","6500100","板橋區"
"220067","829-TW","2017/07/17 19:09:53","新北市板橋區三民路二段正隆巷50號","121.476813333333","25.0139966666667","6500100","板橋區"
"220102","830-TW","2017/07/17 19:09:51","新北市板橋區田單街49巷1弄9號","121.482738333333","25.0285916666667","6500100","板橋區"
"220096","831-TW","2017/07/17 19:09:38","新北市板橋區雙十路二段47巷7號","121.476138333333","25.0258533333333","6500100","板橋區"
"220074","895-R6","2017/07/17 19:09:40","新北市板橋區文昌街1號","121.456025","25.0100633333333","6500100","板橋區"
"220073","985-R7","2017/07/17 19:09:53","新北市板橋區中正路187號","121.456498333333","25.01686","6500100","板橋區"
"220097","AAC-210","2017/07/17 19:09:48","新北市板橋區英士路153號","121.459646666667","25.0236333333333","6500100","板橋區"
"220070","AAC-253","2017/07/17 19:09:45","新北市板橋區四川路一段351號","121.458511666667","25.00008","6500100","板橋區"
