"lineid","car","time","location","longitude","latitude","cityid","cityname"
"234046","148-BY","2017/07/17 19:19:47","新北市永和區永元路18巷35號","121.523971666667","25.0002466666667","6500400","永和區"
"234013","149-BY","2017/07/17 19:19:57","新北市永和區信義路54巷3號","121.513271666667","25.0126083333333","6500400","永和區"
"234007","207-UY","2017/07/17 19:19:39","新北市永和區中山路一段224號","121.508118333333","25.0082466666667","6500400","永和區"
"234081","298-R6","2017/07/17 19:19:48","新北市永和區福和路42號","121.523706666667","25.0082916666667","6500400","永和區"
"234038","336-UY","2017/07/17 19:19:42","新北市永和區民樂街43巷2號","121.527498333333","24.99972","6500400","永和區"
"234064","337-UY","2017/07/17 19:19:38","新北市永和區得和路243巷28弄21號","121.521406666667","25.0010266666667","6500400","永和區"
"234086","338-UY","2017/07/17 19:19:43","新北市永和區永利路39號","121.51882","25.005555","6500400","永和區"
"234070","552-UM","2017/07/17 19:19:44","新北市永和區國光路28號","121.51839","25.00908","6500400","永和區"
"234054","553-UM","2017/07/17 19:19:39","新北市永和區中興街27號","121.516075","25.0119","6500400","永和區"
"234017","745-BX","2017/07/17 19:19:53","新北市永和區文化路90巷48號","121.512925","25.0167233333333","6500400","永和區"
"234030","746-BX","2017/07/17 19:19:52","新北市永和區得和路321號","121.5233","24.9996166666667","6500400","永和區"
"234061","AAD-866","2017/07/17 19:19:47","新北市永和區秀朗路一段175號","121.517051666667","25.0036783333333","6500400","永和區"
"234042","862-TW","2017/07/17 19:19:51","新北市永和區保平路151巷2弄6-2號","121.509693333333","25.0053366666667","6500400","永和區"
"234050","863-TW","2017/07/17 19:19:48","新北市永和區保福路二段105號","121.510295","25.0134066666667","6500400","永和區"
"234026","9371-KE","2017/07/17 19:19:43","新北市中和區安樂路207號","121.514381666667","24.998615","6500400","永和區"
"234011","9373-KE","2017/07/17 19:19:35","新北市永和區文化路90巷39號","121.512608333333","25.016705","6500400","永和區"
"249005","172-UM","2017/07/17 19:19:56","新北市八里區中華路163號","121.392503333333","25.1305","6502300","八里區"
"249001","759-BX","2017/07/17 19:19:53","新北市八里區中華路一段300號","121.414818333333","25.1547733333333","6502300","八里區"
"248016","026-BX","2017/07/17 19:18:26","新北市五股區成洲五路12號","121.45231","25.101525","6501500","五股區"
"248018","225-UY","2017/07/17 19:19:50","新北市五股區民義路一段255-6號","121.426003333333","25.09149","6501500","五股區"
"248012","247-BX","2017/07/17 19:19:50","新北市五股區中興路四段48巷16號","121.438673333333","25.0834233333333","6501500","五股區"
"248014","261-SL","2017/07/17 19:19:38","新北市五股區民義路一段107巷32號","121.432723333333","25.0845333333333","6501500","五股區"
"248010","272-BY","2017/07/17 19:19:52","新北市五股區水碓一路23號","121.430603333333","25.0712216666667","6501500","五股區"
"248004","677-BX","2017/07/17 19:19:53","新北市五股區五福路49號","121.432923333333","25.0895616666667","6501500","五股區"
"248002","678-BX","2017/07/17 19:19:55","新北市五股區凌雲路一段158巷6號","121.447803333333","25.1031083333333","6501500","五股區"
"234023","9380-KE","2017/07/17 19:19:54","新北市永和區竹林路109巷8號","121.520335","25.0119116666667","6500400","永和區"
"234077","969-R7","2017/07/17 19:19:49","新北市永和區民權路36巷19號","121.518875","24.9990066666667","6500400","永和區"
"234074","AAC-211","2017/07/17 19:19:38","新北市永和區竹林路90號","121.51947","25.0123116666667","6500400","永和區"
"234067","AAC-212","2017/07/17 19:19:55","新北市永和區永平路81巷12號","121.511728333333","25.0080766666667","6500400","永和區"
"234003","AAC-295","2017/07/17 19:19:37","新北市永和區中山路一段138-1號","121.510285","25.0098166666667","6500400","永和區"
"244013","069-UM","2017/07/17 19:19:48","新北市林口區麗園一街2巷1號","121.375561666667","25.0717516666667","6501700","林口區"
"244019","403-UM","2017/07/17 19:19:39","新北市林口區麗園二街1巷5-2號","121.377576666667","25.0700666666667","6501700","林口區"
"244023","483-VK","2017/07/17 19:19:39","新北市林口區民有街68號","121.372823333333","25.0770133333333","6501700","林口區"
"244011","701-TV","2017/07/17 19:19:38","新北市林口區中山路256號","121.385255","25.0796666666667","6501700","林口區"
"244025","837-TS","2017/07/17 19:18:39","新北市林口區嘉寶里45號","121.339323333333","25.10957","6501700","林口區"
"243013","AAD-798","2017/07/17 19:19:53","新北市泰山區明志路三段194號","121.424011666667","25.0386083333333","6501600","泰山區"
"243009","297-R6","2017/07/17 19:19:46","新北市泰山區明志路一段17號","121.433803333333","25.0658","6501600","泰山區"
"243015","380-SR","2017/07/17 19:19:35","新北市泰山區公園路36號","121.428941666667","25.0544366666667","6501600","泰山區"
"243014","421-VK","2017/07/17 19:19:54","新北市泰山區泰林路二段92號","121.434888333333","25.0587866666667","6501600","泰山區"
"243010","548-UM","2017/07/17 19:19:33","新北市泰山區明志路二段38號","121.429516666667","25.05313","6501600","泰山區"
"243011","549-UM","2017/07/17 19:19:51","新北市泰山區貴子路15巷4弄4號","121.42658","25.042135","6501600","泰山區"
"243012","646-TV","2017/07/17 19:19:49","新北市泰山區仁愛路100巷11號","121.433483333333","25.0552116666667","6501600","泰山區"
"243016","680-BX","2017/07/17 19:19:56","新北市泰山區工專路61號","121.422561666667","25.040375","6501600","泰山區"
"222003","436-BY","2017/07/17 19:19:52","新北市深坑區深南路91號","121.62642","25.016005","6501800","深坑區"
"222001","628-TS","2017/07/17 19:19:45","新北市深坑區北深路二段103號","121.617528333333","25.0034616666667","6501800","深坑區"
"222002","659-BX","2017/07/17 19:19:51","新北市深坑區北深路一段177號","121.632558333333","25.010895","6501800","深坑區"
"231041","002-UM","2017/07/17 19:19:41","新北市新店區溪園路245-6號","121.525355","24.9832733333333","6500600","新店區"
"231059","046-UY","2017/07/17 19:19:39","新北市新店區安和路三段23號","121.517903333333","24.9810116666667","6500600","新店區"
"231061","047-UY","2017/07/17 19:19:56","新北市新店區安康路一段148號","121.52643","24.963035","6500600","新店區"
"231060","106-UY","2017/07/17 19:19:36","新北市新店區安康路二段113號","121.512543333333","24.9617883333333","6500600","新店區"
"231051","107-UY","2017/07/17 19:19:36","新北市新店區中央路67號","121.532411666667","24.97699","6500600","新店區"
"231047","108-UY","2017/07/17 19:19:48","新北市新店區德正街27巷26號","121.545405","24.9710416666667","6500600","新店區"
"231052","187-VK","2017/07/17 19:19:49","新北市新店區自強路169號","121.54641","24.9208183333333","6500600","新店區"
"231063","268-BY","2017/07/17 19:19:54","新北市新店區達觀路16號","121.503161666667","24.940865","6500600","新店區"
"231046","278-BY","2017/07/17 19:19:44","新北市新店區華城路2號","121.530488333333","24.9605366666667","6500600","新店區"
"231050","AAD-862","2017/07/17 19:19:39","新北市新店區竹林路157號","121.55613","24.9481383333333","6500600","新店區"
"231058","3712-VJ","2017/07/17 19:19:48","新北市新店區北新路一段6號","121.540731666667","24.96532","6500600","新店區"
"231067","4772-VM","2017/07/17 19:19:40","新北市新店區安康路二段414巷2號","121.49579","24.9577416666667","6500600","新店區"
"231065","512-UM","2017/07/17 19:19:36","新北市新店區安祥路110巷27號","121.473408333333","24.9563516666667","6500600","新店區"
"231054","513-UM","2017/07/17 19:19:51","新北市新店區國校路51巷1號","121.53805","24.95466","6500600","新店區"
"231064","515-UM","2017/07/17 19:19:41","新北市新店區安忠路57巷26弄3號","121.513073333333","24.95875","6500600","新店區"
"231045","617-UM","2017/07/17 19:19:44","新北市新店區北宜路一段260號","121.54573","24.9527533333333","6500600","新店區"
"231040","619-UM","2017/07/17 19:19:40","新北市新店區三民路40號","121.536245","24.9715816666667","6500600","新店區"
"231042","641-BX","2017/07/17 19:19:50","新北市新店區中興路一段24號","121.538628333333","24.9584","6500600","新店區"
"231049","719-UM","2017/07/17 19:19:40","新北市新店區明德路111號","121.541496666667","24.9794716666667","6500600","新店區"
"231062","720-UM","2017/07/17 19:18:50","新北市新店區莒光路85巷1號","121.523288333333","24.956245","6500600","新店區"
"231044","897-TW","2017/07/17 19:19:50","新北市新店區寶慶街58巷2號","121.542073333333","24.986665","6500600","新店區"
"231043","899-TW","2017/07/17 19:19:54","新北市新店區寶橋路15號","121.543761666667","24.973945","6500600","新店區"
"231066","AKT-0513","2017/07/17 19:19:41","新北市新店區安康路三段355巷45號","121.48506","24.949385","6500600","新店區"
"241009","060-VK","2017/07/17 19:19:38","新北市三重區溪尾街230巷42-2號","121.486108333333","25.0811416666667","6500200","三重區"
"241031","061-VK","2017/07/17 19:19:47","新北市三重區重新路四段242號","121.48576","25.053795","6500200","三重區"
"241017","063-VK","2017/07/17 19:19:52","新北市三重區大同北路217號","121.491601666667","25.06602","6500200","三重區"
"241026","066-VK","2017/07/17 19:19:52","新北市三重區重安街148巷37號","121.496553333333","25.0548883333333","6500200","三重區"
"241022","267-UM","2017/07/17 19:19:54","新北市三重區中正北路66號","121.486666666667","25.064605","6500200","三重區"
"241032","269-UM","2017/07/17 19:19:46","新北市三重區新生街81號","121.48414","25.059385","6500200","三重區"
"241025","271-UM","2017/07/17 19:19:48","新北市三重區中正北路408巷2號","121.475328333333","25.0702916666667","6500200","三重區"
"241007","398-BY","2017/07/17 19:19:43","新北市三重區慈愛街45號","121.485898333333","25.0790583333333","6500200","三重區"
"241020","413-TH","2017/07/17 19:19:52","新北市三重區後竹圍街140號","121.487958333333","25.0725666666667","6500200","三重區"
"241035","462-BY","2017/07/17 19:19:42","新北市三重區大仁街27號","121.49235","25.06496","6500200","三重區"
"241030","480-VK","2017/07/17 19:19:51","新北市三重區成功路41巷72號","121.491313333333","25.0533016666667","6500200","三重區"
"241006","AAD-863","2017/07/17 19:19:50","新北市三重區車路頭街137號","121.484025","25.07621","6500200","三重區"
"241029","942-UM","2017/07/17 19:19:43","新北市三重區集美街228號","121.492198333333","25.055575","6500200","三重區"
"235066","003-UY","2017/07/17 19:19:47","新北市中和區中和路102號","121.50267","24.9997066666667","6500300","中和區"
"235064","005-UY","2017/07/17 19:19:55","新北市中和區中和路47號","121.500106666667","25.0013916666667","6500300","中和區"
"235063","006-UY","2017/07/17 19:18:42","新北市中和區中正路530號","121.487888333333","24.994545","6500300","中和區"
"235056","096-UM","2017/07/17 19:19:44","新北市中和區員山路521號","121.479735","25.006735","6500300","中和區"
"235039","097-UM","2017/07/17 19:19:52","新北市中和區景平路64巷14弄15號","121.522756666667","24.9913016666667","6500300","中和區"
"235065","098-UM","2017/07/17 19:19:55","新北市中和區中山路二段136巷13號","121.501581666667","25.0040233333333","6500300","中和區"
"235040","150-BY","2017/07/17 19:19:40","新北市中和區保健路56號","121.51063","24.9967516666667","6500300","中和區"
"235058","151-BY","2017/07/17 19:19:43","新北市中和區連城路477巷6弄11號","121.482696666667","24.995045","6500300","中和區"
"235055","183-VK","2017/07/17 19:19:45","新北市中和區德光路47號","121.470265","25.00408","6500300","中和區"
"235038","185-VK","2017/07/17 19:19:49","新北市中和區大仁街20巷43號","121.519155","24.99321","6500300","中和區"
"235013","186-VK","2017/07/17 19:19:52","新北市中和區景新街237號","121.508178333333","24.9945416666667","6500300","中和區"
"235067","255-BX","2017/07/17 19:19:48","新北市中和區新生街176巷19號","121.482575","24.9998933333333","6500300","中和區"
"235044","293-VK","2017/07/17 19:19:41","新北市中和區中興街214號","121.499596666667","24.9900333333333","6500300","中和區"
"235072","301-VK","2017/07/17 19:19:55","新北市中和區連城路265巷3號","121.491418333333","24.9961466666667","6500300","中和區"
"235043","352-BY","2017/07/17 19:19:48","新北市中和區景平路320號","121.512236666667","24.992795","6500300","中和區"
"235051","376-QA","2017/07/17 19:19:42","新北市中和區興南路一段73巷1號","121.510266666667","24.9891833333333","6500300","中和區"
"235068","377-QA","2017/07/17 16:14:39","新北市中和區員山路36巷16-3號","121.485268333333","24.9911483333333","6500300","中和區"
"235061","378-QA","2017/07/17 19:19:55","新北市中和區員山路263號","121.481326666667","24.9993316666667","6500300","中和區"
"235050","4979-A6","2017/07/17 19:19:22","新北市中和區復興路253號","121.503186666667","24.9901383333333","6500300","中和區"
"235069","4980-A6","2017/07/17 19:19:53","新北市中和區景平路736巷3弄11號","121.497573333333","25.00382","6500300","中和區"
"235042","551-UM","2017/07/17 19:19:36","新北市中和區大勇街45巷1號","121.518023333333","24.994915","6500300","中和區"
"235045","565-BX","2017/07/17 19:19:53","新北市中和區景新街439號","121.513331666667","24.989","6500300","中和區"
"235070","611-BX","2017/07/17 19:19:47","新北市中和區中和路32號","121.499858333333","25.0017033333333","6500300","中和區"
"235054","640-BX","2017/07/17 19:19:43","新北市中和區國光街109巷2弄13-1號","121.469288333333","25.0006183333333","6500300","中和區"
"235060","647-TV","2017/07/17 19:19:42","新北市中和區民有街35號","121.475838333333","25.005105","6500300","中和區"
"235047","732-UM","2017/07/17 19:19:45","新北市中和區和平街44號","121.508968333333","24.990605","6500300","中和區"
"235046","733-UM","2017/07/17 19:19:53","新北市中和區華新街109巷2號","121.508376666667","24.982705","6500300","中和區"
"235071","783-BX","2017/07/17 19:19:55","新北市中和區中正路637巷52弄3號","121.485195","24.9937016666667","6500300","中和區"
"235057","801-TS","2017/07/17 19:19:54","新北市中和區民利街68巷1弄1號","121.478465","24.99862","6500300","中和區"
"235041","802-TS","2017/07/17 19:19:50","新北市中和區宜安路170號","121.50881","24.9990583333333","6500300","中和區"
"235052","805-TS","2017/07/17 19:19:45","新北市中和區興南路二段142巷17弄17號","121.503198333333","24.9830466666667","6500300","中和區"
"235048","896-TW","2017/07/17 19:19:46","新北市中和區忠孝街54號","121.511425","24.9836","6500300","中和區"
"235053","900-TW","2017/07/17 19:19:49","新北市中和區民德路274號","121.467766666667","24.9964783333333","6500300","中和區"
"235037","AAC-213","2017/07/17 19:19:43","新北市中和區秀朗路三段10巷37弄4號","121.524133333333","24.9960483333333","6500300","中和區"
"235059","AAC-215","2017/07/17 19:19:43","新北市中和區錦和路195巷14號","121.491368333333","24.99095","6500300","中和區"
"220068","013-TV","2017/07/17 19:19:57","新北市板橋區萬安街103巷2號","121.483308333333","25.02471","6500100","板橋區"
"220065","072-UY","2017/07/17 19:19:43","新北市板橋區民族路170巷1號","121.467441666667","25.007525","6500100","板橋區"
"220086","073-UY","2017/07/17 19:19:42","新北市板橋區國光路173巷1弄2-2號","121.460478333333","25.018565","6500100","板橋區"
"220106","075-UY","2017/07/17 19:19:36","新北市板橋區雙十路三段39號","121.470663333333","25.03172","6500100","板橋區"
"247006","341-TH","2017/07/17 19:19:55","新北市五股區中興路三段163號","121.44906","25.080785","6501400","蘆洲區"
"247008","339-TH","2017/07/17 19:19:51","新北市蘆洲區永安南路二段268號","121.458553333333","25.0807333333333","6501400","蘆洲區"
"247002","336-TH","2017/07/17 18:54:28","新北市五股區中興路三段163號","121.449173333333","25.080835","6501400","蘆洲區"
"247014","057-VK","2017/07/17 19:19:37","新北市蘆洲區民權路54-1號","121.475435","25.087","6501400","蘆洲區"
"226004","312-R5","2017/07/17 19:19:36","新北市平溪區十分里十分街106號","121.77671","25.04281","6502400","平溪區"
"228003","097-TW","2017/07/17 19:19:52","新北市貢寮區和美里和美街22-1號","121.912768333333","25.0826416666667","6502600","貢寮區"
"228002","585-TW","2017/07/17 19:19:53","新北市貢寮區龍門里復興街27號","121.92715","25.0276233333333","6502600","貢寮區"
"228001","670-TC","2017/07/17 19:19:48","新北市貢寮區真理里新港街26巷6-3號","121.925673333333","25.0545766666667","6502600","貢寮區"
"224010","AGQ-8101","2017/07/17 19:19:47","新北市瑞芳區汽車路18號","121.845358333333","25.10995","6501200","瑞芳區"
"224006","676-BX","2017/07/17 19:19:48","新北市瑞芳區中山路107號","121.803265","25.1063333333333","6501200","瑞芳區"
"224009","285-BY","2017/07/17 19:19:55","新北市瑞芳區洞頂路101巷13號","121.860668333333","25.1208333333333","6501200","瑞芳區"
"224008","275-VK","2017/07/17 19:19:42","新北市瑞芳區一坑路70-5號","121.803573333333","25.1081016666667","6501200","瑞芳區"
"224005","271-BY","2017/07/17 19:19:55","新北市瑞芳區逢甲路84號","121.809621666667","25.1088616666667","6501200","瑞芳區"
"227008","642-TC","2017/07/17 19:19:55","新北市雙溪區新基里新基北街40號","121.868503333333","25.0380633333333","6502500","雙溪區"
"227001","400-TW","2017/07/17 19:19:48","新北市雙溪區平林里梅竹蹊43號","121.860116666667","25.0358183333333","6502500","雙溪區"
"253006","032-BX","2017/07/17 19:19:37","新北市石門區崁子腳25-1號","121.53503","25.290795","6502200","石門區"
"253005","741-TV","2017/07/17 19:19:39","新北市石門區阿里荖28-1號","121.607355","25.2806116666667","6502200","石門區"
"208003","665-BX","2017/07/17 19:19:40","新北市金山區忠孝一路56號","121.637536666667","25.2204483333333","6502700","金山區"
"208001","761-BX","2017/07/17 19:19:51","新北市金山區民生路222-1號","121.640056666667","25.2196616666667","6502700","金山區"
"251009","008-UM","2017/07/17 19:12:16","新北市淡水區中正路39號","121.442181666667","25.1694916666667","6501000","淡水區"
"251001","011-UM","2017/07/17 19:19:49","新北市淡水區自強路201巷39號","121.4621","25.1268416666667","6501000","淡水區"
"251007","179-VK","2017/07/17 19:19:51","新北市淡水區中正東路二段161巷8弄13號","121.461588333333","25.1456583333333","6501000","淡水區"
"251013","182-VK","2017/07/17 19:19:36","新北市淡水區安子內12號","121.481533333333","25.2190916666667","6501000","淡水區"
"251010","413-VK","2017/07/17 19:19:49","新北市淡水區沙崙路30號","121.421486666667","25.18151","6501000","淡水區"
"251015","442-VK","2017/07/17 19:19:51","新北市淡水區山子邊16巷4號","121.485775","25.1823933333333","6501000","淡水區"
"251005","443-VK","2017/07/17 19:19:52","新北市淡水區水源街一段34巷2號","121.443306666667","25.1721733333333","6501000","淡水區"
"251011","650-BX","2017/07/17 19:19:51","新北市淡水區中正東路二段143巷2弄1號","121.460708333333","25.1473916666667","6501000","淡水區"
"251002","672-BX","2017/07/17 19:19:58","新北市淡水區中正路358號","121.43428","25.1742316666667","6501000","淡水區"
"251003","766-UM","2017/07/17 19:19:49","新北市淡水區中山路162號","121.44107","25.1736633333333","6501000","淡水區"
"207003","550-UM","2017/07/17 19:19:37","新北市萬里區大鵬里萬里加投79-3號","121.647385","25.2123366666667","6502800","萬里區"
"207004","225-TW","2017/07/17 19:19:44","新北市萬里區萬里里成功新村44號","121.687568333333","25.17467","6502800","萬里區"
"252002","178-VK","2017/07/17 19:19:41","新北市三芝區埔坪里埔頭坑84號","121.508241666667","25.2542783333333","6502100","三芝區"
"252003","249-BX","2017/07/17 19:19:46","新北市三芝區埔頭里埔頭15-6號","121.495788333333","25.2599416666667","6502100","三芝區"
"252001","292-VK","2017/07/17 19:19:45","新北市三芝區長勤街9巷14號","121.5017","25.2549783333333","6502100","三芝區"
"208002","170-UY","2017/07/17 18:54:41","新北市金山區信義路28號","121.635501666667","25.21987","6502700","金山區"
"237004","078-UY","2017/07/17 19:19:51","新北市三峽區有木205-1號","121.439061666667","24.8514833333333","6500900","三峽區"
"237007","153-BY","2017/07/17 19:19:39","新北市三峽區中正路二段42巷84號","121.364245","24.920545","6500900","三峽區"
"237009","210-TH","2017/07/17 19:19:41","新北市三峽區民生街157號","121.372718333333","24.9347883333333","6500900","三峽區"
"237013","252-BX","2017/07/17 19:19:55","新北市三峽區光明路75巷22號","121.377626666667","24.9282616666667","6500900","三峽區"
"237012","275-BY","2017/07/17 19:19:55","新北市三峽區三樹路222巷254弄15號","121.39218","24.9440266666667","6500900","三峽區"
"237008","302-VK","2017/07/17 19:19:47","新北市三峽區光明路100-6號","121.376121666667","24.927985","6500900","三峽區"
"237014","433-BY","2017/07/17 19:19:56","新北市三峽區中山路257巷39號","121.362095","24.9364766666667","6500900","三峽區"
"237006","5529-G3","2017/07/17 19:19:45","新北市三峽區橫溪路76號","121.397391666667","24.93529","6500900","三峽區"
"237011","572-TV","2017/07/17 19:18:23","新北市三峽區中正路一段100號","121.374263333333","24.9296433333333","6500900","三峽區"
"237015","649-BX","2017/07/17 19:19:38","新北市三峽區建安71號","121.449115","24.925985","6500900","三峽區"
"237010","706-TV","2017/07/17 19:18:00","新北市三峽區民生街60號","121.375198333333","24.936285","6500900","三峽區"
"237005","AKY-6261","2017/07/17 19:19:52","新北市三峽區中山路459巷36號","121.357328333333","24.9378266666667","6500900","三峽區"
"236069","105-UM","2017/07/17 19:19:56","新北市土城區學成路118號","121.449558333333","24.9893716666667","6501300","土城區"
"236078","166-UM","2017/07/17 19:19:46","新北市土城區龍泉路8號","121.409501666667","24.9499016666667","6501300","土城區"
"236026","269-VK","2017/07/17 19:19:48","新北市土城區中央路二段143號","121.442006666667","24.976815","6501300","土城區"
"236014","270-VK","2017/07/17 19:19:52","新北市土城區廣福街5號","121.45724","24.98881","6501300","土城區"
"236020","401-BY","2017/07/17 19:19:49","新北市土城區峰廷街3號","121.469121666667","24.9873683333333","6501300","土城區"
"236058","912-UM","2017/07/17 19:19:42","新北市土城區金城路一段5號","121.43928","24.9689183333333","6501300","土城區"
"236048","913-UM","2017/07/17 19:19:49","新北市土城區明德路一段398-1號","121.453648333333","24.979095","6501300","土城區"
"242002","413-TV","2017/07/17 19:19:53","新北市新莊區新泰路357巷3弄57號","121.442113333333","25.0395083333333","6500500","新莊區"
"238015","755-BX","2017/07/17 19:19:52","新北市樹林區備內街53號","121.4119","24.987635","6500700","樹林區"
"238023","601-UM","2017/07/17 19:19:48","新北市樹林區三興路39號","121.395971666667","25.0145583333333","6500700","樹林區"
"238019","599-UM","2017/07/17 19:19:52","新北市樹林區東榮街86號","121.416018333333","24.9826616666667","6500700","樹林區"
"238018","571-TV","2017/07/17 19:19:51","新北市樹林區中華路211號","121.419803333333","24.9815083333333","6500700","樹林區"
"238024","5061-A6","2017/07/17 19:19:38","新北市樹林區福德街17號","121.400978333333","24.9760816666667","6500700","樹林區"
"238022","312-TH","2017/07/17 19:19:41","新北市樹林區中山路二段151巷6弄11號","121.406248333333","24.9782116666667","6500700","樹林區"
"238021","311-TH","2017/07/17 19:16:14","新北市樹林區柑園街二段342巷37號","121.371385","24.9521066666667","6500700","樹林區"
"238025","303-VK","2017/07/17 19:19:43","新北市樹林區中山路二段203號","121.404098333333","24.977305","6500700","樹林區"
"238017","283-BY","2017/07/17 19:18:48","新北市樹林區光興街376巷1號","121.406198333333","25.0057333333333","6500700","樹林區"
"238014","282-BY","2017/07/17 19:19:50","新北市樹林區中正路22-1號","121.427706666667","24.99945","6500700","樹林區"
"238020","268-VK","2017/07/17 19:19:47","新北市樹林區俊英街155巷1號","121.424256666667","25.0122483333333","6500700","樹林區"
"238026","172-UY","2017/07/17 19:19:36","新北市樹林區佳園路二段157-1號","121.389906666667","24.9569283333333","6500700","樹林區"
"238016","169-UY","2017/07/17 19:19:37","新北市樹林區備前街50號","121.416618333333","24.986035","6500700","樹林區"
"239007","AAC-297","2017/07/17 19:19:55","新北市鶯歌區大湖路173號","121.34401","24.9681083333333","6500800","鶯歌區"
"239006","891-R6","2017/07/17 19:19:42","新北市鶯歌區鶯桃路173號","121.336786666667","24.9554433333333","6500800","鶯歌區"
"239008","527-UM","2017/07/17 19:19:45","新北市鶯歌區國際二路6巷14號","121.338838333333","24.973805","6500800","鶯歌區"
"239005","526-UM","2017/07/17 19:19:47","新北市鶯歌區中湖街4號","121.346456666667","24.9728933333333","6500800","鶯歌區"
"239001","417-VK","2017/07/17 19:19:39","新北市鶯歌區鶯桃路95巷76號","121.337161666667","24.95283","6500800","鶯歌區"
"239003","360-BY","2017/07/17 19:19:55","新北市鶯歌區八德路29號","121.335796666667","24.9512233333333","6500800","鶯歌區"
"239004","193-VK","2017/07/17 19:19:57","新北市鶯歌區中正三路鄭厝巷15號","121.332688333333","24.933745","6500800","鶯歌區"
"221008","489-VK","2017/07/17 19:19:39","新北市汐止區康寧街356號","121.628183333333","25.0675366666667","6501100","汐止區"
"221036","130-UY","2017/07/17 19:19:49","新北市汐止區汐萬路一段256巷3號","121.65256","25.0745116666667","6501100","汐止區"
"221015","131-UY","2017/07/17 19:19:54","新北市汐止區康寧街901號","121.651416666667","25.0749883333333","6501100","汐止區"
"221031","277-VK","2017/07/17 19:19:57","新北市汐止區伯爵街1巷10號","121.641441666667","25.07515","6501100","汐止區"
"221012","278-VK","2017/07/17 19:19:45","新北市汐止區汐萬路一段310號","121.650455","25.0749616666667","6501100","汐止區"
"221023","279-VK","2017/07/17 14:58:18","新北市汐止區林森街124號","121.624751666667","25.0406333333333","6501100","汐止區"
"221027","281-BY","2017/07/17 18:57:46","新北市汐止區康寧街901號","121.650868333333","25.0752666666667","6501100","汐止區"
"221038","297-VK","2017/07/17 19:19:35","新北市汐止區康寧街901號","121.650716666667","25.0753216666667","6501100","汐止區"
"221029","298-VK","2017/07/17 19:19:44","新北市汐止區康寧街901號","121.651546666667","25.0749783333333","6501100","汐止區"
"221021","299-VK","2017/07/17 19:06:00","新北市汐止區汐萬路一段256巷3號","121.652196666667","25.075195","6501100","汐止區"
"221035","622-UM","2017/07/17 19:19:52","新北市汐止區康寧街901號","121.651141666667","25.07521","6501100","汐止區"
"221025","623-UM","2017/07/17 19:19:55","新北市汐止區汐萬路一段312號","121.650433333333","25.0751083333333","6501100","汐止區"
"221033","647-BX","2017/07/17 19:19:42","新北市汐止區南勢街1巷1號","121.627081666667","25.0374816666667","6501100","汐止區"
"221002","707-TV","2017/07/17 19:19:43","新北市汐止區大同路一段319號","121.637945","25.059215","6501100","汐止區"
"220079","145-BY","2017/07/17 19:19:52","新北市板橋區民權路202巷13弄34號","121.458683333333","25.016335","6500100","板橋區"
"220080","200-UY","2017/07/17 19:19:49","新北市板橋區大觀路二段1巷16號","121.449003333333","25.0037783333333","6500100","板橋區"
"220082","610-BX","2017/07/17 19:19:58","新北市板橋區溪崑二街134號","121.425878333333","24.98773","6500100","板橋區"
"220101","245-BX","2017/07/17 19:19:46","新北市板橋區莊敬路65-2號","121.474183333333","25.0268816666667","6500100","板橋區"
"220103","257-TC","2017/07/17 19:19:55","新北市板橋區介壽街17號","121.467736666667","25.0201533333333","6500100","板橋區"
"220069","258-TC","2017/07/17 19:19:37","新北市板橋區四川路一段106號","121.459698333333","25.00458","6500100","板橋區"
"220056","276-BY","2017/07/17 19:19:42","新北市板橋區信義路147號","121.458118333333","24.9929616666667","6500100","板橋區"
"220072","277-BY","2017/07/17 19:19:36","新北市板橋區金門街337巷7弄23號","121.430588333333","24.9852016666667","6500100","板橋區"
"220064","280-UM","2017/07/17 19:19:54","新北市板橋區板新路180號","121.469756666667","25.0159216666667","6500100","板橋區"
"220071","283-VK","2017/07/17 19:19:56","新北市板橋區重慶路245巷50弄55號","121.465186666667","24.9992966666667","6500100","板橋區"
"220094","285-UM","2017/07/17 19:19:57","新北市板橋區吳鳳路23號","121.467025","25.031165","6500100","板橋區"
"220053","285-VK","2017/07/17 19:19:41","新北市板橋區富山街5號","121.47856","25.021515","6500100","板橋區"
"220083","286-VK","2017/07/17 19:19:44","新北市板橋區大觀路二段174巷186弄16號","121.442948333333","25.00338","6500100","板橋區"
"220081","287-VK","2017/07/17 19:19:47","新北市板橋區南雅西路一段126號","121.452593333333","25.0068333333333","6500100","板橋區"
"220090","288-VK","2017/07/17 19:19:56","新北市板橋區長江路一段106巷13弄27號","121.461158333333","25.0296516666667","6500100","板橋區"
"220061","293-UM","2017/07/17 19:19:52","新北市板橋區中山路二段318巷24號","121.480511666667","25.0186766666667","6500100","板橋區"
"220084","296-UM","2017/07/17 19:19:56","新北市板橋區溪崑二街56巷20號","121.427931666667","24.9912133333333","6500100","板橋區"
"220075","297-UM","2017/07/17 19:19:42","新北市板橋區南雅西路一段10巷7弄13號","121.454178333333","25.004325","6500100","板橋區"
"220062","303-R5","2017/07/17 19:19:51","新北市板橋區三民路二段居仁巷2弄22號","121.479753333333","25.0128483333333","6500100","板橋區"
"220092","307-R5","2017/07/17 19:19:52","新北市板橋區光武街48巷49號","121.468353333333","25.02714","6500100","板橋區"
"220098","317-R6","2017/07/17 19:19:52","新北市板橋區民有街79號","121.464973333333","25.027275","6500100","板橋區"
"220089","487-VK","2017/07/17 19:19:50","新北市板橋區文化路一段407號","121.467361666667","25.0220583333333","6500100","板橋區"
"220088","491-VK","2017/07/17 19:19:51","新北市板橋區雙十路二段32號","121.476215","25.02722","6500100","板橋區"
"220035","560-BX","2017/07/17 19:19:41","新北市板橋區新生街89巷38號","121.456563333333","25.022515","6500100","板橋區"
"220063","609-BX","2017/07/17 19:19:45","新北市板橋區三民路一段31巷19號","121.480141666667","25.0233916666667","6500100","板橋區"
"220091","637-BX","2017/07/17 19:19:42","新北市板橋區萬板路476號","121.479945","25.0259733333333","6500100","板橋區"
"220057","686-BX","2017/07/17 19:19:45","新北市板橋區重慶路342號","121.464161666667","24.9974566666667","6500100","板橋區"
"220077","687-BX","2017/07/17 19:19:54","新北市板橋區僑中二街2號","121.447323333333","25.01142","6500100","板橋區"
"220093","689-BX","2017/07/17 19:18:23","新北市板橋區民生路三段11號","121.46732","25.0236766666667","6500100","板橋區"
"220054","741-BX","2017/07/17 19:19:52","新北市板橋區重慶路78號","121.46179","25.0063433333333","6500100","板橋區"
"220055","827-TW","2017/07/17 19:19:48","新北市板橋區館前東路156巷9號","121.46435","25.0072066666667","6500100","板橋區"
"220067","829-TW","2017/07/17 19:19:53","新北市板橋區長安街138巷1弄234號","121.474556666667","25.0107416666667","6500100","板橋區"
"220102","830-TW","2017/07/17 19:19:51","新北市板橋區文聖街185號","121.479658333333","25.0269633333333","6500100","板橋區"
"220096","831-TW","2017/07/17 19:19:38","新北市板橋區大同街8巷41號","121.477826666667","25.0261716666667","6500100","板橋區"
"220074","895-R6","2017/07/17 19:19:40","新北市板橋區中正路自強新村45-1號","121.454668333333","25.0140033333333","6500100","板橋區"
"220073","985-R7","2017/07/17 19:19:53","新北市板橋區新生街96號","121.458425","25.0220966666667","6500100","板橋區"
"220097","AAC-210","2017/07/17 19:19:52","新北市板橋區漢生西路89巷3弄9號","121.461346666667","25.0195166666667","6500100","板橋區"
"220070","AAC-253","2017/07/17 19:19:45","新北市板橋區忠孝路28號","121.460301666667","25.0018766666667","6500100","板橋區"
