"lineid","car","time","location","longitude","latitude","cityid","cityname"
"234046","148-BY","2017/07/17 20:19:47","新北市永和區成功路二段93號","121.52675","24.9992116666667","6500400","永和區"
"234013","149-BY","2017/07/17 20:19:37","新北市永和區保生路40巷1號","121.505735","25.008355","6500400","永和區"
"234007","207-UY","2017/07/17 20:19:39","新北市永和區仁愛路264號","121.504505","25.008775","6500400","永和區"
"234081","298-R6","2017/07/17 20:19:41","新北市永和區國中路104巷2弄1號","121.524403333333","25.0067283333333","6500400","永和區"
"234038","336-UY","2017/07/17 20:19:41","新北市永和區成功路一段93巷20弄2號","121.528315","25.002665","6500400","永和區"
"234064","337-UY","2017/07/17 20:19:44","新北市永和區得和路160號","121.519196666667","25.0001366666667","6500400","永和區"
"234086","338-UY","2017/07/17 20:19:43","新北市永和區福和路271號","121.517638333333","25.0074083333333","6500400","永和區"
"234070","552-UM","2017/07/17 20:19:41","新北市永和區永寧街89號","121.51895","25.0066366666667","6500400","永和區"
"234054","553-UM","2017/07/17 20:19:40","新北市永和區光復街2巷16弄20-2號","121.517395","25.016315","6500400","永和區"
"234017","745-BX","2017/07/17 20:19:53","新北市永和區仁愛路35號","121.51418","25.0133366666667","6500400","永和區"
"234030","746-BX","2017/07/17 20:19:52","新北市中和區立人街14巷47號","121.519043333333","24.995565","6500400","永和區"
"234061","AAD-866","2017/07/17 20:19:47","新北市永和區得和路9號","121.515165","25.000605","6500400","永和區"
"234042","862-TW","2017/07/17 20:19:51","新北市中和區中安街168號","121.510836666667","24.9999166666667","6500400","永和區"
"234050","863-TW","2017/07/17 20:19:48","新北市永和區環河西路二段9號","121.508766666667","25.0166266666667","6500400","永和區"
"249005","172-UM","2017/07/17 20:19:37","新北市八里區下罟子8-1號","121.385543333333","25.1397666666667","6502300","八里區"
"249004","303-UY","2017/07/17 20:19:48","新北市八里區中山路一段370號","121.41231","25.158705","6502300","八里區"
"249002","305-UY","2017/07/17 20:19:36","新北市八里區龍米路一段308號","121.45158","25.12991","6502300","八里區"
"249003","593-UM","2017/07/17 20:19:43","新北市八里區中山路二段447巷15號","121.397031666667","25.1454666666667","6502300","八里區"
"249001","759-BX","2017/07/17 20:19:46","新北市八里區中華路二段468號","121.400676666667","25.1460166666667","6502300","八里區"
"248012","247-BX","2017/07/17 20:19:50","新北市五股區六合街52號","121.43238","25.08963","6501500","五股區"
"248002","678-BX","2017/07/17 20:19:35","新北市五股區成泰路三段169號","121.445225","25.0918766666667","6501500","五股區"
"234023","9380-KE","2017/07/17 20:19:34","新北市永和區復興街2巷4號","121.515733333333","25.0125916666667","6500400","永和區"
"234077","969-R7","2017/07/17 20:19:38","新北市永和區民享街8號","121.515168333333","24.9954766666667","6500400","永和區"
"234074","AAC-211","2017/07/17 20:19:38","新北市永和區竹林路201巷22弄1號","121.521973333333","25.0093333333333","6500400","永和區"
"234067","AAC-212","2017/07/17 20:19:55","新北市永和區保平路212號","121.509751666667","25.0058783333333","6500400","永和區"
"234003","AAC-295","2017/07/17 20:19:37","新北市永和區自強街19巷3號","121.51478","25.0084366666667","6500400","永和區"
"243013","AAD-798","2017/07/17 20:19:53","新北市泰山區新民路14巷2弄2號","121.426255","25.0445766666667","6501600","泰山區"
"243009","297-R6","2017/07/17 20:19:55","新北市泰山區泰林路二段292巷13號","121.431208333333","25.06372","6501600","泰山區"
"243015","380-SR","2017/07/17 20:19:14","新北市泰山區仁愛路94號","121.433213333333","25.0552783333333","6501600","泰山區"
"243014","421-VK","2017/07/17 20:19:39","新北市泰山區泰林路二段416號","121.42714","25.06431","6501600","泰山區"
"243010","548-UM","2017/07/17 20:19:53","新北市泰山區明志路二段246巷9號","121.426466666667","25.04766","6501600","泰山區"
"243011","549-UM","2017/07/17 20:19:51","新北市泰山區壽山路134巷18號","121.418376666667","25.031035","6501600","泰山區"
"243012","646-TV","2017/07/17 20:19:50","新北市泰山區文化街42號","121.435231666667","25.0634833333333","6501600","泰山區"
"243016","680-BX","2017/07/17 20:19:47","新北市泰山區新生路21號","121.42716","25.0455616666667","6501600","泰山區"
"222003","436-BY","2017/07/17 20:19:32","新北市深坑區文化街74號","121.61814","25.0018966666667","6501800","深坑區"
"222001","628-TS","2017/07/17 20:19:45","新北市深坑區北深路三段234號","121.600386666667","25.00409","6501800","深坑區"
"222002","659-BX","2017/07/17 20:19:51","新北市深坑區萬福路75巷8號","121.600273333333","25.0094433333333","6501800","深坑區"
"231041","002-UM","2017/07/17 20:19:41","新北市新店區民權路44號","121.54022","24.9829166666667","6500600","新店區"
"231056","0293-UT","2017/07/17 20:19:40","新北市新店區中正路275巷35號","121.536726666667","24.9728633333333","6500600","新店區"
"231059","046-UY","2017/07/17 20:19:43","新北市新店區安德街154號","121.50826","24.959675","6500600","新店區"
"231061","047-UY","2017/07/17 20:19:36","新北市新店區安興路33-1號","121.515843333333","24.9704566666667","6500600","新店區"
"231060","106-UY","2017/07/17 20:19:36","新北市新店區安康路三段578-2號","121.480346666667","24.94821","6500600","新店區"
"231051","107-UY","2017/07/17 20:19:36","新北市新店區中央六街55號","121.52798","24.9758683333333","6500600","新店區"
"231047","108-UY","2017/07/17 20:19:48","新北市新店區寶橋路80號","121.546263333333","24.9756483333333","6500600","新店區"
"231052","187-VK","2017/07/17 20:19:49","新北市新店區松林路9號","121.54721","24.9110483333333","6500600","新店區"
"231057","256-BX","2017/07/17 20:19:43","新北市新店區花園五路二段11號","121.55387","24.9342433333333","6500600","新店區"
"231063","268-BY","2017/07/17 20:19:34","新北市新店區車子路1-1號","121.504731666667","24.9577466666667","6500600","新店區"
"231050","AAD-862","2017/07/17 20:19:39","新北市新店區北新路一段43號","121.538028333333","24.9594316666667","6500600","新店區"
"231055","3713-VJ","2017/07/17 20:19:35","新北市新店區新明街9號","121.540985","24.96824","6500600","新店區"
"231067","4772-VM","2017/07/17 20:19:40","新北市新店區溪洲路8巷66號","121.533298333333","24.9624766666667","6500600","新店區"
"231065","512-UM","2017/07/17 20:19:36","新北市新店區安祥路104-7號","121.47964","24.9622183333333","6500600","新店區"
"231054","513-UM","2017/07/17 20:19:51","新北市新店區檳榔路109號","121.544413333333","24.96166","6500600","新店區"
"231064","515-UM","2017/07/17 20:19:41","新北市新店區安和路二段166號","121.519706666667","24.973775","6500600","新店區"
"231045","617-UM","2017/07/17 20:19:44","新北市新店區新坡一街80-3號","121.547796666667","24.9642116666667","6500600","新店區"
"231040","619-UM","2017/07/17 20:19:45","新北市新店區中正路211號","121.539898333333","24.972625","6500600","新店區"
"231042","641-BX","2017/07/17 20:19:50","新北市新店區中興路二段233號","121.547695","24.9750616666667","6500600","新店區"
"231068","718-UY","2017/07/17 20:19:54","新北市新店區北新路三段120號","121.542041666667","24.9816816666667","6500600","新店區"
"231049","719-UM","2017/07/17 20:19:40","新北市新店區北新路二段59巷11號","121.542511666667","24.9734866666667","6500600","新店區"
"231062","720-UM","2017/07/17 20:19:41","新北市新店區安泰路7巷16號","121.48569","24.950985","6500600","新店區"
"231044","897-TW","2017/07/17 20:17:10","新北市新店區寶慶街68號","121.541818333333","24.9867066666667","6500600","新店區"
"231043","899-TW","2017/07/17 20:19:34","新北市新店區民族路71-1號","121.539303333333","24.97808","6500600","新店區"
"231066","AKT-0513","2017/07/17 20:19:41","新北市新店區安民街337號","121.517255","24.9749666666667","6500600","新店區"
"241011","013-R5","2017/07/17 20:19:34","新北市三重區龍門路240號","121.500726666667","25.0737183333333","6500200","三重區"
"241028","022-UY","2017/07/17 20:19:50","新北市三重區大同南路127-2號","121.496433333333","25.05797","6500200","三重區"
"241009","060-VK","2017/07/17 20:19:38","新北市三重區三和路四段382巷38號","121.48148","25.078505","6500200","三重區"
"241031","061-VK","2017/07/17 20:19:47","新北市三重區三寧街18號","121.489296666667","25.059815","6500200","三重區"
"241015","062-VK","2017/07/17 20:19:35","新北市三重區重新路一段122號","121.500386666667","25.0629016666667","6500200","三重區"
"241017","063-VK","2017/07/17 20:19:52","新北市三重區民生街84號","121.490048333333","25.0643716666667","6500200","三重區"
"241024","065-VK","2017/07/17 20:19:38","新北市三重區忠孝路三段18號","121.481663333333","25.0672466666667","6500200","三重區"
"241026","066-VK","2017/07/17 20:19:52","新北市三重區中央南路62-1號","121.501436666667","25.061355","6500200","三重區"
"241002","090-VK","2017/07/17 20:19:41","新北市三重區仁義街167巷55號","121.498948333333","25.0824366666667","6500200","三重區"
"241003","091-VK","2017/07/17 20:19:49","新北市三重區富華街27號","121.49052","25.08299","6500200","三重區"
"241019","156-TC","2017/07/17 20:19:51","新北市三重區自強路二段41號","121.489405","25.0697116666667","6500200","三重區"
"241016","266-UM","2017/07/17 20:19:37","新北市三重區大同北路97-2號","121.494488333333","25.0635783333333","6500200","三重區"
"241022","267-UM","2017/07/17 20:19:54","新北市三重區市前街4號","121.489053333333","25.0620366666667","6500200","三重區"
"241018","268-UM","2017/07/17 20:19:52","新北市三重區雙園街142號","121.4938","25.0672066666667","6500200","三重區"
"241032","269-UM","2017/07/17 20:19:46","新北市三重區捷運路19巷8弄19號","121.48422","25.057255","6500200","三重區"
"241013","270-UM","2017/07/17 20:19:33","新北市三重區三和路三段155號","121.491935","25.073725","6500200","三重區"
"241025","271-UM","2017/07/17 20:19:52","新北市三重區三民街281號","121.47908","25.0683933333333","6500200","三重區"
"241007","398-BY","2017/07/17 20:19:43","新北市三重區溪尾街108巷54號","121.487381666667","25.0780583333333","6500200","三重區"
"241008","412-TH","2017/07/17 20:19:46","新北市三重區永福街211巷4號","121.479851666667","25.0740716666667","6500200","三重區"
"241020","413-TH","2017/07/17 20:19:52","新北市三重區三和路三段142號","121.49338","25.0726116666667","6500200","三重區"
"241035","462-BY","2017/07/17 20:19:41","新北市三重區正義北路33巷55號","121.49915","25.0638983333333","6500200","三重區"
"241004","475-VK","2017/07/17 20:19:39","新北市三重區溪尾街165巷43號","121.490453333333","25.0803183333333","6500200","三重區"
"241030","480-VK","2017/07/17 20:19:51","新北市三重區集美街89巷23號","121.488223333333","25.0526966666667","6500200","三重區"
"241014","543-UM","2017/07/17 20:19:44","新北市三重區河邊北街96-1號","121.504071666667","25.0699283333333","6500200","三重區"
"241023","545-UM","2017/07/17 20:19:46","新北市三重區忠孝路三段99巷11號","121.48009","25.0645483333333","6500200","三重區"
"241006","AAD-863","2017/07/17 20:19:50","新北市三重區車路頭街139巷14號","121.484285","25.076205","6500200","三重區"
"241001","887-TS","2017/07/17 20:19:34","新北市三重區自強路四段3巷17號","121.48946","25.0761683333333","6500200","三重區"
"241012","941-UM","2017/07/17 20:19:39","新北市三重區河邊北街262號","121.501698333333","25.07643","6500200","三重區"
"241029","942-UM","2017/07/17 20:19:43","新北市三重區重安街98號","121.492641666667","25.0562483333333","6500200","三重區"
"241033","AAC-255","2017/07/17 20:19:44","新北市三重區五谷王北街42巷2號","121.475663333333","25.0492966666667","6500200","三重區"
"235066","003-UY","2017/07/17 20:19:47","新北市中和區南工路105號","121.507353333333","25.00387","6500300","中和區"
"235039","097-UM","2017/07/17 20:19:52","新北市中和區大勇街25巷1號","121.517141666667","24.9931733333333","6500300","中和區"
"235065","098-UM","2017/07/17 20:19:54","新北市中和區永和路120號","121.496565","25.006375","6500300","中和區"
"235040","150-BY","2017/07/17 20:19:40","新北市中和區保健路33巷8號","121.508976666667","24.9979083333333","6500300","中和區"
"235055","183-VK","2017/07/17 20:19:54","新北市中和區德光路55號","121.469955","25.0038783333333","6500300","中和區"
"235044","293-VK","2017/07/17 20:19:41","新北市中和區南山路148號","121.504085","24.9922766666667","6500300","中和區"
"235072","301-VK","2017/07/17 20:19:35","新北市八里區荖阡坑路4-23號","121.397951666667","25.1431666666667","6500300","中和區"
"235068","377-QA","2017/07/17 20:19:24","新北市中和區福祥路85巷2弄10號","121.49874","25.0061466666667","6500300","中和區"
"235050","4979-A6","2017/07/17 20:19:42","新北市中和區景平路225號","121.510331666667","24.9927","6500300","中和區"
"235069","4980-A6","2017/07/17 20:19:55","新北市中和區中正路432巷12號","121.491161666667","24.9949983333333","6500300","中和區"
"235041","802-TS","2017/07/17 20:19:53","新北市中和區安平路104號","121.51164","24.9973066666667","6500300","中和區"
"235037","AAC-213","2017/07/17 20:19:43","新北市中和區秀朗路三段173-2號","121.5244","24.9914316666667","6500300","中和區"
"235059","AAC-215","2017/07/17 20:19:43","新北市中和區圓通路367巷6號","121.49148","24.9891883333333","6500300","中和區"
"247020","893-R6","2017/07/17 20:19:54","新北市蘆洲區水湳街395號","121.469245","25.0942866666667","6501400","蘆洲區"
"247010","546-UM","2017/07/17 20:19:48","新北市蘆洲區信義路188巷16號","121.480288333333","25.0845116666667","6501400","蘆洲區"
"247018","500-BY","2017/07/17 20:19:49","新北市蘆洲區民族路291號","121.475376666667","25.0911133333333","6501400","蘆洲區"
"247006","341-TH","2017/07/17 20:19:55","新北市蘆洲區九芎街153巷6號","121.465335","25.0788616666667","6501400","蘆洲區"
"247008","339-TH","2017/07/17 20:19:51","新北市蘆洲區集賢路228號","121.482298333333","25.0863116666667","6501400","蘆洲區"
"247024","337-TH","2017/07/17 20:19:49","新北市蘆洲區光復路41巷38號","121.46266","25.0859133333333","6501400","蘆洲區"
"247002","336-TH","2017/07/17 20:19:48","新北市蘆洲區長安街313巷6弄12號","121.456846666667","25.0865683333333","6501400","蘆洲區"
"247014","057-VK","2017/07/17 20:19:37","新北市蘆洲區中山二路129號","121.472095","25.0814433333333","6501400","蘆洲區"
"247004","056-VK","2017/07/17 20:19:34","新北市蘆洲區長安街299巷7號","121.457538333333","25.0846516666667","6501400","蘆洲區"
"247012","007-UY","2017/07/17 20:19:53","新北市蘆洲區民族路180號","121.479935","25.0868716666667","6501400","蘆洲區"
"247022","002-UY","2017/07/17 20:19:40","新北市蘆洲區民族路564號","121.467411666667","25.0888683333333","6501400","蘆洲區"
"247016","001-UY","2017/07/17 20:19:47","新北市蘆洲區光華路115號","121.46688","25.082485","6501400","蘆洲區"
"251009","008-UM","2017/07/17 19:12:16","新北市淡水區中正路39號","121.442181666667","25.1694916666667","6501000","淡水區"
"251001","011-UM","2017/07/17 20:19:49","新北市淡水區新市二路四段265號","121.445783333333","25.1924533333333","6501000","淡水區"
"251008","181-VK","2017/07/17 20:19:36","新北市淡水區淡海路180巷20號","121.421396666667","25.184585","6501000","淡水區"
"251013","182-VK","2017/07/17 20:19:56","新北市淡水區奎柔山路752巷31號","121.474633333333","25.2057083333333","6501000","淡水區"
"251010","413-VK","2017/07/17 20:19:48","新北市淡水區新民街一段127號","121.42789","25.1882483333333","6501000","淡水區"
"251012","441-VK","2017/07/17 20:19:55","新北市淡水區淡金路三段405-2號","121.4491","25.2085333333333","6501000","淡水區"
"251015","442-VK","2017/07/17 20:19:51","新北市淡水區淡金路四段542巷17號","121.452695","25.2270783333333","6501000","淡水區"
"251006","561-UM","2017/07/17 20:19:49","新北市淡水區北新路173號","121.450556666667","25.1794533333333","6501000","淡水區"
"251002","672-BX","2017/07/17 20:19:51","新北市淡水區中正路232號","121.438958333333","25.170895","6501000","淡水區"
"251003","766-UM","2017/07/17 20:19:49","新北市淡水區中山北路一段229號","121.44452","25.1795833333333","6501000","淡水區"
"207004","225-TW","2017/07/17 20:19:44","新北市萬里區北基里仁四街2號","121.68207","25.175335","6502800","萬里區"
"252002","178-VK","2017/07/17 20:19:41","新北市三芝區中正路一段3號","121.502703333333","25.2589233333333","6502100","三芝區"
"252001","292-VK","2017/07/17 20:19:45","新北市三芝區中山路一段14號","121.500671666667","25.25807","6502100","三芝區"
"237007","153-BY","2017/07/17 20:19:39","新北市三峽區二鬮路136巷20弄35號","121.357183333333","24.9101133333333","6500900","三峽區"
"237008","302-VK","2017/07/17 20:19:47","新北市三峽區中正路一段174巷16號","121.371838333333","24.9289066666667","6500900","三峽區"
"237014","433-BY","2017/07/17 20:19:36","新北市三峽區介壽路一段1號","121.375338333333","24.933965","6500900","三峽區"
"237006","5529-G3","2017/07/17 20:19:45","新北市三峽區中正路二段41號","121.366733333333","24.9188183333333","6500900","三峽區"
"237005","AKY-6261","2017/07/17 20:19:52","新北市三峽區三樹路98巷74弄91號","121.385056666667","24.9384733333333","6500900","三峽區"
"236069","105-UM","2017/07/17 20:19:36","新北市土城區大安路126號","121.433938333333","24.96982","6501300","土城區"
"236042","107-UM","2017/07/17 20:19:51","新北市土城區裕民路97號","121.450848333333","24.9871616666667","6501300","土城區"
"236078","166-UM","2017/07/17 20:19:46","新北市土城區金安街38號","121.42064","24.9651133333333","6501300","土城區"
"236030","253-BX","2017/07/17 20:19:56","新北市土城區學成路128巷13弄6號","121.44951","24.9902266666667","6501300","土城區"
"236026","269-VK","2017/07/17 20:19:48","新北市土城區裕生路67巷2弄2號","121.44741","24.9845916666667","6501300","土城區"
"236014","270-VK","2017/07/17 20:19:52","新北市土城區廣明街90巷20號","121.455541666667","24.9945083333333","6501300","土城區"
"236036","271-VK","2017/07/17 20:19:48","新北市土城區延吉街331號","121.465245","24.9841716666667","6501300","土城區"
"236020","401-BY","2017/07/17 20:19:49","新北市土城區延吉街111巷12弄10號","121.471636666667","24.98571","6501300","土城區"
"236058","912-UM","2017/07/17 20:19:42","新北市土城區中央路三段32號","121.438498333333","24.9690016666667","6501300","土城區"
"236053","AAC-216","2017/07/17 20:19:42","新北市土城區中華路二段62號","121.438958333333","24.9769816666667","6501300","土城區"
"242021","AAC-296","2017/07/17 20:19:35","新北市新莊區新泰路182號","121.447296666667","25.0379816666667","6500500","新莊區"
"242029","986-R7","2017/07/17 20:19:43","新北市新莊區中原路233號","121.449756666667","25.054285","6500500","新莊區"
"242048","751-BX","2017/07/17 20:19:52","新北市新莊區龍安路266巷22號","121.421083333333","25.0189633333333","6500500","新莊區"
"242025","615-BX","2017/07/17 20:19:49","新北市新莊區五工三路70巷32號","121.460158333333","25.0658383333333","6500500","新莊區"
"242023","613-BX","2017/07/17 20:19:51","新北市新莊區化成路728號","121.465616666667","25.0571933333333","6500500","新莊區"
"242027","612-BX","2017/07/17 20:19:44","新北市新莊區幸福路567號","121.454165","25.0492983333333","6500500","新莊區"
"242036","566-BX","2017/07/17 20:19:36","新北市新莊區建安街76巷1弄1號","121.42642","25.0245483333333","6500500","新莊區"
"242042","497-BY","2017/07/17 20:19:49","新北市新莊區壽山路55-7號","121.412495","25.0314333333333","6500500","新莊區"
"242004","442-UM","2017/07/17 20:19:33","新北市新莊區頭前路2巷19號","121.468226666667","25.0535766666667","6500500","新莊區"
"242046","441-UM","2017/07/17 20:19:44","新北市新莊區裕民街132號","121.417835","25.0222266666667","6500500","新莊區"
"242050","440-UM","2017/07/17 20:19:36","新北市新莊區民安西路225號","121.42602","25.0143383333333","6500500","新莊區"
"242031","415-TV","2017/07/17 20:19:43","新北市新莊區義豐街35-1號","121.441196666667","25.0353216666667","6500500","新莊區"
"242002","413-TV","2017/07/17 20:19:53","新北市新莊區化成路27號","121.465058333333","25.0437916666667","6500500","新莊區"
"242039","400-BY","2017/07/17 20:19:53","新北市新莊區成功街76號","121.424228333333","25.0190866666667","6500500","新莊區"
"242060","362-BY","2017/07/17 20:19:45","新北市新莊區新樹路172號","121.434526666667","25.021865","6500500","新莊區"
"242058","353-BY","2017/07/17 20:19:38","新北市新莊區龍安路278巷4號","121.422016666667","25.01905","6500500","新莊區"
"242011","132-UY","2017/07/17 20:19:39","新北市新莊區中信街35號","121.450351666667","25.0507866666667","6500500","新莊區"
"242034","133-UY","2017/07/17 20:19:37","新北市新莊區華興街33號","121.445975","25.0358933333333","6500500","新莊區"
"242019","135-UY","2017/07/17 20:19:36","新北市新莊區博愛路7巷2號","121.456081666667","25.0438983333333","6500500","新莊區"
"242044","172-VK","2017/07/17 20:19:51","新北市新莊區中正路895-2號","121.412425","25.0218183333333","6500500","新莊區"
"242007","173-VK","2017/07/17 20:19:38","新北市新莊區福壽街94巷11號","121.458901666667","25.0500933333333","6500500","新莊區"
"242056","176-VK","2017/07/17 20:19:54","新北市新莊區豐年街39號","121.446465","25.0321016666667","6500500","新莊區"
"242013","346-TH","2017/07/17 20:19:45","新北市新莊區幸福路710巷5弄16號","121.44926","25.0497616666667","6500500","新莊區"
"242017","348-TH","2017/07/17 20:19:39","新北市新莊區中港一街75號","121.44981","25.0453183333333","6500500","新莊區"
"242053","349-TH","2017/07/17 20:19:42","新北市新莊區民安西路261巷18號","121.42678","25.0130616666667","6500500","新莊區"
"242015","350-TH","2017/07/17 20:19:50","新北市新莊區中和街31巷22號","121.447201666667","25.0438533333333","6500500","新莊區"
"242009","351-TH","2017/07/17 20:19:55","新北市新莊區昌盛街79號","121.455396666667","25.0500866666667","6500500","新莊區"
"238023","601-UM","2017/07/17 20:19:48","新北市樹林區中山路三段214號","121.380353333333","24.966755","6500700","樹林區"
"238021","311-TH","2017/07/17 19:54:54","新北市樹林區佳園路三段219巷41號","121.388345","24.9459566666667","6500700","樹林區"
"221008","489-VK","2017/07/17 20:19:39","台北市內湖區康樂街16號","121.617971666667","25.0679666666667","6501100","汐止區"
"221036","130-UY","2017/07/17 20:19:49","新北市汐止區福安街61巷14號","121.664893333333","25.063675","6501100","汐止區"
"221015","131-UY","2017/07/17 20:19:34","新北市汐止區建成路142巷19弄8號","121.66213","25.07393","6501100","汐止區"
"221010","269-BY","2017/07/17 20:19:41","新北市汐止區八連路一段217號","121.640533333333","25.0819083333333","6501100","汐止區"
"221031","277-VK","2017/07/17 20:19:37","新北市汐止區中興路150巷15號","121.633088333333","25.0650116666667","6501100","汐止區"
"221012","278-VK","2017/07/17 20:19:46","新北市汐止區保新街135號","121.687978333333","25.07013","6501100","汐止區"
"221023","279-VK","2017/07/17 14:58:18","新北市汐止區林森街124號","121.624751666667","25.0406333333333","6501100","汐止區"
"221032","280-BY","2017/07/17 20:19:45","新北市汐止區民權街二段54號","121.61947","25.048865","6501100","汐止區"
"221027","281-BY","2017/07/17 20:19:45","新北市汐止區光明街1號","121.660955","25.0687683333333","6501100","汐止區"
"221038","297-VK","2017/07/17 20:19:35","新北市汐止區大同路三段41號","121.666868333333","25.0765433333333","6501100","汐止區"
"221029","298-VK","2017/07/17 20:19:44","新北市汐止區樟樹一路99巷7弄2號","121.641128333333","25.0636633333333","6501100","汐止區"
"221021","299-VK","2017/07/17 20:18:39","新北市汐止區水源路一段258號","121.654133333333","25.0597916666667","6501100","汐止區"
"221035","622-UM","2017/07/17 20:19:52","新北市汐止區長江街79巷12號","121.657731666667","25.0727733333333","6501100","汐止區"
"221025","623-UM","2017/07/17 20:19:35","新北市汐止區水源路二段72巷6弄5號","121.655648333333","25.05533","6501100","汐止區"
"221033","647-BX","2017/07/17 20:19:42","新北市汐止區東勢街201巷32號","121.634998333333","25.0434833333333","6501100","汐止區"
"221002","707-TV","2017/07/17 20:19:43","新北市汐止區福德三路75號","121.636303333333","25.0691733333333","6501100","汐止區"
"221018","753-BX","2017/07/17 20:19:50","新北市汐止區茄安路31號","121.673288333333","25.068075","6501100","汐止區"
"220080","200-UY","2017/07/17 20:19:49","新北市板橋區大觀路二段153巷44弄23號","121.446133333333","24.9992133333333","6500100","板橋區"
"220103","257-TC","2017/07/17 20:19:54","新北市板橋區陽明街249號","121.46284","25.025035","6500100","板橋區"
"220069","258-TC","2017/07/17 20:19:54","新北市板橋區大明街25巷4弄5號","121.457828333333","25.0020816666667","6500100","板橋區"
"220071","283-VK","2017/07/17 20:19:40","新北市板橋區和平路174巷36弄3號","121.465141666667","24.99406","6500100","板橋區"
"220083","286-VK","2017/07/17 20:19:43","新北市板橋區僑中二街98號","121.445935","25.0084766666667","6500100","板橋區"
"220081","287-VK","2017/07/17 20:19:47","新北市板橋區僑中一街124巷18弄45號","121.447946666667","25.013555","6500100","板橋區"
"220061","293-UM","2017/07/17 20:19:52","新北市板橋區四川路一段212號","121.459406666667","25.00207","6500100","板橋區"
"220089","487-VK","2017/07/17 20:19:50","新北市板橋區四維路204號","121.464051666667","25.0271983333333","6500100","板橋區"
"220055","827-TW","2017/07/17 20:19:48","新北市板橋區重慶路290巷3號","121.46146","24.9986816666667","6500100","板橋區"
"220102","830-TW","2017/07/17 20:19:51","新北市板橋區漢生東路83巷4號","121.467108333333","25.0158866666667","6500100","板橋區"
"220074","895-R6","2017/07/17 20:19:40","新北市板橋區府中路22號","121.459553333333","25.0096516666667","6500100","板橋區"
"220097","AAC-210","2017/07/17 20:19:48","新北市板橋區光正街42號","121.46175","25.0175583333333","6500100","板橋區"
"220070","AAC-253","2017/07/17 20:19:45","新北市板橋區四川路二段245巷49號","121.452055","24.99245","6500100","板橋區"
