"lineid","car","time","location","longitude","latitude","cityid","cityname"
"234046","148-BY","2017/07/17 20:29:47","新北市永和區林森路92號","121.523271666667","25.003645","6500400","永和區"
"234007","207-UY","2017/07/17 20:29:39","新北市永和區環河西路二段229巷3號","121.50144","25.009945","6500400","永和區"
"234081","298-R6","2017/07/17 20:29:41","新北市永和區福和路59號","121.522995","25.00784","6500400","永和區"
"234038","336-UY","2017/07/17 20:29:41","新北市永和區民樂街31巷17弄3號","121.528588333333","25.0019","6500400","永和區"
"234064","337-UY","2017/07/17 20:29:38","新北市永和區中正路385號","121.51728","25.0039466666667","6500400","永和區"
"234086","338-UY","2017/07/17 20:29:43","新北市永和區永和路二段207號","121.515385","25.013615","6500400","永和區"
"234070","552-UM","2017/07/17 20:29:41","新北市永和區永亨路6-1號","121.519425","25.00561","6500400","永和區"
"234054","553-UM","2017/07/17 20:29:39","新北市永和區環河東路一段76號","121.519516666667","25.0165866666667","6500400","永和區"
"234017","745-BX","2017/07/17 20:29:53","新北市永和區仁愛路91號","121.512995","25.0130716666667","6500400","永和區"
"234030","746-BX","2017/07/17 20:29:52","新北市永和區民權路55號","121.520136666667","24.9966083333333","6500400","永和區"
"234061","AAD-866","2017/07/17 20:29:47","新北市永和區安樂路194巷17弄11號","121.51613","25.0014083333333","6500400","永和區"
"234042","862-TW","2017/07/17 20:29:51","新北市永和區安樂路242-18號","121.51471","25.003125","6500400","永和區"
"234050","863-TW","2017/07/17 20:29:49","新北市永和區新生路113號","121.507815","25.015265","6500400","永和區"
"249005","172-UM","2017/07/17 20:29:36","新北市八里區中山路三段309號","121.379821666667","25.1381966666667","6502300","八里區"
"249004","303-UY","2017/07/17 20:29:48","新北市八里區中山路一段129巷39號","121.413981666667","25.158485","6502300","八里區"
"249002","305-UY","2017/07/17 20:29:36","新北市八里區龍米路二段125巷23號","121.445785","25.1455083333333","6502300","八里區"
"249003","593-UM","2017/07/17 20:29:43","新北市八里區華峰一街47號","121.398698333333","25.1462366666667","6502300","八里區"
"249001","759-BX","2017/07/17 20:29:46","新北市八里區商港路30號","121.396701666667","25.14506","6502300","八里區"
"248002","678-BX","2017/07/17 20:29:49","新北市五股區成泰路三段43-1號","121.442271666667","25.088825","6501500","五股區"
"234023","9380-KE","2017/07/17 20:29:54","新北市永和區永和路二段278號","121.516013333333","25.0153483333333","6500400","永和區"
"234074","AAC-211","2017/07/17 20:29:38","新北市永和區豫溪街189巷1號","121.522631666667","25.0102716666667","6500400","永和區"
"234067","AAC-212","2017/07/17 20:29:55","新北市永和區保平路214巷1弄11號","121.50911","25.00574","6500400","永和區"
"234003","AAC-295","2017/07/17 20:29:37","新北市永和區中正路624巷2號","121.517126666667","25.0079216666667","6500400","永和區"
"243013","AAD-798","2017/07/17 20:29:53","新北市泰山區貴子路9巷6-1號","121.425561666667","25.042315","6501600","泰山區"
"243009","297-R6","2017/07/17 20:29:46","新北市泰山區泰林路二段465號","121.425481666667","25.06401","6501600","泰山區"
"243015","380-SR","2017/07/17 20:29:35","新北市泰山區福興街30號","121.434515","25.05739","6501600","泰山區"
"243014","421-VK","2017/07/17 20:29:39","新北市泰山區泰林路二段597號","121.421621666667","25.0634433333333","6501600","泰山區"
"243010","548-UM","2017/07/17 20:29:53","新北市泰山區新生路31巷7號","121.427683333333","25.04593","6501600","泰山區"
"243011","549-UM","2017/07/17 20:29:51","新北市泰山區貴子路68號","121.426828333333","25.0413766666667","6501600","泰山區"
"243012","646-TV","2017/07/17 20:29:42","新北市泰山區忠孝街19巷3弄1號","121.427528333333","25.0659216666667","6501600","泰山區"
"243016","680-BX","2017/07/17 20:29:51","新北市泰山區文程路7號","121.427873333333","25.049525","6501600","泰山區"
"222003","436-BY","2017/07/17 20:29:52","新北市深坑區深坑街32號","121.615215","25.0017616666667","6501800","深坑區"
"222001","628-TS","2017/07/17 20:29:45","新北市深坑區北深路三段329號","121.597221666667","25.0050283333333","6501800","深坑區"
"222002","659-BX","2017/07/17 20:27:51","新北市深坑區萬福路16巷35號","121.608548333333","25.0088616666667","6501800","深坑區"
"231041","002-UM","2017/07/17 20:29:41","新北市新店區中正路501-4號","121.533643333333","24.9838266666667","6500600","新店區"
"231056","0293-UT","2017/07/17 20:29:40","新北市新店區建安街33巷8號","121.538495","24.975615","6500600","新店區"
"231059","046-UY","2017/07/17 20:29:39","新北市新店區安豐路49號","121.50002","24.9549283333333","6500600","新店區"
"231061","047-UY","2017/07/17 20:29:36","新北市新店區安興路141號","121.516545","24.9792733333333","6500600","新店區"
"231060","106-UY","2017/07/17 20:29:37","新北市新店區錦秀路5號","121.479443333333","24.9448783333333","6500600","新店區"
"231051","107-UY","2017/07/17 20:29:36","新北市新店區中央七街76號","121.527336666667","24.9766716666667","6500600","新店區"
"231047","108-UY","2017/07/17 20:29:48","新北市新店區寶元路一段15巷11號","121.542016666667","24.98721","6500600","新店區"
"231052","187-VK","2017/07/17 20:29:49","新北市新店區松林路36號","121.546203333333","24.91024","6500600","新店區"
"231057","256-BX","2017/07/17 20:29:43","新北市新店區花園五路二段3號","121.5536","24.9341283333333","6500600","新店區"
"231063","268-BY","2017/07/17 20:29:54","新北市新店區玫瑰路4-1號","121.4936","24.9513733333333","6500600","新店區"
"231050","AAD-862","2017/07/17 20:29:39","新北市新店區博愛街9巷2號","121.540821666667","24.9729566666667","6500600","新店區"
"231058","3712-VJ","2017/07/17 20:29:48","新北市新店區安德街60巷19-1號","121.510406666667","24.963205","6500600","新店區"
"231065","512-UM","2017/07/17 20:29:36","新北市新店區安祥路102巷30弄46號","121.484588333333","24.963515","6500600","新店區"
"231054","513-UM","2017/07/17 20:29:51","新北市新店區檳榔路109號","121.544385","24.9617683333333","6500600","新店區"
"231064","515-UM","2017/07/17 20:29:45","新北市新店區新和街59巷17號","121.519315","24.9860133333333","6500600","新店區"
"231045","617-UM","2017/07/17 20:29:44","新北市新店區新坡一街40號","121.549323333333","24.9625166666667","6500600","新店區"
"231040","619-UM","2017/07/17 20:29:40","新北市新店區民族路192號","121.536055","24.97536","6500600","新店區"
"231042","641-BX","2017/07/17 20:29:50","新北市新店區寶橋路230號","121.55145","24.978845","6500600","新店區"
"231068","718-UY","2017/07/17 20:29:34","新北市新店區寶元路一段65號","121.542166666667","24.985825","6500600","新店區"
"231049","719-UM","2017/07/17 20:29:40","新北市新店區華城路18-1號","121.528968333333","24.9569783333333","6500600","新店區"
"231062","720-UM","2017/07/17 20:29:40","新北市新店區安泰路60巷76號","121.483853333333","24.94582","6500600","新店區"
"231044","897-TW","2017/07/17 20:29:50","新北市新店區民族路17號","121.541318333333","24.9787783333333","6500600","新店區"
"231043","899-TW","2017/07/17 20:29:46","新北市新店區建國路129號","121.539588333333","24.9780916666667","6500600","新店區"
"231066","AKT-0513","2017/07/17 20:29:41","新北市新店區安興路112號","121.514606666667","24.977645","6500600","新店區"
"241011","013-R5","2017/07/17 20:29:37","新北市三重區三和路三段53號","121.495235","25.0716383333333","6500200","三重區"
"241028","022-UY","2017/07/17 20:29:50","新北市三重區光興街91號","121.497388333333","25.0599016666667","6500200","三重區"
"241009","060-VK","2017/07/17 20:29:38","新北市三重區永福街58巷3弄1號","121.481351666667","25.0777116666667","6500200","三重區"
"241031","061-VK","2017/07/17 20:29:47","新北市三重區三寧街15號","121.48944","25.0598216666667","6500200","三重區"
"241015","062-VK","2017/07/17 20:29:54","新北市三重區文化北路41號","121.498941666667","25.0652066666667","6500200","三重區"
"241017","063-VK","2017/07/17 20:29:32","新北市三重區自強路一段193-1號","121.491751666667","25.0681533333333","6500200","三重區"
"241024","065-VK","2017/07/17 20:29:51","新北市三重區三民街283巷4號","121.479078333333","25.0685966666667","6500200","三重區"
"241026","066-VK","2017/07/17 20:29:52","新北市三重區福德南路8巷15號","121.503453333333","25.06349","6500200","三重區"
"241002","090-VK","2017/07/17 20:29:41","新北市三重區仁義街211巷13號","121.497348333333","25.082125","6500200","三重區"
"241003","091-VK","2017/07/17 20:29:49","新北市三重區富華街129號","121.492658333333","25.08456","6500200","三重區"
"241019","156-TC","2017/07/17 20:29:51","新北市三重區忠孝路一段12號","121.492046666667","25.07177","6500200","三重區"
"241016","266-UM","2017/07/17 20:29:37","新北市三重區正義北路190巷7號","121.496038333333","25.0668316666667","6500200","三重區"
"241022","267-UM","2017/07/17 20:29:34","新北市三重區重陽路二段19巷2號","121.487305","25.0624883333333","6500200","三重區"
"241018","268-UM","2017/07/17 20:29:52","新北市三重區正義北路218號","121.495993333333","25.0675366666667","6500200","三重區"
"241032","269-UM","2017/07/17 20:29:46","新北市三重區重陽路一段120巷48號","121.485065","25.0601683333333","6500200","三重區"
"241013","270-UM","2017/07/17 20:29:53","新北市三重區三和路三段167巷55號","121.493863333333","25.0745883333333","6500200","三重區"
"241025","271-UM","2017/07/17 20:29:48","新北市三重區頂崁街210巷23弄1號","121.475833333333","25.06818","6500200","三重區"
"241007","398-BY","2017/07/17 20:29:43","新北市三重區福隆路2號","121.489366666667","25.07725","6500200","三重區"
"241008","412-TH","2017/07/17 20:29:46","新北市三重區車路頭街135-1號","121.484276666667","25.076135","6500200","三重區"
"241020","413-TH","2017/07/17 20:29:52","新北市三重區三和路三段144巷25號","121.491825","25.07226","6500200","三重區"
"241035","462-BY","2017/07/17 20:29:41","新北市三重區正義北路68號","121.497246666667","25.06422","6500200","三重區"
"241004","475-VK","2017/07/17 20:29:37","新北市三重區溪尾街205號","121.488531666667","25.0807833333333","6500200","三重區"
"241030","480-VK","2017/07/17 20:29:51","新北市三重區成功路62號","121.488566666667","25.0509866666667","6500200","三重區"
"241014","543-UM","2017/07/17 20:29:44","新北市三重區長興街106號","121.501898333333","25.0692466666667","6500200","三重區"
"241023","545-UM","2017/07/17 20:29:46","新北市三重區自由街17巷1號","121.47985","25.0666266666667","6500200","三重區"
"241006","AAD-863","2017/07/17 20:29:50","新北市三重區車路頭街139巷14號","121.484261666667","25.076195","6500200","三重區"
"241001","887-TS","2017/07/17 20:29:54","新北市三重區福隆路2號","121.489438333333","25.0774266666667","6500200","三重區"
"241012","941-UM","2017/07/17 20:29:52","新北市三重區龍濱路269號","121.501398333333","25.0730666666667","6500200","三重區"
"241029","942-UM","2017/07/17 20:29:43","新北市三重區集美街225號","121.492085","25.0551316666667","6500200","三重區"
"241033","AAC-255","2017/07/17 20:29:44","新北市三重區五谷王北街82號","121.476016666667","25.0527433333333","6500200","三重區"
"235039","097-UM","2017/07/17 20:29:52","新北市中和區大勇街27巷18號","121.516686666667","24.9939533333333","6500300","中和區"
"235065","098-UM","2017/07/17 20:29:35","新北市中和區福美路314號","121.49673","25.0049716666667","6500300","中和區"
"235072","301-VK","2017/07/17 20:29:35","新北市三重區光復路二段175號","121.472868333333","25.061565","6500300","中和區"
"235050","4979-A6","2017/07/17 20:29:48","新北市中和區南華路89號","121.50566","24.9973616666667","6500300","中和區"
"235069","4980-A6","2017/07/17 20:29:33","新北市中和區新生街214號","121.48382","24.9987066666667","6500300","中和區"
"235037","AAC-213","2017/07/17 20:29:43","新北市中和區大智街55巷30弄58-1號","121.522231666667","24.9934116666667","6500300","中和區"
"235059","AAC-215","2017/07/17 20:29:43","新北市中和區員山路8-6號","121.484543333333","24.981225","6500300","中和區"
"247020","893-R6","2017/07/17 20:29:34","新北市蘆洲區民族路424號","121.473821666667","25.0917933333333","6501400","蘆洲區"
"247010","546-UM","2017/07/17 20:29:48","新北市蘆洲區信義路222巷34弄2號","121.480763333333","25.0854283333333","6501400","蘆洲區"
"247018","500-BY","2017/07/17 20:29:49","新北市蘆洲區民族路321號","121.474415","25.0914816666667","6501400","蘆洲區"
"247006","341-TH","2017/07/17 20:29:34","新北市蘆洲區和平路121巷8弄29號","121.466146666667","25.0803516666667","6501400","蘆洲區"
"247008","339-TH","2017/07/17 20:29:31","新北市蘆洲區重陽街95號","121.482475","25.0854433333333","6501400","蘆洲區"
"247024","337-TH","2017/07/17 20:29:42","新北市蘆洲區長興路50巷41號","121.464911666667","25.0848733333333","6501400","蘆洲區"
"247002","336-TH","2017/07/17 20:29:48","新北市蘆洲區長安街361巷36號","121.45572","25.087545","6501400","蘆洲區"
"247014","057-VK","2017/07/17 20:29:37","新北市蘆洲區中山二路119號","121.47227","25.08163","6501400","蘆洲區"
"247004","056-VK","2017/07/17 20:29:55","新北市蘆洲區長安街297號","121.458046666667","25.0848433333333","6501400","蘆洲區"
"247012","007-UY","2017/07/17 20:29:53","新北市蘆洲區中興街152號","121.481901666667","25.090055","6501400","蘆洲區"
"247022","002-UY","2017/07/17 20:29:40","新北市蘆洲區中正路224號","121.46623","25.0888033333333","6501400","蘆洲區"
"247016","001-UY","2017/07/17 20:29:47","新北市蘆洲區中山二路153號","121.471593333333","25.0812316666667","6501400","蘆洲區"
"251001","011-UM","2017/07/17 20:29:49","新北市淡水區中山北路二段174號","121.444351666667","25.1846983333333","6501000","淡水區"
"251008","181-VK","2017/07/17 20:29:56","新北市淡水區淡海路189巷5號","121.419948333333","25.1844333333333","6501000","淡水區"
"251013","182-VK","2017/07/17 20:29:36","新北市淡水區後坑子6號","121.463443333333","25.206685","6501000","淡水區"
"251010","413-VK","2017/07/17 20:29:48","新北市淡水區沙崙路181巷15號","121.42397","25.18436","6501000","淡水區"
"251012","441-VK","2017/07/17 20:29:35","新北市淡水區興仁路40巷1號","121.452783333333","25.215805","6501000","淡水區"
"251015","442-VK","2017/07/17 20:29:51","新北市淡水區淡金路四段542巷17號","121.452695","25.2270783333333","6501000","淡水區"
"251006","561-UM","2017/07/17 20:29:49","新北市淡水區商工路296號","121.460858333333","25.1862616666667","6501000","淡水區"
"251011","650-BX","2017/07/17 20:29:51","新北市淡水區崁頂65號","121.438321666667","25.20054","6501000","淡水區"
"251002","672-BX","2017/07/17 20:29:51","新北市淡水區中正路61號","121.441633333333","25.1694233333333","6501000","淡水區"
"251003","766-UM","2017/07/17 20:29:49","新北市淡水區新生街108巷2號","121.440123333333","25.1747116666667","6501000","淡水區"
"252002","178-VK","2017/07/17 20:29:41","新北市三芝區淡金路二段18-1號","121.502576666667","25.2595","6502100","三芝區"
"252001","292-VK","2017/07/17 20:29:45","新北市三芝區中山路一段14號","121.500676666667","25.2580616666667","6502100","三芝區"
"237007","153-BY","2017/07/17 20:29:39","新北市三峽區麻園9-21號","121.362323333333","24.9177016666667","6500900","三峽區"
"236069","105-UM","2017/07/17 20:29:36","新北市土城區福安街100-8號","121.417365","24.9645166666667","6501300","土城區"
"236014","270-VK","2017/07/17 20:29:52","新北市土城區廣明街63巷27號","121.453971666667","24.99305","6501300","土城區"
"236020","401-BY","2017/07/17 20:29:48","新北市土城區金城路三段206巷1號","121.471558333333","24.9896983333333","6501300","土城區"
"242021","AAC-296","2017/07/17 20:29:55","新北市新莊區和興街15號","121.447481666667","25.0392783333333","6500500","新莊區"
"242029","986-R7","2017/07/17 20:29:43","新北市新莊區中華路二段151號","121.452978333333","25.05152","6500500","新莊區"
"242048","751-BX","2017/07/17 20:29:39","新北市新莊區中正路871巷1號","121.41805","25.027045","6500500","新莊區"
"242025","615-BX","2017/07/17 20:29:49","新北市新莊區五工二路57號","121.46047","25.065475","6500500","新莊區"
"242023","613-BX","2017/07/17 20:29:51","新北市新莊區化成路896號","121.464573333333","25.061655","6500500","新莊區"
"242027","612-BX","2017/07/17 20:29:44","新北市新莊區思源路311號","121.45989","25.0491016666667","6500500","新莊區"
"242036","566-BX","2017/07/17 20:29:36","新北市新莊區後港一路76巷3弄1號","121.427241666667","25.0260033333333","6500500","新莊區"
"242042","497-BY","2017/07/17 20:29:46","新北市新莊區中正路694巷96號","121.417183333333","25.0296316666667","6500500","新莊區"
"242004","442-UM","2017/07/17 20:29:52","新北市新莊區化成路746巷50號","121.46692","25.05821","6500500","新莊區"
"242046","441-UM","2017/07/17 20:29:53","新北市新莊區裕民街94號","121.418248333333","25.0236483333333","6500500","新莊區"
"242050","440-UM","2017/07/17 20:29:42","新北市新莊區民安西路189巷28號","121.427188333333","25.0153116666667","6500500","新莊區"
"242031","415-TV","2017/07/17 20:29:43","新北市新莊區三和路58-9號","121.437896666667","25.042135","6500500","新莊區"
"242002","413-TV","2017/07/17 20:29:53","新北市新莊區中正路78-1號","121.458533333333","25.0378033333333","6500500","新莊區"
"242039","400-BY","2017/07/17 20:29:53","新北市新莊區成功街6巷2號","121.4258","25.0218516666667","6500500","新莊區"
"242060","362-BY","2017/07/17 20:29:45","新北市新莊區新樹路244巷20號","121.431543333333","25.0184616666667","6500500","新莊區"
"242058","353-BY","2017/07/17 20:29:38","新北市新莊區四維路181號","121.422205","25.0212533333333","6500500","新莊區"
"242011","132-UY","2017/07/17 20:29:45","新北市新莊區中義街36號","121.450055","25.0512183333333","6500500","新莊區"
"242034","133-UY","2017/07/17 20:29:37","新北市新莊區建中街90巷16號","121.446803333333","25.0377666666667","6500500","新莊區"
"242019","135-UY","2017/07/17 20:29:56","新北市新莊區銘德街35號","121.458231666667","25.0437033333333","6500500","新莊區"
"242044","172-VK","2017/07/17 20:29:51","新北市新莊區中正路新建巷38號","121.414561666667","25.0215466666667","6500500","新莊區"
"242007","173-VK","2017/07/17 20:29:48","新北市新莊區思源路287巷1弄21號","121.45939","25.0474833333333","6500500","新莊區"
"242056","176-VK","2017/07/17 20:29:54","新北市新莊區新莊路713巷20-1號","121.443576666667","25.0320083333333","6500500","新莊區"
"242013","346-TH","2017/07/17 20:29:44","新北市新莊區中和街155巷24弄16號","121.44676","25.050325","6500500","新莊區"
"242017","348-TH","2017/07/17 20:29:39","新北市新莊區中港二街95號","121.449348333333","25.04575","6500500","新莊區"
"242053","349-TH","2017/07/17 20:29:42","新北市新莊區西盛街362巷18號","121.427095","25.0136816666667","6500500","新莊區"
"242015","350-TH","2017/07/17 20:29:50","新北市新莊區中平路46巷29號","121.446043333333","25.0438716666667","6500500","新莊區"
"242009","351-TH","2017/07/17 20:29:35","新北市新莊區幸福路64巷3弄6號","121.456928333333","25.0500866666667","6500500","新莊區"
"238023","601-UM","2017/07/17 20:29:48","新北市樹林區育德街78號","121.387603333333","24.9683366666667","6500700","樹林區"
"221008","489-VK","2017/07/17 20:29:39","新北市汐止區康寧街397號","121.629426666667","25.0678283333333","6501100","汐止區"
"221036","130-UY","2017/07/17 20:29:49","新北市汐止區新台五路二段126巷13弄1號","121.663748333333","25.0659133333333","6501100","汐止區"
"221015","131-UY","2017/07/17 20:29:34","新北市汐止區建成路142巷19弄11號","121.661981666667","25.0739083333333","6501100","汐止區"
"221010","269-BY","2017/07/17 20:29:41","新北市汐止區八連路二段279號","121.63031","25.0983183333333","6501100","汐止區"
"221031","277-VK","2017/07/17 20:29:37","新北市汐止區中興路110巷10號","121.633718333333","25.064135","6501100","汐止區"
"221012","278-VK","2017/07/17 20:29:45","新北市汐止區保新街9號","121.683876666667","25.07339","6501100","汐止區"
"221023","279-VK","2017/07/17 14:58:18","新北市汐止區林森街124號","121.624751666667","25.0406333333333","6501100","汐止區"
"221032","280-BY","2017/07/17 20:29:45","新北市汐止區橫科路52巷14弄2號","121.618796666667","25.0500766666667","6501100","汐止區"
"221027","281-BY","2017/07/17 20:29:45","新北市汐止區中正路283號","121.656635","25.06824","6501100","汐止區"
"221038","297-VK","2017/07/17 20:29:35","新北市汐止區忠孝東路472號","121.666306666667","25.0733316666667","6501100","汐止區"
"221029","298-VK","2017/07/17 20:29:44","新北市汐止區樟樹一路129巷32號","121.640561666667","25.0652016666667","6501100","汐止區"
"221021","299-VK","2017/07/17 20:21:50","新北市汐止區水源路一段276號","121.654193333333","25.05849","6501100","汐止區"
"221035","622-UM","2017/07/17 20:29:52","新北市汐止區長江街101-5號","121.658696666667","25.0731916666667","6501100","汐止區"
"221025","623-UM","2017/07/17 20:29:35","新北市汐止區水源路二段88巷1弄12號","121.656475","25.05547","6501100","汐止區"
"221033","647-BX","2017/07/17 20:29:42","新北市汐止區林森街73巷11號","121.623608333333","25.0411133333333","6501100","汐止區"
"221002","707-TV","2017/07/17 20:29:43","新北市汐止區福德三路75號","121.63654","25.0692616666667","6501100","汐止區"
"221018","753-BX","2017/07/17 20:29:30","新北市汐止區茄苳路223號","121.670995","25.0688733333333","6501100","汐止區"
"220103","257-TC","2017/07/17 20:29:54","新北市板橋區漢生東路33巷42號","121.466071666667","25.0176933333333","6500100","板橋區"
"220083","286-VK","2017/07/17 20:29:43","新北市板橋區僑中二街106巷14號","121.44526","25.0077033333333","6500100","板橋區"
"220081","287-VK","2017/07/17 20:29:47","新北市板橋區僑中一街80巷1弄16號","121.446836666667","25.012035","6500100","板橋區"
"220061","293-UM","2017/07/17 20:29:52","新北市板橋區四川路一段320號","121.458351666667","25.0001166666667","6500100","板橋區"
"220089","487-VK","2017/07/17 20:29:50","新北市板橋區四維路253號","121.463453333333","25.0278583333333","6500100","板橋區"
"220102","830-TW","2017/07/17 20:29:51","新北市板橋區民生路二段207號","121.469143333333","25.0208433333333","6500100","板橋區"
