"lineid","car","time","location","longitude","latitude","cityid","cityname"
"241020","413-TH","2017/07/17 21:59:52","新北市五股區中直路13-7號","121.424358333333","25.1105016666667","6500200","三重區"
"247001","336-TH","2017/07/17 21:59:48","新北市五股區中直路11-21號","121.426586666667","25.10961","6501400","蘆洲區"
"247024","335-TH","2017/07/17 21:59:52","新北市八里區中山路三段409號","121.368266666667","25.1348766666667","6501400","蘆洲區"
"247014","057-VK","2017/07/17 21:59:36","新北市林口區汕頭32號","121.366525","25.1348533333333","6501400","蘆洲區"
"251004","009-UM","2017/07/17 21:59:47","新北市淡水區自強路51號","121.459351666667","25.1298616666667","6501000","淡水區"
"251001","011-UM","2017/07/17 21:59:28","新北市淡水區崁頂75-2號","121.435151666667","25.203805","6501000","淡水區"
"251007","179-VK","2017/07/17 21:59:49","新北市淡水區北新路186-3號","121.449551666667","25.17869","6501000","淡水區"
"251008","181-VK","2017/07/17 21:59:36","新北市淡水區學府路104號","121.44982","25.17177","6501000","淡水區"
"251010","413-VK","2017/07/17 21:59:48","新北市淡水區新市三路一段306號","121.429378333333","25.1975","6501000","淡水區"
"251015","442-VK","2017/07/17 21:59:42","新北市淡水區水碓街7號","121.443188333333","25.1771066666667","6501000","淡水區"
"251005","443-VK","2017/07/17 21:59:51","新北市淡水區鄧公路30巷56號","121.45403","25.1706083333333","6501000","淡水區"
"251011","650-BX","2017/07/17 21:59:51","新北市淡水區沙崙路200號","121.424686666667","25.1838766666667","6501000","淡水區"
"251002","672-BX","2017/07/17 21:59:40","新北市淡水區中山北路一段378號","121.444586666667","25.182685","6501000","淡水區"
"251003","766-UM","2017/07/17 21:59:49","新北市淡水區新春街103-6號","121.440218333333","25.1819233333333","6501000","淡水區"
