"lineid","car","time","location","longitude","latitude","cityid","cityname"
"232006","290-BY","2017/07/18 06:39:39","新北市坪林區北宜路八段558號","121.718228333333","24.9094866666667","6502000","坪林區"
"232002","291-BY","2017/07/18 06:39:47","新北市坪林區北宜路八段558號","121.718153333333","24.909245","6502000","坪林區"
"232013","705-BZ","2017/07/18 02:43:11","新北市坪林區北宜路八段558號","121.717966666667","24.9095216666667","6502000","坪林區"
"235001","255-BX","2017/07/18 06:39:47","新北市中和區廟美街5號","121.500736666667","25.001495","6500300","中和區"
"223006","022-BY","2017/07/18 06:39:44","新北市石碇區石崁2-3號","121.652578333333","24.9993083333333","6501900","石碇區"
"223002","198-BX","2017/07/18 06:39:40","新北市石碇區碇坪路一段186號","121.667801666667","24.9838033333333","6501900","石碇區"
"223003","205-TH","2017/07/18 06:39:41","新北市石碇區湳窟26號","121.661903333333","24.9914833333333","6501900","石碇區"
"223004","660-BX","2017/07/18 06:39:44","新北市石碇區小粗坑(潭邊里)2號","121.671146666667","24.9824516666667","6501900","石碇區"
"223007","661-BX","2017/07/18 06:39:44","新北市石碇區湳窟22-1號","121.661143333333","24.9908033333333","6501900","石碇區"
"227006","282-VK","2017/07/18 06:39:48","新北市雙溪區牡丹里聖南2號","121.860151666667","25.0507733333333","6502500","雙溪區"
"236008","165-UM","2017/07/18 06:39:42","新北市土城區永平街51號","121.427953333333","24.9591666666667","6501300","土城區"
