"lineid","car","time","location","longitude","latitude","cityid","cityname"
"234044","148-BY","2017/08/18 13:09:03","新北市永和區永元路16號","121.522091666667","25.00044","6500400","永和區"
"234012","149-BY","2017/08/18 13:08:54","新北市永和區信義路77號","121.512446666667","25.0132816666667","6500400","永和區"
"234005","207-UY","2017/08/18 13:09:05","新北市永和區中山路一段219號","121.508216666667","25.0078416666667","6500400","永和區"
"234078","298-R6","2017/08/18 13:09:06","新北市永和區永貞路39巷4弄2號","121.521405","25.00649","6500400","永和區"
"234036","336-UY","2017/08/18 13:09:09","新北市永和區民樂街45巷1號","121.527533333333","24.999585","6500400","永和區"
"234062","337-UY","2017/08/18 13:08:49","新北市永和區秀朗路二段52號","121.522003333333","25.0020466666667","6500400","永和區"
"234084","338-UY","2017/08/18 13:08:52","新北市永和區永貞路75號","121.518701666667","25.0043516666667","6500400","永和區"
"234052","553-UM","2017/08/18 13:08:58","新北市永和區中興街133巷8號","121.518616666667","25.012615","6500400","永和區"
"234015","745-BX","2017/08/18 13:09:10","新北市永和區文化路90巷19號","121.51362","25.0162816666667","6500400","永和區"
"234028","746-BX","2017/08/18 13:09:12","新北市永和區民生路33號","121.522658333333","24.9983016666667","6500400","永和區"
"234060","AAD-866","2017/08/18 13:08:54","新北市永和區安樂路322號","121.514438333333","25.00566","6500400","永和區"
"234068","847-RS","2017/08/18 13:08:53","新北市永和區豫溪街53號","121.517126666667","25.009865","6500400","永和區"
"234040","862-TW","2017/08/18 13:08:52","新北市永和區永貞路330號","121.51129","25.0055316666667","6500400","永和區"
"234048","863-TW","2017/08/18 13:09:07","新北市永和區仁愛路104巷7弄62號","121.510901666667","25.0141383333333","6500400","永和區"
"234025","9371-KE","2017/08/18 13:09:09","新北市永和區福和路352號","121.51476","25.0074233333333","6500400","永和區"
"234010","9373-KE","2017/08/18 13:09:04","新北市永和區文化路124號","121.513041666667","25.015365","6500400","永和區"
"248019","225-UY","2017/08/18 13:08:58","新北市五股區成泰路三段544-1號","121.454641666667","25.1019233333333","6501500","五股區"
"234022","9380-KE","2017/08/18 13:09:08","新北市永和區中興街52巷9弄8號","121.517621666667","25.0111033333333","6500400","永和區"
"234076","969-R7","2017/08/18 13:09:07","新北市永和區民有街3-2號","121.515935","24.9972033333333","6500400","永和區"
"234072","AAC-211","2017/08/18 13:08:55","新北市永和區竹林路174號","121.520398333333","25.0101083333333","6500400","永和區"
"234066","AAC-212","2017/08/18 13:09:05","新北市永和區保平路39號","121.512066666667","25.0071633333333","6500400","永和區"
"234001","AAC-295","2017/08/18 13:09:05","新北市永和區永和路二段35號","121.514403333333","25.0103466666667","6500400","永和區"
"244004","248-BX","2017/08/18 13:08:53","新北市林口區中山路1號","121.396955","25.077885","6501700","林口區"
"231002","002-UM","2017/08/18 13:08:58","新北市新店區安華路28-1號","121.519805","24.9607866666667","6500600","新店區"
"231028","046-UY","2017/08/18 13:08:53","新北市新店區安華路28-1號","121.519656666667","24.960795","6500600","新店區"
"231029","106-UY","2017/08/18 13:08:53","新北市新店區安華路28-1號","121.51963","24.9608466666667","6500600","新店區"
"231018","107-UY","2017/08/18 03:16:52","新北市新店區安華路28-1號","121.519255","24.9612766666667","6500600","新店區"
"231012","108-UY","2017/08/18 04:54:48","新北市新店區安華路28-1號","121.5194","24.9614483333333","6500600","新店區"
"231035","110-UY","2017/08/18 13:08:57","新北市新店區安華路28-1號","121.519141666667","24.9613016666667","6500600","新店區"
"231022","187-VK","2017/08/18 13:09:01","新北市新店區安華路28-1號","121.519675","24.9610983333333","6500600","新店區"
"231034","268-BY","2017/08/18 13:08:48","新北市新店區安華路1-1號","121.519441666667","24.9604333333333","6500600","新店區"
"231010","278-BY","2017/08/18 13:09:04","新北市新店區安華路28-1號","121.520121666667","24.9613166666667","6500600","新店區"
"231016","AAD-862","2017/08/18 13:09:11","新北市新店區安華路28-1號","121.519678333333","24.9611366666667","6500600","新店區"
"231027","3712-VJ","2017/08/18 13:09:02","新北市新店區安華路3號","121.51899","24.9604966666667","6500600","新店區"
"231024","3713-VJ","2017/08/18 13:09:09","新北市新店區安華路1-1號","121.519125","24.96048","6500600","新店區"
"231025","4716-K9","2017/08/18 13:09:11","新北市新店區安華路28-1號","121.519641666667","24.961055","6500600","新店區"
"231038","4715-K9","2017/08/18 13:09:00","新北市新店區安華路28-1號","121.519585","24.9605166666667","6500600","新店區"
"231036","512-UM","2017/08/18 04:00:13","新北市新店區安華路28-1號","121.519318333333","24.961215","6500600","新店區"
"231023","513-UM","2017/08/18 13:09:11","新北市新店區安華路28-1號","121.519633333333","24.9610766666667","6500600","新店區"
"231003","616-UM","2017/08/18 13:08:54","新北市新店區安華路1-1號","121.51946","24.9604983333333","6500600","新店區"
"231006","617-UM","2017/08/18 13:08:50","新北市新店區安華路28-1號","121.519431666667","24.9607416666667","6500600","新店區"
"231001","619-UM","2017/08/18 13:08:58","新北市新店區安華路28-1號","121.51961","24.9607166666667","6500600","新店區"
"231013","719-UM","2017/08/18 13:09:06","新北市新店區安華路28-1號","121.519381666667","24.9613466666667","6500600","新店區"
"231032","720-UM","2017/08/18 13:08:52","新北市新店區安華路28-1號","121.519016666667","24.961145","6500600","新店區"
"231004","899-TW","2017/08/18 03:29:22","新北市新店區安華路28-1號","121.519081666667","24.9609466666667","6500600","新店區"
"231037","AKT-0513","2017/08/18 13:09:06","新北市新店區安華路28-1號","121.519635","24.960535","6500600","新店區"
"235028","005-UY","2017/08/18 13:08:53","新北市中和區中正路466號","121.490025","24.993955","6500300","中和區"
"235027","006-UY","2017/08/18 13:08:52","新北市中和區員山路36巷16-3號","121.484996666667","24.9913516666667","6500300","中和區"
"235020","096-UM","2017/08/18 13:08:51","新北市中和區員山路36巷13號","121.484306666667","24.9915233333333","6500300","中和區"
"235029","098-UM","2017/08/18 13:09:00","新北市中和區橋和路280號","121.496168333333","25.0068083333333","6500300","中和區"
"235004","150-BY","2017/08/18 13:08:55","新北市中和區和城路一段271巷1號","121.48542","24.991685","6500300","中和區"
"235022","151-BY","2017/08/18 13:08:54","新北市中和區圓通路367巷33弄6-1號","121.492798333333","24.9856833333333","6500300","中和區"
"235002","185-VK","2017/08/18 13:08:58","新北市中和區大仁街48號","121.518608333333","24.993825","6500300","中和區"
"235031","255-BX","2017/08/18 13:09:03","新北市中和區中正路751巷14弄13號","121.484053333333","25.00025","6500300","中和區"
"235015","376-QA","2017/08/18 13:09:05","新北市中和區捷運路12-3號","121.509063333333","24.9899433333333","6500300","中和區"
"235032","377-QA","2017/08/18 12:33:17","新北市中和區員山路36巷16-3號","121.48473","24.991845","6500300","中和區"
"235025","378-QA","2017/08/18 13:09:04","新北市中和區員山路36巷16-2號","121.48526","24.991575","6500300","中和區"
"235033","4980-A6","2017/08/18 13:08:59","新北市中和區員山路36巷16-8號","121.485521666667","24.9922883333333","6500300","中和區"
"235006","551-UM","2017/08/18 13:08:49","新北市中和區景平路355號","121.504733333333","24.9933816666667","6500300","中和區"
"235018","640-BX","2017/08/18 13:08:57","新北市中和區和城路一段271巷1號","121.485583333333","24.9921683333333","6500300","中和區"
"235024","647-TV","2017/08/18 13:08:49","新北市中和區員山路36巷16-3號","121.484935","24.991795","6500300","中和區"
"235011","732-UM","2017/08/18 13:09:01","新北市中和區員山路36巷8-1號","121.48378","24.99071","6500300","中和區"
"235026","800-TS","2017/08/18 13:09:00","新北市中和區建一路155號","121.488443333333","24.9993483333333","6500300","中和區"
"235005","802-TS","2017/08/18 13:08:50","新北市中和區中正路637巷60弄61號","121.48551","24.9932783333333","6500300","中和區"
"235016","805-TS","2017/08/18 13:09:00","新北市中和區員山路36巷16-3號","121.48477","24.9913916666667","6500300","中和區"
"235017","900-TW","2017/08/18 13:08:39","新北市中和區員山路36巷16-2號","121.485136666667","24.9917916666667","6500300","中和區"
"235023","911-UM","2017/08/18 13:09:05","新北市中和區板南路496-7號","121.485468333333","25.007775","6500300","中和區"
"235001","AAC-213","2017/08/18 13:09:02","新北市中和區景平路353號","121.50474","24.99339","6500300","中和區"
"235023","AAC-215","2017/08/18 13:08:50","新北市中和區員山路36巷16-3號","121.484915","24.9912383333333","6500300","中和區"
"220016","013-TV","2017/08/18 13:09:05","新北市板橋區民生路二段22號","121.47279","25.0165416666667","6500100","板橋區"
"220013","072-UY","2017/08/18 13:08:58","新北市板橋區民生路二段22號","121.472953333333","25.0167066666667","6500100","板橋區"
"208004","AAC-292","2017/08/18 13:08:56","新北市金山區中正路19號","121.636191666667","25.222275","6502700","金山區"
"207002","749-BX","2017/08/18 13:05:39","新北市萬里區雙興里大坪路21號","121.635021666667","25.1632133333333","6502800","萬里區"
"207001","662-BX","2017/08/18 13:09:12","新北市萬里區萬里里瑪鋉路20號","121.688695","25.1767916666667","6502800","萬里區"
"236006","498-BY","2017/08/18 13:09:04","新北市土城區亞洲路58巷5弄21號","121.434033333333","24.973375","6501300","土城區"
"241031","308-TH","2017/08/18 13:08:59","新北市樹林區東豐街49巷8弄35號","121.413743333333","24.9752216666667","6500200","三重區"
"221012","276-VK","2017/08/18 13:09:01","新北市汐止區康寧街901號","121.651173333333","25.07519","6501100","汐止區"
"221032","280-BY","2017/08/18 13:08:59","新北市汐止區龍安路44號","121.654038333333","25.0636266666667","6501100","汐止區"
"221027","281-BY","2017/08/18 13:08:58","新北市汐止區大同路三段182號","121.674218333333","25.0746833333333","6501100","汐止區"
"221002","753-BX","2017/08/18 13:09:00","新北市汐止區福德一路342巷1弄7號","121.628963333333","25.0632266666667","6501100","汐止區"
"220011","609-BX","2017/08/18 00:19:58","新北市板橋區民生路二段15-1號","121.472668333333","25.0164366666667","6500100","板橋區"
"249001","3G-OBU6","2017/08/18 11:40:04","桃園市楊梅區電研路100-24號","121.166105","24.9536116666667","6502300","八里區"
