"lineid","car","time","location","longitude","latitude","cityid","cityname"
"234044","148-BY","2017/08/18 13:29:03","新北市永和區秀朗路二段96號","121.52378","25.0016983333333","6500400","永和區"
"234012","149-BY","2017/08/18 13:28:54","新北市永和區永平路203巷1號","121.509335","25.0098883333333","6500400","永和區"
"234005","207-UY","2017/08/18 13:29:05","新北市永和區中山路一段95號","121.511345","25.010525","6500400","永和區"
"234078","298-R6","2017/08/18 13:29:06","新北市永和區福和路7巷5弄7號","121.525563333333","25.0083233333333","6500400","永和區"
"234036","336-UY","2017/08/18 13:29:09","新北市永和區民樂街55巷12號","121.527985","24.99856","6500400","永和區"
"234062","337-UY","2017/08/18 13:29:09","新北市永和區中正路368巷1弄67號","121.520101666667","25.0008916666667","6500400","永和區"
"234084","338-UY","2017/08/18 13:28:52","新北市永和區林森路29巷2號","121.52598","25.005105","6500400","永和區"
"234052","553-UM","2017/08/18 13:28:50","新北市永和區竹林路7號","121.516521666667","25.0149066666667","6500400","永和區"
"234015","745-BX","2017/08/18 13:29:10","新北市永和區永和路二段425巷75弄5號","121.513413333333","25.01709","6500400","永和區"
"234028","746-BX","2017/08/18 13:29:10","新北市永和區民生路67巷19號","121.523581666667","24.9972316666667","6500400","永和區"
"234060","AAD-866","2017/08/18 13:28:54","新北市永和區永貞路121號","121.517028333333","25.004235","6500400","永和區"
"234068","847-RS","2017/08/18 13:28:55","新北市永和區警光街2號","121.520166666667","25.0096933333333","6500400","永和區"
"234040","862-TW","2017/08/18 13:28:53","新北市永和區水源街39巷12號","121.510483333333","25.0037616666667","6500400","永和區"
"234048","863-TW","2017/08/18 13:28:48","新北市永和區仁愛路122號","121.511635","25.0132","6500400","永和區"
"234025","9371-KE","2017/08/18 13:28:55","新北市永和區永和路二段35號","121.5143","25.01033","6500400","永和區"
"234010","9373-KE","2017/08/18 13:29:04","新北市永和區仁愛路141巷30弄5號","121.511938333333","25.0114933333333","6500400","永和區"
"248019","225-UY","2017/08/18 13:28:57","新北市五股區孝義路90號","121.447751666667","25.1144583333333","6501500","五股區"
"234022","9380-KE","2017/08/18 13:29:08","新北市永和區豫溪街57巷8弄5號","121.517655","25.0105316666667","6500400","永和區"
"234076","969-R7","2017/08/18 13:29:08","新北市永和區得和路211號","121.519156666667","25.0002433333333","6500400","永和區"
"234072","AAC-211","2017/08/18 13:29:01","新北市永和區福和路22號","121.524115","25.00842","6500400","永和區"
"234066","AAC-212","2017/08/18 13:29:05","新北市永和區保平路176號","121.510815","25.0067466666667","6500400","永和區"
"234001","AAC-295","2017/08/18 13:29:05","新北市永和區永和路一段107號","121.513893333333","25.008015","6500400","永和區"
"232017","076-UY","2017/08/18 13:28:56","新北市坪林區鶯子瀨1-2號","121.708718333333","24.9182183333333","6502000","坪林區"
"244004","248-BX","2017/08/18 13:28:53","新北市林口區頂福20-16號","121.356788333333","25.0934866666667","6501700","林口區"
"231002","002-UM","2017/08/18 13:28:58","新北市新店區環河路29巷1號","121.536945","24.961355","6500600","新店區"
"231028","046-UY","2017/08/18 13:28:53","新北市新店區安康路一段355號","121.519898333333","24.9636633333333","6500600","新店區"
"231030","047-UY","2017/08/18 13:28:55","新北市新店區安康路二段1-5號","121.517021666667","24.963805","6500600","新店區"
"231029","106-UY","2017/08/18 13:28:53","新北市新店區安忠路57巷15號","121.512593333333","24.95713","6500600","新店區"
"231018","107-UY","2017/08/18 13:29:03","新北市新店區中央路151號","121.529195","24.9719733333333","6500600","新店區"
"231012","108-UY","2017/08/18 13:28:50","新北市新店區寶橋路6巷4號","121.5433","24.973425","6500600","新店區"
"231035","110-UY","2017/08/18 13:28:57","新北市新店區安康路一段355號","121.519813333333","24.9635316666667","6500600","新店區"
"231022","187-VK","2017/08/18 13:29:01","新北市新店區永興路2號","121.545935","24.9408233333333","6500600","新店區"
"231026","256-BX","2017/08/18 13:29:07","新北市新店區安康路一段52巷2號","121.53003","24.96121","6500600","新店區"
"231034","268-BY","2017/08/18 13:29:08","新北市新店區車子路110號","121.50522","24.9520966666667","6500600","新店區"
"231010","278-BY","2017/08/18 13:29:04","新北市新店區中正路397號","121.534526666667","24.9773383333333","6500600","新店區"
"231016","AAD-862","2017/08/18 13:28:51","新北市新店區新烏路一段9-1號","121.547278333333","24.9513683333333","6500600","新店區"
"231027","3712-VJ","2017/08/18 13:29:03","新北市新店區新店後街47號","121.537481666667","24.954645","6500600","新店區"
"231024","3713-VJ","2017/08/18 13:28:49","新北市新店區中正路128巷9弄2號","121.542455","24.9719416666667","6500600","新店區"
"231025","4716-K9","2017/08/18 13:29:11","新北市新店區中央路216-1號","121.52985","24.9731916666667","6500600","新店區"
"231038","4715-K9","2017/08/18 13:29:00","新北市新店區安華路30巷1號","121.519541666667","24.959275","6500600","新店區"
"231036","512-UM","2017/08/18 13:28:53","新北市新店區建業路90-1號","121.479581666667","24.9557383333333","6500600","新店區"
"231023","513-UM","2017/08/18 13:28:51","新北市新店區新店路13號","121.540271666667","24.9529016666667","6500600","新店區"
"231003","616-UM","2017/08/18 13:28:54","新北市新店區中正路82號","121.543701666667","24.97026","6500600","新店區"
"231006","617-UM","2017/08/18 13:28:50","新北市新店區安康路一段238號","121.522038333333","24.9637533333333","6500600","新店區"
"231001","619-UM","2017/08/18 13:27:18","新北市新店區安康路一段105號","121.528996666667","24.9616166666667","6500600","新店區"
"231013","719-UM","2017/08/18 13:29:06","新北市新店區中正路454-5號","121.534465","24.978995","6500600","新店區"
"231032","720-UM","2017/08/18 13:28:52","新北市新店區安豐路63號","121.497955","24.9529116666667","6500600","新店區"
"231005","897-TW","2017/08/18 13:29:02","新北市新店區安康路一段105號","121.529088333333","24.96152","6500600","新店區"
"231004","899-TW","2017/08/18 13:29:00","新北市新店區安康路一段173號","121.527048333333","24.962555","6500600","新店區"
"231037","AKT-0513","2017/08/18 13:29:06","新北市新店區薏仁坑路55號","121.490871666667","24.9645033333333","6500600","新店區"
"235030","003-UY","2017/08/18 13:29:00","新北市中和區中山路二段120號","121.502738333333","25.00379","6500300","中和區"
"235028","005-UY","2017/08/18 13:28:53","新北市中和區安邦街83號","121.496881666667","24.9965216666667","6500300","中和區"
"235027","006-UY","2017/08/18 13:28:52","新北市中和區中正路506號","121.488638333333","24.994505","6500300","中和區"
"235020","096-UM","2017/08/18 13:28:51","新北市中和區員山路466巷21弄41號","121.480823333333","25.0079233333333","6500300","中和區"
"235003","097-UM","2017/08/18 13:28:57","新北市中和區景新街279號","121.509511666667","24.9934883333333","6500300","中和區"
"235029","098-UM","2017/08/18 13:29:00","新北市中和區莊敬路49巷20弄4號","121.501855","25.0059566666667","6500300","中和區"
"235004","150-BY","2017/08/18 13:28:55","新北市中和區保健路50巷68號","121.509053333333","24.9951583333333","6500300","中和區"
"235022","151-BY","2017/08/18 13:28:54","新北市中和區圓通路369巷72號","121.4901","24.9822133333333","6500300","中和區"
"235022","183-VK","2017/08/18 13:28:58","新北市中和區莒光路207號","121.470013333333","24.9954183333333","6500300","中和區"
"235002","185-VK","2017/08/18 13:28:58","新北市中和區秀朗路三段128巷17弄4號","121.524308333333","24.9935616666667","6500300","中和區"
"235013","186-VK","2017/08/18 13:28:52","新北市中和區中正路33號","121.502186666667","24.99354","6500300","中和區"
"235031","255-BX","2017/08/18 13:29:03","新北市中和區新生街240號","121.483768333333","24.9979616666667","6500300","中和區"
"235036","301-VK","2017/08/18 13:28:59","新北市中和區連城路263巷4弄4號","121.491646666667","24.995855","6500300","中和區"
"235007","352-BY","2017/08/18 13:29:08","新北市中和區景平路293號","121.507076666667","24.9929566666667","6500300","中和區"
"235015","376-QA","2017/08/18 13:29:05","新北市中和區興南路二段142巷24弄2號","121.5023","24.9846966666667","6500300","中和區"
"235032","377-QA","2017/08/18 13:29:06","新北市中和區中正路283號","121.493755","24.9938516666667","6500300","中和區"
"235025","378-QA","2017/08/18 13:29:04","新北市中和區莒光路177巷8號","121.473328333333","24.9991533333333","6500300","中和區"
"235014","4979-A6","2017/08/18 13:27:21","新北市中和區景新街410巷18弄25號","121.51176","24.9900133333333","6500300","中和區"
"235033","4980-A6","2017/08/18 13:28:59","新北市中和區連城路127巷35號","121.49744","24.997175","6500300","中和區"
"235006","551-UM","2017/08/18 13:29:09","新北市中和區自立路58巷25弄2號","121.52299","24.99134","6500300","中和區"
"235034","558-UM","2017/08/18 13:28:53","新北市中和區圓通路146號","121.498143333333","24.9956866666667","6500300","中和區"
"235009","565-BX","2017/08/18 13:29:00","新北市中和區景安路200巷3弄1號","121.503611666667","24.9915183333333","6500300","中和區"
"235018","640-BX","2017/08/18 13:28:57","新北市中和區民享街116巷1號","121.474325","24.9986133333333","6500300","中和區"
"235024","647-TV","2017/08/18 13:29:09","新北市中和區員山路283號","121.481278333333","24.9997216666667","6500300","中和區"
"235011","732-UM","2017/08/18 13:29:01","新北市中和區中正路155號","121.498901666667","24.9933333333333","6500300","中和區"
"235010","733-UM","2017/08/18 13:29:02","新北市中和區中正路571巷1弄4號","121.48676","24.9935216666667","6500300","中和區"
"235026","800-TS","2017/08/18 13:29:00","新北市中和區景平路754號","121.496451666667","25.0045533333333","6500300","中和區"
"235021","801-TS","2017/08/18 13:29:01","新北市中和區民安街111巷24弄7號","121.476315","24.998915","6500300","中和區"
"235005","802-TS","2017/08/18 13:28:50","新北市中和區中和路318號","121.509468333333","25.000615","6500300","中和區"
"235016","805-TS","2017/08/18 13:29:00","新北市中和區興南路二段96號","121.505193333333","24.9842166666667","6500300","中和區"
"235012","896-TW","2017/08/18 13:29:07","新北市中和區中正路637巷52弄1號","121.485421666667","24.9933966666667","6500300","中和區"
"235017","900-TW","2017/08/18 13:28:59","新北市中和區民享街457號","121.47038","24.993175","6500300","中和區"
"235023","911-UM","2017/08/18 13:29:05","新北市中和區永和路458巷3弄17號","121.483571666667","25.013025","6500300","中和區"
"235001","AAC-213","2017/08/18 13:29:02","新北市中和區景新街423巷36號","121.514753333333","24.9897666666667","6500300","中和區"
"235023","AAC-215","2017/08/18 13:28:50","新北市中和區員山路36巷16-3號","121.484973333333","24.9912233333333","6500300","中和區"
"220016","013-TV","2017/08/18 13:29:05","新北市板橋區民生路二段16號","121.47291","25.016495","6500100","板橋區"
"220013","072-UY","2017/08/18 13:28:58","新北市板橋區民生路二段36-1號","121.472571666667","25.016585","6500100","板橋區"
"220034","073-UY","2017/08/18 13:28:57","新北市板橋區華東街1-10號","121.448656666667","24.994925","6500100","板橋區"
"247007","339-TH","2017/08/18 13:28:52","新北市五股區中興路三段163號","121.449346666667","25.080805","6501400","蘆洲區"
"247001","336-TH","2017/08/18 13:28:54","新北市五股區中興路三段163號","121.449325","25.080925","6501400","蘆洲區"
"247015","001-UY","2017/08/18 13:29:04","新北市五股區中興路三段2巷10號","121.449161666667","25.0810983333333","6501400","蘆洲區"
"208004","AAC-292","2017/08/18 13:28:56","新北市金山區南勢湖66號","121.616135","25.2148133333333","6502700","金山區"
"207002","749-BX","2017/08/18 13:28:59","新北市萬里區崁腳里崁腳路166號","121.645126666667","25.1560433333333","6502800","萬里區"
"207001","662-BX","2017/08/18 13:27:52","新北市萬里區龜吼里石角路19-1號","121.68397","25.1916783333333","6502800","萬里區"
"236006","498-BY","2017/08/18 13:29:04","新北市土城區亞洲路11巷1弄35號","121.436138333333","24.972","6501300","土城區"
"236057","912-UM","2017/08/18 13:28:49","新北市土城區城林路6巷80號","121.438293333333","24.9797483333333","6501300","土城區"
"221012","276-VK","2017/08/18 13:23:13","新北市汐止區汐萬路一段256巷3號","121.653461666667","25.07462","6501100","汐止區"
"221032","280-BY","2017/08/18 13:28:59","新北市汐止區水源路一段56號","121.657443333333","25.06556","6501100","汐止區"
"221027","281-BY","2017/08/18 13:28:58","新北市汐止區新台五路二段652號","121.68169","25.068515","6501100","汐止區"
"221002","753-BX","2017/08/18 13:29:00","新北市汐止區福德一路473號","121.625791666667","25.0590383333333","6501100","汐止區"
"220028","200-UY","2017/08/18 13:28:55","新北市板橋區華東街1-10號","121.448323333333","24.9948416666667","6500100","板橋區"
"220030","610-BX","2017/08/18 13:29:01","新北市板橋區華東街1-10號","121.448293333333","24.9949516666667","6500100","板橋區"
"220004","276-BY","2017/08/18 13:28:59","新北市板橋區中山路一段161號","121.465136666667","25.0120833333333","6500100","板橋區"
"220001","285-VK","2017/08/18 13:28:57","新北市板橋區民生路二段30號","121.472781666667","25.0170333333333","6500100","板橋區"
"220032","296-UM","2017/08/18 13:29:02","新北市板橋區華東街1-9號","121.448175","24.994965","6500100","板橋區"
"220010","305-R5","2017/08/18 13:29:00","新北市板橋區民生路二段22號","121.472883333333","25.0166633333333","6500100","板橋區"
"220104","560-BX","2017/08/18 13:29:03","新北市板橋區四川路二段140巷16弄28號","121.448801666667","24.994625","6500100","板橋區"
"220011","609-BX","2017/08/18 00:19:58","新北市板橋區民生路二段15-1號","121.472668333333","25.0164366666667","6500100","板橋區"
"220002","686-BX","2017/08/18 13:29:07","新北市板橋區民生路二段36-1號","121.47265","25.0166416666667","6500100","板橋區"
"220025","687-BX","2017/08/18 13:29:04","新北市板橋區大觀路二段435-1號","121.446515","24.9945883333333","6500100","板橋區"
"220022","895-R6","2017/08/18 13:29:08","新北市板橋區四川路二段130巷26號","121.44958","24.9943483333333","6500100","板橋區"
"220021","985-R7","2017/08/18 13:29:01","新北市板橋區華東街1-10號","121.448343333333","24.994995","6500100","板橋區"
"249001","3G-OBU6","2017/08/18 11:40:04","桃園市楊梅區電研路100-24號","121.166105","24.9536116666667","6502300","八里區"
