"lineid","car","time","location","longitude","latitude","cityid","cityname"
"234044","148-BY","2017/08/18 14:19:03","新北市永和區永利路133號","121.524138333333","25.00316","6500400","永和區"
"234012","149-BY","2017/08/18 14:18:54","新北市中和區永和路220巷32號","121.492056666667","25.008425","6500400","永和區"
"234005","207-UY","2017/08/18 14:19:05","新北市永和區中正路409號","121.516953333333","25.00471","6500400","永和區"
"234078","298-R6","2017/08/18 14:19:06","新北市永和區國中路132巷16號","121.524078333333","25.0076333333333","6500400","永和區"
"234036","336-UY","2017/08/18 14:18:49","新北市永和區民樂街31巷6弄14號","121.528883333333","25.0015533333333","6500400","永和區"
"234062","337-UY","2017/08/18 14:19:09","新北市永和區得和路106號","121.518063333333","25.0000716666667","6500400","永和區"
"234084","338-UY","2017/08/18 14:18:52","新北市永和區永和路二段103號","121.514891666667","25.011735","6500400","永和區"
"234052","553-UM","2017/08/18 14:18:51","新北市永和區永和路二段310號","121.51614","25.0161516666667","6500400","永和區"
"234060","AAD-866","2017/08/18 14:18:54","新北市永和區安樂路194巷30號","121.516516666667","25.0011516666667","6500400","永和區"
"234068","847-RS","2017/08/18 14:18:53","新北市永和區永安街19號","121.519146666667","25.0068333333333","6500400","永和區"
"234040","862-TW","2017/08/18 14:18:52","新北市中和區中安街222號","121.512125","24.998715","6500400","永和區"
"234048","863-TW","2017/08/18 14:19:06","新北市永和區保福路三段11號","121.508316666667","25.01564","6500400","永和區"
"234025","9371-KE","2017/08/18 14:18:55","新北市永和區安樂路98號","121.514216666667","24.9993083333333","6500400","永和區"
"248019","225-UY","2017/08/18 13:58:41","新北市五股區凌雲路三段57號","121.425326666667","25.125","6501500","五股區"
"234022","9380-KE","2017/08/18 14:18:48","新北市永和區保生路55-1號","121.504431666667","25.0109333333333","6500400","永和區"
"234076","969-R7","2017/08/18 14:18:47","新北市永和區民族街81巷62號","121.520318333333","24.9965183333333","6500400","永和區"
"234072","AAC-211","2017/08/18 14:18:55","新北市永和區竹林路39巷1號","121.51802","25.014345","6500400","永和區"
"234066","AAC-212","2017/08/18 14:19:05","新北市永和區保平路236巷12弄2號","121.508646666667","25.0063683333333","6500400","永和區"
"234001","AAC-295","2017/08/18 14:19:05","新北市永和區自強街32巷3號","121.516341666667","25.0078333333333","6500400","永和區"
"232017","076-UY","2017/08/18 14:18:56","新北市坪林區坪雙路二段38號","121.735681666667","24.9661133333333","6502000","坪林區"
"244004","248-BX","2017/08/18 14:18:53","新北市林口區太平里180號","121.368193333333","25.13471","6501700","林口區"
"231002","002-UM","2017/08/18 14:18:58","新北市新店區中央路230號","121.529595","24.9726783333333","6500600","新店區"
"231028","046-UY","2017/08/18 14:18:53","新北市新店區安和路二段148號","121.519636666667","24.9728633333333","6500600","新店區"
"231030","047-UY","2017/08/18 14:18:55","新北市新店區安民街14號","121.515415","24.9644816666667","6500600","新店區"
"231029","106-UY","2017/08/18 14:19:02","新北市新店區安康路二段161號","121.510233333333","24.95936","6500600","新店區"
"231018","107-UY","2017/08/18 14:19:03","新北市新店區中央三街39號","121.528085","24.97447","6500600","新店區"
"231012","108-UY","2017/08/18 14:18:50","新北市新店區五峰路61巷2號","121.54738","24.9700983333333","6500600","新店區"
"231035","110-UY","2017/08/18 14:18:57","新北市新店區光華街5巷36號","121.517428333333","24.96783","6500600","新店區"
"231022","187-VK","2017/08/18 14:19:01","新北市新店區桂山路81巷3號","121.566161666667","24.8966166666667","6500600","新店區"
"231034","268-BY","2017/08/18 14:18:48","新北市新店區黎明路3號","121.503476666667","24.952395","6500600","新店區"
"231016","AAD-862","2017/08/18 14:18:51","新北市新店區北宜路二段392巷4號","121.565496666667","24.9534","6500600","新店區"
"231027","3712-VJ","2017/08/18 14:18:43","新北市新店區光明街286巷13號","121.540616666667","24.96412","6500600","新店區"
"231024","3713-VJ","2017/08/18 14:19:09","新北市新店區新生街13巷42號","121.538973333333","24.9666116666667","6500600","新店區"
"231025","4716-K9","2017/08/18 14:18:51","新北市新店區二十張路143-1號","121.535143333333","24.9788566666667","6500600","新店區"
"231038","4715-K9","2017/08/18 14:19:00","新北市新店區溪洲路6巷5號","121.533943333333","24.9614933333333","6500600","新店區"
"231036","512-UM","2017/08/18 14:18:53","新北市新店區安祥路109巷151弄12號","121.478101666667","24.958885","6500600","新店區"
"231023","513-UM","2017/08/18 14:18:51","新北市新店區光明街124號","121.53916","24.9610233333333","6500600","新店區"
"231003","616-UM","2017/08/18 14:18:54","新北市新店區中興路一段203號","121.5437","24.9656183333333","6500600","新店區"
"231006","617-UM","2017/08/18 14:18:50","新北市新店區北宜路二段599號","121.5682","24.9556533333333","6500600","新店區"
"231001","619-UM","2017/08/18 14:18:58","新北市新店區北新路一段273號","121.541065","24.9665933333333","6500600","新店區"
"231013","719-UM","2017/08/18 14:19:06","新北市新店區建國路128巷1號","121.539041666667","24.9793983333333","6500600","新店區"
"231032","720-UM","2017/08/18 14:18:52","新北市新店區溪洲路200-2號","121.529258333333","24.96782","6500600","新店區"
"231005","897-TW","2017/08/18 14:19:04","新北市新店區中興路三段200號","121.543985","24.981925","6500600","新店區"
"231004","899-TW","2017/08/18 14:19:00","新北市新店區中正路143號","121.54161","24.9715783333333","6500600","新店區"
"231037","AKT-0513","2017/08/18 14:18:46","新北市新店區車子路67號","121.503686666667","24.95135","6500600","新店區"
"235030","003-UY","2017/08/18 14:19:00","新北市中和區中和路151號","121.50258","24.999845","6500300","中和區"
"235028","005-UY","2017/08/18 14:18:53","新北市中和區南山路39號","121.502101666667","24.9987416666667","6500300","中和區"
"235027","006-UY","2017/08/18 14:18:52","新北市中和區連城路263-2號","121.491485","24.99648","6500300","中和區"
"235020","096-UM","2017/08/18 14:18:51","新北市中和區員山路502-6號","121.479593333333","25.007785","6500300","中和區"
"235003","097-UM","2017/08/18 14:18:57","新北市中和區秀峰街121號","121.520021666667","24.9907283333333","6500300","中和區"
"235029","098-UM","2017/08/18 14:19:00","新北市中和區中山路二段2巷3弄7-1號","121.504581666667","25.0058333333333","6500300","中和區"
"235004","150-BY","2017/08/18 14:18:55","新北市中和區保健路106巷22弄13號","121.511023333333","24.9952166666667","6500300","中和區"
"235022","151-BY","2017/08/18 14:18:54","新北市中和區員山路36巷16-2號","121.485196666667","24.99172","6500300","中和區"
"235022","183-VK","2017/08/18 14:18:58","新北市中和區中山路三段181巷4號","121.472828333333","25.0059266666667","6500300","中和區"
"235002","185-VK","2017/08/18 14:18:58","新北市中和區大仁街20巷24號","121.518828333333","24.99322","6500300","中和區"
"235013","186-VK","2017/08/18 14:18:52","新北市中和區景新街230號","121.508236666667","24.9941666666667","6500300","中和區"
"235031","255-BX","2017/08/18 14:19:03","新北市中和區新生街164號","121.483685","25.000265","6500300","中和區"
"235008","293-VK","2017/08/18 14:19:01","新北市中和區中興街202巷2號","121.49952","24.9900966666667","6500300","中和區"
"235036","301-VK","2017/08/18 14:18:59","新北市中和區中山路二段3巷22弄1號","121.506363333333","25.005325","6500300","中和區"
"235007","352-BY","2017/08/18 14:18:48","新北市中和區景平路155號","121.5134","24.9922716666667","6500300","中和區"
"235015","376-QA","2017/08/18 14:19:07","新北市中和區和平街2巷4弄7號","121.510188333333","24.99089","6500300","中和區"
"235032","377-QA","2017/08/18 14:19:06","新北市中和區圓通路156號","121.497913333333","24.995665","6500300","中和區"
"235025","378-QA","2017/08/18 14:19:04","新北市中和區員山路145號","121.481016666667","24.9961566666667","6500300","中和區"
"235014","4979-A6","2017/08/18 14:19:01","新北市中和區中正路147號","121.499243333333","24.9931616666667","6500300","中和區"
"235033","4980-A6","2017/08/18 14:18:59","新北市中和區景平路736巷1弄9號","121.497531666667","25.0040733333333","6500300","中和區"
"235006","551-UM","2017/08/18 14:18:49","新北市永和區民有街25巷2號","121.517111666667","24.99605","6500300","中和區"
"235034","558-UM","2017/08/18 14:18:53","新北市中和區中和路199號","121.503703333333","24.9998566666667","6500300","中和區"
"235009","565-BX","2017/08/18 14:19:00","新北市中和區景新街437巷17號","121.514118333333","24.989315","6500300","中和區"
"235018","640-BX","2017/08/18 14:18:57","新北市中和區民德路150號","121.468553333333","25.0001483333333","6500300","中和區"
"235024","647-TV","2017/08/18 14:18:49","新北市中和區員山路469巷1號","121.480155","25.00455","6500300","中和區"
"235011","732-UM","2017/08/18 14:19:01","新北市中和區景平路241巷31號","121.508788333333","24.99238","6500300","中和區"
"235010","733-UM","2017/08/18 14:19:02","新北市中和區忠孝街2巷9弄2號","121.510388333333","24.9821766666667","6500300","中和區"
"235026","800-TS","2017/08/18 14:19:00","新北市中和區中山路二段386號","121.490653333333","25.00356","6500300","中和區"
"235021","801-TS","2017/08/18 14:19:01","新北市中和區民利街48號","121.47938","24.998815","6500300","中和區"
"235005","802-TS","2017/08/18 14:18:50","新北市中和區宜安路120號","121.51027","24.9980916666667","6500300","中和區"
"235016","805-TS","2017/08/18 14:19:04","新北市中和區興南路二段142巷31弄54號","121.501756666667","24.98366","6500300","中和區"
"235012","896-TW","2017/08/18 14:18:46","新北市中和區華新街109巷1-2號","121.509025","24.98237","6500300","中和區"
"235017","900-TW","2017/08/18 14:18:59","新北市中和區華安街21巷2號","121.467395","24.9974866666667","6500300","中和區"
"235035","911-UM","2017/08/18 14:19:05","新北市中和區立德街98巷91號","121.488745","25.008665","6500300","中和區"
"235001","AAC-213","2017/08/18 14:19:02","新北市中和區秀朗路三段50巷17號","121.524925","24.995145","6500300","中和區"
"235023","AAC-215","2017/08/18 14:18:50","新北市中和區圓通路286巷10號","121.491515","24.99126","6500300","中和區"
"220016","013-TV","2017/08/18 14:19:05","新北市板橋區林森街1巷34號","121.48287","25.0243933333333","6500100","板橋區"
"220013","072-UY","2017/08/18 14:18:58","新北市板橋區民族路170號","121.467473333333","25.0076816666667","6500100","板橋區"
"220034","073-UY","2017/08/18 14:18:56","新北市板橋區中正路216巷22號","121.456793333333","25.0185333333333","6500100","板橋區"
"220105","075-UY","2017/08/18 14:19:07","新北市板橋區雙十路三段70巷1號","121.47036","25.0325","6500100","板橋區"
"220017","AAD-861","2017/08/18 14:18:50","新北市板橋區大華街146巷2號","121.45942","25.0043133333333","6500100","板橋區"
"220051","120-SR","2017/08/18 14:19:07","新北市板橋區文聖街160號","121.478978333333","25.0271066666667","6500100","板橋區"
"247019","893-R6","2017/08/18 14:19:06","新北市蘆洲區仁愛街66號","121.471536666667","25.0939683333333","6501400","蘆洲區"
"247009","546-UM","2017/08/18 14:19:03","新北市蘆洲區鷺江街38號","121.477296666667","25.0830266666667","6501400","蘆洲區"
"247017","500-BY","2017/08/18 14:19:04","新北市蘆洲區民權路136-2號","121.473188333333","25.0888816666667","6501400","蘆洲區"
"247007","339-TH","2017/08/18 14:18:52","新北市蘆洲區中山一路212號","121.473233333333","25.0806283333333","6501400","蘆洲區"
"247023","337-TH","2017/08/18 14:19:00","新北市蘆洲區三民路499號","121.46338","25.0914883333333","6501400","蘆洲區"
"247001","336-TH","2017/08/18 14:18:54","新北市蘆洲區永樂街110號","121.45596","25.08898","6501400","蘆洲區"
"247013","057-VK","2017/08/18 14:19:00","新北市蘆洲區中山一路228號","121.473","25.08048","6501400","蘆洲區"
"247003","056-VK","2017/08/18 14:18:57","新北市蘆洲區中原路85號","121.458043333333","25.0817333333333","6501400","蘆洲區"
"247005","053-VK","2017/08/18 14:18:54","新北市蘆洲區長安街22巷2號","121.46424","25.0793516666667","6501400","蘆洲區"
"247011","007-UY","2017/08/18 14:18:59","新北市蘆洲區民權路3巷14弄15號","121.475126666667","25.0856166666667","6501400","蘆洲區"
"247021","002-UY","2017/08/18 14:19:05","新北市蘆洲區仁愛街212巷28-1號","121.464128333333","25.0947383333333","6501400","蘆洲區"
"247015","001-UY","2017/08/18 14:19:04","新北市蘆洲區中正路185巷23弄23號","121.46758","25.083995","6501400","蘆洲區"
"208004","AAC-292","2017/08/18 14:18:56","新北市金山區重和里六股林口9-1號","121.606336666667","25.2200766666667","6502700","金山區"
"207002","749-BX","2017/08/18 14:18:19","新北市萬里區溪底里溪底路13號","121.613895","25.1496216666667","6502800","萬里區"
"207001","662-BX","2017/08/18 14:18:52","新北市萬里區磺潭里清水18號","121.637888333333","25.197775","6502800","萬里區"
"236067","105-UM","2017/08/18 14:18:55","新北市土城區明德路一段184號","121.462273333333","24.9780466666667","6501300","土城區"
"236041","107-UM","2017/08/18 14:19:05","新北市土城區裕生路21巷6弄2-1號","121.448768333333","24.9869916666667","6501300","土城區"
"236077","166-UM","2017/08/18 14:19:06","新北市土城區永平街29號","121.428605","24.962395","6501300","土城區"
"236029","253-BX","2017/08/18 14:18:51","新北市土城區順風路29號","121.440253333333","24.9770233333333","6501300","土城區"
"236025","269-VK","2017/08/18 14:18:48","新北市土城區承天路67號","121.439515","24.9635183333333","6501300","土城區"
"236013","270-VK","2017/08/18 14:19:00","新北市土城區青雲路39巷7號","121.460316666667","24.987445","6501300","土城區"
"236035","271-VK","2017/08/18 14:18:46","新北市土城區青雲路483巷9號","121.45936","24.97358","6501300","土城區"
"236019","401-BY","2017/08/18 14:19:05","新北市土城區明德路一段59號","121.465335","24.9845283333333","6501300","土城區"
"236006","498-BY","2017/08/18 14:19:04","新北市土城區中華路一段70巷18號","121.444323333333","24.9889416666667","6501300","土城區"
"236057","912-UM","2017/08/18 14:18:49","新北市土城區中央路四段208號","121.415921666667","24.9574133333333","6501300","土城區"
"236046","913-UM","2017/08/18 14:18:59","新北市土城區明德路一段369號","121.456075","24.977835","6501300","土城區"
"236061","915-UM","2017/08/18 14:18:59","新北市土城區延壽路44巷11號","121.47136","24.99304","6501300","土城區"
"236054","AAC-216","2017/08/18 14:18:53","新北市土城區中華路二段98號","121.438106666667","24.9744333333333","6501300","土城區"
"221012","276-VK","2017/08/18 13:23:13","新北市汐止區汐萬路一段256巷3號","121.653461666667","25.07462","6501100","汐止區"
"221027","281-BY","2017/08/18 14:18:58","新北市汐止區八連路一段207號","121.640695","25.080505","6501100","汐止區"
"220027","145-BY","2017/08/18 14:18:41","新北市板橋區民權路202巷18弄1號","121.460816666667","25.01665","6500100","板橋區"
"220028","200-UY","2017/08/18 14:19:01","新北市板橋區大觀路二段5號","121.447016666667","25.0038583333333","6500100","板橋區"
"220030","610-BX","2017/08/18 14:19:01","新北市板橋區溪城路73號","121.426348333333","24.98392","6500100","板橋區"
"220050","245-BX","2017/08/18 14:18:49","新北市板橋區雙十路二段85號","121.475525","25.027265","6500100","板橋區"
"220004","276-BY","2017/08/18 14:18:59","新北市板橋區和平路13號","121.45943","24.99456","6500100","板橋區"
"220020","277-BY","2017/08/18 14:18:59","新北市板橋區金門街372巷32號","121.427475","24.9848583333333","6500100","板橋區"
"220043","283-UM","2017/08/18 14:19:05","新北市板橋區吳鳳路19巷16號","121.466888333333","25.030655","6500100","板橋區"
"220019","283-VK","2017/08/18 14:19:03","新北市板橋區重慶路327巷19弄3-2號","121.464745","24.998835","6500100","板橋區"
"220001","285-VK","2017/08/18 14:18:57","新北市板橋區縣民大道三段270巷13號","121.47857","25.02302","6500100","板橋區"
"220031","286-VK","2017/08/18 14:18:46","新北市板橋區大觀路二段174巷186弄2-3號","121.4424","25.0036283333333","6500100","板橋區"
"220029","287-VK","2017/08/18 14:18:52","新北市板橋區南雅西路一段68號","121.453668333333","25.0052416666667","6500100","板橋區"
"220039","288-VK","2017/08/18 14:19:01","新北市板橋區長江路一段156巷9弄2號","121.461578333333","25.0297783333333","6500100","板橋區"
"220009","293-UM","2017/08/18 14:16:22","新北市板橋區中山路二段320號","121.480865","25.019435","6500100","板橋區"
"220003","295-UM","2017/08/18 14:18:55","新北市板橋區民族路61號","121.464763333333","25.0087833333333","6500100","板橋區"
"220032","296-UM","2017/08/18 14:19:02","新北市板橋區滿平街136巷6弄11號","121.42756","24.9877716666667","6500100","板橋區"
"220023","297-UM","2017/08/18 14:18:55","新北市板橋區南雅南路一段1巷34號","121.457213333333","25.0066283333333","6500100","板橋區"
"220010","305-R5","2017/08/18 14:19:00","新北市板橋區三民路二段181巷1號","121.479606666667","25.0144866666667","6500100","板橋區"
"220041","307-R5","2017/08/18 14:19:07","新北市板橋區松江街43號","121.46851","25.0272883333333","6500100","板橋區"
"220047","317-R6","2017/08/18 14:19:00","新北市板橋區四維路254號","121.463535","25.0281833333333","6500100","板橋區"
"220012","486-VK","2017/08/18 14:18:58","新北市板橋區中山路一段68號","121.461466666667","25.0099366666667","6500100","板橋區"
"220038","487-VK","2017/08/18 14:19:02","新北市板橋區文化路二段28號","121.46908","25.02499","6500100","板橋區"
"220002","491-VK","2017/08/18 14:18:50","新北市板橋區文化路二段182巷3弄31號","121.472215","25.0283066666667","6500100","板橋區"
"220104","560-BX","2017/08/18 14:19:03","新北市板橋區中正路429號","121.454108333333","25.0229816666667","6500100","板橋區"
"220052","561-BX","2017/08/18 14:19:05","新北市板橋區文化路一段188巷7弄34號","121.468045","25.019445","6500100","板橋區"
"220011","609-BX","2017/08/18 14:19:09","新北市板橋區三民路二段204-4號","121.478855","25.0125116666667","6500100","板橋區"
"220040","637-BX","2017/08/18 14:19:01","新北市板橋區縣民大道三段219號","121.480425","25.0253016666667","6500100","板橋區"
"220005","686-BX","2017/08/18 14:18:48","新北市板橋區重慶路347-3號","121.464126666667","24.9980233333333","6500100","板橋區"
"220025","687-BX","2017/08/18 14:19:04","新北市板橋區大觀路二段77號","121.446388333333","25.0022333333333","6500100","板橋區"
"220042","689-BX","2017/08/18 14:18:46","新北市板橋區文化路一段339號","121.466585","25.0206416666667","6500100","板橋區"
"220002","741-BX","2017/08/18 14:18:56","新北市板橋區校前街42號","121.461408333333","25.0033183333333","6500100","板橋區"
"220014","829-TW","2017/08/18 14:18:49","新北市板橋區長安街138巷7弄4號","121.473326666667","25.00835","6500100","板橋區"
"220045","831-TW","2017/08/18 14:18:51","新北市板橋區大同街35巷12號","121.477613333333","25.0277583333333","6500100","板橋區"
"220022","895-R6","2017/08/18 14:19:08","新北市板橋區府中路141號","121.455643333333","25.0095633333333","6500100","板橋區"
"220021","985-R7","2017/08/18 14:19:03","新北市板橋區中正路194號","121.456046666667","25.0179333333333","6500100","板橋區"
"220046","AAC-210","2017/08/18 14:19:03","新北市板橋區漢生西路89巷3弄8號","121.461503333333","25.019415","6500100","板橋區"
"220018","AAC-253","2017/08/18 14:19:05","新北市板橋區忠孝路40號","121.460373333333","25.0018966666667","6500100","板橋區"
"249001","3G-OBU6","2017/08/18 14:19:03","桃園市楊梅區電研路100-24號","121.1661","24.95364","6502300","八里區"
