"lineid","car","time","location","longitude","latitude","cityid","cityname"
"234044","148-BY","2017/08/18 14:29:03","新北市永和區永利路133號","121.524031666667","25.003195","6500400","永和區"
"234078","298-R6","2017/08/18 14:28:46","新北市永和區永亨路70號","121.520906666667","25.0058833333333","6500400","永和區"
"234036","336-UY","2017/08/18 14:28:49","新北市永和區環河東路四段112號","121.5279","24.9962316666667","6500400","永和區"
"234062","337-UY","2017/08/18 14:28:49","新北市永和區中正路433號","121.517065","25.0050716666667","6500400","永和區"
"234084","338-UY","2017/08/18 14:28:52","新北市永和區光復街27號","121.516513333333","25.0175333333333","6500400","永和區"
"234052","553-UM","2017/08/18 14:28:50","新北市永和區光復街31-1號","121.516381666667","25.0178666666667","6500400","永和區"
"234060","AAD-866","2017/08/18 14:28:54","新北市永和區中正路381號","121.517163333333","25.003775","6500400","永和區"
"234068","847-RS","2017/08/18 14:28:53","新北市永和區福和路263巷13號","121.51808","25.006615","6500400","永和區"
"234040","862-TW","2017/08/18 14:28:53","新北市永和區安樂路332巷1號","121.514596666667","25.0059983333333","6500400","永和區"
"234048","863-TW","2017/08/18 14:28:48","新北市永和區保安路132-1號","121.50869","25.0154566666667","6500400","永和區"
"234025","9371-KE","2017/08/18 14:28:55","新北市中和區安平路222號","121.514015","25.000125","6500400","永和區"
"248019","225-UY","2017/08/18 13:58:41","新北市五股區凌雲路三段57號","121.425326666667","25.125","6501500","五股區"
"234072","AAC-211","2017/08/18 14:28:55","新北市永和區環河東路二段8號","121.522171666667","25.0134166666667","6500400","永和區"
"234066","AAC-212","2017/08/18 14:29:05","新北市永和區保平路268巷14號","121.50794","25.0059933333333","6500400","永和區"
"234001","AAC-295","2017/08/18 14:28:58","新北市永和區大新街30號","121.515388333333","25.00836","6500400","永和區"
"232017","076-UY","2017/08/18 14:20:56","新北市坪林區坪雙路二段38號","121.735701666667","24.96613","6502000","坪林區"
"231002","002-UM","2017/08/18 14:28:58","新北市新店區中正路412號","121.534408333333","24.97763","6500600","新店區"
"231028","046-UY","2017/08/18 14:28:53","新北市新店區安康路二段186號","121.511415","24.9601366666667","6500600","新店區"
"231030","047-UY","2017/08/18 14:28:55","新北市新店區安民街81號","121.516591666667","24.9678533333333","6500600","新店區"
"231029","106-UY","2017/08/18 14:28:53","新北市新店區安康路二段382號","121.500438333333","24.95705","6500600","新店區"
"231018","107-UY","2017/08/18 14:29:03","新北市新店區中央二街45號","121.527553333333","24.974315","6500600","新店區"
"231012","108-UY","2017/08/18 14:28:50","新北市新店區中興路二段236巷6號","121.547993333333","24.9759016666667","6500600","新店區"
"231035","110-UY","2017/08/18 14:28:57","新北市新店區安民街10號","121.515313333333","24.9642983333333","6500600","新店區"
"231022","187-VK","2017/08/18 14:19:41","新北市新店區桂山路121號","121.56842","24.8946933333333","6500600","新店區"
"231034","268-BY","2017/08/18 14:28:48","新北市新店區車子路11號","121.503001666667","24.9518866666667","6500600","新店區"
"231016","AAD-862","2017/08/18 14:28:59","新北市新店區北宜路三段110號","121.58012","24.950345","6500600","新店區"
"231027","3712-VJ","2017/08/18 14:29:03","新北市新店區北新路二段228巷2號","121.543176666667","24.97734","6500600","新店區"
"231024","3713-VJ","2017/08/18 14:28:49","新北市新店區新生街13巷42-1號","121.538856666667","24.9664266666667","6500600","新店區"
"231025","4716-K9","2017/08/18 14:28:51","新北市新店區自立街40號","121.538305","24.9786283333333","6500600","新店區"
"231038","4715-K9","2017/08/18 14:29:00","新北市新店區溪洲路101-1號","121.531863333333","24.96241","6500600","新店區"
"231036","512-UM","2017/08/18 14:28:53","新北市新店區安祥路108巷3號","121.47512","24.9588","6500600","新店區"
"231023","513-UM","2017/08/18 14:28:58","新北市新店區光明街123號","121.539246666667","24.96175","6500600","新店區"
"231003","616-UM","2017/08/18 14:28:54","新北市新店區中興路一段267-1號","121.54488","24.9677116666667","6500600","新店區"
"231006","617-UM","2017/08/18 14:29:07","新北市新店區北宜路二段326號","121.562181666667","24.9537983333333","6500600","新店區"
"231001","619-UM","2017/08/18 14:28:58","新北市新店區北新路一段96巷23號","121.542925","24.9688233333333","6500600","新店區"
"231013","719-UM","2017/08/18 14:29:06","新北市新店區民權路108-4號","121.535921666667","24.9832333333333","6500600","新店區"
"231032","720-UM","2017/08/18 14:28:52","新北市新店區安業街67巷22號","121.51926","24.9760833333333","6500600","新店區"
"231005","897-TW","2017/08/18 14:29:02","新北市新店區北新路三段88號","121.541901666667","24.98077","6500600","新店區"
"231004","899-TW","2017/08/18 14:29:00","新北市新店區中正路282號","121.538545","24.97381","6500600","新店區"
"231037","AKT-0513","2017/08/18 14:28:46","新北市新店區安興路20號","121.515108333333","24.966055","6500600","新店區"
"235030","003-UY","2017/08/18 14:28:59","新北市中和區景新街34巷2號","121.5032","24.9991616666667","6500300","中和區"
"235028","005-UY","2017/08/18 14:28:53","新北市中和區南山路127巷8弄2號","121.502686666667","24.9972166666667","6500300","中和區"
"235027","006-UY","2017/08/18 14:28:52","新北市中和區連勝街101號","121.495058333333","24.9957366666667","6500300","中和區"
"235020","096-UM","2017/08/18 14:28:51","新北市中和區民富街94號","121.476836666667","25.0086166666667","6500300","中和區"
"235003","097-UM","2017/08/18 14:28:57","新北市中和區秀峰街127巷2號","121.519661666667","24.991015","6500300","中和區"
"235029","098-UM","2017/08/18 14:29:00","新北市中和區永和路52號","121.499053333333","25.0042016666667","6500300","中和區"
"235004","150-BY","2017/08/18 14:28:55","新北市中和區保健路106巷6弄2號","121.512038333333","24.9954616666667","6500300","中和區"
"235022","151-BY","2017/08/18 14:28:54","新北市中和區連城路509號","121.482431666667","24.9953633333333","6500300","中和區"
"235022","183-VK","2017/08/18 14:28:58","新北市中和區民生街13巷7號","121.47162","25.005565","6500300","中和區"
"235002","185-VK","2017/08/18 14:28:58","新北市中和區大智街55巷31號","121.520483333333","24.992765","6500300","中和區"
"235013","186-VK","2017/08/18 14:28:52","新北市中和區景新街295巷2-2號","121.510688333333","24.9933133333333","6500300","中和區"
"235031","255-BX","2017/08/18 14:29:03","新北市中和區新生街209號","121.483835","24.999795","6500300","中和區"
"235008","293-VK","2017/08/18 14:29:01","新北市中和區中興街266巷1號","121.498323333333","24.9875416666667","6500300","中和區"
"235036","301-VK","2017/08/18 14:28:59","新北市中和區中山路二段3巷22弄33號","121.505876666667","25.0041283333333","6500300","中和區"
"235007","352-BY","2017/08/18 14:28:48","新北市中和區景平路300號","121.512656666667","24.9926383333333","6500300","中和區"
"235015","376-QA","2017/08/18 14:29:05","新北市中和區興南路一段71號","121.51024","24.98925","6500300","中和區"
"235032","377-QA","2017/08/18 14:29:06","新北市中和區圓通路4號","121.501845","24.998125","6500300","中和區"
"235025","378-QA","2017/08/18 14:29:04","新北市中和區民利街9巷2弄10號","121.480296666667","24.9987983333333","6500300","中和區"
"235014","4979-A6","2017/08/18 14:28:21","新北市中和區員山路36巷16-3號","121.484641666667","24.9911166666667","6500300","中和區"
"235033","4980-A6","2017/08/18 14:28:59","新北市中和區連城路134巷18號","121.49533","24.9999883333333","6500300","中和區"
"235006","551-UM","2017/08/18 14:29:09","新北市中和區中和路378巷19號","121.511406666667","25.0017066666667","6500300","中和區"
"235034","558-UM","2017/08/18 14:28:53","新北市中和區連城路53號","121.497898333333","25.0015333333333","6500300","中和區"
"235009","565-BX","2017/08/18 14:29:00","新北市中和區景新街423巷33弄2號","121.513835","24.9898466666667","6500300","中和區"
"235018","640-BX","2017/08/18 14:28:57","新北市中和區國光街109巷10號","121.469758333333","25.0001616666667","6500300","中和區"
"235024","647-TV","2017/08/18 14:28:49","新北市中和區員山路294巷22號","121.482238333333","25.0022833333333","6500300","中和區"
"235011","732-UM","2017/08/18 14:29:01","新北市中和區景平路259巷20號","121.507645","24.9927383333333","6500300","中和區"
"235010","733-UM","2017/08/18 14:29:02","新北市中和區忠孝街37巷52號","121.511131666667","24.984995","6500300","中和區"
"235026","800-TS","2017/08/18 14:29:00","新北市中和區中山路二段389號","121.486606666667","25.0048816666667","6500300","中和區"
"235021","801-TS","2017/08/18 14:29:01","新北市中和區員山路378號","121.480755","25.0042683333333","6500300","中和區"
"235005","802-TS","2017/08/18 14:28:50","新北市中和區中和路246號","121.507186666667","24.9995233333333","6500300","中和區"
"235016","805-TS","2017/08/18 14:29:01","新北市中和區華新街143巷43號","121.506415","24.9803633333333","6500300","中和區"
"235012","896-TW","2017/08/18 14:29:06","新北市中和區忠孝街39-2號","121.511676666667","24.9838416666667","6500300","中和區"
"235017","900-TW","2017/08/18 14:28:59","新北市中和區華順街30巷7號","121.467316666667","24.99914","6500300","中和區"
"235035","911-UM","2017/08/18 14:29:05","新北市中和區中山路二段476-9號","121.488778333333","25.0059766666667","6500300","中和區"
"235001","AAC-213","2017/08/18 14:29:02","新北市中和區秀朗路三段10巷14弄51號","121.523588333333","24.9965283333333","6500300","中和區"
"235023","AAC-215","2017/08/18 14:28:50","新北市中和區圓通路252-4號","121.493543333333","24.9913116666667","6500300","中和區"
"220016","013-TV","2017/08/18 14:29:05","新北市板橋區萬安街5號","121.484726666667","25.0224733333333","6500100","板橋區"
"220013","072-UY","2017/08/18 14:28:58","新北市板橋區國泰街75巷28弄33號","121.467593333333","25.0044633333333","6500100","板橋區"
"220034","073-UY","2017/08/18 14:28:56","新北市板橋區幸福路70巷3號","121.460611666667","25.0200883333333","6500100","板橋區"
"220105","075-UY","2017/08/18 14:28:54","新北市板橋區江寧路三段125號","121.47344","25.0331283333333","6500100","板橋區"
"220017","AAD-861","2017/08/18 14:28:50","新北市板橋區貴興路39號","121.457521666667","25.0036883333333","6500100","板橋區"
"220051","120-SR","2017/08/18 14:28:47","新北市板橋區松柏街22巷36號","121.47506","25.0289083333333","6500100","板橋區"
"247019","893-R6","2017/08/18 14:29:06","新北市蘆洲區民權路156號","121.472586666667","25.0896416666667","6501400","蘆洲區"
"247009","546-UM","2017/08/18 14:29:03","新北市蘆洲區鷺江街12號","121.47921","25.0826316666667","6501400","蘆洲區"
"247017","500-BY","2017/08/18 14:29:04","新北市蘆洲區復興路227巷2弄1號","121.47993","25.0901383333333","6501400","蘆洲區"
"247007","339-TH","2017/08/18 14:28:52","新北市蘆洲區信義路89號","121.47699","25.0796483333333","6501400","蘆洲區"
"247023","337-TH","2017/08/18 14:29:00","新北市蘆洲區中正路156-1號","121.468758333333","25.0855583333333","6501400","蘆洲區"
"247001","336-TH","2017/08/18 14:28:54","新北市蘆洲區永樂街38巷37號","121.458213333333","25.0893866666667","6501400","蘆洲區"
"247013","057-VK","2017/08/18 14:29:00","新北市蘆洲區中山二路170號","121.470756666667","25.0808233333333","6501400","蘆洲區"
"247003","056-VK","2017/08/18 14:28:57","新北市蘆洲區永康街1巷12號","121.45963","25.085445","6501400","蘆洲區"
"247005","053-VK","2017/08/18 14:29:03","新北市蘆洲區長安街59號","121.46301","25.07974","6501400","蘆洲區"
"247011","007-UY","2017/08/18 14:28:59","新北市蘆洲區集賢路224巷66號","121.480728333333","25.088205","6501400","蘆洲區"
"247021","002-UY","2017/08/18 14:29:05","新北市蘆洲區中正路507號","121.46157","25.0972183333333","6501400","蘆洲區"
"247015","001-UY","2017/08/18 14:29:04","新北市蘆洲區光華路68號","121.468128333333","25.08295","6501400","蘆洲區"
"208004","AAC-292","2017/08/18 14:29:02","新北市金山區兩湖里葵扇湖12-2號","121.592886666667","25.2318666666667","6502700","金山區"
"207002","749-BX","2017/08/18 14:24:39","新北市萬里區溪底里富士坪路6號","121.623043333333","25.155835","6502800","萬里區"
"207001","662-BX","2017/08/18 14:28:52","新北市萬里區磺潭里清水18號","121.637723333333","25.1979833333333","6502800","萬里區"
"236067","105-UM","2017/08/18 14:28:55","新北市土城區永豐路177號","121.470001666667","24.9785866666667","6501300","土城區"
"236041","107-UM","2017/08/18 14:29:05","新北市土城區學成路99巷11號","121.449933333333","24.98841","6501300","土城區"
"236077","166-UM","2017/08/18 14:28:46","新北市土城區中央路四段25-10號","121.424528333333","24.9624033333333","6501300","土城區"
"236029","253-BX","2017/08/18 14:28:51","新北市土城區水源街55號","121.440513333333","24.9759066666667","6501300","土城區"
"236025","269-VK","2017/08/18 14:28:48","新北市土城區承天路67號","121.439561666667","24.9634833333333","6501300","土城區"
"236013","270-VK","2017/08/18 14:29:00","新北市土城區青雲路39巷7號","121.460328333333","24.9874533333333","6501300","土城區"
"236035","271-VK","2017/08/18 14:29:06","新北市土城區青雲路451巷5號","121.459241666667","24.9747616666667","6501300","土城區"
"236019","401-BY","2017/08/18 14:29:05","新北市土城區永豐路202巷7號","121.466306666667","24.9832233333333","6501300","土城區"
"236006","498-BY","2017/08/18 14:29:04","新北市土城區中華路一段94號","121.44454","24.9876183333333","6501300","土城區"
"236057","912-UM","2017/08/18 14:28:49","新北市土城區中央路四段466號","121.409921666667","24.95064","6501300","土城區"
"236046","913-UM","2017/08/18 14:28:51","新北市土城區青雲路369-2號","121.458908333333","24.97548","6501300","土城區"
"236061","915-UM","2017/08/18 14:29:04","新北市土城區延壽路113巷1號","121.469115","24.9939533333333","6501300","土城區"
"236054","AAC-216","2017/08/18 14:29:02","新北市土城區中華路二段191號","121.438241666667","24.9744966666667","6501300","土城區"
"221012","276-VK","2017/08/18 13:23:13","新北市汐止區汐萬路一段256巷3號","121.653461666667","25.07462","6501100","汐止區"
"221027","281-BY","2017/08/18 14:28:58","新北市汐止區八連路一段207號","121.640696666667","25.0804883333333","6501100","汐止區"
"220027","145-BY","2017/08/18 14:29:01","新北市板橋區建國街5號","121.457265","25.0169016666667","6500100","板橋區"
"220028","200-UY","2017/08/18 14:28:55","新北市板橋區大觀路二段37巷320號","121.449598333333","25.00235","6500100","板橋區"
"220030","610-BX","2017/08/18 14:29:06","新北市板橋區金門街299號","121.43005","24.98651","6500100","板橋區"
"220050","245-BX","2017/08/18 14:28:49","新北市板橋區莊敬路220巷17號","121.472786666667","25.0207316666667","6500100","板橋區"
"220004","276-BY","2017/08/18 14:28:59","新北市板橋區國慶路49巷21號","121.459421666667","24.9963133333333","6500100","板橋區"
"220020","277-BY","2017/08/18 14:28:59","新北市板橋區金門街337巷8弄2號","121.429701666667","24.9852983333333","6500100","板橋區"
"220043","283-UM","2017/08/18 14:29:05","新北市板橋區吳鳳路50巷42弄1號","121.47049","25.0303833333333","6500100","板橋區"
"220019","283-VK","2017/08/18 14:29:03","新北市板橋區大豐街87號","121.462195","25.0005033333333","6500100","板橋區"
"220001","285-VK","2017/08/18 14:28:57","新北市板橋區富山街53巷1弄54號","121.47801","25.020555","6500100","板橋區"
"220031","286-VK","2017/08/18 14:29:06","新北市板橋區大觀路二段174巷163弄8號","121.44132","25.0032816666667","6500100","板橋區"
"220029","287-VK","2017/08/18 14:28:57","新北市板橋區大觀路一段75巷10號","121.44764","25.0043783333333","6500100","板橋區"
"220039","288-VK","2017/08/18 14:28:55","新北市板橋區裕民街82號","121.460585","25.02826","6500100","板橋區"
"220009","293-UM","2017/08/18 14:28:53","新北市板橋區中山路一段272巷18-1號","121.469283333333","25.0136516666667","6500100","板橋區"
"220003","295-UM","2017/08/18 14:28:55","新北市板橋區重慶路290巷22弄23號","121.462198333333","24.9993683333333","6500100","板橋區"
"220032","296-UM","2017/08/18 14:29:02","新北市板橋區滿平街84巷120弄17號","121.426555","24.98573","6500100","板橋區"
"220023","297-UM","2017/08/18 14:28:51","新北市板橋區南雅西路二段123巷9號","121.451765","25.0105866666667","6500100","板橋區"
"220010","305-R5","2017/08/18 14:29:00","新北市板橋區三民路二段81巷25號","121.480511666667","25.0167566666667","6500100","板橋區"
"220041","307-R5","2017/08/18 14:29:02","新北市板橋區光武街2巷19號","121.46833","25.025425","6500100","板橋區"
"220047","317-R6","2017/08/18 14:29:00","新北市板橋區民生路三段297號","121.463635","25.0304433333333","6500100","板橋區"
"220012","486-VK","2017/08/18 14:29:05","新北市板橋區中山路一段27號","121.460323333333","25.0086616666667","6500100","板橋區"
"220038","487-VK","2017/08/18 14:29:02","新北市板橋區文化路一段209號","121.463513333333","25.0168366666667","6500100","板橋區"
"220002","491-VK","2017/08/18 14:28:50","新北市板橋區雙十路二段4號","121.477178333333","25.0253916666667","6500100","板橋區"
"220104","560-BX","2017/08/18 14:29:03","新北市板橋區中正路360巷47號","121.456155","25.0232083333333","6500100","板橋區"
"220052","561-BX","2017/08/18 14:28:44","新北市板橋區文化路一段268號","121.467356666667","25.0206316666667","6500100","板橋區"
"220011","609-BX","2017/08/18 14:29:07","新北市板橋區三民路二段142號","121.479043333333","25.0156233333333","6500100","板橋區"
"220040","637-BX","2017/08/18 14:29:01","新北市板橋區文聖街149巷20號","121.47946","25.028475","6500100","板橋區"
"220005","686-BX","2017/08/18 14:29:07","新北市中和區壽德街33-3號","121.466441666667","24.9946433333333","6500100","板橋區"
"220025","687-BX","2017/08/18 14:29:04","新北市板橋區僑中二街92巷1號","121.446286666667","25.0088033333333","6500100","板橋區"
"220042","689-BX","2017/08/18 14:29:06","新北市板橋區雨農路32號","121.461186666667","25.0243633333333","6500100","板橋區"
"220002","741-BX","2017/08/18 14:28:49","新北市板橋區光明街4號","121.460061666667","25.00246","6500100","板橋區"
"220014","829-TW","2017/08/18 14:29:02","新北市板橋區長安街168巷10弄18號","121.473428333333","25.010605","6500100","板橋區"
"220045","831-TW","2017/08/18 14:28:51","新北市板橋區民生路二段214號","121.469511666667","25.0217933333333","6500100","板橋區"
"220022","895-R6","2017/08/18 14:28:48","新北市板橋區北門街60號","121.456565","25.0113983333333","6500100","板橋區"
"220021","985-R7","2017/08/18 14:29:01","新北市板橋區新生街74號","121.457858333333","25.0211816666667","6500100","板橋區"
"220046","AAC-210","2017/08/18 14:29:03","新北市板橋區漢生西路181號","121.463255","25.0237166666667","6500100","板橋區"
"220018","AAC-253","2017/08/18 14:29:05","新北市板橋區忠孝路173號","121.464036666667","25.002495","6500100","板橋區"
"249001","3G-OBU6","2017/08/18 14:24:03","桃園市楊梅區電研路100-24號","121.1661","24.95364","6502300","八里區"
