"lineid","car","time","location","longitude","latitude","cityid","cityname"
"231002","002-UM","2017/08/18 15:38:38","新北市新店區環河路114巷2號","121.536008333333","24.9645316666667","6500600","新店區"
"231028","046-UY","2017/08/18 15:38:33","新北市新店區安豐路45號","121.500338333333","24.9553816666667","6500600","新店區"
"231030","047-UY","2017/08/18 15:38:35","新北市新店區新和街116巷2號","121.521151666667","24.9862883333333","6500600","新店區"
"231029","106-UY","2017/08/18 15:38:33","新北市新店區安康路三段228號","121.488138333333","24.9518233333333","6500600","新店區"
"231018","107-UY","2017/08/18 15:38:43","新北市新店區中央路26號","121.532486666667","24.9791783333333","6500600","新店區"
"231012","108-UY","2017/08/18 15:38:50","新北市新店區文化路92號","121.544916666667","24.9825466666667","6500600","新店區"
"231035","110-UY","2017/08/18 15:38:37","新北市新店區安興路81號","121.5154","24.9752033333333","6500600","新店區"
"231022","187-VK","2017/08/18 15:38:54","新北市新店區新烏路一段73-1號","121.546516666667","24.9422166666667","6500600","新店區"
"231026","256-BX","2017/08/18 15:38:48","新北市新店區三民路75巷6-1號","121.535541666667","24.97078","6500600","新店區"
"231034","268-BY","2017/08/18 15:38:48","新北市新店區玫瑰路58巷19號","121.494521666667","24.9466516666667","6500600","新店區"
"231046","278-BY","2017/08/18 15:38:37","新北市新店區安華路28-1號","121.519591666667","24.9610783333333","6500600","新店區"
"231016","AAD-862","2017/08/18 15:38:51","新北市新店區北宜路二段361-3號","121.558546666667","24.9542283333333","6500600","新店區"
"231038","4715-K9","2017/08/18 15:38:39","新北市新店區安康路一段258號","121.52053","24.964195","6500600","新店區"
"231036","512-UM","2017/08/18 15:38:32","新北市新店區安祥路86號","121.491218333333","24.9561483333333","6500600","新店區"
"231023","513-UM","2017/08/18 15:38:51","新北市新店區中興路一段283號","121.54523","24.96852","6500600","新店區"
"231003","616-UM","2017/08/18 15:38:34","新北市新店區中興路二段196號","121.548375","24.9736833333333","6500600","新店區"
"231039","718-UY","2017/08/18 15:38:43","新北市新店區寶中路63號","121.547225","24.98043","6500600","新店區"
"231032","720-UM","2017/08/18 15:38:32","新北市新店區雙城路133號","121.49789","24.9387966666667","6500600","新店區"
"231005","897-TW","2017/08/18 15:38:42","新北市新店區建國路180號","121.538038333333","24.9800633333333","6500600","新店區"
"231037","AKT-0513","2017/08/18 15:38:46","新北市新店區安興路112號","121.514593333333","24.9776233333333","6500600","新店區"
"241011","013-R5","2017/08/18 15:38:39","新北市三重區秀江街121號","121.499366666667","25.0720633333333","6500200","三重區"
"241028","022-UY","2017/08/18 15:38:46","新北市三重區重新路四段121號","121.48481","25.0524783333333","6500200","三重區"
"241017","063-VK","2017/08/18 15:38:36","新北市三重區新北大道一段17號","121.487976666667","25.0611233333333","6500200","三重區"
"241013","270-UM","2017/08/18 15:38:46","新北市三重區忠孝路一段183號","121.487248333333","25.0715616666667","6500200","三重區"
"241007","398-BY","2017/08/18 15:38:39","新北市三重區重新路四段121號","121.485175","25.0519916666667","6500200","三重區"
"241014","543-UM","2017/08/18 15:38:50","新北市三重區重新路四段121號","121.485186666667","25.0517566666667","6500200","三重區"
"241023","545-UM","2017/08/18 15:38:51","新北市三重區重新路四段121號","121.484795","25.0524783333333","6500200","三重區"
"241029","942-UM","2017/08/18 15:38:31","新北市三重區重安街170巷6號","121.496321666667","25.0547433333333","6500200","三重區"
"241033","AAC-255","2017/08/18 15:38:50","新北市三重區重新路五段416號","121.475433333333","25.047615","6500200","三重區"
"235033","4980-A6","2017/08/18 15:38:38","新北市中和區建康路39號","121.486636666667","25.000275","6500300","中和區"
"235026","800-TS","2017/08/18 15:38:39","新北市中和區橋和路89號","121.490291666667","25.0054883333333","6500300","中和區"
"235035","911-UM","2017/08/18 15:38:45","新北市中和區中正路860號","121.484403333333","25.0052616666667","6500300","中和區"
"235023","AAC-215","2017/08/18 15:38:50","新北市中和區員山路5-13號","121.483005","24.9847383333333","6500300","中和區"
"220016","013-TV","2017/08/18 15:13:52","新北市板橋區民生路二段15-1號","121.472705","25.016455","6500100","板橋區"
"227003","642-TC","2017/08/18 15:38:42","新北市雙溪區牡丹里中正路66號","121.865205","25.043625","6502500","雙溪區"
"236067","105-UM","2017/08/18 15:38:35","新北市土城區中央路二段282號","121.440655","24.9739083333333","6501300","土城區"
"236077","166-UM","2017/08/18 15:38:46","新北市土城區福安街55巷19號","121.419155","24.96359","6501300","土城區"
"236029","253-BX","2017/08/18 15:38:31","新北市土城區學成路182號","121.447798333333","24.98874","6501300","土城區"
"236025","269-VK","2017/08/18 15:38:51","新北市土城區裕生路102巷32號","121.445915","24.9849866666667","6501300","土城區"
"236013","270-VK","2017/08/18 15:38:40","新北市土城區廣明街90巷23號","121.455468333333","24.99462","6501300","土城區"
"236019","401-BY","2017/08/18 15:38:45","新北市土城區延吉街57巷8-1號","121.47254","24.9872283333333","6501300","土城區"
"236057","912-UM","2017/08/18 15:38:49","新北市土城區中央路二段68號","121.442436666667","24.9791833333333","6501300","土城區"
"236046","913-UM","2017/08/18 15:38:30","新北市土城區金城路三段203號","121.47041","24.9891316666667","6501300","土城區"
"236054","AAC-216","2017/08/18 15:38:32","新北市土城區青雲路35號","121.460216666667","24.9883616666667","6501300","土城區"
"221012","276-VK","2017/08/18 13:23:13","新北市汐止區汐萬路一段256巷3號","121.653461666667","25.07462","6501100","汐止區"
"221027","281-BY","2017/08/18 15:22:24","新北市汐止區汐萬路一段256巷1號","121.651751666667","25.0748183333333","6501100","汐止區"
"220020","277-BY","2017/08/18 15:12:26","新北市板橋區華東街1-10號","121.448271666667","24.9950466666667","6500100","板橋區"
"249001","3G-OBU6","2017/08/18 15:00:33","桃園市楊梅區電研路100-24號","121.1661","24.95364","6502300","八里區"
