"lineid","car","time","location","longitude","latitude","cityid","cityname"
"231030","047-UY","2017/08/18 15:58:35","新北市新店區永平街6號","121.517448333333","24.9835333333333","6500600","新店區"
"231018","107-UY","2017/08/18 15:58:23","新北市新店區中正路663巷7弄15號","121.532928333333","24.990105","6500600","新店區"
"231012","108-UY","2017/08/18 15:58:30","新北市新店區中央一街22號","121.527875","24.9730166666667","6500600","新店區"
"231035","110-UY","2017/08/18 15:58:37","新北市新店區安和路二段169巷6號","121.518135","24.973985","6500600","新店區"
"231034","268-BY","2017/08/18 15:58:28","新北市新店區吉祥街9巷1號","121.4975","24.9470233333333","6500600","新店區"
"231046","278-BY","2017/08/18 15:58:37","新北市新店區安華路28-1號","121.519695","24.9611083333333","6500600","新店區"
"231016","AAD-862","2017/08/18 15:58:31","新北市新店區中正路228號","121.540071666667","24.97285","6500600","新店區"
"231038","4715-K9","2017/08/18 15:58:39","新北市新店區安康路二段197巷15號","121.50957","24.9584533333333","6500600","新店區"
"231003","616-UM","2017/08/18 15:58:34","新北市新店區中興路二段239號","121.547385","24.9755033333333","6500600","新店區"
"231013","719-UM","2017/08/18 15:58:01","新北市新店區永業路81巷3弄1號","121.529911666667","24.949275","6500600","新店區"
"231037","AKT-0513","2017/08/18 15:58:31","新北市新店區吉安街28號","121.516138333333","24.96609","6500600","新店區"
"241011","013-R5","2017/08/18 15:58:33","新北市三重區正義北路185-1號","121.496575","25.0679266666667","6500200","三重區"
"241028","022-UY","2017/08/18 15:58:26","新北市三重區電信街99號","121.49536","25.0582583333333","6500200","三重區"
"241031","061-VK","2017/08/18 15:58:28","新北市三重區重新路四段121號","121.484708333333","25.0519916666667","6500200","三重區"
"241017","063-VK","2017/08/18 15:58:36","新北市三重區大仁街48巷47號","121.490626666667","25.0643916666667","6500200","三重區"
"241024","065-VK","2017/08/18 15:58:20","新北市三重區力行路一段38巷10號","121.485043333333","25.0662516666667","6500200","三重區"
"241026","066-VK","2017/08/18 15:58:21","新北市三重區正義南路60-6號","121.498456666667","25.0600466666667","6500200","三重區"
"241003","091-VK","2017/08/18 15:58:24","新北市三重區自強路五段112號","121.496921666667","25.08366","6500200","三重區"
"241006","156-TC","2017/08/18 15:58:37","新北市三重區力行路一段189號","121.48354","25.0698283333333","6500200","三重區"
"241005","262-UM","2017/08/18 15:58:30","新北市三重區溪尾街305號","121.48752","25.083705","6500200","三重區"
"241016","266-UM","2017/08/18 15:58:34","新北市三重區重新路四段121號","121.48439","25.05228","6500200","三重區"
"241022","267-UM","2017/08/18 15:58:21","新北市三重區三民街175巷2號","121.483421666667","25.0654716666667","6500200","三重區"
"241018","268-UM","2017/08/18 15:58:25","新北市三重區中正北路33號","121.491423333333","25.0628333333333","6500200","三重區"
"241013","270-UM","2017/08/18 15:58:26","新北市三重區三和路三段16巷25號","121.49623","25.0699933333333","6500200","三重區"
"241007","398-BY","2017/08/18 15:58:19","新北市三重區忠孝路三段4號","121.48191","25.0675916666667","6500200","三重區"
"241020","412-TH","2017/08/18 15:58:36","新北市三重區車路頭街4巷21號","121.483256666667","25.0701416666667","6500200","三重區"
"241004","475-VK","2017/08/18 15:58:38","新北市三重區重新路四段121號","121.484888333333","25.0518283333333","6500200","三重區"
"241019","478-VK","2017/08/18 15:58:40","新北市三重區新北大道一段250號","121.479903333333","25.06122","6500200","三重區"
"241014","543-UM","2017/08/18 15:58:30","新北市三重區重新路四段121號","121.485181666667","25.0518333333333","6500200","三重區"
"241023","545-UM","2017/08/18 15:58:31","新北市三重區中正北路174號","121.483866666667","25.06663","6500200","三重區"
"241001","547-UM","2017/08/18 15:58:25","新北市三重區重新路四段121號","121.484633333333","25.0522916666667","6500200","三重區"
"241025","887-TS","2017/08/18 15:58:27","新北市三重區忠孝路三段48號","121.480851666667","25.0658566666667","6500200","三重區"
"241012","941-UM","2017/08/18 15:58:34","新北市三重區正義北路123號","121.497015","25.0661166666667","6500200","三重區"
"241029","942-UM","2017/08/18 15:58:31","新北市三重區大同南路242號","121.496895","25.0559083333333","6500200","三重區"
"241033","AAC-255","2017/08/18 15:58:30","新北市三重區重新路五段461號","121.473766666667","25.0471966666667","6500200","三重區"
"235033","4980-A6","2017/08/18 15:58:38","新北市中和區中正路637巷44弄6號","121.485058333333","24.9944133333333","6500300","中和區"
"235026","800-TS","2017/08/18 15:58:39","新北市中和區永和路206號","121.491943333333","25.007425","6500300","中和區"
"235035","911-UM","2017/08/18 15:58:24","新北市中和區永和路317巷12號","121.485808333333","25.0108733333333","6500300","中和區"
"220016","013-TV","2017/08/18 15:13:52","新北市板橋區民生路二段15-1號","121.472705","25.016455","6500100","板橋區"
"224007","273-VK","2017/08/18 15:58:17","新北市瑞芳區楓子瀨路54號","121.768805","25.1035916666667","6501200","瑞芳區"
"224005","271-BY","2017/08/18 15:58:32","新北市瑞芳區傑魚坑路191號","121.788118333333","25.1076183333333","6501200","瑞芳區"
"227003","642-TC","2017/08/18 15:58:22","新北市雙溪區平林里外平林60號","121.845531666667","25.0348566666667","6502500","雙溪區"
"227011","400-TW","2017/08/18 15:58:28","新北市雙溪區三港里雙澳路12號","121.869483333333","25.0483966666667","6502500","雙溪區"
"251013","180-VK","2017/08/18 15:58:26","新北市淡水區中正路二段18號","121.41969","25.18115","6501000","淡水區"
"236067","105-UM","2017/08/18 15:58:35","新北市土城區福安街100-8號","121.41736","24.9644833333333","6501300","土城區"
"236057","912-UM","2017/08/18 15:58:29","新北市土城區中央路二段65號","121.442435","24.9788266666667","6501300","土城區"
"221012","276-VK","2017/08/18 13:23:13","新北市汐止區汐萬路一段256巷3號","121.653461666667","25.07462","6501100","汐止區"
"221027","281-BY","2017/08/18 15:22:24","新北市汐止區汐萬路一段256巷1號","121.651751666667","25.0748183333333","6501100","汐止區"
"220020","277-BY","2017/08/18 15:12:26","新北市板橋區華東街1-10號","121.448271666667","24.9950466666667","6500100","板橋區"
"249001","3G-OBU6","2017/08/18 15:00:33","桃園市楊梅區電研路100-24號","121.1661","24.95364","6502300","八里區"
