"lineid","car","time","location","longitude","latitude","cityid","cityname"
"231030","047-UY","2017/08/18 16:09:15","新北市新店區安康路二段320巷15弄16號","121.502805","24.9593066666667","6500600","新店區"
"231018","107-UY","2017/08/18 16:09:23","新北市新店區中正路680巷35號","121.534673333333","24.9895383333333","6500600","新店區"
"231034","268-BY","2017/08/18 16:09:28","新北市新店區富貴街18巷16號","121.493291666667","24.9481083333333","6500600","新店區"
"231046","278-BY","2017/08/18 16:08:57","新北市新店區碧潭路54號","121.534601666667","24.9567083333333","6500600","新店區"
"231037","AKT-0513","2017/08/18 16:09:26","新北市新店區安康路二段360號","121.501925","24.9574383333333","6500600","新店區"
"241011","013-R5","2017/08/18 16:09:33","新北市三重區三和路三段140號","121.493373333333","25.0723733333333","6500200","三重區"
"241028","022-UY","2017/08/18 16:09:26","新北市三重區正義南路107號","121.498241666667","25.0585933333333","6500200","三重區"
"241031","061-VK","2017/08/18 16:09:28","新北市三重區重新路四段121號","121.484735","25.0519916666667","6500200","三重區"
"241015","062-VK","2017/08/18 16:09:17","新北市三重區三和路一段3號","121.504298333333","25.0641833333333","6500200","三重區"
"241017","063-VK","2017/08/18 16:09:36","新北市三重區大同北路148巷76號","121.490141666667","25.0645866666667","6500200","三重區"
"241024","065-VK","2017/08/18 16:09:20","新北市三重區中正北路145巷9弄7號","121.485243333333","25.0678666666667","6500200","三重區"
"241026","066-VK","2017/08/18 16:09:26","新北市三重區重新路二段92號","121.497081666667","25.061555","6500200","三重區"
"241002","090-VK","2017/08/18 16:09:30","新北市三重區仁義街47號","121.499346666667","25.0787166666667","6500200","三重區"
"241003","091-VK","2017/08/18 16:09:24","新北市三重區自強路五段112號","121.497003333333","25.0836383333333","6500200","三重區"
"241006","156-TC","2017/08/18 16:09:17","新北市三重區永福街58巷3弄20號","121.480676666667","25.0773483333333","6500200","三重區"
"241005","262-UM","2017/08/18 16:09:30","新北市三重區溪尾街300-2號","121.48747","25.083665","6500200","三重區"
"241008","265-UM","2017/08/18 16:09:30","新北市三重區力行路二段162巷16號","121.482075","25.0765516666667","6500200","三重區"
"241016","266-UM","2017/08/18 16:09:34","新北市三重區重新路三段90號","121.493025","25.06097","6500200","三重區"
"241022","267-UM","2017/08/18 16:09:33","新北市三重區市前街14號","121.489136666667","25.0623733333333","6500200","三重區"
"241018","268-UM","2017/08/18 16:09:25","新北市三重區大仁街36巷2號","121.49143","25.06408","6500200","三重區"
"241032","269-UM","2017/08/18 16:09:31","新北市三重區三陽路100巷3弄13號","121.482995","25.0581783333333","6500200","三重區"
"241013","270-UM","2017/08/18 16:09:28","新北市三重區安樂街7號","121.496818333333","25.0698433333333","6500200","三重區"
"241007","398-BY","2017/08/18 16:09:19","新北市三重區慈愛街10號","121.484548333333","25.078465","6500200","三重區"
"241020","412-TH","2017/08/18 16:09:30","新北市三重區車路頭街4巷9號","121.483546666667","25.0702283333333","6500200","三重區"
"241004","475-VK","2017/08/18 16:07:58","新北市三重區長壽街196號","121.504475","25.0692283333333","6500200","三重區"
"241019","478-VK","2017/08/18 16:09:20","新北市三重區自強路二段27號","121.489653333333","25.0693566666667","6500200","三重區"
"241030","480-VK","2017/08/18 16:09:21","新北市三重區重新路四段121號","121.485035","25.0524766666667","6500200","三重區"
"241014","543-UM","2017/08/18 16:09:30","新北市三重區福德南路53號","121.503223333333","25.0613616666667","6500200","三重區"
"241023","545-UM","2017/08/18 16:09:31","新北市三重區力行路一段60-5號","121.484013333333","25.0689566666667","6500200","三重區"
"241001","547-UM","2017/08/18 16:09:25","新北市三重區自強路三段13號","121.487145","25.0719316666667","6500200","三重區"
"241025","887-TS","2017/08/18 16:09:27","新北市三重區忠孝路三段40巷10號","121.482025","25.066395","6500200","三重區"
"241012","941-UM","2017/08/18 16:09:34","新北市三重區文化北路132巷37號","121.497656666667","25.0666683333333","6500200","三重區"
"241029","942-UM","2017/08/18 16:09:31","新北市三重區同安街29號","121.495895","25.0567966666667","6500200","三重區"
"241033","AAC-255","2017/08/18 16:09:30","新北市三重區五谷王南街50-1號","121.473918333333","25.04466","6500200","三重區"
"235026","800-TS","2017/08/18 16:09:19","新北市中和區板南路413號","121.492821666667","25.000245","6500300","中和區"
"220016","013-TV","2017/08/18 15:13:52","新北市板橋區民生路二段15-1號","121.472705","25.016455","6500100","板橋區"
"224007","273-VK","2017/08/18 16:09:17","新北市瑞芳區粗坑口路76號","121.761323333333","25.0994233333333","6501200","瑞芳區"
"224005","271-BY","2017/08/18 16:09:25","新北市瑞芳區三爪子坑路64-37號","121.808585","25.105345","6501200","瑞芳區"
"227003","642-TC","2017/08/18 16:09:22","新北市雙溪區上林里內平林47號","121.833286666667","25.0304166666667","6502500","雙溪區"
"227011","400-TW","2017/08/18 16:09:28","新北市雙溪區三港里雙澳路73號","121.882578333333","25.0545266666667","6502500","雙溪區"
"251013","180-VK","2017/08/18 16:09:26","新北市淡水區沙崙路341號","121.42793","25.1878483333333","6501000","淡水區"
"251008","181-VK","2017/08/18 16:09:33","新北市淡水區中正路一段130號","121.42273","25.17869","6501000","淡水區"
"251015","182-VK","2017/08/18 16:09:25","新北市淡水區中正路二段31號","121.419268333333","25.1817516666667","6501000","淡水區"
"236057","912-UM","2017/08/18 16:09:29","新北市土城區中央路三段70-1號","121.436585","24.96723","6501300","土城區"
"221012","276-VK","2017/08/18 13:23:13","新北市汐止區汐萬路一段256巷3號","121.653461666667","25.07462","6501100","汐止區"
"221027","281-BY","2017/08/18 15:22:24","新北市汐止區汐萬路一段256巷1號","121.651751666667","25.0748183333333","6501100","汐止區"
"220020","277-BY","2017/08/18 15:12:26","新北市板橋區華東街1-10號","121.448271666667","24.9950466666667","6500100","板橋區"
"249001","3G-OBU6","2017/08/18 15:00:33","桃園市楊梅區電研路100-24號","121.1661","24.95364","6502300","八里區"
