"lineid","car","time","location","longitude","latitude","cityid","cityname"
"249005","172-UM","2017/08/18 17:09:28","新北市八里區華富山6-1號","121.419598333333","25.1425566666667","6502300","八里區"
"249001","173-UM","2017/08/18 17:09:31","新北市八里區中華路二段316號","121.403683333333","25.148165","6502300","八里區"
"249004","303-UY","2017/08/18 17:09:21","新北市八里區忠孝路195號","121.422546666667","25.1609566666667","6502300","八里區"
"249002","305-UY","2017/08/18 17:09:09","新北市八里區龍米路二段151號","121.44091","25.1520666666667","6502300","八里區"
"249003","593-UM","2017/08/18 17:09:28","新北市八里區中山路二段407號","121.397766666667","25.1465033333333","6502300","八里區"
"244007","080-UY","2017/08/18 17:09:17","新北市林口區中湖里15鄰60號","121.376151666667","25.093435","6501700","林口區"
"244019","403-UM","2017/08/18 17:09:21","新北市林口區仁愛路二段192巷6號","121.38015","25.0742633333333","6501700","林口區"
"244009","410-SL","2017/08/18 17:09:10","新北市林口區粉寮路37-1號","121.400956666667","25.0848016666667","6501700","林口區"
"244017","656-BX","2017/08/18 17:09:21","新北市林口區粉寮69號","121.404911666667","25.090885","6501700","林口區"
"244023","657-BX","2017/08/18 17:09:22","新北市林口區粉寮路二段20號","121.40232","25.08593","6501700","林口區"
"244021","838-TS","2017/08/18 17:03:30","新北市林口區粉寮69號","121.4048","25.0908083333333","6501700","林口區"
"231046","278-BY","2017/08/18 17:09:17","新北市新店區直潭路92號","121.530926666667","24.9376516666667","6500600","新店區"
"241011","013-R5","2017/08/18 17:09:20","新北市三重區河邊北街122-1號","121.50358","25.0714783333333","6500200","三重區"
"241028","022-UY","2017/08/18 17:09:26","新北市三重區重新路三段110號","121.492193333333","25.060375","6500200","三重區"
"241009","060-VK","2017/08/18 17:09:22","新北市三重區三和路四段215巷4號","121.481918333333","25.0798633333333","6500200","三重區"
"241031","061-VK","2017/08/18 17:09:28","新北市三重區重陽路一段113巷3號","121.487515","25.0597883333333","6500200","三重區"
"241015","062-VK","2017/08/18 17:09:17","新北市三重區中央北路80號","121.500206666667","25.0666033333333","6500200","三重區"
"241017","063-VK","2017/08/18 17:09:16","新北市三重區大仁街5號","121.49175","25.06377","6500200","三重區"
"241024","065-VK","2017/08/18 17:09:20","新北市三重區中正北路171號","121.478118333333","25.0694416666667","6500200","三重區"
"241026","066-VK","2017/08/18 17:09:21","新北市三重區重新路二段12號","121.499623333333","25.062785","6500200","三重區"
"241002","090-VK","2017/08/18 17:09:30","新北市三重區仁義街204號","121.49641","25.082115","6500200","三重區"
"241003","091-VK","2017/08/18 17:09:31","新北市三重區富福街116號","121.493578333333","25.0857533333333","6500200","三重區"
"241006","156-TC","2017/08/18 17:09:17","新北市三重區車路頭街145號","121.48396","25.07662","6500200","三重區"
"241005","262-UM","2017/08/18 17:09:30","新北市三重區仁愛街680號","121.482065","25.0804033333333","6500200","三重區"
"241008","265-UM","2017/08/18 17:09:10","新北市三重區永福街182號","121.481383333333","25.0743166666667","6500200","三重區"
"241016","266-UM","2017/08/18 17:09:13","新北市三重區大仁街78號","121.492578333333","25.0652133333333","6500200","三重區"
"241022","267-UM","2017/08/18 17:09:20","新北市三重區中正北路118巷10-2號","121.485095","25.06431","6500200","三重區"
"241018","268-UM","2017/08/18 17:09:25","新北市三重區六張街83號","121.493118333333","25.0701033333333","6500200","三重區"
"241032","269-UM","2017/08/18 17:09:31","新北市三重區三陽路13巷10號","121.485968333333","25.059575","6500200","三重區"
"241013","270-UM","2017/08/18 17:09:26","新北市三重區仁福街51號","121.497083333333","25.0746266666667","6500200","三重區"
"241007","398-BY","2017/08/18 17:09:19","新北市三重區三和路四段163巷14號","121.484403333333","25.0790066666667","6500200","三重區"
"241020","412-TH","2017/08/18 17:09:16","新北市三重區自強路三段44號","121.486868333333","25.0726716666667","6500200","三重區"
"241004","475-VK","2017/08/18 17:09:18","新北市三重區五華街98巷4號","121.492305","25.0821266666667","6500200","三重區"
"241019","478-VK","2017/08/18 17:09:20","新北市三重區自強路二段74巷73號","121.486936666667","25.0693566666667","6500200","三重區"
"241030","480-VK","2017/08/18 17:09:21","新北市三重區集成路26號","121.4888","25.0523216666667","6500200","三重區"
"241014","543-UM","2017/08/18 17:09:30","新北市三重區龍濱路191號","121.502028333333","25.07114","6500200","三重區"
"241023","545-UM","2017/08/18 17:09:11","新北市三重區忠孝路三段84巷1號","121.480203333333","25.064385","6500200","三重區"
"241001","547-UM","2017/08/18 17:09:25","新北市三重區仁愛街255巷22號","121.493646666667","25.0785866666667","6500200","三重區"
"241025","887-TS","2017/08/18 17:09:30","新北市三重區中正北路560巷89號","121.47088","25.0686933333333","6500200","三重區"
"241012","941-UM","2017/08/18 17:09:15","新北市三重區仁壽街182號","121.500533333333","25.0747","6500200","三重區"
"241029","942-UM","2017/08/18 17:09:11","新北市三重區重新路三段150號","121.49079","25.0592716666667","6500200","三重區"
"241033","AAC-255","2017/08/18 17:09:10","新北市三重區中興北街271號","121.469143333333","25.0605966666667","6500200","三重區"
"235064","005-UY","2017/08/18 16:47:34","新北市中和區員山路36巷16-3號","121.484993333333","24.991235","6500300","中和區"
"235067","255-BX","2017/08/18 16:16:22","新北市中和區員山路36巷13號","121.484293333333","24.991285","6500300","中和區"
"235062","800-TS","2017/08/18 17:06:47","新北市中和區員山路36巷16-3號","121.48504","24.9914483333333","6500300","中和區"
"220016","013-TV","2017/08/18 15:13:52","新北市板橋區民生路二段15-1號","121.472705","25.016455","6500100","板橋區"
"247020","893-R6","2017/08/18 17:09:27","新北市蘆洲區仁愛街66號","121.471608333333","25.0939633333333","6501400","蘆洲區"
"247010","546-UM","2017/08/18 17:09:17","新北市蘆洲區鷺江街93號","121.47687","25.0838033333333","6501400","蘆洲區"
"247018","500-BY","2017/08/18 17:09:15","新北市蘆洲區復興路63號","121.475948333333","25.0871633333333","6501400","蘆洲區"
"247008","339-TH","2017/08/18 17:09:30","新北市蘆洲區信義路30巷82號","121.47489","25.0775883333333","6501400","蘆洲區"
"247024","337-TH","2017/08/18 17:09:19","新北市蘆洲區長興路7號","121.464433333333","25.082725","6501400","蘆洲區"
"247002","336-TH","2017/08/18 17:09:28","新北市蘆洲區永樂街38巷33弄1號","121.457966666667","25.0892783333333","6501400","蘆洲區"
"247014","057-VK","2017/08/18 17:09:25","新北市蘆洲區中央路61-9號","121.47335","25.0829783333333","6501400","蘆洲區"
"247004","056-VK","2017/08/18 17:09:13","新北市蘆洲區永安南路二段286號","121.457615","25.08133","6501400","蘆洲區"
"247006","053-VK","2017/08/18 17:09:26","新北市蘆洲區長安街102巷43號","121.462293333333","25.08174","6501400","蘆洲區"
"247012","007-UY","2017/08/18 17:09:11","新北市蘆洲區信義路292巷7號","121.477905","25.0877316666667","6501400","蘆洲區"
"247022","002-UY","2017/08/18 17:09:17","新北市蘆洲區三民路128巷94號","121.469675","25.09038","6501400","蘆洲區"
"247016","001-UY","2017/08/18 17:09:24","新北市蘆洲區正和街96巷37號","121.467475","25.08156","6501400","蘆洲區"
"228002","663-BX","2017/08/18 17:09:26","新北市貢寮區龍崗里嵩陽街38號","121.909348333333","25.0166116666667","6502600","貢寮區"
"228001","670-TC","2017/08/18 17:09:29","新北市貢寮區仁理村尖山腳街20號","121.92484","25.0470166666667","6502600","貢寮區"
"228003","828-UM","2017/08/18 17:09:22","新北市貢寮區福隆里東興街11-4號","121.950628333333","25.01873","6502600","貢寮區"
"224010","AGQ-8101","2017/08/18 09:19:22","新北市瑞芳區民權街3-1號","121.809401666667","25.108275","6501200","瑞芳區"
"224006","676-BX","2017/08/18 17:09:24","新北市瑞芳區大寮路114號","121.780351666667","25.0978333333333","6501200","瑞芳區"
"224009","285-BY","2017/08/18 17:09:24","新北市瑞芳區輕便路90號","121.845045","25.1131533333333","6501200","瑞芳區"
"224008","275-VK","2017/08/18 17:09:17","新北市瑞芳區侯硐路148號","121.826295","25.0839466666667","6501200","瑞芳區"
"224007","273-VK","2017/08/18 17:09:17","新北市瑞芳區粗坑口路100-4號","121.760073333333","25.0993033333333","6501200","瑞芳區"
"224005","271-BY","2017/08/18 17:09:22","新北市瑞芳區鼻頭路95號","121.916118333333","25.124275","6501200","瑞芳區"
"227003","642-TC","2017/08/18 17:09:22","新北市雙溪區外柑里田寮1號","121.806625","25.0170316666667","6502500","雙溪區"
"227011","400-TW","2017/08/18 17:09:28","新北市雙溪區三貂里子崙坑1-6號","121.850118333333","25.057475","6502500","雙溪區"
"251004","009-UM","2017/08/18 17:09:31","新北市淡水區中正東路77號","121.447471666667","25.167375","6501000","淡水區"
"251005","010-UM","2017/08/18 17:09:17","新北市淡水區鄧公路19-1號","121.450281666667","25.169915","6501000","淡水區"
"251013","180-VK","2017/08/18 17:09:25","新北市淡水區大埤頭6號","121.482906666667","25.197365","6501000","淡水區"
"251008","181-VK","2017/08/18 17:09:20","新北市淡水區樹梅坑14號","121.470855","25.1429033333333","6501000","淡水區"
"251015","182-VK","2017/08/18 17:09:25","新北市淡水區鄧公路34號","121.457483333333","25.16896","6501000","淡水區"
"251010","413-VK","2017/08/18 17:09:12","新北市淡水區新民街一段117號","121.42841","25.187765","6501000","淡水區"
"251012","441-VK","2017/08/18 17:09:27","新北市淡水區新民街一段81-1號","121.431051666667","25.184025","6501000","淡水區"
"251006","561-UM","2017/08/18 17:09:28","新北市淡水區中正路259號","121.43245","25.1746933333333","6501000","淡水區"
"251009","575-R6","2017/08/18 17:09:12","新北市淡水區三民街13號","121.438975","25.1717466666667","6501000","淡水區"
"251007","577-R6","2017/08/18 17:09:23","新北市淡水區中正東路二段89號","121.45937","25.1525633333333","6501000","淡水區"
"251011","650-BX","2017/08/18 17:09:14","新北市淡水區坪頂路49號","121.457786666667","25.1626916666667","6501000","淡水區"
"252002","178-VK","2017/08/18 17:09:11","新北市三芝區忠孝街11號","121.505918333333","25.2550283333333","6502100","三芝區"
"252001","702-TV","2017/08/18 17:09:20","新北市三芝區淡金路一段4-5號","121.498008333333","25.2599933333333","6502100","三芝區"
"242021","AAC-296","2017/08/18 17:09:24","新北市新莊區新泰路357巷1弄49號","121.44255","25.039895","6500500","新莊區"
"242048","751-BX","2017/08/18 17:09:29","新北市新莊區中正路516號","121.433615","25.0324116666667","6500500","新莊區"
"242023","705-TV","2017/08/18 17:09:12","新北市新莊區新泰路357巷3弄57號","121.442183333333","25.0391683333333","6500500","新莊區"
"242027","612-BX","2017/08/18 17:09:24","新北市新莊區新泰路357巷3弄57號","121.442173333333","25.03933","6500500","新莊區"
"242037","566-BX","2017/08/18 17:09:16","新北市新莊區三和路12-11號","121.442123333333","25.0369316666667","6500500","新莊區"
"242041","497-BY","2017/08/18 17:09:15","新北市新莊區新泰路357巷3弄57號","121.442163333333","25.0391883333333","6500500","新莊區"
"242050","440-UM","2017/08/18 17:09:18","新北市新莊區新泰路357巷3弄15號","121.442021666667","25.0408816666667","6500500","新莊區"
"242032","415-TV","2017/08/18 17:09:33","新北市新莊區新泰路357巷3弄57號","121.442158333333","25.0393916666667","6500500","新莊區"
"242039","400-BY","2017/08/18 17:09:14","新北市新莊區新泰路357巷3弄57號","121.442175","25.03952","6500500","新莊區"
"242060","362-BY","2017/08/18 17:09:28","新北市新莊區新泰路255巷83號","121.442386666667","25.0386266666667","6500500","新莊區"
"242058","353-BY","2017/08/18 17:09:20","新北市新莊區新泰路255巷83號","121.442206666667","25.0387483333333","6500500","新莊區"
"242044","132-UY","2017/08/18 17:09:17","新北市新莊區中正路483號","121.441191666667","25.0337666666667","6500500","新莊區"
"242034","133-UY","2017/08/18 17:09:27","新北市新莊區新泰路357巷3弄41號","121.442413333333","25.040315","6500500","新莊區"
"242019","135-UY","2017/08/18 17:09:21","新北市新莊區三和路12-21號","121.442151666667","25.0386516666667","6500500","新莊區"
"242007","173-VK","2017/08/18 17:09:12","新北市新莊區三和路12-21號","121.441816666667","25.0388366666667","6500500","新莊區"
"242013","175-VK","2017/08/18 17:09:13","新北市新莊區三和路12-21號","121.442038333333","25.0387183333333","6500500","新莊區"
"242056","176-VK","2017/08/18 17:09:24","新北市新莊區三和路12-21號","121.44206","25.0387","6500500","新莊區"
"242011","346-TH","2017/08/18 17:09:18","新北市新莊區三和路12-17號","121.442085","25.0375183333333","6500500","新莊區"
"242046","347-TH","2017/08/18 17:09:28","新北市新莊區三和路12-16號","121.442151666667","25.0374333333333","6500500","新莊區"
"242017","348-TH","2017/08/18 17:09:18","新北市新莊區新泰路357巷3弄57號","121.442146666667","25.0395816666667","6500500","新莊區"
"242054","349-TH","2017/08/18 17:09:12","新北市新莊區三和路12-16號","121.442083333333","25.037455","6500500","新莊區"
"242015","350-TH","2017/08/18 17:09:29","新北市新莊區新泰路255巷83號","121.442095","25.0389783333333","6500500","新莊區"
"242009","351-TH","2017/08/18 17:09:11","新北市新莊區新泰路357巷3弄57號","121.441971666667","25.0395216666667","6500500","新莊區"
"238015","755-BX","2017/08/18 17:09:15","新北市樹林區八德街1156號","121.390656666667","24.9683633333333","6500700","樹林區"
"238023","601-UM","2017/08/18 17:09:23","新北市樹林區中洲街28號","121.397046666667","24.9716283333333","6500700","樹林區"
"238019","599-UM","2017/08/18 17:09:19","新北市樹林區八德街1162號","121.390485","24.9683316666667","6500700","樹林區"
"238018","571-TV","2017/08/18 17:09:14","新北市樹林區八德街495-3號","121.401816666667","24.9693183333333","6500700","樹林區"
"238024","5061-A6","2017/08/18 17:09:19","新北市樹林區環河路600-2號","121.40321","24.96931","6500700","樹林區"
"238022","312-TH","2017/08/18 17:09:25","新北市樹林區八德街224號","121.415445","24.97175","6500700","樹林區"
"238021","311-TH","2017/08/17 20:42:58","新北市樹林區育德街78號","121.387463333333","24.968385","6500700","樹林區"
"238025","303-VK","2017/08/18 17:09:18","新北市樹林區八德街828-11號","121.392676666667","24.9685533333333","6500700","樹林區"
"238017","283-BY","2017/08/18 17:09:23","新北市樹林區八德街830-1號","121.392573333333","24.9685566666667","6500700","樹林區"
"238014","282-BY","2017/08/18 17:09:18","新北市樹林區八德街1022號","121.391045","24.9684766666667","6500700","樹林區"
"238020","268-VK","2017/08/18 16:27:07","新北市樹林區中山路三段202號","121.386563333333","24.968735","6500700","樹林區"
"238026","172-UY","2017/08/18 02:36:51","新北市樹林區育德街78-1號","121.387821666667","24.9681266666667","6500700","樹林區"
"238016","169-UY","2017/08/18 17:09:11","新北市樹林區八德街1022號","121.391106666667","24.968525","6500700","樹林區"
"239007","AAC-297","2017/08/18 17:09:16","新北市鶯歌區中正一路60號","121.352398333333","24.9538766666667","6500800","鶯歌區"
"239006","891-R6","2017/08/18 17:09:26","新北市鶯歌區八德路2巷20弄2號","121.33625","24.9466766666667","6500800","鶯歌區"
"239008","527-UM","2017/08/18 17:09:26","新北市鶯歌區尖山路57-3號","121.3502","24.9498166666667","6500800","鶯歌區"
"239005","526-UM","2017/08/18 17:09:31","新北市鶯歌區德昌二街73號","121.333313333333","24.9577466666667","6500800","鶯歌區"
"239001","417-VK","2017/08/18 17:09:21","新北市鶯歌區尖山路140巷8號","121.346438333333","24.9491266666667","6500800","鶯歌區"
"239003","360-BY","2017/08/18 17:09:18","新北市鶯歌區德昌二街70巷32弄73號","121.330045","24.95806","6500800","鶯歌區"
"239002","359-BY","2017/08/18 17:09:21","新北市鶯歌區建國路255號","121.348005","24.95347","6500800","鶯歌區"
"239004","193-VK","2017/08/18 17:09:27","新北市鶯歌區文化路226巷7弄35號","121.352125","24.947905","6500800","鶯歌區"
"221012","276-VK","2017/08/18 13:23:13","新北市汐止區汐萬路一段256巷3號","121.653461666667","25.07462","6501100","汐止區"
"221027","281-BY","2017/08/18 15:22:24","新北市汐止區汐萬路一段256巷1號","121.651751666667","25.0748183333333","6501100","汐止區"
"220020","277-BY","2017/08/18 15:12:26","新北市板橋區華東街1-10號","121.448271666667","24.9950466666667","6500100","板橋區"
"249001","3G-OBU6","2017/08/18 15:00:33","桃園市楊梅區電研路100-24號","121.1661","24.95364","6502300","八里區"
