"lineid","car","time","location","longitude","latitude","cityid","cityname"
"234026","9371-KE","2017/08/18 17:49:09","新北市永和區永平路159號","121.510926666667","25.0087766666667","6500400","永和區"
"249005","172-UM","2017/08/18 17:49:28","新北市八里區荖阡坑路41-6號","121.402273333333","25.1327033333333","6502300","八里區"
"249001","173-UM","2017/08/18 17:49:11","新北市八里區龍米路二段133-1號","121.444895","25.1478983333333","6502300","八里區"
"249004","303-UY","2017/08/18 17:49:29","新北市八里區中華路一段309巷19-11號","121.417118333333","25.1534233333333","6502300","八里區"
"249002","305-UY","2017/08/18 17:49:09","新北市八里區龍形二街21號","121.450595","25.131705","6502300","八里區"
"249003","593-UM","2017/08/18 17:49:08","新北市八里區中山路二段212號","121.405425","25.1518683333333","6502300","八里區"
"248006","077-UY","2017/08/18 02:25:06","新北市五股區中興路二段37巷28號","121.460105","25.0749516666667","6501500","五股區"
"248008","095-VK","2017/08/18 17:49:21","新北市五股區中興路二段37巷28號","121.460146666667","25.075095","6501500","五股區"
"232011","375-UM","2017/08/18 17:49:28","新北市坪林區北宜路八段168號","121.707511666667","24.934455","6502000","坪林區"
"244007","080-UY","2017/08/18 17:49:17","新北市林口區佳林路17號","121.386958333333","25.08222","6501700","林口區"
"244019","403-UM","2017/08/18 17:49:21","新北市林口區文化一路一段83巷14弄48號","121.372211666667","25.071725","6501700","林口區"
"244009","410-SL","2017/08/18 17:49:10","新北市林口區民享路226號","121.382928333333","25.0848433333333","6501700","林口區"
"244017","656-BX","2017/08/18 17:49:21","新北市林口區忠孝路371-1號","121.368941666667","25.071915","6501700","林口區"
"244023","657-BX","2017/08/18 17:49:22","新北市林口區興林路338巷37號","121.388248333333","25.0698933333333","6501700","林口區"
"244013","658-BX","2017/08/18 17:49:20","新北市林口區中正路505巷4號","121.383335","25.0771833333333","6501700","林口區"
"244011","701-TV","2017/08/18 17:49:11","新北市林口區竹林路35號","121.386491666667","25.0776966666667","6501700","林口區"
"244025","837-TS","2017/08/18 17:49:16","新北市林口區南勢街19號","121.365041666667","25.0736966666667","6501700","林口區"
"244021","838-TS","2017/08/18 17:49:10","新北市林口區仁愛路一段123巷48號","121.39705","25.0710483333333","6501700","林口區"
"222003","436-BY","2017/08/18 17:49:28","新北市深坑區文山路三段110號","121.6083","24.9988233333333","6501800","深坑區"
"222002","659-BX","2017/08/18 17:49:17","新北市深坑區平埔街22巷17弄1號","121.614855","25.0008983333333","6501800","深坑區"
"231046","278-BY","2017/08/18 17:49:17","新北市新店區下石厝路19-2號","121.531976666667","24.9275433333333","6500600","新店區"
"241015","062-VK","2017/08/18 17:49:17","新北市三重區河邊北街86巷52號","121.502665","25.0689266666667","6500200","三重區"
"241024","065-VK","2017/08/18 17:49:20","新北市三重區車路頭街62巷24號","121.48322","25.0724083333333","6500200","三重區"
"241006","156-TC","2017/08/18 17:49:17","新北市三重區車路頭街135-1號","121.484258333333","25.076185","6500200","三重區"
"241005","262-UM","2017/08/18 17:49:21","新北市三重區五華街141巷57號","121.493541666667","25.086445","6500200","三重區"
"241016","266-UM","2017/08/18 17:49:13","新北市三重區重新路三段32號","121.494668333333","25.0612933333333","6500200","三重區"
"241001","547-UM","2017/08/18 17:49:25","新北市三重區溪尾街63號","121.490993333333","25.0772816666667","6500200","三重區"
"241033","AAC-255","2017/08/18 17:49:10","新北市三重區光復路一段9號","121.47222","25.04709","6500200","三重區"
"235064","005-UY","2017/08/18 17:49:28","新北市中和區員山路36巷16-3號","121.485106666667","24.991405","6500300","中和區"
"235067","255-BX","2017/08/18 16:16:22","新北市中和區員山路36巷13號","121.484293333333","24.991285","6500300","中和區"
"235061","378-QA","2017/08/18 17:16:36","新北市中和區和城路一段271巷1號","121.485415","24.9920383333333","6500300","中和區"
"235062","800-TS","2017/08/18 17:49:22","新北市中和區員山路36巷16-3號","121.485008333333","24.99135","6500300","中和區"
"220068","013-TV","2017/08/18 17:49:21","新北市板橋區民生路二段15-1號","121.472723333333","25.01621","6500100","板橋區"
"247020","893-R6","2017/08/18 17:49:27","新北市蘆洲區民權路180號","121.47179","25.0904583333333","6501400","蘆洲區"
"247010","546-UM","2017/08/18 17:49:17","新北市蘆洲區信義路259巷11號","121.478438333333","25.0845033333333","6501400","蘆洲區"
"247018","500-BY","2017/08/18 17:49:15","新北市蘆洲區復興路227巷2弄20號","121.48108","25.0903466666667","6501400","蘆洲區"
"247008","339-TH","2017/08/18 17:49:10","新北市蘆洲區成功路36號","121.473311666667","25.079345","6501400","蘆洲區"
"247024","337-TH","2017/08/18 17:49:19","新北市蘆洲區光榮路63號","121.46113","25.08849","6501400","蘆洲區"
"247002","336-TH","2017/08/18 17:49:28","新北市蘆洲區永平街32巷45弄2號","121.459558333333","25.092415","6501400","蘆洲區"
"247006","053-VK","2017/08/18 17:49:26","新北市蘆洲區九芎街111號","121.465695","25.0795866666667","6501400","蘆洲區"
"247012","007-UY","2017/08/18 17:49:11","新北市蘆洲區復興路186號","121.477931666667","25.0886883333333","6501400","蘆洲區"
"247022","002-UY","2017/08/18 17:49:17","新北市蘆洲區中正路367號","121.464933333333","25.0903583333333","6501400","蘆洲區"
"247016","001-UY","2017/08/18 17:49:04","新北市蘆洲區長興路50巷33號","121.464648333333","25.0845116666667","6501400","蘆洲區"
"228002","663-BX","2017/08/18 17:49:26","新北市貢寮區福隆里龜壽谷街12號","121.956181666667","25.0062216666667","6502600","貢寮區"
"228001","670-TC","2017/08/18 17:49:10","新北市貢寮區仁理村仁愛路95-1號","121.927656666667","25.0554266666667","6502600","貢寮區"
"228003","828-UM","2017/08/18 17:49:21","新北市貢寮區真理里美艷山街6-2號","121.928896666667","25.0607","6502600","貢寮區"
"224010","AGQ-8101","2017/08/18 17:49:29","新北市瑞芳區逢甲路88號","121.809443333333","25.1089216666667","6501200","瑞芳區"
"224006","676-BX","2017/08/18 17:49:24","新北市瑞芳區傑魚坑路181-3號","121.788733333333","25.1086316666667","6501200","瑞芳區"
"224002","639-TC","2017/08/18 17:49:16","新北市瑞芳區逢甲路142-1號","121.808383333333","25.1092683333333","6501200","瑞芳區"
"224009","285-BY","2017/08/18 17:49:24","新北市瑞芳區新山路179-1號","121.851518333333","25.1091266666667","6501200","瑞芳區"
"224008","275-VK","2017/08/18 17:49:30","新北市瑞芳區明燈路一段45巷61-5號","121.821856666667","25.10512","6501200","瑞芳區"
"224005","271-BY","2017/08/18 17:49:22","新北市瑞芳區建基路一段44-6號","121.81948","25.1231366666667","6501200","瑞芳區"
"253006","032-BX","2017/08/18 17:49:20","新北市石門區中山路64-1號","121.567411666667","25.2905416666667","6502200","石門區"
"208002","742-BX","2017/08/18 17:49:13","新北市金山區磺清路135號","121.639401666667","25.22775","6502700","金山區"
"251004","009-UM","2017/08/18 17:49:12","新北市淡水區民權一街17巷15號","121.459435","25.1366733333333","6501000","淡水區"
"251005","010-UM","2017/08/18 17:49:17","新北市淡水區學府路100巷2號","121.450118333333","25.1718266666667","6501000","淡水區"
"251002","012-UM","2017/08/18 17:49:16","新北市淡水區中山路88號","121.442836666667","25.1704416666667","6501000","淡水區"
"251013","180-VK","2017/08/18 17:49:25","新北市淡水區泉洲厝31號","121.479581666667","25.191035","6501000","淡水區"
"251008","181-VK","2017/08/18 17:49:20","新北市淡水區八勢路一段156號","121.468141666667","25.1564383333333","6501000","淡水區"
"251015","182-VK","2017/08/18 17:49:25","新北市淡水區興福寮18-2號","121.495061666667","25.1645966666667","6501000","淡水區"
"251010","413-VK","2017/08/18 17:49:13","新北市淡水區中正路二段96號","121.417526666667","25.1858783333333","6501000","淡水區"
"251012","441-VK","2017/08/18 17:49:27","新北市淡水區北新路二段30號","121.477006666667","25.1857183333333","6501000","淡水區"
"251001","559-UM","2017/08/18 17:49:26","新北市淡水區民權路92巷35-1號","121.46213","25.1267","6501000","淡水區"
"251006","561-UM","2017/08/18 17:49:27","新北市淡水區中山北路一段45巷15號","121.440996666667","25.1757966666667","6501000","淡水區"
"251009","575-R6","2017/08/18 17:49:22","新北市淡水區長興街3號","121.4438","25.170705","6501000","淡水區"
"251007","577-R6","2017/08/18 17:49:23","新北市淡水區民權路99-5號","121.460001666667","25.1377866666667","6501000","淡水區"
"251011","650-BX","2017/08/18 17:47:14","新北市淡水區吳(仔)厝10-2號","121.480931666667","25.1478466666667","6501000","淡水區"
"251003","673-BX","2017/08/18 17:49:15","新北市淡水區大忠街13號","121.4434","25.1760233333333","6501000","淡水區"
"207003","550-UM","2017/08/18 17:49:19","新北市萬里區野柳里東澳路55號","121.69201","25.20329","6502800","萬里區"
"207004","225-TW","2017/08/18 17:49:14","新北市萬里區萬里里瑪鋉頂街61號","121.688481666667","25.1805466666667","6502800","萬里區"
"252002","178-VK","2017/08/18 17:49:11","新北市三芝區智成街73號","121.504585","25.2559666666667","6502100","三芝區"
"252001","702-TV","2017/08/18 17:49:20","新北市三芝區淡金路一段8號","121.499273333333","25.259535","6502100","三芝區"
"237004","078-UY","2017/08/18 17:49:26","新北市三峽區中山路321-2號","121.360918333333","24.937975","6500900","三峽區"
"237009","210-TH","2017/08/18 17:49:10","新北市三峽區大勇路15號","121.367255","24.9367733333333","6500900","三峽區"
"237013","252-BX","2017/08/18 17:49:18","新北市三峽區愛國路33-9號","121.374683333333","24.9328533333333","6500900","三峽區"
"237012","275-BY","2017/08/18 17:49:24","新北市三峽區文化路122號","121.371015","24.936195","6500900","三峽區"
"237008","302-VK","2017/08/18 17:49:11","新北市三峽區中園街18號","121.36809","24.92717","6500900","三峽區"
"237014","433-BY","2017/08/18 17:49:23","新北市三峽區文化路120巷7號","121.371025","24.936575","6500900","三峽區"
"237011","572-TV","2017/08/18 17:49:16","新北市三峽區大同路64號","121.376523333333","24.92834","6500900","三峽區"
"237015","649-BX","2017/08/18 17:49:14","新北市三峽區白雞129-1號","121.398041666667","24.9058016666667","6500900","三峽區"
"237010","706-TV","2017/08/18 17:49:15","新北市三峽區和平街26號","121.370168333333","24.9367416666667","6500900","三峽區"
"237005","AKY-6261","2017/08/18 17:49:18","新北市三峽區中山路459巷70號","121.354291666667","24.9364766666667","6500900","三峽區"
"236072","105-UM","2017/08/18 17:49:24","新北市土城區城林路6巷80號","121.438508333333","24.9797633333333","6501300","土城區"
"236079","166-UM","2017/08/18 17:49:17","新北市土城區中央路三段191號","121.430651666667","24.96491","6501300","土城區"
"236031","253-BX","2017/08/18 17:49:24","新北市土城區城林路6巷80號","121.438431666667","24.9796233333333","6501300","土城區"
"236027","269-VK","2017/08/18 17:49:27","新北市土城區中華路二段168-1號","121.437426666667","24.972375","6501300","土城區"
"236015","270-VK","2017/08/18 17:49:14","新北市土城區城林路6巷80號","121.43854","24.979605","6501300","土城區"
"236039","271-VK","2017/08/18 17:49:18","新北市土城區城林路6巷80號","121.438511666667","24.9796316666667","6501300","土城區"
"236022","401-BY","2017/08/18 17:49:25","新北市土城區城林路6巷80號","121.438598333333","24.9797433333333","6501300","土城區"
"236059","912-UM","2017/08/18 17:49:25","新北市土城區城林路6巷80號","121.438568333333","24.9796533333333","6501300","土城區"
"236050","913-UM","2017/08/18 17:47:10","新北市土城區城林路6巷80號","121.43855","24.979565","6501300","土城區"
"236055","AAC-216","2017/08/18 17:49:23","新北市土城區城林路6巷80號","121.438303333333","24.9797616666667","6501300","土城區"
"242021","AAC-296","2017/08/18 17:49:24","新北市新莊區中港路136號","121.455178333333","25.040845","6500500","新莊區"
"242029","986-R7","2017/08/18 17:49:27","新北市新莊區復興路一段99號","121.448943333333","25.04289","6500500","新莊區"
"242048","751-BX","2017/08/18 17:49:08","新北市新莊區萬安街60巷3號","121.420653333333","25.0235533333333","6500500","新莊區"
"242023","705-TV","2017/08/18 17:49:12","新北市新莊區福樂街32號","121.45786","25.045405","6500500","新莊區"
"242025","615-BX","2017/08/18 17:49:23","新北市三重區新北大道二段41號","121.470435","25.0612566666667","6500500","新莊區"
"242027","612-BX","2017/08/18 17:49:24","新北市新莊區福壽街175號","121.458016666667","25.0540816666667","6500500","新莊區"
"242037","566-BX","2017/08/18 17:49:16","新北市新莊區後港一路96號","121.427728333333","25.0267316666667","6500500","新莊區"
"242041","497-BY","2017/08/18 17:49:15","新北市泰山區壽山路52號","121.42038","25.0297183333333","6500500","新莊區"
"242005","442-UM","2017/08/18 17:49:23","新北市新莊區自立街259號","121.459231666667","25.0456616666667","6500500","新莊區"
"242050","440-UM","2017/08/18 17:49:18","新北市新莊區西盛街257巷19號","121.428845","25.0159233333333","6500500","新莊區"
"242032","415-TV","2017/08/18 17:49:12","新北市新莊區新泰路305巷62號","121.44298","25.0408216666667","6500500","新莊區"
"242002","413-TV","2017/08/18 17:49:26","新北市新莊區景德路119號","121.451401666667","25.0343083333333","6500500","新莊區"
"242039","400-BY","2017/08/18 17:49:22","新北市新莊區民安西路7號","121.426788333333","25.0218233333333","6500500","新莊區"
"242060","362-BY","2017/08/18 17:49:27","新北市新莊區新樹路603號","121.433158333333","25.0057916666667","6500500","新莊區"
"242058","353-BY","2017/08/18 17:49:20","新北市新莊區中正路891-29號","121.414815","25.0235216666667","6500500","新莊區"
"242044","132-UY","2017/08/18 17:49:17","新北市新莊區中正路829巷22弄47號","121.420496666667","25.02653","6500500","新莊區"
"242034","133-UY","2017/08/18 17:49:27","新北市新莊區新莊路805號","121.440641666667","25.0327033333333","6500500","新莊區"
"242019","135-UY","2017/08/18 17:49:21","新北市新莊區長青街2號","121.457925","25.04266","6500500","新莊區"
"242007","173-VK","2017/08/18 17:49:16","新北市新莊區福樂街69號","121.457091666667","25.0477483333333","6500500","新莊區"
"242013","175-VK","2017/08/18 17:49:13","新北市新莊區中誠街164號","121.448163333333","25.0474566666667","6500500","新莊區"
"242056","176-VK","2017/08/18 17:49:24","新北市新莊區瓊林路40巷16號","121.44742","25.0302166666667","6500500","新莊區"
"242011","346-TH","2017/08/18 17:49:18","新北市新莊區中富街120號","121.449885","25.0567016666667","6500500","新莊區"
"242046","347-TH","2017/08/18 17:49:28","新北市新莊區建國一路23號","121.43401","25.0315216666667","6500500","新莊區"
"242017","348-TH","2017/08/18 17:49:18","新北市新莊區永安街91號","121.450623333333","25.0445466666667","6500500","新莊區"
"242054","349-TH","2017/08/18 17:49:12","新北市新莊區新樹路294號","121.432766666667","25.00701","6500500","新莊區"
"242015","350-TH","2017/08/18 17:49:29","新北市新莊區中平路87巷6號","121.444348333333","25.0460066666667","6500500","新莊區"
"242009","351-TH","2017/08/18 17:49:11","新北市新莊區昌平街59巷11號","121.454083333333","25.05311","6500500","新莊區"
"238015","755-BX","2017/08/18 17:49:15","新北市樹林區長壽街25巷20號","121.420236666667","24.9945616666667","6500700","樹林區"
"238023","601-UM","2017/08/18 17:49:23","新北市樹林區三福街68號","121.404935","25.01635","6500700","樹林區"
"238019","599-UM","2017/08/18 17:49:19","新北市樹林區太平路120號","121.418578333333","24.9782633333333","6500700","樹林區"
"238018","571-TV","2017/08/18 17:49:14","新北市樹林區鎮前街8號","121.426376666667","24.9934166666667","6500700","樹林區"
"238024","5061-A6","2017/08/18 17:49:19","新北市樹林區八德街368號","121.4083","24.969615","6500700","樹林區"
"238022","312-TH","2017/08/18 17:49:13","新北市樹林區中華路187巷15號","121.420835","24.9810583333333","6500700","樹林區"
"238021","311-TH","2017/08/18 17:48:13","新北市樹林區柑園街一段196-1號","121.394513333333","24.956635","6500700","樹林區"
"238025","303-VK","2017/08/18 17:49:18","新北市樹林區三俊街44號","121.412036666667","25.0154583333333","6500700","樹林區"
"238017","283-BY","2017/08/18 17:49:22","新北市樹林區三德街30巷11號","121.414628333333","25.01281","6500700","樹林區"
"238014","282-BY","2017/08/18 17:49:18","新北市樹林區保安街一段313巷10號","121.417423333333","24.997635","6500700","樹林區"
"238020","268-VK","2017/08/18 17:43:46","新北市樹林區中山路三段200-1號","121.38679","24.968955","6500700","樹林區"
"238026","172-UY","2017/08/18 17:49:21","新北市樹林區新興街59號","121.399866666667","24.9711366666667","6500700","樹林區"
"238016","169-UY","2017/08/18 17:49:12","新北市樹林區啟智街129-10號","121.417638333333","24.9888416666667","6500700","樹林區"
"239007","AAC-297","2017/08/18 17:49:16","新北市鶯歌區鶯桃路94巷31號","121.341398333333","24.9540383333333","6500800","鶯歌區"
"239006","891-R6","2017/08/18 17:49:26","新北市鶯歌區鶯桃路413巷34弄18號","121.33095","24.9638716666667","6500800","鶯歌區"
"239008","527-UM","2017/08/18 17:49:19","新北市鶯歌區香賓街13巷1號","121.336968333333","24.9797416666667","6500800","鶯歌區"
"239005","526-UM","2017/08/18 17:49:11","新北市鶯歌區鳳吉五街19號","121.327033333333","24.972455","6500800","鶯歌區"
"239001","417-VK","2017/08/18 17:49:21","新北市鶯歌區中正三路442-1號","121.323653333333","24.9345116666667","6500800","鶯歌區"
"239003","360-BY","2017/08/18 17:49:18","新北市鶯歌區永吉街46巷1號","121.335515","24.9572516666667","6500800","鶯歌區"
"239002","359-BY","2017/08/18 17:49:21","新北市鶯歌區育才街36號","121.34827","24.9551433333333","6500800","鶯歌區"
"239004","193-VK","2017/08/18 17:49:07","新北市鶯歌區尖山路101巷16-1號","121.347688333333","24.941915","6500800","鶯歌區"
"221036","130-UY","2017/08/18 17:49:09","新北市汐止區長江街190-1號","121.65982","25.0753716666667","6501100","汐止區"
"221010","269-BY","2017/08/18 17:49:13","新北市汐止區汐萬路一段418巷16號","121.65061","25.07853","6501100","汐止區"
"221012","276-VK","2017/08/18 13:23:13","新北市汐止區汐萬路一段256巷3號","121.653461666667","25.07462","6501100","汐止區"
"221031","277-VK","2017/08/18 17:49:27","新北市汐止區汐萬路一段256巷3號","121.652515","25.0746283333333","6501100","汐止區"
"221012","278-VK","2017/08/18 17:49:15","新北市汐止區汐萬路一段142號","121.65322","25.0711","6501100","汐止區"
"221023","279-VK","2017/08/18 17:49:28","新北市汐止區民族二街9號","121.634996666667","25.0709116666667","6501100","汐止區"
"221032","280-BY","2017/08/18 17:49:14","新北市汐止區大同路一段46號","121.622251666667","25.0549133333333","6501100","汐止區"
"221027","281-BY","2017/08/18 17:49:10","新北市汐止區汐萬路一段256巷1號","121.651805","25.0749483333333","6501100","汐止區"
"221038","297-VK","2017/08/18 17:49:28","新北市汐止區汐萬路一段312號","121.650411666667","25.0750866666667","6501100","汐止區"
"221029","298-VK","2017/08/18 17:49:22","新北市汐止區康寧街901號","121.651646666667","25.0749433333333","6501100","汐止區"
"221021","299-VK","2017/08/18 17:49:16","新北市汐止區汐萬路一段29號","121.655733333333","25.0677883333333","6501100","汐止區"
"221035","622-UM","2017/08/18 17:49:21","新北市汐止區汐萬路一段213號","121.65201","25.0719866666667","6501100","汐止區"
"221025","623-UM","2017/08/18 17:49:12","新北市汐止區新台五路一段260-3號","121.658026666667","25.0640516666667","6501100","汐止區"
"221033","647-BX","2017/08/18 17:49:19","新北市汐止區橫科路73巷20弄18號","121.619723333333","25.05161","6501100","汐止區"
"221018","753-BX","2017/08/18 17:49:16","新北市汐止區忠孝東路348號","121.66566","25.0697","6501100","汐止區"
"220020","277-BY","2017/08/18 17:49:21","新北市板橋區華東街1-10號","121.448283333333","24.9950733333333","6500100","板橋區"
"249001","3G-OBU6","2017/08/18 15:00:33","桃園市楊梅區電研路100-24號","121.1661","24.95364","6502300","八里區"
