"lineid","car","time","location","longitude","latitude","cityid","cityname"
"234013","149-BY","2017/08/18 18:19:21","新北市永和區福和路1號","121.526365","25.0099716666667","6500400","永和區"
"234007","207-UY","2017/08/18 18:19:27","新北市永和區環河西路一段101號","121.511093333333","25.017755","6500400","永和區"
"234042","862-TW","2017/08/18 18:19:08","新北市永和區福和路1號","121.526466666667","25.00965","6500400","永和區"
"234026","9371-KE","2017/08/18 18:19:09","新北市永和區豫溪街40號","121.515526666667","25.0096766666667","6500400","永和區"
"234011","9373-KE","2017/08/18 18:19:21","新北市永和區保福路二段158巷1號","121.50915","25.0150566666667","6500400","永和區"
"249005","172-UM","2017/08/18 18:19:28","新北市八里區荖阡坑路15-30號","121.40031","25.140585","6502300","八里區"
"249001","173-UM","2017/08/18 18:19:11","新北市八里區龍米路一段135號","121.452093333333","25.1269283333333","6502300","八里區"
"249004","303-UY","2017/08/18 18:19:21","新北市八里區文心街77號","121.427911666667","25.1609283333333","6502300","八里區"
"249002","305-UY","2017/08/18 18:19:09","新北市八里區龍形二街35號","121.450403333333","25.1328416666667","6502300","八里區"
"248014","025-BX","2017/08/18 18:19:22","新北市五股區自強路19巷5-1號","121.43462","25.0738083333333","6501500","五股區"
"248016","026-BX","2017/08/18 18:19:19","新北市五股區成泰路三段491巷9號","121.449873333333","25.099155","6501500","五股區"
"248006","077-UY","2017/08/18 18:19:23","新北市五股區中興路一段152號","121.464488333333","25.07378","6501500","五股區"
"248008","095-VK","2017/08/18 18:19:21","新北市五股區更洲路32巷8弄14號","121.45925","25.0796266666667","6501500","五股區"
"248018","225-UY","2017/08/18 18:19:18","新北市五股區御史路150號","121.431416666667","25.1022833333333","6501500","五股區"
"248012","247-BX","2017/08/18 18:19:21","新北市五股區御史路1巷101弄2號","121.440973333333","25.0911983333333","6501500","五股區"
"248004","677-BX","2017/08/18 18:19:09","新北市五股區成泰路二段149號","121.439085","25.0855166666667","6501500","五股區"
"248002","678-BX","2017/08/18 18:19:17","新北市五股區西雲路68號","121.443693333333","25.091665","6501500","五股區"
"248010","682-TV","2017/08/18 18:19:20","新北市五股區成泰路一段141號","121.435291666667","25.0729083333333","6501500","五股區"
"232011","375-UM","2017/08/18 18:12:42","新北市坪林區坪雙路一段31號","121.711745","24.9424033333333","6502000","坪林區"
"244007","080-UY","2017/08/18 18:19:17","新北市林口區林口路296號","121.38597","25.085495","6501700","林口區"
"244019","403-UM","2017/08/18 18:19:21","新北市林口區文化一路一段22巷11號","121.37094","25.0680266666667","6501700","林口區"
"244009","410-SL","2017/08/18 18:19:10","新北市林口區中山路256-1號","121.385503333333","25.0798533333333","6501700","林口區"
"244017","656-BX","2017/08/18 18:19:21","新北市林口區八德路48巷1號","121.366791666667","25.0662166666667","6501700","林口區"
"244023","657-BX","2017/08/18 18:19:22","新北市林口區仁愛路二段10號","121.385823333333","25.0762116666667","6501700","林口區"
"244013","658-BX","2017/08/18 18:19:20","新北市林口區中山路160巷16號","121.391665","25.07932","6501700","林口區"
"244011","701-TV","2017/08/18 18:19:11","新北市林口區新生街9號","121.39418","25.07682","6501700","林口區"
"244025","837-TS","2017/08/18 18:19:16","新北市林口區南勢二街140號","121.358643333333","25.0730383333333","6501700","林口區"
"244021","838-TS","2017/08/18 18:19:10","新北市林口區自強一街38號","121.399016666667","25.0777033333333","6501700","林口區"
"243013","AAD-798","2017/08/18 18:19:15","新北市泰山區南林路99巷1-1號","121.415431666667","25.0511016666667","6501600","泰山區"
"222003","436-BY","2017/08/18 18:19:10","新北市深坑區雲鄉路11號","121.621358333333","25.000015","6501800","深坑區"
"222002","659-BX","2017/08/18 18:19:17","新北市深坑區雲鄉路3-1號","121.62104","25.0001216666667","6501800","深坑區"
"222001","696-SL","2017/08/18 18:19:21","新北市深坑區北深路二段51號","121.618981666667","25.004065","6501800","深坑區"
"231059","046-UY","2017/08/18 18:19:13","新北市新店區安華路28-1號","121.519516666667","24.9608366666667","6500600","新店區"
"231061","047-UY","2017/08/18 18:19:10","新北市新店區安華路28-1號","121.519125","24.9608316666667","6500600","新店區"
"231060","106-UY","2017/08/18 18:19:09","新北市新店區安華路28-1號","121.519708333333","24.9607783333333","6500600","新店區"
"231048","108-UY","2017/08/18 16:35:54","新北市新店區安華路28-1號","121.51945","24.9612266666667","6500600","新店區"
"231064","110-UY","2017/08/18 18:19:17","新北市新店區安華路28-1號","121.519696666667","24.9610866666667","6500600","新店區"
"231053","187-VK","2017/08/18 18:19:12","新北市新店區安康路一段355號","121.519888333333","24.9634416666667","6500600","新店區"
"231057","256-BX","2017/08/18 18:19:15","新北市新店區安華路28-1號","121.519706666667","24.9611166666667","6500600","新店區"
"231063","268-BY","2017/08/18 18:19:11","新北市新店區安華路1-1號","121.5194","24.9604866666667","6500600","新店區"
"231046","278-BY","2017/08/18 18:19:17","新北市新店區直潭七街60號","121.532265","24.93985","6500600","新店區"
"231050","AAD-862","2017/08/18 18:19:14","新北市新店區安華路28-1號","121.51996","24.96129","6500600","新店區"
"231058","3712-VJ","2017/08/18 18:19:13","新北市新店區環河路29巷1號","121.537133333333","24.9611583333333","6500600","新店區"
"231055","3713-VJ","2017/08/18 18:19:09","新北市新店區安康路一段277號","121.52383","24.963485","6500600","新店區"
"231056","4716-K9","2017/08/18 18:19:14","新北市新店區中央路151號","121.529506666667","24.9718933333333","6500600","新店區"
"231067","4772-VM","2017/08/18 18:19:14","新北市新店區安華路3號","121.51904","24.9604416666667","6500600","新店區"
"231065","512-UM","2017/08/18 16:01:59","新北市新店區安華路28-1號","121.519061666667","24.96121","6500600","新店區"
"231054","513-UM","2017/08/18 18:19:17","新北市新店區安華路28-1號","121.519676666667","24.96114","6500600","新店區"
"231042","616-UM","2017/08/18 18:19:23","新北市新店區安華路1-1號","121.519218333333","24.9604033333333","6500600","新店區"
"231045","617-UM","2017/08/18 18:19:21","新北市新店區安華路28-1號","121.519315","24.9607833333333","6500600","新店區"
"231040","619-UM","2017/08/18 18:19:17","新北市新店區安華路28-1號","121.519326666667","24.96092","6500600","新店區"
"231049","719-UM","2017/08/18 18:19:10","新北市新店區安華路28-1號","121.519318333333","24.9610783333333","6500600","新店區"
"231062","720-UM","2017/08/18 18:19:18","新北市新店區安華路28-1號","121.519213333333","24.9610766666667","6500600","新店區"
"231044","897-TW","2017/08/18 18:19:12","新北市新店區安華路28-1號","121.519676666667","24.9609616666667","6500600","新店區"
"231066","AKT-0513","2017/08/18 18:19:08","新北市新店區安華路28-1號","121.519565","24.9605533333333","6500600","新店區"
"241033","AAC-255","2017/08/18 18:19:10","新北市三重區光復路一段68巷38號","121.470538333333","25.04929","6500200","三重區"
"235066","003-UY","2017/08/18 18:19:15","新北市中和區中山路二段123號","121.50266","25.0035833333333","6500300","中和區"
"235064","005-UY","2017/08/18 18:19:08","新北市中和區中正路166-1號","121.498313333333","24.99392","6500300","中和區"
"235063","006-UY","2017/08/18 18:19:21","新北市中和區中正路525號","121.487965","24.9937116666667","6500300","中和區"
"235056","096-UM","2017/08/18 18:19:20","新北市中和區員山路611巷1號","121.477915","25.0112033333333","6500300","中和區"
"235039","097-UM","2017/08/18 18:19:08","新北市中和區中正路277-6號","121.49521","24.9936816666667","6500300","中和區"
"235065","098-UM","2017/08/18 18:19:16","新北市中和區莊敬路49巷18號","121.501641666667","25.00609","6500300","中和區"
"235040","150-BY","2017/08/18 18:19:10","新北市中和區錦和路350-1號","121.490113333333","24.9935566666667","6500300","中和區"
"235058","151-BY","2017/08/18 18:19:18","新北市中和區圓通路367巷2號","121.491328333333","24.9894466666667","6500300","中和區"
"235058","183-VK","2017/08/18 18:19:09","新北市中和區員山路36巷16-3號","121.484976666667","24.99128","6500300","中和區"
"235038","185-VK","2017/08/18 18:19:16","新北市中和區大智街42巷1-5號","121.522063333333","24.9920416666667","6500300","中和區"
"235067","255-BX","2017/08/18 18:19:14","新北市中和區和城路一段271巷1號","121.485355","24.9918666666667","6500300","中和區"
"235072","301-VK","2017/08/18 18:19:16","新北市中和區中正路637巷52弄1號","121.485485","24.9933783333333","6500300","中和區"
"235043","352-BY","2017/08/18 18:19:15","新北市中和區景平路375號","121.504166666667","24.9934133333333","6500300","中和區"
"235051","376-QA","2017/08/18 18:19:07","新北市中和區興南路二段32巷3號","121.507213333333","24.9855166666667","6500300","中和區"
"235068","377-QA","2017/08/18 18:19:20","新北市中和區員山路36巷16-3號","121.485266666667","24.9911516666667","6500300","中和區"
"235061","378-QA","2017/08/18 18:19:15","新北市中和區國光街215巷47號","121.467216666667","25.00026","6500300","中和區"
"235050","4979-A6","2017/08/18 18:18:56","新北市中和區捷運路16號","121.508968333333","24.98996","6500300","中和區"
"235069","4980-A6","2017/08/18 18:19:22","新北市中和區連城路129號","121.496236666667","24.9990533333333","6500300","中和區"
"235070","558-UM","2017/08/18 15:34:34","新北市中和區員山路36巷16-2號","121.485336666667","24.99157","6500300","中和區"
"235045","565-BX","2017/08/18 18:19:21","新北市中和區南山路160號","121.504428333333","24.99174","6500300","中和區"
"235054","640-BX","2017/08/18 18:19:21","新北市中和區莒光路185號","121.472613333333","24.9989916666667","6500300","中和區"
"235047","732-UM","2017/08/18 18:19:23","新北市中和區中正路169號","121.498005","24.99367","6500300","中和區"
"235046","733-UM","2017/08/18 18:19:11","新北市中和區員山路36巷13號","121.48416","24.990855","6500300","中和區"
"235062","800-TS","2017/08/18 18:19:22","新北市中和區景平路999巷2號","121.495421666667","25.006035","6500300","中和區"
"235057","801-TS","2017/08/18 18:19:21","新北市中和區員山路111號","121.480883333333","24.9947666666667","6500300","中和區"
"235052","805-TS","2017/08/18 18:19:15","新北市中和區南山路287號","121.504345","24.9920916666667","6500300","中和區"
"235048","896-TW","2017/08/18 18:19:10","新北市中和區員山路36巷16-3號","121.484981666667","24.9917966666667","6500300","中和區"
"235053","900-TW","2017/08/18 18:19:22","新北市中和區員山路36巷16-2號","121.485063333333","24.9919066666667","6500300","中和區"
"235037","AAC-213","2017/08/18 18:19:26","新北市中和區景平路151巷23號","121.51435","24.9912616666667","6500300","中和區"
"235059","AAC-215","2017/08/18 18:19:06","新北市中和區員山路36巷16-3號","121.484933333333","24.9913133333333","6500300","中和區"
"220068","013-TV","2017/08/18 18:19:21","新北市板橋區民生路二段17號","121.472643333333","25.0162666666667","6500100","板橋區"
"226004","205-ST","2017/08/18 18:18:54","新北市平溪區薯榔里一坑路5號","121.713865","25.0215216666667","6502400","平溪區"
"228002","663-BX","2017/08/18 18:19:26","新北市貢寮區福連里福興街39-3號","121.994615","25.014525","6502600","貢寮區"
"228001","670-TC","2017/08/18 18:19:10","新北市貢寮區真理里新港街26巷55弄2-1號","121.927356666667","25.0528516666667","6502600","貢寮區"
"228003","828-UM","2017/08/18 18:19:21","新北市貢寮區真理里美艷山街61-3號","121.92312","25.0697683333333","6502600","貢寮區"
"224006","676-BX","2017/08/18 18:19:24","新北市瑞芳區民權街3-2號","121.80805","25.10742","6501200","瑞芳區"
"224002","639-TC","2017/08/18 18:19:16","新北市瑞芳區三爪子坑路91巷1號","121.811655","25.1072883333333","6501200","瑞芳區"
"224011","420-VK","2017/08/18 18:09:58","新北市瑞芳區崙頂路1-6號","121.847013333333","25.1047333333333","6501200","瑞芳區"
"224009","285-BY","2017/08/18 18:19:24","新北市瑞芳區金光路127號","121.854115","25.1067333333333","6501200","瑞芳區"
"224008","275-VK","2017/08/18 18:19:17","新北市瑞芳區逢甲路41號","121.80842","25.1090983333333","6501200","瑞芳區"
"224007","273-VK","2017/08/18 18:19:17","新北市瑞芳區大埔路67巷5-1號","121.76431","25.1015516666667","6501200","瑞芳區"
"224005","271-BY","2017/08/18 18:19:22","新北市瑞芳區建基路二段110-1號","121.812011666667","25.13249","6501200","瑞芳區"
"227003","642-TC","2017/08/18 18:18:41","新北市雙溪區共和里中山路2號","121.863808333333","25.0337783333333","6502500","雙溪區"
"227011","400-TW","2017/08/18 18:19:11","新北市雙溪區牡丹里牡丹73號","121.85173","25.0593633333333","6502500","雙溪區"
"253006","032-BX","2017/08/18 18:19:20","新北市石門區老梅路57號","121.545663333333","25.2893033333333","6502200","石門區"
"253005","295-VK","2017/08/18 18:19:24","新北市石門區中央路17號","121.567811666667","25.2924016666667","6502200","石門區"
"208002","742-BX","2017/08/18 18:19:13","新北市金山區清泉里清水路16巷12號","121.633243333333","25.23035","6502700","金山區"
"208003","665-BX","2017/08/18 18:19:22","新北市金山區民生路51巷1-2號","121.641745","25.2190983333333","6502700","金山區"
"251004","009-UM","2017/08/18 18:19:12","新北市淡水區民族路31巷9號","121.462356666667","25.13631","6501000","淡水區"
"251005","010-UM","2017/08/18 18:19:17","新北市淡水區水源街一段122巷37號","121.447066666667","25.1704616666667","6501000","淡水區"
"251002","012-UM","2017/08/18 18:19:15","新北市淡水區中正東路一段87-2號","121.452976666667","25.1617766666667","6501000","淡水區"
"251013","180-VK","2017/08/18 18:19:25","新北市淡水區破瓦厝子1-10號","121.475193333333","25.2000183333333","6501000","淡水區"
"251008","181-VK","2017/08/18 18:19:20","新北市淡水區水源街二段194號","121.457128333333","25.1761016666667","6501000","淡水區"
"251015","182-VK","2017/08/18 18:19:25","新北市淡水區興福寮88巷1號","121.485633333333","25.1650716666667","6501000","淡水區"
"251010","413-VK","2017/08/18 18:19:12","新北市淡水區淡海路199號","121.420378333333","25.1846766666667","6501000","淡水區"
"251012","441-VK","2017/08/18 18:19:27","新北市淡水區北新路二段77-5號","121.480491666667","25.185545","6501000","淡水區"
"251001","559-UM","2017/08/18 18:19:06","新北市淡水區自強路110-8號","121.46157","25.1314983333333","6501000","淡水區"
"251006","561-UM","2017/08/18 18:19:08","新北市淡水區新民街28號","121.439591666667","25.1757683333333","6501000","淡水區"
"251011","650-BX","2017/08/18 18:19:14","新北市淡水區坪頂路51巷2號","121.458085","25.162565","6501000","淡水區"
"251003","673-BX","2017/08/18 18:19:15","新北市淡水區北新路186-3號","121.44955","25.178815","6501000","淡水區"
"207003","550-UM","2017/08/18 18:19:19","新北市萬里區野柳里港東路24號","121.687526666667","25.2037133333333","6502800","萬里區"
"207004","225-TW","2017/08/18 18:19:14","新北市萬里區中幅里中福路127號","121.675548333333","25.16585","6502800","萬里區"
"252002","178-VK","2017/08/18 18:19:11","新北市三芝區中山路二段39號","121.502928333333","25.2550866666667","6502100","三芝區"
"252003","249-BX","2017/08/18 18:19:19","新北市三芝區古庄里四棧橋44號","121.481601666667","25.2638033333333","6502100","三芝區"
"252001","702-TV","2017/08/18 18:19:20","新北市三芝區中興街二段2號","121.498278333333","25.2566783333333","6502100","三芝區"
"237004","078-UY","2017/08/18 18:19:26","新北市三峽區五寮41-6號","121.367581666667","24.8646566666667","6500900","三峽區"
"237007","153-BY","2017/08/18 18:19:10","新北市三峽區中正路二段556號","121.359928333333","24.9062683333333","6500900","三峽區"
"237009","210-TH","2017/08/18 18:19:10","新北市三峽區大勇路36巷27號","121.365395","24.9370233333333","6500900","三峽區"
"237013","252-BX","2017/08/18 18:19:18","新北市三峽區永安街45號","121.376171666667","24.9300983333333","6500900","三峽區"
"237012","275-BY","2017/08/18 18:19:24","新北市三峽區民生街1巷1-5號","121.376803333333","24.9368116666667","6500900","三峽區"
"237008","302-VK","2017/08/18 18:19:11","新北市三峽區白雞68-291號","121.391805","24.9070933333333","6500900","三峽區"
"237014","433-BY","2017/08/18 18:19:23","新北市三峽區復興路59號","121.373091666667","24.93706","6500900","三峽區"
"237006","5529-G3","2017/08/18 18:19:17","新北市三峽區溪東路238巷9號","121.408101666667","24.93128","6500900","三峽區"
"237011","572-TV","2017/08/18 18:19:16","新北市三峽區溪東路424號","121.415173333333","24.9276483333333","6500900","三峽區"
"237015","649-BX","2017/08/18 18:19:14","新北市三峽區紫微路42-1號","121.42236","24.9202216666667","6500900","三峽區"
"237010","706-TV","2017/08/18 18:19:15","新北市三峽區中山路129號","121.365291666667","24.9360016666667","6500900","三峽區"
"237005","AKY-6261","2017/08/18 18:19:18","新北市三峽區忠孝街29-1號","121.371145","24.9340516666667","6500900","三峽區"
"236072","105-UM","2017/08/18 18:19:24","新北市土城區明德路一段93巷6號","121.465995","24.9832266666667","6501300","土城區"
"236043","107-UM","2017/08/18 18:19:22","新北市土城區裕生路21巷2弄1號","121.448606666667","24.9871583333333","6501300","土城區"
"236079","166-UM","2017/08/18 18:19:22","新北市土城區永安街115巷22號","121.429075","24.963345","6501300","土城區"
"236031","253-BX","2017/08/18 18:19:24","新北市土城區順風路24號","121.440726666667","24.9767116666667","6501300","土城區"
"236027","269-VK","2017/08/18 18:19:07","新北市土城區承天路18號","121.439301666667","24.9636183333333","6501300","土城區"
"236015","270-VK","2017/08/18 18:19:14","新北市土城區立清街69號","121.460311666667","24.9873316666667","6501300","土城區"
"236039","271-VK","2017/08/18 18:19:19","新北市土城區青雲路483巷10弄15號","121.459326666667","24.9732116666667","6501300","土城區"
"236022","401-BY","2017/08/18 18:19:05","新北市土城區清水路117號","121.457581666667","24.9816683333333","6501300","土城區"
"236059","912-UM","2017/08/18 18:19:25","新北市土城區中央路四段406號","121.412365","24.9538666666667","6501300","土城區"
"236050","913-UM","2017/08/18 18:19:10","新北市土城區明德路一段355-5號","121.456956666667","24.9775366666667","6501300","土城區"
"236063","915-UM","2017/08/18 18:19:19","新北市土城區金城路三段191-1號","121.469971666667","24.9889","6501300","土城區"
"236055","AAC-216","2017/08/18 18:19:23","新北市土城區中華路二段92號","121.438228333333","24.97474","6501300","土城區"
"242021","AAC-296","2017/08/18 18:19:24","新北市新莊區新興街27巷2號","121.450701666667","25.0374166666667","6500500","新莊區"
"242029","986-R7","2017/08/18 18:19:07","新北市新莊區中平路202-1號","121.444866666667","25.0488","6500500","新莊區"
"242048","751-BX","2017/08/18 18:19:08","新北市泰山區明志路三段496號","121.421","25.03102","6500500","新莊區"
"242025","615-BX","2017/08/18 18:19:23","新北市新莊區五權一路18號","121.457371666667","25.0647783333333","6500500","新莊區"
"242027","612-BX","2017/08/18 18:19:24","新北市新莊區幸福路860號","121.443738333333","25.0489716666667","6500500","新莊區"
"242037","566-BX","2017/08/18 18:19:16","新北市新莊區後港一路65巷9弄8號","121.425801666667","25.0269","6500500","新莊區"
"242041","497-BY","2017/08/18 18:19:15","新北市新莊區天祥街81巷24號","121.41503","25.0285883333333","6500500","新莊區"
"242050","440-UM","2017/08/18 18:19:18","新北市新莊區新樹路206巷3號","121.433413333333","25.0204166666667","6500500","新莊區"
"242032","415-TV","2017/08/18 18:19:12","新北市新莊區新泰路255巷48號","121.444148333333","25.0395683333333","6500500","新莊區"
"242002","413-TV","2017/08/18 18:19:12","新北市新莊區碧江街27-7號","121.452713333333","25.0333133333333","6500500","新莊區"
"242039","400-BY","2017/08/18 18:19:14","新北市新莊區民安東路176號","121.433058333333","25.0204066666667","6500500","新莊區"
"242060","362-BY","2017/08/18 18:19:07","新北市新莊區後港一路195號","121.434185","25.0283816666667","6500500","新莊區"
"242058","353-BY","2017/08/18 18:19:25","新北市新莊區中正路899巷2號","121.411345","25.0216816666667","6500500","新莊區"
"242044","132-UY","2017/08/18 18:19:17","新北市新莊區鳳山街52號","121.41411","25.0257633333333","6500500","新莊區"
"242034","133-UY","2017/08/18 18:19:07","新北市新莊區中正路377巷10號","121.446223333333","25.0340266666667","6500500","新莊區"
"242007","173-VK","2017/08/18 18:19:12","新北市新莊區自信街27號","121.453768333333","25.048265","6500500","新莊區"
"242056","176-VK","2017/08/18 18:19:24","新北市新莊區瓊林路59-87號","121.442648333333","25.0245833333333","6500500","新莊區"
"242011","346-TH","2017/08/18 18:19:18","新北市新莊區中港路613號","121.451175","25.05341","6500500","新莊區"
"242046","347-TH","2017/08/18 18:19:08","新北市新莊區中正路829巷22弄41號","121.420755","25.0267716666667","6500500","新莊區"
"242017","348-TH","2017/08/18 18:19:18","新北市新莊區中正路375號","121.446293333333","25.0346966666667","6500500","新莊區"
"242054","349-TH","2017/08/18 18:19:13","新北市新莊區民安西路404號","121.428813333333","25.0101316666667","6500500","新莊區"
"242009","351-TH","2017/08/18 18:19:11","新北市新莊區中港一街51號","121.450491666667","25.0454283333333","6500500","新莊區"
"238015","755-BX","2017/08/18 18:19:19","新北市樹林區啟智街86巷15號","121.418151666667","24.990885","6500700","樹林區"
"238023","601-UM","2017/08/18 18:19:23","新北市樹林區三福街67巷6號","121.407668333333","25.0158666666667","6500700","樹林區"
"238019","599-UM","2017/08/18 18:19:19","新北市樹林區國凱街112號","121.421601666667","24.97988","6500700","樹林區"
"238018","571-TV","2017/08/18 18:19:14","新北市樹林區博愛一街7號","121.425318333333","24.9912","6500700","樹林區"
"238024","5061-A6","2017/08/18 18:19:19","新北市樹林區文化街120巷1號","121.415891666667","24.9897283333333","6500700","樹林區"
"238022","312-TH","2017/08/18 18:19:13","新北市樹林區太平路150巷39弄7號","121.417158333333","24.976995","6500700","樹林區"
"238021","311-TH","2017/08/18 18:19:13","新北市樹林區柑園街二段14號","121.388055","24.956055","6500700","樹林區"
"238025","303-VK","2017/08/18 18:19:18","新北市樹林區保安街一段219號","121.420433333333","24.9962483333333","6500700","樹林區"
"238017","283-BY","2017/08/18 18:19:22","新北市樹林區中正路755號","121.410376666667","25.0154016666667","6500700","樹林區"
"238014","282-BY","2017/08/18 18:19:21","新北市樹林區大安路111巷57號","121.423616666667","24.997275","6500700","樹林區"
"238020","268-VK","2017/08/18 17:43:46","新北市樹林區中山路三段200-1號","121.38679","24.968955","6500700","樹林區"
"238026","172-UY","2017/08/18 18:19:21","新北市樹林區佳園路一段77號","121.39326","24.9699683333333","6500700","樹林區"
"238016","169-UY","2017/08/18 18:19:12","新北市樹林區文化街28號","121.419308333333","24.9877116666667","6500700","樹林區"
"239007","AAC-297","2017/08/18 18:19:16","新北市鶯歌區重慶街95號","121.348218333333","24.952265","6500800","鶯歌區"
"239006","891-R6","2017/08/18 18:19:26","新北市鶯歌區鶯桃路296巷53號","121.33587","24.9613966666667","6500800","鶯歌區"
"239008","527-UM","2017/08/18 18:19:19","新北市鶯歌區國際一路179號","121.336235","24.9765233333333","6500800","鶯歌區"
"239005","526-UM","2017/08/18 18:19:07","新北市鶯歌區鶯桃路668巷25號","121.329011666667","24.97038","6500800","鶯歌區"
"239001","417-VK","2017/08/18 18:19:21","新北市鶯歌區國中街178號","121.338213333333","24.9392283333333","6500800","鶯歌區"
"239003","360-BY","2017/08/18 18:19:17","新北市鶯歌區福安街58號","121.335578333333","24.96518","6500800","鶯歌區"
"239002","359-BY","2017/08/18 18:19:21","新北市鶯歌區中正一路269號","121.354921666667","24.9570683333333","6500800","鶯歌區"
"239004","193-VK","2017/08/18 18:19:27","新北市鶯歌區尖山路334號","121.340868333333","24.9432333333333","6500800","鶯歌區"
"221008","489-VK","2017/08/18 18:19:20","新北市汐止區汐萬路一段329號","121.649985","25.0756366666667","6501100","汐止區"
"221036","130-UY","2017/08/18 18:19:09","新北市汐止區長興街一段20號","121.669631666667","25.07892","6501100","汐止區"
"221015","131-UY","2017/08/18 18:19:15","新北市汐止區鄉長路二段23巷14號","121.667605","25.0830016666667","6501100","汐止區"
"221012","276-VK","2017/08/18 13:23:13","新北市汐止區汐萬路一段256巷3號","121.653461666667","25.07462","6501100","汐止區"
"221031","277-VK","2017/08/18 18:19:07","新北市汐止區中興路111號","121.632223333333","25.064955","6501100","汐止區"
"221012","278-VK","2017/08/18 18:19:15","新北市汐止區保長路23號","121.672223333333","25.0798016666667","6501100","汐止區"
"221023","279-VK","2017/08/18 18:19:08","新北市汐止區中興路234-1號","121.629941666667","25.0675983333333","6501100","汐止區"
"221032","280-BY","2017/08/18 18:19:14","新北市汐止區民權街二段109巷11弄1號","121.619516666667","25.0467666666667","6501100","汐止區"
"221027","281-BY","2017/08/18 18:19:10","新北市汐止區和平街13號","121.662993333333","25.0706716666667","6501100","汐止區"
"221038","297-VK","2017/08/18 18:19:08","新北市汐止區忠孝東路282號","121.66378","25.0682416666667","6501100","汐止區"
"221029","298-VK","2017/08/18 18:19:22","新北市汐止區樟樹二路330巷72-1號","121.643003333333","25.0698866666667","6501100","汐止區"
"221021","299-VK","2017/08/18 18:19:16","新北市汐止區新台五路一段159號","121.653941666667","25.062595","6501100","汐止區"
"221035","622-UM","2017/08/18 18:19:20","新北市汐止區大同路二段179號","121.65191","25.064205","6501100","汐止區"
"221025","623-UM","2017/08/18 18:19:12","新北市汐止區秀峰路143號","121.660423333333","25.062235","6501100","汐止區"
"221010","646-BX","2017/08/18 18:19:21","新北市汐止區汐萬路二段50號","121.649566666667","25.0817516666667","6501100","汐止區"
"221033","647-BX","2017/08/18 18:19:19","新北市汐止區宜興街59巷33-1號","121.62173","25.0428183333333","6501100","汐止區"
"221002","707-TV","2017/08/18 18:19:23","新北市汐止區福德一路201巷27號","121.63586","25.0647616666667","6501100","汐止區"
"221018","753-BX","2017/08/18 18:19:16","新北市汐止區茄苳路115號","121.667773333333","25.0704883333333","6501100","汐止區"
"220020","277-BY","2017/08/18 18:19:21","新北市板橋區華東街1-10號","121.448281666667","24.995075","6500100","板橋區"
"220063","609-BX","2017/08/18 15:31:01","新北市板橋區民生路二段15-1號","121.472663333333","25.01639","6500100","板橋區"
"249001","3G-OBU6","2017/08/18 15:00:33","桃園市楊梅區電研路100-24號","121.1661","24.95364","6502300","八里區"
