"lineid","car","time","location","longitude","latitude","cityid","cityname"
"234046","148-BY","2017/08/18 19:39:10","新北市永和區秀朗路二段66巷7弄1號","121.522876666667","25.00151","6500400","永和區"
"234013","149-BY","2017/08/18 19:39:21","新北市永和區永平路258號","121.508168333333","25.0112883333333","6500400","永和區"
"234007","207-UY","2017/08/18 19:39:07","新北市中和區中和路326號","121.50968","25.0010266666667","6500400","永和區"
"234081","298-R6","2017/08/18 19:39:27","新北市永和區國中路104巷10號","121.524765","25.0068733333333","6500400","永和區"
"234038","336-UY","2017/08/18 19:39:21","新北市永和區民樂街57巷19號","121.528365","24.99869","6500400","永和區"
"234064","337-UY","2017/08/18 19:39:24","新北市永和區秀朗路一段192巷6弄14號","121.519118333333","25.0023066666667","6500400","永和區"
"234086","338-UY","2017/08/18 19:39:25","新北市永和區永亨路157號","121.525865","25.003805","6500400","永和區"
"234054","553-UM","2017/08/18 19:39:13","新北市永和區竹林路39巷18號","121.518663333333","25.0145666666667","6500400","永和區"
"234017","745-BX","2017/08/18 19:39:16","新北市永和區永和路二段425巷18號","121.514846666667","25.0178483333333","6500400","永和區"
"234030","746-BX","2017/08/18 19:39:08","新北市永和區民生路47巷25號","121.524711666667","24.9977916666667","6500400","永和區"
"234061","AAD-866","2017/08/18 19:39:17","新北市永和區永貞路210號","121.515518333333","25.0041333333333","6500400","永和區"
"234070","847-RS","2017/08/18 19:39:19","新北市永和區永和路二段234號","121.515798333333","25.0146233333333","6500400","永和區"
"234042","862-TW","2017/08/18 19:39:08","新北市永和區中和路305巷2弄2號","121.506703333333","25.000005","6500400","永和區"
"234050","863-TW","2017/08/18 19:39:14","新北市永和區新生路25巷4弄2-1號","121.509573333333","25.0162716666667","6500400","永和區"
"234026","9371-KE","2017/08/18 19:39:09","新北市永和區中和路501巷5號","121.510475","25.0026883333333","6500400","永和區"
"234011","9373-KE","2017/08/18 19:39:21","新北市永和區仁愛路306巷20號","121.502061666667","25.0087016666667","6500400","永和區"
"249004","303-UY","2017/08/18 19:39:14","新北市八里區中山路一段268巷27號","121.413688333333","25.1605866666667","6502300","八里區"
"249002","305-UY","2017/08/18 19:39:09","新北市八里區頂寮二街35號","121.45023","25.1251983333333","6502300","八里區"
"249003","593-UM","2017/08/18 19:39:19","新北市八里區中華路二段542號","121.399071666667","25.145535","6502300","八里區"
"248014","025-BX","2017/08/18 19:39:08","新北市五股區工商路164號","121.433676666667","25.087955","6501500","五股區"
"248016","026-BX","2017/08/18 19:39:19","新北市五股區成泰路三段476號","121.451878333333","25.101385","6501500","五股區"
"248008","095-VK","2017/08/18 19:39:21","新北市五股區四維路118巷13號","121.469236666667","25.0742883333333","6501500","五股區"
"248018","225-UY","2017/08/18 19:21:18","新北市五股區壟路16號","121.415511666667","25.0854316666667","6501500","五股區"
"248012","247-BX","2017/08/18 19:39:21","新北市五股區成泰路二段38號","121.43711","25.08133","6501500","五股區"
"248004","677-BX","2017/08/18 19:39:09","新北市五股區成泰路二段182號","121.43854","25.08445","6501500","五股區"
"248002","678-BX","2017/08/18 19:39:17","新北市五股區成泰路三段577巷49號","121.450758333333","25.1031966666667","6501500","五股區"
"248010","682-TV","2017/08/18 19:39:17","新北市五股區水碓一路23號","121.430598333333","25.0713416666667","6501500","五股區"
"234023","9380-KE","2017/08/18 19:39:23","新北市永和區豫溪街57巷6號","121.517565","25.0103883333333","6500400","永和區"
"234077","969-R7","2017/08/18 19:39:12","新北市永和區民權路29巷20號","121.521081666667","24.9980083333333","6500400","永和區"
"234074","AAC-211","2017/08/18 19:39:08","新北市永和區竹林路208號","121.520746666667","25.0083066666667","6500400","永和區"
"234067","AAC-212","2017/08/18 19:39:13","新北市永和區中山路一段213號","121.508445","25.0081283333333","6500400","永和區"
"234003","AAC-295","2017/08/18 19:39:16","新北市永和區自由街34號","121.514185","25.0063016666667","6500400","永和區"
"244019","403-UM","2017/08/18 19:39:01","新北市林口區麗園二街12巷3-2號","121.379045","25.0695733333333","6501700","林口區"
"244023","657-BX","2017/08/18 19:39:22","新北市林口區湖南里70-9號","121.375613333333","25.0897083333333","6501700","林口區"
"243013","AAD-798","2017/08/18 19:39:15","新北市泰山區明志路三段6巷16號","121.42388","25.0436716666667","6501600","泰山區"
"243009","297-R6","2017/08/18 19:39:19","新北市泰山區美寧街60號","121.43099","25.06468","6501600","泰山區"
"243015","380-SR","2017/08/18 19:39:07","新北市泰山區民權街39號","121.429368333333","25.0505466666667","6501600","泰山區"
"243014","421-VK","2017/08/18 19:39:18","新北市泰山區泰林路二段33-7號","121.435183333333","25.0564066666667","6501600","泰山區"
"243010","548-UM","2017/08/18 19:39:23","新北市泰山區民生路33號","121.430643333333","25.052215","6501600","泰山區"
"243011","549-UM","2017/08/18 19:39:23","新北市泰山區明志路三段204巷10弄6號","121.423363333333","25.0384933333333","6501600","泰山區"
"243012","646-TV","2017/08/18 19:39:16","新北市泰山區仁愛路72號","121.43261","25.0550766666667","6501600","泰山區"
"243016","680-BX","2017/08/18 19:39:22","新北市泰山區新北大道七段97號","121.417836666667","25.0319883333333","6501600","泰山區"
"222003","436-BY","2017/08/18 19:33:29","新北市深坑區深南路51-1號","121.621163333333","25.0099933333333","6501800","深坑區"
"222002","659-BX","2017/08/18 19:39:17","新北市深坑區北深路一段177號","121.632578333333","25.0108683333333","6501800","深坑區"
"222001","696-SL","2017/08/18 19:39:21","新北市深坑區北深路二段200號","121.613023333333","25.001585","6501800","深坑區"
"231041","002-UM","2017/08/18 19:39:13","新北市新店區中正路485號","121.533755","24.9817916666667","6500600","新店區"
"231059","046-UY","2017/08/18 19:39:13","新北市新店區安和路二段207號","121.517826666667","24.97532","6500600","新店區"
"231061","047-UY","2017/08/18 19:39:10","新北市新店區安民街140號","121.516561666667","24.9695916666667","6500600","新店區"
"231060","106-UY","2017/08/18 19:39:10","新北市新店區安康路二段139號","121.511876666667","24.960205","6500600","新店區"
"231051","107-UY","2017/08/18 19:39:20","新北市新店區中央四街35號","121.528415","24.9745733333333","6500600","新店區"
"231048","108-UY","2017/08/18 19:39:20","新北市新店區五峰路61巷1號","121.548426666667","24.969755","6500600","新店區"
"231064","110-UY","2017/08/18 19:39:17","新北市新店區安和路一段52巷2-1號","121.517655","24.9662633333333","6500600","新店區"
"231053","187-VK","2017/08/18 19:39:12","新北市新店區廣興路116號","121.536103333333","24.9114633333333","6500600","新店區"
"231057","256-BX","2017/08/18 19:39:20","新北市新店區橘園一路11號","121.54799","24.9340016666667","6500600","新店區"
"231063","268-BY","2017/08/18 19:39:11","新北市新店區達觀路38號","121.502226666667","24.9388266666667","6500600","新店區"
"231046","278-BY","2017/08/18 19:39:17","新北市新店區中正路329巷1弄6號","121.535796666667","24.9747433333333","6500600","新店區"
"231050","AAD-862","2017/08/18 19:39:14","新北市新店區郵政路4巷59號","121.55554","24.9518283333333","6500600","新店區"
"231058","3712-VJ","2017/08/18 19:39:13","新北市新店區德正街19巷2號","121.54376","24.972415","6500600","新店區"
"231067","4772-VM","2017/08/18 19:39:14","新北市新店區安康路一段65號","121.530338333333","24.961045","6500600","新店區"
"231065","512-UM","2017/08/18 19:39:24","新北市新店區安祥路109巷90弄68號","121.476213333333","24.9586583333333","6500600","新店區"
"231054","513-UM","2017/08/18 19:39:16","新北市新店區北宜路一段41號","121.538343333333","24.9572883333333","6500600","新店區"
"231042","616-UM","2017/08/18 19:39:23","新北市新店區中興路一段216號","121.543785","24.9657116666667","6500600","新店區"
"231045","617-UM","2017/08/18 19:39:21","新北市新店區北宜路二段150-2號","121.557876666667","24.95393","6500600","新店區"
"231040","619-UM","2017/08/18 19:39:15","新北市新店區北新路一段96巷23號","121.542696666667","24.9687566666667","6500600","新店區"
"231049","719-UM","2017/08/18 19:39:09","新北市新店區大豐路47號","121.540061666667","24.9798","6500600","新店區"
"231062","720-UM","2017/08/18 19:39:18","新北市新店區碧潭路42號","121.534276666667","24.956585","6500600","新店區"
"231044","897-TW","2017/08/18 19:39:12","新北市新店區北新路三段129號","121.541321666667","24.9827783333333","6500600","新店區"
"231043","899-TW","2017/08/18 19:39:20","新北市新店區北新路二段12號","121.542885","24.9711716666667","6500600","新店區"
"231066","AKT-0513","2017/08/18 19:39:08","新北市新店區安康路二段341巷28號","121.497068333333","24.9546233333333","6500600","新店區"
"241011","013-R5","2017/08/18 19:39:10","新北市三重區秀江街222號","121.497108333333","25.07149","6500200","三重區"
"241028","022-UY","2017/08/18 19:39:20","新北市三重區中正南路190號","121.493913333333","25.0560683333333","6500200","三重區"
"241009","060-VK","2017/08/18 19:39:09","新北市三重區永安北路一段121號","121.480425","25.07977","6500200","三重區"
"241031","061-VK","2017/08/18 19:39:08","新北市三重區重新路四段244巷6號","121.48614","25.05359","6500200","三重區"
"241015","062-VK","2017/08/18 19:39:19","新北市三重區福德北路24號","121.502273333333","25.0647583333333","6500200","三重區"
"241017","063-VK","2017/08/18 19:39:16","新北市三重區大仁街1號","121.491608333333","25.0635716666667","6500200","三重區"
"241026","066-VK","2017/08/18 19:39:13","新北市三重區文化南路65巷10號","121.499748333333","25.060825","6500200","三重區"
"241006","156-TC","2017/08/18 19:39:23","新北市三重區聯華街100號","121.485426666667","25.0751683333333","6500200","三重區"
"241008","265-UM","2017/08/18 19:39:10","新北市三重區永福街123號","121.479093333333","25.0770416666667","6500200","三重區"
"241022","267-UM","2017/08/18 19:39:16","新北市三重區三民街157巷2號","121.483823333333","25.0646283333333","6500200","三重區"
"241032","269-UM","2017/08/18 19:39:20","新北市三重區重陽路一段60巷63號","121.484541666667","25.058225","6500200","三重區"
"241013","270-UM","2017/08/18 19:39:26","新北市三重區仁賢街11號","121.49597","25.0746033333333","6500200","三重區"
"241007","398-BY","2017/08/18 19:39:19","新北市三重區溪尾街126巷94號","121.487575","25.0787533333333","6500200","三重區"
"241020","412-TH","2017/08/18 19:39:08","新北市三重區自強路三段43巷12號","121.487443333333","25.0729083333333","6500200","三重區"
"241035","462-BY","2017/08/18 19:39:22","新北市三重區正義北路65號","121.497266666667","25.0646083333333","6500200","三重區"
"241019","478-VK","2017/08/18 19:39:11","新北市三重區六張街194巷2弄1號","121.488621666667","25.068255","6500200","三重區"
"241030","480-VK","2017/08/18 19:39:20","新北市三重區中正南路263號","121.492868333333","25.0529433333333","6500200","三重區"
"241014","543-UM","2017/08/18 19:39:09","新北市三重區河邊北街82號","121.504188333333","25.0689483333333","6500200","三重區"
"241023","545-UM","2017/08/18 19:39:11","新北市三重區忠孝路三段99巷11號","121.47979","25.06429","6500200","三重區"
"241025","887-TS","2017/08/18 19:39:07","新北市三重區頂崁街189號","121.477608333333","25.0664116666667","6500200","三重區"
"241012","941-UM","2017/08/18 19:39:14","新北市三重區仁興街33巷60號","121.500615","25.0760216666667","6500200","三重區"
"241029","942-UM","2017/08/18 19:39:26","新北市三重區同安街137號","121.493286666667","25.056075","6500200","三重區"
"235066","003-UY","2017/08/18 19:39:15","新北市中和區景新街135號","121.505878333333","24.9970516666667","6500300","中和區"
"235064","005-UY","2017/08/18 19:39:28","新北市中和區南山路127巷18弄1號","121.50361","24.997375","6500300","中和區"
"235063","006-UY","2017/08/18 19:39:21","新北市中和區連勝街95號","121.495218333333","24.99612","6500300","中和區"
"235056","096-UM","2017/08/18 19:39:20","新北市中和區民富街33號","121.476458333333","25.0078116666667","6500300","中和區"
"235039","097-UM","2017/08/18 19:39:20","新北市中和區秀峰街103巷8弄10號","121.519778333333","24.98954","6500300","中和區"
"235065","098-UM","2017/08/18 19:39:16","新北市中和區福祥路66號","121.499305","25.004955","6500300","中和區"
"235040","150-BY","2017/08/18 19:39:10","新北市中和區安平路59號","121.509571666667","24.9950933333333","6500300","中和區"
"235058","151-BY","2017/08/18 19:39:18","新北市中和區員山路124巷26號","121.482316666667","24.9959566666667","6500300","中和區"
"235058","183-VK","2017/08/18 19:39:09","新北市中和區民享街11號","121.473976666667","25.0054333333333","6500300","中和區"
"235038","185-VK","2017/08/18 19:39:10","新北市中和區立人街19號","121.521393333333","24.994085","6500300","中和區"
"235049","186-VK","2017/08/18 19:39:19","新北市中和區安平路10-1號","121.509238333333","24.9939233333333","6500300","中和區"
"235067","255-BX","2017/08/18 19:39:14","新北市中和區連城路340巷10弄17號","121.483168333333","24.996605","6500300","中和區"
"235044","293-VK","2017/08/18 19:39:15","新北市中和區捷運路157號","121.506356666667","24.9911116666667","6500300","中和區"
"235072","301-VK","2017/08/18 19:39:16","新北市中和區連城路265巷12弄2號","121.491728333333","24.9951183333333","6500300","中和區"
"235043","352-BY","2017/08/18 19:39:15","新北市中和區景平路334號","121.511965","24.9929033333333","6500300","中和區"
"235051","376-QA","2017/08/18 19:39:07","新北市中和區中正路2號","121.503373333333","24.993755","6500300","中和區"
"235068","377-QA","2017/08/18 19:39:20","新北市中和區中和路53號","121.50054","25.0014633333333","6500300","中和區"
"235061","378-QA","2017/08/18 19:39:15","新北市中和區民安街12號","121.480661666667","25.0008216666667","6500300","中和區"
"235050","4979-A6","2017/08/18 19:39:16","新北市中和區中正路637巷52弄1號","121.485475","24.9934616666667","6500300","中和區"
"235070","558-UM","2017/08/18 19:39:07","新北市中和區泰和街2號","121.500101666667","25.00136","6500300","中和區"
"235045","565-BX","2017/08/18 19:39:21","新北市中和區景德街141號","121.514526666667","24.9910166666667","6500300","中和區"
"235054","640-BX","2017/08/18 19:39:21","新北市中和區國光街102巷11弄32號","121.470643333333","25.001675","6500300","中和區"
"235060","647-TV","2017/08/18 19:39:08","新北市中和區新生街112號","121.483266666667","25.0028633333333","6500300","中和區"
"235047","732-UM","2017/08/18 19:39:23","新北市中和區南山路148號","121.5041","24.9922633333333","6500300","中和區"
"235046","733-UM","2017/08/18 19:39:11","新北市中和區忠孝街92號","121.511658333333","24.9844583333333","6500300","中和區"
"235057","801-TS","2017/08/18 19:39:20","新北市中和區員山路364號","121.48095","25.0037966666667","6500300","中和區"
"235041","802-TS","2017/08/18 19:39:18","新北市中和區中和路324巷6弄2號","121.509723333333","25.0005183333333","6500300","中和區"
"235052","805-TS","2017/08/18 19:39:22","新北市中和區華新街206巷21弄2號","121.50596","24.9826783333333","6500300","中和區"
"235048","896-TW","2017/08/18 19:39:10","新北市中和區忠孝街29號","121.510526666667","24.98306","6500300","中和區"
"235053","900-TW","2017/08/18 19:39:22","新北市中和區華順街6號","121.467523333333","24.9987016666667","6500300","中和區"
"235071","911-UM","2017/08/18 19:39:15","新北市中和區中正路839巷29號","121.48359","25.0022783333333","6500300","中和區"
"235037","AAC-213","2017/08/18 19:39:09","新北市中和區秀朗路三段10巷35弄3號","121.52454","24.9958233333333","6500300","中和區"
"235059","AAC-215","2017/08/18 19:39:26","新北市中和區圓通路268號","121.492625","24.9908383333333","6500300","中和區"
"220068","013-TV","2017/08/18 19:39:21","新北市板橋區中山路二段422-9號","121.483476666667","25.021385","6500100","板橋區"
"220065","072-UY","2017/08/18 19:39:08","新北市板橋區國泰街38巷3弄18號","121.468135","25.0066716666667","6500100","板橋區"
"220086","073-UY","2017/08/18 19:39:13","新北市板橋區國光路158號","121.459963333333","25.0180716666667","6500100","板橋區"
"220106","075-UY","2017/08/18 19:39:14","新北市板橋區文化路二段331號","121.472505","25.0300766666667","6500100","板橋區"
"220069","AAD-861","2017/08/18 19:39:13","新北市板橋區貴興路35號","121.457603333333","25.0039216666667","6500100","板橋區"
"220102","120-SR","2017/08/18 19:39:25","新北市板橋區雙十路二段70巷14號","121.475586666667","25.0283833333333","6500100","板橋區"
"247008","339-TH","2017/08/18 19:39:06","新北市蘆洲區中山一路100號","121.47777","25.0814083333333","6501400","蘆洲區"
"247002","336-TH","2017/08/18 19:39:15","新北市蘆洲區三民路595號","121.460993333333","25.0935983333333","6501400","蘆洲區"
"247014","057-VK","2017/08/18 19:39:08","新北市蘆洲區中正路165號","121.46885","25.084945","6501400","蘆洲區"
"247004","056-VK","2017/08/18 19:39:09","新北市蘆洲區中華街6巷8號","121.463118333333","25.0819083333333","6501400","蘆洲區"
"226004","205-ST","2017/08/18 19:39:13","新北市平溪區十分里十分街82號","121.776368333333","25.0423166666667","6502400","平溪區"
"228001","670-TC","2017/08/18 19:39:09","新北市貢寮區真理里延平街61號","121.924615","25.05573","6502600","貢寮區"
"228003","828-UM","2017/08/18 19:39:21","新北市貢寮區真理里美艷山街15-3號","121.923703333333","25.0679883333333","6502600","貢寮區"
"224010","AGQ-8101","2017/08/18 19:39:09","新北市瑞芳區基山街92號","121.84429","25.108705","6501200","瑞芳區"
"224002","639-TC","2017/08/18 19:39:16","新北市瑞芳區民享新村22號","121.817086666667","25.105545","6501200","瑞芳區"
"224011","420-VK","2017/08/18 19:15:16","新北市瑞芳區崙頂路3-1號","121.847006666667","25.1046966666667","6501200","瑞芳區"
"227003","642-TC","2017/08/18 19:39:22","新北市雙溪區雙溪里太平路43號","121.86476","25.035665","6502500","雙溪區"
"227011","400-TW","2017/08/18 19:39:11","新北市雙溪區新基里新基北街19巷14號","121.86714","25.0380833333333","6502500","雙溪區"
"253006","032-BX","2017/08/18 19:39:20","新北市石門區小坑9號","121.594313333333","25.2886583333333","6502200","石門區"
"208002","742-BX","2017/08/18 19:39:13","新北市金山區四維路2號","121.635476666667","25.22253","6502700","金山區"
"208003","665-BX","2017/08/18 19:39:22","新北市金山區仁愛路7號","121.638048333333","25.2196933333333","6502700","金山區"
"208001","761-BX","2017/08/18 19:39:14","新北市金山區重和里六股林口15號","121.604728333333","25.2214416666667","6502700","金山區"
"251005","010-UM","2017/08/18 19:39:17","新北市淡水區原德路116巷1號","121.443721666667","25.1741533333333","6501000","淡水區"
"251013","180-VK","2017/08/18 19:39:05","新北市淡水區店子後9號","121.460096666667","25.2189666666667","6501000","淡水區"
"251008","181-VK","2017/08/18 19:39:26","新北市淡水區中正路32巷1號","121.431091666667","25.1754733333333","6501000","淡水區"
"251015","182-VK","2017/08/18 19:39:25","新北市三芝區興華里車埕70-9號","121.4931","25.1942216666667","6501000","淡水區"
"251010","413-VK","2017/08/18 19:39:12","新北市淡水區新市三路一段316號","121.430611666667","25.19668","6501000","淡水區"
"251001","559-UM","2017/08/18 19:39:26","新北市淡水區民權路59號","121.459783333333","25.138875","6501000","淡水區"
"251006","561-UM","2017/08/18 19:39:27","新北市淡水區中山北路一段207巷74號","121.441415","25.1793033333333","6501000","淡水區"
"251009","575-R6","2017/08/18 19:39:12","新北市淡水區中山北路一段196號","121.444535","25.179335","6501000","淡水區"
"251007","577-R6","2017/08/18 19:39:23","新北市淡水區中正東路一段3巷12號","121.451385","25.1651083333333","6501000","淡水區"
"251011","650-BX","2017/08/18 19:39:14","新北市淡水區八勢路20號","121.460563333333","25.15352","6501000","淡水區"
"207003","550-UM","2017/08/18 19:39:19","新北市萬里區大鵬里下社9-4號","121.647095","25.217235","6502800","萬里區"
"207004","225-TW","2017/08/18 19:39:17","新北市萬里區萬里里瑪鋉路35號","121.687638333333","25.1756883333333","6502800","萬里區"
"252002","178-VK","2017/08/18 19:39:23","新北市三芝區中正路一段18巷54號","121.504236666667","25.2588066666667","6502100","三芝區"
"252001","702-TV","2017/08/18 19:39:20","新北市三芝區公正街9號","121.49975","25.2574866666667","6502100","三芝區"
"237004","078-UY","2017/08/18 19:39:06","新北市三峽區插角1-1號","121.396078333333","24.8738366666667","6500900","三峽區"
"237007","153-BY","2017/08/18 19:39:10","新北市三峽區二鬮路69號","121.35978","24.9072533333333","6500900","三峽區"
"237009","210-TH","2017/08/18 19:39:10","新北市三峽區中園街59號","121.368171666667","24.9258566666667","6500900","三峽區"
"237013","252-BX","2017/08/18 19:39:18","新北市三峽區介壽路二段2號","121.389656666667","24.934615","6500900","三峽區"
"237012","275-BY","2017/08/18 19:39:24","新北市三峽區中華路8號","121.375368333333","24.9332866666667","6500900","三峽區"
"237008","302-VK","2017/08/18 19:39:11","新北市三峽區永安街183號","121.373163333333","24.9268716666667","6500900","三峽區"
"237014","433-BY","2017/08/18 19:39:23","新北市三峽區添福14-30號","121.374243333333","24.9003666666667","6500900","三峽區"
"237006","5529-G3","2017/08/18 19:39:17","新北市三峽區中正路一段336巷15弄2號","121.369963333333","24.92496","6500900","三峽區"
"237015","649-BX","2017/08/18 19:39:14","新北市三峽區溪東路218巷1號","121.40748","24.9317666666667","6500900","三峽區"
"237005","AKY-6261","2017/08/18 19:39:18","新北市三峽區中山路219巷7號","121.363253333333","24.9362633333333","6500900","三峽區"
"236072","105-UM","2017/08/18 19:39:24","新北市土城區學士路35號","121.452948333333","24.98212","6501300","土城區"
"236043","107-UM","2017/08/18 19:39:22","新北市土城區學士路20號","121.453305","24.98266","6501300","土城區"
"236079","166-UM","2017/08/18 19:39:17","新北市土城區中州路67巷2-1號","121.412481666667","24.9578233333333","6501300","土城區"
"236031","253-BX","2017/08/18 19:39:24","新北市土城區福祥街38號","121.44129","24.98073","6501300","土城區"
"236027","269-VK","2017/08/18 19:39:27","新北市土城區中央路二段61巷26號","121.44335","24.978845","6501300","土城區"
"236039","271-VK","2017/08/18 19:39:18","新北市土城區清水路98巷3弄45號","121.458508333333","24.980905","6501300","土城區"
"236022","401-BY","2017/08/18 19:39:25","新北市土城區峰廷街3號","121.4691","24.9873366666667","6501300","土城區"
"236050","913-UM","2017/08/18 19:38:10","新北市土城區金城路三段10號","121.464728333333","24.9860316666667","6501300","土城區"
"236063","915-UM","2017/08/18 19:39:18","新北市土城區延平街19號","121.468231666667","24.9911666666667","6501300","土城區"
"236055","AAC-216","2017/08/18 19:39:22","新北市土城區學府路一段217號","121.451415","24.98437","6501300","土城區"
"242005","442-UM","2017/08/18 19:39:23","新北市新莊區化成路76號","121.465183333333","25.0436766666667","6500500","新莊區"
"242032","415-TV","2017/08/18 19:39:19","新北市新莊區新泰路209號","121.445793333333","25.0387316666667","6500500","新莊區"
"242034","133-UY","2017/08/18 19:39:20","新北市新莊區仁愛街37號","121.444276666667","25.0365333333333","6500500","新莊區"
"242007","173-VK","2017/08/18 19:39:12","新北市新莊區福壽街336號","121.45786","25.05828","6500500","新莊區"
"242013","175-VK","2017/08/18 19:39:26","新北市新莊區中誠街121巷7號","121.449525","25.047155","6500500","新莊區"
"242017","348-TH","2017/08/18 19:39:06","新北市新莊區新泰路277巷11號","121.44517","25.0403","6500500","新莊區"
"238015","755-BX","2017/08/18 19:39:10","新北市樹林區日新街79號","121.421863333333","24.990625","6500700","樹林區"
"238023","601-UM","2017/08/18 19:39:23","新北市樹林區三福街46號","121.407606666667","25.0163683333333","6500700","樹林區"
"238018","571-TV","2017/08/18 19:39:14","新北市樹林區八德街395號","121.415451666667","24.9713766666667","6500700","樹林區"
"238024","5061-A6","2017/08/18 19:39:19","新北市樹林區中山路三段80號","121.39347","24.9722766666667","6500700","樹林區"
"238022","312-TH","2017/08/18 19:39:13","新北市樹林區名園街21號","121.419365","24.979255","6500700","樹林區"
"238021","311-TH","2017/08/18 19:36:22","新北市樹林區柑園街二段203巷16號","121.37657","24.9512683333333","6500700","樹林區"
"238025","303-VK","2017/08/18 19:39:18","新北市樹林區中山路一段406號","121.418105","24.98531","6500700","樹林區"
"238017","283-BY","2017/08/18 19:39:22","新北市樹林區保安街二段167巷13號","121.414588333333","25.0028166666667","6500700","樹林區"
"238014","282-BY","2017/08/18 19:39:18","新北市樹林區千歲街28巷10號","121.425886666667","24.9957116666667","6500700","樹林區"
"238020","268-VK","2017/08/18 17:43:46","新北市樹林區中山路三段200-1號","121.38679","24.968955","6500700","樹林區"
"238026","172-UY","2017/08/18 19:39:21","新北市樹林區佳園路二段15巷43號","121.395085","24.96309","6500700","樹林區"
"239006","891-R6","2017/08/18 19:39:22","新北市鶯歌區文化路233號","121.353816666667","24.9532983333333","6500800","鶯歌區"
"221008","489-VK","2017/08/18 19:39:08","新北市汐止區康寧街83巷27號","121.620141666667","25.0670183333333","6501100","汐止區"
"221015","131-UY","2017/08/18 19:39:15","新北市汐止區康寧街901號","121.651518333333","25.07496","6501100","汐止區"
"221012","276-VK","2017/08/18 13:23:13","新北市汐止區汐萬路一段256巷3號","121.653461666667","25.07462","6501100","汐止區"
"221031","277-VK","2017/08/18 19:39:06","新北市汐止區福德三路129巷2號","121.633476666667","25.067495","6501100","汐止區"
"221012","278-VK","2017/08/18 19:39:14","新北市汐止區汐平路一段3號","121.680748333333","25.0711616666667","6501100","汐止區"
"221023","279-VK","2017/08/18 19:39:08","新北市汐止區中興路282號","121.628545","25.069345","6501100","汐止區"
"221032","280-BY","2017/08/18 19:39:14","新北市汐止區橫科路119號","121.619996666667","25.0503766666667","6501100","汐止區"
"221027","281-BY","2017/08/18 19:39:10","新北市汐止區忠孝東路9號","121.658365","25.06592","6501100","汐止區"
"221038","297-VK","2017/08/18 19:39:08","新北市汐止區忠孝東路208號","121.661958333333","25.0663716666667","6501100","汐止區"
"221029","298-VK","2017/08/18 19:39:22","新北市汐止區康寧街901號","121.651588333333","25.0749583333333","6501100","汐止區"
"221021","299-VK","2017/08/18 19:39:15","新北市汐止區大同路二段171號","121.651633333333","25.0647066666667","6501100","汐止區"
"221025","623-UM","2017/08/18 19:39:12","新北市汐止區福安街20巷1號","121.662545","25.0649833333333","6501100","汐止區"
"221010","646-BX","2017/08/18 19:39:21","新北市汐止區連峰街1巷1號","121.646466666667","25.076095","6501100","汐止區"
"221033","647-BX","2017/08/18 19:39:19","新北市汐止區芳園街4號","121.624931666667","25.0378666666667","6501100","汐止區"
"221002","707-TV","2017/08/18 19:39:23","新北市汐止區大同路一段219巷27號","121.633298333333","25.0584","6501100","汐止區"
"221018","753-BX","2017/08/18 19:39:16","新北市汐止區康寧街901號","121.651541666667","25.0749266666667","6501100","汐止區"
"220079","145-BY","2017/08/18 19:39:20","新北市板橋區建國街30號","121.45767","25.0168533333333","6500100","板橋區"
"220080","200-UY","2017/08/18 19:39:25","新北市板橋區大觀路二段37巷180號","121.449543333333","25.00216","6500100","板橋區"
"220082","610-BX","2017/08/18 19:39:23","新北市板橋區大觀路三段160巷31弄5號","121.429908333333","24.9938066666667","6500100","板橋區"
"220101","245-BX","2017/08/18 19:39:23","新北市板橋區縣民大道三段33巷9弄9號","121.473251666667","25.0207366666667","6500100","板橋區"
"220056","276-BY","2017/08/18 19:39:25","新北市板橋區信義路1巷24號","121.457906666667","24.9972566666667","6500100","板橋區"
"220072","277-BY","2017/08/18 19:18:21","新北市板橋區金門街337巷9弄1號","121.430546666667","24.984605","6500100","板橋區"
"220094","283-UM","2017/08/18 19:39:24","新北市板橋區宏國路93號","121.469765","25.03227","6500100","板橋區"
"220071","283-VK","2017/08/18 19:39:21","新北市板橋區忠孝路24巷7號","121.460138333333","25.0014983333333","6500100","板橋區"
"220053","285-VK","2017/08/18 19:39:17","新北市板橋區中山路二段148巷32號","121.47708","25.016075","6500100","板橋區"
"220083","286-VK","2017/08/18 19:39:11","新北市板橋區龍興街71巷25號","121.442766666667","25.0022683333333","6500100","板橋區"
"220081","287-VK","2017/08/18 19:39:14","新北市板橋區大觀路一段29巷131弄8號","121.450503333333","25.00518","6500100","板橋區"
"220090","288-VK","2017/08/18 19:39:08","新北市板橋區長江路一段48巷4弄1號","121.459161666667","25.02845","6500100","板橋區"
"220061","293-UM","2017/08/18 19:39:17","新北市板橋區中山路二段147號","121.47558","25.0166633333333","6500100","板橋區"
"220055","295-UM","2017/08/18 19:39:17","新北市板橋區國慶路149巷5號","121.461198333333","24.996885","6500100","板橋區"
"220084","296-UM","2017/08/18 19:39:22","新北市板橋區滿平二街10巷2弄13號","121.425391666667","24.9874683333333","6500100","板橋區"
"220075","297-UM","2017/08/18 19:39:28","新北市板橋區大勇街65號","121.453355","25.016715","6500100","板橋區"
"220062","305-R5","2017/08/18 19:39:15","新北市板橋區三民路二段29巷4號","121.481503333333","25.01797","6500100","板橋區"
"220092","307-R5","2017/08/18 19:39:23","新北市板橋區陽明街27巷1號","121.465723333333","25.021835","6500100","板橋區"
"220098","317-R6","2017/08/18 19:39:25","新北市板橋區四維路269巷39-3號","121.461548333333","25.02759","6500100","板橋區"
"220064","486-VK","2017/08/18 19:39:27","新北市板橋區中山路一段50-6號","121.461156666667","25.0093833333333","6500100","板橋區"
"220089","487-VK","2017/08/18 19:39:13","新北市板橋區新海路150號","121.460713333333","25.02385","6500100","板橋區"
"220088","491-VK","2017/08/18 19:39:21","新北市板橋區文化路二段503號","121.47606","25.03419","6500100","板橋區"
"220035","560-BX","2017/08/18 19:39:05","新北市板橋區金華街85巷42號","121.459185","25.0213866666667","6500100","板橋區"
"220103","561-BX","2017/08/18 19:39:23","新北市板橋區文化路一段341號","121.466635","25.0208466666667","6500100","板橋區"
"220063","609-BX","2017/08/18 19:39:15","新北市板橋區中山路二段505巷23號","121.482085","25.021965","6500100","板橋區"
"220091","637-BX","2017/08/18 19:39:19","新北市板橋區懷德街139巷7號","121.479611666667","25.0306816666667","6500100","板橋區"
"220057","686-BX","2017/08/18 19:39:21","新北市板橋區和平路70號","121.46128","24.994515","6500100","板橋區"
"220077","687-BX","2017/08/18 19:39:14","新北市板橋區僑中一街96號","121.446896666667","25.011625","6500100","板橋區"
"220093","689-BX","2017/08/18 19:39:20","新北市板橋區長江路一段94號","121.459173333333","25.0293233333333","6500100","板橋區"
"220054","741-BX","2017/08/18 19:39:13","新北市板橋區忠孝路191號","121.46463","25.00259","6500100","板橋區"
"220067","829-TW","2017/08/18 19:39:05","新北市板橋區長安街138巷1弄18號","121.473233333333","25.0096516666667","6500100","板橋區"
"220096","831-TW","2017/08/18 19:39:25","新北市板橋區民生路二段240巷52號","121.469688333333","25.02292","6500100","板橋區"
"220074","895-R6","2017/08/18 19:39:13","新北市板橋區中正路1巷14號","121.455221666667","25.0115983333333","6500100","板橋區"
"220073","985-R7","2017/08/18 19:39:10","新北市板橋區國光路49巷17號","121.458915","25.018835","6500100","板橋區"
"220097","AAC-210","2017/08/18 19:39:22","新北市板橋區幸福路32巷2弄7號","121.46179","25.0210216666667","6500100","板橋區"
"220070","AAC-253","2017/08/18 19:39:21","新北市板橋區忠孝路41-1號","121.461101666667","25.0020816666667","6500100","板橋區"
"249001","3G-OBU6","2017/08/18 15:00:33","桃園市楊梅區電研路100-24號","121.1661","24.95364","6502300","八里區"
