"lineid","car","time","location","longitude","latitude","cityid","cityname"
"234046","148-BY","2017/08/18 19:59:09","新北市永和區成功路一段16巷3號","121.526646666667","25.00532","6500400","永和區"
"234013","149-BY","2017/08/18 19:59:21","新北市永和區仁愛路295號","121.504851666667","25.0091933333333","6500400","永和區"
"234007","207-UY","2017/08/18 19:59:27","新北市永和區保生路22巷13號","121.507016666667","25.008055","6500400","永和區"
"234081","298-R6","2017/08/18 19:59:25","新北市永和區林森路112巷12弄8號","121.522583333333","25.0044383333333","6500400","永和區"
"234038","336-UY","2017/08/18 19:59:21","新北市永和區成功路一段119號","121.526838333333","25.0020083333333","6500400","永和區"
"234064","337-UY","2017/08/18 19:59:24","新北市永和區中正路412巷2弄12號","121.518426666667","25.0018466666667","6500400","永和區"
"234086","338-UY","2017/08/18 19:59:18","新北市永和區福和路158號","121.521533333333","25.0079333333333","6500400","永和區"
"234054","553-UM","2017/08/18 19:59:13","新北市永和區環河東路一段122號","121.520643333333","25.01547","6500400","永和區"
"234017","745-BX","2017/08/18 19:59:16","新北市永和區文化路123號","121.512303333333","25.015295","6500400","永和區"
"234030","746-BX","2017/08/18 19:59:24","新北市永和區民有街25巷10號","121.517413333333","24.9964933333333","6500400","永和區"
"234061","AAD-866","2017/08/18 19:59:17","新北市永和區中正路283巷11號","121.516938333333","25.00053","6500400","永和區"
"234070","847-RS","2017/08/18 19:59:19","新北市永和區國光路59巷6號","121.518551666667","25.0080116666667","6500400","永和區"
"234042","862-TW","2017/08/18 19:59:06","新北市永和區雙和街17巷19號","121.508981666667","25.00135","6500400","永和區"
"234050","863-TW","2017/08/18 19:59:26","新北市永和區保安路264號","121.505943333333","25.012265","6500400","永和區"
"234026","9371-KE","2017/08/18 19:59:09","新北市永和區水源街33巷4號","121.510796666667","25.0041166666667","6500400","永和區"
"234011","9373-KE","2017/08/18 19:59:21","新北市永和區仁愛路352巷122弄10號","121.50077","25.00878","6500400","永和區"
"249005","172-UM","2017/08/18 19:59:08","新北市八里區楓林路1-15號","121.38526","25.1312433333333","6502300","八里區"
"249001","173-UM","2017/08/18 19:59:11","新北市八里區中華路二段310號","121.403868333333","25.1482683333333","6502300","八里區"
"249004","303-UY","2017/08/18 19:59:14","新北市八里區中山路一段418-2號","121.411036666667","25.1577783333333","6502300","八里區"
"249002","305-UY","2017/08/18 19:59:09","新北市八里區龍米路一段87巷77號","121.454186666667","25.1233083333333","6502300","八里區"
"249003","593-UM","2017/08/18 19:59:19","新北市八里區中華路二段560巷3號","121.398515","25.1451533333333","6502300","八里區"
"248014","025-BX","2017/08/18 19:59:22","新北市五股區五福路11-6號","121.434221666667","25.088705","6501500","五股區"
"248016","026-BX","2017/08/18 19:59:19","新北市五股區成泰路三段577巷80弄25號","121.44963","25.1045966666667","6501500","五股區"
"248008","095-VK","2017/08/18 19:59:22","新北市五股區四維路30巷36弄1號","121.469083333333","25.0714683333333","6501500","五股區"
"248018","225-UY","2017/08/18 19:59:18","新北市五股區登林路120-1號","121.412413333333","25.0770466666667","6501500","五股區"
"248012","247-BX","2017/08/18 19:59:21","新北市五股區民義路一段112-10號","121.43525","25.085245","6501500","五股區"
"248004","677-BX","2017/08/18 19:59:09","新北市五股區成泰路一段8巷2-3號","121.434878333333","25.0668866666667","6501500","五股區"
"248002","678-BX","2017/08/18 19:59:17","新北市五股區成泰路三段436號","121.450903333333","25.0994683333333","6501500","五股區"
"248010","682-TV","2017/08/18 19:59:18","新北市五股區登林路88-1號","121.428966666667","25.0693916666667","6501500","五股區"
"234023","9380-KE","2017/08/18 19:59:23","新北市永和區中正路654巷36號","121.517913333333","25.0085283333333","6500400","永和區"
"234077","969-R7","2017/08/18 19:59:12","新北市永和區智光街94號","121.516091666667","24.996925","6500400","永和區"
"234074","AAC-211","2017/08/18 19:59:08","新北市永和區豫溪街162巷2號","121.523616666667","25.0096083333333","6500400","永和區"
"234067","AAC-212","2017/08/18 19:59:13","新北市永和區中山路一段281巷2弄1號","121.507318333333","25.00665","6500400","永和區"
"234003","AAC-295","2017/08/18 19:59:15","新北市永和區中正路605號","121.516426666667","25.0097116666667","6500400","永和區"
"244019","403-UM","2017/08/18 19:59:22","新北市林口區文化二路一段551號","121.374596666667","25.076845","6501700","林口區"
"243013","AAD-798","2017/08/18 19:59:15","新北市泰山區應化街7號","121.423898333333","25.0436866666667","6501600","泰山區"
"243009","297-R6","2017/08/18 19:59:19","新北市泰山區楓江路16巷27號","121.434131666667","25.061375","6501600","泰山區"
"243015","380-SR","2017/08/18 19:59:12","新北市泰山區明志路二段214巷16弄16號","121.427091666667","25.0496683333333","6501600","泰山區"
"243014","421-VK","2017/08/18 19:59:18","新北市泰山區泰林路二段171號","121.433745","25.060625","6501600","泰山區"
"243010","548-UM","2017/08/18 19:59:23","新北市泰山區中華街10巷1號","121.427853333333","25.0524983333333","6501600","泰山區"
"243011","549-UM","2017/08/18 19:59:22","新北市泰山區明志路三段427號","121.420858333333","25.0333883333333","6501600","泰山區"
"243012","646-TV","2017/08/18 19:59:16","新北市泰山區全興路105號","121.433613333333","25.056845","6501600","泰山區"
"243016","680-BX","2017/08/18 19:59:22","新北市泰山區貴陽街13號","121.421648333333","25.0334216666667","6501600","泰山區"
"222003","436-BY","2017/08/18 19:59:21","新北市深坑區埔新街14號","121.620715","25.0039666666667","6501800","深坑區"
"222002","659-BX","2017/08/18 19:59:17","新北市深坑區北深路二段81巷8弄1號","121.618321666667","25.003035","6501800","深坑區"
"222001","696-SL","2017/08/18 19:59:21","新北市深坑區北深路三段164號","121.602345","25.0033983333333","6501800","深坑區"
"231041","002-UM","2017/08/18 19:59:13","新北市新店區中正路352號","121.535908333333","24.9755433333333","6500600","新店區"
"231059","046-UY","2017/08/18 19:59:13","新北市新店區安成街1-1號","121.510768333333","24.9601033333333","6500600","新店區"
"231061","047-UY","2017/08/18 19:59:10","新北市新店區安興路81號","121.515513333333","24.975235","6500600","新店區"
"231060","106-UY","2017/08/18 19:59:20","新北市新店區安康路二段354號","121.502273333333","24.9574266666667","6500600","新店區"
"231051","107-UY","2017/08/18 19:59:20","新北市新店區中央五街9號","121.529948333333","24.9741983333333","6500600","新店區"
"231048","108-UY","2017/08/18 19:59:12","新北市新店區寶宏路38號","121.549496666667","24.9755883333333","6500600","新店區"
"231064","110-UY","2017/08/18 19:59:17","新北市新店區光華街5巷28號","121.517575","24.9680733333333","6500600","新店區"
"231053","187-VK","2017/08/18 19:59:12","新北市新店區新烏路三段101號","121.552456666667","24.9031083333333","6500600","新店區"
"231057","256-BX","2017/08/18 19:59:20","新北市新店區花園二路一段11號","121.555526666667","24.9324366666667","6500600","新店區"
"231063","268-BY","2017/08/18 19:59:12","新北市新店區黎明路11號","121.502038333333","24.949935","6500600","新店區"
"231050","AAD-862","2017/08/18 19:59:14","新北市新店區中生路61號","121.564741666667","24.9522283333333","6500600","新店區"
"231055","3713-VJ","2017/08/18 19:59:09","新北市新店區中華路83巷67號","121.538338333333","24.9672233333333","6500600","新店區"
"231056","4716-K9","2017/08/18 19:59:14","新北市新店區北新路三段137號","121.541236666667","24.982995","6500600","新店區"
"231067","4772-VM","2017/08/18 19:59:14","新北市新店區秀山路11巷28號","121.531508333333","24.9585233333333","6500600","新店區"
"231065","512-UM","2017/08/18 19:59:13","新北市新店區安祥路109巷3弄16號","121.475646666667","24.9600483333333","6500600","新店區"
"231054","513-UM","2017/08/18 19:59:16","新北市新店區光明街137號","121.53952","24.9619966666667","6500600","新店區"
"231042","616-UM","2017/08/18 19:59:23","新北市新店區中興路一段283號","121.5454","24.9685033333333","6500600","新店區"
"231045","617-UM","2017/08/18 19:59:21","新北市新店區北宜路二段269號","121.5547","24.953595","6500600","新店區"
"231040","619-UM","2017/08/18 19:59:17","新北市新店區中正路104號","121.543285","24.9705816666667","6500600","新店區"
"231068","718-UY","2017/08/18 19:59:16","新北市新店區安華路28-1號","121.519383333333","24.9611383333333","6500600","新店區"
"231049","719-UM","2017/08/18 19:59:10","新北市新店區民族路45-1號","121.540448333333","24.9786616666667","6500600","新店區"
"231062","720-UM","2017/08/18 19:59:18","新北市新店區華城路36巷1-3號","121.527548333333","24.9554616666667","6500600","新店區"
"231044","897-TW","2017/08/18 19:59:12","新北市新店區復興路27號","121.53905","24.9866716666667","6500600","新店區"
"231043","899-TW","2017/08/18 19:59:20","新北市新店區中正路263-5號","121.538125","24.9737716666667","6500600","新店區"
"231066","AKT-0513","2017/08/18 19:59:28","新北市新店區安興路20號","121.515035","24.9659833333333","6500600","新店區"
"241011","013-R5","2017/08/18 19:59:10","新北市三重區三和路三段33號","121.495786666667","25.0711233333333","6500200","三重區"
"241028","022-UY","2017/08/18 19:59:20","新北市三重區中正南路40號","121.493753333333","25.0600683333333","6500200","三重區"
"241009","060-VK","2017/08/18 19:59:09","新北市三重區三和路四段390巷60號","121.479691666667","25.0784133333333","6500200","三重區"
"241031","061-VK","2017/08/18 19:59:28","新北市三重區重新路四段144巷34號","121.4872","25.0549816666667","6500200","三重區"
"241015","062-VK","2017/08/18 19:59:13","新北市三重區三和路二段8號","121.501065","25.0669483333333","6500200","三重區"
"241017","063-VK","2017/08/18 19:59:16","新北市三重區重陽路三段107號","121.490583333333","25.0684383333333","6500200","三重區"
"241024","065-VK","2017/08/18 19:59:22","新北市三重區力行路二段1號","121.482023333333","25.0718716666667","6500200","三重區"
"241026","066-VK","2017/08/18 19:59:13","新北市三重區仁慈街6號","121.501625","25.0631033333333","6500200","三重區"
"241003","091-VK","2017/08/18 19:59:23","新北市三重區仁愛街445巷15號","121.490456666667","25.0826466666667","6500200","三重區"
"241006","156-TC","2017/08/18 19:59:23","新北市三重區力行路二段93號","121.482685","25.075745","6500200","三重區"
"241005","262-UM","2017/08/18 19:59:11","新北市三重區溪尾街340號","121.488408333333","25.0851066666667","6500200","三重區"
"241008","265-UM","2017/08/18 19:59:10","新北市三重區永福街179巷26號","121.47809","25.0747483333333","6500200","三重區"
"241016","266-UM","2017/08/18 19:59:29","新北市三重區正義北路36巷12號","121.496625","25.0633366666667","6500200","三重區"
"241022","267-UM","2017/08/18 19:59:16","新北市三重區新北大道一段7號","121.4899","25.0616233333333","6500200","三重區"
"241018","268-UM","2017/08/18 19:59:25","新北市三重區自強路一段157號","121.493498333333","25.0671416666667","6500200","三重區"
"241032","269-UM","2017/08/18 19:59:20","新北市三重區朝陽街23號","121.48364","25.0564666666667","6500200","三重區"
"241013","270-UM","2017/08/18 19:59:26","新北市三重區三和路三段125巷27號","121.493696666667","25.0735666666667","6500200","三重區"
"241007","398-BY","2017/08/18 19:59:19","新北市三重區慈愛街109號","121.488051666667","25.0796916666667","6500200","三重區"
"241020","412-TH","2017/08/18 19:59:28","新北市三重區大智街165巷13號","121.490356666667","25.0725266666667","6500200","三重區"
"241035","462-BY","2017/08/18 19:59:22","新北市三重區大榮街9號","121.498185","25.063175","6500200","三重區"
"241004","475-VK","2017/08/18 19:59:18","新北市三重區五華街92-1號","121.492898333333","25.08239","6500200","三重區"
"241019","478-VK","2017/08/18 19:59:11","新北市三重區重陽路四段40號","121.49142","25.0699216666667","6500200","三重區"
"241030","480-VK","2017/08/18 19:59:21","新北市三重區重新路四段248-1號","121.48625","25.0534133333333","6500200","三重區"
"241014","543-UM","2017/08/18 19:59:09","新北市三重區三和路二段164號","121.499223333333","25.06859","6500200","三重區"
"241023","545-UM","2017/08/18 19:59:11","新北市三重區頂崁街172號","121.477643333333","25.06593","6500200","三重區"
"241001","547-UM","2017/08/18 19:59:12","新北市三重區仁愛街283巷17號","121.493623333333","25.0794266666667","6500200","三重區"
"241025","887-TS","2017/08/18 19:59:27","新北市三重區頂崁街210巷31號","121.475591666667","25.0681133333333","6500200","三重區"
"241012","941-UM","2017/08/18 19:59:14","新北市三重區仁厚街45號","121.500285","25.076535","6500200","三重區"
"241029","942-UM","2017/08/18 19:59:05","新北市三重區重新路三段204號","121.490106666667","25.058335","6500200","三重區"
"241033","AAC-255","2017/08/18 19:59:24","新北市三重區中興北街73號","121.469558333333","25.0476816666667","6500200","三重區"
"235066","003-UY","2017/08/18 19:59:15","新北市中和區光華街33號","121.50496","25.00393","6500300","中和區"
"235056","096-UM","2017/08/18 19:59:20","新北市中和區中山路三段105號","121.475043333333","25.0060133333333","6500300","中和區"
"235039","097-UM","2017/08/18 19:59:08","新北市中和區大勇街25巷15弄1號","121.515836666667","24.9936933333333","6500300","中和區"
"235065","098-UM","2017/08/18 19:59:16","新北市中和區福祥路95號","121.498998333333","25.006085","6500300","中和區"
"235040","150-BY","2017/08/18 19:59:10","新北市中和區保健路10巷16號","121.507673333333","24.9967816666667","6500300","中和區"
"235058","151-BY","2017/08/18 19:59:18","新北市中和區員山路148巷19號","121.482093333333","24.9971366666667","6500300","中和區"
"235058","183-VK","2017/08/18 19:59:09","新北市中和區德光路15巷17號","121.471381666667","25.0035816666667","6500300","中和區"
"235038","185-VK","2017/08/18 19:59:10","新北市中和區自強路52號","121.520091666667","24.99484","6500300","中和區"
"235049","186-VK","2017/08/18 19:59:19","新北市中和區中興街13號","121.501271666667","24.9950533333333","6500300","中和區"
"235067","255-BX","2017/08/18 19:59:13","新北市中和區中正路751巷3弄12號","121.484345","24.99933","6500300","中和區"
"235044","293-VK","2017/08/18 19:59:15","新北市中和區南山路128號","121.503626666667","24.9928716666667","6500300","中和區"
"235043","352-BY","2017/08/18 19:59:15","新北市中和區興南路二段159巷12號","121.505178333333","24.9831066666667","6500300","中和區"
"235051","376-QA","2017/08/18 19:59:07","新北市中和區中興街233巷8弄12號","121.501115","24.989265","6500300","中和區"
"235068","377-QA","2017/08/18 19:59:20","新北市中和區中山路二段250巷9號","121.497216666667","25.0029883333333","6500300","中和區"
"235050","4979-A6","2017/08/18 19:59:16","新北市中和區景平路153號","121.513643333333","24.99179","6500300","中和區"
"235069","4980-A6","2017/08/18 19:59:22","新北市中和區景新街34巷18弄2號","121.503393333333","24.998685","6500300","中和區"
"235070","558-UM","2017/08/18 19:59:27","新北市中和區連勝街38巷2號","121.497991666667","24.99784","6500300","中和區"
"235054","640-BX","2017/08/18 19:59:21","新北市中和區莒光路155號","121.47272","25.00089","6500300","中和區"
"235060","647-TV","2017/08/18 19:59:28","新北市中和區新生街114巷1號","121.483486666667","25.00244","6500300","中和區"
"235046","733-UM","2017/08/18 19:59:16","新北市中和區興南路一段93巷73號","121.510406666667","24.9866733333333","6500300","中和區"
"235041","802-TS","2017/08/18 19:59:18","新北市中和區永貞路252號","121.514125","25.003595","6500300","中和區"
"235052","805-TS","2017/08/18 19:59:15","新北市中和區華新街192巷22弄21號","121.506935","24.983355","6500300","中和區"
"235048","896-TW","2017/08/18 19:59:10","新北市中和區興南路一段20-2號","121.511393333333","24.991165","6500300","中和區"
"235053","900-TW","2017/08/18 19:59:22","新北市中和區國光街191號","121.46733","25.0017216666667","6500300","中和區"
"235071","911-UM","2017/08/18 19:59:15","新北市中和區中正路866-3號","121.484505","25.0061566666667","6500300","中和區"
"235037","AAC-213","2017/08/18 19:59:09","新北市中和區自立路52號","121.523161666667","24.992115","6500300","中和區"
"235059","AAC-215","2017/08/18 19:59:26","新北市中和區圓通路365號","121.491286666667","24.9897333333333","6500300","中和區"
"220068","013-TV","2017/08/18 19:59:21","新北市板橋區中山路二段318巷2弄18號","121.48072","25.0192483333333","6500100","板橋區"
"220065","072-UY","2017/08/18 19:59:08","新北市板橋區長安街10號","121.46675","25.008725","6500100","板橋區"
"220086","073-UY","2017/08/18 19:59:13","新北市板橋區南雅西路二段2-1號","121.45322","25.00874","6500100","板橋區"
"220106","075-UY","2017/08/18 19:59:14","新北市板橋區民治街52巷11號","121.47883","25.0327883333333","6500100","板橋區"
"220069","AAD-861","2017/08/18 19:59:13","新北市板橋區南雅南路二段7巷12號","121.454346666667","25.0029166666667","6500100","板橋區"
"220102","120-SR","2017/08/18 19:59:25","新北市板橋區懷德街66巷35號","121.476455","25.03163","6500100","板橋區"
"247020","893-R6","2017/08/18 19:59:16","新北市蘆洲區民義街75號","121.473248333333","25.09021","6501400","蘆洲區"
"247018","500-BY","2017/08/18 19:59:24","新北市蘆洲區民族路298巷2號","121.477935","25.0899833333333","6501400","蘆洲區"
"247008","339-TH","2017/08/18 19:59:06","新北市蘆洲區中山一路12號","121.479925","25.0808883333333","6501400","蘆洲區"
"247024","337-TH","2017/08/18 19:59:14","新北市蘆洲區光榮路120巷8弄53號","121.464055","25.0875433333333","6501400","蘆洲區"
"247002","336-TH","2017/08/18 19:59:15","新北市蘆洲區長安街288號","121.457573333333","25.0875883333333","6501400","蘆洲區"
"247014","057-VK","2017/08/18 19:59:07","新北市蘆洲區中山二路100號","121.472608333333","25.08192","6501400","蘆洲區"
"247004","056-VK","2017/08/18 19:59:29","新北市蘆洲區永康街33號","121.457446666667","25.08522","6501400","蘆洲區"
"247006","053-VK","2017/08/18 19:59:18","新北市蘆洲區和平路121巷14弄27號","121.46589","25.0799783333333","6501400","蘆洲區"
"247012","007-UY","2017/08/18 19:59:14","新北市蘆洲區中興街15巷41號","121.479765","25.0884583333333","6501400","蘆洲區"
"247016","001-UY","2017/08/18 19:59:24","新北市蘆洲區光華路117號","121.46685","25.0822983333333","6501400","蘆洲區"
"226004","205-ST","2017/08/18 19:59:13","新北市平溪區靜安路三段130號","121.773908333333","25.0376966666667","6502400","平溪區"
"228003","828-UM","2017/08/18 19:59:21","新北市貢寮區仁理村仁和路196號","121.923518333333","25.0527383333333","6502600","貢寮區"
"224010","AGQ-8101","2017/08/18 19:56:32","新北市瑞芳區基山街163號","121.84345","25.10803","6501200","瑞芳區"
"224011","420-VK","2017/08/18 19:48:53","新北市瑞芳區崙頂路1-6號","121.847271666667","25.1045366666667","6501200","瑞芳區"
"227003","642-TC","2017/08/18 19:59:21","新北市雙溪區雙溪里長安街16號","121.864978333333","25.0346816666667","6502500","雙溪區"
"227011","400-TW","2017/08/18 19:59:11","新北市雙溪區新基里新基南街24號","121.866311666667","25.0381366666667","6502500","雙溪區"
"208002","742-BX","2017/08/18 19:59:15","新北市金山區環金路59號","121.63827","25.2172933333333","6502700","金山區"
"208003","665-BX","2017/08/18 19:59:22","新北市金山區永興里濆水路7-1號","121.627483333333","25.2677816666667","6502700","金山區"
"251004","009-UM","2017/08/18 19:59:12","新北市淡水區民族路50巷2弄2號","121.46143","25.13588","6501000","淡水區"
"251005","010-UM","2017/08/18 19:59:17","新北市淡水區學府路136巷8號","121.450946666667","25.1728916666667","6501000","淡水區"
"251013","180-VK","2017/08/18 19:59:25","新北市淡水區奎柔山路63號","121.451408333333","25.20622","6501000","淡水區"
"251008","181-VK","2017/08/18 19:59:19","新北市淡水區淡海路61號","121.422981666667","25.1809533333333","6501000","淡水區"
"251015","182-VK","2017/08/18 19:59:25","新北市淡水區商工路169號","121.448116666667","25.1889583333333","6501000","淡水區"
"251010","413-VK","2017/08/18 19:59:12","新北市淡水區崁頂76-2號","121.431333333333","25.2040033333333","6501000","淡水區"
"251012","441-VK","2017/08/18 19:59:07","新北市淡水區下圭柔山71-3號","121.447458333333","25.2058733333333","6501000","淡水區"
"251001","559-UM","2017/08/18 19:59:26","新北市淡水區水源街二段194號","121.457265","25.1753383333333","6501000","淡水區"
"251006","561-UM","2017/08/18 19:59:08","新北市淡水區水碓街55號","121.444201666667","25.17742","6501000","淡水區"
"251009","575-R6","2017/08/18 19:59:12","新北市淡水區英專路21巷6號","121.44506","25.1697266666667","6501000","淡水區"
"251011","650-BX","2017/08/18 19:59:13","新北市淡水區中山北路三段163號","121.445345","25.1965666666667","6501000","淡水區"
"207003","550-UM","2017/08/18 19:59:19","新北市萬里區磺潭里公館崙5號","121.64189","25.2142216666667","6502800","萬里區"
"207004","225-TW","2017/08/18 19:59:14","新北市萬里區北基里忠二街35號","121.685661666667","25.1757116666667","6502800","萬里區"
"252002","178-VK","2017/08/18 19:59:11","新北市三芝區三民街39巷10號","121.505178333333","25.2579616666667","6502100","三芝區"
"252001","702-TV","2017/08/18 19:59:20","新北市三芝區公正街66號","121.499853333333","25.2575033333333","6502100","三芝區"
"237004","078-UY","2017/08/18 19:59:26","新北市三峽區嘉添191號","121.369505","24.9114916666667","6500900","三峽區"
"237007","153-BY","2017/08/18 19:59:10","新北市三峽區二鬮路136巷22弄17號","121.356818333333","24.9102333333333","6500900","三峽區"
"237009","210-TH","2017/08/18 19:59:10","新北市三峽區民族街76-5號","121.36934","24.9299166666667","6500900","三峽區"
"237012","275-BY","2017/08/18 19:59:24","新北市三峽區中華路3巷8-1號","121.374926666667","24.9311433333333","6500900","三峽區"
"237008","302-VK","2017/08/18 19:59:11","新北市三峽區中正路一段174巷1弄2號","121.3722","24.9286983333333","6500900","三峽區"
"237014","433-BY","2017/08/18 19:59:23","新北市三峽區介壽路一段1號","121.375316666667","24.9339716666667","6500900","三峽區"
"237006","5529-G3","2017/08/18 19:59:17","新北市三峽區中正路二段176巷24號","121.365345","24.9148283333333","6500900","三峽區"
"237015","649-BX","2017/08/18 19:59:14","新北市三峽區介壽路二段138巷1弄166號","121.403135","24.9277166666667","6500900","三峽區"
"237005","AKY-6261","2017/08/18 19:59:18","新北市三峽區民生街1巷29號","121.383005","24.9331033333333","6500900","三峽區"
"236072","105-UM","2017/08/18 19:59:24","新北市土城區忠義路77-1號","121.442835","24.9652216666667","6501300","土城區"
"236043","107-UM","2017/08/18 19:59:21","新北市土城區學府路一段143巷6號","121.453768333333","24.9858183333333","6501300","土城區"
"236079","166-UM","2017/08/18 19:59:17","新北市土城區福安街104號","121.417395","24.9639766666667","6501300","土城區"
"236031","253-BX","2017/08/18 19:59:24","新北市土城區中央路一段250巷15號","121.443583333333","24.98481","6501300","土城區"
"236027","269-VK","2017/08/18 19:59:27","新北市土城區員林街6-1號","121.442633333333","24.977995","6501300","土城區"
"236015","270-VK","2017/08/18 19:59:14","新北市土城區廣福街128號","121.456298333333","24.992845","6501300","土城區"
"236039","271-VK","2017/08/18 19:59:18","新北市土城區國際路86號","121.467048333333","24.976035","6501300","土城區"
"236022","401-BY","2017/08/18 19:59:25","新北市土城區延吉街165巷9號","121.470365","24.9852516666667","6501300","土城區"
"236059","912-UM","2017/08/18 19:59:25","新北市土城區中央路一段102號","121.446723333333","24.9883466666667","6501300","土城區"
"236050","913-UM","2017/08/18 19:59:10","新北市土城區金城路三段186號","121.46817","24.9879316666667","6501300","土城區"
"236063","915-UM","2017/08/18 19:59:18","新北市土城區金城路三段73巷4弄30號","121.466296666667","24.9882983333333","6501300","土城區"
"236055","AAC-216","2017/08/18 19:59:22","新北市土城區延和路260號","121.470028333333","24.9893966666667","6501300","土城區"
"242021","AAC-296","2017/08/18 19:59:15","新北市新莊區建中街16巷30號","121.449105","25.0387516666667","6500500","新莊區"
"242029","986-R7","2017/08/18 19:59:07","新北市新莊區中平路312號","121.4449","25.052285","6500500","新莊區"
"242023","705-TV","2017/08/18 19:59:17","新北市新莊區化成路354號","121.465841666667","25.0492416666667","6500500","新莊區"
"242025","615-BX","2017/08/18 19:59:14","新北市新莊區五工二路86巷29號","121.460373333333","25.067205","6500500","新莊區"
"242027","612-BX","2017/08/18 19:59:21","新北市新莊區立信一街75號","121.443013333333","25.0499","6500500","新莊區"
"242037","566-BX","2017/08/18 19:59:16","新北市新莊區建安街39號","121.42895","25.0254816666667","6500500","新莊區"
"242041","497-BY","2017/08/18 19:59:15","新北市新莊區青山路一段8號","121.41185","25.027545","6500500","新莊區"
"242005","442-UM","2017/08/18 19:59:27","新北市新莊區化成路314巷7號","121.46622","25.0483633333333","6500500","新莊區"
"242050","440-UM","2017/08/18 19:59:27","新北市新莊區西盛街137號","121.428266666667","25.018525","6500500","新莊區"
"242032","415-TV","2017/08/18 19:59:29","新北市新莊區公園一路39號","121.443271666667","25.0355533333333","6500500","新莊區"
"242002","413-TV","2017/08/18 19:59:17","新北市新莊區中正路164號","121.451148333333","25.0359383333333","6500500","新莊區"
"242039","400-BY","2017/08/18 19:59:08","新北市新莊區民安路282號","121.427851666667","25.021545","6500500","新莊區"
"242060","362-BY","2017/08/18 19:59:18","新北市新莊區瓊林路35號","121.445211666667","25.028575","6500500","新莊區"
"242058","353-BY","2017/08/18 19:59:14","新北市新莊區八德街109號","121.424216666667","25.0210016666667","6500500","新莊區"
"242044","132-UY","2017/08/18 19:59:24","新北市新莊區中正路746巷45-1號","121.411106666667","25.0251216666667","6500500","新莊區"
"242034","133-UY","2017/08/18 19:59:06","新北市新莊區建中街79號","121.447325","25.036705","6500500","新莊區"
"242019","135-UY","2017/08/18 19:59:15","新北市新莊區民生街28號","121.456283333333","25.0422716666667","6500500","新莊區"
"242007","173-VK","2017/08/18 19:59:12","新北市新莊區思源路585號","121.45965","25.05942","6500500","新莊區"
"242013","175-VK","2017/08/18 19:59:06","新北市新莊區中華路二段85號","121.452478333333","25.048915","6500500","新莊區"
"242056","176-VK","2017/08/18 19:59:23","新北市新莊區中正路347巷17弄4號","121.44735","25.0343433333333","6500500","新莊區"
"242011","346-TH","2017/08/18 19:59:18","新北市新莊區中港路531巷58號","121.450045","25.05174","6500500","新莊區"
"242017","348-TH","2017/08/18 19:59:06","新北市新莊區中安街5巷21號","121.45237","25.0458683333333","6500500","新莊區"
"242054","349-TH","2017/08/18 19:59:12","新北市新莊區西盛街423號","121.427261666667","25.012165","6500500","新莊區"
"242009","351-TH","2017/08/18 19:59:23","新北市新莊區昌盛街37號","121.45415","25.0499666666667","6500500","新莊區"
"238015","755-BX","2017/08/18 19:59:10","新北市樹林區中山路三段212號","121.382561666667","24.9661416666667","6500700","樹林區"
"238023","601-UM","2017/08/18 19:59:23","新北市樹林區中正路191號","121.423451666667","25.0030866666667","6500700","樹林區"
"238024","5061-A6","2017/08/18 19:59:19","新北市樹林區育德街78-1號","121.387373333333","24.9682883333333","6500700","樹林區"
"238021","311-TH","2017/08/18 19:59:22","新北市樹林區佳園路三段113巷5號","121.38699","24.9503833333333","6500700","樹林區"
"238025","303-VK","2017/08/18 19:57:58","新北市樹林區中山路三段214號","121.380145","24.967925","6500700","樹林區"
"238020","268-VK","2017/08/18 17:43:46","新北市樹林區中山路三段200-1號","121.38679","24.968955","6500700","樹林區"
"221008","489-VK","2017/08/18 19:59:28","新北市汐止區忠一街1號","121.62061","25.073135","6501100","汐止區"
"221036","130-UY","2017/08/18 19:59:09","新北市汐止區忠孝東路258巷11弄2號","121.663721666667","25.06721","6501100","汐止區"
"221015","131-UY","2017/08/18 19:59:20","新北市汐止區大同路二段695號","121.665136666667","25.0726316666667","6501100","汐止區"
"221012","276-VK","2017/08/18 13:23:13","新北市汐止區汐萬路一段256巷3號","121.653461666667","25.07462","6501100","汐止區"
"221031","277-VK","2017/08/18 19:59:06","新北市汐止區福德一路176巷5號","121.635098333333","25.06662","6501100","汐止區"
"221012","278-VK","2017/08/18 19:59:14","新北市汐止區大同路三段274號","121.677565","25.071345","6501100","汐止區"
"221023","279-VK","2017/08/18 19:59:28","新北市汐止區明峰街198號","121.62786","25.0694966666667","6501100","汐止區"
"221032","280-BY","2017/08/18 19:59:14","新北市汐止區橫科路18巷33弄2號","121.617221666667","25.0495416666667","6501100","汐止區"
"221027","281-BY","2017/08/18 19:59:10","新北市汐止區中正路47號","121.661936666667","25.0700816666667","6501100","汐止區"
"221038","297-VK","2017/08/18 19:59:28","新北市汐止區忠孝東路475號","121.666106666667","25.0730416666667","6501100","汐止區"
"221029","298-VK","2017/08/18 19:59:22","新北市汐止區樟樹一路137巷26號","121.640951666667","25.0658983333333","6501100","汐止區"
"221021","299-VK","2017/08/18 19:59:15","新北市汐止區青山路6號","121.655778333333","25.0625683333333","6501100","汐止區"
"221035","622-UM","2017/08/18 19:59:20","新北市汐止區長江街39巷21號","121.655338333333","25.0719833333333","6501100","汐止區"
"221025","623-UM","2017/08/18 19:59:12","新北市汐止區秀峰路104號","121.659948333333","25.0636833333333","6501100","汐止區"
"221010","646-BX","2017/08/18 19:59:21","新北市汐止區八連路一段72號","121.647165","25.0805583333333","6501100","汐止區"
"221033","647-BX","2017/08/18 19:59:19","新北市汐止區東勢街201巷129弄2號","121.63343","25.0429016666667","6501100","汐止區"
"221018","753-BX","2017/08/18 19:59:23","新北市汐止區茄苳路217號","121.67079","25.0688066666667","6501100","汐止區"
"220079","145-BY","2017/08/18 19:59:20","新北市新莊區新五路一段6-2號","121.44255","25.0573283333333","6500100","板橋區"
"220080","200-UY","2017/08/18 19:59:25","新北市板橋區大觀路二段59巷31號","121.44769","25.0024616666667","6500100","板橋區"
"220082","610-BX","2017/08/18 19:59:20","新北市板橋區大觀路三段106號","121.43242","24.994255","6500100","板橋區"
"220101","245-BX","2017/08/18 19:59:23","新北市板橋區縣民大道三段33-1號","121.47457","25.0210216666667","6500100","板橋區"
"220072","277-BY","2017/08/18 19:18:21","新北市板橋區金門街337巷9弄1號","121.430546666667","24.984605","6500100","板橋區"
"220094","283-UM","2017/08/18 19:59:24","新北市板橋區陽明街124號","121.463861666667","25.023685","6500100","板橋區"
"220071","283-VK","2017/08/18 19:59:21","新北市板橋區五權街30巷2號","121.464623333333","24.9934216666667","6500100","板橋區"
"220053","285-VK","2017/08/18 19:59:17","新北市板橋區永豐街115號","121.474398333333","25.0195533333333","6500100","板橋區"
"220083","286-VK","2017/08/18 19:59:13","新北市板橋區僑中二街8巷33號","121.445516666667","25.0113583333333","6500100","板橋區"
"220081","287-VK","2017/08/18 19:59:21","新北市板橋區大觀路一段29巷97弄1號","121.450768333333","25.0061866666667","6500100","板橋區"
"220090","288-VK","2017/08/18 19:59:08","新北市板橋區英士路192-1號","121.45855","25.0234333333333","6500100","板橋區"
"220061","293-UM","2017/08/18 19:59:17","新北市板橋區觀光街1巷2號","121.47207","25.0155666666667","6500100","板橋區"
"220055","295-UM","2017/08/18 19:59:17","新北市板橋區仁愛路62巷15弄1號","121.459976666667","24.9984866666667","6500100","板橋區"
"220084","296-UM","2017/08/18 19:59:22","新北市板橋區溪崑二街112巷32號","121.425728333333","24.98924","6500100","板橋區"
"220075","297-UM","2017/08/18 19:59:26","新北市板橋區金華街10巷122號","121.459441666667","25.0205383333333","6500100","板橋區"
"220062","305-R5","2017/08/18 19:59:25","新北市板橋區萬安街20巷2弄13號","121.48525","25.02273","6500100","板橋區"
"220092","307-R5","2017/08/18 19:59:23","新北市板橋區光正街45巷28號","121.461391666667","25.01622","6500100","板橋區"
"220098","317-R6","2017/08/18 19:59:12","新北市板橋區英士路76號","121.460103333333","25.0242533333333","6500100","板橋區"
"220064","486-VK","2017/08/18 19:59:27","新北市板橋區實踐路76-2號","121.463848333333","25.0055333333333","6500100","板橋區"
"220089","487-VK","2017/08/18 19:59:13","新北市板橋區新海路385巷34弄12號","121.457135","25.02602","6500100","板橋區"
"220088","491-VK","2017/08/18 19:59:21","新北市板橋區大同街89號","121.480071666667","25.02835","6500100","板橋區"
"220035","560-BX","2017/08/18 19:59:25","新北市板橋區新生街87巷6號","121.457758333333","25.021785","6500100","板橋區"
"220103","561-BX","2017/08/18 19:59:23","新北市板橋區自由路40號","121.465648333333","25.0232333333333","6500100","板橋區"
"220063","609-BX","2017/08/18 19:59:19","新北市板橋區中山路二段111號","121.474553333333","25.0161466666667","6500100","板橋區"
"220091","637-BX","2017/08/18 19:59:18","新北市板橋區文聖街89巷12號","121.477853333333","25.0301283333333","6500100","板橋區"
"220057","686-BX","2017/08/18 19:59:21","新北市板橋區四川路二段2號","121.456588333333","24.9965683333333","6500100","板橋區"
"220093","689-BX","2017/08/18 19:59:19","新北市板橋區長江路三段122號","121.47523","25.0344066666667","6500100","板橋區"
"220054","741-BX","2017/08/18 19:59:16","新北市板橋區忠孝路忠義巷23弄11號","121.467143333333","25.004255","6500100","板橋區"
"220067","829-TW","2017/08/18 19:59:08","新北市板橋區漢生東路163號","121.469323333333","25.0125516666667","6500100","板橋區"
"220096","831-TW","2017/08/18 19:59:25","新北市板橋區莒光路133巷8-1號","121.473148333333","25.02444","6500100","板橋區"
"220074","895-R6","2017/08/18 19:59:23","新北市板橋區大東街35號","121.456573333333","25.008575","6500100","板橋區"
"220073","985-R7","2017/08/18 19:59:23","新北市板橋區南雅西路二段164號","121.451631666667","25.0136083333333","6500100","板橋區"
"220097","AAC-210","2017/08/18 19:59:22","新北市板橋區復興街139號","121.461201666667","25.01819","6500100","板橋區"
"220070","AAC-253","2017/08/18 19:59:21","新北市板橋區民族路226號","121.468681666667","25.0073166666667","6500100","板橋區"
"249001","3G-OBU6","2017/08/18 15:00:33","桃園市楊梅區電研路100-24號","121.1661","24.95364","6502300","八里區"
