"lineid","car","time","location","longitude","latitude","cityid","cityname"
"234046","148-BY","2017/08/18 20:09:10","新北市永和區得和路382-1號","121.524948333333","24.99925","6500400","永和區"
"234013","149-BY","2017/08/18 20:09:21","新北市永和區永貞路375號","121.508351666667","25.0081983333333","6500400","永和區"
"234007","207-UY","2017/08/18 20:09:07","新北市永和區保順路51巷18號","121.502541666667","25.010525","6500400","永和區"
"234081","298-R6","2017/08/18 20:09:12","新北市永和區國中路101號","121.524166666667","25.0062016666667","6500400","永和區"
"234038","336-UY","2017/08/18 20:09:21","新北市永和區成功路一段93巷23弄13號","121.528475","25.0034116666667","6500400","永和區"
"234064","337-UY","2017/08/18 20:09:24","新北市永和區得和路269號","121.521593333333","24.9997666666667","6500400","永和區"
"234086","338-UY","2017/08/18 20:09:25","新北市永和區福和路223號","121.518823333333","25.00748","6500400","永和區"
"234054","553-UM","2017/08/18 20:09:13","新北市永和區博愛街14號","121.516906666667","25.0158066666667","6500400","永和區"
"234017","745-BX","2017/08/18 20:09:23","新北市永和區永和路二段185號","121.515025","25.0134466666667","6500400","永和區"
"234030","746-BX","2017/08/18 20:09:04","新北市永和區民族街81巷3號","121.518925","24.9966333333333","6500400","永和區"
"234061","AAD-866","2017/08/18 20:09:17","新北市永和區中正路151巷5弄2號","121.515868333333","24.99863","6500400","永和區"
"234070","847-RS","2017/08/18 20:09:19","新北市永和區永貞路52號","121.520766666667","25.0061666666667","6500400","永和區"
"234042","862-TW","2017/08/18 20:09:07","新北市永和區雙和街35號","121.508858333333","25.0022583333333","6500400","永和區"
"234050","863-TW","2017/08/18 20:09:20","新北市永和區環河西路二段97號","121.50645","25.0148116666667","6500400","永和區"
"234011","9373-KE","2017/08/18 20:09:21","新北市永和區保生路55-1號","121.504536666667","25.0108966666667","6500400","永和區"
"249005","172-UM","2017/08/18 20:09:08","新北市八里區下罟子44號","121.38461","25.1364366666667","6502300","八里區"
"249001","173-UM","2017/08/18 20:09:11","新北市八里區中華路二段312號","121.403796666667","25.1483533333333","6502300","八里區"
"249004","303-UY","2017/08/18 20:09:14","新北市八里區中山路一段418-3號","121.411138333333","25.1579916666667","6502300","八里區"
"249002","305-UY","2017/08/18 20:09:09","新北市八里區龍米路一段2-1號","121.458011666667","25.1148766666667","6502300","八里區"
"249003","593-UM","2017/08/18 20:09:19","新北市八里區中山路二段540巷28號","121.397113333333","25.147045","6502300","八里區"
"248014","025-BX","2017/08/18 20:09:08","新北市五股區五福路14巷26號","121.435433333333","25.088915","6501500","五股區"
"248016","026-BX","2017/08/18 20:09:19","新北市五股區成泰路三段577巷80弄72號","121.448941666667","25.1047716666667","6501500","五股區"
"248008","095-VK","2017/08/18 20:09:21","新北市五股區中興路一段1巷31-1號","121.469426666667","25.0700883333333","6501500","五股區"
"248018","225-UY","2017/08/18 20:09:18","新北市五股區登林路65號","121.42899","25.0693116666667","6501500","五股區"
"248012","247-BX","2017/08/18 20:09:21","新北市五股區民義路一段212號","121.430498333333","25.08948","6501500","五股區"
"248004","677-BX","2017/08/18 20:09:09","新北市五股區成泰路一段106-1號","121.43566","25.072085","6501500","五股區"
"248002","678-BX","2017/08/18 20:09:17","新北市五股區成洲一路15號","121.44896","25.095615","6501500","五股區"
"248010","682-TV","2017/08/18 20:09:17","新北市五股區成泰路一段7巷66號","121.432646666667","25.0678566666667","6501500","五股區"
"234023","9380-KE","2017/08/18 20:09:23","新北市永和區勵行街46號","121.516773333333","25.0134916666667","6500400","永和區"
"234077","969-R7","2017/08/18 20:09:12","新北市永和區民有街24巷1弄17號","121.516655","24.9958033333333","6500400","永和區"
"234074","AAC-211","2017/08/18 20:09:08","新北市永和區竹林路201巷24弄4號","121.522228333333","25.0095933333333","6500400","永和區"
"234067","AAC-212","2017/08/18 20:09:13","新北市永和區保平路210號","121.509886666667","25.0059983333333","6500400","永和區"
"234003","AAC-295","2017/08/18 20:09:15","新北市永和區中正路618-1號","121.51701","25.0077316666667","6500400","永和區"
"243013","AAD-798","2017/08/18 20:09:15","新北市泰山區明志路三段74巷18號","121.42416","25.0417383333333","6501600","泰山區"
"243009","297-R6","2017/08/18 20:09:19","新北市泰山區泰林路二段116巷3弄2號","121.435235","25.0595966666667","6501600","泰山區"
"243015","380-SR","2017/08/18 20:09:07","新北市泰山區明志路一段386號","121.430701666667","25.057335","6501600","泰山區"
"243014","421-VK","2017/08/18 20:09:23","新北市泰山區明志路一段43號","121.433673333333","25.0653433333333","6501600","泰山區"
"243010","548-UM","2017/08/18 20:09:23","新北市泰山區明志路二段136巷1號","121.426975","25.051215","6501600","泰山區"
"243011","549-UM","2017/08/18 20:09:22","新北市泰山區德安街5號","121.419576666667","25.0318916666667","6501600","泰山區"
"243012","646-TV","2017/08/18 20:09:16","新北市泰山區楓江路86巷16-1號","121.43743","25.06243","6501600","泰山區"
"243016","680-BX","2017/08/18 20:09:22","新北市泰山區明志路二段426號","121.424793333333","25.04361","6501600","泰山區"
"222003","436-BY","2017/08/18 20:09:21","新北市深坑區埔新街59號","121.620411666667","25.0024083333333","6501800","深坑區"
"222002","659-BX","2017/08/18 20:09:17","新北市深坑區北深路三段127號","121.604285","25.0024433333333","6501800","深坑區"
"222001","696-SL","2017/08/18 20:09:21","新北市深坑區北深路三段183號","121.601451666667","25.0035566666667","6501800","深坑區"
"231041","002-UM","2017/08/18 20:08:53","新北市新店區中正路468號","121.53397","24.979385","6500600","新店區"
"231059","046-UY","2017/08/18 20:09:13","新北市新店區安德街60巷35號","121.51122","24.96356","6500600","新店區"
"231061","047-UY","2017/08/18 20:09:10","新北市新店區安興路32號","121.515765","24.9703916666667","6500600","新店區"
"231060","106-UY","2017/08/18 20:09:10","新北市新店區安康路三段107號","121.491245","24.9517566666667","6500600","新店區"
"231051","107-UY","2017/08/18 20:09:20","新北市新店區中央六街6號","121.53028","24.9743583333333","6500600","新店區"
"231048","108-UY","2017/08/18 20:09:12","新北市新店區北新路二段196巷21號","121.544046666667","24.9758533333333","6500600","新店區"
"231064","110-UY","2017/08/18 20:09:17","新北市新店區安民街3巷1號","121.514673333333","24.9641733333333","6500600","新店區"
"231053","187-VK","2017/08/18 20:09:14","新北市新店區新烏路三段寶島巷2弄1號","121.552006666667","24.89871","6500600","新店區"
"231057","256-BX","2017/08/18 20:09:20","新北市新店區花園一路一段2號","121.553143333333","24.9324066666667","6500600","新店區"
"231063","268-BY","2017/08/18 20:09:11","新北市新店區黎明路52巷1號","121.502338333333","24.9486066666667","6500600","新店區"
"231050","AAD-862","2017/08/18 20:09:14","新北市新店區中生路61號","121.564743333333","24.952235","6500600","新店區"
"231055","3713-VJ","2017/08/18 20:09:09","新北市新店區中華路42巷12號","121.540475","24.9685533333333","6500600","新店區"
"231056","4716-K9","2017/08/18 20:09:14","新北市新店區北新路二段29巷3弄1號","121.542221666667","24.9729166666667","6500600","新店區"
"231067","4772-VM","2017/08/18 20:09:14","新北市新店區安康路一段30號","121.531888333333","24.961115","6500600","新店區"
"231065","512-UM","2017/08/18 20:09:13","新北市新店區安祥路106巷193號","121.474186666667","24.95999","6500600","新店區"
"231054","513-UM","2017/08/18 20:09:16","新北市新店區檳榔路21號","121.541563333333","24.9637833333333","6500600","新店區"
"231042","616-UM","2017/08/18 20:09:23","新北市新店區中興路二段224號","121.547886666667","24.9750566666667","6500600","新店區"
"231045","617-UM","2017/08/18 20:09:21","新北市新店區北宜路一段121-2號","121.540363333333","24.9537683333333","6500600","新店區"
"231040","619-UM","2017/08/18 20:09:17","新北市新店區中正路82號","121.543736666667","24.9702366666667","6500600","新店區"
"231068","718-UY","2017/08/18 20:09:16","新北市新店區北新路二段111號","121.542911666667","24.9747966666667","6500600","新店區"
"231049","719-UM","2017/08/18 20:09:10","新北市新店區北新路二段139巷9-1號","121.54214","24.9755216666667","6500600","新店區"
"231062","720-UM","2017/08/18 20:09:18","新北市新店區安康路一段168號","121.525805","24.9631083333333","6500600","新店區"
"231044","897-TW","2017/08/18 20:09:12","新北市新店區寶元路一段15巷11號","121.54204","24.987135","6500600","新店區"
"231043","899-TW","2017/08/18 20:09:25","新北市新店區民族路192號","121.536188333333","24.9755283333333","6500600","新店區"
"231066","AKT-0513","2017/08/18 20:09:08","新北市新店區柴埕路60巷15-3號","121.508111666667","24.9653716666667","6500600","新店區"
"241011","013-R5","2017/08/18 20:09:10","新北市三重區仁愛街44號","121.496301666667","25.0721733333333","6500200","三重區"
"241028","022-UY","2017/08/18 20:09:20","新北市三重區仁化街147號","121.494705","25.0572183333333","6500200","三重區"
"241009","060-VK","2017/08/18 20:09:09","新北市三重區三和路四段360號","121.483388333333","25.0783966666667","6500200","三重區"
"241031","061-VK","2017/08/18 20:09:08","新北市三重區過圳街9-1號","121.488778333333","25.0601216666667","6500200","三重區"
"241015","062-VK","2017/08/18 20:09:13","新北市三重區福德北路24號","121.502263333333","25.0648883333333","6500200","三重區"
"241017","063-VK","2017/08/18 20:09:16","新北市三重區大智街116號","121.493056666667","25.0670833333333","6500200","三重區"
"241024","065-VK","2017/08/18 20:09:22","新北市三重區中正北路328號","121.47881","25.06931","6500200","三重區"
"241026","066-VK","2017/08/18 20:09:13","新北市三重區福德南路65巷2號","121.502438333333","25.0604816666667","6500200","三重區"
"241002","090-VK","2017/08/18 20:09:14","新北市三重區五華街35巷44號","121.495438333333","25.081615","6500200","三重區"
"241003","091-VK","2017/08/18 20:09:23","新北市三重區富華街22號","121.489695","25.0825216666667","6500200","三重區"
"241006","156-TC","2017/08/18 20:09:23","新北市三重區力行路二段95號","121.482831666667","25.075795","6500200","三重區"
"241005","262-UM","2017/08/18 20:09:10","新北市三重區碧華街294巷11號","121.489141666667","25.0841216666667","6500200","三重區"
"241008","265-UM","2017/08/18 20:09:10","新北市三重區永福街197巷4號","121.479158333333","25.07452","6500200","三重區"
"241016","266-UM","2017/08/18 20:09:09","新北市三重區中正北路23號","121.492256666667","25.0613916666667","6500200","三重區"
"241022","267-UM","2017/08/18 20:09:16","新北市三重區新北大道一段17號","121.488006666667","25.0611683333333","6500200","三重區"
"241018","268-UM","2017/08/18 20:09:15","新北市三重區正義北路207號","121.49617","25.06844","6500200","三重區"
"241032","269-UM","2017/08/18 20:09:20","新北市三重區捷運路67號","121.483331666667","25.055715","6500200","三重區"
"241013","270-UM","2017/08/18 20:09:06","新北市三重區三和路三段139巷33號","121.493988333333","25.074035","6500200","三重區"
"241007","398-BY","2017/08/18 20:09:19","新北市三重區三和路四段111-11號","121.4867","25.0775566666667","6500200","三重區"
"241020","412-TH","2017/08/18 20:09:08","新北市三重區三和路三段121號","121.492773333333","25.0731666666667","6500200","三重區"
"241035","462-BY","2017/08/18 20:09:22","新北市三重區平安街15號","121.498556666667","25.06433","6500200","三重區"
"241004","475-VK","2017/08/18 20:09:18","新北市三重區自強路四段100號","121.491256666667","25.07967","6500200","三重區"
"241019","478-VK","2017/08/18 20:09:11","新北市三重區自強路二段28號","121.489435","25.069335","6500200","三重區"
"241030","480-VK","2017/08/18 20:09:20","新北市三重區成功路145巷35號","121.487778333333","25.0532566666667","6500200","三重區"
"241014","543-UM","2017/08/18 20:09:09","新北市三重區長樂街71號","121.50127","25.069355","6500200","三重區"
"241023","545-UM","2017/08/18 20:09:21","新北市三重區頂崁街229號","121.476998333333","25.0682716666667","6500200","三重區"
"241001","547-UM","2017/08/18 20:09:22","新北市三重區溪尾街16號","121.491275","25.0757016666667","6500200","三重區"
"241025","887-TS","2017/08/18 20:09:27","新北市三重區中正北路310號","121.479378333333","25.068965","6500200","三重區"
"241012","941-UM","2017/08/18 20:09:14","新北市三重區仁愛街125巷79號","121.497923333333","25.0758883333333","6500200","三重區"
"241029","942-UM","2017/08/18 20:09:06","新北市三重區光明路32巷9號","121.491783333333","25.058575","6500200","三重區"
"241033","AAC-255","2017/08/18 20:09:24","新北市三重區光復路一段68巷4號","121.471693333333","25.049295","6500200","三重區"
"235066","003-UY","2017/08/18 20:09:15","新北市中和區中山路二段3巷56號","121.507591666667","25.0047733333333","6500300","中和區"
"235056","096-UM","2017/08/18 20:09:20","新北市中和區中山路三段170巷8弄20號","121.47296","25.0076133333333","6500300","中和區"
"235039","097-UM","2017/08/18 20:09:08","新北市中和區大勇街25巷39弄1號","121.514776666667","24.994225","6500300","中和區"
"235065","098-UM","2017/08/18 20:09:16","新北市中和區福祥路85巷3號","121.498731666667","25.0057066666667","6500300","中和區"
"235040","150-BY","2017/08/18 20:09:10","新北市中和區保健路42-2號","121.509351666667","24.99727","6500300","中和區"
"235058","151-BY","2017/08/18 20:09:18","新北市中和區中正路1212號","121.479893333333","25.0105933333333","6500300","中和區"
"235058","183-VK","2017/08/18 20:09:09","新北市中和區民生街23號","121.470661666667","25.0055533333333","6500300","中和區"
"235044","293-VK","2017/08/18 20:09:15","新北市中和區中興街106號","121.500295","24.9933566666667","6500300","中和區"
"235051","376-QA","2017/08/18 20:09:24","新北市中和區復興路260-1號","121.503508333333","24.9903583333333","6500300","中和區"
"235068","377-QA","2017/08/18 20:09:20","新北市中和區福祥路85巷2弄2號","121.498816666667","25.0058433333333","6500300","中和區"
"235050","4979-A6","2017/08/18 20:09:16","新北市中和區景新街298巷9號","121.510948333333","24.99175","6500300","中和區"
"235069","4980-A6","2017/08/18 20:09:22","新北市中和區圓通路39號","121.500865","24.9976033333333","6500300","中和區"
"235070","558-UM","2017/08/18 20:09:27","新北市中和區圓通路126巷4號","121.498426666667","24.996165","6500300","中和區"
"235054","640-BX","2017/08/18 20:09:21","新北市中和區莒光路11號","121.47189","25.00581","6500300","中和區"
"235046","733-UM","2017/08/18 20:09:11","新北市中和區忠孝街31巷13號","121.51035","24.9833983333333","6500300","中和區"
"235041","802-TS","2017/08/18 20:09:18","新北市中和區新興街17巷1號","121.512351666667","25.0025016666667","6500300","中和區"
"235048","896-TW","2017/08/18 20:09:10","新北市新店區安和路三段171號","121.515955","24.9861116666667","6500300","中和區"
"235071","911-UM","2017/08/18 20:09:15","新北市中和區和城路一段271巷1號","121.485383333333","24.9916966666667","6500300","中和區"
"235037","AAC-213","2017/08/18 20:09:09","新北市中和區自立路141巷17號","121.523215","24.9937866666667","6500300","中和區"
"235059","AAC-215","2017/08/18 20:09:26","新北市中和區圓通路335巷37弄1號","121.493885","24.9891533333333","6500300","中和區"
"220065","072-UY","2017/08/18 20:09:08","新北市板橋區縣民大道二段82號","121.465205","25.014285","6500100","板橋區"
"220106","075-UY","2017/08/18 20:09:14","新北市板橋區文化路二段464號","121.475088333333","25.03256","6500100","板橋區"
"220069","AAD-861","2017/08/18 20:09:13","新北市板橋區大明街15巷9號","121.458658333333","25.002255","6500100","板橋區"
"220102","120-SR","2017/08/18 20:09:25","新北市板橋區文聖街73號","121.477296666667","25.030485","6500100","板橋區"
"247020","893-R6","2017/08/18 20:09:16","新北市蘆洲區民義街68巷16號","121.4737","25.0893316666667","6501400","蘆洲區"
"247010","546-UM","2017/08/18 20:09:21","新北市蘆洲區集賢路406號","121.480033333333","25.081735","6501400","蘆洲區"
"247018","500-BY","2017/08/18 20:09:24","新北市蘆洲區民族路364號","121.475906666667","25.090925","6501400","蘆洲區"
"247008","339-TH","2017/08/18 20:09:06","新北市蘆洲區集賢路300號","121.481611666667","25.0850816666667","6501400","蘆洲區"
"247024","337-TH","2017/08/18 20:09:14","新北市蘆洲區光榮路120巷9號","121.465316666667","25.088655","6501400","蘆洲區"
"247002","336-TH","2017/08/18 20:09:15","新北市蘆洲區長安街222號","121.458055","25.0852466666667","6501400","蘆洲區"
"247014","057-VK","2017/08/18 20:08:48","新北市蘆洲區和平路52-1號","121.470336666667","25.0794783333333","6501400","蘆洲區"
"247004","056-VK","2017/08/18 20:09:09","新北市蘆洲區永安南路二段328巷17弄11號","121.456128333333","25.0838533333333","6501400","蘆洲區"
"247006","053-VK","2017/08/18 20:09:08","新北市蘆洲區永安南路二段14號","121.467601666667","25.0767216666667","6501400","蘆洲區"
"247012","007-UY","2017/08/18 20:09:14","新北市蘆洲區中興街15巷40號","121.479901666667","25.08835","6501400","蘆洲區"
"247022","002-UY","2017/08/18 20:09:23","新北市蘆洲區三民路173號","121.471056666667","25.0871433333333","6501400","蘆洲區"
"247016","001-UY","2017/08/18 20:09:24","新北市蘆洲區中正路185巷47號","121.4656","25.0838983333333","6501400","蘆洲區"
"226004","205-ST","2017/08/18 20:09:13","新北市平溪區靜安路二段465號","121.741741666667","25.0251766666667","6502400","平溪區"
"224010","AGQ-8101","2017/08/18 20:09:09","新北市瑞芳區輕便路300-1號","121.843413333333","25.1087683333333","6501200","瑞芳區"
"224011","420-VK","2017/08/18 19:48:53","新北市瑞芳區崙頂路1-6號","121.847271666667","25.1045366666667","6501200","瑞芳區"
"208002","742-BX","2017/08/18 20:08:53","新北市金山區環金路462號","121.63","25.2247933333333","6502700","金山區"
"208003","665-BX","2017/08/18 20:09:22","新北市金山區海興路35-2號","121.629478333333","25.2366566666667","6502700","金山區"
"251004","009-UM","2017/08/18 20:09:11","新北市淡水區民族路31巷31號","121.462356666667","25.1364633333333","6501000","淡水區"
"251005","010-UM","2017/08/18 20:09:17","新北市淡水區學府路123號","121.450616666667","25.1730083333333","6501000","淡水區"
"251002","012-UM","2017/08/18 20:09:13","新北市淡水區中正路235號","121.435201666667","25.1735833333333","6501000","淡水區"
"251013","180-VK","2017/08/18 20:09:05","新北市淡水區奎柔山路452號","121.463346666667","25.2045383333333","6501000","淡水區"
"251008","181-VK","2017/08/18 20:09:19","新北市淡水區淡海路72巷30弄18號","121.425163333333","25.1825216666667","6501000","淡水區"
"251015","182-VK","2017/08/18 20:09:06","新北市淡水區埤島3-23號","121.447646666667","25.18968","6501000","淡水區"
"251010","413-VK","2017/08/18 20:09:12","新北市淡水區新市二路二段2號","121.42542","25.196275","6501000","淡水區"
"251012","441-VK","2017/08/18 20:09:27","新北市淡水區下圭柔山72-3號","121.44631","25.205635","6501000","淡水區"
"251001","559-UM","2017/08/18 20:09:06","新北市淡水區新市二路四段265號","121.44572","25.1924716666667","6501000","淡水區"
"251006","561-UM","2017/08/18 20:09:07","新北市淡水區北新路141巷29號","121.448126666667","25.179605","6501000","淡水區"
"251009","575-R6","2017/08/18 20:09:12","新北市淡水區英專路42號","121.44562","25.1702083333333","6501000","淡水區"
"251011","650-BX","2017/08/18 20:09:13","新北市淡水區崁頂78-5號","121.429265","25.2074333333333","6501000","淡水區"
"251003","673-BX","2017/08/18 20:09:15","新北市淡水區中山北路二段157號","121.443653333333","25.1837816666667","6501000","淡水區"
"207003","550-UM","2017/08/18 20:09:19","新北市萬里區大鵬里萬里加投186號","121.64282","25.21565","6502800","萬里區"
"207004","225-TW","2017/08/18 20:09:14","新北市萬里區北基里愛三街11號","121.681753333333","25.17663","6502800","萬里區"
"252002","178-VK","2017/08/18 20:09:11","新北市三芝區三民街39巷14號","121.50519","25.2576283333333","6502100","三芝區"
"252001","702-TV","2017/08/18 20:09:20","新北市三芝區公正街66號","121.499843333333","25.257405","6502100","三芝區"
"237007","153-BY","2017/08/18 20:09:10","新北市三峽區二鬮路46號","121.361995","24.9099733333333","6500900","三峽區"
"237012","275-BY","2017/08/18 20:09:24","新北市三峽區中華路48巷16號","121.371108333333","24.9301216666667","6500900","三峽區"
"237006","5529-G3","2017/08/18 20:09:17","新北市三峽區嘉添227-30號","121.370775","24.9115616666667","6500900","三峽區"
"237005","AKY-6261","2017/08/18 20:09:18","新北市三峽區三樹路44巷3號","121.378178333333","24.9376283333333","6500900","三峽區"
"236072","105-UM","2017/08/18 20:09:24","新北市土城區中央路三段121號","121.433976666667","24.96565","6501300","土城區"
"236043","107-UM","2017/08/18 20:09:21","新北市土城區學成路22巷4號","121.453436666667","24.9873083333333","6501300","土城區"
"236079","166-UM","2017/08/18 20:09:17","新北市土城區中山路27號","121.419283333333","24.96258","6501300","土城區"
"236031","253-BX","2017/08/18 20:09:24","新北市土城區中央路一段118巷1弄11號","121.445871666667","24.9878133333333","6501300","土城區"
"236027","269-VK","2017/08/18 20:09:23","新北市土城區明德路二段291號","121.44484","24.984205","6501300","土城區"
"236015","270-VK","2017/08/18 20:09:14","新北市土城區廣興街36號","121.455246666667","24.9916533333333","6501300","土城區"
"236039","271-VK","2017/08/18 20:09:18","新北市土城區延吉街296巷1弄1號","121.464428333333","24.9842566666667","6501300","土城區"
"236022","401-BY","2017/08/18 20:09:05","新北市土城區延吉街63巷2號","121.472306666667","24.9873683333333","6501300","土城區"
"236059","912-UM","2017/08/18 20:09:05","新北市土城區中央路二段20-2號","121.442833333333","24.9802933333333","6501300","土城區"
"236050","913-UM","2017/08/18 20:08:50","新北市土城區金城路三段133號","121.467985","24.9881","6501300","土城區"
"236063","915-UM","2017/08/18 20:09:19","新北市土城區金城路三段33巷19號","121.465175","24.9872333333333","6501300","土城區"
"236055","AAC-216","2017/08/18 20:09:22","新北市土城區學府路一段113號","121.455675","24.9874816666667","6501300","土城區"
"242021","AAC-296","2017/08/18 20:09:15","新北市新莊區建中街48巷10弄11號","121.448436666667","25.0385266666667","6500500","新莊區"
"242029","986-R7","2017/08/18 20:09:13","新北市新莊區中原路355號","121.444806666667","25.0542916666667","6500500","新莊區"
"242023","705-TV","2017/08/18 20:09:17","新北市新莊區化成路540-2號","121.466301666667","25.053395","6500500","新莊區"
"242025","615-BX","2017/08/18 20:09:14","新北市新莊區五工三路78巷7號","121.459175","25.0653033333333","6500500","新莊區"
"242027","612-BX","2017/08/18 20:09:21","新北市新莊區中平路181號","121.444845","25.049075","6500500","新莊區"
"242037","566-BX","2017/08/18 20:09:23","新北市新莊區建安街9巷9號","121.429363333333","25.0267033333333","6500500","新莊區"
"242041","497-BY","2017/08/18 20:09:15","新北市新莊區壽山路55-7號","121.412355","25.03156","6500500","新莊區"
"242005","442-UM","2017/08/18 20:09:23","新北市新莊區化成路219號","121.465963333333","25.052515","6500500","新莊區"
"242050","440-UM","2017/08/18 20:09:07","新北市新莊區民安西路172巷1弄1號","121.425845","25.015955","6500500","新莊區"
"242032","415-TV","2017/08/18 20:09:22","新北市新莊區公園一路32號","121.443378333333","25.0353766666667","6500500","新莊區"
"242002","413-TV","2017/08/18 20:09:17","新北市新莊區中正路55-4號","121.46185","25.0396216666667","6500500","新莊區"
"242039","400-BY","2017/08/18 20:09:18","新北市新莊區龍安路507號","121.426238333333","25.0178733333333","6500500","新莊區"
"242060","362-BY","2017/08/18 20:09:18","新北市新莊區瓊林路瓊英巷4弄2號","121.443651666667","25.02741","6500500","新莊區"
"242058","353-BY","2017/08/18 20:09:14","新北市新莊區龍安路282號","121.422355","25.0190616666667","6500500","新莊區"
"242044","132-UY","2017/08/18 20:09:25","新北市新莊區萬壽路一段21巷17弄10號","121.411115","25.020175","6500500","新莊區"
"242034","133-UY","2017/08/18 20:09:25","新北市新莊區中正路318巷13號","121.446286666667","25.0357766666667","6500500","新莊區"
"242019","135-UY","2017/08/18 20:09:15","新北市新莊區民樂街66號","121.45803","25.042255","6500500","新莊區"
"242007","173-VK","2017/08/18 20:09:23","新北市新莊區思源路423號","121.459475","25.0525533333333","6500500","新莊區"
"242013","175-VK","2017/08/18 20:09:26","新北市新莊區幸福路678巷5號","121.450536666667","25.049715","6500500","新莊區"
"242056","176-VK","2017/08/18 20:09:23","新北市新莊區新莊路649巷15弄13號","121.445568333333","25.0315633333333","6500500","新莊區"
"242011","346-TH","2017/08/18 20:09:18","新北市新莊區中信街50號","121.449406666667","25.0509083333333","6500500","新莊區"
"242046","347-TH","2017/08/18 20:09:08","新北市新莊區裕民街85巷13號","121.419291666667","25.0234383333333","6500500","新莊區"
"242017","348-TH","2017/08/18 20:09:06","新北市新莊區中港路371號","121.451758333333","25.0464516666667","6500500","新莊區"
"242054","349-TH","2017/08/18 20:09:20","新北市新莊區西盛街387巷13號","121.428535","25.013135","6500500","新莊區"
"242009","351-TH","2017/08/18 20:09:23","新北市新莊區昌平街14號","121.454905","25.0527083333333","6500500","新莊區"
"238023","601-UM","2017/08/18 20:09:03","新北市樹林區東興街3號","121.409078333333","24.9802566666667","6500700","樹林區"
"238021","311-TH","2017/08/18 19:59:22","新北市樹林區佳園路三段113巷5號","121.38699","24.9503833333333","6500700","樹林區"
"221008","489-VK","2017/08/18 20:09:08","台北市內湖區康樂街167號","121.620018333333","25.07515","6501100","汐止區"
"221036","130-UY","2017/08/18 20:09:09","新北市汐止區福安街20巷1號","121.6626","25.0649766666667","6501100","汐止區"
"221015","131-UY","2017/08/18 20:09:15","新北市汐止區建成路25號","121.664231666667","25.0725483333333","6501100","汐止區"
"221012","276-VK","2017/08/18 13:23:13","新北市汐止區汐萬路一段256巷3號","121.653461666667","25.07462","6501100","汐止區"
"221031","277-VK","2017/08/18 20:09:26","新北市汐止區中興路214巷10號","121.631471666667","25.06654","6501100","汐止區"
"221012","278-VK","2017/08/18 20:09:14","新北市汐止區汐平路二段15號","121.695851666667","25.0642983333333","6501100","汐止區"
"221023","279-VK","2017/08/18 20:09:08","新北市汐止區明峰街298巷7弄2號","121.624928333333","25.06885","6501100","汐止區"
"221032","280-BY","2017/08/18 20:09:14","新北市汐止區弘道街17號","121.61726","25.0487183333333","6501100","汐止區"
"221027","281-BY","2017/08/18 20:09:10","新北市汐止區和平街91號","121.66103","25.0701316666667","6501100","汐止區"
"221038","297-VK","2017/08/18 20:09:15","新北市汐止區大同路三段62巷1號","121.667611666667","25.0770933333333","6501100","汐止區"
"221029","298-VK","2017/08/18 20:09:22","新北市汐止區樟樹一路119巷10弄1號","121.641235","25.0644933333333","6501100","汐止區"
"221021","299-VK","2017/08/18 20:09:15","新北市汐止區連興街142號","121.654006666667","25.0615016666667","6501100","汐止區"
"221035","622-UM","2017/08/18 20:09:20","新北市汐止區長江街67巷2弄1號","121.656716666667","25.0722083333333","6501100","汐止區"
"221025","623-UM","2017/08/18 20:09:12","新北市汐止區水源路二段32號","121.65481","25.05727","6501100","汐止區"
"221010","646-BX","2017/08/18 20:09:21","新北市汐止區連峰街225巷14號","121.644398333333","25.0809983333333","6501100","汐止區"
"221033","647-BX","2017/08/18 20:09:19","新北市汐止區東勢街201巷104號","121.633601666667","25.0429816666667","6501100","汐止區"
"221002","707-TV","2017/08/18 20:09:23","新北市汐止區工建路302號","121.634201666667","25.0603266666667","6501100","汐止區"
"221018","753-BX","2017/08/18 20:09:16","新北市汐止區茄福街35巷39號","121.673466666667","25.0661233333333","6501100","汐止區"
"220079","145-BY","2017/08/18 20:09:20","新北市五股區成洲五路38號","121.45367","25.1014866666667","6500100","板橋區"
"220080","200-UY","2017/08/18 20:09:25","新北市板橋區大觀路二段169巷21號","121.446353333333","24.999835","6500100","板橋區"
"220101","245-BX","2017/08/18 20:09:23","新北市板橋區莒光路165巷28號","121.474246666667","25.0246533333333","6500100","板橋區"
"220072","277-BY","2017/08/18 19:18:21","新北市板橋區金門街337巷9弄1號","121.430546666667","24.984605","6500100","板橋區"
"220071","283-VK","2017/08/18 20:09:22","新北市板橋區和平路174巷33號","121.465141666667","24.9944216666667","6500100","板橋區"
"220083","286-VK","2017/08/18 20:09:07","新北市板橋區僑中二街82號","121.446516666667","25.0096066666667","6500100","板橋區"
"220081","287-VK","2017/08/18 20:09:21","新北市板橋區大觀路一段29巷97弄1號","121.450768333333","25.0061866666667","6500100","板橋區"
"220090","288-VK","2017/08/18 20:09:08","新北市板橋區幸福路32巷59號","121.460296666667","25.0221666666667","6500100","板橋區"
"220061","293-UM","2017/08/18 20:09:17","新北市板橋區縣民大道二段200巷13號","121.470065","25.0173716666667","6500100","板橋區"
"220055","295-UM","2017/08/18 20:09:17","新北市板橋區仁愛路71號","121.460845","24.9998016666667","6500100","板橋區"
"220084","296-UM","2017/08/18 20:09:22","新北市板橋區滿平街84巷102號","121.426645","24.986635","6500100","板橋區"
"220092","307-R5","2017/08/18 20:09:23","新北市板橋區民權路99-1號","121.459678333333","25.0129833333333","6500100","板橋區"
"220098","317-R6","2017/08/18 20:09:12","新北市板橋區新海路72巷5弄7號","121.461846666667","25.022335","6500100","板橋區"
"220064","486-VK","2017/08/18 20:09:26","新北市板橋區漢生東路193巷19-4號","121.470805","25.012045","6500100","板橋區"
"220089","487-VK","2017/08/18 20:09:13","新北市板橋區互助街68號","121.461018333333","25.0266616666667","6500100","板橋區"
"220088","491-VK","2017/08/18 20:09:21","新北市板橋區民治街52巷1號","121.47942","25.0332566666667","6500100","板橋區"
"220103","561-BX","2017/08/18 20:09:03","新北市板橋區漢生西路197號","121.463235","25.0241883333333","6500100","板橋區"
"220093","689-BX","2017/08/18 20:09:20","新北市板橋區長江路一段148號","121.460861666667","25.030245","6500100","板橋區"
"220054","741-BX","2017/08/18 20:09:13","新北市板橋區忠孝路忠義巷9弄1-2號","121.465113333333","25.0045816666667","6500100","板橋區"
"220067","829-TW","2017/08/18 20:09:06","新北市板橋區中山路一段262號","121.471706666667","25.0146316666667","6500100","板橋區"
"220074","895-R6","2017/08/18 20:09:19","新北市板橋區文化路一段44號","121.45967","25.0119316666667","6500100","板橋區"
"220097","AAC-210","2017/08/18 20:09:22","新北市板橋區文化路一段221巷10-3號","121.463345","25.0177983333333","6500100","板橋區"
"220070","AAC-253","2017/08/18 20:09:21","新北市板橋區成都街69號","121.462341666667","25.00513","6500100","板橋區"
"249001","3G-OBU6","2017/08/18 15:00:33","桃園市楊梅區電研路100-24號","121.1661","24.95364","6502300","八里區"
