"lineid","car","time","location","longitude","latitude","cityid","cityname"
"234046","148-BY","2017/08/18 20:19:09","新北市永和區永元路118號","121.52271","25.0025816666667","6500400","永和區"
"234013","149-BY","2017/08/18 20:19:21","新北市永和區仁愛路284號","121.503086666667","25.0086016666667","6500400","永和區"
"234007","207-UY","2017/08/18 20:19:27","新北市永和區環河西路二段229巷3號","121.501343333333","25.0098683333333","6500400","永和區"
"234081","298-R6","2017/08/18 20:19:12","新北市永和區福和路19巷4號","121.524131666667","25.00777","6500400","永和區"
"234038","336-UY","2017/08/18 20:19:21","新北市永和區成功路一段43巷11號","121.527986666667","25.0044183333333","6500400","永和區"
"234064","337-UY","2017/08/18 20:19:24","新北市永和區得和路106號","121.518106666667","25.00013","6500400","永和區"
"234086","338-UY","2017/08/18 20:19:25","新北市永和區中正路657號","121.514841666667","25.010195","6500400","永和區"
"234054","553-UM","2017/08/18 20:19:13","新北市永和區光復街2巷2號","121.516588333333","25.0165616666667","6500400","永和區"
"234017","745-BX","2017/08/18 20:19:16","新北市永和區仁愛路68號","121.513165","25.0133","6500400","永和區"
"234061","AAD-866","2017/08/18 20:19:17","新北市中和區安平路222號","121.514008333333","25.0000416666667","6500400","永和區"
"234070","847-RS","2017/08/18 20:19:19","新北市永和區永安街33巷7號","121.518521666667","25.0071183333333","6500400","永和區"
"234042","862-TW","2017/08/18 20:19:07","新北市中和區中安街168號","121.510846666667","24.9999316666667","6500400","永和區"
"234050","863-TW","2017/08/18 20:19:05","新北市永和區新生路24巷5號","121.508738333333","25.0163683333333","6500400","永和區"
"249005","172-UM","2017/08/18 20:19:07","新北市八里區下罟子2-2號","121.388363333333","25.1417666666667","6502300","八里區"
"249001","173-UM","2017/08/18 20:19:11","新北市八里區中華路二段536-4號","121.399095","25.1450383333333","6502300","八里區"
"249004","303-UY","2017/08/18 20:19:14","新北市八里區中山路一段129巷19-1號","121.413968333333","25.15864","6502300","八里區"
"249002","305-UY","2017/08/18 20:19:09","新北市八里區龍米路一段360號","121.451516666667","25.1314433333333","6502300","八里區"
"249003","593-UM","2017/08/18 20:19:19","新北市八里區中山路二段447巷10號","121.396898333333","25.145265","6502300","八里區"
"248016","026-BX","2017/08/18 20:19:19","新北市五股區凌雲路一段158巷44號","121.447118333333","25.1038116666667","6501500","五股區"
"248012","247-BX","2017/08/18 20:19:21","新北市五股區六合街92號","121.431565","25.0908616666667","6501500","五股區"
"248004","677-BX","2017/08/18 20:19:19","新北市五股區中興路四段42號","121.438488333333","25.0829183333333","6501500","五股區"
"248002","678-BX","2017/08/18 20:19:17","新北市五股區成泰路三段165號","121.445258333333","25.0918283333333","6501500","五股區"
"234023","9380-KE","2017/08/18 20:19:23","新北市永和區永和路二段310號","121.516205","25.0160366666667","6500400","永和區"
"234077","969-R7","2017/08/18 20:19:12","新北市永和區中正路18號","121.512615","24.9938983333333","6500400","永和區"
"234074","AAC-211","2017/08/18 20:19:08","新北市永和區豫溪街189巷1號","121.522606666667","25.0102483333333","6500400","永和區"
"234067","AAC-212","2017/08/18 20:19:22","新北市永和區保平路214巷3弄9號","121.508933333333","25.00602","6500400","永和區"
"234003","AAC-295","2017/08/18 20:19:15","新北市永和區大新街12號","121.514913333333","25.0084416666667","6500400","永和區"
"243013","AAD-798","2017/08/18 20:19:15","新北市泰山區新民路14巷3號","121.426408333333","25.0445683333333","6501600","泰山區"
"243009","297-R6","2017/08/18 20:19:19","新北市泰山區福泰街8號","121.432596666667","25.0601766666667","6501600","泰山區"
"243015","380-SR","2017/08/18 20:19:07","新北市泰山區仁德路52號","121.434088333333","25.0568133333333","6501600","泰山區"
"243014","421-VK","2017/08/18 20:19:18","新北市泰山區泰林路二段455號","121.425756666667","25.0640383333333","6501600","泰山區"
"243010","548-UM","2017/08/18 20:19:23","新北市泰山區明志路二段257號","121.427046666667","25.0476616666667","6501600","泰山區"
"243011","549-UM","2017/08/18 20:19:22","新北市泰山區中山路二段661號","121.429446666667","25.0399733333333","6501600","泰山區"
"243012","646-TV","2017/08/18 20:19:16","新北市泰山區楓江路48號","121.435383333333","25.06251","6501600","泰山區"
"243016","680-BX","2017/08/18 20:19:22","新北市泰山區明志路二段220號","121.427266666667","25.048595","6501600","泰山區"
"222003","436-BY","2017/08/18 20:19:21","新北市深坑區文化街43號","121.617658333333","25.001895","6501800","深坑區"
"222002","659-BX","2017/08/18 20:19:17","新北市深坑區萬福路75巷40號","121.598536666667","25.009945","6501800","深坑區"
"222001","696-SL","2017/08/18 20:19:21","新北市深坑區北深路三段213號","121.600306666667","25.0040816666667","6501800","深坑區"
"231041","002-UM","2017/08/18 20:19:13","新北市新店區民權路42號","121.540381666667","24.9829116666667","6500600","新店區"
"231059","046-UY","2017/08/18 20:19:13","新北市新店區安德街164號","121.508505","24.9591466666667","6500600","新店區"
"231061","047-UY","2017/08/18 20:19:10","新北市新店區安興路33-1號","121.515788333333","24.9704066666667","6500600","新店區"
"231060","106-UY","2017/08/18 20:19:10","新北市新店區錦秀路1-3號","121.478973333333","24.9454466666667","6500600","新店區"
"231051","107-UY","2017/08/18 20:19:20","新北市新店區中央六街28號","121.529185","24.975005","6500600","新店區"
"231048","108-UY","2017/08/18 20:19:12","新北市新店區中興路三段254號","121.542818333333","24.98412","6500600","新店區"
"231064","110-UY","2017/08/18 20:19:17","新北市新店區安德街60巷35號","121.511143333333","24.9635583333333","6500600","新店區"
"231053","187-VK","2017/08/18 20:19:12","新北市新店區新烏路三段34號","121.553675","24.9050133333333","6500600","新店區"
"231057","256-BX","2017/08/18 20:19:27","新北市新店區花園五路二段27號","121.554676666667","24.93458","6500600","新店區"
"231063","268-BY","2017/08/18 20:19:11","新北市新店區安康路二段341巷3號","121.497371666667","24.9554566666667","6500600","新店區"
"231050","AAD-862","2017/08/18 20:19:14","新北市新店區北宜路一段30號","121.538215","24.9568033333333","6500600","新店區"
"231058","3712-VJ","2017/08/18 20:19:13","新北市新店區薏仁坑路6-1號","121.499766666667","24.9585683333333","6500600","新店區"
"231055","3713-VJ","2017/08/18 20:19:09","新北市新店區新明街21號","121.540783333333","24.9684566666667","6500600","新店區"
"231056","4716-K9","2017/08/18 20:19:14","新北市新店區中正路275巷5號","121.53752","24.9740133333333","6500600","新店區"
"231067","4772-VM","2017/08/18 20:19:14","新北市新店區溪洲路8巷120-1號","121.533051666667","24.9631966666667","6500600","新店區"
"231065","512-UM","2017/08/18 20:19:13","新北市新店區安祥路104巷6弄24號","121.482385","24.9622866666667","6500600","新店區"
"231054","513-UM","2017/08/18 20:19:16","新北市新店區檳榔路109號","121.544423333333","24.9616283333333","6500600","新店區"
"231042","616-UM","2017/08/18 20:19:23","新北市新店區中興路二段233號","121.547615","24.9750216666667","6500600","新店區"
"231045","617-UM","2017/08/18 20:19:21","新北市新店區新坡一街10號","121.548386666667","24.9618533333333","6500600","新店區"
"231040","619-UM","2017/08/18 20:19:17","新北市新店區中正路110號","121.542943333333","24.9706383333333","6500600","新店區"
"231068","718-UY","2017/08/18 20:19:16","新北市新店區寶安街18號","121.542118333333","24.98189","6500600","新店區"
"231049","719-UM","2017/08/18 20:19:10","新北市新店區北新路二段2號","121.54256","24.9707833333333","6500600","新店區"
"231062","720-UM","2017/08/18 20:19:18","新北市新店區安康路二段393號","121.494303333333","24.9539066666667","6500600","新店區"
"231044","897-TW","2017/08/18 20:19:12","新北市新店區北新路三段196號","121.54146","24.983325","6500600","新店區"
"231043","899-TW","2017/08/18 20:19:20","新北市新店區民族路66號","121.539478333333","24.9783866666667","6500600","新店區"
"231066","AKT-0513","2017/08/18 20:19:08","新北市新店區安興路112號","121.514658333333","24.9775466666667","6500600","新店區"
"241011","013-R5","2017/08/18 20:19:10","新北市三重區龍門路107號","121.497586666667","25.0727016666667","6500200","三重區"
"241028","022-UY","2017/08/18 20:19:20","新北市三重區大同南路118號","121.49633","25.058505","6500200","三重區"
"241009","060-VK","2017/08/18 20:19:09","新北市三重區三和路四段382巷92弄2號","121.479841666667","25.0780933333333","6500200","三重區"
"241031","061-VK","2017/08/18 20:19:08","新北市三重區三寧街15號","121.489503333333","25.05982","6500200","三重區"
"241015","062-VK","2017/08/18 20:19:13","新北市三重區重新路一段128號","121.5002","25.06296","6500200","三重區"
"241017","063-VK","2017/08/18 20:19:16","新北市三重區中正北路105號","121.4895","25.0634233333333","6500200","三重區"
"241024","065-VK","2017/08/18 20:19:22","新北市三重區忠孝路三段12號","121.481735","25.067405","6500200","三重區"
"241026","066-VK","2017/08/18 20:19:13","新北市三重區重新路一段12-1號","121.503893333333","25.0638766666667","6500200","三重區"
"241002","090-VK","2017/08/18 20:19:14","新北市三重區仁義街101巷36號","121.49897","25.0806816666667","6500200","三重區"
"241003","091-VK","2017/08/18 20:19:23","新北市三重區五華街103號","121.491696666667","25.0838833333333","6500200","三重區"
"241005","262-UM","2017/08/18 20:19:10","新北市三重區仁愛街508號","121.487926666667","25.0820616666667","6500200","三重區"
"241008","265-UM","2017/08/18 20:19:11","新北市三重區永福街160號","121.480518333333","25.0744566666667","6500200","三重區"
"241016","266-UM","2017/08/18 20:19:09","新北市三重區大同北路97-3號","121.494341666667","25.0635183333333","6500200","三重區"
"241022","267-UM","2017/08/18 20:19:16","新北市三重區新北大道一段6號","121.488843333333","25.0615916666667","6500200","三重區"
"241018","268-UM","2017/08/18 20:19:25","新北市三重區雙園街97號","121.493813333333","25.0672816666667","6500200","三重區"
"241032","269-UM","2017/08/18 20:19:20","新北市三重區捷運路19巷8弄20號","121.484176666667","25.0570383333333","6500200","三重區"
"241013","270-UM","2017/08/18 20:19:06","新北市三重區三和路三段167巷1號","121.492058333333","25.0740833333333","6500200","三重區"
"241007","398-BY","2017/08/18 20:19:19","新北市三重區溪尾街108巷58號","121.487183333333","25.0780783333333","6500200","三重區"
"241020","412-TH","2017/08/18 20:19:08","新北市三重區三和路三段168號","121.492656666667","25.0731283333333","6500200","三重區"
"241035","462-BY","2017/08/18 20:19:22","新北市三重區正義北路33巷55號","121.499148333333","25.0639266666667","6500200","三重區"
"241004","475-VK","2017/08/18 20:19:18","新北市三重區溪尾街165巷61號","121.490971666667","25.0807733333333","6500200","三重區"
"241019","478-VK","2017/08/18 20:19:11","新北市三重區大智街194號","121.49053","25.0710866666667","6500200","三重區"
"241030","480-VK","2017/08/18 20:19:20","新北市三重區集美街75巷45號","121.487566666667","25.052485","6500200","三重區"
"241014","543-UM","2017/08/18 20:19:09","新北市三重區長榮路77號","121.502748333333","25.0690533333333","6500200","三重區"
"241023","545-UM","2017/08/18 20:19:11","新北市三重區忠孝路三段84巷1號","121.480388333333","25.0648616666667","6500200","三重區"
"241001","547-UM","2017/08/18 20:19:12","新北市三重區自強路四段3巷29號","121.489936666667","25.07636","6500200","三重區"
"241025","887-TS","2017/08/18 20:19:26","新北市三重區頂崁街210巷27號","121.475773333333","25.068185","6500200","三重區"
"241012","941-UM","2017/08/18 20:19:14","新北市三重區河邊北街262號","121.501663333333","25.0764583333333","6500200","三重區"
"241029","942-UM","2017/08/18 20:19:05","新北市三重區光明路116號","121.492701666667","25.0560616666667","6500200","三重區"
"241033","AAC-255","2017/08/18 20:19:04","新北市三重區五谷王北街42巷2號","121.475643333333","25.04934","6500200","三重區"
"235066","003-UY","2017/08/18 20:19:15","新北市中和區南工路102號","121.507366666667","25.003325","6500300","中和區"
"235056","096-UM","2017/08/18 20:19:20","新北市中和區中正路899號","121.484105","25.0049466666667","6500300","中和區"
"235039","097-UM","2017/08/18 20:19:08","新北市中和區立人街67號","121.520055","24.9942866666667","6500300","中和區"
"235065","098-UM","2017/08/18 20:19:16","新北市中和區永和路69-6號","121.496451666667","25.006055","6500300","中和區"
"235040","150-BY","2017/08/18 20:19:10","新北市中和區安平路75號","121.5103","24.99584","6500300","中和區"
"235058","151-BY","2017/08/18 20:19:18","新北市五股區新五路二段372巷20號","121.447765","25.086205","6500300","中和區"
"235044","293-VK","2017/08/18 20:19:15","新北市中和區中興街111號","121.499891666667","24.9922083333333","6500300","中和區"
"235050","4979-A6","2017/08/18 20:19:16","新北市中和區景平路454號","121.50604","24.993545","6500300","中和區"
"235069","4980-A6","2017/08/18 20:19:22","新北市中和區中正路440號","121.491078333333","24.9942833333333","6500300","中和區"
"235070","558-UM","2017/08/18 20:18:27","新北市中和區錦和路212號","121.490375","24.9945633333333","6500300","中和區"
"235037","AAC-213","2017/08/18 20:19:09","新北市中和區自立路15巷15號","121.523023333333","24.99604","6500300","中和區"
"235059","AAC-215","2017/08/18 20:19:26","新北市中和區員山路30-2號","121.483205","24.987855","6500300","中和區"
"220065","072-UY","2017/08/18 20:19:08","新北市三重區重新路五段283號","121.479575","25.0490666666667","6500100","板橋區"
"220069","AAD-861","2017/08/18 20:19:13","新北市板橋區大明街23號","121.45865","25.0025316666667","6500100","板橋區"
"220102","120-SR","2017/08/18 20:19:05","新北市板橋區板新路238號","121.467798333333","25.0162316666667","6500100","板橋區"
"247020","893-R6","2017/08/18 20:19:16","新北市蘆洲區水湳街395號","121.469333333333","25.0944566666667","6501400","蘆洲區"
"247010","546-UM","2017/08/18 20:19:21","新北市蘆洲區信義路188巷18弄1號","121.480501666667","25.0845666666667","6501400","蘆洲區"
"247018","500-BY","2017/08/18 20:19:04","新北市蘆洲區民族路255巷8號","121.476411666667","25.089845","6501400","蘆洲區"
"247008","339-TH","2017/08/18 20:19:26","新北市蘆洲區集賢路209號","121.483453333333","25.08724","6501400","蘆洲區"
"247024","337-TH","2017/08/18 20:19:14","新北市蘆洲區長興路152號","121.461848333333","25.0855616666667","6501400","蘆洲區"
"247002","336-TH","2017/08/18 20:19:19","新北市蘆洲區長安街335號","121.457253333333","25.0868366666667","6501400","蘆洲區"
"247014","057-VK","2017/08/18 20:19:08","新北市蘆洲區成功路107巷9號","121.472335","25.0812916666667","6501400","蘆洲區"
"247004","056-VK","2017/08/18 20:19:09","新北市蘆洲區長安街297號","121.458063333333","25.0847983333333","6501400","蘆洲區"
"247006","053-VK","2017/08/18 20:19:08","新北市蘆洲區九芎街167巷3號","121.465101666667","25.0785166666667","6501400","蘆洲區"
"247012","007-UY","2017/08/18 20:19:14","新北市蘆洲區民族路193號","121.478516666667","25.0889966666667","6501400","蘆洲區"
"247022","002-UY","2017/08/18 20:19:23","新北市蘆洲區三民路263號","121.468241666667","25.0893466666667","6501400","蘆洲區"
"247016","001-UY","2017/08/18 20:19:24","新北市蘆洲區光華路109號","121.467048333333","25.0824416666667","6501400","蘆洲區"
"224011","420-VK","2017/08/18 19:48:53","新北市瑞芳區崙頂路1-6號","121.847271666667","25.1045366666667","6501200","瑞芳區"
"251005","010-UM","2017/08/18 20:19:17","新北市淡水區學府路96號","121.449415","25.17101","6501000","淡水區"
"251002","012-UM","2017/08/18 20:19:13","新北市淡水區中正路14巷2號","121.439265","25.1706266666667","6501000","淡水區"
"251013","180-VK","2017/08/18 20:17:05","新北市淡水區奎柔山路752巷31號","121.474486666667","25.2055433333333","6501000","淡水區"
"251008","181-VK","2017/08/18 20:19:19","新北市淡水區淡海路180巷13號","121.421146666667","25.184615","6501000","淡水區"
"251015","182-VK","2017/08/18 20:19:04","新北市淡水區淡金路三段436號","121.450565","25.212995","6501000","淡水區"
"251010","413-VK","2017/08/18 20:19:12","新北市淡水區新民街一段134號","121.427561666667","25.1889366666667","6501000","淡水區"
"251012","441-VK","2017/08/18 20:19:07","新北市淡水區淡金路三段352號","121.449241666667","25.2088483333333","6501000","淡水區"
"251001","559-UM","2017/08/18 20:19:06","新北市淡水區新市二路四段265號","121.44573","25.1924666666667","6501000","淡水區"
"251006","561-UM","2017/08/18 20:19:07","新北市淡水區北新路228號","121.452346666667","25.1803816666667","6501000","淡水區"
"251009","575-R6","2017/08/18 20:19:12","新北市淡水區中正路38-1號","121.44371","25.1693033333333","6501000","淡水區"
"251003","673-BX","2017/08/18 20:19:15","新北市淡水區中山北路一段229號","121.444446666667","25.1794566666667","6501000","淡水區"
"207004","225-TW","2017/08/18 20:19:13","新北市萬里區北基里仁四街2號","121.682143333333","25.17536","6502800","萬里區"
"252002","178-VK","2017/08/18 20:19:11","新北市三芝區中正路一段3號","121.502613333333","25.25894","6502100","三芝區"
"252001","702-TV","2017/08/18 20:19:20","新北市三芝區中山路一段35號","121.50062","25.2579616666667","6502100","三芝區"
"237006","5529-G3","2017/08/18 20:19:17","新北市三峽區中園街86巷8號","121.367355","24.9250616666667","6500900","三峽區"
"237005","AKY-6261","2017/08/18 20:19:18","新北市三峽區三樹路98巷93號","121.381981666667","24.9399166666667","6500900","三峽區"
"236072","105-UM","2017/08/18 20:19:24","新北市土城區中山路99號","121.433086666667","24.9711083333333","6501300","土城區"
"236079","166-UM","2017/08/18 20:19:17","新北市土城區德安街4巷1號","121.422106666667","24.96477","6501300","土城區"
"236031","253-BX","2017/08/18 20:19:24","新北市土城區中央路一段45巷22弄1號","121.449106666667","24.9899683333333","6501300","土城區"
"236027","269-VK","2017/08/18 20:19:20","新北市土城區裕生路100巷9號","121.446141666667","24.9851383333333","6501300","土城區"
"236015","270-VK","2017/08/18 20:19:14","新北市土城區廣明街90巷18號","121.455423333333","24.9944816666667","6501300","土城區"
"236039","271-VK","2017/08/18 20:19:18","新北市土城區明德路一段68號","121.465561666667","24.983255","6501300","土城區"
"236022","401-BY","2017/08/18 20:19:25","新北市土城區金城路三段243號","121.47149","24.9897666666667","6501300","土城區"
"236059","912-UM","2017/08/18 20:19:19","新北市土城區中央路三段130號","121.43475","24.9658816666667","6501300","土城區"
"236055","AAC-216","2017/08/18 20:19:22","新北市土城區中華路二段56號","121.43903","24.9773966666667","6501300","土城區"
"242021","AAC-296","2017/08/18 20:19:23","新北市新莊區新泰路165號","121.447635","25.03718","6500500","新莊區"
"242029","986-R7","2017/08/18 20:19:10","新北市新莊區中原路231號","121.449771666667","25.0542783333333","6500500","新莊區"
"242023","705-TV","2017/08/18 20:19:17","新北市新莊區化成路383號","121.465306666667","25.0582716666667","6500500","新莊區"
"242025","615-BX","2017/08/18 20:19:14","新北市新莊區五工二路70巷5號","121.46047","25.0661416666667","6500500","新莊區"
"242027","612-BX","2017/08/18 20:19:21","新北市新莊區幸福路587號","121.453691666667","25.0492516666667","6500500","新莊區"
"242037","566-BX","2017/08/18 20:19:16","新北市新莊區建安街76巷1弄4號","121.42633","25.0245633333333","6500500","新莊區"
"242041","497-BY","2017/08/18 20:19:15","新北市新莊區天祥街117號","121.41459","25.0297433333333","6500500","新莊區"
"242005","442-UM","2017/08/18 20:19:23","新北市新莊區化成路554巷14號","121.467136666667","25.0538033333333","6500500","新莊區"
"242050","440-UM","2017/08/18 20:19:07","新北市新莊區民安西路240號","121.42599","25.01412","6500500","新莊區"
"242032","415-TV","2017/08/18 20:19:08","新北市新莊區中正路418號","121.441058333333","25.0337783333333","6500500","新莊區"
"242002","413-TV","2017/08/18 20:19:17","新北市新莊區化成路33號","121.465206666667","25.043985","6500500","新莊區"
"242039","400-BY","2017/08/18 20:19:07","新北市新莊區成功街54號","121.424591666667","25.019775","6500500","新莊區"
"242060","362-BY","2017/08/18 20:19:18","新北市新莊區新樹路241號","121.435285","25.0222583333333","6500500","新莊區"
"242058","353-BY","2017/08/18 20:19:20","新北市新莊區四維路209號","121.421743333333","25.0201566666667","6500500","新莊區"
"242044","132-UY","2017/08/18 20:19:24","新北市新莊區中正路895號","121.41239","25.0220883333333","6500500","新莊區"
"242034","133-UY","2017/08/18 20:19:09","新北市新莊區建中街90巷3弄11號","121.44623","25.037055","6500500","新莊區"
"242019","135-UY","2017/08/18 20:19:15","新北市新莊區復興路二段186號","121.459063333333","25.044435","6500500","新莊區"
"242007","173-VK","2017/08/18 20:19:12","新北市新莊區福壽街94巷16號","121.45894","25.0499883333333","6500500","新莊區"
"242013","175-VK","2017/08/18 20:19:06","新北市新莊區中和街186巷23號","121.44847","25.049875","6500500","新莊區"
"242056","176-VK","2017/08/18 20:19:04","新北市新莊區新莊路649巷15弄1號","121.444896666667","25.031505","6500500","新莊區"
"242011","346-TH","2017/08/18 20:19:18","新北市新莊區中信街23巷1號","121.45109","25.0506033333333","6500500","新莊區"
"242046","347-TH","2017/08/18 20:19:08","新北市新莊區中正路新生巷55號","121.417458333333","25.0228566666667","6500500","新莊區"
"242017","348-TH","2017/08/18 20:19:09","新北市新莊區中和街60巷5號","121.448206666667","25.0449133333333","6500500","新莊區"
"242054","349-TH","2017/08/18 20:19:12","新北市新莊區民安西路261巷18號","121.426841666667","25.01299","6500500","新莊區"
"242009","351-TH","2017/08/18 20:19:23","新北市新莊區昌盛街81巷4弄2號","121.455495","25.0505433333333","6500500","新莊區"
"238023","601-UM","2017/08/18 20:19:23","新北市樹林區中山路三段214號","121.379783333333","24.9676833333333","6500700","樹林區"
"238021","311-TH","2017/08/18 19:59:22","新北市樹林區佳園路三段113巷5號","121.38699","24.9503833333333","6500700","樹林區"
"221008","489-VK","2017/08/18 20:19:08","新北市汐止區康寧街93號","121.620388333333","25.0665433333333","6501100","汐止區"
"221036","130-UY","2017/08/18 20:19:12","新北市汐止區福安街37巷12號","121.663366666667","25.0652233333333","6501100","汐止區"
"221015","131-UY","2017/08/18 20:19:15","新北市汐止區建成路142巷19弄8號","121.662138333333","25.0739633333333","6501100","汐止區"
"221012","276-VK","2017/08/18 13:23:13","新北市汐止區汐萬路一段256巷3號","121.653461666667","25.07462","6501100","汐止區"
"221031","277-VK","2017/08/18 20:19:26","新北市汐止區中興路150巷13號","121.632995","25.0650133333333","6501100","汐止區"
"221012","278-VK","2017/08/18 20:19:14","新北市汐止區保新街283號","121.69262","25.0683466666667","6501100","汐止區"
"221023","279-VK","2017/08/18 20:19:08","新北市汐止區湖前街110巷2弄24號","121.632688333333","25.0720866666667","6501100","汐止區"
"221032","280-BY","2017/08/18 20:19:14","新北市汐止區民權街二段44號","121.619395","25.0492816666667","6501100","汐止區"
"221027","281-BY","2017/08/18 20:19:10","新北市汐止區大同路二段542號","121.661518333333","25.0687716666667","6501100","汐止區"
"221038","297-VK","2017/08/18 20:19:08","新北市汐止區大同路三段66-3號","121.668026666667","25.0772116666667","6501100","汐止區"
"221029","298-VK","2017/08/18 20:19:22","新北市汐止區工建路50號","121.641115","25.0630433333333","6501100","汐止區"
"221021","299-VK","2017/08/18 20:19:15","新北市汐止區水源路一段265號","121.654213333333","25.0593433333333","6501100","汐止區"
"221035","622-UM","2017/08/18 20:19:20","新北市汐止區長江街101-5號","121.658686666667","25.0731866666667","6501100","汐止區"
"221025","623-UM","2017/08/18 20:19:12","新北市汐止區水源路二段72巷6弄1號","121.655551666667","25.0558866666667","6501100","汐止區"
"221010","646-BX","2017/08/18 20:19:21","新北市汐止區八連路一段338號","121.640223333333","25.0878866666667","6501100","汐止區"
"221033","647-BX","2017/08/18 20:19:19","新北市汐止區東勢街201巷80號","121.634236666667","25.0433533333333","6501100","汐止區"
"221002","707-TV","2017/08/18 20:19:03","新北市汐止區福德三路67號","121.636788333333","25.0693066666667","6501100","汐止區"
"221018","753-BX","2017/08/18 20:19:16","新北市汐止區茄安路168號","121.675676666667","25.068955","6501100","汐止區"
"220079","145-BY","2017/08/18 20:19:00","新北市八里區中山路三段386號","121.368418333333","25.1362616666667","6500100","板橋區"
"220080","200-UY","2017/08/18 20:19:05","新北市板橋區大觀路二段153巷44弄53號","121.44603","24.9990333333333","6500100","板橋區"
"220101","245-BX","2017/08/18 20:19:23","新北市板橋區雙十路一段44巷36號","121.477356666667","25.0249816666667","6500100","板橋區"
"220072","277-BY","2017/08/18 19:18:21","新北市板橋區金門街337巷9弄1號","121.430546666667","24.984605","6500100","板橋區"
"220083","286-VK","2017/08/18 20:19:07","新北市板橋區僑中二街92巷23號","121.44504","25.0090033333333","6500100","板橋區"
"220081","287-VK","2017/08/18 20:19:20","新北市板橋區大觀路一段29巷97弄1號","121.450768333333","25.0061866666667","6500100","板橋區"
"220061","293-UM","2017/08/18 20:19:17","新北市板橋區中山路一段84號","121.461883333333","25.0100816666667","6500100","板橋區"
"220055","295-UM","2017/08/18 20:19:17","新北市板橋區仁愛路34號","121.459013333333","24.99931","6500100","板橋區"
"220089","487-VK","2017/08/18 20:19:13","新北市板橋區四維路161號","121.464776666667","25.0258366666667","6500100","板橋區"
"220103","561-BX","2017/08/18 20:19:23","新北市板橋區漢生西路29號","121.463165","25.01833","6500100","板橋區"
"220074","895-R6","2017/08/18 20:19:21","新北市板橋區明德街2-2號","121.459775","25.0099683333333","6500100","板橋區"
"220097","AAC-210","2017/08/18 20:19:22","新北市板橋區國光路200號","121.461718333333","25.01844","6500100","板橋區"
"220070","AAC-253","2017/08/18 20:19:21","新北市板橋區德興街32號","121.453441666667","24.9938583333333","6500100","板橋區"
"249001","3G-OBU6","2017/08/18 15:00:33","桃園市楊梅區電研路100-24號","121.1661","24.95364","6502300","八里區"
