"lineid","car","time","location","longitude","latitude","cityid","cityname"
"234064","337-UY","2017/08/18 20:49:04","新北市永和區福和路1號","121.526575","25.0100116666667","6500400","永和區"
"234067","AAC-212","2017/08/18 20:49:13","新北市中和區光環路二段27號","121.488255","25.0121783333333","6500400","永和區"
"243011","549-UM","2017/08/18 20:49:02","新北市泰山區泰林路三段745巷145號","121.405516666667","25.067685","6501600","泰山區"
"222003","436-BY","2017/08/18 20:49:21","新北市深坑區北深路二段48號","121.619461666667","25.0042366666667","6501800","深坑區"
"222002","659-BX","2017/08/18 20:49:17","新北市深坑區北深路三段93巷71號","121.603478333333","25.0010783333333","6501800","深坑區"
"222001","696-SL","2017/08/18 20:49:21","新北市深坑區北深路三段61號","121.607161666667","25.001445","6501800","深坑區"
"231059","046-UY","2017/08/18 20:49:19","新北市新店區僑信路126巷22號","121.499595","24.94561","6500600","新店區"
"231061","047-UY","2017/08/18 20:49:10","新北市新店區新和街93巷12號","121.52068","24.986755","6500600","新店區"
"231060","106-UY","2017/08/18 20:49:10","新北市新店區安康路三段742號","121.473671666667","24.9420683333333","6500600","新店區"
"231051","107-UY","2017/08/18 20:49:20","新北市新店區中央路13號","121.533326666667","24.9784066666667","6500600","新店區"
"231048","108-UY","2017/08/18 20:49:12","新北市新店區寶元路一段109號","121.545748333333","24.9831316666667","6500600","新店區"
"231064","110-UY","2017/08/18 20:48:57","新北市新店區安興路141號","121.516791666667","24.97963","6500600","新店區"
"231053","187-VK","2017/08/18 20:49:12","新北市新店區新烏路二段9號","121.54435","24.9293266666667","6500600","新店區"
"231057","256-BX","2017/08/18 20:49:20","新北市新店區金興路39號","121.552025","24.9320233333333","6500600","新店區"
"231063","268-BY","2017/08/18 20:49:11","新北市新店區如意街11-1號","121.495051666667","24.948325","6500600","新店區"
"231050","AAD-862","2017/08/18 20:49:14","新北市新店區中正路247巷3號","121.538883333333","24.9729416666667","6500600","新店區"
"231058","3712-VJ","2017/08/18 20:49:13","新北市新店區平等街27號","121.53667","24.973625","6500600","新店區"
"231065","512-UM","2017/08/18 20:49:13","新北市新店區安祥路69巷17號","121.481916666667","24.9613283333333","6500600","新店區"
"231054","513-UM","2017/08/18 20:49:16","新北市新店區北新路一段126巷21號","121.543055","24.9695966666667","6500600","新店區"
"231042","616-UM","2017/08/18 20:49:23","新北市新店區寶高路120巷1號","121.554566666667","24.9761033333333","6500600","新店區"
"231040","619-UM","2017/08/18 20:49:17","新北市新店區中正路257號","121.53885","24.9735633333333","6500600","新店區"
"231068","718-UY","2017/08/18 20:49:16","新北市新店區寶元路二段16巷1號","121.546085","24.982325","6500600","新店區"
"231049","719-UM","2017/08/18 20:49:19","新北市新店區永業路81巷1弄4號","121.529853333333","24.9496166666667","6500600","新店區"
"231062","720-UM","2017/08/18 20:49:18","新北市新店區和成街16巷31號","121.488763333333","24.94686","6500600","新店區"
"231044","897-TW","2017/08/18 20:49:12","新北市新店區建國路145號","121.53889","24.9787066666667","6500600","新店區"
"231043","899-TW","2017/08/18 20:49:20","新北市新店區建國路29號","121.540221666667","24.9741166666667","6500600","新店區"
"231066","AKT-0513","2017/08/18 20:49:08","新北市新店區安興路112號","121.514648333333","24.9775683333333","6500600","新店區"
"241011","013-R5","2017/08/18 20:49:10","新北市三重區秀江街119號","121.499725","25.0721616666667","6500200","三重區"
"241028","022-UY","2017/08/18 20:49:20","新北市三重區中正南路41巷1號","121.493825","25.059875","6500200","三重區"
"241009","060-VK","2017/08/18 20:49:09","新北市三重區三和路四段388-2號","121.482058333333","25.0791566666667","6500200","三重區"
"241031","061-VK","2017/08/18 20:49:08","新北市三重區重陽路一段113巷3號","121.487481666667","25.0597516666667","6500200","三重區"
"241015","062-VK","2017/08/18 20:49:13","新北市三重區三和路二段146號","121.499545","25.06833","6500200","三重區"
"241017","063-VK","2017/08/18 20:49:16","新北市三重區民生街58號","121.491468333333","25.0666433333333","6500200","三重區"
"241024","065-VK","2017/08/18 20:49:22","新北市三重區大勇街51號","121.481303333333","25.0718933333333","6500200","三重區"
"241002","090-VK","2017/08/18 20:49:14","新北市三重區仁義街157巷79號","121.49882","25.08188","6500200","三重區"
"241006","156-TC","2017/08/18 20:49:23","新北市三重區車路頭街135-1號","121.484271666667","25.0761733333333","6500200","三重區"
"241005","262-UM","2017/08/18 20:49:10","新北市三重區五華街141巷15號","121.491596666667","25.0850933333333","6500200","三重區"
"241008","265-UM","2017/08/18 20:49:10","新北市三重區永福街72巷11號","121.47938","25.0766966666667","6500200","三重區"
"241016","266-UM","2017/08/18 20:49:18","新北市三重區自強路一段91號","121.495981666667","25.06632","6500200","三重區"
"241022","267-UM","2017/08/18 20:49:16","新北市三重區中正北路20巷12號","121.48796","25.0624816666667","6500200","三重區"
"241018","268-UM","2017/08/18 20:49:08","新北市三重區正義北路332號","121.494623333333","25.0707166666667","6500200","三重區"
"241032","269-UM","2017/08/18 20:49:20","新北市三重區重陽路一段120巷46號","121.485088333333","25.06013","6500200","三重區"
"241013","270-UM","2017/08/18 20:49:06","新北市三重區仁賢街6號","121.495693333333","25.0747966666667","6500200","三重區"
"241007","398-BY","2017/08/18 20:49:18","新北市三重區三和路四段143-1號","121.484461666667","25.07826","6500200","三重區"
"241020","412-TH","2017/08/18 20:49:08","新北市三重區忠孝路一段101號","121.489553333333","25.0721583333333","6500200","三重區"
"241035","462-BY","2017/08/18 20:49:22","新北市三重區文化北路129號","121.497748333333","25.068875","6500200","三重區"
"241004","475-VK","2017/08/18 20:49:18","新北市三重區分子尾街19號","121.489513333333","25.0810233333333","6500200","三重區"
"241019","478-VK","2017/08/18 20:49:11","新北市三重區三張街49號","121.491266666667","25.0711216666667","6500200","三重區"
"241030","480-VK","2017/08/18 20:49:20","新北市三重區環河南路221巷10號","121.491988333333","25.0522016666667","6500200","三重區"
"241014","543-UM","2017/08/18 20:49:09","新北市三重區長壽街120巷60號","121.501708333333","25.07029","6500200","三重區"
"241023","545-UM","2017/08/18 20:49:11","新北市三重區重陽路二段8號","121.486631666667","25.0618566666667","6500200","三重區"
"241001","547-UM","2017/08/18 20:49:12","新北市三重區自強路三段76巷9號","121.486463333333","25.0741966666667","6500200","三重區"
"241025","887-TS","2017/08/18 20:49:06","新北市三重區貴陽街14號","121.484245","25.06174","6500200","三重區"
"241012","941-UM","2017/08/18 20:49:14","新北市三重區龍門路274巷45號","121.50119","25.0755066666667","6500200","三重區"
"241029","942-UM","2017/08/18 20:49:26","新北市三重區集美街173號","121.491225","25.0538233333333","6500200","三重區"
"241033","AAC-255","2017/08/18 20:49:24","新北市三重區光復路二段1號","121.472335","25.0534016666667","6500200","三重區"
"235056","096-UM","2017/08/18 20:49:20","新北市林口區汕頭32號","121.366468333333","25.1349466666667","6500300","中和區"
"235040","150-BY","2017/08/18 20:49:09","新北市新店區安康路二段382-2號","121.500426666667","24.95728","6500300","中和區"
"235058","151-BY","2017/08/18 20:49:18","新北市八里區商港路12號","121.39671","25.1444283333333","6500300","中和區"
"235069","4980-A6","2017/08/18 20:49:22","新北市中和區連城路523巷13弄28號","121.482416666667","24.993675","6500300","中和區"
"235026","800-TS","2017/08/18 20:30:01","新北市中和區員山路36巷16-3號","121.484815","24.9916316666667","6500300","中和區"
"220065","072-UY","2017/08/18 20:49:08","新北市林口區太平里180號","121.366691666667","25.133965","6500100","板橋區"
"220069","AAD-861","2017/08/18 20:49:05","新北市五股區新五路二段372巷20號","121.44792","25.086025","6500100","板橋區"
"247020","893-R6","2017/08/18 20:49:16","新北市蘆洲區仁愛街64號","121.47147","25.09387","6501400","蘆洲區"
"247010","546-UM","2017/08/18 20:49:21","新北市蘆洲區鷺江街93號","121.47689","25.083805","6501400","蘆洲區"
"247018","500-BY","2017/08/18 20:49:04","新北市蘆洲區民權路70號","121.474918333333","25.087375","6501400","蘆洲區"
"247008","339-TH","2017/08/18 20:49:06","新北市三重區三和路四段237號","121.481081666667","25.0803416666667","6501400","蘆洲區"
"247024","337-TH","2017/08/18 20:49:14","新北市蘆洲區長樂路140號","121.46203","25.0902416666667","6501400","蘆洲區"
"247002","336-TH","2017/08/18 20:49:15","新北市蘆洲區長榮路309號","121.459986666667","25.0865583333333","6501400","蘆洲區"
"247014","057-VK","2017/08/18 20:49:07","新北市蘆洲區三民路33號","121.475271666667","25.0829816666667","6501400","蘆洲區"
"247004","056-VK","2017/08/18 20:49:09","新北市蘆洲區長安街101號","121.461578333333","25.080825","6501400","蘆洲區"
"247006","053-VK","2017/08/18 20:49:08","新北市蘆洲區永安南路二段16巷8號","121.467758333333","25.077165","6501400","蘆洲區"
"247012","007-UY","2017/08/18 20:49:14","新北市蘆洲區民權路5號","121.476665","25.08575","6501400","蘆洲區"
"247022","002-UY","2017/08/18 20:49:23","新北市蘆洲區民權路131巷10號","121.47132","25.089855","6501400","蘆洲區"
"247016","001-UY","2017/08/18 20:49:04","新北市蘆洲區正和街3號","121.470581666667","25.0825483333333","6501400","蘆洲區"
"224011","420-VK","2017/08/18 20:39:17","新北市瑞芳區明燈路二段66號","121.809308333333","25.1075933333333","6501200","瑞芳區"
"251005","010-UM","2017/08/18 20:49:16","新北市淡水區學府路96號","121.449328333333","25.171075","6501000","淡水區"
"251002","012-UM","2017/08/18 20:49:13","新北市淡水區英專路16號","121.445556666667","25.1696466666667","6501000","淡水區"
"251013","180-VK","2017/08/18 20:49:05","新北市淡水區行忠路155號","121.455903333333","25.20021","6501000","淡水區"
"251015","182-VK","2017/08/18 20:49:17","新北市淡水區淡金路四段542巷17號","121.452685","25.2270866666667","6501000","淡水區"
"251010","413-VK","2017/08/18 20:49:12","新北市淡水區沙崙路126號","121.423521666667","25.1829816666667","6501000","淡水區"
"251012","441-VK","2017/08/18 20:49:27","新北市淡水區淡金路四段514號","121.452058333333","25.2257366666667","6501000","淡水區"
"251001","559-UM","2017/08/18 20:49:26","新北市淡水區淡金路218號","121.460536666667","25.1672283333333","6501000","淡水區"
"251007","577-R6","2017/08/18 20:49:22","新北市淡水區鄧公路29巷26號","121.452733333333","25.17026","6501000","淡水區"
"251011","650-BX","2017/08/18 20:49:13","新北市淡水區新民街一段25-1號","121.43281","25.1856716666667","6501000","淡水區"
"251003","673-BX","2017/08/18 20:49:15","新北市淡水區中山北路一段207巷60號","121.442111666667","25.1793333333333","6501000","淡水區"
"252002","178-VK","2017/08/18 20:49:11","新北市三芝區淡金路二段89-1號","121.50405","25.2607883333333","6502100","三芝區"
"242021","AAC-296","2017/08/18 20:49:15","新北市新莊區中華路一段6號","121.451953333333","25.0365183333333","6500500","新莊區"
"242029","986-R7","2017/08/18 20:49:10","新北市新莊區中華路二段71巷2號","121.45288","25.0475033333333","6500500","新莊區"
"242023","705-TV","2017/08/18 20:49:17","新北市新莊區思源路63號","121.459901666667","25.0403866666667","6500500","新莊區"
"242027","612-BX","2017/08/18 20:49:20","新北市三重區光復路二段87巷53號","121.475073333333","25.0589183333333","6500500","新莊區"
"242037","566-BX","2017/08/18 20:49:16","新北市新莊區建國一路23號","121.433958333333","25.0314183333333","6500500","新莊區"
"242005","442-UM","2017/08/18 20:49:23","新北市新莊區化成路363巷55號","121.463298333333","25.0566983333333","6500500","新莊區"
"242050","440-UM","2017/08/18 20:49:07","新北市新莊區新樹路222號","121.433588333333","25.0202366666667","6500500","新莊區"
"242002","413-TV","2017/08/18 20:49:17","新北市新莊區中正路281號","121.44908","25.0353933333333","6500500","新莊區"
"242039","400-BY","2017/08/18 20:49:07","新北市新莊區瓊林路170-1號","121.441216666667","25.023605","6500500","新莊區"
"242060","362-BY","2017/08/18 20:49:18","新北市新莊區新樹路495號","121.432776666667","25.012265","6500500","新莊區"
"242034","133-UY","2017/08/18 20:49:09","新北市新莊區中正路371號","121.446358333333","25.0347116666667","6500500","新莊區"
"242054","349-TH","2017/08/18 20:49:12","新北市新莊區民安西路219號","121.426068333333","25.014455","6500500","新莊區"
"238023","601-UM","2017/08/18 20:49:23","新北市樹林區中山路三段204號","121.387303333333","24.9683083333333","6500700","樹林區"
"221036","130-UY","2017/08/18 20:49:09","新北市汐止區大同路二段312巷2號","121.655703333333","25.066445","6501100","汐止區"
"221015","131-UY","2017/08/18 20:49:15","新北市汐止區大同路二段605號","121.66403","25.07065","6501100","汐止區"
"221012","276-VK","2017/08/18 13:23:13","新北市汐止區汐萬路一段256巷3號","121.653461666667","25.07462","6501100","汐止區"
"221031","277-VK","2017/08/18 20:49:06","新北市汐止區福德一路123-1號","121.637266666667","25.0674416666667","6501100","汐止區"
"221027","281-BY","2017/08/18 20:49:10","新北市汐止區汐萬路一段115巷2號","121.65425","25.0709033333333","6501100","汐止區"
"221038","297-VK","2017/08/18 20:49:08","新北市汐止區大同路二段273號","121.652588333333","25.0680666666667","6501100","汐止區"
"221029","298-VK","2017/08/18 20:49:22","新北市汐止區康寧街777-1號","121.644836666667","25.0753833333333","6501100","汐止區"
"221035","622-UM","2017/08/18 20:49:00","新北市汐止區汐萬路一段244-1號","121.651298333333","25.07341","6501100","汐止區"
"221010","646-BX","2017/08/18 20:49:21","新北市汐止區汐萬路一段256巷3號","121.65338","25.0744833333333","6501100","汐止區"
"221033","647-BX","2017/08/18 20:49:19","新北市汐止區合順街18巷8弄5號","121.620295","25.0419116666667","6501100","汐止區"
"221002","707-TV","2017/08/18 20:49:23","新北市汐止區福德二路二段170號","121.629576666667","25.0649133333333","6501100","汐止區"
"221018","753-BX","2017/08/18 20:49:17","新北市汐止區茄苳路118號","121.668301666667","25.0704983333333","6501100","汐止區"
"220072","277-BY","2017/08/18 19:18:21","新北市板橋區金門街337巷9弄1號","121.430546666667","24.984605","6500100","板橋區"
"220070","AAC-253","2017/08/18 20:49:21","新北市五股區新五路二段220號","121.438815","25.0789583333333","6500100","板橋區"
"249001","3G-OBU6","2017/08/18 15:00:33","桃園市楊梅區電研路100-24號","121.1661","24.95364","6502300","八里區"
