"lineid","car","time","location","longitude","latitude","cityid","cityname"
"234067","AAC-212","2017/08/18 20:59:13","新北市五股區成泰路三段358號","121.451021666667","25.09782","6500400","永和區"
"243011","549-UM","2017/08/18 20:59:22","新北市泰山區犁頭窠3-1號","121.422241666667","25.060505","6501600","泰山區"
"231059","046-UY","2017/08/18 20:59:13","新北市新店區僑信路106號","121.50012","24.9471533333333","6500600","新店區"
"231061","047-UY","2017/08/18 20:59:10","新北市新店區永安街60號","121.518893333333","24.986925","6500600","新店區"
"231060","106-UY","2017/08/18 20:59:10","新北市新店區安康路三段622號","121.479305","24.9461433333333","6500600","新店區"
"231051","107-UY","2017/08/18 20:59:20","新北市新店區中正路470-1號","121.533898333333","24.9810983333333","6500600","新店區"
"231048","108-UY","2017/08/18 20:59:12","新北市新店區寶元路一段109號","121.545946666667","24.9831183333333","6500600","新店區"
"231064","110-UY","2017/08/18 20:59:17","新北市新店區安和路二段169巷9號","121.518221666667","24.97405","6500600","新店區"
"231053","187-VK","2017/08/18 20:59:12","新北市新店區新烏路一段245-3號","121.548155","24.9304383333333","6500600","新店區"
"231057","256-BX","2017/08/18 20:59:20","新北市新店區光明街119號","121.539038333333","24.9616716666667","6500600","新店區"
"231063","268-BY","2017/08/18 20:59:10","新北市新店區玫瑰路28號","121.495263333333","24.9501616666667","6500600","新店區"
"231050","AAD-862","2017/08/18 20:59:14","新北市新店區三民路117巷5弄2號","121.534211666667","24.9711816666667","6500600","新店區"
"231058","3712-VJ","2017/08/18 20:59:13","新北市新店區平等街48巷8號","121.535805","24.9730683333333","6500600","新店區"
"231065","512-UM","2017/08/18 20:59:13","新北市新店區安祥路67巷2號","121.483775","24.9596683333333","6500600","新店區"
"231054","513-UM","2017/08/18 20:59:16","新北市新店區北新路一段126巷21號","121.543018333333","24.969535","6500600","新店區"
"231042","616-UM","2017/08/18 20:59:23","新北市新店區寶興路42巷1號","121.549296666667","24.9729316666667","6500600","新店區"
"231040","619-UM","2017/08/18 20:59:17","新北市新店區中正路111號","121.54233","24.9709733333333","6500600","新店區"
"231062","720-UM","2017/08/18 20:59:18","新北市新店區裕合街1號","121.490051666667","24.9500416666667","6500600","新店區"
"231043","899-TW","2017/08/18 20:59:20","新北市新店區中正路366號","121.535155","24.9762733333333","6500600","新店區"
"231066","AKT-0513","2017/08/18 20:59:08","新北市新店區安康路二段16巷48號","121.51675","24.9656533333333","6500600","新店區"
"241011","013-R5","2017/08/18 20:59:10","新北市三重區秀江街119號","121.499711666667","25.0721733333333","6500200","三重區"
"241028","022-UY","2017/08/18 20:59:20","新北市三重區新北大道一段7號","121.489653333333","25.0614016666667","6500200","三重區"
"241009","060-VK","2017/08/18 20:59:09","新北市三重區三和路四段322號","121.483935","25.0781116666667","6500200","三重區"
"241031","061-VK","2017/08/18 20:59:08","新北市三重區重陽路一段113巷1弄1號","121.487485","25.059795","6500200","三重區"
"241015","062-VK","2017/08/18 20:59:13","新北市三重區福德北路69號","121.502013333333","25.0656583333333","6500200","三重區"
"241017","063-VK","2017/08/18 20:59:16","新北市三重區民生街38巷2弄24號","121.492221666667","25.0672766666667","6500200","三重區"
"241024","065-VK","2017/08/18 20:59:22","新北市三重區大勇街49號","121.481326666667","25.071915","6500200","三重區"
"241026","066-VK","2017/08/18 20:59:13","新北市三重區文化南路43號","121.50018","25.061495","6500200","三重區"
"241002","090-VK","2017/08/18 20:59:14","新北市三重區五華街1巷23號","121.496186666667","25.0799566666667","6500200","三重區"
"241006","156-TC","2017/08/18 20:59:23","新北市三重區永福街73號","121.48027","25.0776483333333","6500200","三重區"
"241005","262-UM","2017/08/18 20:59:10","新北市三重區五華街186號","121.488653333333","25.086405","6500200","三重區"
"241008","265-UM","2017/08/18 20:59:10","新北市三重區下竹圍街1號","121.480896666667","25.0762966666667","6500200","三重區"
"241016","266-UM","2017/08/18 20:59:09","新北市三重區自強路一段170號","121.495266666667","25.0662366666667","6500200","三重區"
"241022","267-UM","2017/08/18 20:59:16","新北市三重區中正北路20巷12號","121.487971666667","25.062485","6500200","三重區"
"241018","268-UM","2017/08/18 20:59:24","新北市三重區自強路一段236號","121.493346666667","25.0670166666667","6500200","三重區"
"241032","269-UM","2017/08/18 20:59:20","新北市三重區三陽路118號","121.482976666667","25.05874","6500200","三重區"
"241013","270-UM","2017/08/18 20:59:26","新北市三重區仁賢街12-1號","121.49568","25.074845","6500200","三重區"
"241007","398-BY","2017/08/18 20:59:18","新北市三重區三和路四段143-1號","121.484478333333","25.0783033333333","6500200","三重區"
"241020","412-TH","2017/08/18 20:59:08","新北市三重區忠孝路二段35號","121.485956666667","25.0710766666667","6500200","三重區"
"241004","475-VK","2017/08/18 20:59:18","新北市三重區仁愛街423-1號","121.490326666667","25.081575","6500200","三重區"
"241019","478-VK","2017/08/18 20:59:11","新北市三重區自強路二段74巷19號","121.488015","25.0699033333333","6500200","三重區"
"241030","480-VK","2017/08/18 20:59:20","新北市三重區環河南路222號","121.492455","25.0518916666667","6500200","三重區"
"241014","543-UM","2017/08/18 20:59:09","新北市三重區長榮路75號","121.502595","25.069065","6500200","三重區"
"241023","545-UM","2017/08/18 20:59:11","新北市三重區三民街111號","121.484828333333","25.0637466666667","6500200","三重區"
"241001","547-UM","2017/08/18 20:59:12","新北市三重區自強路三段97號","121.487745","25.0751866666667","6500200","三重區"
"241025","887-TS","2017/08/18 20:59:07","新北市三重區新北大道一段156號","121.484128333333","25.0616733333333","6500200","三重區"
"241012","941-UM","2017/08/18 20:59:14","新北市三重區龍門路274巷45號","121.501208333333","25.0755266666667","6500200","三重區"
"241029","942-UM","2017/08/18 20:59:26","新北市三重區正義南路107號","121.497898333333","25.0585533333333","6500200","三重區"
"241033","AAC-255","2017/08/18 20:59:24","新北市三重區光復路二段96號","121.472105","25.057955","6500200","三重區"
"235040","150-BY","2017/08/18 20:58:50","新北市中和區興南路三段20巷16號","121.497673333333","24.9809916666667","6500300","中和區"
"235058","151-BY","2017/08/18 20:59:18","新北市五股區成泰路一段98巷1-18號","121.45319","25.0742466666667","6500300","中和區"
"235026","800-TS","2017/08/18 20:30:01","新北市中和區員山路36巷16-3號","121.484815","24.9916316666667","6500300","中和區"
"220065","072-UY","2017/08/18 20:57:28","新北市八里區荖阡坑路34號","121.402598333333","25.12827","6500100","板橋區"
"220069","AAD-861","2017/08/18 20:59:25","新北市八里區下罟子8-10號","121.383396666667","25.1445433333333","6500100","板橋區"
"247020","893-R6","2017/08/18 20:59:16","新北市蘆洲區民族路371號","121.471143333333","25.0912566666667","6501400","蘆洲區"
"247010","546-UM","2017/08/18 20:59:21","新北市蘆洲區鷺江街74號","121.477076666667","25.0837783333333","6501400","蘆洲區"
"247018","500-BY","2017/08/18 20:59:24","新北市蘆洲區民權路144號","121.472756666667","25.0891533333333","6501400","蘆洲區"
"247008","339-TH","2017/08/18 20:59:06","新北市蘆洲區民生街125號","121.472803333333","25.0789866666667","6501400","蘆洲區"
"247024","337-TH","2017/08/18 20:59:15","新北市蘆洲區長興路213號","121.461121666667","25.086355","6501400","蘆洲區"
"247002","336-TH","2017/08/18 20:59:15","新北市蘆洲區長安街373號","121.457243333333","25.0877266666667","6501400","蘆洲區"
"247014","057-VK","2017/08/18 20:59:08","新北市蘆洲區中山二路36巷36號","121.47422","25.0833716666667","6501400","蘆洲區"
"247004","056-VK","2017/08/18 20:59:09","新北市蘆洲區永安南路二段268號","121.458703333333","25.0807266666667","6501400","蘆洲區"
"247006","053-VK","2017/08/18 20:59:08","新北市蘆洲區九芎街15巷12號","121.467941666667","25.0778533333333","6501400","蘆洲區"
"247012","007-UY","2017/08/18 20:59:14","新北市蘆洲區民權路5號","121.476615","25.085835","6501400","蘆洲區"
"247022","002-UY","2017/08/18 20:59:23","新北市蘆洲區中正路261號","121.467316666667","25.0873166666667","6501400","蘆洲區"
"247016","001-UY","2017/08/18 20:59:04","新北市蘆洲區正和街81號","121.46825","25.0807966666667","6501400","蘆洲區"
"224011","420-VK","2017/08/18 20:39:17","新北市瑞芳區明燈路二段66號","121.809308333333","25.1075933333333","6501200","瑞芳區"
"251005","010-UM","2017/08/18 20:59:16","新北市淡水區學府路71號","121.448361666667","25.1698933333333","6501000","淡水區"
"251002","012-UM","2017/08/18 20:59:13","新北市淡水區英專路111號","121.445815","25.1722066666667","6501000","淡水區"
"251013","180-VK","2017/08/18 20:59:25","新北市淡水區番子厝13號","121.461266666667","25.2009416666667","6501000","淡水區"
"251015","182-VK","2017/08/18 20:59:17","新北市淡水區淡金路四段542巷17號","121.452675","25.22706","6501000","淡水區"
"251010","413-VK","2017/08/18 20:59:12","新北市淡水區中正路一段116-3號","121.423886666667","25.1787183333333","6501000","淡水區"
"251012","441-VK","2017/08/18 20:59:27","新北市淡水區淡金路五段108號","121.456493333333","25.23661","6501000","淡水區"
"251001","559-UM","2017/08/18 20:59:13","新北市淡水區淡金路一段166-5號","121.453981666667","25.179995","6501000","淡水區"
"251007","577-R6","2017/08/18 20:59:22","新北市淡水區仁愛街3號","121.445856666667","25.1704533333333","6501000","淡水區"
"251011","650-BX","2017/08/18 20:59:13","新北市淡水區新民街322巷1號","121.435238333333","25.18383","6501000","淡水區"
"251003","673-BX","2017/08/18 20:59:15","新北市淡水區新春街148-5號","121.442733333333","25.1810483333333","6501000","淡水區"
"252002","178-VK","2017/08/18 20:59:11","新北市三芝區淡金路二段76-1號","121.504026666667","25.2609266666667","6502100","三芝區"
"242037","566-BX","2017/08/18 20:59:16","新北市新莊區新莊路634號","121.44309","25.0329583333333","6500500","新莊區"
"242034","133-UY","2017/08/18 20:59:06","新北市新莊區新莊路566號","121.444711666667","25.0328966666667","6500500","新莊區"
"242054","349-TH","2017/08/18 20:59:12","新北市新莊區新莊路666號","121.441818333333","25.0328816666667","6500500","新莊區"
"238023","601-UM","2017/08/18 20:59:23","新北市樹林區中山路三段204號","121.38685","24.9682616666667","6500700","樹林區"
"221036","130-UY","2017/08/18 20:59:09","新北市汐止區汐萬路一段256巷1號","121.651855","25.074785","6501100","汐止區"
"221015","131-UY","2017/08/18 20:59:15","新北市汐止區汐萬路一段256巷3號","121.652676666667","25.074585","6501100","汐止區"
"221012","276-VK","2017/08/18 13:23:13","新北市汐止區汐萬路一段256巷3號","121.653461666667","25.07462","6501100","汐止區"
"221027","281-BY","2017/08/18 20:59:10","新北市汐止區汐萬路一段256巷1號","121.651765","25.0748433333333","6501100","汐止區"
"221029","298-VK","2017/08/18 20:59:22","新北市汐止區康寧街901號","121.65165","25.0748533333333","6501100","汐止區"
"221018","753-BX","2017/08/18 20:59:15","新北市汐止區汐萬路一段273號","121.650555","25.0745016666667","6501100","汐止區"
"220072","277-BY","2017/08/18 19:18:21","新北市板橋區金門街337巷9弄1號","121.430546666667","24.984605","6500100","板橋區"
"220070","AAC-253","2017/08/18 20:59:21","新北市八里區荖阡坑路22-4號","121.399103333333","25.1341083333333","6500100","板橋區"
"249001","3G-OBU6","2017/08/18 15:00:33","桃園市楊梅區電研路100-24號","121.1661","24.95364","6502300","八里區"
