"lineid","car","time","location","longitude","latitude","cityid","cityname"
"231059","046-UY","2017/08/18 21:07:33","新北市新店區僑義路47巷6號","121.5008","24.9496083333333","6500600","新店區"
"231061","047-UY","2017/08/18 21:10:10","新北市新店區永平街8號","121.517335","24.9833583333333","6500600","新店區"
"231060","106-UY","2017/08/18 21:12:09","新北市新店區安康路二段458號","121.494131666667","24.95399","6500600","新店區"
"231051","107-UY","2017/08/18 21:12:40","新北市新店區中正路663巷7弄15號","121.533023333333","24.990115","6500600","新店區"
"231048","108-UY","2017/08/18 21:03:52","新北市新店區文化路67號","121.54473","24.9818416666667","6500600","新店區"
"231063","268-BY","2017/08/18 21:16:10","新北市新店區玫瑰路62巷1號","121.49581","24.9458266666667","6500600","新店區"
"231050","AAD-862","2017/08/18 21:11:34","新北市新店區三民路29巷2弄1號","121.537735","24.96984","6500600","新店區"
"231067","4772-VM","2017/08/18 21:13:14","新北市新店區安德街148巷12弄6號","121.508106666667","24.9603366666667","6500600","新店區"
"231065","512-UM","2017/08/18 21:13:13","新北市新店區安祥路98-3號","121.487358333333","24.95972","6500600","新店區"
"231054","513-UM","2017/08/18 21:10:16","新北市新店區大新街7巷16號","121.54376","24.968105","6500600","新店區"
"231040","619-UM","2017/08/18 21:11:57","新北市新店區北新路一段90號","121.541918333333","24.9685783333333","6500600","新店區"
"241011","013-R5","2017/08/18 21:10:50","新北市三重區河邊北街110巷66號","121.502223333333","25.0702466666667","6500200","三重區"
"241028","022-UY","2017/08/18 21:11:20","新北市三重區正義南路60-1號","121.4983","25.0606083333333","6500200","三重區"
"241009","060-VK","2017/08/18 21:16:49","新北市三重區忠孝路二段122號","121.482976666667","25.0688366666667","6500200","三重區"
"241031","061-VK","2017/08/18 21:17:48","新北市三重區重新路五段408巷19號","121.475765","25.0455516666667","6500200","三重區"
"241015","062-VK","2017/08/18 21:12:13","新北市三重區河邊北街23號","121.504423333333","25.0655416666667","6500200","三重區"
"241017","063-VK","2017/08/18 21:16:36","新北市三重區國隆路31號","121.492273333333","25.06447","6500200","三重區"
"241024","065-VK","2017/08/18 21:10:02","新北市三重區大勇街32號","121.48176","25.07172","6500200","三重區"
"241026","066-VK","2017/08/18 21:17:13","新北市三重區大同南路218號","121.496788333333","25.0563283333333","6500200","三重區"
"241002","090-VK","2017/08/18 21:18:34","新北市三重區五華街18號","121.494818333333","25.0803483333333","6500200","三重區"
"241003","091-VK","2017/08/18 21:15:23","新北市三重區仁義街224號","121.494941666667","25.08463","6500200","三重區"
"241006","156-TC","2017/08/18 21:18:03","新北市三重區明志街135號","121.489101666667","25.0632566666667","6500200","三重區"
"241005","262-UM","2017/08/18 21:14:11","新北市三重區三信路182號","121.488003333333","25.0861816666667","6500200","三重區"
"241008","265-UM","2017/08/18 21:14:30","新北市三重區自強路一段60號","121.497425","25.0666816666667","6500200","三重區"
"241016","266-UM","2017/08/18 21:14:28","新北市三重區信義西街138號","121.495613333333","25.06435","6500200","三重區"
"241022","267-UM","2017/08/18 21:11:56","新北市三重區中正北路64巷20號","121.486146666667","25.0637683333333","6500200","三重區"
"241018","268-UM","2017/08/18 21:14:05","新北市三重區正義北路342號","121.49424","25.0707966666667","6500200","三重區"
"241032","269-UM","2017/08/18 21:16:20","新北市三重區中興北街134號","121.468933333333","25.0558583333333","6500200","三重區"
"241013","270-UM","2017/08/18 21:14:26","新北市三重區仁愛街66號","121.495795","25.0730983333333","6500200","三重區"
"241007","398-BY","2017/08/18 21:18:19","新北市三重區自強路三段72號","121.48673","25.0735966666667","6500200","三重區"
"241004","475-VK","2017/08/18 21:18:24","新北市三重區仁愛街453號","121.490135","25.08165","6500200","三重區"
"241019","478-VK","2017/08/18 21:14:11","新北市三重區自強路二段76號","121.488041666667","25.0700783333333","6500200","三重區"
"241030","480-VK","2017/08/18 21:17:20","新北市三重區五谷王北街20巷15弄1號","121.475056666667","25.048475","6500200","三重區"
"241014","543-UM","2017/08/18 21:16:29","新北市三重區長安街82-1號","121.501401666667","25.0677816666667","6500200","三重區"
"241023","545-UM","2017/08/18 21:13:31","新北市三重區忠孝路三段50巷41弄15號","121.482058333333","25.0641466666667","6500200","三重區"
"241001","547-UM","2017/08/18 21:13:12","新北市三重區福隆路44號","121.492346666667","25.0785083333333","6500200","三重區"
"241025","887-TS","2017/08/18 21:18:26","新北市三重區中正北路208巷10弄2號","121.482381666667","25.0669883333333","6500200","三重區"
"241012","941-UM","2017/08/18 21:17:34","新北市三重區龍門路286號","121.502026666667","25.0741333333333","6500200","三重區"
"241029","942-UM","2017/08/18 21:16:05","新北市三重區仁化街107號","121.494515","25.057975","6500200","三重區"
"241033","AAC-255","2017/08/18 21:13:24","新北市三重區光復路二段170號","121.472043333333","25.0611766666667","6500200","三重區"
"235040","150-BY","2017/08/18 21:16:09","新北市中和區和城路一段271巷1號","121.4855","24.9917","6500300","中和區"
"235026","800-TS","2017/08/18 20:30:01","新北市中和區員山路36巷16-3號","121.484815","24.9916316666667","6500300","中和區"
"220065","072-UY","2017/08/18 21:17:47","新北市板橋區三民路二段218號","121.478938333333","25.0116833333333","6500100","板橋區"
"220069","AAD-861","2017/08/18 21:13:05","新北市林口區太平里180號","121.368138333333","25.134705","6500100","板橋區"
"247020","893-R6","2017/08/18 21:16:56","新北市蘆洲區民族路426巷64號","121.472751666667","25.0940633333333","6501400","蘆洲區"
"247010","546-UM","2017/08/18 21:14:21","新北市蘆洲區中山一路120巷21弄8號","121.477978333333","25.0823066666667","6501400","蘆洲區"
"247018","500-BY","2017/08/18 21:09:44","新北市蘆洲區民族路408巷18-1號","121.475048333333","25.0921666666667","6501400","蘆洲區"
"247008","339-TH","2017/08/18 21:13:45","新北市蘆洲區民生街28號","121.474931666667","25.078865","6501400","蘆洲區"
"247024","337-TH","2017/08/18 21:16:34","新北市蘆洲區光復路77巷19-1號","121.463841666667","25.0860083333333","6501400","蘆洲區"
"247002","336-TH","2017/08/18 21:18:15","新北市蘆洲區永樂街38巷40號","121.458576666667","25.0899833333333","6501400","蘆洲區"
"247014","057-VK","2017/08/18 21:14:48","新北市蘆洲區中央路155號","121.472576666667","25.08467","6501400","蘆洲區"
"247004","056-VK","2017/08/18 21:18:29","新北市蘆洲區永安南路二段324號","121.457011666667","25.0827966666667","6501400","蘆洲區"
"247006","053-VK","2017/08/18 21:16:26","新北市蘆洲區長安街22巷3弄2號","121.464318333333","25.07954","6501400","蘆洲區"
"247012","007-UY","2017/08/18 21:10:13","新北市蘆洲區三民路84號","121.474863333333","25.0842783333333","6501400","蘆洲區"
"247022","002-UY","2017/08/18 21:07:42","新北市蘆洲區中正路263巷2號","121.467316666667","25.087375","6501400","蘆洲區"
"247016","001-UY","2017/08/18 21:13:04","新北市蘆洲區光華路150巷10弄2號","121.465675","25.0826866666667","6501400","蘆洲區"
"224011","420-VK","2017/08/18 21:13:56","新北市瑞芳區明燈路二段66號","121.809273333333","25.107445","6501200","瑞芳區"
"251004","009-UM","2017/08/18 21:17:51","新北市淡水區民族路33號","121.462265","25.1357933333333","6501000","淡水區"
"251005","010-UM","2017/08/18 21:17:56","新北市淡水區仁愛街11號","121.446181666667","25.17045","6501000","淡水區"
"251002","012-UM","2017/08/18 21:10:13","新北市淡水區水源街一段83巷149-15號","121.448468333333","25.173425","6501000","淡水區"
"251013","180-VK","2017/08/18 21:13:45","新北市淡水區行忠路328號","121.46048","25.1996333333333","6501000","淡水區"
"251008","181-VK","2017/08/18 21:16:19","新北市淡水區水源街二段346巷1弄1號","121.464106666667","25.1755133333333","6501000","淡水區"
"251015","182-VK","2017/08/18 21:14:57","新北市淡水區淡金路四段542巷83弄20號","121.456471666667","25.2266616666667","6501000","淡水區"
"251010","413-VK","2017/08/18 21:12:52","新北市淡水區中正路一段130號","121.422713333333","25.1787633333333","6501000","淡水區"
"251012","441-VK","2017/08/18 21:18:06","新北市淡水區淡金路五段57號","121.4546","25.2337983333333","6501000","淡水區"
"251001","559-UM","2017/08/18 21:15:25","新北市淡水區中山北路二段227號","121.444253333333","25.185845","6501000","淡水區"
"251009","575-R6","2017/08/18 21:15:32","新北市淡水區民族路112巷45號","121.462043333333","25.1345583333333","6501000","淡水區"
"251011","650-BX","2017/08/18 21:11:13","新北市淡水區新民街120巷45弄8號","121.438145","25.17974","6501000","淡水區"
"251003","673-BX","2017/08/18 21:17:55","新北市淡水區崁頂15-5號","121.438958333333","25.18596","6501000","淡水區"
"242054","349-TH","2017/08/18 21:17:52","新北市八里區荖阡坑路7-2號","121.398583333333","25.14137","6500500","新莊區"
"221012","276-VK","2017/08/18 13:23:13","新北市汐止區汐萬路一段256巷3號","121.653461666667","25.07462","6501100","汐止區"
"221029","298-VK","2017/08/18 21:14:02","新北市汐止區汐萬路一段256巷1號","121.651658333333","25.0747","6501100","汐止區"
"221018","753-BX","2017/08/18 21:12:16","新北市汐止區汐萬路一段256巷1號","121.651953333333","25.0747583333333","6501100","汐止區"
"220072","277-BY","2017/08/18 19:18:21","新北市板橋區金門街337巷9弄1號","121.430546666667","24.984605","6500100","板橋區"
"220070","AAC-253","2017/08/18 21:12:21","新北市八里區中山路三段409號","121.368701666667","25.1346033333333","6500100","板橋區"
"249001","3G-OBU6","2017/08/18 15:00:33","桃園市楊梅區電研路100-24號","121.1661","24.95364","6502300","八里區"
