"lineid","car","time","location","longitude","latitude","cityid","cityname"
"248005","653-BX","2017/08/19 06:59:19","新北市五股區更洲路47-1號","121.45453","25.0782633333333","6501500","五股區"
"232009","290-BY","2017/08/19 06:59:17","新北市坪林區九芎林23-1號","121.705235","24.925985","6502000","坪林區"
"232004","291-BY","2017/08/19 06:59:07","新北市坪林區虎寮潭1-2號","121.74412","24.9552683333333","6502000","坪林區"
"232010","375-UM","2017/08/19 06:59:26","新北市坪林區水聳淒坑17號","121.715841666667","24.931995","6502000","坪林區"
"232016","705-BZ","2017/08/19 06:59:22","新北市坪林區仁里11號","121.689755","24.9284683333333","6502000","坪林區"
"244005","248-BX","2017/08/19 06:59:18","新北市林口區中山路576號","121.376701666667","25.0846716666667","6501700","林口區"
"222004","289-BY","2017/08/19 06:59:18","新北市深坑區文山路二段30巷31號","121.615516666667","24.998895","6501800","深坑區"
"235071","911-UM","2017/08/19 06:59:04","新北市中和區廟美街5號","121.500746666667","25.0015216666667","6500300","中和區"
"223006","022-BY","2017/08/19 06:59:14","新北市石碇區新興坑5號","121.655761666667","25.016155","6501900","石碇區"
"223002","198-BX","2017/08/19 06:59:16","新北市石碇區員山子1號","121.651625","24.9651516666667","6501900","石碇區"
"223003","205-TH","2017/08/19 06:59:12","新北市石碇區石碇東街143號","121.658951666667","24.9891883333333","6501900","石碇區"
"223008","406-TH","2017/08/19 06:59:10","新北市石碇區雙溪84-1號","121.661281666667","25.0089166666667","6501900","石碇區"
"223001","437-BY","2017/08/19 06:59:19","新北市石碇區石崁33-3號","121.659735","24.992655","6501900","石碇區"
"223004","660-BX","2017/08/19 06:59:21","新北市石碇區碇坪路一段52號","121.656905","24.9916066666667","6501900","石碇區"
"223007","661-BX","2017/08/19 06:59:10","新北市石碇區雙溪84-1號","121.661228333333","25.0088916666667","6501900","石碇區"
"227006","282-VK","2017/08/19 06:59:19","新北市雙溪區新基里自強路5號","121.866313333333","25.039105","6502500","雙溪區"
"252006","073-UM","2017/08/19 06:59:08","新北市三芝區中山路二段50號","121.50315","25.2543816666667","6502100","三芝區"
"252004","249-BX","2017/08/19 06:59:18","新北市三芝區埔坪里埔頭坑44號","121.504633333333","25.26179","6502100","三芝區"
"252007","AAC-283","2017/08/19 06:59:14","新北市三芝區古庄里山豬堀2-2號","121.499598333333","25.2497183333333","6502100","三芝區"
"236011","165-UM","2017/08/19 06:59:04","新北市土城區永平街51號","121.427935","24.9591866666667","6501300","土城區"
"241031","281-VK","2017/08/19 06:59:15","新北市新莊區中正路145號","121.459421666667","25.03826","6500200","三重區"
