"lineid","car","time","location","longitude","latitude","cityid","cityname"
"234026","9371-KE","2017/12/16 17:39:41","新北市永和區中正路736號","121.515291666667","25.0101383333333","6500400","永和區"
"249005","172-UM","2017/12/16 17:39:38","新北市八里區荖阡坑路34號","121.402775","25.1297816666667","6502300","八里區"
"249001","173-UM","2017/12/16 17:39:41","新北市八里區龍米路二段150號","121.436136666667","25.1564583333333","6502300","八里區"
"249004","303-UY","2017/12/16 17:39:39","新北市八里區大崁腳35號","121.419521666667","25.1587683333333","6502300","八里區"
"249002","305-UY","2017/12/16 17:39:47","新北市八里區石壁腳19號","121.441811666667","25.1354366666667","6502300","八里區"
"249003","593-UM","2017/12/16 17:39:55","新北市八里區中山路二段135號","121.405335","25.1515183333333","6502300","八里區"
"232011","375-UM","2017/12/16 17:39:46","新北市坪林區北宜路八段143號","121.7067","24.9345416666667","6502000","坪林區"
"244013","069-UM","2017/12/16 17:39:44","新北市林口區中正路555號","121.381121666667","25.0768466666667","6501700","林口區"
"244007","080-UY","2017/12/16 17:39:42","新北市林口區林口路272巷19號","121.386771666667","25.0845866666667","6501700","林口區"
"244019","403-UM","2017/12/16 17:39:49","新北市林口區公園路170號","121.372491666667","25.0720983333333","6501700","林口區"
"244023","483-VK","2017/12/16 17:39:38","新北市林口區興林路152巷20號","121.387946666667","25.071535","6501700","林口區"
"244017","485-VK","2017/12/16 17:39:38","新北市林口區忠孝路407號","121.370408333333","25.0706216666667","6501700","林口區"
"244009","657-BX","2017/12/16 17:39:47","新北市林口區中北三街262號","121.382136666667","25.0821166666667","6501700","林口區"
"244025","837-TS","2017/12/16 17:39:48","新北市林口區文化三路一段381號","121.365341666667","25.072955","6501700","林口區"
"244021","838-TS","2017/12/16 17:39:49","新北市林口區東林街14號","121.396241666667","25.078955","6501700","林口區"
"243013","646-TV","2017/12/16 17:39:47","新北市泰山區錢厝坑7號","121.407301666667","25.0507483333333","6501600","泰山區"
"222002","659-BX","2017/12/16 17:39:42","新北市深坑區北深路二段2巷1號","121.621221666667","25.0045283333333","6501800","深坑區"
"231046","278-BY","2017/12/16 17:39:56","新北市新店區直潭路92號","121.53091","24.9375916666667","6500600","新店區"
"241017","063-VK","2017/12/16 17:39:59","新北市三重區重新路三段12號","121.495143333333","25.0614833333333","6500200","三重區"
"241024","065-VK","2017/12/16 17:39:44","新北市三重區力行路二段9巷15號","121.48298","25.0721483333333","6500200","三重區"
"241005","262-UM","2017/12/16 17:39:40","新北市三重區集賢路87-1號","121.493696666667","25.0868383333333","6500200","三重區"
"241016","266-UM","2017/12/16 17:39:50","新北市三重區正義北路13號","121.497805","25.0628483333333","6500200","三重區"
"241007","398-BY","2017/12/16 17:39:51","新北市三重區車路頭街77號","121.484446666667","25.0739533333333","6500200","三重區"
"241019","478-VK","2017/12/16 17:39:40","新北市三重區六張街222號","121.487835","25.0683833333333","6500200","三重區"
"241014","543-UM","2017/12/16 17:39:46","新北市三重區長榮路75號","121.502551666667","25.069035","6500200","三重區"
"241023","545-UM","2017/12/16 17:39:40","新北市三重區中華路122號","121.483535","25.06378","6500200","三重區"
"241001","547-UM","2017/12/16 17:39:11","新北市五股區中直路21號","121.421568333333","25.111825","6500200","三重區"
"241012","941-UM","2017/12/16 17:39:52","新北市三重區仁興街39巷59號","121.500338333333","25.076205","6500200","三重區"
"241033","AAC-255","2017/12/16 17:39:53","新北市三重區光復路一段60號","121.471866666667","25.04885","6500200","三重區"
"235064","005-UY","2017/12/16 17:39:43","新北市中和區員山路36巷16-3號","121.485065","24.9912733333333","6500300","中和區"
"235046","031-BX","2017/12/16 15:51:10","新北市中和區員山路36巷16-2號","121.485235","24.99159","6500300","中和區"
"235067","255-BX","2017/12/16 17:38:58","新北市中和區和城路一段271巷1號","121.485563333333","24.9919233333333","6500300","中和區"
"235061","378-QA","2017/12/16 15:19:45","新北市中和區員山路36巷13號","121.484383333333","24.99123","6500300","中和區"
"235062","800-TS","2017/12/16 17:34:59","新北市中和區員山路36巷16-3號","121.484873333333","24.9915733333333","6500300","中和區"
"235065","911-UM","2017/12/16 16:06:56","新北市中和區員山路36巷16-3號","121.48511","24.9910766666667","6500300","中和區"
"247022","893-R6","2017/12/16 17:39:51","新北市蘆洲區民族路459號","121.467216666667","25.088535","6501400","蘆洲區"
"247012","546-UM","2017/12/16 17:39:50","新北市蘆洲區復興路94號","121.475783333333","25.0866933333333","6501400","蘆洲區"
"247020","500-BY","2017/12/16 17:39:42","新北市蘆洲區民族路331-17號","121.473251666667","25.0919516666667","6501400","蘆洲區"
"247008","341-TH","2017/12/16 17:39:40","新北市蘆洲區民生街127號","121.472656666667","25.0789733333333","6501400","蘆洲區"
"247010","339-TH","2017/12/16 17:39:48","新北市蘆洲區中山一路40號","121.47975","25.08087","6501400","蘆洲區"
"247002","337-TH","2017/12/16 17:39:52","新北市蘆洲區永平街30號","121.458836666667","25.0910066666667","6501400","蘆洲區"
"247004","336-TH","2017/12/16 17:39:47","新北市蘆洲區中原路6號","121.46144","25.0836416666667","6501400","蘆洲區"
"247016","057-VK","2017/12/16 17:39:47","新北市蘆洲區光華路80-1號","121.46771","25.08276","6501400","蘆洲區"
"247006","056-VK","2017/12/16 17:39:53","新北市蘆洲區長安街23巷8號","121.463666666667","25.0788266666667","6501400","蘆洲區"
"247014","007-UY","2017/12/16 17:39:44","新北市蘆洲區中正路129號","121.469533333333","25.084505","6501400","蘆洲區"
"247024","002-UY","2017/12/16 17:39:39","新北市蘆洲區長樂路125-1號","121.462151666667","25.088065","6501400","蘆洲區"
"247018","001-UY","2017/12/16 17:39:39","新北市蘆洲區民權路87-3號","121.472973333333","25.0888283333333","6501400","蘆洲區"
"228003","097-TW","2017/12/16 17:39:43","新北市貢寮區真理里延平街49號","121.92467","25.0554083333333","6502600","貢寮區"
"228001","212-TW","2017/12/16 17:39:54","新北市貢寮區真理里新港街26巷28-6號","121.92767","25.0553983333333","6502600","貢寮區"
"228002","585-TW","2017/12/16 17:39:54","新北市貢寮區福隆里外隆林街15-11號","121.958403333333","25.0042566666667","6502600","貢寮區"
"224010","AGQ-8101","2017/12/16 17:39:53","新北市瑞芳區岳王路68號","121.809463333333","25.1112183333333","6501200","瑞芳區"
"224006","676-BX","2017/12/16 17:39:39","新北市瑞芳區中山路308號","121.797186666667","25.1099633333333","6501200","瑞芳區"
"224009","285-BY","2017/12/16 17:39:44","新北市瑞芳區金光路372號","121.848935","25.1108533333333","6501200","瑞芳區"
"224008","275-VK","2017/12/16 17:39:53","新北市瑞芳區瑞柑新村21號","121.829435","25.1065883333333","6501200","瑞芳區"
"224005","271-BY","2017/12/16 17:39:54","新北市瑞芳區海濱路56號","121.831266666667","25.123555","6501200","瑞芳區"
"251004","009-UM","2017/12/16 17:39:38","新北市淡水區中正東路二段88巷37號","121.459166666667","25.1455016666667","6501000","淡水區"
"251001","011-UM","2017/12/16 17:39:50","新北市淡水區民權路92巷35-1號","121.46219","25.12665","6501000","淡水區"
"251014","180-VK","2017/12/16 17:39:38","新北市淡水區公埔子16-6號","121.481021666667","25.2247516666667","6501000","淡水區"
"251008","181-VK","2017/12/16 17:39:44","新北市淡水區八勢路73巷12號","121.463686666667","25.1539283333333","6501000","淡水區"
"251010","413-VK","2017/12/16 17:39:35","新北市淡水區淡海路280巷16號","121.419811666667","25.1896716666667","6501000","淡水區"
"251012","441-VK","2017/12/16 17:39:53","新北市淡水區北新路200巷8號","121.451773333333","25.1797283333333","6501000","淡水區"
"251016","442-VK","2017/12/16 17:39:51","新北市淡水區埤島39-15號","121.452725","25.1958666666667","6501000","淡水區"
"251005","443-VK","2017/12/16 17:39:42","新北市淡水區鄧公路33巷5號","121.451641666667","25.17102","6501000","淡水區"
"251006","561-UM","2017/12/16 17:39:46","新北市淡水區中山北路一段119巷10號","121.442296666667","25.1770816666667","6501000","淡水區"
"251009","575-R6","2017/12/16 17:39:48","新北市淡水區中正路34-1號","121.443828333333","25.1692683333333","6501000","淡水區"
"251007","577-R6","2017/12/16 17:39:58","新北市淡水區民生路52巷24號","121.462581666667","25.1376266666667","6501000","淡水區"
"251011","650-BX","2017/12/16 17:39:45","新北市淡水區小坪頂13-2號","121.486803333333","25.1561266666667","6501000","淡水區"
"251002","672-BX","2017/12/16 17:39:43","新北市淡水區清水街246號","121.440653333333","25.1722666666667","6501000","淡水區"
"251003","673-BX","2017/12/16 17:39:49","新北市淡水區大忠街5巷1號","121.443058333333","25.1763716666667","6501000","淡水區"
"207003","550-UM","2017/12/16 17:39:53","新北市萬里區龜吼里漁澳路61號","121.68719","25.1952216666667","6502800","萬里區"
"207004","225-TW","2017/12/16 17:39:55","新北市萬里區中幅里中福路8-1號","121.685513333333","25.1647716666667","6502800","萬里區"
"252002","178-VK","2017/12/16 17:39:47","新北市三芝區中正路二段22號","121.504411666667","25.25507","6502100","三芝區"
"252001","292-VK","2017/12/16 17:39:44","新北市三芝區淡金路一段83號","121.502165","25.25887","6502100","三芝區"
"237008","302-VK","2017/12/16 17:39:50","新北市三峽區中山路257巷1號","121.362463333333","24.9373483333333","6500900","三峽區"
"237006","5529-G3","2017/12/16 17:39:59","新北市三峽區介壽路一段552巷17號","121.387745","24.93241","6500900","三峽區"
"237011","572-TV","2017/12/16 17:36:51","新北市三峽區中山路100號","121.366431666667","24.9354616666667","6500900","三峽區"
"237016","649-BX","2017/12/16 17:38:47","新北市三峽區正義街76號","121.368955","24.9179416666667","6500900","三峽區"
"237010","706-TV","2017/12/16 17:39:13","新北市三峽區復興路237巷20號","121.36826","24.93769","6500900","三峽區"
"236073","105-UM","2017/12/16 17:39:48","新北市土城區城林路6巷80號","121.43841","24.980005","6501300","土城區"
"236043","107-UM","2017/12/16 17:39:38","新北市土城區城林路6巷80號","121.438425","24.9796766666667","6501300","土城區"
"236079","166-UM","2017/12/16 17:39:40","新北市土城區城林路6巷80號","121.43825","24.9798416666667","6501300","土城區"
"236059","912-UM","2017/12/16 17:39:49","新北市土城區城林路6巷80號","121.438613333333","24.97975","6501300","土城區"
"242029","986-R7","2017/12/16 17:39:43","新北市新莊區復興路二段60巷2弄10號","121.454833333333","25.04407","6500500","新莊區"
"242051","751-BX","2017/12/16 17:39:43","新北市新莊區西盛街171號","121.428096666667","25.0174216666667","6500500","新莊區"
"242025","615-BX","2017/12/16 17:39:44","新北市新莊區思源路90號","121.460188333333","25.0454083333333","6500500","新莊區"
"242023","613-BX","2017/12/16 17:39:42","新北市新莊區公園路224號","121.456401666667","25.0405833333333","6500500","新莊區"
"242027","612-BX","2017/12/16 17:39:58","新北市新莊區福壽街109號","121.457906666667","25.050885","6500500","新莊區"
"242039","566-BX","2017/12/16 17:39:51","新北市新莊區民全街16號","121.429073333333","25.02192","6500500","新莊區"
"242044","497-BY","2017/12/16 17:39:54","新北市新莊區富國路65巷5號","121.419836666667","25.0264533333333","6500500","新莊區"
"242031","442-UM","2017/12/16 17:39:47","新北市新莊區新泰路369巷19號","121.442903333333","25.04322","6500500","新莊區"
"242048","441-UM","2017/12/16 17:39:45","新北市新莊區萬安街141號","121.42049","25.0219033333333","6500500","新莊區"
"242053","440-UM","2017/12/16 17:39:43","新北市新莊區新樹路699巷27號","121.432805","25.0014983333333","6500500","新莊區"
"242034","415-TV","2017/12/16 17:39:42","新北市新莊區新莊路504號","121.446091666667","25.0332433333333","6500500","新莊區"
"242004","413-TV","2017/12/16 17:39:47","新北市新莊區自立街194號","121.456496666667","25.0455033333333","6500500","新莊區"
"242042","400-BY","2017/12/16 17:39:43","新北市新莊區建國一路2號","121.433575","25.0321733333333","6500500","新莊區"
"242061","362-BY","2017/12/16 17:39:49","新北市新莊區瓊林南路118-46號","121.434328333333","25.0097416666667","6500500","新莊區"
"242058","353-BY","2017/12/16 17:39:42","新北市新莊區中正路618號","121.423746666667","25.0293416666667","6500500","新莊區"
"242007","132-UY","2017/12/16 17:39:52","新北市新莊區福樂街69號","121.457123333333","25.0477383333333","6500500","新莊區"
"242036","133-UY","2017/12/16 17:39:54","新北市新莊區建福路69巷43號","121.428725","25.0276033333333","6500500","新莊區"
"242021","135-UY","2017/12/16 17:39:54","新北市新莊區中華路一段84號","121.452166666667","25.039325","6500500","新莊區"
"242046","172-VK","2017/12/16 17:39:35","新北市新莊區中正路573號","121.434723333333","25.0323466666667","6500500","新莊區"
"242009","173-VK","2017/12/16 17:39:54","新北市新莊區昌明街14巷6弄1號","121.457485","25.0529983333333","6500500","新莊區"
"242015","175-VK","2017/12/16 17:39:43","新北市新莊區新泰路339號","121.444815","25.041875","6500500","新莊區"
"242002","176-VK","2017/12/16 17:39:36","新北市新莊區新莊路337號","121.452373333333","25.0340916666667","6500500","新莊區"
"242013","346-TH","2017/12/16 17:39:53","新北市新莊區中誠街67號","121.450673333333","25.047875","6500500","新莊區"
"242019","348-TH","2017/12/16 17:39:56","新北市新莊區中港路179號","121.454813333333","25.0415166666667","6500500","新莊區"
"242056","349-TH","2017/12/16 17:39:43","新北市新莊區泰豐街21號","121.448293333333","25.031855","6500500","新莊區"
"242017","350-TH","2017/12/16 17:39:56","新北市新莊區復興路一段149巷21弄11號","121.449681666667","25.0440466666667","6500500","新莊區"
"242011","351-TH","2017/12/16 17:39:53","新北市新莊區中港路618-2號","121.45111","25.0545233333333","6500500","新莊區"
"238015","755-BX","2017/12/16 17:39:50","新北市樹林區啟智街16號","121.42108","24.993885","6500700","樹林區"
"238023","601-UM","2017/12/16 17:39:47","新北市樹林區三福街114號","121.406506666667","25.0163383333333","6500700","樹林區"
"238019","599-UM","2017/12/16 17:39:49","新北市樹林區太平路145號","121.41917","24.9799","6500700","樹林區"
"238018","571-TV","2017/12/16 17:39:34","新北市樹林區鎮前街124號","121.424935","24.9909116666667","6500700","樹林區"
"238024","5061-A6","2017/12/16 17:39:58","新北市樹林區忠孝街67巷15號","121.425031666667","24.9818116666667","6500700","樹林區"
"238021","KEA-2217","2017/12/16 17:39:54","新北市樹林區佳園路二段54號","121.391085","24.96106","6500700","樹林區"
"238022","KEA-2213","2017/12/16 17:39:53","新北市樹林區和平街2巷20號","121.421131666667","24.980815","6500700","樹林區"
"238025","303-VK","2017/12/16 17:39:54","新北市樹林區保安街二段48號","121.415321666667","25.002415","6500700","樹林區"
"238017","283-BY","2017/12/16 17:39:45","新北市樹林區三德街30巷16弄27號","121.41366","25.0121266666667","6500700","樹林區"
"238014","282-BY","2017/12/16 17:39:40","新北市樹林區保安街一段364號","121.41777","24.9985433333333","6500700","樹林區"
"238020","268-VK","2017/12/16 17:39:48","新北市樹林區俊英街210號","121.42508","25.0096266666667","6500700","樹林區"
"238026","172-UY","2017/12/16 17:39:53","新北市樹林區新興街19巷34弄1號","121.402055","24.9734633333333","6500700","樹林區"
"238016","169-UY","2017/12/16 17:39:53","新北市樹林區中山路一段143-1號","121.422261666667","24.989605","6500700","樹林區"
"239007","AAC-297","2017/12/16 17:39:51","新北市鶯歌區鶯桃路182巷24號","121.337473333333","24.9562283333333","6500800","鶯歌區"
"239006","891-R6","2017/12/16 17:39:52","新北市鶯歌區永和街115巷18號","121.333458333333","24.9689716666667","6500800","鶯歌區"
"239008","527-UM","2017/12/16 17:39:38","新北市鶯歌區大湖路700巷22弄23號","121.333988333333","24.9773316666667","6500800","鶯歌區"
"239005","526-UM","2017/12/16 17:39:39","新北市鶯歌區福隆二街76號","121.324183333333","24.9712866666667","6500800","鶯歌區"
"239001","417-VK","2017/12/16 17:39:50","新北市鶯歌區中正三路234-4號","121.330663333333","24.9370133333333","6500800","鶯歌區"
"239003","360-BY","2017/12/16 17:39:56","新北市鶯歌區鶯桃路285巷6號","121.334433333333","24.9593116666667","6500800","鶯歌區"
"239002","359-BY","2017/12/16 17:39:47","新北市鶯歌區育樂街51號","121.34366","24.9551133333333","6500800","鶯歌區"
"239004","193-VK","2017/12/16 17:39:41","新北市鶯歌區三鶯路5-1號","121.356468333333","24.9407266666667","6500800","鶯歌區"
"221008","489-VK","2017/12/16 17:39:49","新北市汐止區康寧街901號","121.651378333333","25.075075","6501100","汐止區"
"221010","269-BY","2017/12/16 17:39:49","新北市汐止區汐萬路一段343巷13弄14號","121.649975","25.0763616666667","6501100","汐止區"
"221012","276-VK","2017/12/16 13:21:53","新北市汐止區汐萬路一段256巷3號","121.653441666667","25.07464","6501100","汐止區"
"221032","280-BY","2017/12/16 17:39:45","新北市汐止區樟樹二路108號","121.639686666667","25.0647266666667","6501100","汐止區"
"221021","299-VK","2017/12/16 17:39:54","新北市汐止區康寧街901號","121.651286666667","25.0751","6501100","汐止區"
"221033","647-BX","2017/12/16 17:39:38","新北市汐止區新台五路一段83號","121.646151666667","25.0608616666667","6501100","汐止區"
"220010","305-R5","2017/12/16 16:05:39","新北市板橋區民生路二段120號","121.470393333333","25.01977","6500100","板橋區"
