"lineid","car","time","location","longitude","latitude","cityid","cityname"
"234026","9371-KE","2017/12/16 17:59:42","新北市永和區永和路一段41號","121.512768333333","25.0062133333333","6500400","永和區"
"249005","172-UM","2017/12/16 17:59:38","新北市八里區荖阡坑路18號","121.397835","25.1382666666667","6502300","八里區"
"249001","173-UM","2017/12/16 17:59:41","新北市八里區龍米路二段36號","121.44853","25.1401216666667","6502300","八里區"
"249004","303-UY","2017/12/16 17:59:39","新北市八里區龍米路三段26號","121.428846666667","25.1590183333333","6502300","八里區"
"249002","305-UY","2017/12/16 17:59:47","新北市八里區龍米路一段440巷10號","121.451353333333","25.1338533333333","6502300","八里區"
"249003","593-UM","2017/12/16 17:59:42","新北市八里區中山路二段306號","121.404643333333","25.1501416666667","6502300","八里區"
"248006","077-UY","2017/12/16 17:59:36","新北市五股區中興路二段83巷26-6號","121.459985","25.0749966666667","6501500","五股區"
"248008","095-VK","2017/12/16 17:59:40","新北市五股區更洲路10號","121.458315","25.0787866666667","6501500","五股區"
"248020","225-UY","2017/12/16 17:59:38","新北市五股區中興路二段83巷26-6號","121.460011666667","25.0751766666667","6501500","五股區"
"248004","677-BX","2017/12/16 17:59:56","新北市五股區中興路二段161號","121.457803333333","25.0768133333333","6501500","五股區"
"248002","678-BX","2017/12/16 17:59:44","新北市五股區中興路二段83巷26-6號","121.459755","25.075075","6501500","五股區"
"232011","375-UM","2017/12/16 17:59:45","新北市坪林區北宜路八段301號","121.711018333333","24.9339016666667","6502000","坪林區"
"244013","069-UM","2017/12/16 17:59:44","新北市林口區中山路67號","121.393563333333","25.07843","6501700","林口區"
"244007","080-UY","2017/12/16 17:59:42","新北市林口區林口路125號","121.388811666667","25.0810566666667","6501700","林口區"
"244019","403-UM","2017/12/16 17:59:49","新北市林口區麗園路121號","121.371566666667","25.0675166666667","6501700","林口區"
"244023","483-VK","2017/12/16 17:59:38","新北市林口區東湖路75巷53號","121.385528333333","25.071795","6501700","林口區"
"244017","485-VK","2017/12/16 17:59:43","新北市林口區忠孝路380號","121.369428333333","25.0712466666667","6501700","林口區"
"244009","657-BX","2017/12/16 17:59:47","新北市林口區竹林路582巷16-1號","121.386066666667","25.0833416666667","6501700","林口區"
"244011","701-TV","2017/12/16 17:59:56","新北市林口區中正路285號","121.389658333333","25.0777116666667","6501700","林口區"
"244025","837-TS","2017/12/16 17:59:48","新北市林口區惠民街41號","121.356841666667","25.0668666666667","6501700","林口區"
"244021","838-TS","2017/12/16 17:59:49","新北市林口區新寮44號","121.404028333333","25.0650183333333","6501700","林口區"
"243013","646-TV","2017/12/16 17:59:47","新北市泰山區自強路5-1號","121.419675","25.063","6501600","泰山區"
"222003","436-BY","2017/12/16 17:59:46","新北市深坑區炮子崙20-2號","121.606738333333","24.989915","6501800","深坑區"
"222002","659-BX","2017/12/16 17:59:42","新北市深坑區文化街98號","121.617121666667","25.0017783333333","6501800","深坑區"
"231046","278-BY","2017/12/16 17:59:56","新北市新店區康雅崙路3號","121.539013333333","24.9254883333333","6500600","新店區"
"241024","065-VK","2017/12/16 17:59:44","新北市三重區中正北路193巷35弄25號","121.477111666667","25.070975","6500200","三重區"
"241016","266-UM","2017/12/16 17:59:50","新北市三重區光復路二段143巷8-3號","121.47609","25.0615966666667","6500200","三重區"
"241033","AAC-255","2017/12/16 17:59:53","新北市三重區重新路五段561號","121.470406666667","25.045975","6500200","三重區"
"235064","005-UY","2017/12/16 17:59:43","新北市中和區員山路36巷16-3號","121.48505","24.9912983333333","6500300","中和區"
"235063","006-UY","2017/12/16 17:59:37","新北市中和區員山路36巷16-3號","121.485053333333","24.991305","6500300","中和區"
"235046","031-BX","2017/12/16 15:51:10","新北市中和區員山路36巷16-2號","121.485235","24.99159","6500300","中和區"
"235058","151-BY","2017/12/16 17:59:48","新北市中和區錦和路350-1號","121.490558333333","24.9934983333333","6500300","中和區"
"235038","185-VK","2017/12/16 17:59:43","新北市中和區景平路353號","121.50478","24.9933583333333","6500300","中和區"
"235067","255-BX","2017/12/16 17:38:58","新北市中和區和城路一段271巷1號","121.485563333333","24.9919233333333","6500300","中和區"
"235072","301-VK","2017/12/16 17:59:44","新北市中和區員山路36巷12號","121.483998333333","24.9908866666667","6500300","中和區"
"235061","378-QA","2017/12/16 15:19:45","新北市中和區員山路36巷13號","121.484383333333","24.99123","6500300","中和區"
"235050","4979-A6","2017/12/16 17:59:45","新北市中和區員山路36巷13號","121.484331666667","24.9910033333333","6500300","中和區"
"235062","800-TS","2017/12/16 17:59:51","新北市中和區員山路36巷16-6號","121.485336666667","24.9921116666667","6500300","中和區"
"235057","801-TS","2017/12/16 17:59:40","新北市中和區員山路36巷16-3號","121.485095","24.9913766666667","6500300","中和區"
"235065","911-UM","2017/12/16 17:59:44","新北市中和區中正路806號","121.485065","25.0021216666667","6500300","中和區"
"235037","AAC-213","2017/12/16 17:59:42","新北市中和區錦和路350-1號","121.490141666667","24.9935266666667","6500300","中和區"
"247012","546-UM","2017/12/16 17:59:44","新北市蘆洲區民族路167巷16號","121.478255","25.088405","6501400","蘆洲區"
"247020","500-BY","2017/12/16 17:59:43","新北市蘆洲區民義街35巷7號","121.471495","25.089485","6501400","蘆洲區"
"247002","337-TH","2017/12/16 17:59:51","新北市蘆洲區永平街32巷57弄30號","121.458738333333","25.0934683333333","6501400","蘆洲區"
"247016","057-VK","2017/12/16 17:59:46","新北市蘆洲區中正路185巷53號","121.465455","25.0837666666667","6501400","蘆洲區"
"247006","056-VK","2017/12/16 17:59:53","新北市蘆洲區中華街6號","121.463486666667","25.0815983333333","6501400","蘆洲區"
"247018","001-UY","2017/12/16 17:59:59","新北市蘆洲區復興路286號","121.48073","25.0897816666667","6501400","蘆洲區"
"226004","312-R5","2017/12/16 17:59:55","新北市平溪區石底里石筍尖16號","121.732548333333","25.0260266666667","6502400","平溪區"
"228003","097-TW","2017/12/16 17:59:43","新北市貢寮區真理里美艷山街6-2號","121.928861666667","25.0607","6502600","貢寮區"
"228001","212-TW","2017/12/16 17:59:54","新北市貢寮區仁理村仁愛路106巷36號","121.928711666667","25.05348","6502600","貢寮區"
"228002","585-TW","2017/12/16 17:59:47","新北市貢寮區福隆里桂安街17號","121.967383333333","25.0232166666667","6502600","貢寮區"
"224006","676-BX","2017/12/16 17:59:43","新北市瑞芳區傑魚坑路191號","121.788013333333","25.1075166666667","6501200","瑞芳區"
"224002","639-TC","2017/12/16 17:59:47","新北市瑞芳區三爪子坑路32巷2號","121.810296666667","25.106135","6501200","瑞芳區"
"224009","285-BY","2017/12/16 17:59:44","新北市瑞芳區山尖路49號","121.852503333333","25.115195","6501200","瑞芳區"
"224008","275-VK","2017/12/16 17:59:41","新北市瑞芳區明燈路一段201巷97-1號","121.81873","25.1066016666667","6501200","瑞芳區"
"224007","273-VK","2017/12/16 17:59:46","新北市瑞芳區大寮路2-2號","121.78561","25.10203","6501200","瑞芳區"
"224005","271-BY","2017/12/16 17:59:54","新北市瑞芳區深澳路185-5號","121.820676666667","25.133745","6501200","瑞芳區"
"253005","032-BX","2017/12/16 17:59:54","新北市石門區中山路62-11號","121.567535","25.28962","6502200","石門區"
"253006","295-VK","2017/12/16 17:59:41","新北市石門區大丘田45-2號","121.549823333333","25.2748116666667","6502200","石門區"
"208002","742-BX","2017/12/16 17:59:55","新北市金山區三界壇路44號","121.62371","25.2289983333333","6502700","金山區"
"208003","665-BX","2017/12/16 17:59:40","新北市金山區磺港里磺港路314號","121.644456666667","25.2279016666667","6502700","金山區"
"208001","761-BX","2017/12/16 17:59:43","新北市金山區磺港里磺港路247號","121.643615","25.2249166666667","6502700","金山區"
"251004","009-UM","2017/12/16 17:59:58","新北市淡水區民權路187巷9號","121.45994","25.133465","6501000","淡水區"
"251001","011-UM","2017/12/16 17:59:50","新北市淡水區民權路15號","121.463233333333","25.1244183333333","6501000","淡水區"
"251014","180-VK","2017/12/16 17:59:38","新北市淡水區公埔子16-6號","121.481","25.22458","6501000","淡水區"
"251008","181-VK","2017/12/16 17:59:44","新北市淡水區八勢一街57號","121.461891666667","25.1553483333333","6501000","淡水區"
"251010","413-VK","2017/12/16 17:56:35","新北市淡水區中正路一段87巷1號","121.421653333333","25.1790383333333","6501000","淡水區"
"251012","441-VK","2017/12/16 17:59:53","新北市淡水區北新路三段38巷7號","121.484533333333","25.1870033333333","6501000","淡水區"
"251016","442-VK","2017/12/16 17:59:51","新北市淡水區淡金路三段26號","121.447763333333","25.1982583333333","6501000","淡水區"
"251005","443-VK","2017/12/16 17:59:42","新北市淡水區英專路125-6號","121.446015","25.1726216666667","6501000","淡水區"
"251006","561-UM","2017/12/16 17:59:41","新北市淡水區新生街78號","121.439056666667","25.17473","6501000","淡水區"
"251009","575-R6","2017/12/16 17:59:48","新北市淡水區大仁街6巷1號","121.442431666667","25.1746066666667","6501000","淡水區"
"251011","650-BX","2017/12/16 17:59:57","新北市淡水區三空泉5號","121.477446666667","25.162035","6501000","淡水區"
"251002","672-BX","2017/12/16 17:59:43","新北市淡水區鼻頭街18-5號","121.446795","25.16675","6501000","淡水區"
"251003","673-BX","2017/12/16 17:59:50","新北市淡水區大忠街113巷24號","121.447393333333","25.177505","6501000","淡水區"
"207003","550-UM","2017/12/16 17:59:53","新北市萬里區港東路野柳風景區攤販98號","121.690808333333","25.20553","6502800","萬里區"
"207004","225-TW","2017/12/16 17:59:55","新北市萬里區中幅里中福路48號","121.683495","25.1740816666667","6502800","萬里區"
"252002","178-VK","2017/12/16 17:59:27","新北市三芝區中山路二段29號","121.502673333333","25.2553116666667","6502100","三芝區"
"252001","292-VK","2017/12/16 17:59:44","新北市三芝區中興街一段47號","121.49796","25.2573333333333","6502100","三芝區"
"237004","078-UY","2017/12/16 17:59:48","新北市三峽區大埔路150-1號","121.367465","24.9021883333333","6500900","三峽區"
"237007","153-BY","2017/12/16 17:59:55","新北市三峽區中正路二段92號","121.366378333333","24.917775","6500900","三峽區"
"237009","210-TH","2017/12/16 17:59:45","新北市三峽區中山路106巷29號","121.36603","24.9365483333333","6500900","三峽區"
"237013","252-BX","2017/12/16 17:59:46","新北市三峽區介壽路一段201號","121.378296666667","24.9306316666667","6500900","三峽區"
"237012","275-BY","2017/12/16 17:59:39","新北市三峽區民生街27巷30號","121.376041666667","24.936135","6500900","三峽區"
"237008","302-VK","2017/12/16 17:59:50","新北市三峽區白雞38-6號","121.374348333333","24.9123216666667","6500900","三峽區"
"237014","433-BY","2017/12/16 17:59:52","新北市三峽區復興路101巷1弄28號","121.37102","24.9377466666667","6500900","三峽區"
"237006","5529-G3","2017/12/16 17:59:38","新北市三峽區介壽路二段138巷1弄160-19號","121.402413333333","24.9300533333333","6500900","三峽區"
"237011","572-TV","2017/12/16 17:57:42","新北市三峽區大同路2-1號","121.378368333333","24.93007","6500900","三峽區"
"237016","649-BX","2017/12/16 17:59:27","新北市三峽區白雞149-2號","121.400175","24.9055766666667","6500900","三峽區"
"237010","706-TV","2017/12/16 17:58:53","新北市三峽區中園街20號","121.36832","24.9270033333333","6500900","三峽區"
"237005","AKY-6261","2017/12/16 17:59:44","新北市三峽區復興路119-3號","121.369655","24.9386466666667","6500900","三峽區"
"236073","105-UM","2017/12/16 17:59:48","新北市土城區石門路15-1號","121.459366666667","24.9671833333333","6501300","土城區"
"236043","107-UM","2017/12/16 17:59:38","新北市土城區城林路6巷80號","121.43847","24.9796883333333","6501300","土城區"
"236079","166-UM","2017/12/16 17:58:59","新北市土城區永寧路32巷10弄18-2號","121.429026666667","24.960975","6501300","土城區"
"236031","253-BX","2017/12/16 17:59:38","新北市土城區城林路6巷80號","121.438423333333","24.9797633333333","6501300","土城區"
"236027","269-VK","2017/12/16 17:59:41","新北市土城區承天路18號","121.439536666667","24.9634666666667","6501300","土城區"
"236015","270-VK","2017/12/16 17:59:53","新北市土城區城林路6巷80號","121.438491666667","24.97956","6501300","土城區"
"236038","271-VK","2017/12/16 17:59:52","新北市土城區城林路6巷80號","121.438445","24.9797266666667","6501300","土城區"
"236023","401-BY","2017/12/16 17:59:45","新北市土城區城林路6巷80號","121.438723333333","24.9796466666667","6501300","土城區"
"236059","912-UM","2017/12/16 17:59:49","新北市土城區永寧路1號","121.430448333333","24.9648483333333","6501300","土城區"
"236049","913-UM","2017/12/16 17:59:46","新北市土城區城林路6巷80號","121.438536666667","24.9796666666667","6501300","土城區"
"236063","915-UM","2017/12/16 17:59:46","新北市土城區城林路6巷80號","121.438698333333","24.9797366666667","6501300","土城區"
"236055","AAC-216","2017/12/16 17:59:55","新北市土城區城林路6巷80號","121.438453333333","24.9795916666667","6501300","土城區"
"242029","986-R7","2017/12/16 17:59:43","新北市新莊區中平路50號","121.444808333333","25.0439683333333","6500500","新莊區"
"242051","751-BX","2017/12/16 17:59:43","新北市新莊區龍安路500號","121.426663333333","25.017155","6500500","新莊區"
"242025","615-BX","2017/12/16 17:59:47","新北市新莊區五工路70-1號","121.457788333333","25.06367","6500500","新莊區"
"242023","613-BX","2017/12/16 17:59:42","新北市新莊區福壽街43號","121.458228333333","25.04866","6500500","新莊區"
"242027","612-BX","2017/12/16 17:59:54","新北市新莊區思源路377號","121.459713333333","25.0511433333333","6500500","新莊區"
"242039","566-BX","2017/12/16 17:59:51","新北市新莊區民安西路22號","121.426626666667","25.021305","6500500","新莊區"
"242044","497-BY","2017/12/16 17:59:54","新北市新莊區雙鳳路119號","121.41345","25.02806","6500500","新莊區"
"242031","442-UM","2017/12/16 17:59:47","新北市新莊區新泰路316號","121.445153333333","25.0414966666667","6500500","新莊區"
"242048","441-UM","2017/12/16 17:59:37","新北市新莊區後港二路10號","121.42283","25.0240783333333","6500500","新莊區"
"242053","440-UM","2017/12/16 17:59:43","新北市新莊區光華街10號","121.428815","25.0107983333333","6500500","新莊區"
"242034","415-TV","2017/12/16 17:59:46","新北市新莊區福海街22號","121.445261666667","25.0339033333333","6500500","新莊區"
"242004","413-TV","2017/12/16 17:59:47","新北市新莊區福樂街72巷16號","121.458688333333","25.04657","6500500","新莊區"
"242042","400-BY","2017/12/16 17:59:43","新北市新莊區丹鳳街36號","121.421608333333","25.0295616666667","6500500","新莊區"
"242061","362-BY","2017/12/16 17:59:49","新北市新莊區新樹路247號","121.434956666667","25.0220583333333","6500500","新莊區"
"242058","353-BY","2017/12/16 17:59:42","新北市新莊區雙鳳路134巷22號","121.412743333333","25.0282716666667","6500500","新莊區"
"242007","132-UY","2017/12/16 17:59:52","新北市新莊區自信街65巷12號","121.4555","25.048675","6500500","新莊區"
"242036","133-UY","2017/12/16 17:59:54","新北市新莊區中正路685號","121.426013333333","25.0299566666667","6500500","新莊區"
"242021","135-UY","2017/12/16 17:59:51","新北市新莊區中華路一段6號","121.451961666667","25.0364983333333","6500500","新莊區"
"242046","172-VK","2017/12/16 17:59:55","新北市新莊區福營路184號","121.431326666667","25.0307933333333","6500500","新莊區"
"242009","173-VK","2017/12/16 17:59:49","新北市新莊區中華路二段258巷25號","121.453151666667","25.05429","6500500","新莊區"
"242015","175-VK","2017/12/16 17:59:43","新北市新莊區中平路87巷3號","121.444365","25.0457366666667","6500500","新莊區"
"242002","176-VK","2017/12/16 17:59:56","新北市新莊區中正路153-1號","121.455976666667","25.03672","6500500","新莊區"
"242013","346-TH","2017/12/16 17:59:53","新北市新莊區中和街110號","121.447575","25.0470683333333","6500500","新莊區"
"242019","348-TH","2017/12/16 17:59:36","新北市新莊區明中街20號","121.45744","25.039395","6500500","新莊區"
"242056","349-TH","2017/12/16 17:59:43","新北市新莊區豐年街124巷22號","121.445523333333","25.030035","6500500","新莊區"
"242017","350-TH","2017/12/16 17:59:56","新北市新莊區中和街60巷15號","121.448601666667","25.0448183333333","6500500","新莊區"
"242011","351-TH","2017/12/16 17:59:53","新北市新莊區中榮街56巷8弄2號","121.44922","25.0534066666667","6500500","新莊區"
"238015","755-BX","2017/12/16 17:59:38","新北市樹林區復興路211巷7弄10號","121.420213333333","24.9912483333333","6500700","樹林區"
"238023","601-UM","2017/12/16 17:59:48","新北市樹林區龍興街38號","121.40303","25.0157433333333","6500700","樹林區"
"238019","599-UM","2017/12/16 17:59:51","新北市樹林區水源街67號","121.425505","24.98202","6500700","樹林區"
"238018","571-TV","2017/12/16 17:59:54","新北市樹林區中正路7-1號","121.43025","24.997575","6500700","樹林區"
"238021","KEA-2217","2017/12/16 17:59:54","新北市樹林區柑園街一段35號","121.403626666667","24.9601516666667","6500700","樹林區"
"238022","KEA-2213","2017/12/16 17:59:53","新北市樹林區太順街86巷25號","121.41642","24.9781866666667","6500700","樹林區"
"238025","303-VK","2017/12/16 17:59:54","新北市樹林區俊興街209-6號","121.417563333333","25.01456","6500700","樹林區"
"238017","283-BY","2017/12/16 17:59:45","新北市樹林區三德街27號","121.413825","25.0130333333333","6500700","樹林區"
"238014","282-BY","2017/12/16 17:59:40","新北市樹林區中正路103號","121.425303333333","25.000765","6500700","樹林區"
"238020","268-VK","2017/12/16 17:59:48","新北市樹林區俊興街286號","121.418673333333","25.0170116666667","6500700","樹林區"
"238026","172-UY","2017/12/16 17:59:53","新北市樹林區中洲街30巷4號","121.397386666667","24.9715966666667","6500700","樹林區"
"238016","169-UY","2017/12/16 17:59:53","新北市樹林區復興路306號","121.416888333333","24.9871733333333","6500700","樹林區"
"239007","AAC-297","2017/12/16 17:59:51","新北市鶯歌區永樂街5號","121.341778333333","24.9530883333333","6500800","鶯歌區"
"239006","891-R6","2017/12/16 17:59:36","新北市鶯歌區鶯桃路457號","121.332103333333","24.9656566666667","6500800","鶯歌區"
"239008","527-UM","2017/12/16 17:59:38","新北市鶯歌區朝陽街46巷2號","121.337281666667","24.9775816666667","6500800","鶯歌區"
"239005","526-UM","2017/12/16 17:59:39","桃園市八德區桃鶯路58號","121.327211666667","24.9709183333333","6500800","鶯歌區"
"239001","417-VK","2017/12/16 17:59:50","新北市鶯歌區中正三路106-1號","121.338115","24.9408916666667","6500800","鶯歌區"
"239003","360-BY","2017/12/16 17:59:36","新北市鶯歌區福安街32巷20號","121.335031666667","24.96371","6500800","鶯歌區"
"239002","359-BY","2017/12/16 17:59:39","新北市鶯歌區光明街100號","121.345983333333","24.95603","6500800","鶯歌區"
"239004","193-VK","2017/12/16 17:59:41","新北市鶯歌區尖山路103-7號","121.348066666667","24.9487866666667","6500800","鶯歌區"
"221008","489-VK","2017/12/16 17:59:49","新北市汐止區明峰街21號","121.634496666667","25.0713583333333","6501100","汐止區"
"221036","130-UY","2017/12/16 17:59:44","新北市汐止區大同路三段42號","121.667186666667","25.0767383333333","6501100","汐止區"
"221010","269-BY","2017/12/16 17:59:50","新北市汐止區汐萬路二段224號","121.646741666667","25.0878566666667","6501100","汐止區"
"221012","276-VK","2017/12/16 13:21:53","新北市汐止區汐萬路一段256巷3號","121.653441666667","25.07464","6501100","汐止區"
"221012","278-VK","2017/12/16 17:59:39","新北市汐止區長興街二段50巷1號","121.674113333333","25.0817083333333","6501100","汐止區"
"221023","279-VK","2017/12/16 17:59:45","新北市汐止區明峰街162號","121.629211666667","25.070545","6501100","汐止區"
"221032","280-BY","2017/12/16 17:59:45","新北市汐止區橫科路73巷22-2號","121.619318333333","25.0514966666667","6501100","汐止區"
"221027","281-BY","2017/12/16 17:59:51","新北市汐止區大同路二段403號","121.658146666667","25.0672183333333","6501100","汐止區"
"221029","298-VK","2017/12/16 17:59:48","新北市汐止區樟樹二路328號","121.641405","25.070305","6501100","汐止區"
"221021","299-VK","2017/12/16 17:59:54","新北市汐止區復興路24號","121.655966666667","25.0637283333333","6501100","汐止區"
"221031","353-TW","2017/12/16 17:59:45","新北市汐止區中興路152-3號","121.6324","25.0647133333333","6501100","汐止區"
"221015","567-BX","2017/12/16 17:59:39","新北市汐止區長江街309-1號","121.666273333333","25.0815416666667","6501100","汐止區"
"221035","622-UM","2017/12/16 17:59:49","新北市汐止區新江北路30巷15號","121.65271","25.069675","6501100","汐止區"
"221025","623-UM","2017/12/16 17:59:45","新北市汐止區仁愛路47號","121.659668333333","25.0632133333333","6501100","汐止區"
"221038","646-BX","2017/12/16 17:59:55","新北市汐止區連興街128巷7弄10號","121.65351","25.061285","6501100","汐止區"
"221033","647-BX","2017/12/16 17:59:38","新北市汐止區合順街39巷4號","121.620761666667","25.0433333333333","6501100","汐止區"
"221018","753-BX","2017/12/16 17:59:45","新北市汐止區招商街11巷1號","121.666463333333","25.0689166666667","6501100","汐止區"
"220010","305-R5","2017/12/16 16:05:39","新北市板橋區民生路二段120號","121.470393333333","25.01977","6500100","板橋區"
