"lineid","car","time","location","longitude","latitude","cityid","cityname"
"234046","148-BY","2017/12/16 18:29:56","新北市永和區豫溪街217巷1號","121.52528","25.00974","6500400","永和區"
"234013","149-BY","2017/12/16 18:29:44","新北市永和區福和路1號","121.526061666667","25.009465","6500400","永和區"
"234007","207-UY","2017/12/16 18:29:55","新北市永和區環河西路二段7-9號","121.509073333333","25.0168316666667","6500400","永和區"
"234081","298-R6","2017/12/16 18:29:51","新北市永和區福和路1號","121.52505","25.0090733333333","6500400","永和區"
"234086","338-UY","2017/12/16 18:29:47","新北市永和區福和路41-1號","121.523538333333","25.0080783333333","6500400","永和區"
"234042","862-TW","2017/12/16 18:29:50","新北市永和區福和路338號","121.515246666667","25.0071916666667","6500400","永和區"
"234050","863-TW","2017/12/16 18:29:48","新北市永和區福和路1號","121.526485","25.00981","6500400","永和區"
"234026","9371-KE","2017/12/16 18:29:41","新北市永和區永貞路417巷27號","121.505953333333","25.0090116666667","6500400","永和區"
"234011","9373-KE","2017/12/16 18:29:54","新北市永和區保福路二段158巷1號","121.5091","25.0150416666667","6500400","永和區"
"249005","172-UM","2017/12/16 18:29:38","新北市八里區中華路三段130號","121.392315","25.13537","6502300","八里區"
"249001","173-UM","2017/12/16 18:29:41","新北市八里區龍米路一段136號","121.453025","25.1255033333333","6502300","八里區"
"249004","303-UY","2017/12/16 18:29:39","新北市八里區忠孝路51號","121.42819","25.16016","6502300","八里區"
"249002","305-UY","2017/12/16 18:29:47","新北市八里區龍形三街17號","121.448998333333","25.1316433333333","6502300","八里區"
"248014","025-BX","2017/12/16 18:29:41","新北市五股區明德路7巷31號","121.434766666667","25.0707966666667","6501500","五股區"
"248016","026-BX","2017/12/16 18:29:49","新北市五股區凌雲路一段83巷22弄1號","121.449848333333","25.100795","6501500","五股區"
"248006","077-UY","2017/12/16 18:29:56","新北市五股區四維路77號","121.467291666667","25.0721883333333","6501500","五股區"
"248008","095-VK","2017/12/16 18:29:40","新北市五股區四維路185巷42弄1號","121.463405","25.0769066666667","6501500","五股區"
"248020","225-UY","2017/12/16 18:29:59","新北市五股區孝義路57-1號","121.453916666667","25.1125016666667","6501500","五股區"
"248012","247-BX","2017/12/16 18:29:57","新北市五股區御成路56號","121.44169","25.0923716666667","6501500","五股區"
"248010","272-BY","2017/12/16 18:29:39","新北市五股區水碓路1號","121.433886666667","25.0721516666667","6501500","五股區"
"248004","677-BX","2017/12/16 18:29:56","新北市五股區民義路一段152號","121.43308","25.087425","6501500","五股區"
"248002","678-BX","2017/12/16 18:29:49","新北市五股區西雲路118-1號","121.444956666667","25.093725","6501500","五股區"
"234077","969-R7","2017/12/16 18:29:50","新北市永和區福和路1號","121.525888333333","25.0092533333333","6500400","永和區"
"232011","375-UM","2017/12/16 18:17:21","新北市坪林區坪雙路一段43號","121.711745","24.9424516666667","6502000","坪林區"
"244013","069-UM","2017/12/16 18:29:44","新北市林口區中山路255號","121.385346666667","25.0793316666667","6501700","林口區"
"244007","080-UY","2017/12/16 18:29:42","新北市林口區後湖2-16號","121.389128333333","25.09689","6501700","林口區"
"244019","403-UM","2017/12/16 18:29:49","新北市林口區忠孝路581巷8號","121.375055","25.068885","6501700","林口區"
"244023","483-VK","2017/12/16 18:29:38","新北市林口區四維路251號","121.381578333333","25.0747966666667","6501700","林口區"
"244017","485-VK","2017/12/16 18:29:38","新北市林口區文化二路一段166號","121.368625","25.071675","6501700","林口區"
"244009","657-BX","2017/12/16 18:29:47","新北市林口區文林一街115巷18號","121.378915","25.0876333333333","6501700","林口區"
"244011","701-TV","2017/12/16 18:29:56","新北市林口區新生街9號","121.394268333333","25.0768783333333","6501700","林口區"
"244025","837-TS","2017/12/16 18:29:48","新北市林口區南勢四街228號","121.35649","25.0739783333333","6501700","林口區"
"244021","838-TS","2017/12/16 18:29:49","新北市林口區自強六街18號","121.39961","25.07642","6501700","林口區"
"243013","646-TV","2017/12/16 18:29:47","新北市泰山區明志路三段206巷1號","121.423286666667","25.03787","6501600","泰山區"
"222003","436-BY","2017/12/16 18:29:46","新北市深坑區烏月路56-1號","121.631235","25.0057466666667","6501800","深坑區"
"222002","659-BX","2017/12/16 18:29:42","新北市深坑區雲鄉路99號","121.623063333333","24.9983983333333","6501800","深坑區"
"231059","046-UY","2017/12/16 18:29:52","新北市新店區安華路28-1號","121.51958","24.960635","6500600","新店區"
"231061","047-UY","2017/12/16 18:29:42","新北市新店區安華路28-1號","121.519153333333","24.96099","6500600","新店區"
"231060","106-UY","2017/12/16 18:29:51","新北市新店區安華路28-1號","121.519546666667","24.960785","6500600","新店區"
"231051","107-UY","2017/12/16 18:29:50","新北市新店區安華路28-1號","121.519673333333","24.9614616666667","6500600","新店區"
"231048","108-UY","2017/12/16 18:29:54","新北市新店區安華路28-1號","121.519383333333","24.9610683333333","6500600","新店區"
"231052","187-VK","2017/12/16 18:29:48","新北市新店區北宜路一段168號","121.540621666667","24.9531083333333","6500600","新店區"
"231050","KEA-2219","2017/12/16 18:29:50","新北市新店區安華路28-1號","121.519906666667","24.9611666666667","6500600","新店區"
"231057","256-BX","2017/12/16 18:29:46","新北市新店區北宜路一段9號","121.53811","24.958035","6500600","新店區"
"231046","278-BY","2017/12/16 18:29:36","新北市新店區直潭七街60號","121.532276666667","24.9398083333333","6500600","新店區"
"231054","AAD-862","2017/12/16 16:26:02","新北市新店區安華路28-1號","121.519625","24.9611233333333","6500600","新店區"
"231058","3712-VJ","2017/12/16 18:29:54","新北市新店區新店後街72號","121.5376","24.9544633333333","6500600","新店區"
"231056","3713-VJ","2017/12/16 18:29:41","新北市新店區自立街45巷7號","121.53661","24.9795483333333","6500600","新店區"
"231055","4716-K9","2017/12/16 18:29:52","新北市新店區中正路128巷11號","121.54262","24.972125","6500600","新店區"
"231067","4772-VM","2017/12/16 18:29:49","新北市新店區安華路1-1號","121.519196666667","24.9605183333333","6500600","新店區"
"231065","512-UM","2017/12/16 18:29:39","新北市新店區安康路一段359-27號","121.518935","24.96132","6500600","新店區"
"231064","515-UM","2017/12/16 16:34:15","新北市新店區安華路28-1號","121.519568333333","24.9610416666667","6500600","新店區"
"231045","617-UM","2017/12/16 18:19:14","新北市新店區安華路28-1號","121.519458333333","24.9609516666667","6500600","新店區"
"231041","618-UM","2017/12/16 18:29:49","新北市新店區安華路28-1號","121.519315","24.960885","6500600","新店區"
"231040","619-UM","2017/12/16 18:29:42","新北市新店區安華路28-1號","121.519451666667","24.96081","6500600","新店區"
"231042","641-BX","2017/12/16 18:29:41","新北市新店區安華路28-1號","121.519533333333","24.9606166666667","6500600","新店區"
"231063","645-TV","2017/12/16 18:29:36","新北市新店區安華路28-1號","121.519348333333","24.9605783333333","6500600","新店區"
"231049","719-UM","2017/12/16 18:29:50","新北市新店區安華路28-1號","121.519445","24.961105","6500600","新店區"
"231062","720-UM","2017/12/16 18:29:49","新北市新店區安華路28-1號","121.519275","24.9612316666667","6500600","新店區"
"231044","897-TW","2017/12/16 18:29:41","新北市新店區安華路28-1號","121.519648333333","24.9606866666667","6500600","新店區"
"231043","899-TW","2017/12/16 18:29:50","新北市新店區安華路28-1號","121.519173333333","24.9608183333333","6500600","新店區"
"231066","AKT-0513","2017/12/16 18:29:48","新北市新店區安華路28-1號","121.519471666667","24.960595","6500600","新店區"
"235066","003-UY","2017/12/16 18:29:50","新北市中和區中山路二段120號","121.50272","25.00365","6500300","中和區"
"235064","005-UY","2017/12/16 18:29:43","新北市中和區圓通路139號","121.49899","24.99547","6500300","中和區"
"235063","006-UY","2017/12/16 18:29:37","新北市中和區連城路347巷16弄23號","121.487691666667","24.9950583333333","6500300","中和區"
"235046","031-BX","2017/12/16 18:29:38","新北市中和區中正路169號","121.498101666667","24.993555","6500300","中和區"
"235056","096-UM","2017/12/16 18:29:54","新北市中和區員山路611巷1號","121.477898333333","25.0112083333333","6500300","中和區"
"235039","097-UM","2017/12/16 18:29:44","新北市中和區安平路161號","121.512445","24.9983883333333","6500300","中和區"
"235040","150-BY","2017/12/16 18:29:49","新北市中和區安平路38號","121.509826666667","24.994965","6500300","中和區"
"235058","151-BY","2017/12/16 18:29:48","新北市中和區圓通路369巷36弄26號","121.488766666667","24.98397","6500300","中和區"
"235055","183-VK","2017/12/16 18:29:41","新北市中和區莒光路140-1號","121.472606666667","25.001105","6500300","中和區"
"235038","185-VK","2017/12/16 18:29:49","新北市中和區自強路48號","121.520116666667","24.994935","6500300","中和區"
"235049","186-VK","2017/12/16 18:29:36","新北市中和區景平路361號","121.504561666667","24.9934066666667","6500300","中和區"
"235067","255-BX","2017/12/16 18:29:36","新北市中和區連城路314號","121.483545","24.9960816666667","6500300","中和區"
"235044","293-VK","2017/12/16 18:29:45","新北市中和區復興路301巷15號","121.50155","24.9898383333333","6500300","中和區"
"235072","301-VK","2017/12/16 18:29:44","新北市中和區安邦街8號","121.49562","24.99817","6500300","中和區"
"235043","352-BY","2017/12/16 18:29:49","新北市中和區景平路287號","121.507288333333","24.9931383333333","6500300","中和區"
"235068","377-QA","2017/12/16 18:29:51","新北市中和區圓通路283號","121.495421666667","24.9930083333333","6500300","中和區"
"235061","378-QA","2017/12/16 18:29:54","新北市中和區民享街97巷14號","121.475228333333","24.9996983333333","6500300","中和區"
"235050","4979-A6","2017/12/16 18:29:45","新北市中和區景新街418巷14號","121.512173333333","24.988885","6500300","中和區"
"235069","4980-A6","2017/12/16 18:29:54","新北市中和區連城路103號","121.496336666667","24.99965","6500300","中和區"
"235042","551-UM","2017/12/16 18:29:55","新北市中和區自立路56巷3號","121.523356666667","24.991715","6500300","中和區"
"235070","558-UM","2017/12/16 18:29:50","新北市中和區景平路453號","121.50077","24.9964216666667","6500300","中和區"
"235045","565-BX","2017/12/16 18:29:47","新北市中和區南山路236巷22弄4號","121.50561","24.989205","6500300","中和區"
"235054","640-BX","2017/12/16 18:29:53","新北市中和區民享街90巷1號","121.474785","25.0001766666667","6500300","中和區"
"235060","647-TV","2017/12/16 18:29:55","新北市中和區員山路173號","121.481146666667","24.9969333333333","6500300","中和區"
"235047","732-UM","2017/12/16 18:29:54","新北市中和區南山路300號","121.507865","24.9870533333333","6500300","中和區"
"235062","800-TS","2017/12/16 18:29:51","新北市中和區景平路677巷5號","121.496316666667","25.0027966666667","6500300","中和區"
"235057","801-TS","2017/12/16 18:29:40","新北市中和區民享街97巷19號","121.475368333333","24.9995583333333","6500300","中和區"
"235041","802-TS","2017/12/16 18:29:39","新北市中和區景安路36號","121.507128333333","24.9982233333333","6500300","中和區"
"235052","805-TS","2017/12/16 18:29:40","新北市中和區興南路二段96號","121.505003333333","24.984065","6500300","中和區"
"235048","896-TW","2017/12/16 18:29:40","新北市中和區中正路81號","121.500721666667","24.99342","6500300","中和區"
"235053","900-TW","2017/12/16 18:29:41","新北市中和區民享街467號","121.469841666667","24.9926633333333","6500300","中和區"
"235065","911-UM","2017/12/16 18:29:44","新北市中和區莊敬路49巷27號","121.501568333333","25.0062516666667","6500300","中和區"
"235051","157-BY","2017/12/16 18:29:56","新北市中和區興南路二段114巷10弄10號","121.504015","24.984625","6500300","中和區"
"235037","AAC-213","2017/12/16 18:29:42","新北市中和區景德街135號","121.514755","24.9910933333333","6500300","中和區"
"220068","013-TV","2017/12/15 20:56:08","新北市八里區中山路三段409號","121.369018333333","25.1360616666667","6500100","板橋區"
"226004","312-R5","2017/12/16 18:29:35","新北市平溪區靜安路二段271號","121.726316666667","25.0221433333333","6502400","平溪區"
"228003","097-TW","2017/12/16 18:29:42","新北市貢寮區和美里和美街37號","121.912341666667","25.0867383333333","6502600","貢寮區"
"228001","212-TW","2017/12/16 18:29:54","新北市貢寮區仁理村仁和路124號","121.922968333333","25.051215","6502600","貢寮區"
"228002","585-TW","2017/12/16 18:29:47","新北市貢寮區福連里福連街35號","121.989113333333","25.0103933333333","6502600","貢寮區"
"224010","AGQ-8101","2017/12/16 18:29:11","新北市瑞芳區九份中山巷10號","121.8439","25.10758","6501200","瑞芳區"
"224006","676-BX","2017/12/16 18:29:39","新北市瑞芳區明燈路二段103號","121.809925","25.1079233333333","6501200","瑞芳區"
"224002","639-TC","2017/12/16 18:29:45","新北市瑞芳區三爪子坑路29巷20號","121.813601666667","25.107105","6501200","瑞芳區"
"224009","285-BY","2017/12/16 18:29:50","新北市瑞芳區五號路96號","121.854681666667","25.1104133333333","6501200","瑞芳區"
"224008","275-VK","2017/12/16 18:29:41","新北市瑞芳區岳王路1巷41號","121.805663333333","25.1104316666667","6501200","瑞芳區"
"224007","273-VK","2017/12/16 18:29:58","新北市瑞芳區大埔路國宅新村44號","121.764498333333","25.1001133333333","6501200","瑞芳區"
"224005","271-BY","2017/12/16 18:29:54","新北市瑞芳區建基路一段44-6號","121.819378333333","25.1231616666667","6501200","瑞芳區"
"227002","642-TC","2017/12/16 18:29:50","新北市雙溪區魚行里坤溪18號","121.873456666667","25.0251533333333","6502500","雙溪區"
"227010","400-TW","2017/12/16 18:29:39","新北市雙溪區牡丹里牡丹127號","121.850891666667","25.0594033333333","6502500","雙溪區"
"253005","032-BX","2017/12/16 18:29:54","新北市石門區老崩山10-5號","121.552671666667","25.2909816666667","6502200","石門區"
"253006","295-VK","2017/12/16 18:29:41","新北市石門區公地47-1號","121.545561666667","25.29016","6502200","石門區"
"222001","KEA-2212","2017/12/16 18:29:44","新北市深坑區北深路一段185號","121.632133333333","25.0105616666667","6501800","深坑區"
"208002","742-BX","2017/12/16 18:29:40","新北市金山區民生路81號","121.639985","25.2195283333333","6502700","金山區"
"208003","665-BX","2017/12/16 18:29:40","新北市金山區中山路173號","121.638583333333","25.2207233333333","6502700","金山區"
"208001","761-BX","2017/12/16 18:29:43","新北市金山區文化二路4號","121.636836666667","25.2246033333333","6502700","金山區"
"251004","009-UM","2017/12/16 18:29:58","新北市淡水區民族路31巷7號","121.462353333333","25.1361733333333","6501000","淡水區"
"251001","011-UM","2017/12/16 18:29:50","新北市淡水區自強路122巷1號","121.464421666667","25.1331766666667","6501000","淡水區"
"251014","180-VK","2017/12/16 18:29:38","新北市淡水區番社前25-1號","121.494695","25.2145716666667","6501000","淡水區"
"251008","181-VK","2017/12/16 18:29:44","新北市淡水區北投子87-3號","121.469085","25.1786683333333","6501000","淡水區"
"251010","413-VK","2017/12/16 18:29:35","新北市淡水區沙崙路181巷1號","121.42412","25.1841833333333","6501000","淡水區"
"251012","441-VK","2017/12/16 18:29:53","新北市淡水區北新路一段129-1號","121.457461666667","25.1820833333333","6501000","淡水區"
"251016","442-VK","2017/12/16 18:29:54","新北市淡水區下圭柔山105-1號","121.443855","25.2092283333333","6501000","淡水區"
"251005","443-VK","2017/12/16 18:29:42","新北市淡水區中山路8號","121.445065","25.1688316666667","6501000","淡水區"
"251006","561-UM","2017/12/16 18:29:41","新北市淡水區新生街51巷26號","121.440643333333","25.1757283333333","6501000","淡水區"
"251011","650-BX","2017/12/16 18:29:45","新北市淡水區中正東路36-1號","121.449041666667","25.1658216666667","6501000","淡水區"
"251002","672-BX","2017/12/16 18:29:43","新北市淡水區中正東路一段21巷8弄6號","121.451898333333","25.1637533333333","6501000","淡水區"
"251003","673-BX","2017/12/16 18:29:48","新北市淡水區北新路69巷26號","121.446721666667","25.180065","6501000","淡水區"
"207003","550-UM","2017/12/16 18:29:53","新北市萬里區野柳里港東路74-15號","121.689151666667","25.2050233333333","6502800","萬里區"
"207004","225-TW","2017/12/16 18:29:55","新北市萬里區萬里里瑪鋉路272-1號","121.688878333333","25.18085","6502800","萬里區"
"252002","178-VK","2017/12/16 18:29:27","新北市三芝區中山路二段32號","121.502916666667","25.25528","6502100","三芝區"
"252003","249-BX","2017/12/16 18:29:55","新北市三芝區後厝里北勢子41-7號","121.472441666667","25.2530083333333","6502100","三芝區"
"252001","292-VK","2017/12/16 18:29:44","新北市三芝區中興街二段16號","121.498713333333","25.2561233333333","6502100","三芝區"
"237004","078-UY","2017/12/16 18:29:48","新北市三峽區圳頭94號","121.38085","24.877555","6500900","三峽區"
"237007","153-BY","2017/12/16 18:29:54","新北市三峽區中正路三段170巷19號","121.352515","24.9044233333333","6500900","三峽區"
"237009","210-TH","2017/12/16 18:29:45","新北市三峽區大同路275號","121.36621","24.925465","6500900","三峽區"
"237013","252-BX","2017/12/16 18:29:46","新北市三峽區永安街9巷4號","121.377463333333","24.9297516666667","6500900","三峽區"
"237012","275-BY","2017/12/16 18:29:39","新北市三峽區三樹路110號","121.378276666667","24.9392316666667","6500900","三峽區"
"237008","302-VK","2017/12/16 18:29:50","新北市三峽區白雞68-317號","121.391668333333","24.9100216666667","6500900","三峽區"
"237014","433-BY","2017/12/16 18:29:52","新北市三峽區文化路115號","121.37037","24.9359833333333","6500900","三峽區"
"237006","5529-G3","2017/12/16 18:29:38","新北市三峽區溪東路315巷104號","121.412251666667","24.9315116666667","6500900","三峽區"
"237011","572-TV","2017/12/16 18:03:03","新北市三峽區橫溪路1號","121.39602","24.9361816666667","6500900","三峽區"
"237016","649-BX","2017/12/16 18:29:47","新北市三峽區竹崙路138號","121.43395","24.9092966666667","6500900","三峽區"
"237010","706-TV","2017/12/16 18:29:13","新北市三峽區復興路321號","121.364856666667","24.93876","6500900","三峽區"
"237005","AKY-6261","2017/12/16 18:29:41","新北市三峽區清水街307號","121.372858333333","24.9345166666667","6500900","三峽區"
"236073","105-UM","2017/12/16 18:29:48","新北市土城區永豐路298號","121.471428333333","24.9777716666667","6501300","土城區"
"236043","107-UM","2017/12/16 18:29:58","新北市土城區學成路99巷11號","121.449968333333","24.9883166666667","6501300","土城區"
"236079","166-UM","2017/12/16 17:58:59","新北市土城區永寧路32巷10弄18-2號","121.429026666667","24.960975","6501300","土城區"
"236031","253-BX","2017/12/16 18:29:54","新北市土城區水源街81巷7號","121.439381666667","24.97584","6501300","土城區"
"236027","269-VK","2017/12/16 18:29:41","新北市土城區南天母路135巷24號","121.449328333333","24.954595","6501300","土城區"
"236015","270-VK","2017/12/16 18:29:53","新北市土城區青雲路39巷7號","121.460286666667","24.9874183333333","6501300","土城區"
"236038","271-VK","2017/12/16 18:29:52","新北市土城區青雲路451巷13號","121.459533333333","24.9747466666667","6501300","土城區"
"236023","401-BY","2017/12/16 18:29:45","新北市土城區永豐路202巷7號","121.466298333333","24.9831966666667","6501300","土城區"
"236059","912-UM","2017/12/16 18:29:49","新北市土城區中央路四段185巷1號","121.41495","24.9566183333333","6501300","土城區"
"236049","913-UM","2017/12/16 18:29:46","新北市土城區青雲路453號","121.458741666667","24.97461","6501300","土城區"
"236063","915-UM","2017/12/16 18:29:47","新北市土城區延壽路75巷14號","121.468813333333","24.9918583333333","6501300","土城區"
"236055","AAC-216","2017/12/16 18:29:54","新北市土城區中華路二段1號","121.439748333333","24.97924","6501300","土城區"
"242044","497-BY","2017/12/16 18:29:54","新北市新莊區中正路新旺巷38號","121.416411666667","25.0225216666667","6500500","新莊區"
"242053","440-UM","2017/12/16 18:29:43","新北市板橋區大觀路三段54號","121.433403333333","24.9955083333333","6500500","新莊區"
"242042","400-BY","2017/12/16 18:29:43","新北市新莊區天祥街120巷6號","121.414776666667","25.030145","6500500","新莊區"
"242061","362-BY","2017/12/16 18:29:49","新北市新莊區新樹路206巷3號","121.433396666667","25.02038","6500500","新莊區"
"242058","353-BY","2017/12/16 18:29:43","新北市新莊區中正路895-50號","121.41197","25.0218333333333","6500500","新莊區"
"242021","135-UY","2017/12/16 18:29:51","新北市新莊區中正路281號","121.449123333333","25.03537","6500500","新莊區"
"242046","172-VK","2017/12/16 18:29:55","新北市新莊區民安路30-1號","121.42297","25.02792","6500500","新莊區"
"242056","349-TH","2017/12/16 18:29:43","新北市新莊區瓊泰路77巷16號","121.442598333333","25.0290116666667","6500500","新莊區"
"242011","351-TH","2017/12/16 18:29:53","新北市新莊區中正路384號","121.44197","25.0345216666667","6500500","新莊區"
"238015","755-BX","2017/12/16 18:29:38","新北市樹林區文化街79巷1號","121.416693333333","24.9891433333333","6500700","樹林區"
"238023","601-UM","2017/12/16 18:29:47","新北市樹林區忠愛街1號","121.409555","25.015435","6500700","樹林區"
"238019","599-UM","2017/12/16 18:29:56","新北市樹林區中華路190-16號","121.411843333333","24.9806483333333","6500700","樹林區"
"238018","571-TV","2017/12/16 18:29:54","新北市樹林區樹新路30-3號","121.427175","24.99469","6500700","樹林區"
"238024","5061-A6","2017/12/16 18:29:38","新北市樹林區育英街7號","121.422395","24.9890083333333","6500700","樹林區"
"238021","KEA-2217","2017/12/16 18:29:54","新北市樹林區柑園街二段32-13號","121.387106666667","24.9563116666667","6500700","樹林區"
"238025","303-VK","2017/12/16 18:29:54","新北市樹林區保安街一段89號","121.421868333333","24.9954483333333","6500700","樹林區"
"238017","283-BY","2017/12/16 18:29:45","新北市樹林區光榮街5號","121.413","25.004055","6500700","樹林區"
"238014","282-BY","2017/12/16 18:29:40","新北市樹林區大安路111巷6號","121.42311","24.9975033333333","6500700","樹林區"
"238020","268-VK","2017/12/16 18:29:55","新北市樹林區三龍街114號","121.415225","25.0185483333333","6500700","樹林區"
"238026","172-UY","2017/12/16 18:29:53","新北市樹林區佳園路一段75巷30號","121.395476666667","24.9700366666667","6500700","樹林區"
"238016","169-UY","2017/12/16 18:29:53","新北市樹林區文化街26號","121.419428333333","24.9876283333333","6500700","樹林區"
"239007","AAC-297","2017/12/16 18:29:51","新北市鶯歌區國慶街12號","121.349618333333","24.95654","6500800","鶯歌區"
"239006","891-R6","2017/12/16 18:29:56","新北市鶯歌區鶯桃路296巷53號","121.335845","24.9613466666667","6500800","鶯歌區"
"239008","527-UM","2017/12/16 18:29:38","新北市鶯歌區國際一路179號","121.33623","24.9765","6500800","鶯歌區"
"239005","526-UM","2017/12/16 18:29:39","新北市鶯歌區鳳吉二街148號","121.328636666667","24.975045","6500800","鶯歌區"
"239001","417-VK","2017/12/16 18:29:52","新北市鶯歌區二甲路光照巷11弄5號","121.338081666667","24.9401166666667","6500800","鶯歌區"
"239003","360-BY","2017/12/16 18:29:56","新北市鶯歌區福安街9巷2號","121.335256666667","24.9650566666667","6500800","鶯歌區"
"239002","359-BY","2017/12/16 18:29:39","新北市鶯歌區中正一路353號","121.357708333333","24.9570816666667","6500800","鶯歌區"
"239004","193-VK","2017/12/16 18:29:48","新北市鶯歌區尖山路245號","121.340496666667","24.94351","6500800","鶯歌區"
"221008","489-VK","2017/12/16 18:29:49","新北市汐止區康寧街901號","121.65144","25.075025","6501100","汐止區"
"221036","130-UY","2017/12/16 18:29:44","新北市汐止區南昌街31號","121.663138333333","25.069155","6501100","汐止區"
"221010","269-BY","2017/12/16 18:29:49","新北市汐止區汐萬路二段286號","121.645008333333","25.0902766666667","6501100","汐止區"
"221012","276-VK","2017/12/16 13:21:53","新北市汐止區汐萬路一段256巷3號","121.653441666667","25.07464","6501100","汐止區"
"221012","278-VK","2017/12/16 18:29:58","新北市汐止區保長路51巷16號","121.674035","25.0789816666667","6501100","汐止區"
"221023","279-VK","2017/12/16 18:29:45","新北市汐止區康寧街534巷24號","121.634711666667","25.068875","6501100","汐止區"
"221032","280-BY","2017/12/16 18:29:45","新北市汐止區福山街62巷6號","121.618095","25.0466366666667","6501100","汐止區"
"221027","281-BY","2017/12/16 18:29:51","新北市汐止區和平街63號","121.661665","25.070735","6501100","汐止區"
"221029","298-VK","2017/12/16 18:29:48","新北市汐止區樟樹一路185號","121.64251","25.0686133333333","6501100","汐止區"
"221021","299-VK","2017/12/16 18:29:54","新北市汐止區復興路46號","121.656688333333","25.0628816666667","6501100","汐止區"
"221031","353-TW","2017/12/16 18:29:45","新北市汐止區光復街7巷34號","121.640886666667","25.0599716666667","6501100","汐止區"
"221015","567-BX","2017/12/16 18:29:55","新北市汐止區鄉友街40號","121.668946666667","25.0814333333333","6501100","汐止區"
"221035","622-UM","2017/12/16 18:29:49","新北市汐止區大同路二段43號","121.647971666667","25.0628266666667","6501100","汐止區"
"221025","623-UM","2017/12/16 18:29:45","新北市汐止區仁愛路122巷18號","121.663346666667","25.0632566666667","6501100","汐止區"
"221038","646-BX","2017/12/16 18:29:55","新北市汐止區大同路二段430號","121.659186666667","25.0670216666667","6501100","汐止區"
"221033","647-BX","2017/12/16 18:29:57","新北市汐止區宜興街32號","121.621741666667","25.0418116666667","6501100","汐止區"
"221002","707-TV","2017/12/16 18:29:54","新北市汐止區福德一路153號","121.636506666667","25.066635","6501100","汐止區"
"221018","753-BX","2017/12/16 18:29:45","新北市汐止區茄苳路204號","121.670481666667","25.0689766666667","6501100","汐止區"
"220082","610-BX","2017/12/16 18:29:46","新北市板橋區華東街1-10號","121.44827","24.9949266666667","6500100","板橋區"
"220053","285-VK","2017/12/16 18:29:44","新北市板橋區民生路二段161巷5號","121.47029","25.0197933333333","6500100","板橋區"
"220081","287-VK","2017/12/16 18:29:38","新北市板橋區華東街1-10號","121.448258333333","24.9950166666667","6500100","板橋區"
"220010","305-R5","2017/12/16 18:29:46","新北市板橋區民生路二段120號","121.470368333333","25.0196416666667","6500100","板橋區"
"220064","486-VK","2017/12/16 18:29:55","新北市板橋區民族路168號","121.467135","25.00799","6500100","板橋區"
"220035","560-BX","2017/12/16 18:29:37","新北市板橋區南雅西路一段116號","121.452588333333","25.0064566666667","6500100","板橋區"
"220063","609-BX","2017/12/16 18:29:33","新北市板橋區民生路二段171號","121.469665","25.0200716666667","6500100","板橋區"
"220077","687-BX","2017/12/16 18:29:54","新北市板橋區華東街1-10號","121.448281666667","24.99496","6500100","板橋區"
"220074","895-R6","2017/12/16 18:29:45","新北市板橋區華東街1-9號","121.448235","24.99484","6500100","板橋區"
