"lineid","car","time","location","longitude","latitude","cityid","cityname"
"234046","148-BY","2017/12/16 18:49:56","新北市永和區秀朗路二段153號","121.524943333333","25.0015833333333","6500400","永和區"
"234013","149-BY","2017/12/16 18:49:44","新北市永和區保福路二段133巷34號","121.508836666667","25.013375","6500400","永和區"
"234007","207-UY","2017/12/16 18:49:55","新北市永和區文化路87號","121.513478333333","25.0151333333333","6500400","永和區"
"234081","298-R6","2017/12/16 18:49:51","新北市永和區永利路108號","121.521216666667","25.0034083333333","6500400","永和區"
"234038","336-UY","2017/12/16 18:49:52","新北市永和區環河東路三段56號","121.526896666667","25.00612","6500400","永和區"
"234064","337-UY","2017/12/16 18:49:43","新北市永和區福和路1號","121.526226666667","25.00963","6500400","永和區"
"234086","338-UY","2017/12/16 18:49:47","新北市永和區中正路73號","121.515005","24.9967816666667","6500400","永和區"
"234054","553-UM","2017/12/16 18:49:50","新北市永和區環河東路二段92號","121.524395","25.010635","6500400","永和區"
"234030","746-BX","2017/12/16 18:49:56","新北市永和區得和路358號","121.52398","24.999385","6500400","永和區"
"234061","AAD-866","2017/12/16 18:49:43","新北市永和區福和路307號","121.516208333333","25.00709","6500400","永和區"
"234070","847-RS","2017/12/16 18:49:50","新北市永和區福和路1號","121.525463333333","25.0094683333333","6500400","永和區"
"234042","862-TW","2017/12/16 18:49:50","新北市永和區永貞路308號","121.511851666667","25.0048733333333","6500400","永和區"
"234050","863-TW","2017/12/16 18:49:48","新北市永和區保安路2號","121.510833333333","25.0174066666667","6500400","永和區"
"234026","9371-KE","2017/12/16 18:49:41","新北市永和區自由街58號","121.51392","25.0059816666667","6500400","永和區"
"234011","9373-KE","2017/12/16 18:49:54","新北市永和區仁愛路70號","121.513081666667","25.0135016666667","6500400","永和區"
"249005","172-UM","2017/12/16 18:49:38","新北市八里區長道坑15號","121.394638333333","25.1183566666667","6502300","八里區"
"249001","173-UM","2017/12/16 18:49:41","新北市八里區龍米路二段26號","121.448926666667","25.139245","6502300","八里區"
"248014","025-BX","2017/12/16 18:49:41","新北市五股區成泰路二段252號","121.440575","25.0871833333333","6501500","五股區"
"248016","026-BX","2017/12/16 18:49:49","新北市五股區凌雲路一段136號","121.449663333333","25.102225","6501500","五股區"
"248006","077-UY","2017/12/16 18:49:36","新北市五股區四維路1巷3-1號","121.465821666667","25.0704383333333","6501500","五股區"
"248008","095-VK","2017/12/16 18:49:40","新北市五股區中興路一段128巷8號","121.465683333333","25.0742083333333","6501500","五股區"
"248020","225-UY","2017/12/16 18:40:19","新北市五股區凌雲路三段田埔巷35-1號","121.438955","25.1221266666667","6501500","五股區"
"248012","247-BX","2017/12/16 18:49:57","新北市五股區成泰路二段165號","121.43897","25.08612","6501500","五股區"
"248010","272-BY","2017/12/16 18:49:39","新北市五股區水碓五路81號","121.429963333333","25.0719816666667","6501500","五股區"
"248004","677-BX","2017/12/16 18:49:56","新北市五股區民義路二段73號","121.408958333333","25.105625","6501500","五股區"
"248002","678-BX","2017/12/16 18:49:44","新北市五股區西雲路267號","121.449351666667","25.0979533333333","6501500","五股區"
"234023","9380-KE","2017/12/16 18:49:35","新北市永和區竹林路119巷27號","121.521116666667","25.0117816666667","6500400","永和區"
"234077","969-R7","2017/12/16 18:49:50","新北市永和區中正路42巷16號","121.51357","24.9940983333333","6500400","永和區"
"234074","AAC-211","2017/12/16 18:49:42","新北市永和區福和路1號","121.526515","25.0098783333333","6500400","永和區"
"234067","AAC-212","2017/12/16 18:49:56","新北市永和區永和路一段22號","121.512966666667","25.0048283333333","6500400","永和區"
"234003","AAC-295","2017/12/16 18:49:42","新北市永和區中正路730號","121.51543","25.0101166666667","6500400","永和區"
"232011","375-UM","2017/12/16 18:49:34","新北市坪林區坪林街60號","121.711651666667","24.9378116666667","6502000","坪林區"
"244013","069-UM","2017/12/16 18:49:44","新北市林口區麗園路2巷13號","121.375258333333","25.070325","6501700","林口區"
"244007","080-UY","2017/12/16 18:49:42","新北市林口區太平里22號","121.376418333333","25.11573","6501700","林口區"
"244019","403-UM","2017/12/16 18:49:48","新北市林口區麗園二街36巷2號","121.380223333333","25.0692366666667","6501700","林口區"
"244023","483-VK","2017/12/16 18:49:38","新北市林口區民權路66號","121.37267","25.0814466666667","6501700","林口區"
"244017","485-VK","2017/12/16 18:49:57","新北市林口區公園路59號","121.367761666667","25.06883","6501700","林口區"
"244009","657-BX","2017/12/16 18:49:47","新北市林口區竹林路344號","121.391518333333","25.083755","6501700","林口區"
"244011","701-TV","2017/12/16 18:49:36","新北市林口區新寮1-84號","121.392723333333","25.07677","6501700","林口區"
"244025","837-TS","2017/12/16 18:49:48","新北市林口區南勢街163號","121.359355","25.0749","6501700","林口區"
"243015","380-SR","2017/12/16 18:49:54","新北市泰山區美寧街54號","121.430638333333","25.0644933333333","6501600","泰山區"
"243010","KEA-2215","2017/12/16 18:49:37","新北市泰山區明志路一段195號","121.432751666667","25.061555","6501600","泰山區"
"243009","KEA-2216","2017/12/16 18:49:43","新北市泰山區黎明路31號","121.421833333333","25.06069","6501600","泰山區"
"243013","646-TV","2017/12/16 18:49:47","新北市泰山區明志路三段206巷3號","121.423276666667","25.0379116666667","6501600","泰山區"
"243016","680-BX","2017/12/16 18:49:51","新北市泰山區明志路一段287號","121.432038333333","25.0597316666667","6501600","泰山區"
"222003","436-BY","2017/12/16 18:49:46","新北市深坑區北深路一段300號","121.62326","25.00533","6501800","深坑區"
"222002","659-BX","2017/12/16 18:49:42","新北市深坑區文山路一段69號","121.627003333333","25.0018566666667","6501800","深坑區"
"231059","046-UY","2017/12/16 18:49:52","新北市新店區安華路28-1號","121.519473333333","24.9609366666667","6500600","新店區"
"231061","047-UY","2017/12/16 18:49:42","新北市新店區安華路28-1號","121.519165","24.9609816666667","6500600","新店區"
"231060","106-UY","2017/12/16 18:49:51","新北市新店區安華路28-1號","121.519618333333","24.9607983333333","6500600","新店區"
"231051","107-UY","2017/12/16 18:49:50","新北市新店區中央路63號","121.532568333333","24.9770216666667","6500600","新店區"
"231048","108-UY","2017/12/16 18:49:34","新北市新店區德正街19巷1號","121.543785","24.972585","6500600","新店區"
"231052","187-VK","2017/12/16 18:49:48","新北市新店區新烏路一段105巷15號","121.54627","24.9407516666667","6500600","新店區"
"231050","KEA-2219","2017/12/16 18:49:50","新北市新店區安康路一段107-2號","121.528731666667","24.96163","6500600","新店區"
"231046","278-BY","2017/12/16 18:49:56","新北市新店區直潭路71號","121.53242","24.942205","6500600","新店區"
"231054","AAD-862","2017/12/16 18:49:50","新北市新店區安康路一段5號","121.533716666667","24.9604766666667","6500600","新店區"
"231058","3712-VJ","2017/12/16 18:49:54","新北市新店區中興路一段180號","121.543078333333","24.964785","6500600","新店區"
"231056","3713-VJ","2017/12/16 18:49:39","新北市新店區大豐路68巷3號","121.539046666667","24.9797983333333","6500600","新店區"
"231055","4716-K9","2017/12/16 18:49:52","新北市新店區北新路一段271巷35號","121.539448333333","24.9669016666667","6500600","新店區"
"231067","4772-VM","2017/12/16 18:49:49","新北市新店區安康路一段190號","121.524696666667","24.9633283333333","6500600","新店區"
"231065","512-UM","2017/12/16 18:49:39","新北市新店區車子路115-11號","121.507798333333","24.9547033333333","6500600","新店區"
"231064","515-UM","2017/12/16 16:34:15","新北市新店區安華路28-1號","121.519568333333","24.9610416666667","6500600","新店區"
"231045","617-UM","2017/12/16 18:49:55","新北市新店區安康路一段11號","121.533608333333","24.96047","6500600","新店區"
"231041","618-UM","2017/12/16 18:49:49","新北市新店區安華路28-1號","121.519198333333","24.9610333333333","6500600","新店區"
"231040","619-UM","2017/12/16 18:49:42","新北市新店區中央路57號","121.53278","24.9773416666667","6500600","新店區"
"231042","641-BX","2017/12/16 18:49:59","新北市新店區光明街221號","121.540153333333","24.9641683333333","6500600","新店區"
"231063","645-TV","2017/12/16 18:49:36","新北市新店區車子路109號","121.50524","24.9521116666667","6500600","新店區"
"231049","719-UM","2017/12/16 18:49:50","新北市新店區中正路454-5號","121.53446","24.9790433333333","6500600","新店區"
"231062","720-UM","2017/12/16 18:49:49","新北市新店區安忠路205巷8號","121.508446666667","24.9547483333333","6500600","新店區"
"231044","897-TW","2017/12/16 18:49:41","新北市新店區寶中路72號","121.547858333333","24.98062","6500600","新店區"
"231043","899-TW","2017/12/16 18:49:50","新北市新店區安康路一段79巷3號","121.52994","24.9612083333333","6500600","新店區"
"231066","AKT-0513","2017/12/16 18:49:47","新北市新店區安豐路22巷14號","121.502895","24.9549383333333","6500600","新店區"
"235066","003-UY","2017/12/16 18:49:50","新北市中和區中山路二段131巷20號","121.503673333333","25.002505","6500300","中和區"
"235064","005-UY","2017/12/16 18:49:43","新北市中和區連城路90號","121.49686","25.0005883333333","6500300","中和區"
"235063","006-UY","2017/12/16 18:49:57","新北市中和區連城路319巷12號","121.489161666667","24.9950266666667","6500300","中和區"
"235046","031-BX","2017/12/16 18:49:58","新北市中和區仁愛街36巷28號","121.511063333333","24.9870216666667","6500300","中和區"
"235056","096-UM","2017/12/16 18:49:54","新北市中和區員山路514號","121.479143333333","25.008785","6500300","中和區"
"235039","097-UM","2017/12/16 18:49:49","新北市中和區宜安路54號","121.512098333333","24.9965883333333","6500300","中和區"
"235040","150-BY","2017/12/16 18:49:49","新北市中和區安平路48號","121.510121666667","24.9954816666667","6500300","中和區"
"235058","151-BY","2017/12/16 18:49:48","新北市中和區連城路532巷12號","121.475003333333","24.9924966666667","6500300","中和區"
"235055","183-VK","2017/12/16 18:49:41","新北市中和區民生街55號","121.469573333333","25.0051","6500300","中和區"
"235038","185-VK","2017/12/16 18:49:43","新北市中和區大勇街45巷1號","121.517911666667","24.99478","6500300","中和區"
"235049","186-VK","2017/12/16 18:49:56","新北市中和區景安路132巷3號","121.504666666667","24.994285","6500300","中和區"
"235067","255-BX","2017/12/16 18:49:56","新北市中和區中山路二段449巷1弄11號","121.483891666667","25.0039666666667","6500300","中和區"
"235044","293-VK","2017/12/16 18:49:45","新北市中和區中興街204號","121.499906666667","24.9902283333333","6500300","中和區"
"235072","301-VK","2017/12/16 18:49:44","新北市中和區中山路二段75號","121.503825","25.0044733333333","6500300","中和區"
"235043","352-BY","2017/12/16 18:49:49","新北市中和區成功路113號","121.52595","24.9911616666667","6500300","中和區"
"235068","377-QA","2017/12/16 18:49:51","新北市中和區中正路211巷36弄6號","121.497161666667","24.9927433333333","6500300","中和區"
"235061","378-QA","2017/12/16 18:49:53","新北市中和區民享街44巷9號","121.47343","25.002595","6500300","中和區"
"235071","269-TV","2017/12/16 18:49:49","新北市中和區員山路36巷16-2號","121.485286666667","24.9917866666667","6500300","中和區"
"235050","4979-A6","2017/12/16 18:49:45","新北市中和區忠孝街60巷11號","121.511881666667","24.983835","6500300","中和區"
"235069","4980-A6","2017/12/16 18:49:54","新北市中和區南山路52巷5號","121.501641666667","24.9974033333333","6500300","中和區"
"235042","551-UM","2017/12/16 18:49:55","新北市中和區秀朗路三段100巷3號","121.525451666667","24.9932616666667","6500300","中和區"
"235070","558-UM","2017/12/16 18:49:49","新北市中和區景平路566號","121.5019","24.995385","6500300","中和區"
"235045","565-BX","2017/12/16 18:49:47","新北市中和區復興路65-2號","121.503906666667","24.9900733333333","6500300","中和區"
"235054","640-BX","2017/12/16 18:49:53","新北市中和區莒光路129巷1弄8-4號","121.473101666667","25.002265","6500300","中和區"
"235060","647-TV","2017/12/16 18:49:45","新北市中和區中山路二段598號","121.481926666667","25.0052983333333","6500300","中和區"
"235047","732-UM","2017/12/16 18:49:54","新北市中和區興南路二段34巷55弄1號","121.504845","24.9862383333333","6500300","中和區"
"235062","800-TS","2017/12/16 18:49:51","新北市中和區中山路二段356號","121.492886666667","25.0029833333333","6500300","中和區"
"235057","801-TS","2017/12/16 18:49:40","新北市中和區民安街42巷40號","121.47927","25.0013516666667","6500300","中和區"
"235041","802-TS","2017/12/16 18:49:39","新北市中和區中安街178巷13弄1號","121.510203333333","24.9987666666667","6500300","中和區"
"235052","805-TS","2017/12/16 18:49:49","新北市中和區興南路二段399巷98弄40號","121.499353333333","24.9770183333333","6500300","中和區"
"235048","896-TW","2017/12/16 18:49:39","新北市中和區華新街13號","121.507526666667","24.9851283333333","6500300","中和區"
"235053","900-TW","2017/12/16 18:49:41","新北市中和區華福街42巷2弄2號","121.466368333333","24.99639","6500300","中和區"
"235065","911-UM","2017/12/16 18:49:47","新北市中和區中山路二段2巷81弄11號","121.500701666667","25.0071833333333","6500300","中和區"
"235051","157-BY","2017/12/16 18:49:56","新北市中和區忠孝街106巷36號","121.513211666667","24.98432","6500300","中和區"
"235037","AAC-213","2017/12/16 18:49:42","新北市中和區秀朗路三段128巷1弄2號","121.524616666667","24.9923833333333","6500300","中和區"
"235059","AAC-215","2017/12/16 18:49:51","新北市中和區圓通路393巷1號","121.489696666667","24.9889266666667","6500300","中和區"
"220068","013-TV","2017/12/15 20:56:08","新北市八里區中山路三段409號","121.369018333333","25.1360616666667","6500100","板橋區"
"220065","072-UY","2017/12/16 18:49:53","新北市板橋區館前東路106號","121.462996666667","25.0076433333333","6500100","板橋區"
"220106","075-UY","2017/12/16 18:49:49","新北市板橋區民生路二段120號","121.470448333333","25.019635","6500100","板橋區"
"220069","AAD-861","2017/12/16 18:49:46","新北市板橋區四川路一段10巷14號","121.458781666667","25.0065016666667","6500100","板橋區"
"220096","120-SR","2017/12/16 18:49:50","新北市板橋區民生路二段89-6號","121.470508333333","25.0193933333333","6500100","板橋區"
"226004","312-R5","2017/12/16 18:49:55","新北市平溪區平溪里平溪街5號","121.738681666667","25.0248433333333","6502400","平溪區"
"228003","097-TW","2017/12/16 18:49:42","新北市瑞芳區鼻頭路127號","121.916976666667","25.1215","6502600","貢寮區"
"228001","212-TW","2017/12/16 18:49:34","新北市貢寮區仁理村研海街12-1號","121.923773333333","25.0516366666667","6502600","貢寮區"
"228002","585-TW","2017/12/16 18:49:47","新北市貢寮區福隆里東興街6-11號","121.950733333333","25.0210516666667","6502600","貢寮區"
"224010","AGQ-8101","2017/12/16 18:49:51","新北市瑞芳區基山街4-3號","121.84511","25.10957","6501200","瑞芳區"
"224006","676-BX","2017/12/16 18:49:40","新北市瑞芳區中正路73號","121.805511666667","25.10755","6501200","瑞芳區"
"224009","285-BY","2017/12/16 18:49:44","新北市瑞芳區祈堂路53-1號","121.859745","25.1110883333333","6501200","瑞芳區"
"224008","275-VK","2017/12/16 18:49:40","新北市瑞芳區瑞芳街150號","121.80119","25.1115983333333","6501200","瑞芳區"
"224007","273-VK","2017/12/16 18:49:46","新北市瑞芳區大埔路192-1號","121.76156","25.1012283333333","6501200","瑞芳區"
"224005","271-BY","2017/12/16 18:49:54","新北市瑞芳區濱二路67-1號","121.830581666667","25.1198183333333","6501200","瑞芳區"
"227002","642-TC","2017/12/16 18:49:50","新北市雙溪區平林里梅竹蹊28號","121.861656666667","25.0360066666667","6502500","雙溪區"
"227010","400-TW","2017/12/16 18:49:39","新北市雙溪區牡丹里聖南31-1號","121.85511","25.054755","6502500","雙溪區"
"253005","032-BX","2017/12/16 18:49:54","新北市石門區石門街2巷30號","121.565878333333","25.2903566666667","6502200","石門區"
"253006","295-VK","2017/12/16 18:49:41","新北市石門區下員坑15號","121.511688333333","25.2848883333333","6502200","石門區"
"222001","KEA-2212","2017/12/16 18:49:44","新北市深坑區松柏街30巷2號","121.638586666667","25.0112383333333","6501800","深坑區"
"208002","742-BX","2017/12/16 18:49:40","新北市金山區信義路29號","121.635611666667","25.2197916666667","6502700","金山區"
"208003","665-BX","2017/12/16 18:49:40","新北市金山區中山路393號","121.633395","25.22524","6502700","金山區"
"208001","761-BX","2017/12/16 18:49:43","新北市金山區文化三路66巷2弄1號","121.63426","25.2256983333333","6502700","金山區"
"251001","011-UM","2017/12/16 18:49:50","新北市淡水區自強路275號","121.46269","25.1282133333333","6501000","淡水區"
"251014","180-VK","2017/12/16 18:49:38","新北市淡水區崙頂3號","121.490896666667","25.2239033333333","6501000","淡水區"
"251010","413-VK","2017/12/16 18:49:35","新北市淡水區沙崙路11號","121.421166666667","25.1812266666667","6501000","淡水區"
"251012","441-VK","2017/12/16 18:49:53","新北市淡水區新興街23號","121.442776666667","25.1801783333333","6501000","淡水區"
"251016","442-VK","2017/12/16 18:49:51","新北市淡水區下圭柔山71-3號","121.447011666667","25.206175","6501000","淡水區"
"251009","575-R6","2017/12/16 18:49:48","新北市淡水區重建街125-4號","121.440326666667","25.1731683333333","6501000","淡水區"
"251011","650-BX","2017/12/16 18:49:45","新北市淡水區學府路22號","121.447578333333","25.1681183333333","6501000","淡水區"
"251002","672-BX","2017/12/16 18:49:43","新北市淡水區學府路63號","121.448338333333","25.1695183333333","6501000","淡水區"
"251003","673-BX","2017/12/16 18:49:48","新北市淡水區中山北路一段149巷17號","121.442921666667","25.1777583333333","6501000","淡水區"
"207003","550-UM","2017/12/16 18:49:53","新北市萬里區大鵬里頂社24-5號","121.657855","25.20937","6502800","萬里區"
"207004","225-TW","2017/12/16 18:49:55","新北市萬里區萬里里獅頭路23號","121.693218333333","25.1782466666667","6502800","萬里區"
"252002","178-VK","2017/12/16 18:46:20","新北市三芝區智成街68號","121.504765","25.2561783333333","6502100","三芝區"
"252003","249-BX","2017/12/16 18:49:55","新北市三芝區後厝里大片頭81-1號","121.459138333333","25.2446866666667","6502100","三芝區"
"252001","292-VK","2017/12/16 18:49:44","新北市三芝區中正路三段9號","121.50293","25.2539716666667","6502100","三芝區"
"237004","078-UY","2017/12/16 18:49:48","新北市三峽區有木194-1號","121.44763","24.84501","6500900","三峽區"
"237007","153-BY","2017/12/16 18:49:54","新北市三峽區中正路二段421號","121.36306","24.9068466666667","6500900","三峽區"
"237013","252-BX","2017/12/16 18:49:46","新北市三峽區光明路69巷24號","121.376606666667","24.929005","6500900","三峽區"
"237012","275-BY","2017/12/16 18:49:39","新北市三峽區三樹路340號","121.383978333333","24.9433283333333","6500900","三峽區"
"237008","302-VK","2017/12/16 18:49:50","新北市三峽區正義街153號","121.368205","24.9152516666667","6500900","三峽區"
"237014","433-BY","2017/12/16 18:49:52","新北市三峽區隆恩街232號","121.358003333333","24.9412033333333","6500900","三峽區"
"237006","5529-G3","2017/12/16 18:49:58","新北市三峽區溪東路233巷47弄2號","121.410621666667","24.9346966666667","6500900","三峽區"
"237011","572-TV","2017/12/16 18:03:03","新北市三峽區橫溪路1號","121.39602","24.9361816666667","6500900","三峽區"
"237016","649-BX","2017/12/16 18:49:47","新北市三峽區成福路315巷2號","121.429633333333","24.9236516666667","6500900","三峽區"
"237010","706-TV","2017/12/16 18:46:53","新北市三峽區復興路30-4號","121.374258333333","24.9361816666667","6500900","三峽區"
"237005","AKY-6261","2017/12/16 18:49:41","新北市三峽區中山路459巷163-3號","121.349035","24.9333216666667","6500900","三峽區"
"236073","105-UM","2017/12/16 18:49:48","新北市土城區青雲路72號","121.459503333333","24.9871","6501300","土城區"
"236043","107-UM","2017/12/16 18:49:38","新北市土城區裕民路92巷25弄6號","121.449673333333","24.9858416666667","6501300","土城區"
"236079","166-UM","2017/12/16 17:58:59","新北市土城區永寧路32巷10弄18-2號","121.429026666667","24.960975","6501300","土城區"
"236031","253-BX","2017/12/16 18:49:58","新北市土城區忠義路36巷17號","121.43983","24.9695633333333","6501300","土城區"
"236027","269-VK","2017/12/16 18:49:41","新北市土城區興城路64號","121.441208333333","24.97235","6501300","土城區"
"236015","270-VK","2017/12/16 18:49:53","新北市土城區金城路二段354巷4號","121.460898333333","24.98489","6501300","土城區"
"236038","271-VK","2017/12/16 18:49:52","新北市土城區明德路一段233號","121.462918333333","24.9782066666667","6501300","土城區"
"236023","401-BY","2017/12/16 18:49:45","新北市土城區延安街76號","121.468113333333","24.9840766666667","6501300","土城區"
"236059","912-UM","2017/12/16 18:49:51","新北市土城區金城路一段78號","121.444046666667","24.9726683333333","6501300","土城區"
"236049","913-UM","2017/12/16 18:49:46","新北市土城區青雲路35號","121.459993333333","24.98848","6501300","土城區"
"236063","915-UM","2017/12/16 18:49:46","新北市土城區金城路三段159號","121.468946666667","24.9884216666667","6501300","土城區"
"236055","AAC-216","2017/12/16 18:49:54","新北市土城區裕民路193-1號","121.453611666667","24.98423","6501300","土城區"
"238023","601-UM","2017/12/16 18:49:47","新北市樹林區三福街114號","121.406498333333","25.0162766666667","6500700","樹林區"
"238019","599-UM","2017/12/16 18:49:56","新北市樹林區東陽街17號","121.413015","24.9818033333333","6500700","樹林區"
"238018","571-TV","2017/12/16 18:49:54","新北市樹林區鎮前街168號","121.424366666667","24.9899783333333","6500700","樹林區"
"238024","5061-A6","2017/12/16 18:49:58","新北市樹林區太平路247巷3號","121.419478333333","24.97498","6500700","樹林區"
"238022","KEA-2213","2017/12/16 18:49:53","新北市樹林區中華路379巷37號","121.414093333333","24.977295","6500700","樹林區"
"238025","303-VK","2017/12/16 18:49:54","新北市樹林區中山路三段22號","121.395628333333","24.9729383333333","6500700","樹林區"
"238017","283-BY","2017/12/16 18:49:45","新北市樹林區光興街83-3號","121.409878333333","25.0026716666667","6500700","樹林區"
"238014","282-BY","2017/12/16 18:49:40","新北市樹林區大安路111巷25號","121.423151666667","24.9975766666667","6500700","樹林區"
"238020","268-VK","2017/12/16 18:49:47","新北市樹林區俊英街79號","121.4261","25.0075633333333","6500700","樹林區"
"238026","172-UY","2017/12/16 18:49:53","新北市樹林區中和街21巷15號","121.39111","24.972415","6500700","樹林區"
"238016","169-UY","2017/12/16 18:49:53","新北市樹林區文化街17號","121.419468333333","24.9874116666667","6500700","樹林區"
"239007","AAC-297","2017/12/16 18:49:51","新北市鶯歌區成功街8號","121.358546666667","24.9574383333333","6500800","鶯歌區"
"239006","891-R6","2017/12/16 18:49:36","新北市鶯歌區鶯桃路296巷94弄26號","121.337546666667","24.9615883333333","6500800","鶯歌區"
"239008","527-UM","2017/12/16 18:49:38","新北市鶯歌區國際二路20巷19號","121.337016666667","24.9754633333333","6500800","鶯歌區"
"239005","526-UM","2017/12/16 18:49:40","新北市鶯歌區大湖路361巷58號","121.331","24.9773766666667","6500800","鶯歌區"
"239001","417-VK","2017/12/16 18:49:53","新北市鶯歌區永明街23號","121.338681666667","24.95561","6500800","鶯歌區"
"239003","360-BY","2017/12/16 18:49:44","新北市鶯歌區鶯桃路656號","121.329373333333","24.9694016666667","6500800","鶯歌區"
"239002","359-BY","2017/12/16 18:49:39","新北市鶯歌區中正一路271號","121.355025","24.9570066666667","6500800","鶯歌區"
"239004","193-VK","2017/12/16 18:49:41","新北市鶯歌區中正三路230巷6號","121.330793333333","24.9382633333333","6500800","鶯歌區"
"221008","489-VK","2017/12/16 18:49:49","新北市汐止區康寧街901號","121.651401666667","25.0750516666667","6501100","汐止區"
"221036","130-UY","2017/12/16 18:49:45","新北市汐止區忠孝東路314巷15號","121.664493333333","25.06858","6501100","汐止區"
"221010","269-BY","2017/12/16 18:49:49","新北市汐止區汐萬路三段199巷3弄1號","121.642065","25.0983216666667","6501100","汐止區"
"221012","276-VK","2017/12/16 13:21:53","新北市汐止區汐萬路一段256巷3號","121.653441666667","25.07464","6501100","汐止區"
"221012","278-VK","2017/12/16 18:49:38","新北市汐止區康寧街901號","121.65082","25.0752633333333","6501100","汐止區"
"221023","279-VK","2017/12/16 18:49:45","新北市汐止區康寧街901號","121.650981666667","25.07523","6501100","汐止區"
"221032","280-BY","2017/12/16 18:49:54","新北市汐止區橫科路40-2號","121.620803333333","25.0504","6501100","汐止區"
"221027","281-BY","2017/12/16 18:49:51","新北市汐止區康寧街901號","121.651366666667","25.075005","6501100","汐止區"
"221029","298-VK","2017/12/16 18:49:48","新北市汐止區工建路66號","121.640538333333","25.0630283333333","6501100","汐止區"
"221031","353-TW","2017/12/16 18:49:45","新北市汐止區福德一路296號","121.631543333333","25.063255","6501100","汐止區"
"221015","567-BX","2017/12/16 18:49:39","新北市汐止區鄉長路一段55巷6號","121.665403333333","25.07615","6501100","汐止區"
"221035","622-UM","2017/12/16 18:49:49","新北市汐止區汐萬路一段256巷3號","121.652675","25.074505","6501100","汐止區"
"221025","623-UM","2017/12/16 18:49:45","新北市汐止區秀峰路60號","121.659716666667","25.0648","6501100","汐止區"
"221038","646-BX","2017/12/16 18:49:55","新北市汐止區汐萬路一段312號","121.650598333333","25.07533","6501100","汐止區"
"221033","647-BX","2017/12/16 18:49:38","新北市汐止區南勢街1巷1號","121.626986666667","25.037435","6501100","汐止區"
"221002","707-TV","2017/12/16 18:49:43","新北市汐止區大同路一段233-1號","121.63467","25.0577683333333","6501100","汐止區"
"221018","753-BX","2017/12/16 18:49:45","新北市汐止區茄苳路181號","121.669995","25.0692733333333","6501100","汐止區"
"220079","145-BY","2017/12/16 18:49:55","新北市板橋區民權路202巷7弄2號","121.460101666667","25.0147833333333","6500100","板橋區"
"220080","200-UY","2017/12/16 18:49:48","新北市板橋區大觀路二段265巷72弄35號","121.44113","24.9969766666667","6500100","板橋區"
"220082","610-BX","2017/12/16 18:49:46","新北市板橋區篤行路二段153號","121.429563333333","24.9880266666667","6500100","板橋區"
"220101","245-BX","2017/12/16 15:36:28","新北市板橋區民生路二段161巷1號","121.47013","25.019875","6500100","板橋區"
"220056","276-BY","2017/12/16 18:49:49","新北市板橋區信義路67號","121.457081666667","24.995485","6500100","板橋區"
"220072","277-BY","2017/12/16 18:49:54","新北市板橋區金門街8號","121.433423333333","24.99473","6500100","板橋區"
"220094","283-UM","2017/12/16 18:49:54","新北市板橋區民生路二段161巷3號","121.470103333333","25.0197416666667","6500100","板橋區"
"220071","283-VK","2017/12/16 18:49:48","新北市板橋區忠孝路176巷5弄2號","121.46479","25.0019316666667","6500100","板橋區"
"220053","285-VK","2017/12/16 18:49:44","新北市板橋區民生路二段89-6號","121.470626666667","25.0188083333333","6500100","板橋區"
"220083","286-VK","2017/12/16 18:49:36","新北市板橋區大觀路二段22巷36號","121.444905","25.0036533333333","6500100","板橋區"
"220081","287-VK","2017/12/16 18:49:59","新北市板橋區光華街13巷47號","121.452675","25.0111283333333","6500100","板橋區"
"220090","288-VK","2017/12/16 18:49:53","新北市板橋區民生路二段120號","121.470483333333","25.0195466666667","6500100","板橋區"
"220061","293-UM","2017/12/16 18:49:49","新北市板橋區太和街4巷9號","121.474181666667","25.0199366666667","6500100","板橋區"
"220084","296-UM","2017/12/16 18:49:37","新北市板橋區大觀路二段150巷62-1號","121.441605","25.000725","6500100","板橋區"
"220075","297-UM","2017/12/16 18:49:39","新北市板橋區南雅東路89號","121.45311","25.00857","6500100","板橋區"
"220062","305-R5","2017/12/16 18:49:46","新北市板橋區中山路二段40巷16號","121.47334","25.0147483333333","6500100","板橋區"
"220092","307-R5","2017/12/16 18:49:44","新北市板橋區漢生東路83巷2號","121.46684","25.0157716666667","6500100","板橋區"
"220098","317-R6","2017/12/16 18:49:42","新北市板橋區民生路二段120號","121.470406666667","25.01975","6500100","板橋區"
"220064","486-VK","2017/12/16 18:49:55","新北市板橋區中山路二段37號","121.472991666667","25.0155683333333","6500100","板橋區"
"220089","487-VK","2017/12/16 18:49:56","新北市板橋區民生路二段120號","121.470335","25.019885","6500100","板橋區"
"220088","491-VK","2017/12/16 18:49:52","新北市板橋區民生路二段161巷1號","121.46993","25.0200683333333","6500100","板橋區"
"220035","560-BX","2017/12/16 18:49:57","新北市板橋區中正路275巷79弄2號","121.452241666667","25.018155","6500100","板橋區"
"220103","561-BX","2017/12/16 18:49:40","新北市板橋區民生路二段161巷7號","121.470273333333","25.0197066666667","6500100","板橋區"
"220063","609-BX","2017/12/16 18:49:53","新北市板橋區民生路二段123號","121.470628333333","25.0185383333333","6500100","板橋區"
"220091","637-BX","2017/12/16 18:49:36","新北市板橋區民生路二段120號","121.470318333333","25.0201633333333","6500100","板橋區"
"220057","686-BX","2017/12/16 18:49:45","新北市板橋區華東街1-9號","121.44819","24.9948533333333","6500100","板橋區"
"220077","687-BX","2017/12/16 18:49:54","新北市板橋區龍興街103巷1號","121.444513333333","25.0033483333333","6500100","板橋區"
"220093","689-BX","2017/12/16 18:49:45","新北市板橋區民生路二段120號","121.470325","25.0199716666667","6500100","板橋區"
"220054","741-BX","2017/12/16 18:49:51","新北市板橋區館前西路27號","121.458491666667","25.0068833333333","6500100","板橋區"
"220055","827-TW","2017/12/16 18:49:39","新北市板橋區縣民大道一段322號","121.461711666667","25.0109983333333","6500100","板橋區"
"220067","829-TW","2017/12/16 18:49:59","新北市板橋區中山路二段37號","121.47297","25.0156833333333","6500100","板橋區"
"220102","830-TW","2017/12/16 16:45:15","新北市板橋區民生路二段161巷5號","121.470166666667","25.0197033333333","6500100","板橋區"
"220074","895-R6","2017/12/16 18:49:45","新北市板橋區南雅南路一段82號","121.455233333333","25.0049966666667","6500100","板橋區"
"220073","985-R7","2017/12/16 18:49:44","新北市板橋區館前西路102號","121.45715","25.007385","6500100","板橋區"
"220097","AAC-210","2017/12/16 18:49:54","新北市板橋區漢生東路83巷2號","121.46692","25.0157333333333","6500100","板橋區"
"220070","AAC-253","2017/12/16 18:49:55","新北市板橋區四川路一段107-8號","121.459873333333","25.0049566666667","6500100","板橋區"
