"lineid","car","time","location","longitude","latitude","cityid","cityname"
"234046","148-BY","2017/12/16 19:19:51","新北市永和區永元路50號","121.522258333333","25.0010483333333","6500400","永和區"
"234013","149-BY","2017/12/16 19:19:56","新北市永和區仁愛路96號","121.512286666667","25.0133533333333","6500400","永和區"
"234007","207-UY","2017/12/16 19:19:35","新北市永和區中山路一段293號","121.506715","25.0068866666667","6500400","永和區"
"234081","298-R6","2017/12/16 19:19:51","新北市永和區福和路7巷15弄1號","121.525546666667","25.00694","6500400","永和區"
"234038","336-UY","2017/12/16 19:19:51","新北市永和區民樂街70號","121.527385","24.9983783333333","6500400","永和區"
"234064","337-UY","2017/12/16 19:19:44","新北市永和區永元路17巷6弄2號","121.521361666667","25.0006783333333","6500400","永和區"
"234086","338-UY","2017/12/16 19:19:48","新北市永和區永利路80號","121.520473333333","25.0040616666667","6500400","永和區"
"234054","553-UM","2017/12/16 19:19:50","新北市永和區中興街43號","121.516313333333","25.0118","6500400","永和區"
"234017","745-BX","2017/12/16 19:19:54","新北市永和區文化路144巷31弄10號","121.512325","25.0168466666667","6500400","永和區"
"234030","746-BX","2017/12/16 19:19:56","新北市永和區厚德街73號","121.524745","24.99874","6500400","永和區"
"234061","AAD-866","2017/12/16 19:19:43","新北市永和區秀朗路一段120號","121.517013333333","25.0035583333333","6500400","永和區"
"234070","847-RS","2017/12/16 19:19:50","新北市永和區中正路700號","121.516335","25.0098416666667","6500400","永和區"
"234042","862-TW","2017/12/16 19:19:50","新北市永和區保平路151巷3號","121.51016","25.0056016666667","6500400","永和區"
"234050","863-TW","2017/12/16 19:19:48","新北市永和區保福路二段88巷28號","121.511923333333","25.0135383333333","6500400","永和區"
"234026","9371-KE","2017/12/16 19:19:41","新北市永和區得和路42巷23號","121.515423333333","24.9996433333333","6500400","永和區"
"234011","9373-KE","2017/12/16 19:19:54","新北市永和區保福路二段23巷19號","121.510155","25.011175","6500400","永和區"
"249003","593-UM","2017/12/16 19:19:48","新北市八里區中山路二段466巷38號","121.39842","25.1477883333333","6502300","八里區"
"248020","225-UY","2017/12/16 19:19:38","新北市五股區凌雲路三段57號","121.425276666667","25.12502","6501500","五股區"
"248012","247-BX","2017/12/16 19:19:57","新北市五股區中興路四段48巷16號","121.438613333333","25.08345","6501500","五股區"
"248010","272-BY","2017/12/16 19:19:39","新北市五股區自強路90巷72號","121.430666666667","25.0712466666667","6501500","五股區"
"248004","677-BX","2017/12/16 19:19:36","新北市五股區五福路53號","121.433001666667","25.0897416666667","6501500","五股區"
"248002","678-BX","2017/12/16 19:19:44","新北市五股區凌雲路一段158巷14-1號","121.447843333333","25.1035083333333","6501500","五股區"
"234023","9380-KE","2017/12/16 19:19:55","新北市永和區竹林路124巷19號","121.518975","25.0112183333333","6500400","永和區"
"234077","969-R7","2017/12/16 19:19:50","新北市永和區民治街77號","121.517731666667","24.9980566666667","6500400","永和區"
"234074","AAC-211","2017/12/16 19:19:42","新北市永和區竹林路102號","121.519676666667","25.0119616666667","6500400","永和區"
"234067","AAC-212","2017/12/16 19:19:36","新北市永和區保平路30巷12號","121.51165","25.0076966666667","6500400","永和區"
"234003","AAC-295","2017/12/16 19:19:42","新北市永和區永平路186-1號","121.51041","25.00923","6500400","永和區"
"244013","069-UM","2017/12/16 19:19:44","新北市林口區麗園一街4巷2號","121.376323333333","25.0705083333333","6501700","林口區"
"244019","403-UM","2017/12/16 19:19:48","新北市林口區麗園一街35號","121.377656666667","25.0685883333333","6501700","林口區"
"244023","483-VK","2017/12/16 19:19:58","新北市林口區仁愛路二段267巷3號","121.373396666667","25.0772083333333","6501700","林口區"
"244017","485-VK","2017/12/16 19:19:38","新北市林口區太平里180號","121.368511666667","25.13432","6501700","林口區"
"244011","701-TV","2017/12/16 19:19:56","新北市林口區中山路97巷9號","121.389553333333","25.0781883333333","6501700","林口區"
"243012","AAD-798","2017/12/16 19:19:44","新北市泰山區仁愛路100巷27號","121.433436666667","25.055145","6501600","泰山區"
"243011","297-R6","2017/12/16 19:19:56","新北市泰山區中央路36巷1號","121.426276666667","25.0427083333333","6501600","泰山區"
"243015","380-SR","2017/12/16 19:19:54","新北市泰山區公園路71號","121.426268333333","25.0554733333333","6501600","泰山區"
"243014","421-VK","2017/12/16 19:19:53","新北市泰山區泰林路二段253號","121.431786666667","25.0622133333333","6501600","泰山區"
"243010","KEA-2215","2017/12/16 19:19:37","新北市泰山區明志路一段488號","121.430495","25.0545166666667","6501600","泰山區"
"243009","KEA-2216","2017/12/16 19:19:43","新北市泰山區明志路一段17號","121.43376","25.065775","6501600","泰山區"
"243013","646-TV","2017/12/16 19:19:47","新北市泰山區明志路三段145巷7號","121.425495","25.0399166666667","6501600","泰山區"
"243016","680-BX","2017/12/16 19:19:51","新北市泰山區工專路64號","121.42286","25.0403166666667","6501600","泰山區"
"222003","436-BY","2017/12/16 19:19:46","新北市深坑區深南路204號","121.626683333333","25.0160316666667","6501800","深坑區"
"222002","659-BX","2017/12/16 19:19:42","新北市深坑區北深路一段177號","121.63256","25.0109033333333","6501800","深坑區"
"231059","046-UY","2017/12/16 19:19:53","新北市新店區安和路三段21巷3號","121.517286666667","24.9809066666667","6500600","新店區"
"231061","047-UY","2017/12/16 19:19:42","新北市新店區安康路一段226-2號","121.523423333333","24.9636633333333","6500600","新店區"
"231060","106-UY","2017/12/16 19:19:51","新北市新店區安康路二段105號","121.512785","24.9624516666667","6500600","新店區"
"231051","107-UY","2017/12/16 19:19:50","新北市新店區中央路99號","121.531028333333","24.975045","6500600","新店區"
"231048","108-UY","2017/12/16 19:19:54","新北市新店區中興路一段306號","121.546315","24.969865","6500600","新店區"
"231052","187-VK","2017/12/16 19:19:48","新北市新店區自強路211號","121.546811666667","24.9197","6500600","新店區"
"231050","KEA-2219","2017/12/16 19:19:50","新北市新店區竹林路157號","121.556178333333","24.9480716666667","6500600","新店區"
"231046","278-BY","2017/12/16 19:19:56","新北市新店區華城路36巷1-1號","121.528465","24.9552866666667","6500600","新店區"
"231054","AAD-862","2017/12/16 19:19:50","新北市新店區國校路20-1號","121.537891666667","24.955125","6500600","新店區"
"231058","3712-VJ","2017/12/16 19:19:34","新北市新店區北新路一段32號","121.540948333333","24.9659583333333","6500600","新店區"
"231067","4772-VM","2017/12/16 19:19:49","新北市新店區安康路二段414巷2號","121.495908333333","24.9578166666667","6500600","新店區"
"231065","512-UM","2017/12/16 19:19:39","新北市新店區安祥路120號","121.474543333333","24.956495","6500600","新店區"
"231064","515-UM","2017/12/16 19:19:40","新北市新店區安忠路57巷26弄45號","121.511991666667","24.95768","6500600","新店區"
"231045","617-UM","2017/12/16 19:19:55","新北市新店區北宜路一段272-1號","121.546115","24.95272","6500600","新店區"
"231041","618-UM","2017/12/16 19:19:49","新北市新店區溪園路245-6號","121.525326666667","24.98328","6500600","新店區"
"231040","619-UM","2017/12/16 19:19:42","新北市新店區三民路20巷2號","121.537595","24.9706116666667","6500600","新店區"
"231042","641-BX","2017/12/16 19:19:41","新北市新店區北宜路一段7號","121.538443333333","24.9582016666667","6500600","新店區"
"231063","645-TV","2017/12/16 19:19:36","新北市新店區達觀路14巷8號","121.503245","24.9432316666667","6500600","新店區"
"231049","719-UM","2017/12/16 19:19:50","新北市新店區明德路107號","121.541528333333","24.9793633333333","6500600","新店區"
"231062","720-UM","2017/12/16 19:19:49","新北市新店區莒光路70號","121.52292","24.9551266666667","6500600","新店區"
"231044","897-TW","2017/12/16 19:19:41","新北市新店區寶慶街71號","121.541856666667","24.9864883333333","6500600","新店區"
"231043","899-TW","2017/12/16 19:19:50","新北市新店區北新路二段184號","121.54291","24.976255","6500600","新店區"
"231066","AKT-0513","2017/12/16 19:19:48","新北市新店區安康路三段337號","121.485435","24.95151","6500600","新店區"
"241009","060-VK","2017/12/16 19:19:44","新北市三重區仁美街113號","121.485648333333","25.0809916666667","6500200","三重區"
"241031","061-VK","2017/12/16 19:19:52","新北市三重區重新路四段166號","121.486308333333","25.055555","6500200","三重區"
"241017","063-VK","2017/12/16 19:19:38","新北市三重區大同北路217號","121.491638333333","25.06606","6500200","三重區"
"241026","066-VK","2017/12/16 19:19:46","新北市三重區重安街170巷6號","121.49647","25.0547916666667","6500200","三重區"
"241032","269-UM","2017/12/16 19:19:55","新北市三重區新生街94號","121.48355","25.059335","6500200","三重區"
"241025","271-UM","2017/12/16 19:19:41","新北市三重區中正北路408巷2號","121.47538","25.0703133333333","6500200","三重區"
"241007","398-BY","2017/12/16 19:19:51","新北市三重區慈愛街50號","121.485993333333","25.0791383333333","6500200","三重區"
"241020","413-TH","2017/12/16 19:19:48","新北市三重區大智街250號","121.489298333333","25.0732566666667","6500200","三重區"
"241030","480-VK","2017/12/16 19:19:41","新北市三重區新興路42號","121.491523333333","25.0535916666667","6500200","三重區"
"241006","AAD-863","2017/12/16 19:19:44","新北市三重區車路頭街182號","121.48367","25.0771633333333","6500200","三重區"
"241035","743-BX","2017/12/16 19:19:54","新北市三重區新北大道一段7號","121.489518333333","25.0611433333333","6500200","三重區"
"241029","887-TS","2017/12/16 19:19:39","新北市三重區重安街39號","121.491278333333","25.05688","6500200","三重區"
"235066","003-UY","2017/12/16 19:19:49","新北市中和區枋寮街2號","121.502493333333","24.9998733333333","6500300","中和區"
"235064","005-UY","2017/12/16 19:19:43","新北市中和區中和路30號","121.499765","25.00174","6500300","中和區"
"235063","006-UY","2017/12/16 19:19:57","新北市中和區中正路262號","121.495391666667","24.9943183333333","6500300","中和區"
"235046","031-BX","2017/12/16 19:19:38","新北市中和區忠孝街2巷16號","121.510678333333","24.9813316666667","6500300","中和區"
"235056","096-UM","2017/12/16 19:19:54","新北市中和區員山路531號","121.47967","25.0069866666667","6500300","中和區"
"235039","097-UM","2017/12/16 19:19:44","新北市中和區秀峰街79巷2號","121.521785","24.990255","6500300","中和區"
"235040","150-BY","2017/12/16 19:19:48","新北市中和區保健路50巷29號","121.509856666667","24.9961583333333","6500300","中和區"
"235058","151-BY","2017/12/16 19:19:48","新北市中和區連城路469巷89號","121.48442","24.9934316666667","6500300","中和區"
"235055","183-VK","2017/12/16 19:19:41","新北市中和區德光路13號","121.471145","25.00444","6500300","中和區"
"235038","185-VK","2017/12/16 19:19:43","新北市中和區大智街23巷2弄3號","121.520045","24.99246","6500300","中和區"
"235049","186-VK","2017/12/16 19:19:56","新北市中和區景新街235號","121.50813","24.9944916666667","6500300","中和區"
"235067","255-BX","2017/12/16 19:19:56","新北市中和區新生街177巷1號","121.483895","25.000765","6500300","中和區"
"235044","293-VK","2017/12/16 19:19:45","新北市中和區復興路321號","121.500855","24.990245","6500300","中和區"
"235072","301-VK","2017/12/16 19:19:44","新北市中和區連城路265巷6弄2號","121.491443333333","24.99598","6500300","中和區"
"235043","352-BY","2017/12/16 19:19:49","新北市中和區景平路434號","121.507036666667","24.99337","6500300","中和區"
"235068","377-QA","2017/12/16 19:19:51","新北市中和區連城路75巷10號","121.498346666667","24.9984983333333","6500300","中和區"
"235061","378-QA","2017/12/16 19:19:53","新北市中和區員山路394巷12弄11號","121.481485","25.003925","6500300","中和區"
"235071","269-TV","2017/12/16 19:19:49","新北市中和區連城路469巷69號","121.483468333333","24.9942016666667","6500300","中和區"
"235050","4979-A6","2017/12/16 19:19:45","新北市中和區景安路208巷17號","121.50313","24.9914","6500300","中和區"
"235069","4980-A6","2017/12/16 19:19:54","","121.499201666667","25.0053766666667","6500300","中和區"
"235042","551-UM","2017/12/16 19:19:55","新北市永和區智光街94號","121.516128333333","24.9969633333333","6500300","中和區"
"235070","558-UM","2017/12/16 19:19:50","新北市中和區中和路12號","121.499571666667","25.00214","6500300","中和區"
"235045","565-BX","2017/12/16 19:19:47","新北市中和區景新街423巷30號","121.514458333333","24.989725","6500300","中和區"
"235054","640-BX","2017/12/16 19:19:53","新北市中和區民德路135號","121.468863333333","25.0006316666667","6500300","中和區"
"235060","647-TV","2017/12/16 19:19:55","新北市中和區中山路三段135號","121.474148333333","25.0061133333333","6500300","中和區"
"235047","732-UM","2017/12/16 19:19:54","新北市中和區景平路241巷29號","121.508833333333","24.9922616666667","6500300","中和區"
"235057","801-TS","2017/12/16 19:19:40","新北市中和區員山路263號","121.481061666667","24.9992183333333","6500300","中和區"
"235041","802-TS","2017/12/16 19:19:39","新北市中和區中和路258號","121.507613333333","24.9996483333333","6500300","中和區"
"235052","805-TS","2017/12/16 19:19:40","新北市中和區華新街143巷17號","121.506701666667","24.9809566666667","6500300","中和區"
"235048","896-TW","2017/12/16 19:19:57","新北市中和區忠孝街104號","121.512101666667","24.984905","6500300","中和區"
"235053","900-TW","2017/12/16 19:19:40","新北市中和區華安街32巷2號","121.467443333333","24.9973333333333","6500300","中和區"
"235065","911-UM","2017/12/16 19:19:44","新北市中和區中山路二段136巷6弄8號","121.502125","25.0041183333333","6500300","中和區"
"235051","157-BY","2017/12/16 19:19:56","新北市中和區景平路239巷33弄1號","121.509471666667","24.9918766666667","6500300","中和區"
"235037","AAC-213","2017/12/16 19:19:42","新北市中和區秀朗路三段10巷37弄6號","121.523925","24.9958566666667","6500300","中和區"
"235059","AAC-215","2017/12/16 19:19:58","新北市中和區圓通路286巷2號","121.4915","24.9909766666667","6500300","中和區"
"220068","013-TV","2017/12/15 20:56:08","新北市八里區中山路三段409號","121.369018333333","25.1360616666667","6500100","板橋區"
"220065","072-UY","2017/12/16 19:19:53","新北市板橋區國泰街76巷11號","121.46724","25.0068583333333","6500100","板橋區"
"220106","075-UY","2017/12/16 19:19:49","新北市板橋區長江路二段295號","121.470531666667","25.033145","6500100","板橋區"
"220069","AAD-861","2017/12/16 19:19:46","新北市板橋區華興街31巷19號","121.458466666667","25.00374","6500100","板橋區"
"220096","120-SR","2017/12/16 19:19:50","新北市板橋區大同街14-4號","121.477516666667","25.02696","6500100","板橋區"
"247004","336-TH","2017/12/16 19:19:45","新北市蘆洲區長榮路500號","121.459528333333","25.089745","6501400","蘆洲區"
"226004","312-R5","2017/12/16 19:19:55","新北市平溪區十分里十分街236號","121.778126666667","25.0440216666667","6502400","平溪區"
"228003","097-TW","2017/12/16 19:19:42","新北市貢寮區和美里和美街19-2號","121.912763333333","25.0826133333333","6502600","貢寮區"
"228001","212-TW","2017/12/16 19:19:54","新北市貢寮區真理里新港街10號","121.925558333333","25.0543766666667","6502600","貢寮區"
"228002","585-TW","2017/12/16 19:19:47","新北市貢寮區雙玉里田寮洋街21號","121.926368333333","25.0255083333333","6502600","貢寮區"
"224010","AGQ-8101","2017/12/16 19:19:52","新北市瑞芳區基山街116號","121.843888333333","25.1084266666667","6501200","瑞芳區"
"224006","676-BX","2017/12/16 19:19:39","新北市瑞芳區中山路252號","121.79979","25.10736","6501200","瑞芳區"
"224008","275-VK","2017/12/16 19:19:59","新北市瑞芳區一坑路71號","121.802726666667","25.1083166666667","6501200","瑞芳區"
"224005","271-BY","2017/12/16 19:19:55","新北市瑞芳區蛇子形路5號","121.825088333333","25.1043066666667","6501200","瑞芳區"
"227002","642-TC","2017/12/16 19:19:49","新北市雙溪區平林里梅竹蹊66-1號","121.86018","25.0358333333333","6502500","雙溪區"
"227010","400-TW","2017/12/16 19:19:39","新北市雙溪區新基里新基北街40號","121.868518333333","25.0380366666667","6502500","雙溪區"
"253005","032-BX","2017/12/16 19:19:54","新北市石門區阿里荖7號","121.609418333333","25.28002","6502200","石門區"
"253006","295-VK","2017/12/16 19:19:41","新北市石門區楓林23-10號","121.538685","25.29112","6502200","石門區"
"222001","KEA-2212","2017/12/16 19:19:44","新北市深坑區北深路二段103號","121.617426666667","25.0034366666667","6501800","深坑區"
"208002","742-BX","2017/12/16 19:19:40","新北市金山區中華路133號","121.633101666667","25.2209366666667","6502700","金山區"
"208003","665-BX","2017/12/16 19:19:40","新北市金山區中山路165號","121.638741666667","25.2206183333333","6502700","金山區"
"208001","761-BX","2017/12/16 19:19:43","新北市金山區民生路69號","121.640205","25.2196666666667","6502700","金山區"
"251001","011-UM","2017/12/16 19:19:50","新北市淡水區自強路201巷39號","121.462141666667","25.1268566666667","6501000","淡水區"
"251014","180-VK","2017/12/16 19:19:38","新北市淡水區小中寮19-7號","121.484755","25.2296333333333","6501000","淡水區"
"251010","413-VK","2017/12/16 19:19:55","新北市淡水區沙崙路27號","121.421453333333","25.1816433333333","6501000","淡水區"
"251012","441-VK","2017/12/16 19:19:53","新北市淡水區中山北路三段164號","121.445736666667","25.1965666666667","6501000","淡水區"
"251016","442-VK","2017/12/16 19:19:51","新北市淡水區淡金路三段350巷18號","121.450711666667","25.2083716666667","6501000","淡水區"
"251005","443-VK","2017/12/16 19:19:42","新北市淡水區水源街一段34巷2號","121.44318","25.1722216666667","6501000","淡水區"
"251006","561-UM","2017/12/16 19:19:41","新北市淡水區大信街33號","121.44199","25.1772816666667","6501000","淡水區"
"251009","575-R6","2017/12/16 19:19:48","新北市淡水區大忠街5巷9號","121.443396666667","25.1765516666667","6501000","淡水區"
"251007","577-R6","2017/12/16 19:19:38","新北市淡水區民生路117巷34號","121.464916666667","25.1396083333333","6501000","淡水區"
"251003","673-BX","2017/12/16 19:19:48","新北市淡水區中山北路一段168號","121.444453333333","25.1785766666667","6501000","淡水區"
"207003","550-UM","2017/12/16 19:19:53","新北市萬里區大鵬里萬里加投79-3號","121.647336666667","25.21234","6502800","萬里區"
"207004","225-TW","2017/12/16 19:19:55","新北市萬里區萬里里瑪鋉路6號","121.687606666667","25.1750883333333","6502800","萬里區"
"252002","178-VK","2017/12/16 19:19:47","新北市三芝區淡金路二段17號","121.502665","25.259455","6502100","三芝區"
"252003","249-BX","2017/12/16 19:19:55","新北市三芝區埔坪里埔頭坑41號","121.504446666667","25.2645683333333","6502100","三芝區"
"252001","292-VK","2017/12/16 19:19:44","新北市三芝區長勤街9巷9弄2號","121.501788333333","25.254955","6502100","三芝區"
"237004","078-UY","2017/12/16 19:19:48","新北市三峽區有木206號","121.439081666667","24.851515","6500900","三峽區"
"237007","153-BY","2017/12/16 19:19:54","新北市三峽區二鬮路178號","121.3591","24.9068","6500900","三峽區"
"237009","210-TH","2017/12/16 19:19:45","新北市三峽區和平街31號","121.370406666667","24.935355","6500900","三峽區"
"237013","252-BX","2017/12/16 19:19:46","新北市三峽區大同路39巷33號","121.3782","24.927495","6500900","三峽區"
"237012","275-BY","2017/12/16 19:19:39","新北市三峽區三樹路222巷236弄8-3號","121.391358333333","24.9430383333333","6500900","三峽區"
"237008","302-VK","2017/12/16 19:19:53","新北市三峽區永安街95巷2號","121.374658333333","24.9287433333333","6500900","三峽區"
"237014","433-BY","2017/12/16 19:19:52","新北市三峽區中山路63巷8號","121.366913333333","24.9343133333333","6500900","三峽區"
"237006","5529-G3","2017/12/16 19:19:38","新北市三峽區中正路一段336巷15弄2號","121.369991666667","24.9249516666667","6500900","三峽區"
"237016","649-BX","2017/12/16 19:19:47","新北市三峽區安坑27-5號","121.446968333333","24.928485","6500900","三峽區"
"237005","AKY-6261","2017/12/16 19:19:41","新北市三峽區中山路459巷50-1號","121.356298333333","24.937255","6500900","三峽區"
"236073","105-UM","2017/12/16 19:19:48","新北市土城區學成路106號","121.449885","24.9891566666667","6501300","土城區"
"236079","166-UM","2017/12/16 17:58:59","新北市土城區永寧路32巷10弄18-2號","121.429026666667","24.960975","6501300","土城區"
"236027","269-VK","2017/12/16 19:19:42","新北市土城區中央路二段149巷16號","121.44285","24.976635","6501300","土城區"
"236015","270-VK","2017/12/16 19:19:53","新北市土城區廣福街7號","121.4572","24.98885","6501300","土城區"
"236023","401-BY","2017/12/16 19:19:45","新北市土城區峰廷街3號","121.469128333333","24.98732","6501300","土城區"
"236059","912-UM","2017/12/16 19:19:57","新北市土城區中央路二段280號","121.440835","24.97399","6501300","土城區"
"236049","913-UM","2017/12/16 19:19:46","新北市土城區明德路一段398-1號","121.453681666667","24.979075","6501300","土城區"
"238015","755-BX","2017/12/16 19:19:56","新北市樹林區大安路521號","121.41376","24.985605","6500700","樹林區"
"238023","601-UM","2017/12/16 19:19:47","新北市樹林區三興路31號","121.396368333333","25.014825","6500700","樹林區"
"238019","599-UM","2017/12/16 19:19:55","新北市樹林區鎮前街347巷6號","121.416738333333","24.9835766666667","6500700","樹林區"
"238018","571-TV","2017/12/16 19:19:54","新北市樹林區中華路353-1號","121.41477","24.9802333333333","6500700","樹林區"
"238024","5061-A6","2017/12/16 19:19:58","新北市樹林區福德街10號","121.400751666667","24.9755333333333","6500700","樹林區"
"238021","KEA-2217","2017/12/16 19:19:46","新北市樹林區柑園街二段403-1號","121.366621666667","24.9482783333333","6500700","樹林區"
"238022","KEA-2213","2017/12/16 19:19:53","新北市樹林區中華路219-1號","121.419256666667","24.9811966666667","6500700","樹林區"
"238025","303-VK","2017/12/16 19:19:54","新北市樹林區中山路二段89號","121.411513333333","24.9829466666667","6500700","樹林區"
"238017","283-BY","2017/12/16 19:19:55","新北市樹林區光興街296號","121.407273333333","25.005365","6500700","樹林區"
"238014","282-BY","2017/12/16 19:19:40","新北市樹林區千歲街40號","121.425763333333","24.9967766666667","6500700","樹林區"
"238020","268-VK","2017/12/16 19:19:47","新北市樹林區俊英街133巷21號","121.423265","25.0107883333333","6500700","樹林區"
"238026","172-UY","2017/12/16 19:19:53","新北市樹林區佳園路三段30號","121.38791","24.9538466666667","6500700","樹林區"
"238016","169-UY","2017/12/16 19:19:53","新北市樹林區中山路二段34號","121.417208333333","24.98503","6500700","樹林區"
"239007","AAC-297","2017/12/16 19:19:51","新北市鶯歌區大湖路余厝巷1-2號","121.342316666667","24.961255","6500800","鶯歌區"
"239006","891-R6","2017/12/16 19:19:56","新北市鶯歌區建國路512巷54號","121.339051666667","24.9514483333333","6500800","鶯歌區"
"239008","527-UM","2017/12/16 19:19:58","新北市鶯歌區大湖路460巷2弄2號","121.339955","24.9724283333333","6500800","鶯歌區"
"239005","526-UM","2017/12/16 19:19:39","新北市鶯歌區中湖街277號","121.34843","24.9765116666667","6500800","鶯歌區"
"239001","417-VK","2017/12/16 19:19:50","新北市鶯歌區建國路568號","121.338118333333","24.9512466666667","6500800","鶯歌區"
"239003","360-BY","2017/12/16 19:19:56","新北市鶯歌區建國路216號","121.34896","24.9534816666667","6500800","鶯歌區"
"239002","359-BY","2017/12/16 19:19:39","新北市鶯歌區大湖路402號","121.342763333333","24.9731383333333","6500800","鶯歌區"
"239004","193-VK","2017/12/16 19:19:41","新北市鶯歌區國中街148號","121.338841666667","24.93967","6500800","鶯歌區"
"221008","489-VK","2017/12/16 19:19:49","新北市汐止區康寧街302-1號","121.626153333333","25.0671183333333","6501100","汐止區"
"221010","269-BY","2017/12/16 19:19:49","新北市汐止區康寧街901號","121.651398333333","25.0750716666667","6501100","汐止區"
"221012","276-VK","2017/12/16 13:21:53","新北市汐止區汐萬路一段256巷3號","121.653441666667","25.07464","6501100","汐止區"
"221012","278-VK","2017/12/16 19:19:38","新北市汐止區汐萬路一段266號","121.651081666667","25.0737766666667","6501100","汐止區"
"221023","279-VK","2017/12/16 19:19:45","新北市汐止區康寧街901號","121.651006666667","25.075225","6501100","汐止區"
"221032","280-BY","2017/12/16 19:19:45","新北市汐止區新台五路一段115號","121.651351666667","25.0614533333333","6501100","汐止區"
"221027","281-BY","2017/12/16 19:19:51","新北市汐止區汐萬路一段312號","121.650576666667","25.075405","6501100","汐止區"
"221029","298-VK","2017/12/16 19:19:47","新北市汐止區康寧街901號","121.65149","25.0749566666667","6501100","汐止區"
"221031","353-TW","2017/12/16 19:19:45","新北市汐止區汐萬路一段256巷3號","121.652536666667","25.0745333333333","6501100","汐止區"
"221015","567-BX","2017/12/16 19:19:39","新北市汐止區康寧街901號","121.651661666667","25.074935","6501100","汐止區"
"221025","623-UM","2017/12/16 19:19:44","新北市汐止區汐萬路一段222號","121.651626666667","25.0728583333333","6501100","汐止區"
"221038","646-BX","2017/12/16 19:19:55","新北市汐止區汐萬路一段312號","121.650691666667","25.0753266666667","6501100","汐止區"
"221033","647-BX","2017/12/16 19:19:57","新北市汐止區南勢街1巷1號","121.627028333333","25.0374433333333","6501100","汐止區"
"221002","707-TV","2017/12/16 19:19:44","新北市汐止區大同路一段380號","121.639331666667","25.0596433333333","6501100","汐止區"
"221018","753-BX","2017/12/16 19:19:45","新北市汐止區康寧街901號","121.651458333333","25.0749916666667","6501100","汐止區"
"220079","145-BY","2017/12/16 19:19:55","新北市板橋區民權路202巷17弄9號","121.460365","25.0165716666667","6500100","板橋區"
"220080","200-UY","2017/12/16 19:19:54","新北市板橋區大觀路二段19巷42號","121.448046666667","25.0030783333333","6500100","板橋區"
"220082","610-BX","2017/12/16 19:19:46","新北市板橋區溪城路79號","121.42667","24.9836416666667","6500100","板橋區"
"220101","245-BX","2017/12/16 19:19:22","新北市板橋區莊敬路2-1號","121.474053333333","25.0285383333333","6500100","板橋區"
"220056","276-BY","2017/12/16 19:19:49","新北市板橋區國慶路18號","121.45946","24.9950283333333","6500100","板橋區"
"220072","277-BY","2017/12/16 19:19:54","新北市板橋區金門街339-2號","121.42927","24.98564","6500100","板橋區"
"220094","283-UM","2017/12/16 19:19:33","新北市板橋區吳鳳路19-9號","121.466886666667","25.0307216666667","6500100","板橋區"
"220071","283-VK","2017/12/16 19:19:47","新北市板橋區大豐街113號","121.461145","25.00112","6500100","板橋區"
"220053","285-VK","2017/12/16 19:19:44","新北市板橋區富山街5號","121.478563333333","25.0215816666667","6500100","板橋區"
"220083","286-VK","2017/12/16 19:19:56","新北市板橋區龍興街99巷41號","121.443061666667","25.0034683333333","6500100","板橋區"
"220081","287-VK","2017/12/16 19:19:48","新北市板橋區南雅西路一段126號","121.452553333333","25.00683","6500100","板橋區"
"220090","288-VK","2017/12/16 19:19:53","新北市板橋區長江路一段106巷13弄18號","121.46078","25.0293966666667","6500100","板橋區"
"220061","293-UM","2017/12/16 19:19:48","新北市板橋區中山路二段318巷20弄37號","121.481106666667","25.0188816666667","6500100","板橋區"
"220084","296-UM","2017/12/16 19:19:54","新北市板橋區溪北路71號","121.428196666667","24.989675","6500100","板橋區"
"220075","297-UM","2017/12/16 19:19:39","新北市板橋區南雅南路一段79號","121.455678333333","25.00555","6500100","板橋區"
"220062","305-R5","2017/12/16 19:19:46","新北市板橋區三民路二段153巷7弄2號","121.480413333333","25.0150416666667","6500100","板橋區"
"220092","307-R5","2017/12/16 19:19:54","新北市板橋區松江街41號","121.468571666667","25.027275","6500100","板橋區"
"220098","317-R6","2017/12/16 19:19:42","新北市板橋區民有街89巷11號","121.464296666667","25.0273066666667","6500100","板橋區"
"220064","486-VK","2017/12/16 19:18:55","新北市板橋區板新路238號","121.46812","25.0159416666667","6500100","板橋區"
"220089","487-VK","2017/12/16 19:19:36","新北市板橋區文化路一段383號","121.467111666667","25.0216516666667","6500100","板橋區"
"220088","491-VK","2017/12/16 19:19:53","新北市板橋區雙十路一段3號","121.478095","25.02401","6500100","板橋區"
"220035","560-BX","2017/12/16 19:19:55","新北市板橋區中正路360巷47號","121.45602","25.023015","6500100","板橋區"
"220103","561-BX","2017/12/16 19:19:40","新北市板橋區文化路一段188巷7弄14號","121.467551666667","25.019675","6500100","板橋區"
"220063","609-BX","2017/12/16 19:19:54","新北市板橋區三民路一段43號","121.479555","25.02266","6500100","板橋區"
"220091","637-BX","2017/12/16 19:19:54","新北市板橋區文聖街130號","121.478298333333","25.0283166666667","6500100","板橋區"
"220057","686-BX","2017/12/16 19:19:54","新北市板橋區重慶路346巷6號","121.463785","24.9972033333333","6500100","板橋區"
"220077","687-BX","2017/12/16 19:19:54","新北市板橋區僑中二街52號","121.446721666667","25.0103216666667","6500100","板橋區"
"220093","689-BX","2017/12/16 19:19:45","新北市板橋區文化路一段379號","121.467066666667","25.0216416666667","6500100","板橋區"
"220054","741-BX","2017/12/16 19:19:51","新北市板橋區校前街15號","121.460545","25.00314","6500100","板橋區"
"220055","827-TW","2017/12/16 19:19:39","新北市板橋區館前東路156巷10號","121.464336666667","25.00723","6500100","板橋區"
"220067","829-TW","2017/12/16 19:19:39","新北市板橋區長安街178巷9號","121.474266666667","25.0110033333333","6500100","板橋區"
"220102","830-TW","2017/12/16 19:19:52","新北市板橋區松柏街70巷26號","121.476838333333","25.03011","6500100","板橋區"
"220074","895-R6","2017/12/16 19:19:45","新北市板橋區中正路自強新村43號","121.455111666667","25.0139266666667","6500100","板橋區"
"220073","985-R7","2017/12/16 19:19:40","新北市板橋區新生街26號","121.456033333333","25.0211483333333","6500100","板橋區"
"220097","AAC-210","2017/12/16 19:19:54","新北市板橋區幸福路60巷29號","121.460613333333","25.0209466666667","6500100","板橋區"
"220070","AAC-253","2017/12/16 19:19:55","新北市板橋區四川路一段159號","121.46001","25.00384","6500100","板橋區"
