"lineid","car","time","location","longitude","latitude","cityid","cityname"
"244019","403-UM","2017/12/16 20:47:40","新北市林口區粉寮路二段160巷28號","121.4051","25.09075","6501700","林口區"
"244024","837-TS","2017/12/16 20:12:12","新北市林口區粉寮路二段160巷28號","121.405195","25.0907733333333","6501700","林口區"
"243003","297-R6","2017/12/16 21:15:14","新北市泰山區黎明路25號","121.421888333333","25.0608983333333","6501600","泰山區"
"231050","KEA-2219","2017/12/16 21:39:50","新北市新店區中正路423號","121.53422","24.9779683333333","6500600","新店區"
"231063","645-TV","2017/12/16 21:39:36","新北市新店區如意街31號","121.494018333333","24.9482316666667","6500600","新店區"
"241005","262-UM","2017/12/16 21:39:40","新北市三重區碧華街1號","121.48352","25.0811583333333","6500200","三重區"
"235010","031-BX","2017/12/16 20:58:39","新北市中和區員山路36巷16-2號","121.485238333333","24.9915983333333","6500300","中和區"
"235029","911-UM","2017/12/16 21:39:48","新北市中和區員山路36巷16-3號","121.485065","24.9911616666667","6500300","中和區"
"247008","341-TH","2017/12/16 21:39:55","新北市八里區荖阡坑路41-3號","121.40014","25.1321066666667","6501400","蘆洲區"
"251004","009-UM","2017/12/16 21:39:40","新北市淡水區民生路5號","121.460441666667","25.1378666666667","6501000","淡水區"
"251001","011-UM","2017/12/16 21:39:50","新北市淡水區新市二路三段152號","121.435363333333","25.1942566666667","6501000","淡水區"
"251014","180-VK","2017/12/16 21:39:57","新北市淡水區淡金路四段180號","121.451538333333","25.2211566666667","6501000","淡水區"
"251008","181-VK","2017/12/16 21:39:40","新北市淡水區水源街二段70號","121.451103333333","25.1741333333333","6501000","淡水區"
"251010","413-VK","2017/12/16 21:39:55","新北市淡水區沙崙路216巷19號","121.426196666667","25.1842166666667","6501000","淡水區"
"251012","441-VK","2017/12/16 21:39:52","新北市淡水區淡金路四段478號","121.451878333333","25.2240283333333","6501000","淡水區"
"251016","442-VK","2017/12/16 21:39:51","新北市淡水區淡金路二段15號","121.446186666667","25.1892083333333","6501000","淡水區"
"251005","443-VK","2017/12/16 21:39:42","新北市淡水區學府路88號","121.44912","25.17099","6501000","淡水區"
"251006","561-UM","2017/12/16 21:39:53","新北市淡水區中正路11巷22號","121.438461666667","25.1705116666667","6501000","淡水區"
"251009","575-R6","2017/12/16 21:39:47","新北市淡水區民族路29巷1弄16號","121.463451666667","25.137405","6501000","淡水區"
"251011","650-BX","2017/12/16 21:39:55","新北市淡水區新民街300-1號","121.435091666667","25.1827966666667","6501000","淡水區"
"251002","672-BX","2017/12/16 21:39:43","新北市淡水區學府路207號","121.446393333333","25.1755716666667","6501000","淡水區"
"251003","673-BX","2017/12/16 21:39:48","新北市淡水區新春街85巷8號","121.43886","25.1827866666667","6501000","淡水區"
"237011","572-TV","2017/12/16 21:07:57","新北市三峽區中山路459巷163-3號","121.348765","24.9328116666667","6500900","三峽區"
"221012","276-VK","2017/12/16 13:21:53","新北市汐止區汐萬路一段256巷3號","121.653441666667","25.07464","6501100","汐止區"
"221018","753-BX","2017/12/16 21:01:05","新北市汐止區汐萬路一段256巷1號","121.651948333333","25.0747933333333","6501100","汐止區"
