"lineid","car","time","location","longitude","latitude","cityid","cityname"
"251013","179-VK","2017/10/01 16:59:45","新北市淡水區泉洲厝32號","121.489305","25.1926683333333","6501000","淡水區"
"251014","180-VK","2017/10/01 16:59:25","新北市淡水區興仁路162號","121.451615","25.220795","6501000","淡水區"
"251015","182-VK","2017/10/01 16:59:33","新北市淡水區忠愛街2-5號","121.457045","25.1718533333333","6501000","淡水區"
"251016","442-VK","2017/10/01 16:59:32","新北市淡水區瓦坑3號","121.477646666667","25.1806633333333","6501000","淡水區"
"237010","760-BX","2017/10/01 14:47:47","新北市三峽區中山路459巷163-3號","121.348955","24.9331516666667","6500900","三峽區"
