"lineid","car","time","location","longitude","latitude","cityid","cityname"
"251013","179-VK","2017/10/01 17:19:25","新北市淡水區演戲埔腳2-7號","121.47474","25.1946016666667","6501000","淡水區"
"251014","180-VK","2017/10/01 17:19:25","新北市淡水區番子田120-1號","121.464671666667","25.2280233333333","6501000","淡水區"
"251015","182-VK","2017/10/01 17:19:33","新北市淡水區樹林口7號","121.479463333333","25.1679433333333","6501000","淡水區"
"251016","442-VK","2017/10/01 17:19:32","新北市淡水區大竹圍63號","121.462761666667","25.1910166666667","6501000","淡水區"
"237010","760-BX","2017/10/01 14:47:47","新北市三峽區中山路459巷163-3號","121.348955","24.9331516666667","6500900","三峽區"
