"lineid","car","time","location","longitude","latitude","cityid","cityname"
"232001","290-BY","2017/10/02 07:28:17","新北市坪林區樹梅嶺6-1號","121.694738333333","24.95861","6502000","坪林區"
"232012","291-BY","2017/10/02 07:28:00","新北市坪林區金瓜寮12號","121.681655","24.9160783333333","6502000","坪林區"
"232010","375-UM","2017/10/02 07:28:03","新北市坪林區水聳淒坑10號","121.724076666667","24.92797","6502000","坪林區"
"232017","705-BZ","2017/10/02 07:27:18","新北市坪林區乾溪1-7號","121.736271666667","24.9752033333333","6502000","坪林區"
"232005","758-BX","2017/10/02 07:28:18","新北市坪林區魚堀37-17號","121.699758333333","24.9274333333333","6502000","坪林區"
"244001","657-BX","2017/10/02 07:28:09","新北市林口區頂福53-23號","121.346036666667","25.0862416666667","6501700","林口區"
"222005","289-BY","2017/10/02 07:24:35","新北市深坑區文化街39巷13號","121.61889","25.0010683333333","6501800","深坑區"
"226005","5620-A6","2017/10/02 07:28:10","新北市平溪區嶺腳里中華街28號","121.739411666667","25.0254783333333","6502400","平溪區"
"226001","7418-A5","2017/10/02 07:21:49","新北市平溪區望古里灰4-2號","121.763115","25.0295766666667","6502400","平溪區"
"226003","AGD-0702","2017/10/02 07:28:09","新北市平溪區平溪里平溪街22號","121.738776666667","25.0252583333333","6502400","平溪區"
"223006","022-BY","2017/10/02 07:28:04","新北市石碇區番子坑20號","121.67404","25.0012383333333","6501900","石碇區"
"223002","198-BX","2017/10/02 07:21:49","新北市石碇區碇格路二段4號","121.64688","24.9565633333333","6501900","石碇區"
"223003","205-TH","2017/10/02 07:28:00","新北市石碇區內楒仔腳4-1號","121.642626666667","24.9705916666667","6501900","石碇區"
"223008","406-TH","2017/10/02 07:28:10","新北市石碇區石碇子埔93-2號","121.675616666667","25.0046583333333","6501900","石碇區"
"223001","437-BY","2017/10/02 07:28:03","新北市石碇區內楒仔腳4-1號","121.641526666667","24.970745","6501900","石碇區"
"223004","660-BX","2017/10/02 07:28:01","新北市石碇區新興坑30號","121.647571666667","25.018485","6501900","石碇區"
"223007","661-BX","2017/10/02 07:28:04","新北市石碇區番子坑9-2號","121.683725","24.9988466666667","6501900","石碇區"
"223005","677-TV","2017/10/02 07:28:14","新北市石碇區新興坑36號","121.647661666667","25.0189533333333","6501900","石碇區"
"227005","282-VK","2017/10/02 07:28:08","新北市雙溪區新基里自強路5號","121.866346666667","25.0390166666667","6502500","雙溪區"
"252006","073-UM","2017/10/02 07:28:11","新北市三芝區埔頭里埔頭38-2號","121.49791","25.26069","6502100","三芝區"
"252004","249-BX","2017/10/02 07:28:12","新北市三芝區興華里楓子林50-2號","121.50215","25.2112666666667","6502100","三芝區"
"236007","165-UM","2017/10/02 07:28:13","新北市板橋區四川路二段245巷69號","121.452598333333","24.9920416666667","6501300","土城區"
"236001","339-SR","2017/10/02 07:28:03","新北市土城區和平路108-6號","121.447141666667","24.9633833333333","6501300","土城區"
"242028","986-R7","2017/10/02 07:28:01","新北市新莊區新泰路357巷3弄57號","121.442196666667","25.0395316666667","6500500","新莊區"
"242049","751-BX","2017/10/02 07:28:15","新北市新莊區新泰路357巷3弄57號","121.442043333333","25.03914","6500500","新莊區"
"242024","615-BX","2017/10/02 07:28:14","新北市新莊區新泰路255巷83號","121.442236666667","25.03871","6500500","新莊區"
"242022","613-BX","2017/10/02 07:28:07","新北市新莊區新泰路255巷83號","121.44223","25.039095","6500500","新莊區"
"242026","612-BX","2017/10/02 07:28:19","新北市新莊區新泰路357巷3弄57號","121.44226","25.03947","6500500","新莊區"
"242038","566-BX","2017/10/02 07:28:00","新北市新莊區新泰路255巷83號","121.442071666667","25.038955","6500500","新莊區"
"242033","415-TV","2017/10/02 07:28:17","新北市新莊區新泰路357巷3弄57號","121.442066666667","25.0392316666667","6500500","新莊區"
"242040","400-BY","2017/10/02 07:28:12","新北市新莊區新泰路357巷3弄57號","121.442131666667","25.039525","6500500","新莊區"
"242059","362-BY","2017/10/02 07:28:04","新北市新莊區新泰路255巷83號","121.442275","25.0388383333333","6500500","新莊區"
"242020","135-UY","2017/10/02 04:06:22","新北市新莊區三和路12-21號","121.441963333333","25.03881","6500500","新莊區"
"242045","172-VK","2017/10/02 05:14:40","新北市新莊區三和路12-21號","121.442013333333","25.038755","6500500","新莊區"
"242014","175-VK","2017/10/02 07:28:13","新北市新莊區新泰路255巷83號","121.442098333333","25.0388633333333","6500500","新莊區"
"242012","346-TH","2017/10/02 05:02:15","新北市新莊區三和路12-16號","121.44199","25.0374166666667","6500500","新莊區"
"242018","348-TH","2017/10/02 07:28:14","新北市新莊區新泰路357巷3弄57號","121.4421","25.039775","6500500","新莊區"
"242055","349-TH","2017/10/02 03:16:22","新北市新莊區三和路12-16號","121.44214","25.0374183333333","6500500","新莊區"
"242010","351-TH","2017/10/02 07:28:15","新北市新莊區新泰路357巷3弄57號","121.441856666667","25.039495","6500500","新莊區"
"220064","282-UM","2017/10/02 07:28:03","新北市板橋區國光路51號","121.458148333333","25.0179716666667","6500100","板橋區"
