"lineid","car","time","location","longitude","latitude","cityid","cityname"
"232001","290-BY","2017/10/02 07:47:57","新北市坪林區下坑子口18-1號","121.710878333333","24.9449816666667","6502000","坪林區"
"232012","291-BY","2017/10/02 07:48:00","新北市坪林區金瓜寮23-1號","121.67921","24.9113116666667","6502000","坪林區"
"232010","375-UM","2017/10/02 07:48:03","新北市坪林區磨壁潭10-1號","121.722946666667","24.9381933333333","6502000","坪林區"
"232017","705-BZ","2017/10/02 07:47:59","新北市坪林區坪雙路二段126號","121.758833333333","24.9602533333333","6502000","坪林區"
"232005","758-BX","2017/10/02 07:47:58","新北市坪林區魚堀48-5號","121.7023","24.9329966666667","6502000","坪林區"
"244001","657-BX","2017/10/02 07:48:09","新北市林口區頂福里50號","121.342633333333","25.0959533333333","6501700","林口區"
"222005","289-BY","2017/10/02 07:48:04","新北市深坑區文化街39巷13號","121.619101666667","25.00108","6501800","深坑區"
"231007","189-VK","2017/10/02 07:48:10","新北市新店區安華路28-1號","121.51966","24.9611583333333","6500600","新店區"
"231008","192-VK","2017/10/02 07:48:04","新北市新店區安華路28-1號","121.519118333333","24.9612466666667","6500600","新店區"
"226005","5620-A6","2017/10/02 07:48:10","新北市平溪區嶺腳里嶺腳寮75號","121.747335","25.0328783333333","6502400","平溪區"
"226001","7418-A5","2017/10/02 07:48:07","新北市平溪區平湖里坑頭3號","121.78316","25.0259916666667","6502400","平溪區"
"226003","AGD-0702","2017/10/02 07:48:09","新北市平溪區嶺腳里嶺腳寮94號","121.745745","25.0388333333333","6502400","平溪區"
"223006","022-BY","2017/10/02 07:48:04","新北市石碇區蚯蚓坑29-3號","121.685151666667","25.009875","6501900","石碇區"
"223002","198-BX","2017/10/02 07:48:10","新北市石碇區北宜路五段竹坑巷13號","121.625928333333","24.943155","6501900","石碇區"
"223003","205-TH","2017/10/02 07:47:40","新北市石碇區蛇舌子6-3號","121.664888333333","24.9682783333333","6501900","石碇區"
"223008","406-TH","2017/10/02 07:46:43","新北市石碇區靜安路一段337號","121.698786666667","25.01459","6501900","石碇區"
"223001","437-BY","2017/10/02 07:47:43","新北市石碇區蛇舌子3號","121.66504","24.9677683333333","6501900","石碇區"
"223004","660-BX","2017/10/02 07:48:21","新北市石碇區八分寮49-1號","121.642691666667","25.01427","6501900","石碇區"
"223007","661-BX","2017/10/02 07:48:04","新北市石碇區大溪墘11號","121.695041666667","25.0081916666667","6501900","石碇區"
"223005","677-TV","2017/10/02 07:48:14","新北市石碇區八分寮47-1號","121.642461666667","25.0138266666667","6501900","石碇區"
"227005","282-VK","2017/10/02 07:48:08","新北市雙溪區雙溪里太平路43號","121.86478","25.0355583333333","6502500","雙溪區"
"239001","050-UM","2017/10/01 03:28:16","新北市鶯歌區二甲路13號","121.344013333333","24.9353216666667","6500800","鶯歌區"
"252006","073-UM","2017/10/02 07:48:11","新北市三芝區古庄里四棧橋58-1號","121.483696666667","25.2645616666667","6502100","三芝區"
"252004","249-BX","2017/10/02 07:48:12","新北市三芝區店子里菜公坑99-4號","121.514116666667","25.2067433333333","6502100","三芝區"
"237001","159-UY","2017/10/02 07:48:17","新北市三峽區學成路238號","121.374603333333","24.9416916666667","6500900","三峽區"
"237010","760-BX","2017/10/02 07:48:14","新北市三峽區東眼7號","121.407906666667","24.864505","6500900","三峽區"
"236007","165-UM","2017/10/02 07:48:13","新北市土城區金城路三段127號","121.467806666667","24.9879166666667","6501300","土城區"
"236001","339-SR","2017/10/02 07:48:03","新北市土城區南天母路18-3號","121.448223333333","24.9530283333333","6501300","土城區"
"242030","AAC-296","2017/10/02 07:48:04","新北市新莊區新泰路401巷29-1號","121.442165","25.0437183333333","6500500","新莊區"
"242028","986-R7","2017/10/02 07:48:01","新北市新莊區幸福路769號","121.44702","25.0490716666667","6500500","新莊區"
"242049","751-BX","2017/10/02 07:48:15","新北市新莊區瓊林路198號","121.439066666667","25.020765","6500500","新莊區"
"242024","615-BX","2017/10/02 07:48:14","新北市新莊區中平路112號","121.444911666667","25.04599","6500500","新莊區"
"242022","613-BX","2017/10/02 07:48:07","新北市新莊區中平路107號","121.444593333333","25.0463316666667","6500500","新莊區"
"242026","612-BX","2017/10/02 07:47:59","新北市新莊區中和街50號","121.448113333333","25.0445","6500500","新莊區"
"242038","566-BX","2017/10/02 07:48:19","新北市新莊區中正路400號","121.44193","25.03416","6500500","新莊區"
"242043","497-BY","2017/10/02 07:47:59","新北市新莊區富國路124號","121.422383333333","25.0251866666667","6500500","新莊區"
"242003","442-UM","2017/10/02 07:48:08","新北市新莊區復興路一段143號","121.450281666667","25.0432266666667","6500500","新莊區"
"242047","441-UM","2017/10/02 07:48:12","新北市新莊區龍安路253號","121.419671666667","25.0200833333333","6500500","新莊區"
"242052","440-UM","2017/10/02 07:48:01","新北市新莊區瓊林路59-89號","121.442165","25.0244833333333","6500500","新莊區"
"242033","415-TV","2017/10/02 07:48:17","新北市新莊區中正路473-1號","121.441963333333","25.033065","6500500","新莊區"
"242040","400-BY","2017/10/02 07:48:12","新北市新莊區中正路400號","121.441851666667","25.034595","6500500","新莊區"
"242059","362-BY","2017/10/02 07:48:04","新北市泰山區磚雅厝3號","121.442176666667","25.0417066666667","6500500","新莊區"
"242057","353-BY","2017/10/02 07:48:05","新北市新莊區新泰路401巷29-1號","121.442133333333","25.0439383333333","6500500","新莊區"
"242006","132-UY","2017/10/02 07:48:10","新北市新莊區新泰路357巷3弄57號","121.442381666667","25.039755","6500500","新莊區"
"242035","133-UY","2017/10/02 07:48:09","新北市新莊區新樹路115號","121.437355","25.0266433333333","6500500","新莊區"
"242020","135-UY","2017/10/02 07:48:00","新北市新莊區中港一街141號","121.447961666667","25.0450666666667","6500500","新莊區"
"242045","172-VK","2017/10/02 07:48:19","新北市新莊區義豐街35-1號","121.441863333333","25.0353833333333","6500500","新莊區"
"242008","173-VK","2017/10/02 07:48:13","新北市新莊區新泰路500號","121.442431666667","25.045885","6500500","新莊區"
"242014","175-VK","2017/10/02 07:48:13","新北市新莊區新泰路500號","121.442463333333","25.0458933333333","6500500","新莊區"
"242001","176-VK","2017/10/02 07:48:05","新北市新莊區中正路384號","121.441996666667","25.0349983333333","6500500","新莊區"
"242012","346-TH","2017/10/02 07:48:17","新北市新莊區中誠街76號","121.450498333333","25.04794","6500500","新莊區"
"242018","348-TH","2017/10/02 07:48:14","新北市新莊區中平路92巷2號","121.444783333333","25.0455116666667","6500500","新莊區"
"242055","349-TH","2017/10/02 07:48:17","新北市新莊區三和路12-9號","121.442143333333","25.0366466666667","6500500","新莊區"
"242016","350-TH","2017/10/02 07:48:06","新北市新莊區中平路112號","121.444873333333","25.046175","6500500","新莊區"
"242010","351-TH","2017/10/02 07:48:15","新北市新莊區新泰路488號","121.442438333333","25.0457483333333","6500500","新莊區"
"220064","282-UM","2017/10/02 07:48:03","新北市板橋區民權路89號","121.460453333333","25.012225","6500100","板橋區"
