"lineid","car","time","location","longitude","latitude","cityid","cityname"
"248005","653-BX","2017/08/29 08:22:00","新北市五股區明德路8號","121.433376666667","25.0716133333333","6501500","五股區"
"222004","289-BY","2017/08/29 08:38:53","新北市深坑區王軍寮15號","121.613671666667","24.981705","6501800","深坑區"
"231007","189-VK","2017/08/29 08:38:58","新北市新店區小坑二路126巷1號","121.516871666667","24.9121983333333","6500600","新店區"
"231009","192-VK","2017/08/29 08:39:05","新北市新店區新烏路三段165巷64號","121.553906666667","24.9014383333333","6500600","新店區"
"226005","5620-A6","2017/08/29 08:39:01","新北市平溪區十分里十分街193號","121.778468333333","25.0438083333333","6502400","平溪區"
"226002","7418-A5","2017/08/29 08:28:37","新北市平溪區東勢里東勢格5號","121.740268333333","25.0058966666667","6502400","平溪區"
"226003","AGD-0702","2017/08/29 08:38:52","新北市平溪區十分里十分街236號","121.778185","25.0440716666667","6502400","平溪區"
"223006","022-BY","2017/08/29 08:38:53","新北市石碇區碇坪路一段130號","121.659433333333","24.9912933333333","6501900","石碇區"
"223002","198-BX","2017/08/29 08:26:42","新北市石碇區北宜路五段80號","121.646546666667","24.9517416666667","6501900","石碇區"
"223003","205-TH","2017/08/29 08:38:53","新北市石碇區北宜路六段塗潭巷27號","121.649368333333","24.9326016666667","6501900","石碇區"
"223008","406-TH","2017/08/29 08:38:49","新北市石碇區十八重溪13號","121.677756666667","25.0112933333333","6501900","石碇區"
"223001","437-BY","2017/08/29 08:38:52","新北市石碇區北宜路六段塗潭巷27號","121.648911666667","24.9321183333333","6501900","石碇區"
"223004","660-BX","2017/08/29 08:38:51","新北市石碇區崩山26-1號","121.676771666667","24.9671516666667","6501900","石碇區"
"223007","661-BX","2017/08/29 08:38:52","新北市石碇區十八重溪16號","121.67725","25.01137","6501900","石碇區"
"223005","677-TV","2017/08/29 08:38:51","新北市石碇區崩山24-2號","121.678573333333","24.9678366666667","6501900","石碇區"
"227006","282-VK","2017/08/29 08:39:03","新北市雙溪區平林里外平林76-1號","121.84128","25.03451","6502500","雙溪區"
"253005","741-TV","2017/08/29 08:38:59","新北市石門區老梅路2-27號","121.543451666667","25.289765","6502200","石門區"
"252004","249-BX","2017/08/29 08:39:00","新北市三芝區興華里楓子林37-3號","121.490811666667","25.2084316666667","6502100","三芝區"
"252007","AAC-283","2017/08/29 08:39:00","新北市三芝區後厝里番子崙10-1號","121.488595","25.2387316666667","6502100","三芝區"
"237001","159-UY","2017/08/29 08:38:53","新北市三峽區學成路343號","121.376085","24.9448","6500900","三峽區"
"236008","165-UM","2017/08/29 08:38:56","新北市土城區金城路二段46巷19號","121.454193333333","24.9737483333333","6501300","土城區"
"236002","339-SR","2017/08/29 08:38:53","新北市土城區中央路四段27巷1號","121.424298333333","24.962405","6501300","土城區"
"236006","498-BY","2017/08/29 08:39:04","新北市土城區永和街25號","121.435081666667","24.9630533333333","6501300","土城區"
"241031","233-RS","2017/08/29 08:39:04","新北市樹林區中山路三段202-1號","121.385831666667","24.968315","6500200","三重區"
