"lineid","car","time","location","longitude","latitude","cityid","cityname"
"248005","653-BX","2017/08/29 09:58:16","新北市五股區成泰路二段186號","121.438591666667","25.0846033333333","6501500","五股區"
"231007","189-VK","2017/08/29 09:58:17","新北市新店區新潭路三段215巷25號","121.508095","24.9041033333333","6500600","新店區"
"231009","192-VK","2017/08/29 09:38:15","新北市新店區平廣路一段256號","121.507876666667","24.8882816666667","6500600","新店區"
"223007","661-BX","2017/08/29 09:58:12","新北市新店區安康路二段382號","121.500408333333","24.9571983333333","6501900","石碇區"
"227006","282-VK","2017/08/29 09:58:22","新北市雙溪區長源里柑腳24號","121.804496666667","25.0143616666667","6502500","雙溪區"
"227012","030-BX","2017/08/29 09:55:42","新北市雙溪區泰平里烏山路15號","121.794846666667","24.9501433333333","6502500","雙溪區"
"253005","741-TV","2017/08/29 09:56:38","新北市石門區內石門73號","121.582901666667","25.2593816666667","6502200","石門區"
"252004","249-BX","2017/08/29 09:58:20","新北市三芝區福德里土地公埔39號","121.51014","25.235575","6502100","三芝區"
"252007","AAC-283","2017/08/29 09:58:13","新北市三芝區新庄里新庄子80-2號","121.508343333333","25.2719033333333","6502100","三芝區"
"236006","498-BY","2017/08/29 09:58:24","新北市土城區城林路6巷80號","121.43854","24.9796433333333","6501300","土城區"
"241031","233-RS","2017/08/29 08:59:22","新北市新莊區環河路48-7號","121.43691","25.0098183333333","6500200","三重區"
