"lineid","car","time","location","longitude","latitude","cityid","cityname"
"248005","653-BX","2017/08/29 10:25:32","新北市五股區中興路二段37巷24號","121.46066","25.0750316666667","6501500","五股區"
"231007","189-VK","2017/08/29 10:24:58","新北市新店區小坑二路136號","121.513165","24.91059","6500600","新店區"
"231009","192-VK","2017/08/29 10:25:25","新北市新店區小坑一路5號","121.53558","24.9117933333333","6500600","新店區"
"227006","282-VK","2017/08/29 10:25:22","新北市雙溪區平林里外平林76號","121.84203","25.0347783333333","6502500","雙溪區"
"227012","030-BX","2017/08/29 10:25:22","新北市雙溪區泰平里料角坑40號","121.793168333333","24.9596166666667","6502500","雙溪區"
"253005","741-TV","2017/08/29 10:25:38","新北市石門區內阿里磅37-2號","121.58291","25.237625","6502200","石門區"
"252007","AAC-283","2017/08/29 10:25:33","新北市三芝區埔頭里埔頭48號","121.50123","25.2624916666667","6502100","三芝區"
"241031","233-RS","2017/08/29 08:59:22","新北市新莊區環河路48-7號","121.43691","25.0098183333333","6500200","三重區"
