"lineid","car","time","location","longitude","latitude","cityid","cityname"
"231007","189-VK","2017/08/29 10:49:17","新北市新店區新潭路二段62巷22號","121.520128333333","24.9276266666667","6500600","新店區"
"231009","192-VK","2017/08/29 10:49:25","新北市新店區小坑一路22號","121.532453333333","24.9142366666667","6500600","新店區"
"227006","282-VK","2017/08/29 10:49:22","新北市雙溪區新基里新基北街33號","121.86926","25.0382533333333","6502500","雙溪區"
"253005","741-TV","2017/08/29 10:49:18","新北市石門區內阿里磅1號","121.591795","25.2549083333333","6502200","石門區"
"241031","233-RS","2017/08/29 08:59:22","新北市新莊區環河路48-7號","121.43691","25.0098183333333","6500200","三重區"
