"lineid","car","time","location","longitude","latitude","cityid","cityname"
"234044","148-BY","2017/08/29 13:09:02","新北市永和區永元路52巷18號","121.522995","25.0008883333333","6500400","永和區"
"234012","149-BY","2017/08/29 13:09:01","新北市永和區仁愛路122號","121.511643333333","25.013105","6500400","永和區"
"234005","207-UY","2017/08/29 13:09:01","新北市永和區中山路一段211號","121.508828333333","25.0084133333333","6500400","永和區"
"234078","298-R6","2017/08/29 13:09:13","新北市永和區福和路57巷14弄8-1號","121.522416666667","25.007285","6500400","永和區"
"234036","336-UY","2017/08/29 13:09:06","新北市永和區民樂街59巷7號","121.527981666667","24.99828","6500400","永和區"
"234062","337-UY","2017/08/29 13:09:15","新北市永和區永元路95巷6號","121.52234","25.0020333333333","6500400","永和區"
"234084","338-UY","2017/08/29 13:09:13","新北市永和區永貞路90號","121.519581666667","25.004585","6500400","永和區"
"234068","552-UM","2017/08/29 13:09:13","新北市永和區豫溪街85號","121.518318333333","25.0100366666667","6500400","永和區"
"234052","553-UM","2017/08/29 13:09:11","新北市永和區中興街133巷8號","121.518623333333","25.0126766666667","6500400","永和區"
"234015","745-BX","2017/08/29 13:09:02","新北市永和區文化路90巷19號","121.513618333333","25.0162233333333","6500400","永和區"
"234028","746-BX","2017/08/29 13:09:18","新北市永和區民生路33號","121.522666666667","24.9982966666667","6500400","永和區"
"234060","AAD-866","2017/08/29 13:09:16","新北市永和區自由街39-1號","121.514298333333","25.0060616666667","6500400","永和區"
"234040","862-TW","2017/08/29 13:09:09","新北市永和區保平路135號","121.510395","25.0062516666667","6500400","永和區"
"234048","863-TW","2017/08/29 13:09:05","新北市永和區文化路135巷9號","121.510751666667","25.01456","6500400","永和區"
"234025","9371-KE","2017/08/29 13:09:11","新北市永和區福和路346號","121.514911666667","25.0074083333333","6500400","永和區"
"234010","9373-KE","2017/08/29 13:09:18","新北市永和區文化路124號","121.51307","25.0154183333333","6500400","永和區"
"248017","225-UY","2017/08/29 13:09:10","新北市五股區中興路三段198號","121.441246666667","25.0821083333333","6501500","五股區"
"234022","9380-KE","2017/08/29 13:09:05","新北市永和區竹林路124巷28號","121.518366666667","25.0113116666667","6500400","永和區"
"234076","969-R7","2017/08/29 13:09:15","新北市永和區智光街92號","121.516115","24.9971616666667","6500400","永和區"
"234072","AAC-211","2017/08/29 13:09:04","新北市永和區竹林路198號","121.520411666667","25.0095016666667","6500400","永和區"
"234066","AAC-212","2017/08/29 13:09:20","新北市永和區保平路30巷2號","121.51192","25.0073583333333","6500400","永和區"
"234001","AAC-295","2017/08/29 13:09:18","新北市永和區和平街29號","121.513211666667","25.0099216666667","6500400","永和區"
"244002","248-BX","2017/08/29 13:09:05","新北市林口區中山路490號","121.380016666667","25.0825033333333","6501700","林口區"
"231002","002-UM","2017/08/29 13:09:01","新北市新店區安華路28-1號","121.519656666667","24.9607416666667","6500600","新店區"
"231029","106-UY","2017/08/29 13:09:03","新北市新店區安華路28-1號","121.519648333333","24.9607883333333","6500600","新店區"
"231018","107-UY","2017/08/29 13:09:18","新北市新店區安華路28-1號","121.519378333333","24.9611133333333","6500600","新店區"
"231012","108-UY","2017/08/29 13:09:17","新北市新店區安華路28-1號","121.519516666667","24.9612283333333","6500600","新店區"
"231026","110-UY","2017/08/29 13:09:15","新北市新店區安華路28-1號","121.519328333333","24.9610933333333","6500600","新店區"
"231020","187-VK","2017/08/29 13:09:02","新北市新店區安華路28-1號","121.519601666667","24.96105","6500600","新店區"
"231069","189-VK","2017/08/29 12:06:04","新北市新店區安華路28-1號","121.519621666667","24.9611366666667","6500600","新店區"
"231010","278-BY","2017/08/29 13:09:10","新北市新店區安華路28-1號","121.519585","24.9611316666667","6500600","新店區"
"231030","355-BY","2017/08/29 13:09:14","新北市新店區安華路28-1號","121.519206666667","24.9608","6500600","新店區"
"231025","4716-K9","2017/08/29 13:09:13","新北市新店區安康路一段355-3號","121.519308333333","24.9614733333333","6500600","新店區"
"231038","4715-K9","2017/08/29 13:09:02","新北市新店區安華路1-1號","121.519303333333","24.960415","6500600","新店區"
"231036","512-UM","2017/08/29 03:14:14","新北市新店區安華路28-1號","121.519308333333","24.961245","6500600","新店區"
"231023","513-UM","2017/08/29 13:09:12","新北市新店區安華路28-1號","121.519586666667","24.961035","6500600","新店區"
"231003","616-UM","2017/08/29 13:09:09","新北市新店區安華路1-1號","121.519455","24.9603933333333","6500600","新店區"
"231001","619-UM","2017/08/29 13:09:12","新北市新店區安華路1-1號","121.519425","24.960465","6500600","新店區"
"231034","645-TV","2017/08/29 13:09:10","新北市新店區安華路1-1號","121.51934","24.96042","6500600","新店區"
"231013","719-UM","2017/08/29 13:09:11","新北市新店區安華路28-1號","121.51946","24.9609783333333","6500600","新店區"
"231032","720-UM","2017/08/29 13:09:15","新北市新店區安華路28-1號","121.519381666667","24.9612633333333","6500600","新店區"
"231004","899-TW","2017/08/29 03:29:42","新北市新店區安華路28-1號","121.519226666667","24.9608533333333","6500600","新店區"
"235030","003-UY","2017/08/29 13:09:06","新北市中和區南山路39號","121.502075","24.9988266666667","6500300","中和區"
"235027","006-UY","2017/08/29 13:09:18","新北市中和區員山路36巷16-3號","121.485093333333","24.9912833333333","6500300","中和區"
"235028","031-BX","2017/08/29 13:09:07","新北市中和區中正路277-6號","121.495201666667","24.99361","6500300","中和區"
"235003","097-UM","2017/08/29 13:09:10","新北市中和區錦和路350-1號","121.490515","24.99355","6500300","中和區"
"235004","150-BY","2017/08/29 01:36:50","新北市中和區和城路一段271巷1號","121.485413333333","24.9916633333333","6500300","中和區"
"235022","151-BY","2017/08/29 13:09:12","新北市中和區圓通路367巷29號","121.492451666667","24.9853333333333","6500300","中和區"
"235019","183-VK","2017/08/29 03:43:35","新北市中和區員山路36巷16-3號","121.485041666667","24.9913983333333","6500300","中和區"
"235002","185-VK","2017/08/29 13:09:20","新北市永和區民生路67巷58號","121.525646666667","24.9975316666667","6500300","中和區"
"235031","255-BX","2017/08/29 13:09:15","新北市中和區中山路二段550號","121.48389","25.0052716666667","6500300","中和區"
"235036","301-VK","2017/08/29 13:09:04","新北市中和區員山路36巷12號","121.483958333333","24.9910033333333","6500300","中和區"
"235015","376-QA","2017/08/29 13:09:08","新北市中和區捷運路10-2號","121.509335","24.98992","6500300","中和區"
"235025","378-QA","2017/08/29 13:09:11","新北市土城區金城路三段259-1號","121.471993333333","24.9900933333333","6500300","中和區"
"235014","4979-A6","2017/08/29 13:09:22","新北市中和區中正路395號","121.489316666667","24.9935566666667","6500300","中和區"
"235033","4980-A6","2017/08/29 13:09:16","新北市中和區錦和路350-1號","121.490578333333","24.993585","6500300","中和區"
"235006","551-UM","2017/08/29 13:09:18","新北市中和區景平路159巷29弄3號","121.512926666667","24.99126","6500300","中和區"
"235018","640-BX","2017/08/29 13:09:15","新北市中和區連城路469巷79弄2號","121.483536666667","24.9937383333333","6500300","中和區"
"235026","800-TS","2017/08/29 13:09:09","新北市中和區建一路139號","121.48807","25.0009333333333","6500300","中和區"
"235021","801-TS","2017/08/29 13:09:19","新北市中和區員山路36巷16-3號","121.484793333333","24.9914616666667","6500300","中和區"
"235005","802-TS","2017/08/29 13:09:04","新北市中和區中正路277號","121.495271666667","24.993875","6500300","中和區"
"235016","805-TS","2017/08/29 13:09:15","新北市中和區員山路36巷16號","121.484436666667","24.9914866666667","6500300","中和區"
"235023","AAC-215","2017/08/29 13:08:53","新北市中和區員山路36巷16-3號","121.48508","24.9915083333333","6500300","中和區"
"228004","212-TW","2017/08/29 13:09:17","新北市貢寮區吉林里內寮街71號","121.892251666667","24.9731883333333","6502600","貢寮區"
"228005","828-UM","2017/08/29 13:09:15","新北市貢寮區仁理村仁和路19號","121.923375","25.0535233333333","6502600","貢寮區"
"208004","AAC-292","2017/08/29 13:09:17","新北市金山區中山路198號","121.637698333333","25.22161","6502700","金山區"
"207002","749-BX","2017/08/29 13:09:13","新北市萬里區崁腳里崁腳路148號","121.646065","25.1563933333333","6502800","萬里區"
"252005","073-UM","2017/08/29 13:09:18","新北市三芝區埔坪里埔頭坑107號","121.504601666667","25.26172","6502100","三芝區"
"207001","662-BX","2017/08/29 13:09:08","新北市萬里區萬里里瑪鋉路28號","121.689223333333","25.17728","6502800","萬里區"
"236006","498-BY","2017/08/29 13:09:03","新北市土城區亞洲路58巷3弄1號","121.434711666667","24.9736","6501300","土城區"
"241031","233-RS","2017/08/29 08:59:22","新北市新莊區環河路48-7號","121.43691","25.0098183333333","6500200","三重區"
"238008","308-TH","2017/08/29 13:09:00","新北市樹林區東豐街49巷30號","121.415083333333","24.9746366666667","6500700","樹林區"
"221012","276-VK","2017/08/29 13:09:04","新北市汐止區汐萬路一段242號","121.651545","25.0730866666667","6501100","汐止區"
"221032","280-BY","2017/08/29 13:09:09","新北市汐止區龍安路28巷8號","121.654931666667","25.0644216666667","6501100","汐止區"
"221002","753-BX","2017/08/29 13:09:07","新北市汐止區福德一路342巷1弄12號","121.628965","25.0633416666667","6501100","汐止區"
"220072","277-BY","2017/08/29 13:09:11","新北市板橋區華東街1-10號","121.448288333333","24.9950566666667","6500100","板橋區"
"220010","303-R5","2017/08/29 13:09:06","新北市板橋區民生路二段15-1號","121.472711666667","25.0164483333333","6500100","板橋區"
