"lineid","car","time","location","longitude","latitude","cityid","cityname"
"234044","148-BY","2017/08/29 14:08:42","新北市永和區成功路一段111號","121.526956666667","25.0022816666667","6500400","永和區"
"234012","149-BY","2017/08/29 14:08:41","新北市永和區保生路5巷1號","121.506188333333","25.007165","6500400","永和區"
"234005","207-UY","2017/08/29 14:08:41","新北市永和區永貞路378巷2弄2號","121.509918333333","25.007065","6500400","永和區"
"234078","298-R6","2017/08/29 14:08:33","新北市永和區國中路106號","121.524091666667","25.0064283333333","6500400","永和區"
"234036","336-UY","2017/08/29 14:08:44","新北市永和區成功路一段93巷20弄7號","121.528345","25.002605","6500400","永和區"
"234062","337-UY","2017/08/29 14:08:35","新北市永和區永利路150號","121.522415","25.0027383333333","6500400","永和區"
"234084","338-UY","2017/08/29 14:08:33","新北市永和區福和路85號","121.522305","25.00787","6500400","永和區"
"234068","552-UM","2017/08/29 14:08:32","新北市永和區永寧街95號","121.518675","25.0066716666667","6500400","永和區"
"234052","553-UM","2017/08/29 14:08:42","新北市永和區博愛街27巷2號","121.518115","25.0158633333333","6500400","永和區"
"234015","745-BX","2017/08/29 14:08:42","新北市永和區仁愛路35號","121.514135","25.0133016666667","6500400","永和區"
"234028","746-BX","2017/08/29 14:08:37","新北市永和區民權路84號","121.519863333333","24.9970183333333","6500400","永和區"
"234060","AAD-866","2017/08/29 14:08:36","新北市永和區安樂路152號","121.514391666667","25.0006383333333","6500400","永和區"
"234040","862-TW","2017/08/29 14:08:29","新北市永和區雙和街64巷1號","121.509151666667","25.0034183333333","6500400","永和區"
"234048","863-TW","2017/08/29 14:08:45","新北市永和區新生路160巷1弄2號","121.506215","25.0141233333333","6500400","永和區"
"234025","9371-KE","2017/08/29 14:08:31","新北市永和區安樂路250號","121.514603333333","25.0035416666667","6500400","永和區"
"234010","9373-KE","2017/08/29 14:08:38","新北市永和區保順路59號","121.502663333333","25.0114783333333","6500400","永和區"
"248017","225-UY","2017/08/29 14:08:31","新北市五股區民義路一段251號","121.42783","25.0908933333333","6501500","五股區"
"234022","9380-KE","2017/08/29 14:08:25","新北市永和區保安路76號","121.509883333333","25.0163633333333","6500400","永和區"
"234076","969-R7","2017/08/29 14:08:43","新北市永和區民族街81巷40號","121.51951","24.99646","6500400","永和區"
"234072","AAC-211","2017/08/29 14:08:43","新北市永和區竹林路201巷4號","121.521111666667","25.0091166666667","6500400","永和區"
"234066","AAC-212","2017/08/29 14:08:40","新北市永和區保平路214巷1弄2號","121.509513333333","25.00617","6500400","永和區"
"234001","AAC-295","2017/08/29 14:08:38","新北市永和區中正路637號","121.515388333333","25.01011","6500400","永和區"
"244002","248-BX","2017/08/29 14:08:25","新北市林口區太平里180號","121.36669","25.1338983333333","6501700","林口區"
"231028","001-UM","2017/08/29 14:08:33","新北市新店區安和路二段232號","121.516661666667","24.9774616666667","6500600","新店區"
"231002","002-UM","2017/08/29 14:08:41","新北市新店區中正路542-10號","121.533746666667","24.9849733333333","6500600","新店區"
"231029","106-UY","2017/08/29 14:08:44","新北市新店區安康路二段161號","121.510255","24.95934","6500600","新店區"
"231018","107-UY","2017/08/29 14:08:38","新北市新店區中央五街6號","121.530006666667","24.9740666666667","6500600","新店區"
"231012","108-UY","2017/08/29 14:08:37","新北市新店區五峰路63巷8弄106號","121.547938333333","24.9685566666667","6500600","新店區"
"231026","110-UY","2017/08/29 14:08:34","新北市新店區環河路114巷4-1號","121.536816666667","24.9645266666667","6500600","新店區"
"231020","187-VK","2017/08/29 14:08:42","新北市新店區屈尺路161-3號","121.542333333333","24.9223133333333","6500600","新店區"
"231069","189-VK","2017/08/29 12:06:04","新北市新店區安華路28-1號","121.519621666667","24.9611366666667","6500600","新店區"
"231015","AAD-862","2017/08/29 14:08:46","新北市新店區北宜路二段533號","121.563868333333","24.9534416666667","6500600","新店區"
"231030","355-BY","2017/08/29 14:08:34","新北市新店區安民街115巷28號","121.51517","24.9675766666667","6500600","新店區"
"231027","3712-VJ","2017/08/29 14:08:39","新北市新店區中興路一段12號","121.538625","24.9579316666667","6500600","新店區"
"231025","4716-K9","2017/08/29 14:08:33","新北市新店區中正路328巷5號","121.537153333333","24.975275","6500600","新店區"
"231038","4715-K9","2017/08/29 14:08:42","新北市新店區溪洲路121號","121.531446666667","24.9625816666667","6500600","新店區"
"231036","512-UM","2017/08/29 14:08:38","新北市新店區安祥路109巷85弄39號","121.47879","24.9597266666667","6500600","新店區"
"231023","513-UM","2017/08/29 14:08:32","新北市新店區文中路51號","121.539793333333","24.9565833333333","6500600","新店區"
"231035","515-UM","2017/08/29 14:08:27","新北市新店區安和路一段52巷2號","121.517626666667","24.96622","6500600","新店區"
"231003","616-UM","2017/08/29 14:08:29","新北市新店區中興路一段167號","121.542735","24.96443","6500600","新店區"
"231006","617-UM","2017/08/29 14:08:36","新北市新店區北宜路二段126號","121.556878333333","24.953875","6500600","新店區"
"231001","619-UM","2017/08/29 14:08:32","新北市新店區中華路66號","121.539183333333","24.969015","6500600","新店區"
"231034","645-TV","2017/08/29 14:08:30","新北市新店區黎明路3號","121.503321666667","24.9523116666667","6500600","新店區"
"231013","719-UM","2017/08/29 14:08:31","新北市新店區北新路三段65巷34弄2號","121.540056666667","24.9812416666667","6500600","新店區"
"231032","720-UM","2017/08/29 14:08:35","新北市新店區永業路23號","121.533231666667","24.9556333333333","6500600","新店區"
"231005","897-TW","2017/08/29 14:08:44","新北市新店區中興路三段326號","121.542045","24.9863166666667","6500600","新店區"
"231004","899-TW","2017/08/29 14:08:45","新北市新店區北新路二段250號","121.543003333333","24.977815","6500600","新店區"
"231037","AKT-0513","2017/08/29 14:08:27","新北市新店區安康路二段341巷50號","121.496663333333","24.9543316666667","6500600","新店區"
"235030","003-UY","2017/08/29 14:08:45","新北市中和區廣福路32號","121.504675","25.0023383333333","6500300","中和區"
"235027","006-UY","2017/08/29 14:08:38","新北市中和區連城路263巷11弄11號","121.493338333333","24.9956516666667","6500300","中和區"
"235028","031-BX","2017/08/29 14:08:27","新北市中和區中和路26巷7號","121.499488333333","25.0015566666667","6500300","中和區"
"235020","096-UM","2017/08/29 14:08:43","新北市中和區員山路548號","121.478561666667","25.0102133333333","6500300","中和區"
"235003","097-UM","2017/08/29 14:08:30","新北市中和區秀峰街81巷2號","121.521486666667","24.9901983333333","6500300","中和區"
"235004","150-BY","2017/08/29 14:08:39","新北市中和區保健路61巷1號","121.509521666667","24.997415","6500300","中和區"
"235022","151-BY","2017/08/29 14:08:32","新北市中和區員山路128號","121.48116","24.9961233333333","6500300","中和區"
"235019","183-VK","2017/08/29 03:43:35","新北市中和區員山路36巷16-3號","121.485041666667","24.9913983333333","6500300","中和區"
"235002","185-VK","2017/08/29 14:08:40","新北市中和區立人街24-5號","121.518823333333","24.9941066666667","6500300","中和區"
"235013","186-VK","2017/08/29 14:08:38","新北市中和區明禮街17號","121.504833333333","24.9959216666667","6500300","中和區"
"235031","255-BX","2017/08/29 14:08:35","新北市中和區新生街164號","121.48368","25.0002433333333","6500300","中和區"
"235008","293-VK","2017/08/29 14:08:27","新北市中和區中興街202巷12號","121.498553333333","24.9902416666667","6500300","中和區"
"235036","301-VK","2017/08/29 14:08:44","新北市中和區中山路二段231號","121.498308333333","25.00249","6500300","中和區"
"235007","352-BY","2017/08/29 14:08:30","新北市中和區景平路67號","121.519965","24.99135","6500300","中和區"
"235015","376-QA","2017/08/29 14:08:47","新北市中和區興南路一段34巷7號","121.51091","24.991145","6500300","中和區"
"235032","377-QA","2017/08/29 14:08:40","新北市中和區連勝街38巷5號","121.497698333333","24.9977883333333","6500300","中和區"
"235025","378-QA","2017/08/29 14:08:31","新北市中和區民有街19號","121.475846666667","25.005395","6500300","中和區"
"235014","4979-A6","2017/08/29 14:08:42","新北市中和區復興路280巷36弄6號","121.501595","24.9920683333333","6500300","中和區"
"235033","4980-A6","2017/08/29 14:08:36","新北市中和區莊敬路2號","121.499365","25.0041783333333","6500300","中和區"
"235006","551-UM","2017/08/29 14:08:38","新北市中和區立人街69巷15弄14號","121.521118333333","24.9934566666667","6500300","中和區"
"235034","558-UM","2017/08/29 14:08:36","新北市中和區中和路281-1號","121.505951666667","24.9998516666667","6500300","中和區"
"235009","565-BX","2017/08/29 14:08:41","新北市中和區景新街467巷38弄2號","121.514535","24.9885316666667","6500300","中和區"
"235018","640-BX","2017/08/29 14:08:46","新北市中和區國光街87號","121.470491666667","25.0000183333333","6500300","中和區"
"235024","647-TV","2017/08/29 14:08:28","新北市中和區民治街27巷12號","121.475645","25.0013566666667","6500300","中和區"
"235011","732-UM","2017/08/29 14:08:44","新北市中和區興南路一段71號","121.510201666667","24.9894","6500300","中和區"
"235010","733-UM","2017/08/29 14:08:31","新北市中和區忠孝街1巷68號","121.508351666667","24.98453","6500300","中和區"
"235026","800-TS","2017/08/29 14:08:29","新北市中和區中山路二段380-1號","121.491133333333","25.0035066666667","6500300","中和區"
"235021","801-TS","2017/08/29 14:08:39","新北市中和區民利街100巷6弄4號","121.47711","24.9984866666667","6500300","中和區"
"235005","802-TS","2017/08/29 14:08:44","新北市中和區中安街178巷2號","121.511093333333","24.99964","6500300","中和區"
"235016","805-TS","2017/08/29 14:08:35","新北市中和區興南路二段114巷9號","121.50429","24.9841783333333","6500300","中和區"
"235012","896-TW","2017/08/29 14:08:46","新北市中和區工專路165-3號","121.508818333333","24.9791016666667","6500300","中和區"
"235017","900-TW","2017/08/29 14:08:27","新北市中和區華福街2-2號","121.464938333333","24.9969783333333","6500300","中和區"
"235001","AAC-213","2017/08/29 14:08:40","新北市中和區秀朗路三段60巷34號","121.525201666667","24.9949833333333","6500300","中和區"
"235023","AAC-215","2017/08/29 14:08:35","新北市中和區圓通路294巷17-5號","121.488721666667","24.99045","6500300","中和區"
"220016","013-TV","2017/08/29 14:08:43","新北市板橋區翠華街6巷16號","121.481036666667","25.0242516666667","6500100","板橋區"
"220013","072-UY","2017/08/29 14:08:39","新北市板橋區民族路151巷71號","121.469611666667","25.00865","6500100","板橋區"
"220034","073-UY","2017/08/29 14:08:39","新北市板橋區中正路236巷92號","121.458508333333","25.01946","6500100","板橋區"
"220105","075-UY","2017/08/29 14:08:44","新北市板橋區文化路二段76號","121.469291666667","25.0251733333333","6500100","板橋區"
"220017","AAD-861","2017/08/29 14:08:36","新北市板橋區東興街91號","121.457656666667","25.00523","6500100","板橋區"
"220051","120-SR","2017/08/29 14:08:44","新北市板橋區萬板路810-1號","121.482886666667","25.027415","6500100","板橋區"
"247019","893-R6","2017/08/29 14:08:40","新北市蘆洲區民族路436巷1號","121.47276","25.0924333333333","6501400","蘆洲區"
"247009","546-UM","2017/08/29 14:08:31","新北市蘆洲區三民路52號","121.47541","25.0835066666667","6501400","蘆洲區"
"247017","500-BY","2017/08/29 14:08:32","新北市蘆洲區復興路111-7號","121.476805","25.088475","6501400","蘆洲區"
"247007","339-TH","2017/08/29 14:08:26","新北市蘆洲區中山一路415號","121.468943333333","25.076755","6501400","蘆洲區"
"247023","337-TH","2017/08/29 14:08:43","新北市蘆洲區光榮路88號","121.46376","25.088995","6501400","蘆洲區"
"247001","336-TH","2017/08/29 14:08:32","新北市蘆洲區永平街41號","121.458115","25.09101","6501400","蘆洲區"
"247013","057-VK","2017/08/29 14:08:31","新北市蘆洲區三民路149號","121.4716","25.0867316666667","6501400","蘆洲區"
"247003","056-VK","2017/08/29 14:08:35","新北市蘆洲區長安街187號","121.460458333333","25.0817883333333","6501400","蘆洲區"
"247005","053-VK","2017/08/29 14:08:33","新北市蘆洲區永安南路二段16巷18號","121.468098333333","25.0778516666667","6501400","蘆洲區"
"247011","007-UY","2017/08/29 14:08:39","新北市蘆洲區信義路325號","121.478243333333","25.0865866666667","6501400","蘆洲區"
"247021","002-UY","2017/08/29 14:08:41","新北市蘆洲區三民路185號","121.470646666667","25.0873783333333","6501400","蘆洲區"
"247015","001-UY","2017/08/29 14:08:34","新北市蘆洲區光華路46巷53號","121.46725","25.0848166666667","6501400","蘆洲區"
"228004","212-TW","2017/08/29 14:08:37","新北市貢寮區雙玉里下雙溪街10-1號","121.915063333333","25.0143433333333","6502600","貢寮區"
"228005","828-UM","2017/08/29 14:08:32","新北市貢寮區美豐里雞母嶺街52號","121.890835","25.06696","6502600","貢寮區"
"208004","AAC-292","2017/08/29 14:08:37","新北市金山區重和里六股林口75號","121.601298333333","25.216845","6502700","金山區"
"207002","749-BX","2017/08/29 14:08:33","新北市萬里區溪底里瑞泉路21號","121.604143333333","25.14895","6502800","萬里區"
"252005","073-UM","2017/08/29 14:08:38","新北市三芝區橫山里橫山51-1號","121.533653333333","25.2557666666667","6502100","三芝區"
"207001","662-BX","2017/08/29 14:08:29","新北市萬里區磺潭里清水18-2號","121.638401666667","25.1982133333333","6502800","萬里區"
"236065","105-UM","2017/08/29 14:08:39","新北市土城區金城路一段86號","121.444901666667","24.9733783333333","6501300","土城區"
"236041","107-UM","2017/08/29 14:08:38","新北市土城區裕生路61號","121.447621666667","24.9860833333333","6501300","土城區"
"236075","166-UM","2017/08/29 14:08:29","新北市土城區永寧路32巷2號","121.42934","24.9606116666667","6501300","土城區"
"236029","253-BX","2017/08/29 14:08:46","新北市土城區興城路79號","121.439885","24.9707466666667","6501300","土城區"
"236025","269-VK","2017/08/29 14:08:31","新北市土城區承天路18號","121.4395","24.9634983333333","6501300","土城區"
"236013","270-VK","2017/08/29 14:08:41","新北市土城區裕民路172號","121.452485","24.985395","6501300","土城區"
"236034","271-VK","2017/08/29 14:08:28","新北市土城區青雲路336-1號","121.45887","24.9763466666667","6501300","土城區"
"236017","401-BY","2017/08/29 14:08:38","新北市土城區城林路6巷80號","121.43821","24.9797116666667","6501300","土城區"
"236006","498-BY","2017/08/29 14:08:43","新北市土城區中華路一段2號","121.448181666667","24.990855","6501300","土城區"
"236057","912-UM","2017/08/29 14:08:35","新北市土城區中央路四段25-4號","121.424813333333","24.9624883333333","6501300","土城區"
"236045","913-UM","2017/08/29 14:08:25","新北市土城區明德路一段365-1號","121.453553333333","24.9790083333333","6501300","土城區"
"236061","915-UM","2017/08/29 14:08:34","新北市土城區學府路一段210號","121.45237","24.98532","6501300","土城區"
"236047","970-R7","2017/08/29 14:08:28","新北市土城區中央路一段159號","121.44645","24.98776","6501300","土城區"
"236054","AAC-216","2017/08/29 14:08:29","新北市土城區中華路二段98號","121.43817","24.9744133333333","6501300","土城區"
"241031","233-RS","2017/08/29 08:59:22","新北市新莊區環河路48-7號","121.43691","25.0098183333333","6500200","三重區"
"221012","276-VK","2017/08/29 13:25:15","新北市汐止區汐萬路一段256巷3號","121.653438333333","25.0746033333333","6501100","汐止區"
"220027","145-BY","2017/08/29 14:08:38","新北市板橋區民權路260巷34號","121.459013333333","25.01514","6500100","板橋區"
"220028","200-UY","2017/08/29 14:08:08","新北市板橋區大觀路二段7巷63號","121.448861666667","25.0032166666667","6500100","板橋區"
"220030","610-BX","2017/08/29 14:08:36","新北市板橋區大觀路三段273號","121.428746666667","24.992555","6500100","板橋區"
"220050","245-BX","2017/08/29 14:08:32","新北市板橋區莊敬路142-3號","121.471236666667","25.0232266666667","6500100","板橋區"
"220023","256-TC","2017/08/29 14:08:33","新北市板橋區大智街25巷34號","121.454083333333","25.0148433333333","6500100","板橋區"
"220004","276-BY","2017/08/29 14:08:39","新北市板橋區信義路150巷10號","121.458328333333","24.9918133333333","6500100","板橋區"
"220020","277-BY","2017/08/29 14:08:43","新北市板橋區金門街369巷26號","121.428691666667","24.983255","6500100","板橋區"
"220043","283-UM","2017/08/29 14:08:33","新北市板橋區光武街127巷1號","121.465926666667","25.0287166666667","6500100","板橋區"
"220019","283-VK","2017/08/29 14:08:30","新北市板橋區重慶路245巷21號","121.464311666667","25.0008866666667","6500100","板橋區"
"220001","285-VK","2017/08/29 14:08:42","新北市板橋區懷仁街32-3號","121.476428333333","25.0193433333333","6500100","板橋區"
"220029","287-VK","2017/08/29 14:08:40","新北市板橋區南雅西路二段156巷2號","121.451853333333","25.0133533333333","6500100","板橋區"
"220039","288-VK","2017/08/29 14:08:37","新北市板橋區四維路289巷31號","121.461571666667","25.0283","6500100","板橋區"
"220009","293-UM","2017/08/29 14:08:36","新北市板橋區三民路二段21巷8號","121.479885","25.0181233333333","6500100","板橋區"
"220032","296-UM","2017/08/29 14:08:44","新北市板橋區篤行路一段46號","121.431921666667","24.9937433333333","6500100","板橋區"
"220010","303-R5","2017/08/29 14:08:46","新北市板橋區三民路二段居仁巷4號","121.479435","25.013245","6500100","板橋區"
"220041","307-R5","2017/08/29 14:08:43","新北市板橋區文化路二段225巷58號","121.469283333333","25.0284666666667","6500100","板橋區"
"220047","317-R6","2017/08/29 14:08:41","新北市板橋區四維路103巷23號","121.464556666667","25.0239366666667","6500100","板橋區"
"220012","486-VK","2017/08/29 14:08:40","新北市板橋區板新路74號","121.47307","25.0143016666667","6500100","板橋區"
"220038","487-VK","2017/08/29 14:08:31","新北市板橋區文化路二段516號","121.475713333333","25.0335583333333","6500100","板橋區"
"220037","491-VK","2017/08/29 14:08:39","新北市板橋區莊敬路56-1號","121.472671666667","25.02685","6500100","板橋區"
"220104","560-BX","2017/08/29 14:08:38","新北市板橋區中正路360巷50號","121.45636","25.0227416666667","6500100","板橋區"
"220052","561-BX","2017/08/29 14:08:43","新北市板橋區文化路一段188巷9弄122號","121.468973333333","25.0191033333333","6500100","板橋區"
"220011","609-BX","2017/08/29 14:08:41","新北市板橋區三民路二段111號","121.4793","25.01593","6500100","板橋區"
"220031","630-UY","2017/08/29 14:08:40","新北市板橋區龍興街99巷47號","121.443056666667","25.00311","6500100","板橋區"
"220040","637-BX","2017/08/29 14:08:35","新北市板橋區縣民大道247巷80號","121.482138333333","25.026925","6500100","板橋區"
"220005","686-BX","2017/08/29 14:08:44","新北市板橋區重慶路219號","121.463031666667","25.0013066666667","6500100","板橋區"
"220025","687-BX","2017/08/29 14:08:44","新北市板橋區龍興街69號","121.443663333333","25.0015683333333","6500100","板橋區"
"220042","689-BX","2017/08/29 14:08:42","新北市板橋區民生路三段269號","121.464393333333","25.029785","6500100","板橋區"
"220002","741-BX","2017/08/29 14:08:30","新北市板橋區重慶路127巷20號","121.463653333333","25.0049083333333","6500100","板橋區"
"220003","827-TW","2017/08/29 14:08:37","新北市板橋區中山路一段124號","121.463266666667","25.0107833333333","6500100","板橋區"
"220014","829-TW","2017/08/29 14:08:43","新北市板橋區長安街265號","121.47385","25.0115066666667","6500100","板橋區"
"220045","831-TW","2017/08/29 14:08:41","新北市板橋區雙十路二段47巷28號","121.47556","25.0258266666667","6500100","板橋區"
"220022","895-R6","2017/08/29 14:08:35","新北市板橋區林園街24號","121.453835","25.0099516666667","6500100","板橋區"
"220021","985-R7","2017/08/29 14:08:44","新北市板橋區中正路159巷2號","121.456573333333","25.0162133333333","6500100","板橋區"
"220046","AAC-210","2017/08/29 14:08:32","新北市板橋區英士路151號","121.460123333333","25.0241733333333","6500100","板橋區"
"220018","AAC-253","2017/08/29 14:08:43","新北市板橋區四川路一段336號","121.456995","24.9971","6500100","板橋區"
