"lineid","car","time","location","longitude","latitude","cityid","cityname"
"234084","338-UY","2017/08/29 14:48:13","新北市五股區中興路三段5號","121.449691666667","25.078995","6500400","永和區"
"234048","863-TW","2017/08/29 14:48:05","新北市三重區五谷王北街141巷1號","121.478591666667","25.052505","6500400","永和區"
"234025","9371-KE","2017/08/29 14:48:10","新北市永和區水源街27巷3號","121.511216666667","25.004205","6500400","永和區"
"248017","225-UY","2017/08/29 14:29:50","新北市五股區外寮路6-1號","121.425153333333","25.0752033333333","6501500","五股區"
"231028","001-UM","2017/08/29 14:48:13","新北市新店區安德街173號","121.5087","24.958935","6500600","新店區"
"231002","002-UM","2017/08/29 14:48:21","新北市新店區民權路96號","121.536768333333","24.9831183333333","6500600","新店區"
"231029","106-UY","2017/08/29 14:48:24","新北市新店區錦秀路1-3號","121.47904","24.945465","6500600","新店區"
"231018","107-UY","2017/08/29 14:48:18","新北市新店區中央路228號","121.529351666667","24.97285","6500600","新店區"
"231012","108-UY","2017/08/29 14:48:21","新北市新店區寶橋路61號","121.545166666667","24.9751016666667","6500600","新店區"
"231020","187-VK","2017/08/29 14:48:22","新北市新店區屈尺路6號","121.549495","24.922955","6500600","新店區"
"231069","189-VK","2017/08/29 12:06:04","新北市新店區安華路28-1號","121.519621666667","24.9611366666667","6500600","新店區"
"231015","AAD-862","2017/08/29 14:48:06","新北市新店區北宜路三段215號","121.591771666667","24.95308","6500600","新店區"
"231030","355-BY","2017/08/29 14:48:14","新北市新店區安民街342號","121.517123333333","24.9753716666667","6500600","新店區"
"231027","3712-VJ","2017/08/29 14:48:19","新北市新店區中正路328巷1號","121.536935","24.9752883333333","6500600","新店區"
"231025","4716-K9","2017/08/29 14:48:13","新北市新店區建國路133號","121.539386666667","24.978215","6500600","新店區"
"231036","512-UM","2017/08/29 14:48:18","新北市新店區安祥路104巷6弄24號","121.48236","24.9623083333333","6500600","新店區"
"231023","513-UM","2017/08/29 14:48:12","新北市新店區檳榔路109號","121.544445","24.9616183333333","6500600","新店區"
"231035","515-UM","2017/08/29 14:48:07","新北市新店區安樂街16號","121.520935","24.9732066666667","6500600","新店區"
"231003","616-UM","2017/08/29 14:48:09","新北市新店區中興路二段200-1號","121.548441666667","24.97408","6500600","新店區"
"231006","617-UM","2017/08/29 14:48:17","新北市新店區北宜路一段314號","121.547398333333","24.9520933333333","6500600","新店區"
"231001","619-UM","2017/08/29 14:48:12","新北市新店區中華路147號","121.538585","24.9705933333333","6500600","新店區"
"231034","645-TV","2017/08/29 14:48:10","新北市新店區安康路二段317-1號","121.49919","24.95651","6500600","新店區"
"231013","719-UM","2017/08/29 14:48:11","新北市新店區北新路二段35號","121.542843333333","24.9724666666667","6500600","新店區"
"231005","897-TW","2017/08/29 14:48:24","新北市新店區復興路2號","121.532358333333","24.9882883333333","6500600","新店區"
"231004","899-TW","2017/08/29 14:48:20","新北市新店區民族路104號","121.539145","24.9780316666667","6500600","新店區"
"231037","AKT-0513","2017/08/29 14:48:07","新北市新店區安民街341-1號","121.516626666667","24.9749883333333","6500600","新店區"
"235030","003-UY","2017/08/29 14:48:26","新北市中和區南工路18號","121.505451666667","25.00043","6500300","中和區"
"235027","006-UY","2017/08/29 14:48:18","新北市中和區連城路174巷8-1號","121.49269","24.99786","6500300","中和區"
"235020","096-UM","2017/08/29 14:48:23","新北市中和區中山路三段114巷69號","121.475968333333","25.007875","6500300","中和區"
"235003","097-UM","2017/08/29 14:48:10","新北市中和區安樂路243巷9-3號","121.51391","24.9995633333333","6500300","中和區"
"235004","150-BY","2017/08/29 14:48:18","新北市中和區安平路59號","121.509626666667","24.9952283333333","6500300","中和區"
"235022","151-BY","2017/08/29 14:48:12","新北市中和區員山路150巷2弄4號","121.481615","24.9982166666667","6500300","中和區"
"235019","183-VK","2017/08/29 03:43:35","新北市中和區員山路36巷16-3號","121.485041666667","24.9913983333333","6500300","中和區"
"235002","185-VK","2017/08/29 14:48:20","新北市中和區自立路139巷16號","121.522751666667","24.99397","6500300","中和區"
"235013","186-VK","2017/08/29 14:48:17","新北市中和區中正路46號","121.50204","24.993565","6500300","中和區"
"235031","255-BX","2017/08/29 14:48:15","新北市中和區連城路340巷14弄19號","121.482838333333","24.9971216666667","6500300","中和區"
"235008","293-VK","2017/08/29 14:48:07","新北市中和區捷運路57號","121.509086666667","24.98957","6500300","中和區"
"235036","301-VK","2017/08/29 14:48:24","新北市中和區中山路二段3巷22弄19號","121.506081666667","25.00442","6500300","中和區"
"235007","352-BY","2017/08/29 14:48:10","新北市中和區安和路47號","121.509145","24.9948433333333","6500300","中和區"
"235015","376-QA","2017/08/29 14:48:08","新北市中和區中興街233巷8弄8號","121.501245","24.989355","6500300","中和區"
"235032","377-QA","2017/08/29 14:48:20","新北市中和區中山路二段250巷24號","121.497273333333","25.0033016666667","6500300","中和區"
"235025","378-QA","2017/08/29 14:48:11","新北市中和區新生街176巷22號","121.482581666667","24.999965","6500300","中和區"
"235014","4979-A6","2017/08/29 14:48:22","新北市中和區景平路241巷53號","121.508148333333","24.992295","6500300","中和區"
"235033","4980-A6","2017/08/29 14:48:16","新北市中和區南山路37巷8弄2號","121.502535","24.998695","6500300","中和區"
"235034","558-UM","2017/08/29 14:48:15","新北市中和區連勝街59號","121.49766","24.9971033333333","6500300","中和區"
"235009","565-BX","2017/08/29 14:48:21","新北市中和區景平路370號","121.510961666667","24.9929983333333","6500300","中和區"
"235018","640-BX","2017/08/29 14:48:23","新北市中和區莒光路127號","121.472601666667","25.00192","6500300","中和區"
"235024","647-TV","2017/08/29 14:48:08","新北市中和區新生街18號","121.483076666667","25.0042666666667","6500300","中和區"
"235011","732-UM","2017/08/29 14:48:24","新北市中和區和平街74號","121.507805","24.9911133333333","6500300","中和區"
"235010","733-UM","2017/08/29 14:48:11","新北市中和區四維街40號","121.512496666667","24.9869616666667","6500300","中和區"
"235026","800-TS","2017/08/29 14:48:09","新北市中和區中山路二段504號","121.486753333333","25.00494","6500300","中和區"
"235021","801-TS","2017/08/29 14:48:19","新北市中和區員山路160號","121.48146","24.9994266666667","6500300","中和區"
"235005","802-TS","2017/08/29 14:48:04","新北市中和區永貞路245號","121.513011666667","25.0039516666667","6500300","中和區"
"235016","805-TS","2017/08/29 14:48:15","新北市中和區華新街192巷4-1號","121.5067","24.98257","6500300","中和區"
"235012","896-TW","2017/08/29 14:48:06","新北市中和區四維街40號","121.512341666667","24.9869916666667","6500300","中和區"
"235017","900-TW","2017/08/29 14:48:07","新北市中和區國光街205巷2號","121.466803333333","25.0019516666667","6500300","中和區"
"235001","AAC-213","2017/08/29 14:48:20","新北市中和區秀朗路三段123號","121.525616666667","24.993075","6500300","中和區"
"235023","AAC-215","2017/08/29 14:48:15","新北市中和區圓通路305巷5弄15-3號","121.494053333333","24.990515","6500300","中和區"
"220016","013-TV","2017/08/29 14:48:22","新北市板橋區中山路二段412巷29弄30號","121.484891666667","25.0199483333333","6500100","板橋區"
"220013","072-UY","2017/08/29 14:48:19","新北市板橋區民族路276巷1弄1號","121.469926666667","25.0066933333333","6500100","板橋區"
"220034","073-UY","2017/08/29 14:48:19","新北市板橋區中正路1巷10號","121.455415","25.0117283333333","6500100","板橋區"
"220105","075-UY","2017/08/29 14:48:22","新北市板橋區仁化街221號","121.47896","25.034595","6500100","板橋區"
"220017","AAD-861","2017/08/29 14:48:10","新北市板橋區大明街18-9號","121.458773333333","25.0026933333333","6500100","板橋區"
"220051","120-SR","2017/08/29 14:48:18","新北市板橋區仁化街61號","121.475426666667","25.0317666666667","6500100","板橋區"
"247023","337-TH","2017/08/29 14:48:23","新北市蘆洲區中山二路262號","121.469211666667","25.0787616666667","6501400","蘆洲區"
"247001","336-TH","2017/08/29 14:48:12","新北市蘆洲區長安街313巷6弄1號","121.456743333333","25.0860616666667","6501400","蘆洲區"
"247015","001-UY","2017/08/29 14:48:14","新北市蘆洲區和平路211號","121.46584","25.0818333333333","6501400","蘆洲區"
"228004","212-TW","2017/08/29 14:48:17","新北市貢寮區福隆里裕隆街3-1號","121.946165","25.0159333333333","6502600","貢寮區"
"228005","828-UM","2017/08/29 14:48:12","新北市貢寮區美豐里丹裡街69號","121.906056666667","25.057","6502600","貢寮區"
"208004","AAC-292","2017/08/29 14:48:17","新北市金山區半嶺45號","121.604461666667","25.238185","6502700","金山區"
"207002","749-BX","2017/08/29 14:48:13","新北市萬里區崁腳里崁腳路73號","121.647606666667","25.159575","6502800","萬里區"
"252005","073-UM","2017/08/29 14:48:18","新北市三芝區埔坪里埔頭坑150號","121.510491666667","25.2495216666667","6502100","三芝區"
"207001","662-BX","2017/08/29 14:48:21","新北市萬里區雙興里二坪路1-3號","121.650038333333","25.1771816666667","6502800","萬里區"
"236065","105-UM","2017/08/29 14:48:19","新北市土城區明德路一段315號","121.459385","24.9771066666667","6501300","土城區"
"236041","107-UM","2017/08/29 14:48:18","新北市土城區裕民路113號","121.4511","24.9866333333333","6501300","土城區"
"236075","166-UM","2017/08/29 14:48:09","新北市土城區中央路四段185巷32弄1號","121.415836666667","24.9558316666667","6501300","土城區"
"236029","253-BX","2017/08/29 14:48:06","新北市土城區忠義路26巷10號","121.439845","24.9699366666667","6501300","土城區"
"236025","269-VK","2017/08/29 14:48:24","新北市土城區慶安街58號","121.440885","24.9731016666667","6501300","土城區"
"236013","270-VK","2017/08/29 14:48:21","新北市土城區清水路235巷18號","121.460885","24.9837683333333","6501300","土城區"
"236034","271-VK","2017/08/29 14:48:08","新北市土城區明德路一段195巷2弄30號","121.463323333333","24.97834","6501300","土城區"
"236017","401-BY","2017/08/29 14:48:18","新北市土城區延吉街253巷1號","121.467775","24.9847483333333","6501300","土城區"
"236057","912-UM","2017/08/29 14:48:14","新北市土城區中央路三段155號","121.43205","24.9653516666667","6501300","土城區"
"236045","913-UM","2017/08/29 14:48:25","新北市板橋區信義路170巷10號","121.46001","24.9906033333333","6501300","土城區"
"236061","915-UM","2017/08/29 14:48:23","新北市土城區金城路三段149巷10號","121.468321666667","24.9887366666667","6501300","土城區"
"236047","970-R7","2017/08/29 14:48:08","新北市土城區裕民路136巷13號","121.451213333333","24.9856416666667","6501300","土城區"
"236054","AAC-216","2017/08/29 14:48:10","新北市土城區裕民路137-3號","121.4516","24.9862783333333","6501300","土城區"
"241031","233-RS","2017/08/29 08:59:22","新北市新莊區環河路48-7號","121.43691","25.0098183333333","6500200","三重區"
"221012","276-VK","2017/08/29 13:25:15","新北市汐止區汐萬路一段256巷3號","121.653438333333","25.0746033333333","6501100","汐止區"
"220027","145-BY","2017/08/29 14:48:07","新北市板橋區大智街93號","121.453055","25.0157616666667","6500100","板橋區"
"220028","200-UY","2017/08/29 14:48:18","新北市板橋區大觀路二段109巷1號","121.447308333333","25.001315","6500100","板橋區"
"220030","610-BX","2017/08/29 14:48:08","新北市板橋區大觀路三段263號","121.429225","24.992185","6500100","板橋區"
"220050","245-BX","2017/08/29 14:48:17","新北市板橋區莒光路227號","121.474453333333","25.02248","6500100","板橋區"
"220023","256-TC","2017/08/29 14:48:13","新北市板橋區中正路192號","121.456098333333","25.0178666666667","6500100","板橋區"
"220020","277-BY","2017/08/29 14:48:13","新北市板橋區金門街127巷14號","121.433576666667","24.9910683333333","6500100","板橋區"
"220043","283-UM","2017/08/29 14:48:06","新北市板橋區吳鳳路91-1號","121.46663","25.03195","6500100","板橋區"
"220019","283-VK","2017/08/29 14:48:14","新北市板橋區五權街32巷20號","121.464166666667","24.992865","6500100","板橋區"
"220001","285-VK","2017/08/29 14:48:22","新北市板橋區中山路二段60巷11號","121.474353333333","25.015325","6500100","板橋區"
"220029","287-VK","2017/08/29 14:48:24","新北市板橋區僑中一街80巷7弄2號","121.447858333333","25.0128766666667","6500100","板橋區"
"220039","288-VK","2017/08/29 14:48:17","新北市板橋區英士路192-1號","121.458441666667","25.0235066666667","6500100","板橋區"
"220009","293-UM","2017/08/29 14:48:24","新北市板橋區觀光街61號","121.47043","25.01633","6500100","板橋區"
"220032","296-UM","2017/08/29 14:48:24","新北市板橋區滿平街44號","121.426851666667","24.9897466666667","6500100","板橋區"
"220010","303-R5","2017/08/29 14:48:06","新北市板橋區光復街82號","121.483146666667","25.0186066666667","6500100","板橋區"
"220041","307-R5","2017/08/29 14:48:23","新北市板橋區四維路259巷69號","121.460636666667","25.0267433333333","6500100","板橋區"
"220047","317-R6","2017/08/29 14:48:21","新北市板橋區新海路385巷24號","121.45791","25.0255633333333","6500100","板橋區"
"220012","486-VK","2017/08/29 14:48:11","新北市板橋區實踐路32巷2號","121.463266666667","25.0073733333333","6500100","板橋區"
"220038","487-VK","2017/08/29 14:48:10","新北市板橋區英士路192-1號","121.458361666667","25.0236433333333","6500100","板橋區"
"220037","491-VK","2017/08/29 14:48:21","新北市板橋區仁化街143號","121.477561666667","25.0330233333333","6500100","板橋區"
"220104","560-BX","2017/08/29 14:48:18","新北市板橋區新生街53巷14號","121.457531666667","25.0214966666667","6500100","板橋區"
"220052","561-BX","2017/08/29 14:48:23","新北市板橋區陽明街29巷32號","121.463673333333","25.022695","6500100","板橋區"
"220011","609-BX","2017/08/29 14:48:21","新北市板橋區萬安街27巷22號","121.483851666667","25.0229","6500100","板橋區"
"220031","630-UY","2017/08/29 14:48:09","新北市板橋區僑中二街8巷13號","121.446455","25.0112783333333","6500100","板橋區"
"220040","637-BX","2017/08/29 14:48:15","新北市板橋區懷德街127巷16號","121.479626666667","25.031245","6500100","板橋區"
"220005","686-BX","2017/08/29 14:48:24","新北市板橋區廣權路16號","121.461171666667","24.9915283333333","6500100","板橋區"
"220025","687-BX","2017/08/29 14:48:25","新北市板橋區僑中一街130號","121.445615","25.0118","6500100","板橋區"
"220042","689-BX","2017/08/29 14:48:12","新北市板橋區長江路二段57號","121.46456","25.0314333333333","6500100","板橋區"
"220002","741-BX","2017/08/29 14:48:10","新北市板橋區光明街98號","121.462186666667","25.00279","6500100","板橋區"
"220003","827-TW","2017/08/29 14:48:16","新北市板橋區仁愛路76巷1弄2號","121.460543333333","24.9994283333333","6500100","板橋區"
"220014","829-TW","2017/08/29 14:48:07","新北市板橋區中山路一段206巷66弄2號","121.471931666667","25.0131916666667","6500100","板橋區"
"220045","831-TW","2017/08/29 14:48:21","新北市板橋區民生路二段234巷24弄1號","121.470353333333","25.0225016666667","6500100","板橋區"
"220022","895-R6","2017/08/29 14:48:15","新北市板橋區文化路一段38號","121.459488333333","25.01179","6500100","板橋區"
"220021","985-R7","2017/08/29 14:48:24","新北市板橋區南雅西路二段138號","121.451908333333","25.012915","6500100","板橋區"
"220046","AAC-210","2017/08/29 14:48:19","新北市板橋區文化路一段285巷2弄1號","121.46466","25.0191583333333","6500100","板橋區"
"220018","AAC-253","2017/08/29 14:48:19","新北市板橋區民族路268號","121.469748333333","25.0070283333333","6500100","板橋區"
