"lineid","car","time","location","longitude","latitude","cityid","cityname"
"234046","148-BY","2017/08/29 18:48:57","新北市永和區秀朗路二段148巷12弄15號","121.524695","25.0008833333333","6500400","永和區"
"234013","149-BY","2017/08/29 18:49:00","新北市永和區保福路二段129號","121.509821666667","25.0138216666667","6500400","永和區"
"234007","207-UY","2017/08/29 18:49:00","新北市永和區永和路二段168號","121.51554","25.0129516666667","6500400","永和區"
"234081","298-R6","2017/08/29 18:48:52","新北市永和區永利路85-1號","121.52138","25.00329","6500400","永和區"
"234038","336-UY","2017/08/29 18:48:56","新北市永和區成功路二段141號","121.52674","24.997875","6500400","永和區"
"234064","337-UY","2017/08/29 18:48:46","新北市永和區環河東路二段102號","121.524546666667","25.0105316666667","6500400","永和區"
"234086","338-UY","2017/08/29 18:48:54","新北市永和區中正路59號","121.514646666667","24.9964016666667","6500400","永和區"
"234070","552-UM","2017/08/29 18:48:53","新北市永和區中興街98號","121.51898","25.0120783333333","6500400","永和區"
"234054","553-UM","2017/08/29 18:48:51","新北市永和區竹林路72巷2號","121.519173333333","25.01294","6500400","永和區"
"234017","745-BX","2017/08/29 18:48:47","新北市永和區永和路二段405巷3號","121.51533","25.0172033333333","6500400","永和區"
"234061","AAD-866","2017/08/29 18:49:04","新北市永和區福和路303號","121.51638","25.0072616666667","6500400","永和區"
"234030","847-RS","2017/08/29 18:48:55","新北市永和區得和路339號","121.523791666667","24.999545","6500400","永和區"
"234042","862-TW","2017/08/29 18:48:58","新北市永和區永貞路267號","121.511843333333","25.0047166666667","6500400","永和區"
"234050","863-TW","2017/08/29 18:48:44","新北市永和區保安路2號","121.510846666667","25.0176433333333","6500400","永和區"
"234026","9371-KE","2017/08/29 18:48:51","新北市永和區保生路3號","121.50646","25.007515","6500400","永和區"
"234011","9373-KE","2017/08/29 18:48:52","新北市永和區文化路128號","121.513","25.0153033333333","6500400","永和區"
"249005","172-UM","2017/08/29 18:48:54","新北市八里區長道坑17號","121.39603","25.1155166666667","6502300","八里區"
"249001","173-UM","2017/08/29 18:48:49","新北市八里區龍米路二段16號","121.449045","25.1390916666667","6502300","八里區"
"249004","303-UY","2017/08/29 18:49:03","新北市八里區中山路一段172號","121.417088333333","25.1594383333333","6502300","八里區"
"249002","305-UY","2017/08/29 18:48:42","新北市八里區龍形一街33巷1-6號","121.449448333333","25.1295133333333","6502300","八里區"
"248016","026-BX","2017/08/29 18:48:50","新北市五股區凌雲路一段149巷42號","121.448663333333","25.10098","6501500","五股區"
"248006","077-UY","2017/08/29 18:49:01","新北市五股區四維路1巷3-1號","121.466165","25.0703183333333","6501500","五股區"
"248008","095-VK","2017/08/29 18:48:55","新北市五股區中興路一段151巷29號","121.465246666667","25.07228","6501500","五股區"
"248020","225-UY","2017/08/29 18:48:44","新北市五股區凌雲路三段田埔巷10號","121.435563333333","25.1203","6501500","五股區"
"248012","247-BX","2017/08/29 18:48:53","新北市五股區成泰路二段147巷34-2號","121.436773333333","25.0886683333333","6501500","五股區"
"248014","261-SL","2017/08/29 18:48:50","新北市五股區民義路一段58號","121.436473333333","25.08439","6501500","五股區"
"248010","272-BY","2017/08/29 18:48:57","新北市五股區水碓三路63號","121.430305","25.071615","6501500","五股區"
"248004","677-BX","2017/08/29 18:48:43","新北市五股區民義路二段22巷2號","121.420241666667","25.096845","6501500","五股區"
"248002","678-BX","2017/08/29 18:48:45","新北市五股區成泰路三段437號","121.449865","25.0978783333333","6501500","五股區"
"234023","9380-KE","2017/08/29 18:48:47","新北市永和區竹林路119巷45號","121.52192","25.0118483333333","6500400","永和區"
"234077","969-R7","2017/08/29 18:48:57","新北市永和區中正路2巷29弄13號","121.513678333333","24.994085","6500400","永和區"
"234067","AAC-212","2017/08/29 18:49:01","新北市永和區永和路一段22號","121.513015","25.0048266666667","6500400","永和區"
"234003","AAC-295","2017/08/29 18:48:55","新北市永和區中正路620號","121.516953333333","25.0078533333333","6500400","永和區"
"232011","375-UM","2017/08/29 18:48:57","新北市坪林區坪林街79號","121.711641666667","24.9370666666667","6502000","坪林區"
"244007","080-UY","2017/08/29 18:48:48","新北市林口區太平里3-3號","121.379055","25.1139966666667","6501700","林口區"
"244019","403-UM","2017/08/29 18:48:46","新北市林口區忠孝路622巷3弄1號","121.37786","25.0675433333333","6501700","林口區"
"244009","410-SL","2017/08/29 18:48:57","新北市林口區竹林路326巷7號","121.39173","25.0824366666667","6501700","林口區"
"244017","656-BX","2017/08/29 18:49:04","新北市林口區文化二路一段281號","121.367913333333","25.0712566666667","6501700","林口區"
"244023","657-BX","2017/08/29 18:48:45","新北市林口區信義路279-1號","121.376573333333","25.081495","6501700","林口區"
"244013","658-BX","2017/08/29 18:48:52","新北市林口區文化一路一段190巷5弄1號","121.378655","25.0753816666667","6501700","林口區"
"244011","701-TV","2017/08/29 18:48:48","新北市林口區粉寮路一段1號","121.396115","25.0757883333333","6501700","林口區"
"244025","837-TS","2017/08/29 18:48:45","新北市林口區南勢二街166號","121.359328333333","25.074845","6501700","林口區"
"243013","AAD-798","2017/08/29 18:49:01","新北市泰山區明志路三段206巷3號","121.423271666667","25.0378933333333","6501600","泰山區"
"243015","380-SR","2017/08/29 18:48:43","新北市泰山區美寧街57巷37弄10號","121.42903","25.0645783333333","6501600","泰山區"
"243014","421-VK","2017/08/29 18:48:49","新北市泰山區犁頭窠3-1號","121.422225","25.0606116666667","6501600","泰山區"
"243016","539-UM","2017/08/29 18:48:52","新北市泰山區明志路二段137號","121.427661666667","25.0506966666667","6501600","泰山區"
"243012","646-TV","2017/08/29 18:48:48","新北市泰山區福興三街13號","121.434476666667","25.057705","6501600","泰山區"
"222003","436-BY","2017/08/29 18:48:47","新北市深坑區翠谷街17巷42弄2號","121.625365","25.0101366666667","6501800","深坑區"
"222001","628-TS","2017/08/29 18:48:56","新北市深坑區松柏街30巷2號","121.638678333333","25.0111816666667","6501800","深坑區"
"222002","659-BX","2017/08/29 18:48:58","新北市深坑區文山路一段64號","121.623448333333","25.0007566666667","6501800","深坑區"
"231059","001-UM","2017/08/29 18:48:47","新北市新店區安華路28-1號","121.519453333333","24.96089","6500600","新店區"
"231041","002-UM","2017/08/29 18:48:52","新北市新店區安華路28-1號","121.519561666667","24.9606966666667","6500600","新店區"
"231060","106-UY","2017/08/29 18:48:53","新北市新店區安華路28-1號","121.519563333333","24.9608","6500600","新店區"
"231051","107-UY","2017/08/29 18:48:46","新北市新店區環河路114巷4-1號","121.537015","24.964555","6500600","新店區"
"231048","108-UY","2017/08/29 18:48:35","新北市新店區德正街20號","121.543775","24.9723033333333","6500600","新店區"
"231057","110-UY","2017/08/29 18:48:45","新北市新店區花園一路一段2號","121.553121666667","24.93247","6500600","新店區"
"231053","187-VK","2017/08/29 18:48:55","新北市新店區新烏路一段105巷33號","121.54687","24.9397083333333","6500600","新店區"
"231069","189-VK","2017/08/29 12:06:04","新北市新店區安華路28-1號","121.519621666667","24.9611366666667","6500600","新店區"
"231046","278-BY","2017/08/29 18:48:54","新北市新店區直潭路47號","121.533355","24.9424933333333","6500600","新店區"
"231050","AAD-862","2017/08/29 18:49:00","新北市新店區安康路一段88號","121.528035","24.96197","6500600","新店區"
"231061","355-BY","2017/08/29 18:48:57","新北市新店區安忠路102-1號","121.510485","24.9557333333333","6500600","新店區"
"231058","3712-VJ","2017/08/29 18:48:49","新北市新店區北宜路一段105巷4弄13號","121.540745","24.955505","6500600","新店區"
"231055","3713-VJ","2017/08/29 18:49:00","新北市新店區新生街55號","121.538865","24.96698","6500600","新店區"
"231056","4716-K9","2017/08/29 18:48:47","新北市新店區建國路196號","121.537841666667","24.9805183333333","6500600","新店區"
"231067","4772-VM","2017/08/29 18:49:04","新北市新店區安康路一段76巷34-1號","121.528431666667","24.9635433333333","6500600","新店區"
"231065","512-UM","2017/08/29 18:48:55","新北市新店區車子路10-4號","121.504886666667","24.9545466666667","6500600","新店區"
"231054","513-UM","2017/08/29 18:48:52","新北市新店區安康路一段52巷2號","121.530165","24.96114","6500600","新店區"
"231064","515-UM","2017/08/29 18:48:58","新北市新店區安華路28-1號","121.519478333333","24.9611116666667","6500600","新店區"
"231042","616-UM","2017/08/29 18:48:57","新北市新店區中正路69號","121.54348","24.97005","6500600","新店區"
"231045","617-UM","2017/08/29 18:49:01","新北市新店區安康路一段235-1號","121.525125","24.9632133333333","6500600","新店區"
"231040","619-UM","2017/08/29 18:48:49","新北市新店區環河路29巷1號","121.536893333333","24.96133","6500600","新店區"
"231063","645-TV","2017/08/29 18:48:45","新北市新店區車子路110號","121.505236666667","24.95208","6500600","新店區"
"231049","719-UM","2017/08/29 18:48:47","新北市新店區中央路81號","121.53225","24.9765216666667","6500600","新店區"
"231062","720-UM","2017/08/29 18:48:49","新北市新店區安忠路57巷11弄2號","121.513878333333","24.9576166666667","6500600","新店區"
"231044","897-TW","2017/08/29 18:48:57","新北市新店區寶中路63號","121.547233333333","24.9803766666667","6500600","新店區"
"231043","899-TW","2017/08/29 18:48:57","新北市新店區安康路一段235號","121.52518","24.96327","6500600","新店區"
"231066","AKT-0513","2017/08/29 18:48:42","新北市新店區安豐路22巷11號","121.502753333333","24.9553033333333","6500600","新店區"
"235066","003-UY","2017/08/29 18:48:45","新北市中和區水源路7巷29號","121.504063333333","25.0039783333333","6500300","中和區"
"235063","006-UY","2017/08/29 18:48:57","新北市中和區錦和路196巷5號","121.489731666667","24.994895","6500300","中和區"
"235064","031-BX","2017/08/29 18:48:41","新北市中和區連城路103號","121.496338333333","24.99953","6500300","中和區"
"235056","096-UM","2017/08/29 18:48:45","新北市中和區員山路611巷5弄3號","121.477985","25.01126","6500300","中和區"
"235039","097-UM","2017/08/29 18:48:48","新北市中和區宜安路18巷8號","121.51366","24.9961233333333","6500300","中和區"
"235040","150-BY","2017/08/29 18:48:51","新北市中和區保健路106巷48號","121.511068333333","24.9944016666667","6500300","中和區"
"235058","151-BY","2017/08/29 18:48:49","新北市中和區連城路595號","121.478376666667","24.993725","6500300","中和區"
"235055","183-VK","2017/08/29 03:43:35","新北市中和區員山路36巷16-3號","121.485041666667","24.9913983333333","6500300","中和區"
"235038","185-VK","2017/08/29 18:48:47","新北市中和區大勇街60巷30號","121.519366666667","24.9946266666667","6500300","中和區"
"235049","186-VK","2017/08/29 18:48:57","新北市中和區景安路120巷3號","121.505165","24.99494","6500300","中和區"
"235067","255-BX","2017/08/29 18:48:59","新北市中和區中山路二段449巷1弄11號","121.484046666667","25.0039733333333","6500300","中和區"
"235044","293-VK","2017/08/29 18:48:57","新北市中和區復興路280巷43號","121.500986666667","24.9919133333333","6500300","中和區"
"235072","301-VK","2017/08/29 18:48:45","新北市中和區中山路二段193號","121.499983333333","25.00269","6500300","中和區"
"235043","352-BY","2017/08/29 18:48:44","新北市中和區成功路139號","121.525763333333","24.990165","6500300","中和區"
"235051","376-QA","2017/08/29 18:48:46","新北市中和區華新街143巷29號","121.50644","24.9807383333333","6500300","中和區"
"235068","377-QA","2017/08/29 18:48:45","新北市中和區中正路219號","121.496508333333","24.9935166666667","6500300","中和區"
"235061","378-QA","2017/08/29 18:49:01","新北市中和區民享街58號","121.474061666667","25.00236","6500300","中和區"
"235050","4979-A6","2017/08/29 18:48:51","新北市中和區忠孝街62巷7弄13號","121.512353333333","24.983695","6500300","中和區"
"235069","4980-A6","2017/08/29 18:48:46","新北市中和區南山路107號","121.502063333333","24.997465","6500300","中和區"
"235042","551-UM","2017/08/29 18:48:49","新北市中和區成功路78號","121.525835","24.9917733333333","6500300","中和區"
"235070","558-UM","2017/08/29 18:48:59","新北市中和區安和路159號","121.505976666667","24.9973583333333","6500300","中和區"
"235045","565-BX","2017/08/29 18:48:59","新北市中和區復興路10號","121.50596","24.989745","6500300","中和區"
"235054","640-BX","2017/08/29 18:48:56","新北市中和區民享街56號","121.474015","25.00241","6500300","中和區"
"235060","647-TV","2017/08/29 18:48:51","新北市中和區中山路三段145號","121.473821666667","25.0061683333333","6500300","中和區"
"235047","732-UM","2017/08/29 18:48:44","新北市中和區興南路二段34巷60號","121.505103333333","24.9849133333333","6500300","中和區"
"235046","733-UM","2017/08/29 18:48:45","新北市中和區南山路399巷10號","121.5071","24.9904416666667","6500300","中和區"
"235062","800-TS","2017/08/29 18:49:02","新北市中和區中山路二段326號","121.495365","25.0021516666667","6500300","中和區"
"235057","801-TS","2017/08/29 18:48:48","新北市中和區民安街22巷7號","121.480081666667","25.0009616666667","6500300","中和區"
"235041","802-TS","2017/08/29 18:48:47","新北市中和區宜安路116號","121.510366666667","24.998155","6500300","中和區"
"235052","805-TS","2017/08/29 18:48:57","新北市中和區興南路二段399巷66號","121.499736666667","24.9786533333333","6500300","中和區"
"235048","896-TW","2017/08/29 18:48:56","新北市中和區南山路272號","121.507946666667","24.98806","6500300","中和區"
"235053","900-TW","2017/08/29 18:48:52","新北市中和區華福街11號","121.46557","24.9968316666667","6500300","中和區"
"235037","AAC-213","2017/08/29 18:48:51","新北市中和區秀朗路三段175巷10號","121.524986666667","24.991365","6500300","中和區"
"235059","AAC-215","2017/08/29 18:48:57","新北市中和區圓通路389號","121.490098333333","24.989285","6500300","中和區"
"220068","013-TV","2017/08/29 18:48:50","新北市板橋區民生路二段58號","121.47216","25.0178433333333","6500100","板橋區"
"220065","072-UY","2017/08/29 18:49:03","新北市板橋區民生路二段36-1號","121.472593333333","25.0167","6500100","板橋區"
"220086","073-UY","2017/08/29 18:49:04","新北市板橋區大智街71巷28弄22號","121.452375","25.015045","6500100","板橋區"
"220106","075-UY","2017/08/29 18:48:44","新北市板橋區民生路二段120號","121.470548333333","25.0196516666667","6500100","板橋區"
"220069","AAD-861","2017/08/29 18:48:57","新北市板橋區觀光街2-3號","121.472268333333","25.0155316666667","6500100","板橋區"
"220102","120-SR","2017/08/29 18:49:01","新北市板橋區民生路二段120號","121.470366666667","25.01961","6500100","板橋區"
"226004","205-ST","2017/08/29 18:48:48","新北市平溪區靜安路二段396號","121.738678333333","25.0245183333333","6502400","平溪區"
"228001","212-TW","2017/08/29 18:49:02","新北市貢寮區仁理村保健街73號","121.923701666667","25.0516633333333","6502600","貢寮區"
"228002","663-BX","2017/08/29 18:48:48","新北市貢寮區福隆里東興街6-11號","121.95079","25.021085","6502600","貢寮區"
"228003","828-UM","2017/08/29 18:49:01","新北市瑞芳區鼻頭路127號","121.91684","25.1217916666667","6502600","貢寮區"
"224006","676-BX","2017/08/29 18:48:47","新北市瑞芳區中正路65號","121.80604","25.1074683333333","6501200","瑞芳區"
"224009","285-BY","2017/08/29 18:48:58","新北市瑞芳區祈堂路53-1號","121.859638333333","25.1107416666667","6501200","瑞芳區"
"224008","275-VK","2017/08/29 18:48:53","新北市瑞芳區逢甲路412-2號","121.798043333333","25.1142816666667","6501200","瑞芳區"
"224007","273-VK","2017/08/29 18:48:53","新北市瑞芳區大埔路192-1號","121.761501666667","25.10122","6501200","瑞芳區"
"224005","271-BY","2017/08/29 18:48:59","新北市瑞芳區濱二路68號","121.830286666667","25.1199166666667","6501200","瑞芳區"
"227003","642-TC","2017/08/29 18:48:54","新北市雙溪區平林里梅竹蹊30號","121.861576666667","25.036025","6502500","雙溪區"
"227009","400-TW","2017/08/29 18:48:53","新北市雙溪區牡丹里聖南8號","121.859123333333","25.05253","6502500","雙溪區"
"253006","032-BX","2017/08/29 18:48:54","新北市石門區下員坑15-10號","121.514356666667","25.2834666666667","6502200","石門區"
"253005","295-VK","2017/08/29 18:49:00","新北市石門區中山路28號","121.565696666667","25.289905","6502200","石門區"
"208002","742-BX","2017/08/29 18:49:01","新北市金山區信義路62號","121.635721666667","25.218985","6502700","金山區"
"208003","665-BX","2017/08/29 18:48:52","新北市金山區中山路393號","121.633476666667","25.225255","6502700","金山區"
"208001","761-BX","2017/08/29 18:48:52","新北市金山區文化三路66巷2弄1號","121.634321666667","25.225685","6502700","金山區"
"251002","012-UM","2017/08/29 18:48:50","新北市淡水區學府路60號","121.448648333333","25.1700283333333","6501000","淡水區"
"251014","180-VK","2017/08/29 18:48:53","新北市淡水區崙頂16-1號","121.488641666667","25.2235033333333","6501000","淡水區"
"251010","413-VK","2017/08/29 18:48:47","新北市淡水區沙崙路13號","121.42117","25.18128","6501000","淡水區"
"251012","441-VK","2017/08/29 18:48:57","新北市淡水區中山北路一段245號","121.444675","25.18009","6501000","淡水區"
"251016","442-VK","2017/08/29 18:48:58","新北市淡水區下圭柔山71-3號","121.447091666667","25.20617","6501000","淡水區"
"251001","559-UM","2017/08/29 18:48:51","新北市淡水區自強路108-1號","121.461903333333","25.13","6501000","淡水區"
"251009","575-R6","2017/08/29 18:48:50","新北市淡水區重建街152號","121.440648333333","25.1736116666667","6501000","淡水區"
"251011","650-BX","2017/08/29 18:48:54","新北市淡水區學府路55號","121.44817","25.16936","6501000","淡水區"
"251003","766-UM","2017/08/29 18:48:56","新北市淡水區中山北路一段156號","121.443978333333","25.1780316666667","6501000","淡水區"
"207003","550-UM","2017/08/29 18:48:45","新北市萬里區大鵬里頂社24-5號","121.658561666667","25.2085333333333","6502800","萬里區"
"207004","225-TW","2017/08/29 18:48:49","新北市萬里區萬里里獅頭路23號","121.693216666667","25.1782466666667","6502800","萬里區"
"252002","178-VK","2017/08/29 18:48:55","新北市三芝區中正路一段83號","121.504351666667","25.25683","6502100","三芝區"
"252003","249-BX","2017/08/29 18:48:58","新北市三芝區後厝里大片頭116號","121.457856666667","25.24168","6502100","三芝區"
"252001","702-TV","2017/08/29 18:48:50","新北市三芝區中正路三段9號","121.502956666667","25.25382","6502100","三芝區"
"237004","078-UY","2017/08/29 18:48:50","新北市三峽區有木191號","121.449011666667","24.8444883333333","6500900","三峽區"
"237007","153-BY","2017/08/29 18:48:47","新北市三峽區中正路二段451號","121.362223333333","24.9065533333333","6500900","三峽區"
"237013","252-BX","2017/08/29 18:48:59","新北市三峽區光明路69巷31號","121.37686","24.9292316666667","6500900","三峽區"
"237012","275-BY","2017/08/29 18:48:52","新北市三峽區三樹路340號","121.383993333333","24.9433216666667","6500900","三峽區"
"237008","302-VK","2017/08/29 18:48:46","新北市三峽區白雞62號","121.386551666667","24.9122416666667","6500900","三峽區"
"237014","433-BY","2017/08/29 18:48:47","新北市三峽區隆恩街179號","121.361388333333","24.942465","6500900","三峽區"
"237006","5529-G3","2017/08/29 18:49:01","新北市三峽區溪東路233巷47弄2號","121.410615","24.9346033333333","6500900","三峽區"
"237011","572-TV","2017/08/29 18:48:46","新北市三峽區介壽路三段111號","121.396243333333","24.9411233333333","6500900","三峽區"
"237016","649-BX","2017/08/29 18:48:56","新北市三峽區成福路280號","121.428428333333","24.923415","6500900","三峽區"
"237010","706-TV","2017/08/29 18:48:56","新北市三峽區國光街346號","121.371551666667","24.93976","6500900","三峽區"
"237005","AKY-6261","2017/08/29 18:48:56","新北市三峽區中山路321號","121.360783333333","24.9377833333333","6500900","三峽區"
"236070","105-UM","2017/08/29 18:48:59","新北市土城區延和路21巷45號","121.463521666667","24.9893866666667","6501300","土城區"
"236043","107-UM","2017/08/29 18:48:45","新北市土城區裕民路92巷21弄2號","121.449846666667","24.98639","6501300","土城區"
"236079","166-UM","2017/08/29 18:48:57","新北市土城區中央路四段125巷2弄3號","121.416846666667","24.9569866666667","6501300","土城區"
"236031","253-BX","2017/08/29 18:48:45","新北市土城區忠義路26巷10號","121.439858333333","24.9699166666667","6501300","土城區"
"236027","269-VK","2017/08/29 18:48:43","新北市土城區農豐街10號","121.442733333333","24.97428","6501300","土城區"
"236015","270-VK","2017/08/29 18:48:51","新北市土城區清水路235巷18號","121.460828333333","24.983775","6501300","土城區"
"236038","271-VK","2017/08/29 18:48:44","新北市土城區明德路一段247巷7號","121.462785","24.9777866666667","6501300","土城區"
"236023","401-BY","2017/08/29 18:49:00","新北市土城區延安街76號","121.468068333333","24.984155","6501300","土城區"
"236059","912-UM","2017/08/29 18:49:01","新北市土城區中央路三段153號","121.432108333333","24.9653866666667","6501300","土城區"
"236049","913-UM","2017/08/29 18:48:57","新北市板橋區信義路170巷10號","121.459961666667","24.9905666666667","6501300","土城區"
"236063","915-UM","2017/08/29 18:48:53","新北市土城區延和路201號","121.469468333333","24.9901866666667","6501300","土城區"
"236055","AAC-216","2017/08/29 18:48:48","新北市土城區裕民路157號","121.452333333333","24.9858883333333","6501300","土城區"
"241031","233-RS","2017/08/29 08:59:22","新北市新莊區環河路48-7號","121.43691","25.0098183333333","6500200","三重區"
"242054","349-TH","2017/08/29 18:49:01","新北市樹林區八德街495-1號","121.402115","24.9693083333333","6500500","新莊區"
"238015","755-BX","2017/08/29 18:48:52","新北市樹林區備內街121號","121.406066666667","24.9894983333333","6500700","樹林區"
"238023","601-UM","2017/08/29 18:48:48","新北市樹林區三福街114號","121.406378333333","25.0162933333333","6500700","樹林區"
"238019","599-UM","2017/08/29 18:48:50","新北市樹林區中山路二段77號","121.411858333333","24.981925","6500700","樹林區"
"238018","571-TV","2017/08/29 18:49:01","新北市樹林區鎮前街17號","121.425923333333","24.99268","6500700","樹林區"
"238024","5061-A6","2017/08/29 18:48:59","新北市樹林區太平路196-1號","121.418456666667","24.9759483333333","6500700","樹林區"
"238022","312-TH","2017/08/29 18:49:00","新北市樹林區中華路379巷21-1號","121.413393333333","24.97845","6500700","樹林區"
"238012","303-VK","2017/08/29 18:48:50","新北市樹林區中山路三段22號","121.395605","24.9729083333333","6500700","樹林區"
"238017","283-BY","2017/08/29 18:48:46","新北市樹林區光興街50號","121.409881666667","25.0027","6500700","樹林區"
"238014","282-BY","2017/08/29 18:49:01","新北市樹林區大安路111巷11號","121.423073333333","24.99772","6500700","樹林區"
"238020","268-VK","2017/08/29 18:17:17","新北市樹林區三龍街99號","121.416863333333","25.0183766666667","6500700","樹林區"
"238026","172-UY","2017/08/29 18:48:47","新北市樹林區八德街1176號","121.390916666667","24.9687816666667","6500700","樹林區"
"238016","169-UY","2017/08/29 18:48:59","新北市樹林區文化街23號","121.419333333333","24.9876116666667","6500700","樹林區"
"239007","AAC-297","2017/08/29 18:48:47","新北市鶯歌區中正一路405號","121.359428333333","24.956995","6500800","鶯歌區"
"239006","891-R6","2017/08/29 18:48:47","新北市鶯歌區鶯桃路296巷74號","121.336596666667","24.9616633333333","6500800","鶯歌區"
"239008","527-UM","2017/08/29 18:48:46","新北市鶯歌區晨曦街2巷1號","121.336705","24.9763283333333","6500800","鶯歌區"
"239001","417-VK","2017/08/29 18:48:50","新北市鶯歌區鶯桃路86-2號","121.339835","24.9536266666667","6500800","鶯歌區"
"239003","360-BY","2017/08/29 18:48:47","新北市鶯歌區鶯桃路562號","121.330815","24.9676366666667","6500800","鶯歌區"
"239002","359-BY","2017/08/29 18:48:50","新北市鶯歌區中正一路304號","121.356051666667","24.956895","6500800","鶯歌區"
"239004","193-VK","2017/08/29 18:49:00","新北市鶯歌區中正三路247巷67弄8號","121.334278333333","24.9363916666667","6500800","鶯歌區"
"221036","130-UY","2017/08/29 18:48:49","新北市汐止區忠孝東路314巷19弄12號","121.665065","25.0684566666667","6501100","汐止區"
"221015","131-UY","2017/08/29 18:48:57","新北市汐止區鄉長路一段43號","121.665328333333","25.074975","6501100","汐止區"
"221010","269-BY","2017/08/29 18:48:51","新北市汐止區汐萬路三段74巷2號","121.64419","25.0954033333333","6501100","汐止區"
"221012","276-VK","2017/08/29 13:25:15","新北市汐止區汐萬路一段256巷3號","121.653438333333","25.0746033333333","6501100","汐止區"
"221031","277-VK","2017/08/29 18:48:55","新北市汐止區福德一路298號","121.631338333333","25.063355","6501100","汐止區"
"221012","278-VK","2017/08/29 18:48:58","新北市汐止區康寧街901號","121.650836666667","25.0752416666667","6501100","汐止區"
"221023","279-VK","2017/08/29 18:48:55","新北市汐止區康寧街901號","121.651021666667","25.075165","6501100","汐止區"
"221032","280-BY","2017/08/29 18:48:47","新北市汐止區橫科路241-4號","121.62236","25.0487933333333","6501100","汐止區"
"221027","281-BY","2017/08/29 18:48:59","新北市汐止區康寧街901號","121.650896666667","25.075265","6501100","汐止區"
"221038","297-VK","2017/08/29 18:49:01","新北市汐止區汐萬路一段312號","121.650685","25.0753183333333","6501100","汐止區"
"221029","298-VK","2017/08/29 18:48:52","新北市汐止區工建路44號","121.64131","25.0629766666667","6501100","汐止區"
"221021","299-VK","2017/08/29 18:48:58","新北市汐止區新江北路17號","121.652853333333","25.070535","6501100","汐止區"
"221008","358-BY","2017/08/29 18:41:47","新北市汐止區康寧街901號","121.651431666667","25.0750516666667","6501100","汐止區"
"221035","622-UM","2017/08/29 18:48:47","新北市汐止區汐萬路一段242號","121.651556666667","25.0730733333333","6501100","汐止區"
"221025","623-UM","2017/08/29 18:48:48","新北市汐止區秀峰路9號","121.659216666667","25.066285","6501100","汐止區"
"221033","647-BX","2017/08/29 18:48:56","新北市汐止區南勢街1巷1號","121.627066666667","25.0374616666667","6501100","汐止區"
"221002","707-TV","2017/08/29 18:48:57","新北市汐止區大同路一段203號","121.633523333333","25.0572983333333","6501100","汐止區"
"221018","753-BX","2017/08/29 18:48:54","新北市汐止區茄苳路70號","121.666696666667","25.0706666666667","6501100","汐止區"
"220079","145-BY","2017/08/29 18:48:56","新北市板橋區民權路202巷7弄7號","121.459703333333","25.0147333333333","6500100","板橋區"
"220080","200-UY","2017/08/29 18:49:00","新北市板橋區大觀路二段265巷66弄20號","121.441811666667","24.9970533333333","6500100","板橋區"
"220082","610-BX","2017/08/29 18:49:00","新北市板橋區篤行路三段9號","121.429198333333","24.9874966666667","6500100","板橋區"
"220101","245-BX","2017/08/29 15:37:26","新北市板橋區民生路二段120號","121.470523333333","25.01983","6500100","板橋區"
"220075","256-TC","2017/08/29 18:48:59","新北市板橋區大觀路一段28巷106-3號","121.45118","25.0107283333333","6500100","板橋區"
"220056","276-BY","2017/08/29 18:48:49","新北市板橋區四川路二段23號","121.454618333333","24.9954533333333","6500100","板橋區"
"220072","277-BY","2017/08/29 18:48:59","新北市板橋區金門街25巷2號","121.433705","24.994305","6500100","板橋區"
"220094","283-UM","2017/08/29 18:48:48","新北市板橋區民生路二段120號","121.470435","25.0199116666667","6500100","板橋區"
"220071","283-VK","2017/08/29 18:48:53","新北市板橋區觀光街2-5號","121.472166666667","25.0155316666667","6500100","板橋區"
"220053","285-VK","2017/08/29 18:48:45","新北市板橋區民生路二段56號","121.472195","25.0177783333333","6500100","板橋區"
"220081","287-VK","2017/08/29 18:48:48","新北市板橋區大觀路一段28巷98號","121.450621666667","25.0109933333333","6500100","板橋區"
"220090","288-VK","2017/08/29 18:49:01","新北市板橋區民生路二段120號","121.470398333333","25.0198","6500100","板橋區"
"220061","293-UM","2017/08/29 18:48:52","新北市板橋區民生路二段48號","121.472205","25.0177166666667","6500100","板橋區"
"220084","296-UM","2017/08/29 18:48:59","新北市板橋區大觀路二段148巷46號","121.441866666667","25.0002583333333","6500100","板橋區"
"220062","303-R5","2017/08/29 18:48:48","新北市板橋區民生路二段36-1號","121.47206","25.0168183333333","6500100","板橋區"
"220092","307-R5","2017/08/29 15:24:47","新北市板橋區民生路二段120號","121.470395","25.0196016666667","6500100","板橋區"
"220098","317-R6","2017/08/29 18:48:46","新北市板橋區民生路二段161巷7號","121.47026","25.0196966666667","6500100","板橋區"
"220064","486-VK","2017/08/29 15:32:52","新北市板橋區民生路二段36-1號","121.472541666667","25.0167933333333","6500100","板橋區"
"220089","487-VK","2017/08/29 18:48:53","新北市板橋區民生路二段120號","121.470606666667","25.0196183333333","6500100","板橋區"
"242044","280-VK","2017/08/29 18:49:01","新北市泰山區全興路350-1號","121.438878333333","25.048095","6500500","新莊區"
"220035","560-BX","2017/08/29 18:48:50","新北市板橋區中正路275巷77號","121.452361666667","25.0181216666667","6500100","板橋區"
"220103","561-BX","2017/08/29 18:49:01","新北市板橋區民生路二段120號","121.470355","25.0197016666667","6500100","板橋區"
"220063","609-BX","2017/08/29 15:14:15","新北市板橋區民生路二段36-1號","121.472491666667","25.0166583333333","6500100","板橋區"
"220083","630-UY","2017/08/29 18:49:00","新北市板橋區大觀路二段22巷22號","121.445628333333","25.00357","6500100","板橋區"
"220057","686-BX","2017/08/29 18:48:49","新北市板橋區民生路二段36-1號","121.472448333333","25.0168","6500100","板橋區"
"220077","687-BX","2017/08/29 18:48:48","新北市板橋區大觀路二段174巷172號","121.441993333333","25.0034416666667","6500100","板橋區"
"220093","689-BX","2017/08/29 18:48:59","新北市板橋區民生路二段120號","121.470328333333","25.019855","6500100","板橋區"
"220054","741-BX","2017/08/29 18:48:54","新北市板橋區觀光街2-1號","121.472406666667","25.0154383333333","6500100","板橋區"
"220055","827-TW","2017/08/29 18:48:54","新北市板橋區民生路二段15-1號","121.472715","25.0163383333333","6500100","板橋區"
"220067","829-TW","2017/08/29 18:48:57","新北市板橋區中山路二段37號","121.47301","25.015785","6500100","板橋區"
"220096","831-TW","2017/08/29 16:31:06","新北市板橋區民生路二段120號","121.47034","25.01973","6500100","板橋區"
"220074","895-R6","2017/08/29 18:48:54","新北市板橋區南門街73號","121.457003333333","25.008075","6500100","板橋區"
"220073","985-R7","2017/08/29 18:48:48","新北市板橋區館前西路47號","121.457918333333","25.0069316666667","6500100","板橋區"
"220097","AAC-210","2017/08/29 18:48:53","新北市板橋區民生路二段120號","121.470493333333","25.0196033333333","6500100","板橋區"
"220070","AAC-253","2017/08/29 18:48:55","新北市板橋區民生路二段36-1號","121.47226","25.01684","6500100","板橋區"
