"lineid","car","time","location","longitude","latitude","cityid","cityname"
"234054","553-UM","2017/08/29 20:39:11","新北市永和區環河東路一段82號","121.519571666667","25.016385","6500400","永和區"
"234061","AAD-866","2017/08/29 20:39:24","新北市永和區安樂路194巷24號","121.516488333333","25.0010783333333","6500400","永和區"
"249001","173-UM","2017/08/29 20:39:20","新北市八里區中山路三段382號","121.368583333333","25.1360283333333","6502300","八里區"
"249004","303-UY","2017/08/29 20:39:24","新北市八里區中山路一段217巷76號","121.412226666667","25.1576983333333","6502300","八里區"
"234023","9380-KE","2017/08/29 20:39:27","新北市永和區竹林路21號","121.517131666667","25.0149566666667","6500400","永和區"
"234074","AAC-211","2017/08/29 20:39:24","新北市永和區竹林路37號","121.51785","25.0142866666667","6500400","永和區"
"234067","AAC-212","2017/08/29 20:39:26","新北市永和區保平路292巷42號","121.507576666667","25.005155","6500400","永和區"
"243009","297-R6","2017/08/29 20:39:25","新北市泰山區泰林路二段542巷1弄25號","121.422746666667","25.0640216666667","6501600","泰山區"
"243010","548-UM","2017/08/29 20:39:27","新北市泰山區犁頭窠8號","121.421783333333","25.0586466666667","6501600","泰山區"
"243011","549-UM","2017/08/29 20:39:27","新北市泰山區黎明路2-5號","121.420856666667","25.0625266666667","6501600","泰山區"
"222003","436-BY","2017/08/29 20:39:29","新北市深坑區阿柔洋3-1號","121.612885","25.000045","6501800","深坑區"
"222001","628-TS","2017/08/29 20:39:20","新北市深坑區北深路三段207號","121.60067","25.0038916666667","6501800","深坑區"
"222002","659-BX","2017/08/29 20:39:18","新北市深坑區萬福路43號","121.599343333333","25.0068283333333","6501800","深坑區"
"231059","001-UM","2017/08/29 20:39:27","新北市新店區僑愛三路37號","121.499025","24.944675","6500600","新店區"
"231041","002-UM","2017/08/29 20:39:12","新北市新店區中正路566號","121.533795","24.9875733333333","6500600","新店區"
"231060","106-UY","2017/08/29 20:39:13","新北市新店區安康路三段628號","121.47878","24.9459433333333","6500600","新店區"
"231051","107-UY","2017/08/29 20:39:26","新北市新店區中央六街3號","121.53042","24.97445","6500600","新店區"
"231048","108-UY","2017/08/29 20:39:15","新北市新店區寶慶街2-1號","121.543775","24.9868483333333","6500600","新店區"
"231057","110-UY","2017/08/29 20:39:24","新北市新店區花園十路一段7號","121.554398333333","24.9339383333333","6500600","新店區"
"231053","187-VK","2017/08/29 20:39:14","新北市新店區松林路9號","121.547191666667","24.9110883333333","6500600","新店區"
"231069","189-VK","2017/08/29 12:06:04","新北市新店區安華路28-1號","121.519621666667","24.9611366666667","6500600","新店區"
"231050","AAD-862","2017/08/29 20:39:19","新北市新店區建國路83-1號","121.540366666667","24.9763783333333","6500600","新店區"
"231061","355-BY","2017/08/29 20:39:17","新北市新店區新和街37號","121.519263333333","24.98494","6500600","新店區"
"231056","4716-K9","2017/08/29 20:39:27","新北市新店區中正路461號","121.533353333333","24.980625","6500600","新店區"
"231065","512-UM","2017/08/29 20:39:26","新北市新店區安祥路102巷144號","121.486778333333","24.96456","6500600","新店區"
"231054","513-UM","2017/08/29 20:39:12","新北市新店區北新路一段64巷37號","121.542176666667","24.9657433333333","6500600","新店區"
"231064","515-UM","2017/08/29 20:39:18","新北市新店區永安街34巷12號","121.517965","24.9859833333333","6500600","新店區"
"231042","616-UM","2017/08/29 20:39:30","新北市新店區寶高路120巷1號","121.554593333333","24.9760566666667","6500600","新店區"
"231045","617-UM","2017/08/29 20:39:21","新北市新店區長春路152號","121.557223333333","24.96135","6500600","新店區"
"231040","619-UM","2017/08/29 20:39:29","新北市新店區中正路263號","121.53862","24.9735","6500600","新店區"
"231063","645-TV","2017/08/29 20:39:25","新北市新店區玫瑰路4-1號","121.493653333333","24.9513583333333","6500600","新店區"
"231068","718-UY","2017/08/29 20:39:22","新北市新店區寶慶街35巷1弄1號","121.543136666667","24.9864283333333","6500600","新店區"
"231049","719-UM","2017/08/29 20:39:27","新北市新店區永業路81巷5弄1號","121.53013","24.9489516666667","6500600","新店區"
"231062","720-UM","2017/08/29 20:39:09","新北市新店區安泰路11巷1號","121.48554","24.95019","6500600","新店區"
"231044","897-TW","2017/08/29 20:39:17","新北市新店區建國路293巷2號","121.536906666667","24.986325","6500600","新店區"
"231043","899-TW","2017/08/29 20:39:17","新北市新店區建國路35巷1號","121.540423333333","24.9744683333333","6500600","新店區"
"231066","AKT-0513","2017/08/29 20:39:22","新北市新店區安興路112號","121.514623333333","24.97768","6500600","新店區"
"241011","013-R5","2017/08/29 20:39:24","新北市三重區龍濱路233巷23號","121.502355","25.0723016666667","6500200","三重區"
"241028","022-UY","2017/08/29 20:39:13","新北市三重區光興街89號","121.49744","25.0599633333333","6500200","三重區"
"241008","059-VK","2017/08/29 20:39:10","新北市三重區下竹圍街89號","121.481193333333","25.0749733333333","6500200","三重區"
"241009","060-VK","2017/08/29 20:39:09","新北市三重區碧華街57號","121.484728333333","25.081335","6500200","三重區"
"241031","061-VK","2017/08/29 20:39:14","新北市三重區重陽路一段113巷1弄49號","121.488108333333","25.058635","6500200","三重區"
"241015","062-VK","2017/08/29 20:39:27","新北市三重區文化北路200巷13號","121.497961666667","25.0681866666667","6500200","三重區"
"241017","063-VK","2017/08/29 20:39:19","新北市三重區大同北路273號","121.490823333333","25.067465","6500200","三重區"
"241024","065-VK","2017/08/29 20:39:29","新北市三重區忠孝路三段38號","121.481128333333","25.0665483333333","6500200","三重區"
"241002","090-VK","2017/08/29 20:39:09","新北市三重區仁義街167巷36號","121.498498333333","25.0823483333333","6500200","三重區"
"241029","156-TC","2017/08/29 20:39:15","新北市三重區集美街126巷25號","121.490008333333","25.0537233333333","6500200","三重區"
"241005","262-UM","2017/08/29 20:39:14","新北市三重區進安街196號","121.493893333333","25.0863316666667","6500200","三重區"
"241016","265-UM","2017/08/29 20:39:02","新北市三重區長壽西街143-3號","121.494398333333","25.0665883333333","6500200","三重區"
"241023","266-UM","2017/08/29 20:39:22","新北市三重區自由街43號","121.478796666667","25.06689","6500200","三重區"
"241022","267-UM","2017/08/29 20:39:20","新北市三重區中正北路20巷12號","121.487978333333","25.0625783333333","6500200","三重區"
"241032","269-UM","2017/08/29 20:39:24","新北市三重區重陽路一段120巷37號","121.485051666667","25.06027","6500200","三重區"
"241013","270-UM","2017/08/29 20:39:23","新北市三重區三和路三段78號","121.494633333333","25.0716966666667","6500200","三重區"
"241025","271-UM","2017/08/29 20:39:24","新北市三重區頂崁街206巷38號","121.475713333333","25.0668333333333","6500200","三重區"
"241007","398-BY","2017/08/29 20:39:24","新北市三重區自強路四段20號","121.488563333333","25.0764533333333","6500200","三重區"
"241020","413-TH","2017/08/29 20:39:13","新北市三重區忠孝路一段101號","121.489423333333","25.0721666666667","6500200","三重區"
"241035","462-BY","2017/08/29 20:39:18","新北市三重區正義北路322號","121.494873333333","25.070385","6500200","三重區"
"241004","475-VK","2017/08/29 20:39:24","新北市三重區仁愛街406巷3號","121.490671666667","25.0812466666667","6500200","三重區"
"241019","478-VK","2017/08/29 20:39:16","新北市三重區大智街129-1號","121.491121666667","25.0703566666667","6500200","三重區"
"241030","480-VK","2017/08/29 20:39:28","新北市三重區成功路73巷20號","121.489461666667","25.0519966666667","6500200","三重區"
"241014","543-UM","2017/08/29 20:39:15","新北市三重區萬壽街23號","121.499585","25.0693566666667","6500200","三重區"
"241001","547-UM","2017/08/29 20:39:11","新北市三重區自強路三段76巷19號","121.485846666667","25.07433","6500200","三重區"
"241033","887-TS","2017/08/29 20:39:10","新北市三重區光復路二段1號","121.472365","25.0532916666667","6500200","三重區"
"241012","941-UM","2017/08/29 20:39:19","新北市三重區秀江街2號","121.50273","25.073085","6500200","三重區"
"241018","942-UM","2017/08/29 20:39:14","新北市三重區重陽路四段35號","121.491525","25.069755","6500200","三重區"
"235069","4980-A6","2017/08/29 20:39:26","新北市中和區新生街276號","121.483681666667","24.996925","6500300","中和區"
"235026","800-TS","2017/08/29 20:28:04","新北市中和區員山路36巷16-3號","121.48494","24.99157","6500300","中和區"
"247020","893-R6","2017/08/29 20:39:16","新北市蘆洲區仁愛街64號","121.471476666667","25.0938533333333","6501400","蘆洲區"
"247010","546-UM","2017/08/29 20:39:29","新北市蘆洲區民族路109號","121.479763333333","25.0867","6501400","蘆洲區"
"247008","339-TH","2017/08/29 20:39:15","新北市蘆洲區集賢路281號","121.481263333333","25.082945","6501400","蘆洲區"
"247024","337-TH","2017/08/29 20:39:13","新北市蘆洲區長樂路125-1號","121.46221","25.0877066666667","6501400","蘆洲區"
"247002","336-TH","2017/08/29 20:39:22","新北市蘆洲區長榮路343號","121.45944","25.0875483333333","6501400","蘆洲區"
"247014","057-VK","2017/08/29 20:39:25","新北市蘆洲區成功路86號","121.473065","25.081475","6501400","蘆洲區"
"247004","056-VK","2017/08/29 20:39:22","新北市蘆洲區長安街297號","121.458033333333","25.0848316666667","6501400","蘆洲區"
"247006","053-VK","2017/08/29 20:39:17","新北市蘆洲區和平路138號","121.466776666667","25.08077","6501400","蘆洲區"
"247012","007-UY","2017/08/29 20:39:13","新北市蘆洲區集賢路224巷66號","121.480706666667","25.0881016666667","6501400","蘆洲區"
"247022","002-UY","2017/08/29 20:39:25","新北市蘆洲區中正路243巷7弄42號","121.467445","25.0859016666667","6501400","蘆洲區"
"247016","001-UY","2017/08/29 20:39:14","新北市蘆洲區中山二路174號","121.470656666667","25.0807316666667","6501400","蘆洲區"
"251002","012-UM","2017/08/29 20:39:24","新北市淡水區中正路38-1號","121.443718333333","25.169315","6501000","淡水區"
"251014","180-VK","2017/08/29 20:39:13","新北市淡水區公埔子25號","121.469805","25.2318333333333","6501000","淡水區"
"251010","413-VK","2017/08/29 20:39:27","新北市淡水區沙崙路181巷15號","121.423981666667","25.1843733333333","6501000","淡水區"
"251012","441-VK","2017/08/29 20:39:17","新北市淡水區興仁路108號","121.451708333333","25.2180866666667","6501000","淡水區"
"251016","442-VK","2017/08/29 20:39:18","新北市淡水區後洲子8-2號","121.449583333333","25.2240133333333","6501000","淡水區"
"251001","559-UM","2017/08/29 20:39:21","新北市淡水區淡金路73號","121.456065","25.1619133333333","6501000","淡水區"
"251006","561-UM","2017/08/29 20:39:11","新北市淡水區商工路198巷13號","121.451701666667","25.1864733333333","6501000","淡水區"
"251011","650-BX","2017/08/29 20:39:14","新北市淡水區新市一路一段361號","121.43634","25.1862333333333","6501000","淡水區"
"251003","766-UM","2017/08/29 20:39:25","新北市淡水區新民街130號","121.437855","25.1778","6501000","淡水區"
"252002","178-VK","2017/08/29 20:39:15","新北市三芝區淡金路二段47-2號","121.50364","25.2605216666667","6502100","三芝區"
"252001","702-TV","2017/08/29 20:39:09","新北市三芝區長安街49號","121.501355","25.2564683333333","6502100","三芝區"
"236055","AAC-216","2017/08/29 20:39:28","新北市樹林區中山路三段214號","121.379803333333","24.967735","6501300","土城區"
"242021","AAC-296","2017/08/29 20:39:19","新北市新莊區公園路98號","121.450691666667","25.0397816666667","6500500","新莊區"
"242029","986-R7","2017/08/29 20:39:25","新北市新莊區昌隆街17號","121.454265","25.05128","6500500","新莊區"
"242048","751-BX","2017/08/29 20:39:27","新北市新莊區中正路879-1號","121.41802","25.0263733333333","6500500","新莊區"
"242025","615-BX","2017/08/29 20:39:22","新北市新莊區五工一路72巷11號","121.462188333333","25.06649","6500500","新莊區"
"242023","613-BX","2017/08/29 20:39:30","新北市新莊區化成路159號","121.465768333333","25.0491383333333","6500500","新莊區"
"242027","612-BX","2017/08/29 20:39:25","新北市新莊區思源路63號","121.459841666667","25.0404316666667","6500500","新莊區"
"242042","497-BY","2017/08/29 20:39:27","新北市新莊區天祥街26號","121.417373333333","25.0276516666667","6500500","新莊區"
"242037","442-UM","2017/08/29 20:39:20","新北市新莊區建安街10-1號","121.428466666667","25.0264883333333","6500500","新莊區"
"242051","440-UM","2017/08/29 20:39:19","新北市新莊區民安西路171號","121.4261","25.01602","6500500","新莊區"
"242032","415-TV","2017/08/29 20:39:20","新北市新莊區中正路508巷5弄2號","121.435031666667","25.033825","6500500","新莊區"
"242002","413-TV","2017/08/29 20:39:30","新北市新莊區中港路五守新村37巷1號","121.45463","25.0388416666667","6500500","新莊區"
"242039","400-BY","2017/08/29 20:39:09","新北市新莊區民安路421號","121.433435","25.0227666666667","6500500","新莊區"
"242061","362-BY","2017/08/29 20:39:14","新北市新莊區新樹路258巷1-1號","121.432166666667","25.0154866666667","6500500","新莊區"
"242058","353-BY","2017/08/29 20:39:24","新北市新莊區民安路106號","121.424113333333","25.0255783333333","6500500","新莊區"
"242005","132-UY","2017/08/29 20:39:21","新北市新莊區化成路389巷28號","121.464181666667","25.0583033333333","6500500","新莊區"
"242034","133-UY","2017/08/29 20:39:06","新北市新莊區中正路334巷4號","121.445781666667","25.0351016666667","6500500","新莊區"
"242019","135-UY","2017/08/29 20:39:13","新北市新莊區銘德街122號","121.455035","25.0431766666667","6500500","新莊區"
"242007","173-VK","2017/08/29 20:39:15","新北市新莊區思源路287巷2弄1號","121.459303333333","25.0482983333333","6500500","新莊區"
"242013","175-VK","2017/08/29 20:39:19","新北市新莊區中和街191巷1-1號","121.447825","25.05119","6500500","新莊區"
"242056","176-VK","2017/08/29 20:39:31","新北市新莊區瓊泰路57號","121.44333","25.02863","6500500","新莊區"
"241031","233-RS","2017/08/29 08:59:22","新北市新莊區環河路48-7號","121.43691","25.0098183333333","6500200","三重區"
"242011","346-TH","2017/08/29 20:39:22","新北市新莊區中榮街104巷23號","121.446848333333","25.0537233333333","6500500","新莊區"
"242015","347-TH","2017/08/29 20:39:11","新北市新莊區中港一街151號","121.447665","25.0449216666667","6500500","新莊區"
"242017","348-TH","2017/08/29 20:39:25","新北市新莊區中和街62號","121.44783","25.0458683333333","6500500","新莊區"
"242054","349-TH","2017/08/29 20:39:29","新北市新莊區西盛街324巷9號","121.427468333333","25.0147","6500500","新莊區"
"242009","351-TH","2017/08/29 20:39:31","新北市新莊區幸福路564巷2弄2號","121.454518333333","25.0495633333333","6500500","新莊區"
"238023","601-UM","2017/08/29 20:39:28","新北市樹林區育德街78-1號","121.387451666667","24.96831","6500700","樹林區"
"221036","130-UY","2017/08/29 20:39:29","新北市汐止區新昌路21號","121.661861666667","25.0675766666667","6501100","汐止區"
"221015","131-UY","2017/08/29 20:39:16","新北市汐止區建成路44號","121.663886666667","25.072785","6501100","汐止區"
"221012","276-VK","2017/08/29 13:25:15","新北市汐止區汐萬路一段256巷3號","121.653438333333","25.0746033333333","6501100","汐止區"
"221031","277-VK","2017/08/29 20:39:15","新北市汐止區中興路102號","121.63417","25.0626916666667","6501100","汐止區"
"221012","278-VK","2017/08/29 20:39:18","新北市汐止區大同路三段241號","121.672763333333","25.07663","6501100","汐止區"
"221023","279-VK","2017/08/29 20:39:15","新北市汐止區伯爵街2巷11號","121.642488333333","25.075485","6501100","汐止區"
"221032","280-BY","2017/08/29 20:39:27","新北市汐止區民權街二段28號","121.619535","25.05009","6501100","汐止區"
"221027","281-BY","2017/08/29 20:39:28","新北市汐止區大同路二段407號","121.658398333333","25.0672866666667","6501100","汐止區"
"221038","297-VK","2017/08/29 20:39:21","新北市汐止區新興路3號","121.656318333333","25.0652433333333","6501100","汐止區"
"221029","298-VK","2017/08/29 20:39:26","新北市汐止區新台五路一段79-12號","121.645435","25.0620483333333","6501100","汐止區"
"221021","299-VK","2017/08/29 20:39:18","新北市汐止區水源路一段291巷1號","121.654291666667","25.058405","6501100","汐止區"
"221008","358-BY","2017/08/29 20:39:12","新北市汐止區康寧街706-2號","121.638478333333","25.0731","6501100","汐止區"
"221035","622-UM","2017/08/29 20:39:27","新北市汐止區長江街101-5號","121.658971666667","25.0733016666667","6501100","汐止區"
"221025","623-UM","2017/08/29 20:39:28","新北市汐止區水源路二段283巷2號","121.659123333333","25.049685","6501100","汐止區"
"221033","647-BX","2017/08/29 20:39:16","新北市汐止區合順街18巷8弄5號","121.620301666667","25.0417516666667","6501100","汐止區"
"221002","707-TV","2017/08/29 20:39:17","新北市汐止區福德二路123號","121.63118","25.0652466666667","6501100","汐止區"
"221018","753-BX","2017/08/29 20:39:13","新北市汐止區茄苳路70號","121.666711666667","25.0706383333333","6501100","汐止區"
"220080","200-UY","2017/08/29 20:38:09","新北市五股區中直路21號","121.421563333333","25.1118133333333","6500100","板橋區"
"220089","487-VK","2017/08/29 20:39:13","新北市板橋區長江路一段188號","121.462126666667","25.0304133333333","6500100","板橋區"
"242044","280-VK","2017/08/29 20:39:20","新北市新莊區龍安路65號","121.415685","25.02147","6500500","新莊區"
"220103","561-BX","2017/08/29 20:39:21","新北市板橋區漢生東路53巷3號","121.466066666667","25.016885","6500100","板橋區"
"220083","630-UY","2017/08/29 20:39:19","新北市板橋區僑中二街106巷1號","121.445783333333","25.0075883333333","6500100","板橋區"
"220070","AAC-253","2017/08/29 20:39:14","新北市五股區新五路二段372巷20號","121.447845","25.0867483333333","6500100","板橋區"
