"lineid","car","time","location","longitude","latitude","cityid","cityname"
"244017","485-VK","2017/07/30 08:29:30","新北市林口區四維路102號","121.37672","25.0786266666667","6501700","林口區"
"231030","047-UY","2017/07/30 08:29:32","新北市新店區力行路15號","121.53701","24.965325","6500600","新店區"
"247001","402-BY","2017/07/30 08:29:39","新北市蘆洲區三民路110巷2號","121.471653333333","25.0869466666667","6501400","蘆洲區"
"220005","686-BX","2017/07/30 08:29:41","新北市板橋區民生路二段250號","121.468333333333","25.0235216666667","6500100","板橋區"
"220021","806-UM","2017/07/30 08:29:43","新北市板橋區文化路一段104巷1號","121.464891666667","25.0180833333333","6500100","板橋區"
