"lineid","car","time","location","longitude","latitude","cityid","cityname"
"244017","485-VK","2017/07/30 09:09:30","新北市林口區公園路223巷9號","121.373343333333","25.0736966666667","6501700","林口區"
"231030","047-UY","2017/07/30 09:09:32","新北市新店區環河路121號","121.529708333333","24.9717766666667","6500600","新店區"
"247001","402-BY","2017/07/30 09:09:39","新北市蘆洲區復興路323巷17號","121.482215","25.0926666666667","6501400","蘆洲區"
"252005","073-UM","2017/07/30 08:58:12","新北市三芝區埔坪里埔頭坑41號","121.504463333333","25.264405","6502100","三芝區"
"252007","AAC-283","2017/07/30 09:09:42","新北市三芝區埔頭里埔頭37號","121.498468333333","25.2602333333333","6502100","三芝區"
"220005","686-BX","2017/07/30 09:09:41","新北市板橋區文化路二段260號","121.471306666667","25.02844","6500100","板橋區"
"220042","689-BX","2017/07/30 09:09:36","新北市板橋區海山路1號","121.469481666667","25.0096533333333","6500100","板橋區"
