"lineid","car","time","location","longitude","latitude","cityid","cityname"
"244017","485-VK","2017/07/30 10:29:30","新北市林口區文化一路一段237號","121.379776666667","25.07672","6501700","林口區"
"231030","047-UY","2017/07/30 10:29:32","新北市新店區環河路114巷4-1號","121.5368","24.9648983333333","6500600","新店區"
"247001","402-BY","2017/07/30 10:14:58","新北市蘆洲區民權路6-1號","121.47688","25.0857316666667","6501400","蘆洲區"
"224008","275-VK","2017/07/30 10:29:24","新北市瑞芳區傑魚坑路238號","121.790326666667","25.109805","6501200","瑞芳區"
"252005","073-UM","2017/07/30 08:58:12","新北市三芝區埔坪里埔頭坑41號","121.504463333333","25.264405","6502100","三芝區"
"252007","AAC-283","2017/07/30 10:04:03","新北市三芝區埔坪里埔頭坑41號","121.50452","25.2644316666667","6502100","三芝區"
"220005","686-BX","2017/07/30 10:29:41","新北市板橋區漢生東路15號","121.46474","25.017385","6500100","板橋區"
"220042","689-BX","2017/07/30 10:29:36","新北市板橋區區運路77號","121.467911666667","25.011005","6500100","板橋區"
