"lineid","car","time","location","longitude","latitude","cityid","cityname"
"244017","485-VK","2017/07/30 10:59:30","新北市林口區粉寮路一段1號","121.395993333333","25.075795","6501700","林口區"
"231030","047-UY","2017/07/30 10:59:44","新北市新店區安康路一段92-1號","121.527878333333","24.962005","6500600","新店區"
"235031","255-BX","2017/07/30 10:56:15","新北市中和區員山路36巷13號","121.484375","24.99121","6500300","中和區"
"247001","402-BY","2017/07/30 10:59:37","新北市蘆洲區中正路153號","121.46923","25.0849583333333","6501400","蘆洲區"
"252005","073-UM","2017/07/30 08:58:12","新北市三芝區埔坪里埔頭坑41號","121.504463333333","25.264405","6502100","三芝區"
"252007","AAC-283","2017/07/30 10:04:03","新北市三芝區埔坪里埔頭坑41號","121.50452","25.2644316666667","6502100","三芝區"
"220005","686-BX","2017/07/30 10:59:41","新北市土城區擺接堡路1號","121.439388333333","24.9830633333333","6500100","板橋區"
"220042","689-BX","2017/07/30 10:59:36","新北市板橋區中山路一段154巷18號","121.464921666667","25.01109","6500100","板橋區"
