"lineid","car","time","location","longitude","latitude","cityid","cityname"
"234044","148-BY","2017/07/30 12:49:35","新北市永和區永元路40巷46弄2號","121.523668333333","25.0005866666667","6500400","永和區"
"234012","149-BY","2017/07/30 12:49:43","新北市永和區保福路二段62-1號","121.510893333333","25.0124966666667","6500400","永和區"
"234005","207-UY","2017/07/30 12:49:27","新北市永和區文化路168號","121.512116666667","25.01543","6500400","永和區"
"234078","298-R6","2017/07/30 12:49:42","新北市永和區林森路83號","121.523898333333","25.0037116666667","6500400","永和區"
"234036","336-UY","2017/07/30 12:49:33","新北市永和區成功路二段207號","121.526605","24.995905","6500400","永和區"
"234062","337-UY","2017/07/30 12:49:36","新北市永和區中正路532號","121.517303333333","25.0052366666667","6500400","永和區"
"234084","338-UY","2017/07/30 12:49:46","新北市永和區中正路93號","121.515355","24.997275","6500400","永和區"
"234068","552-UM","2017/07/30 12:49:35","新北市永和區竹林路96巷15弄2號","121.518835","25.0119533333333","6500400","永和區"
"234052","553-UM","2017/07/30 12:49:43","新北市永和區竹林路66巷15-7號","121.518233333333","25.0132083333333","6500400","永和區"
"234015","745-BX","2017/07/30 12:49:41","新北市永和區永和路二段308號","121.516196666667","25.0159733333333","6500400","永和區"
"234028","746-BX","2017/07/30 12:49:41","新北市永和區得和路343號","121.523896666667","24.9995566666667","6500400","永和區"
"234040","862-TW","2017/07/30 12:49:27","新北市永和區永貞路308號","121.51186","25.00488","6500400","永和區"
"234048","863-TW","2017/07/30 12:49:27","新北市永和區保安路2號","121.51073","25.0173733333333","6500400","永和區"
"234025","9371-KE","2017/07/30 12:49:33","新北市永和區永和路一段151巷2號","121.513991666667","25.0094333333333","6500400","永和區"
"234010","9373-KE","2017/07/30 12:49:34","新北市永和區保福路二段165號","121.508958333333","25.014905","6500400","永和區"
"248013","025-BX","2017/07/30 12:49:42","新北市五股區中興路二段63巷17號","121.460185","25.0753166666667","6501500","五股區"
"248005","077-UY","2017/07/30 12:49:36","新北市五股區中興路二段37巷28號","121.460156666667","25.0749516666667","6501500","五股區"
"248007","095-VK","2017/07/30 12:49:40","新北市五股區中興路二段37巷28號","121.460221666667","25.075035","6501500","五股區"
"248001","678-BX","2017/07/30 12:49:37","新北市五股區中興路二段37巷28號","121.460285","25.0748033333333","6501500","五股區"
"234022","9380-KE","2017/07/30 12:49:47","新北市永和區竹林路119巷30弄1號","121.522136666667","25.0118033333333","6500400","永和區"
"234076","969-R7","2017/07/30 12:49:35","新北市永和區中正路90號","121.514061666667","24.9954133333333","6500400","永和區"
"234072","AAC-211","2017/07/30 12:49:29","新北市永和區環河東路二段92號","121.524166666667","25.0104633333333","6500400","永和區"
"234066","AAC-212","2017/07/30 12:49:40","新北市永和區永和路一段22號","121.512988333333","25.0048466666667","6500400","永和區"
"234001","AAC-295","2017/07/30 12:49:33","新北市永和區中山路一段19號","121.513798333333","25.010415","6500400","永和區"
"235002","185-VK","2017/07/30 12:49:36","新北市中和區中正路637巷60弄61號","121.485475","24.9932516666667","6500300","中和區"
"235031","255-BX","2017/07/30 12:49:40","新北市中和區新生街10號","121.483118333333","25.0045416666667","6500300","中和區"
"235006","551-UM","2017/07/30 12:49:27","新北市中和區景平路159巷17弄1號","121.5127","24.99172","6500300","中和區"
"247001","402-BY","2017/07/30 11:36:31","新北市五股區中興路三段3-6號","121.449496666667","25.078795","6501400","蘆洲區"
"224007","273-VK","2017/07/30 12:49:34","新北市瑞芳區大寮路356-1號","121.78485","25.10325","6501200","瑞芳區"
"224005","271-BY","2017/07/30 12:49:37","新北市瑞芳區傑魚坑路189號","121.788315","25.107875","6501200","瑞芳區"
"208004","742-BX","2017/07/30 12:49:27","新北市金山區磺清路127號","121.639453333333","25.227985","6502700","金山區"
"252005","073-UM","2017/07/30 08:58:12","新北市三芝區埔坪里埔頭坑41號","121.504463333333","25.264405","6502100","三芝區"
"252007","AAC-283","2017/07/30 10:04:03","新北市三芝區埔坪里埔頭坑41號","121.50452","25.2644316666667","6502100","三芝區"
"242029","986-R7","2017/07/30 12:49:36","新北市新莊區公園一路65號","121.442358333333","25.0366983333333","6500500","新莊區"
"242048","751-BX","2017/07/30 12:49:36","新北市新莊區中正路400號","121.441866666667","25.03437","6500500","新莊區"
"242025","615-BX","2017/07/30 12:49:38","新北市新莊區新泰路401巷28-1號","121.442505","25.0441166666667","6500500","新莊區"
"242027","612-BX","2017/07/30 12:49:30","新北市新莊區新泰路255巷83號","121.442145","25.0387533333333","6500500","新莊區"
"242004","442-UM","2017/07/30 03:27:23","新北市新莊區新泰路255巷83號","121.442138333333","25.038905","6500500","新莊區"
"242051","440-UM","2017/07/30 12:49:40","新北市新莊區中正路400號","121.442008333333","25.034335","6500500","新莊區"
"242031","415-TV","2017/07/30 12:49:27","新北市新莊區新泰路500號","121.44253","25.0459316666667","6500500","新莊區"
"242001","413-TV","2017/07/30 12:49:36","新北市新莊區三和路18-21號","121.441665","25.038765","6500500","新莊區"
"242038","400-BY","2017/07/30 12:49:27","新北市新莊區新泰路357巷3弄57號","121.442216666667","25.0395516666667","6500500","新莊區"
"242059","362-BY","2017/07/30 12:49:36","新北市新莊區新泰路255巷83號","121.442425","25.0390633333333","6500500","新莊區"
"242058","353-BY","2017/07/30 12:49:32","新北市新莊區新泰路255巷83號","121.442208333333","25.0387366666667","6500500","新莊區"
"242019","135-UY","2017/07/30 12:49:29","新北市新莊區新泰路502巷56號","121.444516666667","25.0463583333333","6500500","新莊區"
"242044","172-VK","2017/07/30 12:49:35","新北市新莊區中正路585號","121.434368333333","25.0325916666667","6500500","新莊區"
"242013","175-VK","2017/07/30 12:49:29","新北市新莊區三和路12-11號","121.442313333333","25.0369116666667","6500500","新莊區"
"242011","346-TH","2017/07/30 04:55:34","新北市新莊區三和路16-3號","121.441398333333","25.0374683333333","6500500","新莊區"
"242017","348-TH","2017/07/30 12:49:29","新北市新莊區新泰路357巷3弄57號","121.442103333333","25.0396633333333","6500500","新莊區"
"242009","351-TH","2017/07/30 12:47:32","新北市新莊區新泰路357巷3弄57號","121.441816666667","25.03938","6500500","新莊區"
"239007","AAC-297","2017/07/30 12:49:29","新北市鶯歌區二甲路175號","121.345083333333","24.9357433333333","6500800","鶯歌區"
"239001","417-VK","2017/07/30 12:49:29","新北市鶯歌區二甲路12-2號","121.345645","24.93496","6500800","鶯歌區"
"239003","360-BY","2017/07/30 12:49:44","新北市鶯歌區二甲路12-2號","121.345818333333","24.9348783333333","6500800","鶯歌區"
"239002","359-BY","2017/07/28 20:28:43","新北市鶯歌區二甲路12-2號","121.345603333333","24.93471","6500800","鶯歌區"
"221002","753-BX","2017/07/30 12:49:39","新北市汐止區汐萬路一段256巷1號","121.651905","25.0748216666667","6501100","汐止區"
