"lineid","car","time","location","longitude","latitude","cityid","cityname"
"234044","148-BY","2017/07/30 13:39:35","新北市永和區秀朗路二段181巷1號","121.525955","25.0015583333333","6500400","永和區"
"234012","149-BY","2017/07/30 13:39:43","新北市永和區仁愛路213號","121.50965","25.0123816666667","6500400","永和區"
"234005","207-UY","2017/07/30 13:39:29","新北市永和區中和路539號","121.511286666667","25.00317","6500400","永和區"
"234078","298-R6","2017/07/30 13:39:42","新北市永和區環河東路三段52巷5號","121.52646","25.005995","6500400","永和區"
"234036","336-UY","2017/07/30 13:39:33","新北市永和區民樂街39巷16號","121.528266666667","25.0003183333333","6500400","永和區"
"234062","337-UY","2017/07/30 13:39:36","新北市永和區秀朗路二段24巷43號","121.520083333333","25.0018233333333","6500400","永和區"
"234084","338-UY","2017/07/30 13:39:46","新北市永和區永亨路122號","121.524398333333","25.00411","6500400","永和區"
"234068","552-UM","2017/07/30 13:39:35","新北市永和區竹林路3號","121.51631","25.014935","6500400","永和區"
"234052","553-UM","2017/07/30 13:39:43","新北市永和區竹林路39巷22號","121.518991666667","25.0147683333333","6500400","永和區"
"234015","745-BX","2017/07/30 13:39:41","新北市永和區環河西路一段51巷22號","121.514241666667","25.017635","6500400","永和區"
"234028","746-BX","2017/07/30 13:39:41","新北市永和區民生路47巷4號","121.523038333333","24.9977666666667","6500400","永和區"
"234060","AAD-866","2017/07/30 13:39:40","新北市永和區秀朗路一段185號","121.51733","25.0036","6500400","永和區"
"234040","862-TW","2017/07/30 13:39:27","新北市永和區水源街21巷1號","121.511466666667","25.00461","6500400","永和區"
"234048","863-TW","2017/07/30 13:39:27","新北市永和區文化路165號","121.510078333333","25.016425","6500400","永和區"
"234010","9373-KE","2017/07/30 13:39:34","新北市永和區仁愛路141巷30弄5號","121.51193","25.0115716666667","6500400","永和區"
"248013","025-BX","2017/07/30 13:39:42","新北市五股區民義路一段42-1號","121.436846666667","25.0839166666667","6501500","五股區"
"248015","026-BX","2017/07/30 13:39:37","新北市五股區凌雲路一段149巷5-1號","121.448915","25.101685","6501500","五股區"
"248005","077-UY","2017/07/30 13:39:36","新北市五股區中興路一段68號","121.467398333333","25.0730016666667","6501500","五股區"
"248007","095-VK","2017/07/30 13:39:40","新北市五股區中興路一段151巷32號","121.46518","25.0727033333333","6501500","五股區"
"248011","247-BX","2017/07/30 13:39:32","新北市五股區御史路90號","121.440178333333","25.09502","6501500","五股區"
"248019","261-SL","2017/07/30 13:38:35","新北市五股區凌雲路三段田埔巷35-1號","121.439905","25.122425","6501500","五股區"
"248009","272-BY","2017/07/30 13:39:25","新北市五股區水碓一路7號","121.432181666667","25.0727733333333","6501500","五股區"
"248003","655-BX","2017/07/30 13:39:43","新北市五股區民義路一段310-1號","121.424488333333","25.0938066666667","6501500","五股區"
"248001","678-BX","2017/07/30 13:39:37","新北市五股區西雲路221號","121.448783333333","25.096965","6501500","五股區"
"234022","9380-KE","2017/07/30 13:39:46","新北市永和區中正路702巷20弄1號","121.516481666667","25.0106133333333","6500400","永和區"
"234076","969-R7","2017/07/30 13:39:35","新北市永和區中正路340號","121.517925","24.9999333333333","6500400","永和區"
"234072","AAC-211","2017/07/30 13:39:42","新北市永和區竹林路217號","121.52078","25.0087416666667","6500400","永和區"
"234066","AAC-212","2017/07/30 13:39:40","新北市永和區中山路一段199號","121.509115","25.0086066666667","6500400","永和區"
"234001","AAC-295","2017/07/30 13:39:33","新北市永和區福和路352號","121.514883333333","25.0074166666667","6500400","永和區"
"243002","267-VK","2017/07/30 13:39:44","新北市泰山區泰林路二段559號","121.42271","25.06358","6501600","泰山區"
"243013","AAD-798","2017/07/30 13:39:30","新北市泰山區明志路三段206巷8號","121.423368333333","25.0380116666667","6501600","泰山區"
"243007","380-SR","2017/07/30 13:30:26","新北市泰山區犁頭窠3-1號","121.422461666667","25.0604366666667","6501600","泰山區"
"243004","646-TV","2017/07/30 13:39:31","新北市泰山區明志路一段208號","121.432725","25.0618","6501600","泰山區"
"243008","680-BX","2017/07/30 13:39:28","新北市泰山區泰林路二段558號","121.42301","25.063685","6501600","泰山區"
"222002","659-BX","2017/07/30 13:39:26","新北市深坑區文化街52號","121.618925","25.0015866666667","6501800","深坑區"
"231030","047-UY","2017/07/30 13:39:25","新北市新店區中正路542-3號","121.533663333333","24.9847216666667","6500600","新店區"
"235030","003-UY","2017/07/30 13:39:41","新北市中和區水源路43號","121.5047","25.0035866666667","6500300","中和區"
"235028","005-UY","2017/07/30 13:39:33","新北市中和區連城路139巷11號","121.496146666667","24.9984366666667","6500300","中和區"
"235027","006-UY","2017/07/30 13:39:45","新北市中和區連城路389巷14號","121.486525","24.9953483333333","6500300","中和區"
"235020","096-UM","2017/07/30 13:39:32","新北市中和區員山路466巷23號","121.48105","25.0065766666667","6500300","中和區"
"235003","097-UM","2017/07/30 13:39:39","新北市中和區景平路278巷16弄2號","121.514085","24.9933716666667","6500300","中和區"
"235029","098-UM","2017/07/30 13:39:38","新北市中和區莊敬路33巷36弄12號","121.500486666667","25.0063816666667","6500300","中和區"
"235004","150-BY","2017/07/30 13:39:28","新北市中和區安平路59號","121.509548333333","24.9951633333333","6500300","中和區"
"235022","151-BY","2017/07/30 13:39:42","新北市中和區連城路532巷12號","121.475081666667","24.9926666666667","6500300","中和區"
"235019","183-VK","2017/07/30 13:39:36","新北市中和區國光街102巷25號","121.471208333333","25.00072","6500300","中和區"
"235002","185-VK","2017/07/30 13:39:36","新北市中和區立人街33-3號","121.521035","24.9941416666667","6500300","中和區"
"235013","186-VK","2017/07/30 13:39:42","新北市中和區景安路120巷10號","121.504913333333","24.9948016666667","6500300","中和區"
"235031","255-BX","2017/07/30 13:39:40","新北市中和區新生街251號","121.4839","24.9985916666667","6500300","中和區"
"235008","293-VK","2017/07/30 13:39:28","新北市中和區復興路301巷2弄2號","121.501411666667","24.9899733333333","6500300","中和區"
"235007","352-BY","2017/07/30 13:39:36","新北市中和區景平路155號","121.513528333333","24.9923233333333","6500300","中和區"
"235015","376-QA","2017/07/30 13:39:44","新北市中和區華新街143巷106弄30號","121.50611","24.9787116666667","6500300","中和區"
"235032","377-QA","2017/07/30 13:39:28","新北市中和區中正路211巷13弄1號","121.497128333333","24.9929466666667","6500300","中和區"
"235025","378-QA","2017/07/30 13:39:40","新北市中和區民享街92巷19號","121.473988333333","24.9996466666667","6500300","中和區"
"235014","4979-A6","2017/07/30 13:31:57","新北市中和區景新街418巷33號","121.512365","24.988325","6500300","中和區"
"235033","4980-A6","2017/07/30 13:39:29","新北市中和區泰和街2號","121.500128333333","25.0012933333333","6500300","中和區"
"235006","551-UM","2017/07/30 13:39:47","新北市中和區秀朗路三段98號","121.525596666667","24.9934","6500300","中和區"
"235034","558-UM","2017/07/30 13:39:32","新北市中和區景新街152號","121.505266666667","24.9974433333333","6500300","中和區"
"235009","565-BX","2017/07/30 13:39:42","新北市中和區復興路1號","121.506351666667","24.9896233333333","6500300","中和區"
"235018","640-BX","2017/07/30 13:39:38","新北市中和區民享街93巷3號","121.47509","25.0006116666667","6500300","中和區"
"235024","647-TV","2017/07/30 13:39:31","新北市中和區員山路425號","121.480933333333","25.00349","6500300","中和區"
"235011","732-UM","2017/07/30 13:39:46","新北市中和區南山路320巷10弄11號","121.506831666667","24.98667","6500300","中和區"
"235010","733-UM","2017/07/30 13:39:25","新北市中和區仁愛街95號","121.511796666667","24.9868283333333","6500300","中和區"
"235035","783-BX","2017/07/30 13:39:38","新北市中和區員山路36巷16-3號","121.485116666667","24.9912516666667","6500300","中和區"
"235026","800-TS","2017/07/30 13:39:32","新北市中和區中山路二段284號","121.496313333333","25.0025466666667","6500300","中和區"
"235021","801-TS","2017/07/30 13:39:27","新北市中和區民安街4號","121.480873333333","25.0011466666667","6500300","中和區"
"235005","802-TS","2017/07/30 13:39:41","新北市中和區永貞路249巷11號","121.512593333333","25.0035433333333","6500300","中和區"
"235016","805-TS","2017/07/30 13:39:37","新北市中和區興南路三段52巷1號","121.493485","24.97623","6500300","中和區"
"235017","900-TW","2017/07/30 13:39:34","新北市中和區華安街16-1號","121.466073333333","24.9981966666667","6500300","中和區"
"235001","AAC-213","2017/07/30 13:39:39","新北市中和區景德街129號","121.514853333333","24.9910383333333","6500300","中和區"
"220016","013-TV","2017/07/30 13:39:28","新北市板橋區民生路二段36-1號","121.472628333333","25.0166916666667","6500100","板橋區"
"220034","073-UY","2017/07/30 13:39:30","新北市板橋區南雅西路二段192巷4-2號","121.452","25.01436","6500100","板橋區"
"220017","AAD-861","2017/07/30 13:39:40","新北市板橋區中山路二段89巷5弄12號","121.47277","25.0168183333333","6500100","板橋區"
"247001","402-BY","2017/07/30 13:39:41","新北市蘆洲區重陽街95號","121.482501666667","25.08539","6501400","蘆洲區"
"224006","676-BX","2017/07/30 13:39:26","新北市瑞芳區傑魚坑路264號","121.788978333333","25.1089166666667","6501200","瑞芳區"
"224008","275-VK","2017/07/30 13:39:26","新北市瑞芳區侯硐路204號","121.83044","25.0881966666667","6501200","瑞芳區"
"224007","273-VK","2017/07/30 13:39:43","新北市瑞芳區中央路48巷50號","121.760456666667","25.1034933333333","6501200","瑞芳區"
"224005","271-BY","2017/07/30 13:39:37","新北市瑞芳區南雅路19-1號","121.88819","25.120305","6501200","瑞芳區"
"208004","742-BX","2017/07/30 13:39:27","新北市金山區山城路29號","121.598291666667","25.2019283333333","6502700","金山區"
"252005","073-UM","2017/07/30 08:58:12","新北市三芝區埔坪里埔頭坑41號","121.504463333333","25.264405","6502100","三芝區"
"252004","249-BX","2017/07/30 13:39:32","新北市三芝區福德里埔尾9號","121.502606666667","25.2445","6502100","三芝區"
"252007","AAC-283","2017/07/30 13:39:33","新北市三芝區八賢里八連溪5號","121.509861666667","25.245605","6502100","三芝區"
"236035","271-VK","2017/07/30 13:39:41","新北市土城區城林路6巷80號","121.438353333333","24.9798116666667","6501300","土城區"
"242021","AAC-296","2017/07/30 13:39:28","新北市新莊區中華路一段50號","121.452055","25.0381166666667","6500500","新莊區"
"242029","986-R7","2017/07/30 13:39:36","新北市新莊區復興路一段31號","121.446401666667","25.0418533333333","6500500","新莊區"
"242048","751-BX","2017/07/30 13:39:36","新北市新莊區四維路210號","121.421446666667","25.0200833333333","6500500","新莊區"
"242025","615-BX","2017/07/30 13:39:38","新北市新莊區五權一路120號","121.460165","25.0682466666667","6500500","新莊區"
"242023","613-BX","2017/07/30 13:39:39","新北市新莊區福壽街67號","121.458185","25.0493583333333","6500500","新莊區"
"242027","612-BX","2017/07/30 13:39:30","新北市新莊區福壽街146號","121.457905","25.0521533333333","6500500","新莊區"
"242035","566-BX","2017/07/30 13:39:38","新北市新莊區建福路15號","121.42613","25.0293083333333","6500500","新莊區"
"242004","442-UM","2017/07/30 13:39:32","新北市新莊區思源路177巷19號","121.45924","25.0463316666667","6500500","新莊區"
"242045","441-UM","2017/07/30 13:39:40","新北市新莊區民安路31號","121.423123333333","25.027535","6500500","新莊區"
"242051","440-UM","2017/07/30 13:39:40","新北市新莊區西盛街153巷3號","121.428551666667","25.0182083333333","6500500","新莊區"
"242031","415-TV","2017/07/30 13:39:40","新北市新莊區新泰路295號","121.445478333333","25.0408066666667","6500500","新莊區"
"242002","413-TV","2017/07/30 13:39:36","新北市新莊區中正路100號","121.45468","25.036575","6500500","新莊區"
"242039","400-BY","2017/07/30 13:39:27","新北市新莊區民安西路88巷12弄19號","121.425968333333","25.0204466666667","6500500","新莊區"
"242061","362-BY","2017/07/30 13:39:16","新北市新莊區新樹路577號","121.4329","25.0069716666667","6500500","新莊區"
"242058","353-BY","2017/07/30 13:39:32","新北市新莊區雙鳳路134巷4號","121.412866666667","25.0280233333333","6500500","新莊區"
"242042","132-UY","2017/07/30 13:39:37","新北市新莊區天祥街123號","121.414403333333","25.029675","6500500","新莊區"
"242033","133-UY","2017/07/30 13:39:41","新北市新莊區景德路642號","121.44096","25.0328633333333","6500500","新莊區"
"242019","135-UY","2017/07/30 13:39:29","新北市新莊區長青街2號","121.457883333333","25.0426683333333","6500500","新莊區"
"242044","172-VK","2017/07/30 13:39:34","新北市新莊區雙鳳路111號","121.41388","25.0280683333333","6500500","新莊區"
"242006","173-VK","2017/07/30 13:39:36","新北市新莊區福樂街132巷1號","121.456608333333","25.0482116666667","6500500","新莊區"
"242013","175-VK","2017/07/30 13:39:47","新北市新莊區中誠街139號","121.448978333333","25.0474983333333","6500500","新莊區"
"242055","176-VK","2017/07/30 13:39:29","新北市新莊區豐年街124巷9號","121.445888333333","25.0297266666667","6500500","新莊區"
"242011","346-TH","2017/07/30 13:39:31","新北市新莊區中港路679號","121.450693333333","25.0562783333333","6500500","新莊區"
"242017","348-TH","2017/07/30 13:39:29","新北市新莊區永安街153號","121.449208333333","25.044365","6500500","新莊區"
"242053","349-TH","2017/07/30 13:39:35","新北市新莊區光華街23號","121.428916666667","25.01094","6500500","新莊區"
"242015","350-TH","2017/07/30 13:39:34","新北市新莊區中平路117號","121.444581666667","25.0466333333333","6500500","新莊區"
"242009","351-TH","2017/07/30 13:38:12","新北市新莊區昌平街51巷4號","121.454386666667","25.0528616666667","6500500","新莊區"
"238015","755-BX","2017/07/30 13:39:37","新北市樹林區啟智街26號","121.420895","24.99346","6500700","樹林區"
"238010","601-UM","2017/07/30 13:39:41","新北市樹林區三福街28號","121.408385","25.0166366666667","6500700","樹林區"
"238006","599-UM","2017/07/30 13:39:33","新北市樹林區太平路127巷10號","121.419768333333","24.980595","6500700","樹林區"
"238018","571-TV","2017/07/30 13:39:29","新北市樹林區鎮前街157號","121.42387","24.9888833333333","6500700","樹林區"
"238011","5061-A6","2017/07/30 13:39:43","新北市樹林區樹新路13號","121.426608333333","24.99393","6500700","樹林區"
"238008","311-TH","2017/07/30 13:39:40","新北市樹林區西圳街一段203巷35號","121.395021666667","24.95774","6500700","樹林區"
"238009","308-TH","2017/07/30 13:39:27","新北市樹林區仁愛街37號","121.422198333333","24.9820183333333","6500700","樹林區"
"238012","303-VK","2017/07/30 13:39:39","新北市樹林區保安街二段193號","121.414335","25.0036333333333","6500700","樹林區"
"238004","283-BY","2017/07/30 13:39:29","新北市樹林區中正路234巷17號","121.418615","25.0075116666667","6500700","樹林區"
"238020","268-VK","2017/07/30 01:40:00","新北市樹林區中山路三段204號","121.386701666667","24.9682","6500700","樹林區"
"238026","172-UY","2017/07/30 13:39:39","新北市樹林區新興街19巷34弄24號","121.402163333333","24.9726883333333","6500700","樹林區"
"238003","169-UY","2017/07/30 13:38:59","新北市樹林區日新街6號","121.423575","24.993165","6500700","樹林區"
"239007","AAC-297","2017/07/30 13:39:28","新北市鶯歌區鶯桃路182巷26號","121.337491666667","24.9562533333333","6500800","鶯歌區"
"239006","891-R6","2017/07/30 13:39:37","新北市鶯歌區永和街115巷34號","121.333246666667","24.969255","6500800","鶯歌區"
"239008","527-UM","2017/07/30 13:39:33","新北市鶯歌區國際一路62號","121.335335","24.9781033333333","6500800","鶯歌區"
"239005","526-UM","2017/07/30 13:39:33","新北市鶯歌區鳳吉四街29號","121.32698","24.9728583333333","6500800","鶯歌區"
"239001","417-VK","2017/07/30 13:39:29","新北市鶯歌區中正三路280號","121.3291","24.93613","6500800","鶯歌區"
"239003","360-BY","2017/07/30 13:39:24","新北市鶯歌區鶯桃路270號","121.335498333333","24.95999","6500800","鶯歌區"
"239002","359-BY","2017/07/30 13:39:44","新北市鶯歌區育德街1號","121.345046666667","24.9550766666667","6500800","鶯歌區"
"239004","193-VK","2017/07/30 13:39:39","新北市鶯歌區文化路206號","121.352751666667","24.949575","6500800","鶯歌區"
"220027","145-BY","2017/07/30 13:39:41","新北市板橋區府中路1號","121.460198333333","25.0094533333333","6500100","板橋區"
"220028","200-UY","2017/07/30 13:39:38","新北市板橋區華東街1-8號","121.447878333333","24.9948566666667","6500100","板橋區"
"220030","610-BX","2017/07/30 13:39:29","新北市板橋區華東街1-10號","121.448251666667","24.995045","6500100","板橋區"
"220004","276-BY","2017/07/30 13:39:36","新北市土城區德興街121號","121.454623333333","24.9920716666667","6500100","板橋區"
"220020","277-BY","2017/07/30 13:39:41","新北市板橋區板城路407號","121.447116666667","24.9950783333333","6500100","板橋區"
"220043","283-UM","2017/07/30 13:39:36","新北市板橋區民生路二段161巷1號","121.470165","25.0201283333333","6500100","板橋區"
"220019","283-VK","2017/07/30 13:39:33","新北市板橋區民生路二段36-1號","121.472658333333","25.016675","6500100","板橋區"
"220001","285-VK","2017/07/30 13:39:32","新北市板橋區民生路二段56-1號","121.472521666667","25.0170366666667","6500100","板橋區"
"220031","286-VK","2017/07/30 13:39:33","新北市板橋區華東街1-9號","121.448233333333","24.9948716666667","6500100","板橋區"
"220029","287-VK","2017/07/30 13:39:36","新北市板橋區華東街1-9號","121.44819","24.9949966666667","6500100","板橋區"
"220039","288-VK","2017/07/30 13:39:34","新北市板橋區民生路二段120號","121.47049","25.0194583333333","6500100","板橋區"
"220009","295-UM","2017/07/30 13:39:45","新北市板橋區民生路二段36-1號","121.472566666667","25.0165983333333","6500100","板橋區"
"220032","296-UM","2017/07/30 13:39:28","新北市板橋區華東街1-9號","121.448141666667","24.9949266666667","6500100","板橋區"
"220023","297-UM","2017/07/30 13:39:44","新北市板橋區華東街1-8號","121.447825","24.994795","6500100","板橋區"
"220010","303-R5","2017/07/30 13:39:39","新北市板橋區民生路二段15-1號","121.472703333333","25.0163916666667","6500100","板橋區"
"220012","486-VK","2017/07/30 03:00:30","新北市板橋區民生路二段36-1號","121.472405","25.01666","6500100","板橋區"
"220035","560-BX","2017/07/30 13:39:41","新北市板橋區南雅南路二段116號","121.452426666667","25.000605","6500100","板橋區"
"220011","609-BX","2017/07/30 13:39:42","新北市板橋區民生路二段22號","121.472823333333","25.01657","6500100","板橋區"
"220005","686-BX","2017/07/30 13:39:42","新北市板橋區民生路二段56-2號","121.472331666667","25.0171783333333","6500100","板橋區"
"220025","687-BX","2017/07/30 13:39:37","新北市板橋區篤行路二段58號","121.43165","24.9924183333333","6500100","板橋區"
"220002","741-BX","2017/07/30 13:39:43","新北市板橋區民生路二段36-1號","121.472646666667","25.01658","6500100","板橋區"
"220014","829-TW","2017/07/30 13:39:41","新北市板橋區民生路二段22號","121.472746666667","25.01653","6500100","板橋區"
"220022","895-R6","2017/07/30 13:39:40","新北市板橋區南門街14號","121.45726","25.0088733333333","6500100","板橋區"
"220021","985-R7","2017/07/30 13:39:37","新北市板橋區華東街1-10號","121.448316666667","24.9950283333333","6500100","板橋區"
"220046","AAC-210","2017/07/30 13:39:44","新北市板橋區民生路二段120號","121.470365","25.0197183333333","6500100","板橋區"
"220018","AAC-253","2017/07/30 13:39:45","新北市板橋區民生路二段36-1號","121.472431666667","25.01692","6500100","板橋區"
