"lineid","car","time","location","longitude","latitude","cityid","cityname"
"234044","148-BY","2017/07/30 14:09:35","新北市永和區林森路75號","121.523991666667","25.004","6500400","永和區"
"234012","149-BY","2017/07/30 14:09:23","新北市永和區永貞路387號","121.50812","25.0086416666667","6500400","永和區"
"234005","207-UY","2017/07/30 14:09:27","新北市永和區安樂路166號","121.514585","25.0009016666667","6500400","永和區"
"234078","298-R6","2017/07/30 14:09:41","新北市永和區國中路109巷1弄2號","121.52398","25.0058333333333","6500400","永和區"
"234036","336-UY","2017/07/30 14:09:33","新北市永和區成功路一段47巷5號","121.527415","25.0041266666667","6500400","永和區"
"234062","337-UY","2017/07/30 14:09:36","新北市永和區永利路96號","121.520821666667","25.0036183333333","6500400","永和區"
"234084","338-UY","2017/07/30 14:09:26","新北市永和區中正路555號","121.51675","25.0083266666667","6500400","永和區"
"234068","552-UM","2017/07/30 14:09:35","新北市永和區永安街14號","121.519036666667","25.0062183333333","6500400","永和區"
"234052","553-UM","2017/07/30 14:09:23","新北市永和區博愛街31巷4號","121.5185","25.0159566666667","6500400","永和區"
"234015","745-BX","2017/07/30 14:09:41","新北市永和區永和路二段207號","121.5155","25.0138066666667","6500400","永和區"
"234028","746-BX","2017/07/30 14:09:41","新北市永和區民權路49巷35號","121.521943333333","24.9975883333333","6500400","永和區"
"234060","AAD-866","2017/07/30 14:09:40","新北市永和區安樂路72巷4號","121.514958333333","24.9984966666667","6500400","永和區"
"234040","862-TW","2017/07/30 14:09:27","新北市永和區雙和街16巷20號","121.509901666667","25.0028","6500400","永和區"
"234048","863-TW","2017/07/30 14:09:27","新北市永和區新生路138巷3弄4號","121.506366666667","25.0144866666667","6500400","永和區"
"234025","9371-KE","2017/07/30 14:09:33","新北市永和區安樂路270號","121.514491666667","25.0040633333333","6500400","永和區"
"234010","9373-KE","2017/07/30 14:09:34","新北市永和區仁愛路302號","121.503566666667","25.00799","6500400","永和區"
"248015","026-BX","2017/07/30 14:09:16","新北市五股區成泰路三段543巷36弄6號","121.450775","25.10286","6501500","五股區"
"248011","247-BX","2017/07/30 14:09:25","新北市五股區中興路四段48巷19號","121.438661666667","25.0837166666667","6501500","五股區"
"248019","261-SL","2017/07/30 14:09:34","新北市五股區凌雲路三段59-2號","121.425181666667","25.125035","6501500","五股區"
"248009","272-BY","2017/07/30 14:09:25","新北市五股區水碓一路23號","121.430538333333","25.0712533333333","6501500","五股區"
"248003","655-BX","2017/07/30 14:09:43","新北市五股區民義路一段185-4號","121.431666666667","25.088405","6501500","五股區"
"248001","678-BX","2017/07/30 14:09:37","新北市五股區成泰路三段577巷120號","121.448615","25.1041316666667","6501500","五股區"
"234022","9380-KE","2017/07/30 14:09:26","新北市永和區光復街2巷16弄40號","121.518286666667","25.016285","6500400","永和區"
"234076","969-R7","2017/07/30 14:09:35","新北市永和區民族街67巷16號","121.519333333333","24.99705","6500400","永和區"
"234072","AAC-211","2017/07/30 14:09:29","新北市永和區竹林路201巷24弄1號","121.522373333333","25.0096716666667","6500400","永和區"
"234066","AAC-212","2017/07/30 14:09:40","新北市永和區永貞路313號","121.51008","25.0065166666667","6500400","永和區"
"234001","AAC-295","2017/07/30 14:09:33","新北市永和區中正路613號","121.516248333333","25.009725","6500400","永和區"
"243002","267-VK","2017/07/30 14:09:24","新北市泰山區明志路一段483巷1弄1號","121.431091666667","25.0554266666667","6501600","泰山區"
"243013","AAD-798","2017/07/30 14:09:30","新北市泰山區漢口街22巷4弄2號","121.423638333333","25.035955","6501600","泰山區"
"243001","297-R6","2017/07/30 14:09:41","新北市泰山區文化街42號","121.435188333333","25.0635333333333","6501600","泰山區"
"243007","380-SR","2017/07/30 14:09:26","新北市泰山區明志路一段431號","121.430835","25.0566633333333","6501600","泰山區"
"243006","421-VK","2017/07/30 14:09:30","新北市泰山區泰林路二段370號","121.428396666667","25.063815","6501600","泰山區"
"243003","549-UM","2017/07/30 14:09:32","新北市泰山區明志路二段322號","121.426273333333","25.0458933333333","6501600","泰山區"
"243004","646-TV","2017/07/30 14:09:31","新北市泰山區吳厝窠1號","121.427968333333","25.0585833333333","6501600","泰山區"
"243008","680-BX","2017/07/30 14:09:28","新北市泰山區明志路二段367號","121.425425","25.043995","6501600","泰山區"
"222002","659-BX","2017/07/30 14:09:26","新北市深坑區雲鄉路152號","121.623153333333","24.9979216666667","6501800","深坑區"
"231030","047-UY","2017/07/30 14:09:25","新北市新店區中正路397號","121.534461666667","24.9772616666667","6500600","新店區"
"235030","003-UY","2017/07/30 14:09:41","新北市中和區廣福路20號","121.505125","25.00249","6500300","中和區"
"235028","005-UY","2017/07/30 14:09:33","新北市中和區泰和街30巷13號","121.499158333333","25.0008033333333","6500300","中和區"
"235027","006-UY","2017/07/30 14:09:45","新北市中和區連城路249巷17弄1號","121.493755","24.99654","6500300","中和區"
"235020","096-UM","2017/07/30 14:09:32","新北市中和區中山路二段568巷4號","121.482791666667","25.0056683333333","6500300","中和區"
"235003","097-UM","2017/07/30 14:09:38","新北市中和區景平路3號","121.52368","24.9902583333333","6500300","中和區"
"235029","098-UM","2017/07/30 14:09:38","新北市中和區中山路二段136巷18號","121.501611666667","25.004015","6500300","中和區"
"235004","150-BY","2017/07/30 14:09:28","新北市中和區景安路79巷39號","121.507373333333","24.9961483333333","6500300","中和區"
"235022","151-BY","2017/07/30 14:09:42","新北市中和區員山路36巷16-2號","121.485366666667","24.9915483333333","6500300","中和區"
"235019","183-VK","2017/07/30 14:09:36","新北市中和區德光路102號","121.468486666667","25.0034116666667","6500300","中和區"
"235002","185-VK","2017/07/30 14:09:35","新北市中和區立人街24-5號","121.51888","24.99417","6500300","中和區"
"235013","186-VK","2017/07/30 14:09:42","新北市中和區景新街205-15號","121.50727","24.995065","6500300","中和區"
"235031","255-BX","2017/07/30 14:09:41","新北市中和區新生街264號","121.483701666667","24.9971833333333","6500300","中和區"
"235008","293-VK","2017/07/30 14:09:28","新北市中和區中興街161巷2弄2號","121.500146666667","24.9908766666667","6500300","中和區"
"235007","352-BY","2017/07/30 14:09:36","新北市中和區成功路9號","121.526351666667","24.99396","6500300","中和區"
"235015","376-QA","2017/07/30 14:09:44","新北市中和區忠孝街19巷58號","121.5094","24.985575","6500300","中和區"
"235032","377-QA","2017/07/30 14:09:34","新北市中和區景平路545巷1弄10號","121.498548333333","24.9989166666667","6500300","中和區"
"235025","378-QA","2017/07/30 14:09:40","新北市中和區中山路三段63巷2號","121.476826666667","25.00503","6500300","中和區"
"235014","4979-A6","2017/07/30 14:09:37","新北市中和區復興路249巷11弄3號","121.503496666667","24.989685","6500300","中和區"
"235033","4980-A6","2017/07/30 14:09:29","新北市中和區福美路269號","121.498121666667","25.00501","6500300","中和區"
"235006","551-UM","2017/07/30 14:09:27","新北市中和區安樂路185號","121.515018333333","24.9980083333333","6500300","中和區"
"235034","558-UM","2017/07/30 14:09:32","新北市中和區中和路212號","121.506023333333","24.9995183333333","6500300","中和區"
"235009","565-BX","2017/07/30 14:09:38","新北市中和區景新街467巷38弄6號","121.514811666667","24.98864","6500300","中和區"
"235018","640-BX","2017/07/30 14:09:38","新北市中和區民享街86巷2號","121.474335","25.0009516666667","6500300","中和區"
"235024","647-TV","2017/07/30 14:09:31","新北市中和區中山路三段132號","121.474018333333","25.0062283333333","6500300","中和區"
"235011","732-UM","2017/07/30 14:09:27","新北市中和區興南路一段45號","121.510971666667","24.990405","6500300","中和區"
"235010","733-UM","2017/07/30 14:09:25","新北市中和區忠孝街1巷68號","121.508321666667","24.98455","6500300","中和區"
"235035","783-BX","2017/07/30 14:09:38","新北市中和區永和路504號","121.482881666667","25.0121766666667","6500300","中和區"
"235026","800-TS","2017/07/30 14:09:32","新北市中和區中山路二段380-1號","121.491188333333","25.0035233333333","6500300","中和區"
"235021","801-TS","2017/07/30 14:09:27","新北市中和區民利街53號","121.479385","24.9987716666667","6500300","中和區"
"235005","802-TS","2017/07/30 14:09:41","新北市中和區中安街192號","121.511376666667","24.9991766666667","6500300","中和區"
"235016","805-TS","2017/07/30 14:09:37","新北市中和區興南路二段114巷19號","121.503858333333","24.98442","6500300","中和區"
"235012","896-TW","2017/07/30 14:09:39","新北市中和區華新街143巷71弄13號","121.508331666667","24.97881","6500300","中和區"
"235017","900-TW","2017/07/30 14:09:34","新北市板橋區五權街1號","121.46395","24.9950466666667","6500300","中和區"
"235001","AAC-213","2017/07/30 14:09:39","新北市中和區自立路99巷13號","121.52271","24.9947316666667","6500300","中和區"
"235023","AAC-215","2017/07/30 14:09:46","新北市中和區圓通路294巷11弄11號","121.488086666667","24.98992","6500300","中和區"
"220016","013-TV","2017/07/30 14:09:42","新北市板橋區翠華街6巷22號","121.481178333333","25.0242583333333","6500100","板橋區"
"220013","072-UY","2017/07/30 14:09:39","新北市板橋區民族路219巷1號","121.469471666667","25.0075933333333","6500100","板橋區"
"220034","073-UY","2017/07/30 14:09:30","新北市板橋區中正路236巷50號","121.457435","25.0192866666667","6500100","板橋區"
"220105","075-UY","2017/07/30 14:09:41","新北市板橋區雙十路三段9號","121.471676666667","25.030325","6500100","板橋區"
"220017","AAD-861","2017/07/30 14:09:40","新北市板橋區南雅南路一段1巷42號","121.457525","25.0063316666667","6500100","板橋區"
"247001","402-BY","2017/07/30 14:09:41","新北市蘆洲區民族路461號","121.4671","25.088485","6501400","蘆洲區"
"247001","336-TH","2017/07/30 14:09:40","新北市蘆洲區永平街32巷70號","121.460476666667","25.0934466666667","6501400","蘆洲區"
"224006","676-BX","2017/07/30 14:09:46","新北市瑞芳區明燈路三段55號","121.806053333333","25.1081333333333","6501200","瑞芳區"
"224008","275-VK","2017/07/30 14:09:26","新北市瑞芳區明燈路一段45巷73號","121.821846666667","25.1048016666667","6501200","瑞芳區"
"224007","273-VK","2017/07/30 14:09:34","新北市瑞芳區四腳亭埔路16號","121.777993333333","25.1023533333333","6501200","瑞芳區"
"224005","271-BY","2017/07/30 14:09:37","新北市瑞芳區海濱路55號","121.831181666667","25.1235933333333","6501200","瑞芳區"
"208004","742-BX","2017/07/30 14:09:28","新北市金山區六股里下六股65號","121.61441","25.2236533333333","6502700","金山區"
"252005","073-UM","2017/07/30 08:58:12","新北市三芝區埔坪里埔頭坑41號","121.504463333333","25.264405","6502100","三芝區"
"252004","249-BX","2017/07/30 14:09:31","新北市三芝區福德里埔尾2-1號","121.501773333333","25.2479816666667","6502100","三芝區"
"252007","AAC-283","2017/07/30 14:09:33","新北市三芝區中山路二段50號","121.503338333333","25.254045","6502100","三芝區"
"236075","166-UM","2017/07/30 14:09:38","新北市土城區永寧路25號","121.430545","24.9635933333333","6501300","土城區"
"236035","271-VK","2017/07/30 14:09:41","新北市土城區青雲路322巷2弄4號","121.458236666667","24.9772516666667","6501300","土城區"
"236017","401-BY","2017/07/30 14:09:33","新北市土城區員福街38號","121.440716666667","24.9789966666667","6501300","土城區"
"242021","AAC-296","2017/07/30 14:09:27","新北市新莊區新興街1號","121.450681666667","25.0361483333333","6500500","新莊區"
"242029","986-R7","2017/07/30 14:09:45","新北市新莊區中平路200-2號","121.444725","25.0486016666667","6500500","新莊區"
"242048","751-BX","2017/07/30 14:09:36","新北市新莊區萬安街47巷28號","121.422785","25.0241433333333","6500500","新莊區"
"242025","615-BX","2017/07/30 14:09:38","新北市新莊區五工三路78巷12號","121.459365","25.0654233333333","6500500","新莊區"
"242023","613-BX","2017/07/30 14:09:39","新北市新莊區化成路728號","121.46562","25.05717","6500500","新莊區"
"242027","612-BX","2017/07/30 14:09:30","新北市新莊區中平路294號","121.444933333333","25.0515583333333","6500500","新莊區"
"242035","566-BX","2017/07/30 14:09:38","新北市新莊區建安街85號","121.427343333333","25.0246","6500500","新莊區"
"242004","442-UM","2017/07/30 14:09:32","新北市新莊區復興路三段46號","121.461593333333","25.0444916666667","6500500","新莊區"
"242045","441-UM","2017/07/30 14:09:40","新北市新莊區裕民街85巷11號","121.419141666667","25.0234483333333","6500500","新莊區"
"242051","440-UM","2017/07/30 14:09:40","新北市新莊區民安西路194號","121.425878333333","25.0154183333333","6500500","新莊區"
"242031","415-TV","2017/07/30 14:09:47","新北市新莊區新泰路277巷11號","121.445248333333","25.0402883333333","6500500","新莊區"
"242002","413-TV","2017/07/30 14:09:36","新北市新莊區新泰路69號","121.449431666667","25.0343433333333","6500500","新莊區"
"242039","400-BY","2017/07/30 14:09:27","新北市新莊區民安西路87號","121.42704","25.0191816666667","6500500","新莊區"
"242061","362-BY","2017/07/30 14:09:36","新北市新莊區民安路186號","121.4253","25.023555","6500500","新莊區"
"242058","353-BY","2017/07/30 14:09:39","新北市新莊區中正路879-5號","121.417751666667","25.0262416666667","6500500","新莊區"
"242042","132-UY","2017/07/30 14:09:37","新北市新莊區青山路一段50號","121.410036666667","25.0277933333333","6500500","新莊區"
"242033","133-UY","2017/07/30 14:09:37","新北市新莊區中正路403號","121.445176666667","25.0344","6500500","新莊區"
"242019","135-UY","2017/07/30 14:09:29","新北市新莊區中港路194號","121.455228333333","25.042605","6500500","新莊區"
"242044","172-VK","2017/07/30 14:09:35","新北市新莊區雙鳳路134巷34號","121.412171666667","25.02849","6500500","新莊區"
"242006","173-VK","2017/07/30 14:08:56","新北市新莊區思源路593巷6弄17號","121.458165","25.05999","6500500","新莊區"
"242013","175-VK","2017/07/30 14:09:29","新北市新莊區中泰街106號","121.448833333333","25.046705","6500500","新莊區"
"242055","176-VK","2017/07/30 14:09:29","新北市新莊區瓊泰路63巷21弄9號","121.442671666667","25.0284533333333","6500500","新莊區"
"242011","346-TH","2017/07/30 14:09:31","新北市新莊區中港路605巷7號","121.450928333333","25.0529333333333","6500500","新莊區"
"242017","348-TH","2017/07/30 14:09:43","新北市新莊區中華路二段3巷11號","121.453346666667","25.0457316666667","6500500","新莊區"
"242053","349-TH","2017/07/30 14:09:35","新北市樹林區樹新路207號","121.429803333333","24.9980816666667","6500500","新莊區"
"242015","350-TH","2017/07/30 14:09:34","新北市新莊區中和街112號","121.447538333333","25.0473916666667","6500500","新莊區"
"242009","351-TH","2017/07/30 14:08:56","新北市新莊區昌隆街32號","121.45421","25.0507833333333","6500500","新莊區"
"238015","755-BX","2017/07/30 14:09:37","新北市樹林區文德街3巷41號","121.417955","24.991765","6500700","樹林區"
"238010","601-UM","2017/07/30 14:09:41","新北市樹林區工興街14巷1號","121.398903333333","25.013645","6500700","樹林區"
"238006","599-UM","2017/07/30 14:09:33","新北市樹林區水源街32巷11號","121.425171666667","24.9811933333333","6500700","樹林區"
"238018","571-TV","2017/07/30 14:09:29","新北市樹林區保安街一段20巷40號","121.428438333333","24.9948966666667","6500700","樹林區"
"238011","5061-A6","2017/07/30 14:09:43","新北市樹林區育英街2巷11號","121.423048333333","24.9894616666667","6500700","樹林區"
"238008","311-TH","2017/07/30 14:09:40","新北市樹林區柑園街一段68號","121.402203333333","24.9602933333333","6500700","樹林區"
"238009","308-TH","2017/07/30 14:09:27","新北市樹林區太順街61號","121.41733","24.9786983333333","6500700","樹林區"
"238012","303-VK","2017/07/30 14:09:39","新北市樹林區保安街一段350號","121.417788333333","24.9982066666667","6500700","樹林區"
"238004","283-BY","2017/07/30 14:09:29","新北市樹林區中正路651號","121.41252","25.0126583333333","6500700","樹林區"
"238001","282-BY","2017/07/30 14:09:31","新北市樹林區千歲街61巷40弄5號","121.425825","24.9988566666667","6500700","樹林區"
"238020","268-VK","2017/07/30 01:40:00","新北市樹林區中山路三段204號","121.386701666667","24.9682","6500700","樹林區"
"238026","172-UY","2017/07/30 14:09:39","新北市樹林區育德街18號","121.390586666667","24.9700016666667","6500700","樹林區"
"238003","169-UY","2017/07/30 14:09:39","新北市樹林區啟智街137巷12號","121.417438333333","24.988025","6500700","樹林區"
"239007","AAC-297","2017/07/30 14:09:28","新北市鶯歌區育英街53號","121.347085","24.9527183333333","6500800","鶯歌區"
"239006","891-R6","2017/07/30 14:09:37","新北市鶯歌區德昌街140巷83號","121.332553333333","24.9624633333333","6500800","鶯歌區"
"239008","527-UM","2017/07/30 14:09:33","新北市鶯歌區國際一路14號","121.336201666667","24.9765483333333","6500800","鶯歌區"
"239005","526-UM","2017/07/30 14:09:34","新北市鶯歌區鶯桃路668巷73號","121.329881666667","24.9717866666667","6500800","鶯歌區"
"239001","417-VK","2017/07/30 14:09:29","新北市鶯歌區中正三路福德巷2弄2號","121.339516666667","24.9414733333333","6500800","鶯歌區"
"239003","360-BY","2017/07/30 14:09:44","新北市鶯歌區福安街58號","121.335623333333","24.96521","6500800","鶯歌區"
"239002","359-BY","2017/07/30 14:09:44","新北市鶯歌區中正一路4號","121.352515","24.95289","6500800","鶯歌區"
"239004","193-VK","2017/07/30 14:09:39","新北市鶯歌區尖山路174巷35弄3號","121.344355","24.9485216666667","6500800","鶯歌區"
"220027","145-BY","2017/07/30 14:09:43","新北市板橋區民權路260巷24-2號","121.458746666667","25.015295","6500100","板橋區"
"220028","200-UY","2017/07/30 14:09:38","新北市板橋區大觀路二段153巷46弄60號","121.44939","25.0003983333333","6500100","板橋區"
"220030","610-BX","2017/07/30 14:09:29","新北市板橋區溪北路2號","121.426463333333","24.9905316666667","6500100","板橋區"
"220050","245-BX","2017/07/29 16:57:38","新北市板橋區民生路二段120號","121.470431666667","25.0195833333333","6500100","板橋區"
"220004","276-BY","2017/07/30 14:09:36","新北市板橋區信義路110巷2弄14號","121.457668333333","24.9927","6500100","板橋區"
"220020","277-BY","2017/07/30 14:09:41","新北市板橋區金門街372巷34號","121.4276","24.9848466666667","6500100","板橋區"
"220043","283-UM","2017/07/30 14:09:35","新北市板橋區光武街159號","121.465448333333","25.0297733333333","6500100","板橋區"
"220019","283-VK","2017/07/30 14:09:43","新北市板橋區重慶路245巷11號","121.463728333333","25.0007033333333","6500100","板橋區"
"220001","285-VK","2017/07/30 14:09:42","新北市板橋區懷仁街14巷18號","121.475503333333","25.0197866666667","6500100","板橋區"
"220031","286-VK","2017/07/30 14:09:37","新北市板橋區龍興街99巷16號","121.443678333333","25.00318","6500100","板橋區"
"220029","287-VK","2017/07/30 14:09:36","新北市板橋區南雅西路二段156巷17號","121.452343333333","25.0131883333333","6500100","板橋區"
"220039","288-VK","2017/07/30 14:09:34","新北市板橋區裕民街47號","121.46139","25.0285716666667","6500100","板橋區"
"220009","295-UM","2017/07/30 14:09:25","新北市板橋區懷仁街85巷8號","121.477808333333","25.0186983333333","6500100","板橋區"
"220032","296-UM","2017/07/30 14:09:28","新北市板橋區篤行路一段46號","121.431871666667","24.9937816666667","6500100","板橋區"
"220023","297-UM","2017/07/30 14:09:24","新北市板橋區大智街32號","121.45527","25.0149366666667","6500100","板橋區"
"220010","303-R5","2017/07/30 14:09:38","新北市板橋區三民路二段205-2號","121.479305","25.0132083333333","6500100","板橋區"
"220041","307-R5","2017/07/30 14:09:15","新北市板橋區文化路二段225巷60弄61號","121.469046666667","25.0298166666667","6500100","板橋區"
"220047","317-R6","2017/07/30 14:09:44","新北市板橋區自由路51巷16號","121.464845","25.0234083333333","6500100","板橋區"
"220012","486-VK","2017/07/30 14:09:42","新北市板橋區板新路96號","121.47226","25.014705","6500100","板橋區"
"220038","487-VK","2017/07/30 14:09:28","新北市板橋區文化路二段500號","121.47577","25.0333666666667","6500100","板橋區"
"220037","491-VK","2017/07/30 14:09:35","新北市板橋區文化路二段182巷3弄56號","121.472753333333","25.028775","6500100","板橋區"
"220104","560-BX","2017/07/30 14:09:42","新北市板橋區中正路341巷35號","121.454221666667","25.0197516666667","6500100","板橋區"
"220052","561-BX","2017/07/30 14:09:44","新北市板橋區文化路一段188巷9弄126號","121.469228333333","25.0190316666667","6500100","板橋區"
"220011","609-BX","2017/07/30 14:09:42","新北市板橋區三民路二段202-15號","121.478981666667","25.01367","6500100","板橋區"
"220040","637-BX","2017/07/30 14:09:35","新北市板橋區萬板路558-1號","121.480873333333","25.0265433333333","6500100","板橋區"
"220005","686-BX","2017/07/30 14:09:42","新北市板橋區重慶路265號","121.463236666667","24.9999966666667","6500100","板橋區"
"220025","687-BX","2017/07/30 14:09:37","新北市板橋區大觀路二段111號","121.446093333333","25.0015766666667","6500100","板橋區"
"220042","689-BX","2017/07/30 14:09:33","新北市板橋區民生路三段259號","121.464541666667","25.0294983333333","6500100","板橋區"
"220002","741-BX","2017/07/30 14:09:43","新北市板橋區實踐路76-2號","121.46387","25.0054283333333","6500100","板橋區"
"220003","827-TW","2017/07/30 14:09:23","新北市板橋區新民街6巷2號","121.464278333333","25.0105733333333","6500100","板橋區"
"220014","829-TW","2017/07/30 14:09:41","新北市板橋區民享街116巷2弄7號","121.477575","25.0155233333333","6500100","板橋區"
"220051","830-TW","2017/07/30 14:09:32","新北市板橋區萬板路818巷9號","121.483075","25.0267816666667","6500100","板橋區"
"220045","831-TW","2017/07/30 14:09:41","新北市板橋區雙十路二段47巷17號","121.475621666667","25.0257416666667","6500100","板橋區"
"220022","895-R6","2017/07/30 14:09:40","新北市板橋區文昌街16號","121.455816666667","25.0105333333333","6500100","板橋區"
"220021","985-R7","2017/07/30 14:09:37","新北市板橋區民權路219號","121.4577","25.01525","6500100","板橋區"
"220046","AAC-210","2017/07/30 14:09:36","新北市板橋區新海路135巷2號","121.459945","25.0230733333333","6500100","板橋區"
"220018","AAC-253","2017/07/30 14:09:25","新北市板橋區四川路一段387號","121.457948333333","24.999135","6500100","板橋區"
