"lineid","car","time","location","longitude","latitude","cityid","cityname"
"249005","172-UM","2017/07/30 16:49:40","新北市八里區大堀湖1-5號","121.422938333333","25.1550383333333","6502300","八里區"
"249001","173-UM","2017/07/30 16:49:31","新北市八里區挖子尾街6號","121.415473333333","25.16422","6502300","八里區"
"249004","303-UY","2017/07/30 16:49:26","新北市八里區仁愛路10號","121.413281666667","25.1623433333333","6502300","八里區"
"249002","305-UY","2017/07/30 16:49:40","新北市八里區牛寮埔31號","121.429886666667","25.145735","6502300","八里區"
"249003","593-UM","2017/07/30 16:49:32","新北市八里區博物館路83號","121.410278333333","25.1603333333333","6502300","八里區"
"248010","272-BY","2017/07/30 15:14:23","新北市五股區中興路二段37巷28號","121.460128333333","25.07502","6501500","五股區"
"244007","080-UY","2017/07/30 16:49:38","新北市林口區粉寮路31-2號","121.403788333333","25.087375","6501700","林口區"
"244019","657-BX","2017/07/30 16:49:33","新北市林口區粉寮69號","121.405005","25.09093","6501700","林口區"
"243003","549-UM","2017/07/30 16:18:24","新北市泰山區黎明路31號","121.421761666667","25.0606766666667","6501600","泰山區"
"241011","013-R5","2017/07/30 16:49:43","新北市三重區仁愛街53巷126號","121.499086666667","25.0725433333333","6500200","三重區"
"241028","022-UY","2017/07/30 16:49:44","新北市三重區光興街73號","121.497865","25.059985","6500200","三重區"
"241031","061-VK","2017/07/30 16:49:38","新北市三重區過圳街46號","121.487323333333","25.06094","6500200","三重區"
"241015","062-VK","2017/07/30 16:49:45","新北市三重區文化北路43巷16號","121.499385","25.0655716666667","6500200","三重區"
"241017","063-VK","2017/07/30 16:49:31","新北市三重區國隆路8巷35號","121.492638333333","25.0634733333333","6500200","三重區"
"241024","065-VK","2017/07/30 16:49:28","新北市三重區中正北路317巷16號","121.474955","25.07296","6500200","三重區"
"241026","066-VK","2017/07/30 16:49:28","新北市三重區文化南路8-4號","121.500278333333","25.0620716666667","6500200","三重區"
"241002","090-VK","2017/07/30 16:49:32","新北市三重區仁義街241巷30號","121.497013333333","25.0830766666667","6500200","三重區"
"241005","262-UM","2017/07/30 16:49:29","新北市三重區仁安街51號","121.484268333333","25.083945","6500200","三重區"
"241009","265-UM","2017/07/30 16:49:32","新北市三重區仁美街99號","121.485878333333","25.0805633333333","6500200","三重區"
"241016","266-UM","2017/07/30 16:49:41","新北市三重區大同北路95巷3號","121.494863333333","25.06404","6500200","三重區"
"241022","267-UM","2017/07/30 16:49:36","新北市三重區三民街112號","121.48485","25.0633816666667","6500200","三重區"
"241018","268-UM","2017/07/30 16:49:27","新北市三重區安樂街73號","121.494863333333","25.0693833333333","6500200","三重區"
"241013","270-UM","2017/07/30 16:49:32","新北市三重區三和路三段101巷46號","121.49555","25.0729883333333","6500200","三重區"
"241025","271-UM","2017/07/30 16:49:25","新北市三重區中正北路512號","121.472335","25.0717866666667","6500200","三重區"
"241007","398-BY","2017/07/30 16:49:33","新北市三重區三和路四段171號","121.482983333333","25.0788033333333","6500200","三重區"
"241008","412-TH","2017/07/30 16:49:38","新北市三重區永安北路一段17巷12號","121.47672","25.07511","6500200","三重區"
"241020","413-TH","2017/07/30 16:49:38","新北市三重區後竹圍街191號","121.485355","25.0715533333333","6500200","三重區"
"241004","475-VK","2017/07/30 16:49:36","新北市三重區仁愛街403號","121.491038333333","25.0809266666667","6500200","三重區"
"241019","478-VK","2017/07/30 16:49:29","新北市三重區力行路一段181號","121.484358333333","25.0694966666667","6500200","三重區"
"241030","480-VK","2017/07/30 16:49:25","新北市三重區新興路4號","121.492748333333","25.0527283333333","6500200","三重區"
"241014","543-UM","2017/07/30 16:49:37","新北市三重區長榮路75號","121.50253","25.0690733333333","6500200","三重區"
"241023","545-UM","2017/07/30 16:49:35","新北市三重區中華路76巷37-1號","121.482048333333","25.0626133333333","6500200","三重區"
"241001","547-UM","2017/07/30 16:49:34","新北市三重區仁政街76巷17號","121.491771666667","25.0771133333333","6500200","三重區"
"241006","AAD-863","2017/07/30 16:49:39","新北市三重區車路頭街136巷1號","121.483441666667","25.0754966666667","6500200","三重區"
"241032","887-TS","2017/07/30 16:49:36","新北市三重區重陽路一段120巷35號","121.485063333333","25.0602233333333","6500200","三重區"
"241012","941-UM","2017/07/30 16:49:32","新北市三重區仁興街3巷17號","121.500453333333","25.0739566666667","6500200","三重區"
"241029","942-UM","2017/07/30 16:49:35","新北市三重區集美街112巷31號","121.490305","25.0542816666667","6500200","三重區"
"241033","AAC-255","2017/07/30 16:49:40","新北市三重區新北大道二段139巷6號","121.466205","25.0609383333333","6500200","三重區"
"235064","005-UY","2017/07/30 16:49:26","新北市中和區員山路36巷16-3號","121.484985","24.9912366666667","6500300","中和區"
"235062","800-TS","2017/07/30 15:42:21","新北市中和區員山路36巷16-3號","121.484965","24.9914266666667","6500300","中和區"
"247001","402-BY","2017/07/30 15:49:55","新北市五股區中興路三段3-6號","121.449548333333","25.0787666666667","6501400","蘆洲區"
"247006","341-TH","2017/07/30 16:49:31","新北市蘆洲區永安南路二段166號","121.461288333333","25.0790283333333","6501400","蘆洲區"
"247008","339-TH","2017/07/30 16:49:27","新北市蘆洲區中山一路176號","121.474191666667","25.0812233333333","6501400","蘆洲區"
"247024","337-TH","2017/07/30 16:49:28","新北市蘆洲區長興路202號","121.460583333333","25.08753","6501400","蘆洲區"
"247002","336-TH","2017/07/30 16:49:29","新北市五股區成泰路三段514號","121.452251666667","25.10231","6501400","蘆洲區"
"247014","057-VK","2017/07/30 16:49:37","新北市蘆洲區三民路89號","121.47437","25.0846066666667","6501400","蘆洲區"
"247004","056-VK","2017/07/30 16:49:38","新北市蘆洲區長榮路151號","121.461643333333","25.084","6501400","蘆洲區"
"247016","001-UY","2017/07/30 16:49:37","新北市蘆洲區正和街3號","121.470363333333","25.082765","6501400","蘆洲區"
"228003","097-TW","2017/07/30 16:49:27","新北市貢寮區貢寮里朝陽街1-2號","121.912388333333","25.0212716666667","6502600","貢寮區"
"228002","585-TW","2017/07/30 16:49:37","新北市貢寮區貢寮里長潭街25號","121.899125","25.0239633333333","6502600","貢寮區"
"228001","670-TC","2017/07/30 16:49:28","新北市貢寮區貢寮里朝陽街1-2號","121.912318333333","25.0212333333333","6502600","貢寮區"
"227010","642-TC","2017/07/30 16:49:38","新北市雙溪區牡丹里五分2號","121.86677","25.0470683333333","6502500","雙溪區"
"227002","400-TW","2017/07/30 16:49:38","新北市雙溪區外柑里外柑腳94號","121.806586666667","25.018025","6502500","雙溪區"
"251014","180-VK","2017/07/30 16:49:42","新北市淡水區淡金路三段344號","121.449236666667","25.208785","6501000","淡水區"
"251008","181-VK","2017/07/30 16:49:38","新北市淡水區樹梅坑9號","121.472761666667","25.142685","6501000","淡水區"
"251015","182-VK","2017/07/30 16:49:42","新北市淡水區忠愛街5-1號","121.460776666667","25.1716816666667","6501000","淡水區"
"251012","441-VK","2017/07/30 16:49:32","新北市淡水區中正路二段31號","121.419723333333","25.1815033333333","6501000","淡水區"
"251016","442-VK","2017/07/30 16:49:39","新北市淡水區水頭42號","121.478138333333","25.1850366666667","6501000","淡水區"
"251013","577-R6","2017/07/30 16:49:41","新北市淡水區泉洲厝32號","121.48934","25.1925166666667","6501000","淡水區"
"251011","650-BX","2017/07/30 16:49:29","新北市淡水區中正路二段31號","121.419306666667","25.18164","6501000","淡水區"
"252005","073-UM","2017/07/30 08:58:12","新北市三芝區埔坪里埔頭坑41號","121.504463333333","25.264405","6502100","三芝區"
"252002","178-VK","2017/07/30 16:49:40","新北市三芝區埔坪里埔頭坑80號","121.510556666667","25.25445","6502100","三芝區"
"252001","292-VK","2017/07/30 16:49:33","新北市三芝區埔坪里埔頭坑60號","121.508035","25.2644733333333","6502100","三芝區"
"252007","AAC-283","2017/07/30 16:00:40","新北市三芝區埔坪里埔頭坑41號","121.504516666667","25.2643983333333","6502100","三芝區"
"242044","172-VK","2017/07/30 15:51:12","新北市新莊區三和路12-21號","121.442023333333","25.0387666666667","6500500","新莊區"
"238010","601-UM","2017/07/30 16:49:41","新北市樹林區中山路三段204號","121.38678","24.968245","6500700","樹林區"
"220042","689-BX","2017/07/30 16:31:10","新北市板橋區民生路二段161巷5號","121.470278333333","25.0197733333333","6500100","板橋區"
