"lineid","car","time","location","longitude","latitude","cityid","cityname"
"249005","172-UM","2017/07/30 17:09:40","新北市八里區華富山6-6號","121.421035","25.1423033333333","6502300","八里區"
"249001","173-UM","2017/07/30 17:09:31","新北市八里區中華路二段203號","121.405391666667","25.1495316666667","6502300","八里區"
"249004","303-UY","2017/07/30 17:09:26","新北市八里區忠孝路336號","121.417791666667","25.1613466666667","6502300","八里區"
"249002","305-UY","2017/07/30 17:09:40","新北市八里區龍米路二段147巷2號","121.443315","25.149365","6502300","八里區"
"249003","593-UM","2017/07/30 17:09:32","新北市八里區中山路二段409號","121.397331666667","25.14643","6502300","八里區"
"248010","272-BY","2017/07/30 15:14:23","新北市五股區中興路二段37巷28號","121.460128333333","25.07502","6501500","五股區"
"244013","069-UM","2017/07/30 17:09:34","新北市林口區粉寮69號","121.40506","25.09085","6501700","林口區"
"244007","080-UY","2017/07/30 17:09:38","新北市林口區中湖52-1號","121.376016666667","25.0914566666667","6501700","林口區"
"244009","410-SL","2017/07/30 17:09:27","新北市林口區粉寮路二段14號","121.401983333333","25.085635","6501700","林口區"
"244023","483-VK","2017/07/30 17:09:38","新北市林口區粉寮路一段90號","121.398585","25.08074","6501700","林口區"
"244019","657-BX","2017/07/30 17:09:33","新北市林口區文化一路一段190巷7弄2-1號","121.380256666667","25.0749166666667","6501700","林口區"
"244021","838-TS","2017/07/30 17:09:38","新北市林口區宏昌街15號","121.4039","25.0851333333333","6501700","林口區"
"243003","549-UM","2017/07/30 16:18:24","新北市泰山區黎明路31號","121.421761666667","25.0606766666667","6501600","泰山區"
"241011","013-R5","2017/07/30 17:09:23","新北市三重區仁愛街55巷50號","121.497443333333","25.072395","6500200","三重區"
"241028","022-UY","2017/07/30 17:09:43","新北市三重區中正南路44號","121.493825","25.0599933333333","6500200","三重區"
"241031","061-VK","2017/07/30 17:09:38","新北市三重區重陽路一段113巷1弄40號","121.488131666667","25.0587516666667","6500200","三重區"
"241015","062-VK","2017/07/30 17:09:25","新北市三重區長生街16號","121.499306666667","25.0664066666667","6500200","三重區"
"241017","063-VK","2017/07/30 17:09:42","新北市三重區大仁街3巷9號","121.49198","25.0637783333333","6500200","三重區"
"241024","065-VK","2017/07/30 17:09:28","新北市三重區中正北路203號","121.476915","25.0699816666667","6500200","三重區"
"241026","066-VK","2017/07/30 17:09:35","新北市三重區重新路二段64號","121.497833333333","25.06213","6500200","三重區"
"241002","090-VK","2017/07/30 17:09:32","新北市三重區仁義街170號","121.496976666667","25.0811966666667","6500200","三重區"
"241005","262-UM","2017/07/30 17:09:28","新北市三重區碧華街50號","121.483461666667","25.0812566666667","6500200","三重區"
"241009","265-UM","2017/07/30 17:09:12","新北市三重區仁愛街600巷15號","121.48419","25.08041","6500200","三重區"
"241016","266-UM","2017/07/30 17:09:41","新北市三重區大同北路121巷2號","121.493711666667","25.0641483333333","6500200","三重區"
"241022","267-UM","2017/07/30 17:09:36","新北市三重區三民街82號","121.485736666667","25.0628516666667","6500200","三重區"
"241018","268-UM","2017/07/30 17:09:27","新北市三重區六張街90巷7號","121.493085","25.0697016666667","6500200","三重區"
"241013","270-UM","2017/07/30 17:09:32","新北市三重區仁愛街81-1號","121.49586","25.0731366666667","6500200","三重區"
"241025","271-UM","2017/07/30 17:09:25","新北市三重區中正北路560巷53號","121.470891666667","25.0698366666667","6500200","三重區"
"241007","398-BY","2017/07/30 17:09:33","新北市三重區三和路四段145巷211號","121.488768333333","25.0793883333333","6500200","三重區"
"241008","412-TH","2017/07/30 17:09:38","新北市三重區力行路二段136巷37號","121.48026","25.07525","6500200","三重區"
"241020","413-TH","2017/07/30 17:09:38","新北市三重區自強路三段34巷23號","121.486125","25.0723616666667","6500200","三重區"
"241004","475-VK","2017/07/30 17:09:36","新北市三重區五華街98巷25號","121.491465","25.0818316666667","6500200","三重區"
"241019","478-VK","2017/07/30 17:09:42","新北市三重區力行路一段89巷12-1號","121.487011666667","25.0691266666667","6500200","三重區"
"241030","480-VK","2017/07/30 17:09:36","新北市三重區成功路91號","121.488246666667","25.0513533333333","6500200","三重區"
"241014","543-UM","2017/07/30 17:09:37","新北市三重區龍濱路144號","121.501521666667","25.07204","6500200","三重區"
"241001","547-UM","2017/07/30 17:09:34","新北市三重區仁愛街245巷32號","121.494245","25.0785283333333","6500200","三重區"
"241006","AAD-863","2017/07/30 17:09:39","新北市三重區車路頭街117巷8號","121.484626666667","25.07544","6500200","三重區"
"241032","887-TS","2017/07/30 17:09:36","新北市三重區三陽路13巷10號","121.48599","25.0595733333333","6500200","三重區"
"241012","941-UM","2017/07/30 17:09:32","新北市三重區河邊北街228號","121.50199","25.0752233333333","6500200","三重區"
"241029","942-UM","2017/07/30 17:09:35","新北市三重區中正南路173號","121.493558333333","25.0555966666667","6500200","三重區"
"241033","AAC-255","2017/07/30 17:09:40","新北市三重區中興北街275號","121.469423333333","25.060795","6500200","三重區"
"235064","005-UY","2017/07/30 17:09:26","新北市中和區員山路36巷16-3號","121.485066666667","24.991285","6500300","中和區"
"235062","800-TS","2017/07/30 17:09:41","新北市中和區員山路36巷16-3號","121.485028333333","24.9913183333333","6500300","中和區"
"247020","893-R6","2017/07/30 17:09:42","新北市蘆洲區民族路422巷116號","121.472463333333","25.0942966666667","6501400","蘆洲區"
"247010","546-UM","2017/07/30 17:09:26","新北市蘆洲區鷺江街93號","121.47683","25.083885","6501400","蘆洲區"
"247017","500-BY","2017/07/30 17:09:38","新北市蘆洲區復興路87巷6號","121.476438333333","25.0876716666667","6501400","蘆洲區"
"247001","402-BY","2017/07/30 15:49:55","新北市五股區中興路三段3-6號","121.449548333333","25.0787666666667","6501400","蘆洲區"
"247006","341-TH","2017/07/30 17:09:31","新北市蘆洲區長安街121號","121.461008333333","25.0813866666667","6501400","蘆洲區"
"247008","339-TH","2017/07/30 17:09:27","新北市蘆洲區信義路30巷15號","121.474425","25.0787766666667","6501400","蘆洲區"
"247024","337-TH","2017/07/30 17:09:28","新北市蘆洲區長興路35號","121.46336","25.08365","6501400","蘆洲區"
"247002","336-TH","2017/07/30 17:09:43","新北市蘆洲區永樂街38巷25號","121.458171666667","25.0889983333333","6501400","蘆洲區"
"247014","057-VK","2017/07/30 17:09:37","新北市蘆洲區中央路6號","121.47347","25.0824066666667","6501400","蘆洲區"
"247004","056-VK","2017/07/30 17:09:38","新北市蘆洲區永安南路二段274號","121.458385","25.0811316666667","6501400","蘆洲區"
"247012","007-UY","2017/07/30 17:09:35","新北市蘆洲區信義路266巷9號","121.47855","25.0871533333333","6501400","蘆洲區"
"247016","001-UY","2017/07/30 17:09:37","新北市蘆洲區正和街108號","121.467865","25.0806033333333","6501400","蘆洲區"
"228003","097-TW","2017/07/30 17:09:27","新北市貢寮區福隆里東興街10-6號","121.950975","25.019265","6502600","貢寮區"
"228002","585-TW","2017/07/30 17:09:37","新北市平溪區平湖里坑頭2號","121.910475","25.017325","6502600","貢寮區"
"228001","670-TC","2017/07/30 17:09:27","新北市貢寮區仁理村尖山腳街20號","121.924616666667","25.047225","6502600","貢寮區"
"227010","642-TC","2017/07/30 17:09:38","新北市雙溪區三貂里子崙坑1-6號","121.84991","25.05753","6502500","雙溪區"
"227002","400-TW","2017/07/30 17:09:40","新北市雙溪區外柑里土地公後2號","121.817816666667","25.023595","6502500","雙溪區"
"251009","008-UM","2017/07/30 17:03:32","新北市淡水區中正路334號","121.435783333333","25.1731266666667","6501000","淡水區"
"251004","009-UM","2017/07/30 17:09:30","新北市淡水區中正東路一段123-1號","121.454248333333","25.1596566666667","6501000","淡水區"
"251007","179-VK","2017/07/30 17:09:27","新北市淡水區中正東路二段48巷20號","121.457125","25.1585766666667","6501000","淡水區"
"251014","180-VK","2017/07/30 17:09:42","新北市淡水區八里堆9-3號","121.46505","25.2244683333333","6501000","淡水區"
"251008","181-VK","2017/07/30 17:09:38","新北市淡水區民生路169號","121.469666666667","25.1421283333333","6501000","淡水區"
"251015","182-VK","2017/07/30 17:09:42","新北市淡水區鄧公路278巷8號","121.462233333333","25.1686966666667","6501000","淡水區"
"251010","413-VK","2017/07/30 17:09:45","新北市淡水區中正路二段31號","121.419498333333","25.1814683333333","6501000","淡水區"
"251012","441-VK","2017/07/30 17:09:32","新北市淡水區新民街一段71號","121.431993333333","25.18364","6501000","淡水區"
"251016","442-VK","2017/07/30 17:09:39","新北市淡水區口湖子2-8號","121.478673333333","25.1883716666667","6501000","淡水區"
"251005","443-VK","2017/07/30 17:09:27","新北市淡水區鄧公路19-1號","121.450256666667","25.1699466666667","6501000","淡水區"
"251006","561-UM","2017/07/30 17:09:37","新北市淡水區沙崙路24號","121.421275","25.181265","6501000","淡水區"
"251013","577-R6","2017/07/30 17:09:41","新北市淡水區桂花樹1-1號","121.481781666667","25.1960633333333","6501000","淡水區"
"251011","650-BX","2017/07/30 17:09:29","新北市淡水區坪頂路49號","121.457696666667","25.1625866666667","6501000","淡水區"
"251002","672-BX","2017/07/30 17:09:43","新北市淡水區中正路二段31號","121.419366666667","25.1815783333333","6501000","淡水區"
"252005","073-UM","2017/07/30 08:58:12","新北市三芝區埔坪里埔頭坑41號","121.504463333333","25.264405","6502100","三芝區"
"252002","178-VK","2017/07/30 17:09:20","新北市三芝區忠孝街116號","121.50593","25.2574533333333","6502100","三芝區"
"252001","292-VK","2017/07/30 17:09:33","新北市三芝區埔坪里埔頭坑33號","121.501691666667","25.26125","6502100","三芝區"
"252007","AAC-283","2017/07/30 16:00:40","新北市三芝區埔坪里埔頭坑41號","121.504516666667","25.2643983333333","6502100","三芝區"
"242021","AAC-296","2017/07/30 17:09:39","新北市新莊區新泰路357巷3弄57號","121.4422","25.0393516666667","6500500","新莊區"
"242048","751-BX","2017/07/30 17:09:32","新北市新莊區中正路442號","121.440298333333","25.03362","6500500","新莊區"
"242027","612-BX","2017/07/30 17:09:25","新北市新莊區三和路12-21號","121.441875","25.038835","6500500","新莊區"
"242036","566-BX","2017/07/30 17:09:39","新北市新莊區三和路12-21號","121.44228","25.03812","6500500","新莊區"
"242004","442-UM","2017/07/30 17:09:36","新北市新莊區三和路12-21號","121.44188","25.0387366666667","6500500","新莊區"
"242046","441-UM","2017/07/30 17:09:29","新北市泰山區磚雅厝3號","121.44213","25.0416716666667","6500500","新莊區"
"242051","440-UM","2017/07/30 17:09:40","新北市新莊區三和路12-12號","121.44225","25.0370866666667","6500500","新莊區"
"242058","353-BY","2017/07/30 17:09:42","新北市新莊區新泰路255巷83號","121.442228333333","25.0387966666667","6500500","新莊區"
"242042","132-UY","2017/07/30 17:09:45","新北市新莊區新泰路255巷83號","121.442158333333","25.03881","6500500","新莊區"
"242034","133-UY","2017/07/30 17:09:32","新北市新莊區建中街107號","121.446388333333","25.03654","6500500","新莊區"
"242019","135-UY","2017/07/30 17:09:30","新北市新莊區三和路12-21號","121.441895","25.0389066666667","6500500","新莊區"
"242044","172-VK","2017/07/30 17:09:32","新北市新莊區中正路517-2號","121.439838333333","25.0334883333333","6500500","新莊區"
"242007","173-VK","2017/07/30 16:51:35","新北市新莊區三和路12-21號","121.441563333333","25.0383883333333","6500500","新莊區"
"242013","175-VK","2017/07/30 17:09:29","新北市新莊區三和路12-21號","121.441795","25.0387033333333","6500500","新莊區"
"242011","346-TH","2017/07/30 16:32:40","新北市新莊區三和路12-17號","121.442003333333","25.0375283333333","6500500","新莊區"
"242015","350-TH","2017/07/30 17:09:38","新北市新莊區三和路12-21號","121.442056666667","25.0384583333333","6500500","新莊區"
"242009","351-TH","2017/07/30 17:01:15","新北市新莊區新泰路357巷3弄57號","121.44196","25.039105","6500500","新莊區"
"220042","689-BX","2017/07/30 16:31:10","新北市板橋區民生路二段161巷5號","121.470278333333","25.0197733333333","6500100","板橋區"
