"lineid","car","time","location","longitude","latitude","cityid","cityname"
"249005","172-UM","2017/07/30 17:19:20","新北市五股區民義路二段132號","121.40876","25.1216283333333","6502300","八里區"
"249001","173-UM","2017/07/30 17:19:31","新北市八里區中華路二段165巷3號","121.40766","25.15085","6502300","八里區"
"249004","303-UY","2017/07/30 17:19:26","新北市八里區文化街125號","121.422455","25.159965","6502300","八里區"
"249002","305-UY","2017/07/30 17:19:40","新北市八里區龍米路二段117巷37號","121.443385","25.1418016666667","6502300","八里區"
"249003","593-UM","2017/07/30 17:19:32","新北市八里區商港路86號","121.395391666667","25.146575","6502300","八里區"
"248010","272-BY","2017/07/30 15:14:23","新北市五股區中興路二段37巷28號","121.460128333333","25.07502","6501500","五股區"
"244013","069-UM","2017/07/30 17:19:34","新北市林口區粉寮69號","121.40506","25.0908433333333","6501700","林口區"
"244007","080-UY","2017/07/30 17:19:38","新北市林口區菁埔4-3號","121.379275","25.0959616666667","6501700","林口區"
"244009","410-SL","2017/07/30 17:19:27","新北市林口區中湖48-11號","121.380206666667","25.0932016666667","6501700","林口區"
"244023","483-VK","2017/07/30 17:19:38","新北市林口區仁愛路一段665號","121.387753333333","25.0764883333333","6501700","林口區"
"244017","485-VK","2017/07/30 17:19:34","新北市林口區粉寮69號","121.40509","25.0908","6501700","林口區"
"244019","657-BX","2017/07/30 17:19:33","新北市林口區公園路225-3號","121.374358333333","25.074895","6501700","林口區"
"244021","838-TS","2017/07/30 17:19:38","新北市林口區粉寮路二段160巷29號","121.405743333333","25.09145","6501700","林口區"
"243003","549-UM","2017/07/30 16:18:24","新北市泰山區黎明路31號","121.421761666667","25.0606766666667","6501600","泰山區"
"241011","013-R5","2017/07/30 17:19:36","新北市三重區河邊北街122-1號","121.503603333333","25.0714916666667","6500200","三重區"
"241028","022-UY","2017/07/30 17:19:24","新北市三重區仁化街38號","121.493435","25.0596466666667","6500200","三重區"
"241015","062-VK","2017/07/30 17:19:25","新北市三重區福德北路89號","121.501898333333","25.066255","6500200","三重區"
"241017","063-VK","2017/07/30 17:19:31","新北市三重區新北大道一段6號","121.48885","25.0615783333333","6500200","三重區"
"241024","065-VK","2017/07/30 17:19:28","新北市三重區大勇街49號","121.481336666667","25.0720033333333","6500200","三重區"
"241026","066-VK","2017/07/30 17:19:28","新北市三重區福裕街7號","121.499781666667","25.061655","6500200","三重區"
"241002","090-VK","2017/07/30 17:19:32","新北市三重區五華街35巷30號","121.495235","25.0813616666667","6500200","三重區"
"241005","262-UM","2017/07/30 17:19:28","新北市三重區仁愛街670號","121.482301666667","25.0805966666667","6500200","三重區"
"241009","265-UM","2017/07/30 17:19:32","新北市三重區三和路四段225號","121.481293333333","25.079725","6500200","三重區"
"241016","266-UM","2017/07/30 17:19:41","新北市三重區大仁街21號","121.491931666667","25.0644466666667","6500200","三重區"
"241022","267-UM","2017/07/30 17:19:36","新北市三重區中正北路120號","121.485591666667","25.065105","6500200","三重區"
"241025","271-UM","2017/07/30 17:19:45","新北市三重區中正北路253號","121.475408333333","25.070705","6500200","三重區"
"241007","398-BY","2017/07/30 17:19:33","新北市三重區三和路四段163巷24號","121.484911666667","25.0791133333333","6500200","三重區"
"241008","412-TH","2017/07/30 17:19:38","新北市三重區永福街249號","121.481051666667","25.07431","6500200","三重區"
"241020","413-TH","2017/07/30 17:19:38","新北市三重區自強路三段64號","121.486796666667","25.0732433333333","6500200","三重區"
"241004","475-VK","2017/07/30 17:19:36","新北市三重區五華街122巷7號","121.491483333333","25.0829983333333","6500200","三重區"
"241019","478-VK","2017/07/30 17:19:28","新北市三重區三張街149巷1號","121.487003333333","25.0698316666667","6500200","三重區"
"241030","480-VK","2017/07/30 17:19:25","新北市三重區集成路36號","121.489001666667","25.0525233333333","6500200","三重區"
"241014","543-UM","2017/07/30 17:19:37","新北市三重區長榮路8號","121.50021","25.0685433333333","6500200","三重區"
"241001","547-UM","2017/07/30 17:19:34","新北市三重區仁愛街269巷48號","121.494275","25.0796","6500200","三重區"
"241006","AAD-863","2017/07/30 17:19:39","新北市三重區力行路二段123巷14號","121.483775","25.076535","6500200","三重區"
"241032","887-TS","2017/07/30 17:19:36","新北市三重區中華路2巷2號","121.48311","25.06033","6500200","三重區"
"241012","941-UM","2017/07/30 17:19:32","新北市三重區仁和街76號","121.499095","25.0745033333333","6500200","三重區"
"241029","942-UM","2017/07/30 17:19:35","新北市三重區重新路四段88號","121.48784","25.0572233333333","6500200","三重區"
"241033","AAC-255","2017/07/30 17:19:40","新北市三重區中興北街136巷3號","121.468665","25.0561066666667","6500200","三重區"
"235064","005-UY","2017/07/30 17:19:26","新北市中和區員山路36巷16-3號","121.484986666667","24.9912716666667","6500300","中和區"
"235062","800-TS","2017/07/30 17:19:41","新北市中和區員山路36巷16-3號","121.485011666667","24.9913116666667","6500300","中和區"
"247020","893-R6","2017/07/30 17:19:42","新北市蘆洲區仁愛街16號","121.472393333333","25.0926283333333","6501400","蘆洲區"
"247010","546-UM","2017/07/30 17:19:37","新北市蘆洲區中山一路120巷7弄32號","121.477241666667","25.0821916666667","6501400","蘆洲區"
"247017","500-BY","2017/07/30 17:19:38","新北市蘆洲區民權路82巷5弄12號","121.474725","25.0885366666667","6501400","蘆洲區"
"247001","402-BY","2017/07/30 15:49:55","新北市五股區中興路三段3-6號","121.449548333333","25.0787666666667","6501400","蘆洲區"
"247006","341-TH","2017/07/30 17:19:31","新北市蘆洲區長安街44號","121.463401666667","25.079655","6501400","蘆洲區"
"247008","339-TH","2017/07/30 17:19:27","新北市蘆洲區永安北路一段72巷58號","121.47597","25.0769033333333","6501400","蘆洲區"
"247024","337-TH","2017/07/30 17:19:28","新北市蘆洲區長榮路335號","121.459686666667","25.087345","6501400","蘆洲區"
"247002","336-TH","2017/07/30 17:19:29","新北市蘆洲區永樂街38巷45弄12號","121.457695","25.0900433333333","6501400","蘆洲區"
"247014","057-VK","2017/07/30 17:19:37","新北市蘆洲區忠孝路22號","121.470988333333","25.0843066666667","6501400","蘆洲區"
"247004","056-VK","2017/07/30 17:19:38","新北市蘆洲區中原路32號","121.459965","25.082815","6501400","蘆洲區"
"247012","007-UY","2017/07/30 17:19:32","新北市蘆洲區信義路319巷10弄10號","121.477593333333","25.0865233333333","6501400","蘆洲區"
"247016","001-UY","2017/07/30 17:19:37","新北市蘆洲區光華路22巷57號","121.467928333333","25.0851633333333","6501400","蘆洲區"
"228003","097-TW","2017/07/30 17:19:27","新北市貢寮區福隆里興隆街24-1號","121.944326666667","25.016635","6502600","貢寮區"
"228002","585-TW","2017/07/30 17:19:37","新北市貢寮區雙玉里下雙溪街27號","121.924718333333","25.0114383333333","6502600","貢寮區"
"228001","670-TC","2017/07/30 17:19:27","新北市貢寮區仁理村尖山腳街20號","121.92461","25.0478333333333","6502600","貢寮區"
"227010","642-TC","2017/07/30 17:19:38","新北市雙溪區三貂里政光路10號","121.851388333333","25.072115","6502500","雙溪區"
"227002","400-TW","2017/07/30 17:19:38","新北市雙溪區上林里新寮子14號","121.834386666667","25.0303883333333","6502500","雙溪區"
"251009","008-UM","2017/07/30 17:03:32","新北市淡水區中正路334號","121.435783333333","25.1731266666667","6501000","淡水區"
"251004","009-UM","2017/07/30 17:19:30","新北市淡水區中正東路二段88巷15號","121.459123333333","25.1505066666667","6501000","淡水區"
"251007","179-VK","2017/07/30 17:19:27","新北市淡水區民權路20號","121.459901666667","25.137825","6501000","淡水區"
"251014","180-VK","2017/07/30 17:19:22","新北市淡水區公埔子30-2號","121.465678333333","25.2286783333333","6501000","淡水區"
"251008","181-VK","2017/07/30 17:19:38","新北市淡水區大同路239號","121.465986666667","25.1422033333333","6501000","淡水區"
"251015","182-VK","2017/07/30 17:19:42","新北市淡水區樹林口168號","121.476263333333","25.1668666666667","6501000","淡水區"
"251010","413-VK","2017/07/30 17:19:25","新北市淡水區中正路二段16號","121.420268333333","25.1809333333333","6501000","淡水區"
"251012","441-VK","2017/07/30 17:19:32","新北市淡水區中山北路一段158號","121.444346666667","25.177855","6501000","淡水區"
"251016","442-VK","2017/07/30 17:19:39","新北市淡水區社厝坑6-1號","121.468543333333","25.1891616666667","6501000","淡水區"
"251005","443-VK","2017/07/30 17:19:27","新北市淡水區鄧公路19-1號","121.450236666667","25.16991","6501000","淡水區"
"251006","561-UM","2017/07/30 17:19:37","新北市淡水區中山路190號","121.441571666667","25.1745666666667","6501000","淡水區"
"251013","577-R6","2017/07/30 17:19:41","新北市淡水區大竹圍6號","121.469841666667","25.195205","6501000","淡水區"
"251011","650-BX","2017/07/30 17:19:29","新北市淡水區坪頂路128號","121.465095","25.1611833333333","6501000","淡水區"
"251002","672-BX","2017/07/30 17:19:43","新北市淡水區中正路二段31號","121.41937","25.1816233333333","6501000","淡水區"
"251003","673-BX","2017/07/30 17:19:26","新北市淡水區中正路二段30號","121.419708333333","25.182055","6501000","淡水區"
"207003","550-UM","2017/07/30 17:19:27","新北市萬里區萬里里瑪鋉路340號","121.687888333333","25.18289","6502800","萬里區"
"252005","073-UM","2017/07/30 08:58:12","新北市三芝區埔坪里埔頭坑41號","121.504463333333","25.264405","6502100","三芝區"
"252002","178-VK","2017/07/30 17:19:40","新北市三芝區忠孝街1-14號","121.50551","25.253945","6502100","三芝區"
"252001","292-VK","2017/07/30 17:19:33","新北市三芝區長安街119號","121.49805","25.2596516666667","6502100","三芝區"
"252007","AAC-283","2017/07/30 16:00:40","新北市三芝區埔坪里埔頭坑41號","121.504516666667","25.2643983333333","6502100","三芝區"
"242021","AAC-296","2017/07/30 17:19:39","新北市新莊區中港一街130號","121.448241666667","25.0451716666667","6500500","新莊區"
"242029","986-R7","2017/07/30 17:19:43","新北市新莊區新泰路502巷1號","121.442525","25.0471633333333","6500500","新莊區"
"242048","751-BX","2017/07/30 17:19:32","新北市新莊區龍安路120-2號","121.419036666667","25.0203783333333","6500500","新莊區"
"242025","615-BX","2017/07/30 17:19:23","新北市新莊區中環路二段392-1號","121.442438333333","25.04569","6500500","新莊區"
"242023","613-BX","2017/07/30 17:19:39","新北市新莊區新泰路502巷10號","121.44279","25.0464033333333","6500500","新莊區"
"242027","612-BX","2017/07/30 17:19:45","新北市新莊區中和街58號","121.448065","25.0447516666667","6500500","新莊區"
"242036","566-BX","2017/07/30 17:19:39","新北市新莊區新樹路223號","121.435298333333","25.0229266666667","6500500","新莊區"
"242004","442-UM","2017/07/30 17:19:35","新北市新莊區中港一街159號","121.447433333333","25.0450233333333","6500500","新莊區"
"242046","441-UM","2017/07/30 17:19:29","新北市新莊區新樹路67巷32號","121.440323333333","25.03007","6500500","新莊區"
"242051","440-UM","2017/07/30 17:19:40","新北市新莊區瓊林南路1號","121.438521666667","25.0207366666667","6500500","新莊區"
"242002","413-TV","2017/07/30 17:19:36","新北市新莊區瓊林路48號","121.446406666667","25.028925","6500500","新莊區"
"242039","400-BY","2017/07/30 17:19:25","新北市新莊區中正路481號","121.441455","25.0337866666667","6500500","新莊區"
"242061","362-BY","2017/07/30 17:19:35","新北市新莊區三和路12-19號","121.441928333333","25.037695","6500500","新莊區"
"242058","353-BY","2017/07/30 17:19:23","新北市新莊區新泰路357巷3弄57號","121.441981666667","25.03974","6500500","新莊區"
"242042","132-UY","2017/07/30 17:19:25","新北市新莊區中正路475號","121.441541666667","25.0338283333333","6500500","新莊區"
"242034","133-UY","2017/07/30 17:19:32","新北市新莊區中正路338號","121.445246666667","25.035015","6500500","新莊區"
"242019","135-UY","2017/07/30 17:19:30","新北市新莊區中港路282號","121.453038333333","25.0441433333333","6500500","新莊區"
"242044","172-VK","2017/07/30 17:19:32","新北市新莊區富國路101-1號","121.42135","25.0255516666667","6500500","新莊區"
"242007","173-VK","2017/07/30 16:51:35","新北市新莊區三和路12-21號","121.441563333333","25.0383883333333","6500500","新莊區"
"242013","175-VK","2017/07/30 17:19:29","新北市新莊區新泰路255巷83號","121.442306666667","25.0391766666667","6500500","新莊區"
"242011","346-TH","2017/07/30 17:19:24","新北市新莊區新泰路488號","121.442666666667","25.045835","6500500","新莊區"
"242017","348-TH","2017/07/30 17:19:41","新北市新莊區復興路一段207號","121.452245","25.0435983333333","6500500","新莊區"
"242053","349-TH","2017/07/30 17:19:35","新北市新莊區瓊林路108號","121.44224","25.0267466666667","6500500","新莊區"
"242015","350-TH","2017/07/30 17:19:38","新北市新莊區建中街152號","121.444825","25.0365083333333","6500500","新莊區"
"242009","351-TH","2017/07/30 17:19:35","新北市新莊區中平路377巷17弄58號","121.442305","25.0516116666667","6500500","新莊區"
"220042","689-BX","2017/07/30 16:31:10","新北市板橋區民生路二段161巷5號","121.470278333333","25.0197733333333","6500100","板橋區"
