"lineid","car","time","location","longitude","latitude","cityid","cityname"
"234026","9371-KE","2017/07/30 17:29:26","新北市永和區保生路55號","121.50464","25.01077","6500400","永和區"
"249005","172-UM","2017/07/30 17:29:41","新北市八里區荖阡坑路32號","121.404185","25.1274983333333","6502300","八里區"
"249001","173-UM","2017/07/30 17:29:31","新北市八里區大崁腳48號","121.426578333333","25.1594733333333","6502300","八里區"
"249004","303-UY","2017/07/30 17:29:26","新北市八里區賢三街145號","121.41519","25.1568833333333","6502300","八里區"
"249002","305-UY","2017/07/30 17:29:40","新北市八里區龍米路二段50號","121.448145","25.1406083333333","6502300","八里區"
"249003","593-UM","2017/07/30 17:29:32","新北市八里區中山路二段317號","121.400645","25.1476883333333","6502300","八里區"
"248010","272-BY","2017/07/30 15:14:23","新北市五股區中興路二段37巷28號","121.460128333333","25.07502","6501500","五股區"
"244013","069-UM","2017/07/30 17:29:34","新北市林口區中山路87號","121.389911666667","25.07883","6501700","林口區"
"244007","080-UY","2017/07/30 17:29:38","新北市林口區湖子10-2號","121.387973333333","25.090195","6501700","林口區"
"244009","410-SL","2017/07/30 17:27:27","新北市林口區中湖48-11號","121.38027","25.0929816666667","6501700","林口區"
"244023","483-VK","2017/07/30 17:29:38","新北市林口區隆林街28號","121.388338333333","25.0754183333333","6501700","林口區"
"244017","485-VK","2017/07/30 17:29:33","新北市林口區粉寮路31-2號","121.403701666667","25.0872316666667","6501700","林口區"
"244019","657-BX","2017/07/30 17:29:33","新北市林口區文化一路一段135巷18號","121.373286666667","25.0722433333333","6501700","林口區"
"244021","838-TS","2017/07/30 17:29:38","新北市林口區粉寮路67-3號","121.403413333333","25.0908033333333","6501700","林口區"
"243003","549-UM","2017/07/30 16:18:24","新北市泰山區黎明路31號","121.421761666667","25.0606766666667","6501600","泰山區"
"241011","013-R5","2017/07/30 17:29:23","新北市三重區龍濱路183號","121.502116666667","25.07073","6500200","三重區"
"241028","022-UY","2017/07/30 17:29:43","新北市三重區中正南路78號","121.494296666667","25.0590783333333","6500200","三重區"
"241015","062-VK","2017/07/30 17:29:25","新北市三重區長元街65巷16弄15號","121.503533333333","25.0662","6500200","三重區"
"241024","065-VK","2017/07/30 17:29:28","新北市三重區大勇街27號","121.482758333333","25.0716083333333","6500200","三重區"
"241002","090-VK","2017/07/30 17:29:32","新北市三重區自強路五段26號","121.492718333333","25.0806783333333","6500200","三重區"
"241005","262-UM","2017/07/30 17:29:28","新北市三重區永安北路二段11號","121.481931666667","25.08142","6500200","三重區"
"241009","265-UM","2017/07/30 17:29:37","新北市三重區仁愛街600巷5號","121.484056666667","25.0807716666667","6500200","三重區"
"241016","266-UM","2017/07/30 17:29:41","新北市三重區新北大道一段7號","121.489618333333","25.0612833333333","6500200","三重區"
"241022","267-UM","2017/07/30 17:29:36","新北市三重區中正北路2號","121.489276666667","25.063175","6500200","三重區"
"241025","271-UM","2017/07/30 17:29:25","新北市三重區中正北路380號","121.476583333333","25.069755","6500200","三重區"
"241007","398-BY","2017/07/30 17:29:33","新北市三重區慈愛街8號","121.484456666667","25.0784383333333","6500200","三重區"
"241008","412-TH","2017/07/30 17:29:38","新北市三重區永福街70號","121.479265","25.0767783333333","6500200","三重區"
"241020","413-TH","2017/07/30 17:29:38","新北市三重區忠孝路一段101號","121.48941","25.0721166666667","6500200","三重區"
"241004","475-VK","2017/07/30 17:29:36","新北市三重區五華街112號","121.492143333333","25.082865","6500200","三重區"
"241019","478-VK","2017/07/30 17:29:28","新北市三重區自強路二段50巷31號","121.488116666667","25.06973","6500200","三重區"
"241030","480-VK","2017/07/30 17:29:45","新北市三重區集美街149號","121.49061","25.05321","6500200","三重區"
"241014","543-UM","2017/07/30 17:29:37","新北市三重區長壽街56號","121.500808333333","25.068335","6500200","三重區"
"241006","AAD-863","2017/07/30 17:29:39","新北市三重區三和路四段218巷15號","121.485501666667","25.0764566666667","6500200","三重區"
"241032","887-TS","2017/07/30 17:29:36","新北市三重區名源街36號","121.482308333333","25.05974","6500200","三重區"
"241012","941-UM","2017/07/30 17:29:32","新北市三重區仁壽街196號","121.500806666667","25.074775","6500200","三重區"
"241033","AAC-255","2017/07/30 17:29:40","新北市三重區興德路129號","121.470365","25.0529283333333","6500200","三重區"
"235064","005-UY","2017/07/30 17:29:26","新北市中和區員山路36巷16-3號","121.484973333333","24.9912533333333","6500300","中和區"
"235062","800-TS","2017/07/30 17:27:32","新北市中和區員山路36巷16-3號","121.484996666667","24.9913","6500300","中和區"
"247020","893-R6","2017/07/30 17:29:42","新北市蘆洲區水湳街397號","121.470206666667","25.0939266666667","6501400","蘆洲區"
"247010","546-UM","2017/07/30 17:29:26","新北市蘆洲區鷺江街12號","121.479055","25.082585","6501400","蘆洲區"
"247017","500-BY","2017/07/30 17:29:38","新北市蘆洲區民義街22巷24號","121.4719","25.088025","6501400","蘆洲區"
"247001","402-BY","2017/07/30 15:49:55","新北市五股區中興路三段3-6號","121.449548333333","25.0787666666667","6501400","蘆洲區"
"247006","341-TH","2017/07/30 17:29:31","新北市蘆洲區長安街22巷39弄7號","121.464558333333","25.0806083333333","6501400","蘆洲區"
"247008","339-TH","2017/07/30 17:29:27","新北市蘆洲區民生街55-1號","121.474765","25.0788033333333","6501400","蘆洲區"
"247024","337-TH","2017/07/30 17:29:28","新北市蘆洲區長興路296-5號","121.460411666667","25.0898383333333","6501400","蘆洲區"
"247002","336-TH","2017/07/30 17:29:29","新北市蘆洲區永樂街38巷67弄41號","121.457236666667","25.0911016666667","6501400","蘆洲區"
"247014","057-VK","2017/07/30 17:29:37","新北市蘆洲區三民路38-1號","121.47576","25.0831466666667","6501400","蘆洲區"
"247004","056-VK","2017/07/30 17:29:38","新北市蘆洲區永安南路二段306號","121.457268333333","25.0824033333333","6501400","蘆洲區"
"247012","007-UY","2017/07/30 17:29:32","新北市蘆洲區三民路88號","121.47346","25.0855283333333","6501400","蘆洲區"
"247016","001-UY","2017/07/30 17:29:37","新北市蘆洲區中正路185巷31弄18號","121.46668","25.0838233333333","6501400","蘆洲區"
"228003","097-TW","2017/07/30 17:28:27","新北市貢寮區仁理村研海街22號","121.927375","25.0383583333333","6502600","貢寮區"
"228002","585-TW","2017/07/30 17:29:37","新北市貢寮區福隆里興隆街36號","121.942631666667","25.0165533333333","6502600","貢寮區"
"228001","670-TC","2017/07/30 17:29:27","新北市貢寮區仁理村仁愛路62巷1號","121.92565","25.053455","6502600","貢寮區"
"227010","642-TC","2017/07/30 17:29:38","新北市雙溪區三貂里定福路27號","121.851703333333","25.0743883333333","6502500","雙溪區"
"227002","400-TW","2017/07/30 17:29:38","新北市雙溪區共和里東榮街52號","121.866508333333","25.0334433333333","6502500","雙溪區"
"251009","008-UM","2017/07/30 17:03:32","新北市淡水區中正路334號","121.435783333333","25.1731266666667","6501000","淡水區"
"251004","009-UM","2017/07/30 17:29:30","新北市淡水區中正東路二段88巷15號","121.459136666667","25.1504883333333","6501000","淡水區"
"251007","179-VK","2017/07/30 17:29:27","新北市淡水區民生路47-4號","121.462153333333","25.1380316666667","6501000","淡水區"
"251014","180-VK","2017/07/30 17:29:42","新北市淡水區公埔子20-3號","121.469515","25.22875","6501000","淡水區"
"251008","181-VK","2017/07/30 17:29:38","新北市淡水區大同路124巷14號","121.46355","25.1401066666667","6501000","淡水區"
"251015","182-VK","2017/07/30 17:29:42","新北市淡水區三空泉15號","121.472728333333","25.1633166666667","6501000","淡水區"
"251010","413-VK","2017/07/30 17:29:45","新北市淡水區中正路二段211號","121.426215","25.1891133333333","6501000","淡水區"
"251012","441-VK","2017/07/30 17:29:32","新北市淡水區北新路111號","121.448038333333","25.1784366666667","6501000","淡水區"
"251016","442-VK","2017/07/30 17:29:39","新北市淡水區社厝坑10號","121.468196666667","25.1922033333333","6501000","淡水區"
"251005","443-VK","2017/07/30 17:29:44","新北市淡水區鄧公路31巷2號","121.451156666667","25.1706233333333","6501000","淡水區"
"251001","559-UM","2017/07/30 17:29:24","新北市淡水區民權路92巷35-1號","121.462195","25.1267083333333","6501000","淡水區"
"251006","561-UM","2017/07/30 17:29:37","新北市淡水區大仁街19號","121.44242","25.1752016666667","6501000","淡水區"
"251013","577-R6","2017/07/30 17:29:41","新北市淡水區大竹圍5號","121.466565","25.195205","6501000","淡水區"
"251011","650-BX","2017/07/30 17:29:29","新北市淡水區坪頂路712號","121.482516666667","25.1585116666667","6501000","淡水區"
"251002","672-BX","2017/07/30 17:29:43","新北市淡水區中正路437號","121.431978333333","25.1747433333333","6501000","淡水區"
"251003","673-BX","2017/07/30 17:29:26","新北市淡水區中山路159-1號","121.440798333333","25.1729066666667","6501000","淡水區"
"207003","550-UM","2017/07/30 17:29:27","新北市萬里區龜吼里翡翠路17號","121.683388333333","25.187235","6502800","萬里區"
"207004","225-TW","2017/07/30 17:29:30","新北市萬里區萬里里景美路11-1號","121.685118333333","25.1732","6502800","萬里區"
"252005","073-UM","2017/07/30 08:58:12","新北市三芝區埔坪里埔頭坑41號","121.504463333333","25.264405","6502100","三芝區"
"252002","178-VK","2017/07/30 17:29:40","新北市三芝區忠孝街1-14號","121.505515","25.2539433333333","6502100","三芝區"
"252001","292-VK","2017/07/30 17:29:33","新北市三芝區長安街119號","121.498051666667","25.2596516666667","6502100","三芝區"
"252007","AAC-283","2017/07/30 16:00:40","新北市三芝區埔坪里埔頭坑41號","121.504516666667","25.2643983333333","6502100","三芝區"
"237011","572-TV","2017/07/30 16:45:59","新北市三峽區中山路459巷163-3號","121.348761666667","24.9330366666667","6500900","三峽區"
"237016","649-BX","2017/07/30 17:29:28","新北市三峽區中山路459巷131號","121.350998333333","24.9346216666667","6500900","三峽區"
"242021","AAC-296","2017/07/30 17:29:39","新北市新莊區中正路211號","121.452398333333","25.03608","6500500","新莊區"
"242029","986-R7","2017/07/30 17:29:22","新北市新莊區幸福路64巷6號","121.457183333333","25.04964","6500500","新莊區"
"242048","751-BX","2017/07/30 17:29:32","新北市新莊區四維路210號","121.421368333333","25.020165","6500500","新莊區"
"242025","615-BX","2017/07/30 17:29:43","新北市新莊區中港路266號","121.453235","25.0438766666667","6500500","新莊區"
"242023","613-BX","2017/07/30 17:29:39","新北市新莊區公園路150號","121.453143333333","25.04009","6500500","新莊區"
"242027","612-BX","2017/07/30 17:29:45","新北市新莊區思源路103號","121.460195","25.0417683333333","6500500","新莊區"
"242036","566-BX","2017/07/30 17:29:39","新北市新莊區新樹路132-3號","121.435085","25.0240033333333","6500500","新莊區"
"242004","442-UM","2017/07/30 17:29:42","新北市新莊區中港路286號","121.453068333333","25.04429","6500500","新莊區"
"242046","441-UM","2017/07/30 17:29:09","新北市新莊區新樹路65-5號","121.439443333333","25.0308116666667","6500500","新莊區"
"242051","440-UM","2017/07/30 17:29:40","新北市新莊區新樹路449巷18號","121.433546666667","25.013965","6500500","新莊區"
"242031","415-TV","2017/07/30 17:29:27","新北市新莊區新泰路401巷6號","121.443216666667","25.044095","6500500","新莊區"
"242002","413-TV","2017/07/30 17:29:36","新北市新莊區新莊路212號","121.453363333333","25.0346433333333","6500500","新莊區"
"242039","400-BY","2017/07/30 17:29:45","新北市新莊區民安東路2號","121.427853333333","25.020975","6500500","新莊區"
"242061","362-BY","2017/07/30 17:29:34","新北市新莊區瓊林南路12-5號","121.436211666667","25.018685","6500500","新莊區"
"242058","353-BY","2017/07/30 17:29:42","新北市新莊區中正路530號","121.430945","25.031635","6500500","新莊區"
"242042","132-UY","2017/07/30 17:29:25","新北市新莊區建國一路113-1號","121.434956666667","25.0279133333333","6500500","新莊區"
"242034","133-UY","2017/07/30 17:29:32","新北市新莊區新莊路390號","121.448893333333","25.0334283333333","6500500","新莊區"
"242019","135-UY","2017/07/30 17:29:16","新北市新莊區中港路71號","121.455386666667","25.038735","6500500","新莊區"
"242044","172-VK","2017/07/30 17:29:32","新北市新莊區富國路76號","121.419983333333","25.02594","6500500","新莊區"
"242007","173-VK","2017/07/30 17:29:35","新北市新莊區自強街34號","121.454781666667","25.046275","6500500","新莊區"
"242013","175-VK","2017/07/30 17:29:29","新北市新莊區中誠街16巷28號","121.451893333333","25.0487666666667","6500500","新莊區"
"242055","176-VK","2017/07/30 17:29:28","新北市新莊區新泰路16號","121.449658333333","25.0330666666667","6500500","新莊區"
"242011","346-TH","2017/07/30 17:29:24","新北市新莊區中華路二段89號","121.452866666667","25.0491766666667","6500500","新莊區"
"242017","348-TH","2017/07/30 17:29:41","新北市新莊區中華路一段246號","121.45264","25.0436266666667","6500500","新莊區"
"242053","349-TH","2017/07/30 17:29:15","新北市新莊區新樹路607號","121.433296666667","25.0054833333333","6500500","新莊區"
"242015","350-TH","2017/07/30 17:29:38","新北市新莊區新泰路205號","121.447","25.0383166666667","6500500","新莊區"
"242009","351-TH","2017/07/30 17:29:35","新北市新莊區昌德街81號","121.455885","25.0547033333333","6500500","新莊區"
"221008","489-VK","2017/07/30 17:29:26","新北市汐止區康寧街901號","121.65139","25.0749783333333","6501100","汐止區"
"220042","689-BX","2017/07/30 16:31:10","新北市板橋區民生路二段161巷5號","121.470278333333","25.0197733333333","6500100","板橋區"
