"lineid","car","time","location","longitude","latitude","cityid","cityname"
"234026","9371-KE","2017/07/30 17:49:26","新北市永和區中山路一段127號","121.510755","25.009935","6500400","永和區"
"249005","172-UM","2017/07/30 17:49:41","新北市八里區荖阡坑路34-3號","121.402288333333","25.1318933333333","6502300","八里區"
"249001","173-UM","2017/07/30 17:49:31","新北市八里區龍米路二段123號","121.446658333333","25.14429","6502300","八里區"
"249004","303-UY","2017/07/30 17:49:26","新北市八里區中華路12-1號","121.41625","25.154295","6502300","八里區"
"249002","305-UY","2017/07/30 17:32:00","新北市八里區龍形五街37巷8-3號","121.448656666667","25.133675","6502300","八里區"
"249003","593-UM","2017/07/30 17:49:32","新北市八里區中山路二段123號","121.405468333333","25.1518716666667","6502300","八里區"
"248016","026-BX","2017/07/30 17:49:30","新北市五股區中興路二段83巷26-3號","121.46005","25.07538","6501500","五股區"
"248010","272-BY","2017/07/30 15:14:23","新北市五股區中興路二段37巷28號","121.460128333333","25.07502","6501500","五股區"
"244013","069-UM","2017/07/30 17:49:34","新北市林口區中正路525巷26號","121.383141666667","25.0766733333333","6501700","林口區"
"244007","080-UY","2017/07/30 17:49:38","新北市林口區林口路272巷21號","121.386871666667","25.0845433333333","6501700","林口區"
"244025","742-UY","2017/07/30 17:49:34","新北市林口區文化三路一段249巷69號","121.362833333333","25.0722233333333","6501700","林口區"
"244009","410-SL","2017/07/30 17:49:27","新北市林口區中北三街71號","121.384521666667","25.0852216666667","6501700","林口區"
"244023","483-VK","2017/07/30 17:49:38","新北市林口區興林路351號","121.389528333333","25.0688566666667","6501700","林口區"
"244017","485-VK","2017/07/30 17:49:33","新北市林口區忠孝路381號","121.369503333333","25.0714266666667","6501700","林口區"
"244019","657-BX","2017/07/30 17:49:33","新北市林口區忠孝路528號","121.372196666667","25.0687716666667","6501700","林口區"
"244011","701-TV","2017/07/30 17:49:41","新北市林口區中正路352號","121.386475","25.077715","6501700","林口區"
"244021","838-TS","2017/07/30 17:49:38","新北市林口區仁愛路一段159巷46號","121.39778","25.0722166666667","6501700","林口區"
"243003","549-UM","2017/07/30 16:18:24","新北市泰山區黎明路31號","121.421761666667","25.0606766666667","6501600","泰山區"
"241024","065-VK","2017/07/30 17:49:27","新北市三重區國道路一段39巷7號","121.483801666667","25.0730883333333","6500200","三重區"
"241005","262-UM","2017/07/30 17:49:28","新北市三重區仁愛街606號","121.483813333333","25.0808466666667","6500200","三重區"
"241016","266-UM","2017/07/30 17:49:41","新北市三重區重新路二段19號","121.498018333333","25.0623183333333","6500200","三重區"
"241014","543-UM","2017/07/30 17:49:37","新北市三重區龍濱路190號","121.501103333333","25.0732483333333","6500200","三重區"
"241033","AAC-255","2017/07/30 17:49:40","新北市三重區重新路五段545號","121.470736666667","25.04617","6500200","三重區"
"235064","005-UY","2017/07/30 17:49:26","新北市中和區員山路36巷16-3號","121.485036666667","24.99127","6500300","中和區"
"235072","301-VK","2017/07/30 17:49:36","新北市中和區員山路36巷13號","121.484055","24.991115","6500300","中和區"
"235062","800-TS","2017/07/30 17:49:38","新北市中和區員山路36巷16-3號","121.484986666667","24.99131","6500300","中和區"
"247020","893-R6","2017/07/30 17:49:42","新北市蘆洲區民權路190-1號","121.47205","25.0906466666667","6501400","蘆洲區"
"247010","546-UM","2017/07/30 17:49:46","新北市蘆洲區信義路269號","121.478958333333","25.0850166666667","6501400","蘆洲區"
"247017","500-BY","2017/07/30 17:49:38","新北市蘆洲區復興路227巷2弄13號","121.480633333333","25.0902983333333","6501400","蘆洲區"
"247001","402-BY","2017/07/30 15:49:55","新北市五股區中興路三段3-6號","121.449548333333","25.0787666666667","6501400","蘆洲區"
"247006","341-TH","2017/07/30 17:49:31","新北市蘆洲區中華街45-1號","121.4628","25.08121","6501400","蘆洲區"
"247008","339-TH","2017/07/30 17:49:27","新北市蘆洲區中山一路197巷6弄21號","121.474108333333","25.0802416666667","6501400","蘆洲區"
"247024","337-TH","2017/07/30 17:49:28","新北市蘆洲區光明路79號","121.46155","25.087365","6501400","蘆洲區"
"247002","336-TH","2017/07/30 17:49:29","新北市蘆洲區永平街32巷31號","121.459336666667","25.0920466666667","6501400","蘆洲區"
"247014","057-VK","2017/07/30 17:49:37","新北市五股區中興路二段182巷50號","121.453873333333","25.081085","6501400","蘆洲區"
"247012","007-UY","2017/07/30 17:49:32","新北市蘆洲區民族路165號","121.47917","25.088305","6501400","蘆洲區"
"247016","001-UY","2017/07/30 17:49:37","新北市蘆洲區中正路185巷78弄5號","121.465996666667","25.0844183333333","6501400","蘆洲區"
"228003","097-TW","2017/07/30 17:49:27","新北市貢寮區真理里美艷山街3-1號","121.92584","25.059425","6502600","貢寮區"
"228002","585-TW","2017/07/30 17:49:37","新北市貢寮區福隆里外隆林街15-2號","121.95858","25.0039483333333","6502600","貢寮區"
"228001","670-TC","2017/07/30 17:49:27","新北市貢寮區仁理村仁愛路95-1號","121.927731666667","25.0554766666667","6502600","貢寮區"
"227002","400-TW","2017/07/30 17:30:24","新北市雙溪區共和里東榮街42號","121.866075","25.0337116666667","6502500","雙溪區"
"208003","665-BX","2017/07/30 17:49:27","新北市金山區磺清路135號","121.639451666667","25.227785","6502700","金山區"
"208001","761-BX","2017/07/30 17:49:29","新北市金山區磺清路135號","121.639285","25.22779","6502700","金山區"
"251009","008-UM","2017/07/30 17:30:32","新北市淡水區重建街1巷10號","121.439721666667","25.1737883333333","6501000","淡水區"
"251004","009-UM","2017/07/30 17:49:29","新北市淡水區民權一街33-3號","121.459425","25.1362916666667","6501000","淡水區"
"251007","179-VK","2017/07/30 17:49:27","新北市淡水區民生路16巷4號","121.461111666667","25.1373683333333","6501000","淡水區"
"251014","180-VK","2017/07/30 17:49:42","新北市淡水區公埔子16-6號","121.481001666667","25.2245233333333","6501000","淡水區"
"251008","181-VK","2017/07/30 17:49:38","新北市淡水區八勢路一段156號","121.468108333333","25.1564666666667","6501000","淡水區"
"251015","182-VK","2017/07/30 17:49:41","新北市淡水區興福寮22-3號","121.494255","25.1643916666667","6501000","淡水區"
"251010","413-VK","2017/07/30 17:49:45","新北市淡水區淡海路189巷25-2號","121.41844","25.1845483333333","6501000","淡水區"
"251012","441-VK","2017/07/30 17:49:32","新北市淡水區北新路一段403號","121.46829","25.1828983333333","6501000","淡水區"
"251016","442-VK","2017/07/30 17:49:39","新北市淡水區埤島38號","121.450493333333","25.1963033333333","6501000","淡水區"
"251005","443-VK","2017/07/30 17:49:27","新北市淡水區學府路102巷12號","121.450728333333","25.1717783333333","6501000","淡水區"
"251001","559-UM","2017/07/30 17:49:24","新北市淡水區自強路201巷39號","121.46222","25.1267366666667","6501000","淡水區"
"251006","561-UM","2017/07/30 17:49:37","新北市淡水區大信街1巷25號","121.440153333333","25.1767066666667","6501000","淡水區"
"251013","577-R6","2017/07/30 17:49:41","新北市淡水區泉洲厝31號","121.479525","25.1910316666667","6501000","淡水區"
"251011","650-BX","2017/07/30 17:44:09","新北市淡水區吳(仔)厝65號","121.482416666667","25.1501966666667","6501000","淡水區"
"251002","672-BX","2017/07/30 17:49:42","新北市淡水區中山路42號","121.44426","25.17002","6501000","淡水區"
"251003","673-BX","2017/07/30 17:49:46","新北市淡水區大忠街40號","121.443635","25.17592","6501000","淡水區"
"207003","550-UM","2017/07/30 17:49:27","新北市萬里區野柳里東澳路55號","121.69203","25.2032733333333","6502800","萬里區"
"207004","225-TW","2017/07/30 17:49:30","新北市萬里區萬里里瑪鋉頂街61號","121.688351666667","25.1804466666667","6502800","萬里區"
"252005","073-UM","2017/07/30 08:58:12","新北市三芝區埔坪里埔頭坑41號","121.504463333333","25.264405","6502100","三芝區"
"252002","178-VK","2017/07/30 17:49:40","新北市三芝區中正路二段11號","121.504575","25.25542","6502100","三芝區"
"252001","292-VK","2017/07/30 17:49:33","新北市三芝區淡金路一段14號","121.499383333333","25.2594933333333","6502100","三芝區"
"252007","AAC-283","2017/07/30 16:00:40","新北市三芝區埔坪里埔頭坑41號","121.504516666667","25.2643983333333","6502100","三芝區"
"208002","170-UY","2017/07/30 17:49:25","新北市金山區磺清路135號","121.639361666667","25.22758","6502700","金山區"
"237009","210-TH","2017/07/30 17:49:29","新北市三峽區大勇路74號","121.367183333333","24.93628","6500900","三峽區"
"237013","252-BX","2017/07/30 17:49:29","新北市三峽區愛國路30號","121.37437","24.9333183333333","6500900","三峽區"
"237012","275-BY","2017/07/30 17:49:41","新北市三峽區民生街119-4號","121.373628333333","24.9352133333333","6500900","三峽區"
"237008","302-VK","2017/07/30 17:49:40","新北市三峽區中正路一段443號","121.368468333333","24.9199783333333","6500900","三峽區"
"237014","433-BY","2017/07/30 17:49:26","新北市三峽區文化路120巷19號","121.37101","24.9368016666667","6500900","三峽區"
"237006","5529-G3","2017/07/30 17:49:30","新北市三峽區介壽路二段138巷1弄90-2號","121.397448333333","24.9320616666667","6500900","三峽區"
"237011","572-TV","2017/07/30 17:36:47","新北市三峽區中山路96號","121.366526666667","24.935385","6500900","三峽區"
"237016","649-BX","2017/07/30 17:49:28","新北市三峽區白雞33-8號","121.371955","24.91215","6500900","三峽區"
"237010","706-TV","2017/07/30 17:49:29","新北市三峽區中山路92號","121.366678333333","24.9353883333333","6500900","三峽區"
"237005","AKY-6261","2017/07/30 17:49:42","新北市三峽區中山路138號","121.365243333333","24.9361933333333","6500900","三峽區"
"242021","AAC-296","2017/07/30 17:49:40","新北市新莊區中港路128號","121.45528","25.0405316666667","6500500","新莊區"
"242029","986-R7","2017/07/30 17:49:43","新北市新莊區復興路一段63號","121.447595","25.042405","6500500","新莊區"
"242048","751-BX","2017/07/30 17:49:32","新北市新莊區萬安街144號","121.420135","25.02122","6500500","新莊區"
"242025","615-BX","2017/07/30 17:49:43","新北市新莊區新北大道二段302號","121.46482","25.0613066666667","6500500","新莊區"
"242023","613-BX","2017/07/30 17:49:39","新北市新莊區福樂街35號","121.457683333333","25.0469316666667","6500500","新莊區"
"242027","612-BX","2017/07/30 17:49:42","新北市新莊區福壽街167號","121.458","25.0536433333333","6500500","新莊區"
"242036","566-BX","2017/07/30 17:49:39","新北市新莊區建福路57號","121.426926666667","25.0273783333333","6500500","新莊區"
"242004","442-UM","2017/07/30 17:49:41","新北市新莊區自立街249號","121.458775","25.0456083333333","6500500","新莊區"
"242046","441-UM","2017/07/30 17:49:29","新北市新莊區建國一路31巷11號","121.434711666667","25.03168","6500500","新莊區"
"242051","440-UM","2017/07/30 17:49:45","新北市新莊區西盛街257巷22號","121.428911666667","25.0157166666667","6500500","新莊區"
"242031","415-TV","2017/07/30 17:49:27","新北市新莊區新泰路289巷56號","121.442936666667","25.0403133333333","6500500","新莊區"
"242002","413-TV","2017/07/30 17:49:36","新北市新莊區大觀街42巷12號","121.454478333333","25.0360366666667","6500500","新莊區"
"242039","400-BY","2017/07/30 17:49:25","新北市新莊區民安路138號","121.424253333333","25.0253266666667","6500500","新莊區"
"242061","362-BY","2017/07/30 17:49:43","新北市新莊區新樹路359-1號","121.43295","25.01815","6500500","新莊區"
"242058","353-BY","2017/07/30 17:49:43","新北市新莊區中山路三段627號","121.413931666667","25.0237233333333","6500500","新莊區"
"242042","132-UY","2017/07/30 17:49:45","新北市泰山區貴陽街24號","121.422786666667","25.0325966666667","6500500","新莊區"
"242034","133-UY","2017/07/30 17:49:32","新北市新莊區新莊路783號","121.441163333333","25.0326733333333","6500500","新莊區"
"242019","135-UY","2017/07/30 17:49:30","新北市新莊區民樂街42號","121.458006666667","25.041315","6500500","新莊區"
"242044","172-VK","2017/07/30 17:49:32","新北市新莊區雙鳳路41號","121.416156666667","25.0270783333333","6500500","新莊區"
"242007","173-VK","2017/07/30 17:49:44","新北市新莊區福樂街132巷8號","121.456768333333","25.0483116666667","6500500","新莊區"
"242013","175-VK","2017/07/30 17:49:28","新北市新莊區中誠街168號","121.44812","25.04739","6500500","新莊區"
"242055","176-VK","2017/07/30 17:49:28","新北市新莊區瓊林路40巷10號","121.447631666667","25.030245","6500500","新莊區"
"242011","346-TH","2017/07/30 17:49:39","新北市新莊區中富街96號","121.449881666667","25.0560883333333","6500500","新莊區"
"242017","348-TH","2017/07/30 17:49:41","新北市新莊區永安街88號","121.450648333333","25.0446116666667","6500500","新莊區"
"242053","349-TH","2017/07/30 17:49:35","新北市新莊區民安西路468-1號","121.431715","25.0078766666667","6500500","新莊區"
"242015","350-TH","2017/07/30 17:49:38","新北市新莊區新泰路502巷41弄12號","121.443768333333","25.0467333333333","6500500","新莊區"
"242009","351-TH","2017/07/30 17:49:35","新北市新莊區中華路二段258巷5號","121.453426666667","25.0531966666667","6500500","新莊區"
"221008","489-VK","2017/07/30 17:49:26","新北市汐止區康寧街901號","121.651395","25.0749933333333","6501100","汐止區"
"221036","130-UY","2017/07/30 17:49:32","新北市汐止區吉祥街27巷2號","121.667771666667","25.08157","6501100","汐止區"
"221015","131-UY","2017/07/30 17:49:42","新北市汐止區長江街213號","121.660598333333","25.07701","6501100","汐止區"
"221012","269-BY","2017/07/30 17:49:37","新北市汐止區汐萬路二段59號","121.6493","25.0822383333333","6501100","汐止區"
"221012","278-VK","2017/07/30 15:38:40","新北市汐止區汐萬路一段256巷3號","121.652223333333","25.07526","6501100","汐止區"
"221023","279-VK","2017/07/30 02:45:23","新北市汐止區汐萬路一段256巷1號","121.651925","25.0749983333333","6501100","汐止區"
"221032","280-BY","2017/07/30 17:49:39","新北市汐止區樟樹二路339巷16-1號","121.641655","25.07094","6501100","汐止區"
"221027","281-BY","2017/07/30 17:49:03","新北市汐止區康寧街901號","121.651758333333","25.075005","6501100","汐止區"
"221029","298-VK","2017/07/30 17:49:32","新北市汐止區康寧街901號","121.651665","25.0749933333333","6501100","汐止區"
"221021","299-VK","2017/07/30 02:51:20","新北市汐止區汐萬路一段256巷3號","121.65218","25.075135","6501100","汐止區"
"221031","353-TW","2017/07/30 17:49:41","新北市汐止區康寧街901號","121.651171666667","25.0751183333333","6501100","汐止區"
"221035","622-UM","2017/07/30 17:49:30","新北市汐止區汐萬路一段213號","121.652073333333","25.0721133333333","6501100","汐止區"
"221025","623-UM","2017/07/30 17:49:41","新北市汐止區仁愛路1號","121.658568333333","25.064225","6501100","汐止區"
"221033","647-BX","2017/07/30 17:49:36","新北市汐止區橫科路119號","121.619963333333","25.050425","6501100","汐止區"
"220042","689-BX","2017/07/30 16:31:10","新北市板橋區民生路二段161巷5號","121.470278333333","25.0197733333333","6500100","板橋區"
