"lineid","car","time","location","longitude","latitude","cityid","cityname"
"234050","863-TW","2017/07/30 18:09:23","新北市永和區保生路55號","121.504556666667","25.010605","6500400","永和區"
"234026","9371-KE","2017/07/30 18:09:26","新北市永和區永和路一段72巷6號","121.513411666667","25.0059216666667","6500400","永和區"
"249005","172-UM","2017/07/30 18:09:40","新北市八里區荖阡坑路15號","121.401451666667","25.1399216666667","6502300","八里區"
"249001","173-UM","2017/07/30 18:09:31","新北市八里區龍米路二段26號","121.44874","25.1394033333333","6502300","八里區"
"249004","303-UY","2017/07/30 18:09:26","新北市八里區龍米路二段200巷3號","121.433741666667","25.1587216666667","6502300","八里區"
"249002","305-UY","2017/07/30 17:32:00","新北市八里區龍形五街37巷8-3號","121.448656666667","25.133675","6502300","八里區"
"249003","593-UM","2017/07/30 18:09:32","新北市八里區中華路二段165巷19弄8號","121.409371666667","25.1511166666667","6502300","八里區"
"248014","025-BX","2017/07/30 18:09:36","新北市五股區成泰路一段231-13號","121.435336666667","25.0778166666667","6501500","五股區"
"248016","026-BX","2017/07/30 18:09:30","新北市五股區成泰路三段149號","121.444915","25.0914283333333","6501500","五股區"
"248005","077-UY","2017/07/30 18:09:27","新北市五股區中興路二段82號","121.460861666667","25.0773183333333","6501500","五股區"
"248008","095-VK","2017/07/30 18:09:37","新北市五股區更洲路32巷15弄1號","121.45874","25.08028","6501500","五股區"
"248012","247-BX","2017/07/30 15:56:05","新北市五股區中興路二段83巷26-6號","121.459433333333","25.0752433333333","6501500","五股區"
"248018","261-SL","2017/07/30 18:09:42","新北市五股區成泰路三段55號","121.443195","25.0895133333333","6501500","五股區"
"248010","272-BY","2017/07/30 18:09:38","新北市五股區成泰路一段212號","121.436353333333","25.079155","6501500","五股區"
"248004","655-BX","2017/07/30 18:09:26","新北市五股區成泰路二段65號","121.437998333333","25.0836616666667","6501500","五股區"
"248002","678-BX","2017/07/30 18:09:25","新北市五股區新五路二段367號","121.44433","25.0880283333333","6501500","五股區"
"244013","069-UM","2017/07/30 18:09:34","新北市林口區中山路16號","121.396275","25.0783333333333","6501700","林口區"
"244007","080-UY","2017/07/30 18:09:38","新北市林口區竹林路275號","121.389641666667","25.08117","6501700","林口區"
"244025","742-UY","2017/07/30 18:09:34","新北市林口區文明街182號","121.361263333333","25.0727666666667","6501700","林口區"
"244009","410-SL","2017/07/30 18:09:27","新北市林口區佳林路56巷45號","121.385061666667","25.0807066666667","6501700","林口區"
"244023","483-VK","2017/07/30 18:05:58","新北市林口區東湖路93巷84號","121.38539","25.0710416666667","6501700","林口區"
"244017","485-VK","2017/07/30 18:09:33","新北市林口區文化一路一段57-2號","121.370931666667","25.0699983333333","6501700","林口區"
"244019","657-BX","2017/07/30 18:09:33","新北市林口區文化一路一段126號","121.375216666667","25.0724716666667","6501700","林口區"
"244011","701-TV","2017/07/30 18:09:41","新北市林口區中正路30巷6號","121.395905","25.0776766666667","6501700","林口區"
"244021","838-TS","2017/07/30 18:09:38","新北市林口區自強五街11號","121.398995","25.0763933333333","6501700","林口區"
"243003","549-UM","2017/07/30 16:18:24","新北市泰山區黎明路31號","121.421761666667","25.0606766666667","6501600","泰山區"
"231056","0291-UT","2017/07/30 18:09:35","新北市新店區安華路28-1號","121.519551666667","24.9609216666667","6500600","新店區"
"231018","107-UY","2017/07/30 18:09:26","新北市新店區安華路28-1號","121.519465","24.9612633333333","6500600","新店區"
"231020","187-VK","2017/07/30 18:09:27","新北市新店區安華路28-1號","121.5195","24.9611366666667","6500600","新店區"
"231055","3713-VJ","2017/07/30 18:09:43","新北市新店區安華路28-1號","121.519265","24.9606083333333","6500600","新店區"
"231043","899-TW","2017/07/30 18:09:23","新北市新店區安華路28-1號","121.519316666667","24.960855","6500600","新店區"
"241023","545-UM","2017/07/30 18:09:35","新北市三重區忠孝路三段84巷32號","121.481556666667","25.0641483333333","6500200","三重區"
"241033","AAC-255","2017/07/30 18:09:41","新北市三重區中興北街42巷30號","121.468656666667","25.0492016666667","6500200","三重區"
"235066","003-UY","2017/07/30 18:09:37","新北市中和區圓通路25號","121.501163333333","24.9978616666667","6500300","中和區"
"235064","005-UY","2017/07/30 18:09:26","新北市中和區中正路395號","121.48991","24.9939966666667","6500300","中和區"
"235063","006-UY","2017/07/30 18:09:20","新北市中和區員山路36巷16-3號","121.48516","24.9912416666667","6500300","中和區"
"235065","098-UM","2017/07/30 18:09:30","新北市中和區莊敬路49巷18號","121.501656666667","25.0061066666667","6500300","中和區"
"235058","151-BY","2017/07/30 18:09:26","新北市中和區圓通路367巷29號","121.492518333333","24.9855916666667","6500300","中和區"
"235038","185-VK","2017/07/30 18:09:23","新北市中和區景平路191號","121.511411666667","24.9924866666667","6500300","中和區"
"235072","301-VK","2017/07/30 18:09:36","新北市中和區員山路36巷13號","121.484326666667","24.9907866666667","6500300","中和區"
"235051","376-QA","2017/07/30 18:09:26","新北市中和區板南路218號","121.498028333333","24.9938066666667","6500300","中和區"
"235061","378-QA","2017/07/30 17:57:22","新北市中和區員山路36巷16-3號","121.484935","24.9914083333333","6500300","中和區"
"235050","4979-A6","2017/07/30 18:09:39","新北市中和區中正路464號","121.490068333333","24.9940016666667","6500300","中和區"
"235069","4980-A6","2017/07/30 18:09:38","新北市中和區連城路347巷35弄8號","121.488765","24.9946366666667","6500300","中和區"
"235042","551-UM","2017/07/30 18:09:31","新北市中和區中正路395號","121.48956","24.9941933333333","6500300","中和區"
"235054","640-BX","2017/07/30 18:09:39","新北市中和區員山路72號","121.480923333333","24.9935783333333","6500300","中和區"
"235062","800-TS","2017/07/30 18:09:38","新北市中和區橋和路60號","121.489635","25.0052583333333","6500300","中和區"
"235053","900-TW","2017/07/30 18:09:32","新北市中和區員山路36巷16-3號","121.484926666667","24.99171","6500300","中和區"
"235037","AAC-213","2017/07/30 18:09:37","新北市中和區錦和路350-1號","121.490441666667","24.9935633333333","6500300","中和區"
"247001","402-BY","2017/07/30 15:49:55","新北市五股區中興路三段3-6號","121.449548333333","25.0787666666667","6501400","蘆洲區"
"247006","341-TH","2017/07/30 18:09:31","新北市八里區中山路三段363號","121.374431666667","25.13862","6501400","蘆洲區"
"247008","339-TH","2017/07/30 18:09:07","新北市五股區中直路17-3號","121.422028333333","25.1116333333333","6501400","蘆洲區"
"247014","057-VK","2017/07/30 18:09:37","新北市林口區太平里180號","121.36843","25.1344916666667","6501400","蘆洲區"
"228003","097-TW","2017/07/30 18:09:27","新北市貢寮區真理里美艷山街6-2號","121.928928333333","25.060675","6502600","貢寮區"
"228002","585-TW","2017/07/30 18:09:37","新北市貢寮區福連里馬崗街35號","122.000953333333","25.0119466666667","6502600","貢寮區"
"228001","670-TC","2017/07/30 18:09:27","新北市貢寮區真理里新港街26巷55弄2-1號","121.927336666667","25.0528133333333","6502600","貢寮區"
"224011","AGQ-8101","2017/07/30 18:09:38","新北市瑞芳區豎崎路36號","121.84319","25.110245","6501200","瑞芳區"
"227002","400-TW","2017/07/30 18:09:25","新北市雙溪區共和里東榮街27號","121.866011666667","25.0336816666667","6502500","雙溪區"
"208003","665-BX","2017/07/30 18:09:27","新北市金山區磺港里磺港路304號","121.643653333333","25.2268916666667","6502700","金山區"
"208001","761-BX","2017/07/30 18:09:29","新北市金山區磺港里磺港路110號","121.646356666667","25.226765","6502700","金山區"
"251009","008-UM","2017/07/30 17:30:32","新北市淡水區重建街1巷10號","121.439721666667","25.1737883333333","6501000","淡水區"
"251004","009-UM","2017/07/30 18:09:29","新北市淡水區民族路98號","121.462635","25.135475","6501000","淡水區"
"251014","180-VK","2017/07/30 18:09:42","新北市淡水區南平14-3號","121.486088333333","25.220765","6501000","淡水區"
"251008","181-VK","2017/07/30 18:09:38","新北市淡水區淡金路16巷60弄1號","121.459588333333","25.1609816666667","6501000","淡水區"
"251015","182-VK","2017/07/30 18:09:41","新北市淡水區興福寮88巷1號","121.48551","25.1650933333333","6501000","淡水區"
"251010","413-VK","2017/07/30 18:09:25","新北市淡水區中正路二段52號","121.419781666667","25.183335","6501000","淡水區"
"251012","441-VK","2017/07/30 18:09:32","新北市淡水區北新路三段120號","121.487188333333","25.18868","6501000","淡水區"
"251016","442-VK","2017/07/30 18:09:39","新北市淡水區下圭柔山15-5號","121.452278333333","25.2015883333333","6501000","淡水區"
"251005","443-VK","2017/07/30 18:09:27","新北市淡水區水源街一段141號","121.447198333333","25.17192","6501000","淡水區"
"251001","559-UM","2017/07/30 18:09:24","新北市淡水區自立路10號","121.463068333333","25.1297866666667","6501000","淡水區"
"251006","561-UM","2017/07/30 18:09:37","新北市淡水區真理街3巷26-1號","121.43802","25.1766783333333","6501000","淡水區"
"251013","577-R6","2017/07/30 18:09:41","新北市淡水區竹圍子10-2號","121.475993333333","25.194705","6501000","淡水區"
"251011","650-BX","2017/07/30 18:09:29","新北市淡水區三空泉9-2號","121.47412","25.16352","6501000","淡水區"
"251002","672-BX","2017/07/30 18:09:36","新北市淡水區中正東路一段25號","121.451791666667","25.16324","6501000","淡水區"
"251003","673-BX","2017/07/30 18:09:46","新北市淡水區北新路184巷3-1號","121.44943","25.1783716666667","6501000","淡水區"
"207003","550-UM","2017/07/30 18:09:27","新北市萬里區野柳里港西路70-3號","121.685473333333","25.204745","6502800","萬里區"
"207004","225-TW","2017/07/30 18:09:30","新北市萬里區中幅里中福路93號","121.675653333333","25.1697","6502800","萬里區"
"252005","073-UM","2017/07/30 08:58:12","新北市三芝區埔坪里埔頭坑41號","121.504463333333","25.264405","6502100","三芝區"
"252002","178-VK","2017/07/30 18:09:40","新北市三芝區中山路二段47巷1號","121.502868333333","25.254775","6502100","三芝區"
"252001","292-VK","2017/07/30 18:09:33","新北市三芝區中興街二段2號","121.498345","25.25665","6502100","三芝區"
"252007","AAC-283","2017/07/30 16:00:40","新北市三芝區埔坪里埔頭坑41號","121.504516666667","25.2643983333333","6502100","三芝區"
"208002","170-UY","2017/07/30 18:09:30","新北市金山區三界壇路99巷9-1號","121.621141666667","25.228165","6502700","金山區"
"237007","153-BY","2017/07/30 18:09:26","新北市三峽區中正路二段370巷1號","121.365475","24.909685","6500900","三峽區"
"237009","210-TH","2017/07/30 18:09:29","新北市三峽區大仁路34巷6弄1號","121.365876666667","24.9380333333333","6500900","三峽區"
"237013","252-BX","2017/07/30 18:09:29","新北市三峽區長泰街16號","121.37882","24.9309983333333","6500900","三峽區"
"237012","275-BY","2017/07/30 18:09:41","新北市三峽區民生街19巷7弄18號","121.377045","24.935625","6500900","三峽區"
"237008","302-VK","2017/07/30 18:09:40","新北市三峽區白雞58-12號","121.384585","24.9104333333333","6500900","三峽區"
"237014","433-BY","2017/07/30 18:09:26","新北市三峽區復興路80巷26號","121.373758333333","24.9378916666667","6500900","三峽區"
"237006","5529-G3","2017/07/30 18:09:30","新北市三峽區溪東路235號","121.406503333333","24.9325816666667","6500900","三峽區"
"237011","572-TV","2017/07/30 18:03:10","新北市三峽區橫溪路1號","121.396068333333","24.9361683333333","6500900","三峽區"
"237016","649-BX","2017/07/30 18:09:28","新北市三峽區紫新路36巷1號","121.421908333333","24.9223533333333","6500900","三峽區"
"237010","706-TV","2017/07/30 18:09:29","新北市三峽區民族街3號","121.369141666667","24.9313633333333","6500900","三峽區"
"237005","AKY-6261","2017/07/30 18:09:42","新北市三峽區忠孝街16號","121.370863333333","24.9342366666667","6500900","三峽區"
"236017","401-BY","2017/07/30 18:09:26","新北市土城區中央路二段280號","121.440731666667","24.9743066666667","6501300","土城區"
"242021","AAC-296","2017/07/30 18:09:39","新北市新莊區建興街67號","121.449816666667","25.0379766666667","6500500","新莊區"
"242029","986-R7","2017/07/30 18:09:23","新北市新莊區中平路154號","121.444743333333","25.0471966666667","6500500","新莊區"
"242025","615-BX","2017/07/30 18:09:45","新北市新莊區五工三路97號","121.458005","25.0653333333333","6500500","新莊區"
"242027","612-BX","2017/07/30 18:09:35","新北市新莊區幸福路596號","121.453411666667","25.0494666666667","6500500","新莊區"
"242036","566-BX","2017/07/30 18:09:39","新北市新莊區後港一路49巷3弄1號","121.425761666667","25.026745","6500500","新莊區"
"242004","442-UM","2017/07/30 18:09:41","新北市新莊區自立街108號","121.4551","25.0453066666667","6500500","新莊區"
"242046","441-UM","2017/07/30 18:09:29","新北市新莊區福營路334號","121.421678333333","25.0267533333333","6500500","新莊區"
"242051","440-UM","2017/07/30 18:09:40","新北市新莊區民本街25巷17號","121.429215","25.0194533333333","6500500","新莊區"
"242031","415-TV","2017/07/30 18:09:27","新北市新莊區新泰路277巷6號","121.44529","25.040345","6500500","新莊區"
"242002","413-TV","2017/07/30 18:09:45","新北市新莊區大觀街14巷6號","121.454613333333","25.0341566666667","6500500","新莊區"
"242039","400-BY","2017/07/30 18:09:25","新北市新莊區民安東路185號","121.433086666667","25.0204116666667","6500500","新莊區"
"242061","362-BY","2017/07/30 18:09:34","新北市新莊區富國路176巷1號","121.424203333333","25.02431","6500500","新莊區"
"242058","353-BY","2017/07/30 18:09:42","新北市新莊區新北大道七段848號","121.413708333333","25.0235816666667","6500500","新莊區"
"242042","132-UY","2017/07/30 18:09:45","新北市新莊區新北大道七段227號","121.413865","25.0298766666667","6500500","新莊區"
"242034","133-UY","2017/07/30 18:09:32","新北市新莊區景德路382號","121.446298333333","25.03356","6500500","新莊區"
"242019","135-UY","2017/07/30 18:09:31","新北市新莊區中港路138巷7弄8號","121.45588","25.0412566666667","6500500","新莊區"
"242044","172-VK","2017/07/30 18:09:32","新北市新莊區天泉二街24巷1號","121.414658333333","25.0254483333333","6500500","新莊區"
"242007","173-VK","2017/07/30 18:09:37","新北市新莊區中華路二段82號","121.453756666667","25.0468966666667","6500500","新莊區"
"242013","175-VK","2017/07/30 18:09:28","新北市新莊區三和路12-21號","121.44206","25.0386483333333","6500500","新莊區"
"242056","176-VK","2017/07/30 18:09:28","新北市新莊區豐年街豐2巷23號","121.447433333333","25.0308933333333","6500500","新莊區"
"242011","346-TH","2017/07/30 18:09:44","新北市新莊區中榮街15號","121.450823333333","25.052735","6500500","新莊區"
"242017","348-TH","2017/07/30 18:09:41","新北市新莊區永樂街58號","121.451153333333","25.04503","6500500","新莊區"
"242053","349-TH","2017/07/30 18:09:35","新北市新莊區民安西路327巷3號","121.427841666667","25.011385","6500500","新莊區"
"242015","350-TH","2017/07/30 18:09:38","新北市新莊區中平路152巷15號","121.445543333333","25.0474883333333","6500500","新莊區"
"242009","351-TH","2017/07/30 18:09:35","新北市新莊區幸福路600號","121.45304","25.0494666666667","6500500","新莊區"
"221008","489-VK","2017/07/30 18:09:26","新北市汐止區康寧街387號","121.629175","25.0677816666667","6501100","汐止區"
"221036","130-UY","2017/07/30 18:09:41","新北市汐止區大同路三段109號","121.668525","25.0776333333333","6501100","汐止區"
"221015","131-UY","2017/07/30 18:09:42","新北市汐止區鄉長路二段90-1號","121.665936666667","25.085595","6501100","汐止區"
"221012","269-BY","2017/07/30 18:09:37","新北市汐止區汐萬路二段248號","121.646218333333","25.0888566666667","6501100","汐止區"
"221012","278-VK","2017/07/30 15:38:40","新北市汐止區汐萬路一段256巷3號","121.652223333333","25.07526","6501100","汐止區"
"221023","279-VK","2017/07/30 02:45:23","新北市汐止區汐萬路一段256巷1號","121.651925","25.0749983333333","6501100","汐止區"
"221032","280-BY","2017/07/30 18:09:39","新北市汐止區力行街4號","121.617181666667","25.0511716666667","6501100","汐止區"
"221027","281-BY","2017/07/30 18:09:43","新北市汐止區和平街7號","121.663276666667","25.0707116666667","6501100","汐止區"
"221029","298-VK","2017/07/30 18:09:32","新北市汐止區樟樹二路132號","121.639905","25.0656233333333","6501100","汐止區"
"221021","299-VK","2017/07/30 02:51:20","新北市汐止區汐萬路一段256巷3號","121.65218","25.075135","6501100","汐止區"
"221031","353-TW","2017/07/30 18:09:41","新北市汐止區中興路216號","121.631011666667","25.0662683333333","6501100","汐止區"
"221035","622-UM","2017/07/30 18:09:30","新北市汐止區大同路二段229號","121.653218333333","25.06508","6501100","汐止區"
"221025","623-UM","2017/07/30 18:09:41","新北市汐止區秀峰路160號","121.660311666667","25.0621183333333","6501100","汐止區"
"221033","647-BX","2017/07/30 18:09:36","新北市汐止區林森街1號","121.621078333333","25.0411416666667","6501100","汐止區"
"221002","707-TV","2017/07/30 18:09:38","新北市汐止區福德一路201巷32號","121.635896666667","25.064895","6501100","汐止區"
"220042","689-BX","2017/07/30 16:31:10","新北市板橋區民生路二段161巷5號","121.470278333333","25.0197733333333","6500100","板橋區"
