"lineid","car","time","location","longitude","latitude","cityid","cityname"
"234046","148-BY","2017/07/30 19:09:23","新北市永和區永元路71號","121.522186666667","25.0010083333333","6500400","永和區"
"234013","149-BY","2017/07/30 19:09:41","新北市永和區仁愛路152號","121.510708333333","25.0129","6500400","永和區"
"234007","207-UY","2017/07/30 19:09:37","新北市永和區中山路一段334號","121.506175","25.0063666666667","6500400","永和區"
"234081","298-R6","2017/07/30 19:09:37","新北市永和區永貞路41號","121.52115","25.0064366666667","6500400","永和區"
"234038","336-UY","2017/07/30 19:09:34","新北市永和區民樂街59巷1-1號","121.527746666667","24.99829","6500400","永和區"
"234064","337-UY","2017/07/30 19:09:26","新北市永和區秀朗路二段33號","121.521236666667","25.00244","6500400","永和區"
"234086","338-UY","2017/07/30 19:09:42","新北市永和區中正路548號","121.517398333333","25.0054483333333","6500400","永和區"
"234070","552-UM","2017/07/30 19:09:37","新北市永和區豫溪街84號","121.518051666667","25.0099516666667","6500400","永和區"
"234054","553-UM","2017/07/30 19:09:30","新北市永和區中興街102號","121.519071666667","25.01232","6500400","永和區"
"234017","745-BX","2017/07/30 19:09:23","新北市永和區文化路90巷9弄2號","121.5138","25.015825","6500400","永和區"
"234030","746-BX","2017/07/30 19:09:37","新北市永和區厚德街68號","121.523943333333","24.998885","6500400","永和區"
"234061","AAD-866","2017/07/30 19:09:27","新北市永和區安樂路304巷14號","121.514703333333","25.005285","6500400","永和區"
"234042","862-TW","2017/07/30 19:09:37","新北市永和區保平路135號","121.510383333333","25.0062566666667","6500400","永和區"
"234050","863-TW","2017/07/30 19:09:23","新北市永和區文化路135巷9號","121.510673333333","25.0144383333333","6500400","永和區"
"234026","9371-KE","2017/07/30 19:09:26","新北市永和區安樂路270號","121.514496666667","25.0040566666667","6500400","永和區"
"249005","172-UM","2017/07/30 19:09:40","新北市八里區中華路三段51號","121.39525","25.1415","6502300","八里區"
"249001","173-UM","2017/07/30 19:09:31","新北市八里區龍米路二段238號","121.43074","25.1586866666667","6502300","八里區"
"249002","305-UY","2017/07/30 17:32:00","新北市八里區龍形五街37巷8-3號","121.448656666667","25.133675","6502300","八里區"
"249003","593-UM","2017/07/30 19:09:26","新北市八里區博物館路105號","121.409013333333","25.1593483333333","6502300","八里區"
"248016","026-BX","2017/07/30 19:09:30","新北市五股區成泰路三段559巷36弄3號","121.45071","25.102885","6501500","五股區"
"248012","247-BX","2017/07/30 18:50:27","新北市五股區成泰路二段198號","121.43889","25.08491","6501500","五股區"
"248018","261-SL","2017/07/30 19:09:42","新北市五股區壟路14-8號","121.41541","25.0864516666667","6501500","五股區"
"248010","272-BY","2017/07/30 19:09:38","新北市五股區自強路90巷72號","121.430741666667","25.0713083333333","6501500","五股區"
"248004","655-BX","2017/07/30 19:09:26","新北市五股區六合街3號","121.431846666667","25.0885233333333","6501500","五股區"
"248002","678-BX","2017/07/30 19:09:25","新北市五股區凌雲路一段158巷14-1號","121.447806666667","25.10352","6501500","五股區"
"234023","9380-KE","2017/07/30 19:09:24","新北市永和區中興街52巷8號","121.51689","25.01086","6500400","永和區"
"234077","969-R7","2017/07/30 19:09:33","新北市永和區民權路40號","121.520203333333","24.9987633333333","6500400","永和區"
"234074","AAC-211","2017/07/30 19:09:32","新北市永和區竹林路133號","121.520255","25.0109016666667","6500400","永和區"
"234067","AAC-212","2017/07/30 19:09:33","新北市永和區保平路28號","121.512216666667","25.0073966666667","6500400","永和區"
"234003","AAC-295","2017/07/30 19:09:29","新北市永和區保福路一段88號","121.51219","25.01031","6500400","永和區"
"244013","069-UM","2017/07/30 19:09:34","新北市林口區麗園一街11巷7號","121.378148333333","25.0704933333333","6501700","林口區"
"244007","080-UY","2017/07/30 19:09:18","新北市林口區太平嶺17號","121.377743333333","25.1148716666667","6501700","林口區"
"244025","742-UY","2017/07/30 19:09:34","新北市林口區民族路181號","121.367593333333","25.07671","6501700","林口區"
"244009","410-SL","2017/07/30 19:09:27","新北市林口區竹林路346巷10號","121.392268333333","25.0834916666667","6501700","林口區"
"244023","483-VK","2017/07/30 19:09:38","新北市林口區民權路79號","121.372106666667","25.0810033333333","6501700","林口區"
"244017","485-VK","2017/07/30 19:09:33","新北市林口區文化二路一段120巷1-1號","121.368065","25.0705733333333","6501700","林口區"
"244019","657-BX","2017/07/30 19:09:33","新北市林口區麗園二街47巷49號","121.382608333333","25.0695516666667","6501700","林口區"
"244011","701-TV","2017/07/30 19:09:41","新北市林口區中正路341號","121.388101666667","25.0776083333333","6501700","林口區"
"243003","549-UM","2017/07/30 16:18:24","新北市泰山區黎明路31號","121.421761666667","25.0606766666667","6501600","泰山區"
"231056","0291-UT","2017/07/30 19:09:35","新北市新店區建國路218號","121.537963333333","24.9811366666667","6500600","新店區"
"231028","046-UY","2017/07/30 19:09:34","新北市新店區安業街1-1號","121.516705","24.9787583333333","6500600","新店區"
"231061","047-UY","2017/07/30 19:09:38","新北市新店區安康路一段113號","121.528465","24.9616633333333","6500600","新店區"
"231060","106-UY","2017/07/30 19:09:35","新北市新店區安康路二段250號","121.5091","24.9590583333333","6500600","新店區"
"231020","187-VK","2017/07/30 19:09:27","新北市新店區自強路70號","121.546243333333","24.925205","6500600","新店區"
"231054","513-UM","2017/07/30 19:09:35","新北市新店區新店路137號","121.537048333333","24.95465","6500600","新店區"
"231064","515-UM","2017/07/30 19:09:40","新北市新店區安忠路56巷6號","121.512886666667","24.95939","6500600","新店區"
"231001","619-UM","2017/07/30 19:09:44","新北市新店區三民路98-3號","121.533953333333","24.97346","6500600","新店區"
"231063","645-TV","2017/07/30 19:09:25","新北市新店區車子路137號","121.505175","24.94835","6500600","新店區"
"231013","719-UM","2017/07/30 19:09:36","新北市新店區二十張路25巷3號","121.538923333333","24.98212","6500600","新店區"
"231044","897-TW","2017/07/30 19:09:28","新北市新店區寶中路45-2號","121.544883333333","24.9794383333333","6500600","新店區"
"231043","899-TW","2017/07/30 19:09:25","新北市新店區寶橋路77號","121.545843333333","24.9753083333333","6500600","新店區"
"231037","AKT-0513","2017/07/30 19:09:25","新北市新店區安康路三段359巷12弄25號","121.484028333333","24.9493233333333","6500600","新店區"
"241020","060-VK","2017/07/30 19:09:35","新北市三重區忠孝路二段34號","121.485891666667","25.071045","6500200","三重區"
"241017","063-VK","2017/07/30 19:09:31","新北市三重區長壽西街169號","121.492698333333","25.0663266666667","6500200","三重區"
"241026","066-VK","2017/07/30 19:09:28","新北市三重區泉州街57號","121.494646666667","25.0549","6500200","三重區"
"241018","268-UM","2017/07/30 19:09:27","新北市三重區雙園街58號","121.495885","25.0677066666667","6500200","三重區"
"241013","270-UM","2017/07/30 19:09:32","新北市三重區仁賢街16-1號","121.495816666667","25.0749983333333","6500200","三重區"
"241035","462-BY","2017/07/30 19:09:33","新北市三重區重新路四段121號","121.484661666667","25.0518516666667","6500200","三重區"
"241001","547-UM","2017/07/30 19:09:34","新北市三重區五華街11號","121.495033333333","25.0801583333333","6500200","三重區"
"241029","942-UM","2017/07/30 19:09:35","新北市三重區集美街263號","121.492471666667","25.0557","6500200","三重區"
"235066","003-UY","2017/07/30 19:09:37","新北市中和區廣福路48號","121.504116666667","25.0019366666667","6500300","中和區"
"235064","005-UY","2017/07/30 19:09:26","新北市中和區中和路26巷14號","121.499283333333","25.0014816666667","6500300","中和區"
"235063","006-UY","2017/07/30 19:09:39","新北市中和區中正路634號","121.485341666667","24.99619","6500300","中和區"
"235056","096-UM","2017/07/30 19:09:39","新北市板橋區三民路二段228號","121.478773333333","25.011415","6500300","中和區"
"235039","097-UM","2017/07/30 19:09:26","新北市永和區智光街101號","121.51631","24.99686","6500300","中和區"
"235065","098-UM","2017/07/30 19:09:30","新北市中和區勝利路35巷3弄2號","121.499121666667","25.0071116666667","6500300","中和區"
"235040","150-BY","2017/07/30 19:09:38","新北市中和區保健路48巷37號","121.509646666667","24.9964133333333","6500300","中和區"
"235058","151-BY","2017/07/30 19:09:26","新北市中和區連城路523巷11弄23號","121.482193333333","24.9942033333333","6500300","中和區"
"235055","183-VK","2017/07/30 19:09:36","新北市中和區德光路71號","121.469571666667","25.003665","6500300","中和區"
"235038","185-VK","2017/07/30 19:09:42","新北市中和區立人街24-5號","121.518821666667","24.9941383333333","6500300","中和區"
"235049","186-VK","2017/07/30 19:09:29","新北市中和區明禮街20號","121.504735","24.9960066666667","6500300","中和區"
"235067","255-BX","2017/07/30 19:09:33","新北市中和區新生街176巷1號","121.483476666667","24.99993","6500300","中和區"
"235044","293-VK","2017/07/30 19:09:40","新北市中和區中興街180巷14號","121.498656666667","24.9903283333333","6500300","中和區"
"235072","301-VK","2017/07/30 19:09:36","新北市中和區連城路265巷1號","121.49139","24.996275","6500300","中和區"
"235043","352-BY","2017/07/30 19:09:35","新北市中和區景平路71-6號","121.518366666667","24.9917166666667","6500300","中和區"
"235051","376-QA","2017/07/30 19:09:26","新北市中和區忠孝街101巷13號","121.511353333333","24.9860466666667","6500300","中和區"
"235068","377-QA","2017/07/30 19:09:36","新北市中和區圓通路162巷4號","121.49693","24.9952433333333","6500300","中和區"
"235061","378-QA","2017/07/30 19:09:24","新北市中和區民享街2巷6號","121.473438333333","25.0056216666667","6500300","中和區"
"235050","4979-A6","2017/07/30 19:09:39","新北市中和區復興路280巷18弄3號","121.501865","24.9920766666667","6500300","中和區"
"235069","4980-A6","2017/07/30 19:09:38","新北市中和區莊敬路33巷8號","121.500411666667","25.0050966666667","6500300","中和區"
"235042","551-UM","2017/07/30 19:09:35","新北市中和區立人街3號","121.52188","24.9940283333333","6500300","中和區"
"235070","558-UM","2017/07/30 19:09:29","新北市中和區中和路212號","121.505993333333","24.9996466666667","6500300","中和區"
"235045","565-BX","2017/07/30 19:09:36","新北市中和區景新街467巷24號","121.514238333333","24.98843","6500300","中和區"
"235054","640-BX","2017/07/30 19:09:39","新北市中和區國光街6巷2號","121.47205","25.0001866666667","6500300","中和區"
"235060","647-TV","2017/07/30 19:09:29","新北市中和區民治街27巷12號","121.475535","25.0014183333333","6500300","中和區"
"235047","732-UM","2017/07/30 19:09:25","新北市中和區興南路一段56巷1弄2號","121.510708333333","24.9907816666667","6500300","中和區"
"235046","733-UM","2017/07/30 19:09:29","新北市中和區忠孝街1巷18號","121.508603333333","24.9838766666667","6500300","中和區"
"235071","783-BX","2017/07/30 19:09:27","新北市中和區員山路90號","121.480906666667","24.99441","6500300","中和區"
"235057","801-TS","2017/07/30 19:09:25","新北市中和區民利街58巷5弄11號","121.478105","24.9991583333333","6500300","中和區"
"235041","802-TS","2017/07/30 19:09:42","新北市中和區宜安路66號","121.511535","24.9970633333333","6500300","中和區"
"235052","805-TS","2017/07/30 19:09:36","新北市中和區興南路二段142巷19弄38號","121.502608333333","24.9835166666667","6500300","中和區"
"235048","896-TW","2017/07/30 19:09:37","新北市中和區忠孝街29號","121.510501666667","24.983135","6500300","中和區"
"235053","900-TW","2017/07/30 19:09:33","新北市中和區華福街68號","121.467085","24.9965366666667","6500300","中和區"
"235037","AAC-213","2017/07/30 19:09:43","新北市中和區自立路99巷1號","121.522065","24.9950666666667","6500300","中和區"
"235059","AAC-215","2017/07/30 19:09:36","新北市中和區圓通路294巷17-5號","121.488673333333","24.9903383333333","6500300","中和區"
"220068","013-TV","2017/07/30 19:09:37","新北市板橋區三民路一段7號","121.479143333333","25.023215","6500100","板橋區"
"220065","072-UY","2017/07/30 19:09:26","新北市板橋區民族路221-1號","121.469696666667","25.007415","6500100","板橋區"
"220086","073-UY","2017/07/30 19:09:28","新北市板橋區中正路250巷102號","121.459393333333","25.0199183333333","6500100","板橋區"
"220106","075-UY","2017/07/30 19:09:25","新北市板橋區文化路二段315號","121.472105","25.029735","6500100","板橋區"
"220069","AAD-861","2017/07/30 19:09:33","新北市板橋區東興街48號","121.458518333333","25.00579","6500100","板橋區"
"247001","402-BY","2017/07/30 15:49:55","新北市五股區中興路三段3-6號","121.449548333333","25.0787666666667","6501400","蘆洲區"
"247006","341-TH","2017/07/30 19:06:01","新北市五股區中興路三段163號","121.449395","25.0807333333333","6501400","蘆洲區"
"247008","339-TH","2017/07/30 19:09:37","新北市五股區中興路三段167號","121.446063333333","25.0807466666667","6501400","蘆洲區"
"247002","336-TH","2017/07/30 18:50:12","新北市五股區中興路三段163號","121.449178333333","25.0807583333333","6501400","蘆洲區"
"247014","057-VK","2017/07/30 19:09:27","新北市五股區凌雲路一段21號","121.455141666667","25.0976733333333","6501400","蘆洲區"
"228003","097-TW","2017/07/30 19:09:27","新北市貢寮區和美里和美街32-2號","121.913601666667","25.0838016666667","6502600","貢寮區"
"228002","585-TW","2017/07/30 19:09:37","新北市貢寮區福隆里福隆街36號","121.945153333333","25.0174683333333","6502600","貢寮區"
"228001","670-TC","2017/07/30 19:09:27","新北市貢寮區真理里新港街10號","121.925518333333","25.0543433333333","6502600","貢寮區"
"224011","AGQ-8101","2017/07/30 19:09:38","新北市瑞芳區基山街128號","121.84374","25.108315","6501200","瑞芳區"
"227010","642-TC","2017/07/30 19:09:26","新北市雙溪區牡丹里中正路30號","121.86455","25.03802","6502500","雙溪區"
"227002","400-TW","2017/07/30 19:09:25","新北市雙溪區平林里外平林9號","121.85946","25.0380916666667","6502500","雙溪區"
"208003","665-BX","2017/07/30 19:09:38","新北市金山區中正路57號","121.634253333333","25.221935","6502700","金山區"
"208001","761-BX","2017/07/30 19:09:35","新北市金山區福德街14號","121.63931","25.2217766666667","6502700","金山區"
"251009","008-UM","2017/07/30 19:09:31","新北市淡水區清水街99-1號","121.440858333333","25.1706333333333","6501000","淡水區"
"251007","179-VK","2017/07/30 19:09:27","新北市淡水區民生路145巷36-16號","121.467248333333","25.1389916666667","6501000","淡水區"
"251014","180-VK","2017/07/30 19:09:22","新北市淡水區小中寮19號","121.486255","25.229875","6501000","淡水區"
"251008","181-VK","2017/07/30 19:09:38","新北市淡水區新市二路二段2號","121.426968333333","25.196855","6501000","淡水區"
"251015","182-VK","2017/07/30 19:09:41","新北市淡水區白石腳7-6號","121.485415","25.17477","6501000","淡水區"
"251010","413-VK","2017/07/30 19:09:25","新北市淡水區中正路一段156巷3號","121.42109","25.1802783333333","6501000","淡水區"
"251016","442-VK","2017/07/30 19:09:39","新北市淡水區淡金路三段66號","121.448228333333","25.1999983333333","6501000","淡水區"
"251005","443-VK","2017/07/30 19:09:27","新北市淡水區中山路143-5號","121.440603333333","25.1720516666667","6501000","淡水區"
"251001","559-UM","2017/07/30 19:09:24","新北市淡水區民權路94巷1號","121.463213333333","25.1248183333333","6501000","淡水區"
"251013","577-R6","2017/07/30 19:09:41","新北市淡水區安子內12號","121.481511666667","25.2190966666667","6501000","淡水區"
"251011","650-BX","2017/07/30 19:09:29","新北市淡水區中正東路二段143巷2弄1號","121.46078","25.1473783333333","6501000","淡水區"
"251002","672-BX","2017/07/30 19:09:36","新北市淡水區中山路87巷1號","121.442533333333","25.1704283333333","6501000","淡水區"
"251003","673-BX","2017/07/30 19:09:25","新北市淡水區中山北路一段96號","121.442418333333","25.1763783333333","6501000","淡水區"
"207003","550-UM","2017/07/30 19:09:27","新北市萬里區大鵬里萬里加投24-2號","121.64908","25.2072666666667","6502800","萬里區"
"207004","225-TW","2017/07/30 19:09:39","新北市萬里區萬里里瑪鋉下街50-1號","121.691535","25.1793433333333","6502800","萬里區"
"252005","073-UM","2017/07/30 08:58:12","新北市三芝區埔坪里埔頭坑41號","121.504463333333","25.264405","6502100","三芝區"
"252002","178-VK","2017/07/30 19:09:40","新北市三芝區中正路一段3號","121.50269","25.2589866666667","6502100","三芝區"
"252001","292-VK","2017/07/30 19:09:33","新北市三芝區長勤街80號","121.500298333333","25.2551","6502100","三芝區"
"252007","AAC-283","2017/07/30 16:00:40","新北市三芝區埔坪里埔頭坑41號","121.504516666667","25.2643983333333","6502100","三芝區"
"208002","170-UY","2017/07/30 19:09:25","新北市金山區仁愛路67巷28號","121.63413","25.2208433333333","6502700","金山區"
"237004","078-UY","2017/07/30 19:09:36","新北市三峽區有木205-1號","121.439068333333","24.85149","6500900","三峽區"
"237007","153-BY","2017/07/30 19:09:26","新北市三峽區中正路二段83巷17號","121.367216666667","24.9178333333333","6500900","三峽區"
"237013","252-BX","2017/07/30 19:09:29","新北市三峽區光明路69巷25號","121.376628333333","24.9292266666667","6500900","三峽區"
"237012","275-BY","2017/07/30 19:09:41","新北市三峽區三樹路222巷254弄68-22號","121.39408","24.9444933333333","6500900","三峽區"
"237008","302-VK","2017/07/30 19:09:40","新北市三峽區大同路164號","121.372825","24.92667","6500900","三峽區"
"237014","433-BY","2017/07/30 19:09:26","新北市三峽區中山路299巷7號","121.361201666667","24.9371816666667","6500900","三峽區"
"237006","5529-G3","2017/07/30 19:09:30","新北市三峽區介壽路一段383-1號","121.387735","24.9338683333333","6500900","三峽區"
"237011","572-TV","2017/07/30 18:03:10","新北市三峽區橫溪路1號","121.396068333333","24.9361683333333","6500900","三峽區"
"237016","649-BX","2017/07/30 19:09:28","新北市三峽區安坑27-3號","121.446145","24.9283483333333","6500900","三峽區"
"237010","706-TV","2017/07/30 19:09:29","新北市三峽區復興路125號","121.371498333333","24.9380533333333","6500900","三峽區"
"237005","AKY-6261","2017/07/30 19:09:42","新北市三峽區中山路459巷163-3號","121.348635","24.9329333333333","6500900","三峽區"
"236075","166-UM","2017/07/30 19:09:44","新北市土城區龍泉路32號","121.41132","24.94719","6501300","土城區"
"236013","270-VK","2017/07/30 19:09:33","新北市土城區學府路一段75巷18弄2號","121.45735","24.9875333333333","6501300","土城區"
"236017","401-BY","2017/07/30 19:09:26","新北市土城區延峰街16號","121.468705","24.9863366666667","6501300","土城區"
"221008","489-VK","2017/07/30 19:09:38","新北市汐止區康寧街434號","121.63099","25.0680566666667","6501100","汐止區"
"221036","130-UY","2017/07/30 19:09:32","新北市汐止區忠孝東路310號","121.664376666667","25.068905","6501100","汐止區"
"221015","131-UY","2017/07/30 19:09:42","新北市汐止區康寧街901號","121.651376666667","25.0749933333333","6501100","汐止區"
"221012","269-BY","2017/07/30 19:09:37","新北市汐止區康寧街901號","121.651655","25.0749583333333","6501100","汐止區"
"221012","278-VK","2017/07/30 15:38:40","新北市汐止區汐萬路一段256巷3號","121.652223333333","25.07526","6501100","汐止區"
"221023","279-VK","2017/07/30 02:45:23","新北市汐止區汐萬路一段256巷1號","121.651925","25.0749983333333","6501100","汐止區"
"221027","281-BY","2017/07/30 18:51:27","新北市汐止區康寧街901號","121.650865","25.0752333333333","6501100","汐止區"
"221029","298-VK","2017/07/30 19:09:32","新北市汐止區汐萬路一段256巷3號","121.652446666667","25.0746166666667","6501100","汐止區"
"221021","299-VK","2017/07/30 02:51:20","新北市汐止區汐萬路一段256巷3號","121.65218","25.075135","6501100","汐止區"
"221031","353-TW","2017/07/30 19:09:41","新北市汐止區福德二路156巷12號","121.630091666667","25.065565","6501100","汐止區"
"221025","623-UM","2017/07/30 19:09:22","新北市汐止區仁愛路36號","121.660545","25.0627916666667","6501100","汐止區"
"221033","647-BX","2017/07/30 19:09:36","新北市汐止區新台五路一段83號","121.64632","25.0607383333333","6501100","汐止區"
"221002","707-TV","2017/07/30 19:09:38","台北市南港區南港路一段2號","121.620441666667","25.0546816666667","6501100","汐止區"
"221018","753-BX","2017/07/30 19:09:26","新北市汐止區汐萬路一段256巷3號","121.65254","25.0745066666667","6501100","汐止區"
"220079","145-BY","2017/07/30 19:09:33","新北市板橋區民權路326號","121.45697","25.016515","6500100","板橋區"
"220080","200-UY","2017/07/30 19:09:42","新北市板橋區大觀路二段19巷124-8號","121.450438333333","25.0025816666667","6500100","板橋區"
"220082","610-BX","2017/07/30 19:09:34","新北市板橋區溪北路45號","121.427626666667","24.9899333333333","6500100","板橋區"
"220101","245-BX","2017/07/30 19:09:12","新北市板橋區萬板路15號","121.470535","25.0211683333333","6500100","板橋區"
"220056","276-BY","2017/07/30 19:09:45","新北市板橋區信義路110巷3號","121.458115","24.99206","6500100","板橋區"
"220072","277-BY","2017/07/30 19:09:21","新北市板橋區金門街369巷67弄2號","121.428875","24.9835283333333","6500100","板橋區"
"220094","283-UM","2017/07/30 19:09:32","新北市板橋區光武街133號","121.465681666667","25.02915","6500100","板橋區"
"220071","283-VK","2017/07/30 19:09:35","新北市板橋區忠孝路154巷50號","121.464163333333","25.0012733333333","6500100","板橋區"
"220053","285-VK","2017/07/30 19:09:45","新北市板橋區懷仁街35巷13號","121.477105","25.01983","6500100","板橋區"
"220083","286-VK","2017/07/30 19:09:28","新北市板橋區大觀路一段38巷156弄36號","121.442543333333","25.0054616666667","6500100","板橋區"
"220081","287-VK","2017/07/30 19:09:44","新北市板橋區南雅西路二段156巷49號","121.452413333333","25.01286","6500100","板橋區"
"220090","288-VK","2017/07/30 19:09:35","新北市板橋區裕民街31號","121.461813333333","25.028795","6500100","板橋區"
"220061","295-UM","2017/07/30 19:09:38","新北市板橋區中山路二段273號","121.47769","25.0179266666667","6500100","板橋區"
"220084","296-UM","2017/07/30 19:08:46","新北市板橋區大觀路三段59巷17弄6-1號","121.437516666667","24.9953383333333","6500100","板橋區"
"220075","297-UM","2017/07/30 19:09:36","新北市板橋區南雅南路一段1巷1弄3號","121.457165","25.00639","6500100","板橋區"
"220062","303-R5","2017/07/30 19:09:40","新北市板橋區三民路二段居仁巷1弄55-1號","121.481226666667","25.01361","6500100","板橋區"
"220092","307-R5","2017/07/30 19:09:32","新北市板橋區文化路二段225巷58號","121.46929","25.02851","6500100","板橋區"
"220098","317-R6","2017/07/30 19:09:39","新北市板橋區自由路51巷16號","121.46481","25.0235216666667","6500100","板橋區"
"220064","486-VK","2017/07/30 19:09:37","新北市板橋區板新路2號","121.475076666667","25.012925","6500100","板橋區"
"220089","487-VK","2017/07/30 19:09:39","新北市板橋區文化路二段336號","121.472753333333","25.0304116666667","6500100","板橋區"
"220088","491-VK","2017/07/30 19:09:40","新北市板橋區文化路二段182巷1弄12號","121.471445","25.0277633333333","6500100","板橋區"
"220035","560-BX","2017/07/30 19:09:31","新北市板橋區中正路328-1號","121.454588333333","25.0213633333333","6500100","板橋區"
"220103","561-BX","2017/07/30 19:09:24","新北市板橋區文化路一段188巷9弄37號","121.469176666667","25.0191516666667","6500100","板橋區"
"220063","609-BX","2017/07/30 19:09:27","新北市板橋區三民路二段202-28號","121.478881666667","25.0126133333333","6500100","板橋區"
"220091","637-BX","2017/07/30 19:09:41","新北市板橋區縣民大道247巷80號","121.482108333333","25.0269516666667","6500100","板橋區"
"220057","686-BX","2017/07/30 19:09:41","新北市板橋區重慶路237號","121.463083333333","25.0008116666667","6500100","板橋區"
"220077","687-BX","2017/07/30 19:09:44","新北市板橋區大觀路二段77號","121.446488333333","25.002235","6500100","板橋區"
"220093","689-BX","2017/07/30 19:09:24","新北市板橋區民生路三段257號","121.464485","25.0293533333333","6500100","板橋區"
"220054","741-BX","2017/07/30 19:09:36","新北市板橋區重慶路93巷14-3號","121.462748333333","25.0057683333333","6500100","板橋區"
"220055","827-TW","2017/07/30 19:09:43","新北市板橋區新民街7巷12號","121.46357","25.0102816666667","6500100","板橋區"
"220067","829-TW","2017/07/30 19:09:33","新北市板橋區三民路二段正隆巷48號","121.476783333333","25.0140383333333","6500100","板橋區"
"220102","830-TW","2017/07/30 19:09:34","新北市板橋區萬板路818巷20號","121.482938333333","25.02665","6500100","板橋區"
"220096","831-TW","2017/07/30 19:09:30","新北市板橋區雙十路二段33巷10號","121.476413333333","25.02553","6500100","板橋區"
"220074","895-R6","2017/07/30 19:09:36","新北市板橋區中正路35號","121.456316666667","25.0131016666667","6500100","板橋區"
"220073","985-R7","2017/07/30 19:09:30","新北市板橋區中正路372巷6號","121.45478","25.0242033333333","6500100","板橋區"
"220097","AAC-210","2017/07/30 19:09:41","新北市板橋區新海路135巷33號","121.459931666667","25.022865","6500100","板橋區"
"220070","AAC-253","2017/07/30 19:09:44","新北市板橋區四川路一段294號","121.458643333333","25.0006366666667","6500100","板橋區"
