"lineid","car","time","location","longitude","latitude","cityid","cityname"
"234046","148-BY","2017/07/30 19:49:31","新北市永和區永元路122號","121.522951666667","25.00275","6500400","永和區"
"234013","149-BY","2017/07/30 19:49:21","新北市永和區保安路153號","121.50686","25.0127916666667","6500400","永和區"
"234007","207-UY","2017/07/30 19:49:30","新北市永和區保生路22巷17號","121.507138333333","25.0080783333333","6500400","永和區"
"234081","298-R6","2017/07/30 19:49:37","新北市永和區國中路2號","121.524221666667","25.00419","6500400","永和區"
"234038","336-UY","2017/07/30 19:49:31","新北市永和區成功路二段155號","121.526706666667","24.9974466666667","6500400","永和區"
"234064","337-UY","2017/07/30 19:49:26","新北市永和區中正路416號","121.51755","25.001955","6500400","永和區"
"234086","338-UY","2017/07/30 19:49:22","新北市永和區中正路505號","121.516883333333","25.0070383333333","6500400","永和區"
"234070","552-UM","2017/07/30 19:49:37","新北市永和區國光路59巷3號","121.518721666667","25.0079916666667","6500400","永和區"
"234054","553-UM","2017/07/30 19:49:30","新北市永和區竹林路54號","121.51795","25.014055","6500400","永和區"
"234017","745-BX","2017/07/30 19:49:23","新北市永和區永和路二段299號","121.516015","25.0160816666667","6500400","永和區"
"234030","746-BX","2017/07/30 19:49:37","新北市永和區民生路20號","121.522431666667","24.99737","6500400","永和區"
"234061","AAD-866","2017/07/30 19:49:26","新北市永和區中正路184號","121.515241666667","24.9968716666667","6500400","永和區"
"234042","862-TW","2017/07/30 19:49:37","新北市永和區中和路389巷34號","121.508233333333","25.0017","6500400","永和區"
"234050","863-TW","2017/07/30 19:49:23","新北市永和區保安路81號","121.508598333333","25.0146816666667","6500400","永和區"
"234026","9371-KE","2017/07/30 19:49:26","新北市永和區雙和街25巷7號","121.508908333333","25.00185","6500400","永和區"
"234011","9373-KE","2017/07/30 19:49:34","新北市永和區保福路二段163巷17號","121.508911666667","25.0145716666667","6500400","永和區"
"249001","173-UM","2017/07/30 19:49:32","新北市八里區中華路二段252號","121.405373333333","25.1496566666667","6502300","八里區"
"249004","303-UY","2017/07/30 19:49:40","新北市八里區中山路一段268巷31號","121.413525","25.1604633333333","6502300","八里區"
"249002","305-UY","2017/07/30 17:32:00","新北市八里區龍形五街37巷8-3號","121.448656666667","25.133675","6502300","八里區"
"249003","593-UM","2017/07/30 19:49:26","新北市八里區中華路二段558號","121.398613333333","25.1452","6502300","八里區"
"248014","025-BX","2017/07/30 19:49:40","新北市五股區五福路32巷7號","121.43442","25.0893483333333","6501500","五股區"
"248016","026-BX","2017/07/30 19:49:40","新北市五股區成泰路四段18-2號","121.453643333333","25.1067183333333","6501500","五股區"
"248008","095-VK","2017/07/30 19:49:37","新北市五股區四維路155巷36弄23號","121.466831666667","25.0751","6501500","五股區"
"248012","247-BX","2017/07/30 19:49:27","新北市五股區蓬萊路24號","121.433855","25.0799783333333","6501500","五股區"
"248018","261-SL","2017/07/30 19:49:42","新北市五股區登林路83號","121.42651","25.0705283333333","6501500","五股區"
"248010","272-BY","2017/07/30 19:49:38","新北市五股區登林路76號","121.42913","25.0701733333333","6501500","五股區"
"248004","655-BX","2017/07/30 19:49:25","新北市五股區成泰路一段135號","121.435568333333","25.0727783333333","6501500","五股區"
"248002","678-BX","2017/07/30 19:49:25","新北市五股區成泰路三段625-2號","121.452731666667","25.104335","6501500","五股區"
"234077","969-R7","2017/07/30 19:49:33","新北市永和區民權路1巷10號","121.520838333333","24.998285","6500400","永和區"
"234074","AAC-211","2017/07/30 19:49:32","新北市永和區竹林路179巷38號","121.522135","25.0102033333333","6500400","永和區"
"234067","AAC-212","2017/07/30 19:49:33","新北市永和區永貞路353號","121.509023333333","25.0075266666667","6500400","永和區"
"234003","AAC-295","2017/07/30 19:49:33","新北市永和區福和路327號","121.515765","25.007175","6500400","永和區"
"243003","549-UM","2017/07/30 16:18:24","新北市泰山區黎明路31號","121.421761666667","25.0606766666667","6501600","泰山區"
"231028","046-UY","2017/07/30 19:49:34","新北市新店區安康路二段166號","121.512105","24.9607016666667","6500600","新店區"
"231061","047-UY","2017/07/30 19:49:38","新北市新店區安民街254號","121.517631666667","24.9732433333333","6500600","新店區"
"231060","106-UY","2017/07/30 19:49:35","新北市新店區安康路二段159巷6號","121.510181666667","24.9592116666667","6500600","新店區"
"231020","187-VK","2017/07/30 19:49:27","新北市新店區新烏路三段72-1號","121.553911666667","24.9039933333333","6500600","新店區"
"231026","256-BX","2017/07/30 19:49:26","新北市新店區花園一路一段17號","121.55099","24.9335966666667","6500600","新店區"
"231054","513-UM","2017/07/30 19:49:35","新北市新店區光明街91號","121.53906","24.960945","6500600","新店區"
"231064","515-UM","2017/07/30 19:49:40","新北市新店區安和路二段115號","121.518515","24.9701883333333","6500600","新店區"
"231001","619-UM","2017/07/30 19:49:44","新北市新店區北新路一段96巷23號","121.542933333333","24.9689416666667","6500600","新店區"
"231063","645-TV","2017/07/30 19:49:25","新北市新店區車子路11號","121.503073333333","24.9520216666667","6500600","新店區"
"231013","719-UM","2017/07/30 19:49:36","新北市新店區建國路165號","121.538465","24.9793216666667","6500600","新店區"
"231044","897-TW","2017/07/30 19:49:28","新北市新店區復興路44-1號","121.538586666667","24.9866816666667","6500600","新店區"
"231043","899-TW","2017/07/30 19:49:23","新北市新店區中正路263-2號","121.538478333333","24.9738016666667","6500600","新店區"
"231037","AKT-0513","2017/07/30 19:49:25","新北市新店區安康路二段341巷50號","121.496685","24.9543216666667","6500600","新店區"
"241011","013-R5","2017/07/30 19:49:23","新北市三重區介壽路39巷6號","121.499046666667","25.07013","6500200","三重區"
"241028","022-UY","2017/07/30 19:49:43","新北市三重區中正南路200號","121.493895","25.0559533333333","6500200","三重區"
"241020","060-VK","2017/07/30 19:49:35","新北市三重區三和路四段12號","121.491485","25.0739166666667","6500200","三重區"
"241031","061-VK","2017/07/30 19:49:38","新北市三重區重新路四段250-1號","121.486046666667","25.0534783333333","6500200","三重區"
"241015","062-VK","2017/07/30 19:49:39","新北市三重區重新路一段1號","121.503825","25.0642533333333","6500200","三重區"
"241017","063-VK","2017/07/30 19:49:38","新北市三重區自強路一段270號","121.49229","25.0677483333333","6500200","三重區"
"241024","065-VK","2017/07/30 19:49:27","新北市三重區中正北路213號","121.476331666667","25.0700666666667","6500200","三重區"
"241026","066-VK","2017/07/30 19:49:28","新北市三重區文化南路42號","121.500363333333","25.0602933333333","6500200","三重區"
"241003","156-TC","2017/07/30 19:49:41","新北市三重區五華街93巷73號","121.493543333333","25.0846833333333","6500200","三重區"
"241009","265-UM","2017/07/30 19:49:32","新北市三重區三和路四段398-1號","121.481386666667","25.0792233333333","6500200","三重區"
"241016","266-UM","2017/07/30 19:49:41","新北市三重區正義北路16巷33號","121.496451666667","25.0628166666667","6500200","三重區"
"241022","267-UM","2017/07/30 19:49:35","新北市三重區重安街1號","121.489636666667","25.0582916666667","6500200","三重區"
"241025","271-UM","2017/07/30 19:49:25","新北市三重區頂崁街210巷16號","121.476461666667","25.0677483333333","6500200","三重區"
"241007","398-BY","2017/07/30 19:49:33","新北市三重區三和路四段125巷8號","121.485155","25.07804","6500200","三重區"
"241008","412-TH","2017/07/30 19:49:31","新北市三重區永福街76號","121.47886","25.076605","6500200","三重區"
"241035","462-BY","2017/07/30 19:49:33","新北市三重區大榮街53號","121.49926","25.0635533333333","6500200","三重區"
"241019","478-VK","2017/07/30 19:49:28","新北市三重區三張街106號","121.487798333333","25.0697733333333","6500200","三重區"
"241030","480-VK","2017/07/30 19:49:42","新北市三重區環河南路252號","121.491181666667","25.05068","6500200","三重區"
"241014","543-UM","2017/07/30 19:49:37","新北市三重區長安街71號","121.501391666667","25.06735","6500200","三重區"
"241006","AAD-863","2017/07/30 19:49:38","新北市三重區永福街287號","121.483108333333","25.0744083333333","6500200","三重區"
"241032","887-TS","2017/07/30 19:49:24","新北市三重區重陽路一段68號","121.486411666667","25.0587383333333","6500200","三重區"
"241012","941-UM","2017/07/30 19:49:39","新北市三重區河邊北街256巷33號","121.500563333333","25.0758733333333","6500200","三重區"
"241029","942-UM","2017/07/30 19:49:38","新北市三重區光明路13巷18號","121.490631666667","25.0584316666667","6500200","三重區"
"241033","AAC-255","2017/07/30 19:49:28","新北市三重區中興南街66號","121.470668333333","25.044025","6500200","三重區"
"235066","003-UY","2017/07/30 19:49:37","新北市中和區南工路26號","121.505616666667","25.0008416666667","6500300","中和區"
"235063","006-UY","2017/07/30 19:49:39","新北市中和區連城路263巷7弄2號","121.49221","24.995825","6500300","中和區"
"235056","096-UM","2017/07/30 19:49:39","新北市中和區中山路三段114巷46號","121.475793333333","25.007275","6500300","中和區"
"235039","097-UM","2017/07/30 19:49:26","新北市中和區秀峰街127巷2號","121.519635","24.9909466666667","6500300","中和區"
"235065","098-UM","2017/07/30 19:49:30","新北市中和區永和路9巷1號","121.499215","25.00398","6500300","中和區"
"235040","150-BY","2017/07/30 19:49:38","新北市中和區安和路125號","121.507071666667","24.99584","6500300","中和區"
"235058","151-BY","2017/07/30 19:49:32","新北市中和區員山路189號","121.48123","24.9973266666667","6500300","中和區"
"235055","183-VK","2017/07/30 19:49:42","新北市中和區莒光路37巷4號","121.472226666667","25.0050783333333","6500300","中和區"
"235038","185-VK","2017/07/30 19:49:42","新北市中和區自立路29巷14弄18號","121.522931666667","24.9954233333333","6500300","中和區"
"235049","186-VK","2017/07/30 19:49:29","新北市中和區中興街41號","121.500668333333","24.9943316666667","6500300","中和區"
"235067","255-BX","2017/07/30 19:49:32","新北市中和區新生街186巷1弄21號","121.483403333333","24.9988733333333","6500300","中和區"
"235044","293-VK","2017/07/30 19:49:40","新北市中和區南山路427號","121.50757","24.989305","6500300","中和區"
"235072","301-VK","2017/07/30 19:47:56","新北市五股區中直路17-4號","121.422933333333","25.11125","6500300","中和區"
"235043","352-BY","2017/07/30 19:49:35","新北市中和區興南路二段159巷12號","121.505151666667","24.9830866666667","6500300","中和區"
"235051","376-QA","2017/07/30 19:49:26","新北市中和區中興街123號","121.499978333333","24.9917533333333","6500300","中和區"
"235068","377-QA","2017/07/30 19:49:36","新北市中和區永和路7號","121.499308333333","25.0038216666667","6500300","中和區"
"235061","378-QA","2017/07/30 19:49:24","新北市中和區員山路226巷5弄2號","121.481723333333","25.0006616666667","6500300","中和區"
"235050","4979-A6","2017/07/30 19:49:39","新北市中和區景平路241巷66號","121.507701666667","24.9923666666667","6500300","中和區"
"235069","4980-A6","2017/07/30 19:49:38","新北市中和區南山路37巷8弄3號","121.502611666667","24.9986316666667","6500300","中和區"
"235042","551-UM","2017/07/30 19:49:31","新北市中和區保健路2巷22號","121.507186666667","24.9977083333333","6500300","中和區"
"235070","558-UM","2017/07/30 19:49:29","新北市中和區連勝街13號","121.498865","24.9981866666667","6500300","中和區"
"235045","565-BX","2017/07/30 19:49:36","新北市中和區景平路177號","121.511848333333","24.9926266666667","6500300","中和區"
"235054","640-BX","2017/07/30 19:49:39","新北市中和區民德路136號","121.468761666667","25.00067","6500300","中和區"
"235060","647-TV","2017/07/30 19:49:29","新北市中和區新生街16巷21弄2號","121.482275","25.0043516666667","6500300","中和區"
"235047","732-UM","2017/07/30 19:49:25","新北市中和區和平街74號","121.507885","24.991065","6500300","中和區"
"235046","733-UM","2017/07/30 19:49:29","新北市中和區仁愛街59號","121.511361666667","24.987815","6500300","中和區"
"235071","783-BX","2017/07/30 19:49:27","新北市中和區永和路333巷1-6號","121.48496","25.0112133333333","6500300","中和區"
"235057","801-TS","2017/07/30 19:49:25","新北市中和區員山路153-1號","121.48111","24.9964016666667","6500300","中和區"
"235041","802-TS","2017/07/30 19:49:42","新北市中和區永貞路249巷12號","121.512511666667","25.0036433333333","6500300","中和區"
"235052","805-TS","2017/07/30 19:49:36","新北市中和區興南路二段159巷19號","121.506038333333","24.9836666666667","6500300","中和區"
"235048","896-TW","2017/07/30 19:49:37","新北市中和區興南路一段106號","121.50962","24.9888016666667","6500300","中和區"
"235053","900-TW","2017/07/30 19:49:33","新北市中和區國光街189巷25號","121.467763333333","25.0007533333333","6500300","中和區"
"235037","AAC-213","2017/07/30 19:49:37","新北市中和區秀朗路三段50巷4弄4號","121.525695","24.9957166666667","6500300","中和區"
"235059","AAC-215","2017/07/30 19:49:36","新北市中和區圓通路305巷22號","121.495078333333","24.9889583333333","6500300","中和區"
"220068","013-TV","2017/07/30 19:49:41","新北市板橋區中山路二段412巷29弄27號","121.484708333333","25.0202166666667","6500100","板橋區"
"220065","072-UY","2017/07/30 19:49:26","新北市板橋區國泰街39巷7弄2號","121.468616666667","25.0056583333333","6500100","板橋區"
"220086","073-UY","2017/07/30 19:49:28","新北市板橋區南雅西路二段20號","121.452945","25.0094466666667","6500100","板橋區"
"220106","075-UY","2017/07/30 19:49:25","新北市板橋區民治街57巷32-1號","121.480128333333","25.0343333333333","6500100","板橋區"
"220069","AAD-861","2017/07/30 19:49:33","新北市板橋區稚暉街2巷46號","121.455218333333","25.0029316666667","6500100","板橋區"
"247001","402-BY","2017/07/30 15:49:55","新北市五股區中興路三段3-6號","121.449548333333","25.0787666666667","6501400","蘆洲區"
"247006","341-TH","2017/07/30 19:49:33","新北市蘆洲區永安南路二段32號","121.467161666667","25.0772066666667","6501400","蘆洲區"
"247008","339-TH","2017/07/30 19:49:37","新北市蘆洲區信義路113巷1弄9號","121.477966666667","25.0803516666667","6501400","蘆洲區"
"247002","336-TH","2017/07/30 19:49:31","新北市蘆洲區永平街27號","121.458713333333","25.0908483333333","6501400","蘆洲區"
"247014","057-VK","2017/07/30 19:49:27","新北市蘆洲區保和街17號","121.471013333333","25.0864616666667","6501400","蘆洲區"
"247004","056-VK","2017/07/30 19:49:37","新北市蘆洲區中原路90號","121.457408333333","25.0815716666667","6501400","蘆洲區"
"247016","001-UY","2017/07/30 19:49:41","新北市蘆洲區中正路168號","121.468613333333","25.0859033333333","6501400","蘆洲區"
"228003","097-TW","2017/07/30 19:49:27","新北市貢寮區真理里美艷山街5-1號","121.926738333333","25.05967","6502600","貢寮區"
"228001","670-TC","2017/07/30 19:49:27","新北市貢寮區真理里大澳街10巷48號","121.92553","25.056425","6502600","貢寮區"
"224011","AGQ-8101","2017/07/30 19:49:38","新北市瑞芳區輕便路137號","121.84358","25.1089833333333","6501200","瑞芳區"
"227010","642-TC","2017/07/30 19:49:26","新北市雙溪區新基里中華路82號","121.865833333333","25.0384216666667","6502500","雙溪區"
"227002","400-TW","2017/07/30 19:49:25","新北市雙溪區雙溪里內挖路36號","121.863213333333","25.036715","6502500","雙溪區"
"208003","665-BX","2017/07/30 19:49:27","新北市金山區清泉里清水路28號","121.629985","25.23043","6502700","金山區"
"208001","761-BX","2017/07/30 19:49:40","新北市金山區重和里六股林口9號","121.59935","25.2117366666667","6502700","金山區"
"251009","008-UM","2017/07/30 19:12:12","新北市淡水區中山路129巷23號","121.441638333333","25.1703083333333","6501000","淡水區"
"251004","009-UM","2017/07/30 19:49:20","新北市淡水區民權路185巷17號","121.460451666667","25.133935","6501000","淡水區"
"251014","180-VK","2017/07/30 19:49:22","新北市淡水區番社前4-1號","121.474901666667","25.235905","6501000","淡水區"
"251008","181-VK","2017/07/30 19:49:38","新北市淡水區中正路一段24巷2-4號","121.426825","25.17701","6501000","淡水區"
"251015","182-VK","2017/07/30 19:49:41","新北市淡水區泉洲厝25-1號","121.484765","25.18926","6501000","淡水區"
"251012","441-VK","2017/07/30 19:49:32","新北市淡水區埤島6-10號","121.446016666667","25.1947466666667","6501000","淡水區"
"251016","442-VK","2017/07/30 19:49:39","新北市淡水區三塊厝3-2號","121.456166666667","25.2091716666667","6501000","淡水區"
"251005","443-VK","2017/07/30 19:49:27","新北市淡水區中正東路37號","121.445938333333","25.1680766666667","6501000","淡水區"
"251001","559-UM","2017/07/30 19:49:24","新北市淡水區中正東路二段71號","121.459405","25.1544166666667","6501000","淡水區"
"251006","561-UM","2017/07/30 19:49:36","新北市淡水區水碓街15號","121.443468333333","25.1769666666667","6501000","淡水區"
"251013","577-R6","2017/07/30 19:49:41","新北市淡水區頂田寮1-3號","121.457581666667","25.2146016666667","6501000","淡水區"
"251011","650-BX","2017/07/30 19:49:29","新北市淡水區北投子14-3號","121.449351666667","25.1831366666667","6501000","淡水區"
"207003","550-UM","2017/07/30 19:49:27","新北市萬里區大鵬里萬里加投44-3號","121.640543333333","25.20929","6502800","萬里區"
"207004","225-TW","2017/07/30 19:49:38","新北市萬里區萬里里瑪鋉路205號","121.690443333333","25.1793","6502800","萬里區"
"252005","073-UM","2017/07/30 08:58:12","新北市三芝區埔坪里埔頭坑41號","121.504463333333","25.264405","6502100","三芝區"
"252002","178-VK","2017/07/30 19:49:40","新北市三芝區三民街27巷3號","121.50461","25.2581833333333","6502100","三芝區"
"252001","292-VK","2017/07/30 19:49:33","新北市三芝區公正街66號","121.499801666667","25.2574683333333","6502100","三芝區"
"252007","AAC-283","2017/07/30 16:00:40","新北市三芝區埔坪里埔頭坑41號","121.504516666667","25.2643983333333","6502100","三芝區"
"208002","170-UY","2017/07/30 19:49:25","新北市金山區三民街34號","121.634906666667","25.223545","6502700","金山區"
"237004","078-UY","2017/07/30 19:49:35","新北市三峽區添福107-11號","121.373706666667","24.9022166666667","6500900","三峽區"
"237007","153-BY","2017/07/30 19:49:25","新北市三峽區二鬮路136巷18弄27號","121.358811666667","24.9086133333333","6500900","三峽區"
"237009","210-TH","2017/07/30 19:49:29","新北市三峽區中園街62-1號","121.368041666667","24.925925","6500900","三峽區"
"237013","252-BX","2017/07/30 19:49:29","新北市三峽區橫溪路96號","121.397911666667","24.9354266666667","6500900","三峽區"
"237012","275-BY","2017/07/30 19:49:41","新北市三峽區中華路3巷2號","121.374781666667","24.9321816666667","6500900","三峽區"
"237008","302-VK","2017/07/30 19:49:40","新北市三峽區大同路132巷12號","121.37389","24.927345","6500900","三峽區"
"237014","433-BY","2017/07/30 19:49:26","新北市三峽區白雞30號","121.369091666667","24.9124583333333","6500900","三峽區"
"237006","5529-G3","2017/07/30 19:49:30","新北市三峽區中正路一段336巷15弄2號","121.369943333333","24.924925","6500900","三峽區"
"237016","649-BX","2017/07/30 19:49:28","新北市三峽區介壽路二段138巷1弄2-1號","121.396148333333","24.9340566666667","6500900","三峽區"
"237005","AKY-6261","2017/07/30 19:49:42","新北市三峽區文化路131號","121.369683333333","24.935975","6500900","三峽區"
"236075","166-UM","2017/07/30 19:49:24","新北市土城區溪頭路108號","121.408825","24.9510983333333","6501300","土城區"
"236035","271-VK","2017/07/30 19:49:21","新北市土城區國際路158巷54號","121.467998333333","24.9747583333333","6501300","土城區"
"236017","401-BY","2017/07/30 19:49:25","新北市土城區金城路三段200-5號","121.468738333333","24.98773","6501300","土城區"
"242029","986-R7","2017/07/30 19:49:28","新北市新莊區幸福路852號","121.444161666667","25.048995","6500500","新莊區"
"242048","751-BX","2017/07/30 19:49:39","新北市新莊區建安街121巷15號","121.426625","25.0232383333333","6500500","新莊區"
"242023","613-BX","2017/07/30 19:49:39","新北市新莊區化成路148號","121.465441666667","25.0449283333333","6500500","新莊區"
"242027","612-BX","2017/07/30 19:49:40","新北市新莊區幸福路842號","121.444538333333","25.0489866666667","6500500","新莊區"
"242036","566-BX","2017/07/30 19:49:39","新北市新莊區建安街101巷2弄2號","121.42675","25.024085","6500500","新莊區"
"242004","442-UM","2017/07/30 19:49:35","新北市新莊區化成路63巷24弄22號","121.461971666667","25.0460833333333","6500500","新莊區"
"242031","415-TV","2017/07/30 19:49:25","新北市新莊區忠孝街52號","121.443968333333","25.0359766666667","6500500","新莊區"
"242002","413-TV","2017/07/30 19:49:36","新北市新莊區新泰路49號","121.44952","25.03375","6500500","新莊區"
"242039","400-BY","2017/07/30 19:49:32","新北市新莊區民安路299巷54號","121.42961","25.0238216666667","6500500","新莊區"
"242061","362-BY","2017/07/30 19:49:21","新北市新莊區中正路471號","121.441961666667","25.0333733333333","6500500","新莊區"
"242058","353-BY","2017/07/30 19:49:27","新北市新莊區八德街17號","121.425256666667","25.0226333333333","6500500","新莊區"
"242034","133-UY","2017/07/30 19:49:32","新北市新莊區仁愛街67號","121.444233333333","25.0376283333333","6500500","新莊區"
"242007","173-VK","2017/07/30 19:49:35","新北市新莊區福壽街336號","121.457701666667","25.0584383333333","6500500","新莊區"
"242013","175-VK","2017/07/30 19:49:38","新北市新莊區中泰街34號","121.450923333333","25.046955","6500500","新莊區"
"242056","176-VK","2017/07/30 19:49:28","新北市新莊區新泰路87號","121.448836666667","25.0343683333333","6500500","新莊區"
"242017","348-TH","2017/07/30 19:49:43","新北市新莊區中華路二段3巷3號","121.453181666667","25.0454783333333","6500500","新莊區"
"242009","351-TH","2017/07/30 19:49:34","新北市新莊區中誠街18號","121.451885","25.04821","6500500","新莊區"
"221008","489-VK","2017/07/30 19:49:26","新北市汐止區康寧街83巷24號","121.620225","25.0670866666667","6501100","汐止區"
"221036","130-UY","2017/07/30 19:49:32","新北市汐止區大同路二段341-1號","121.656165","25.0671233333333","6501100","汐止區"
"221015","131-UY","2017/07/30 19:49:42","新北市汐止區大同路二段536號","121.661408333333","25.0686833333333","6501100","汐止區"
"221012","269-BY","2017/07/30 19:49:37","新北市汐止區汐萬路一段355-1號","121.65004","25.0775433333333","6501100","汐止區"
"221012","278-VK","2017/07/30 15:38:40","新北市汐止區汐萬路一段256巷3號","121.652223333333","25.07526","6501100","汐止區"
"221023","279-VK","2017/07/30 02:45:23","新北市汐止區汐萬路一段256巷1號","121.651925","25.0749983333333","6501100","汐止區"
"221032","280-BY","2017/07/30 19:49:39","新北市汐止區橫科路4巷1弄10號","121.617865","25.0507616666667","6501100","汐止區"
"221027","281-BY","2017/07/30 19:49:26","新北市汐止區忠孝東路9號","121.658286666667","25.0659483333333","6501100","汐止區"
"221029","298-VK","2017/07/30 19:49:32","新北市汐止區康寧街901號","121.651453333333","25.07495","6501100","汐止區"
"221021","299-VK","2017/07/30 19:33:50","新北市汐止區康寧街901號","121.650951666667","25.0750266666667","6501100","汐止區"
"221031","353-TW","2017/07/30 19:49:40","新北市汐止區福德三路127號","121.63367","25.06759","6501100","汐止區"
"221035","622-UM","2017/07/30 19:49:29","新北市汐止區長江街13巷4號","121.654773333333","25.071445","6501100","汐止區"
"221025","623-UM","2017/07/30 19:49:21","新北市汐止區秀峰路81巷15弄47號","121.661755","25.0648983333333","6501100","汐止區"
"221033","647-BX","2017/07/30 19:49:36","新北市汐止區汐碇路370巷2-1號","121.638281666667","25.0386766666667","6501100","汐止區"
"221018","753-BX","2017/07/30 19:49:26","新北市汐止區茄苳路3號","121.664545","25.070845","6501100","汐止區"
"220079","145-BY","2017/07/30 19:49:43","新北市板橋區中正路183巷50號","121.454788333333","25.0160616666667","6500100","板橋區"
"220080","200-UY","2017/07/30 19:49:42","新北市板橋區大觀路二段37巷39號","121.448685","25.0027033333333","6500100","板橋區"
"220082","610-BX","2017/07/30 19:49:35","新北市板橋區溪北路54號","121.427595","24.989845","6500100","板橋區"
"220101","245-BX","2017/07/30 19:49:30","新北市板橋區縣民大道三段93巷3號","121.47563","25.0220233333333","6500100","板橋區"
"220056","276-BY","2017/07/30 19:49:26","新北市板橋區四川路二段95號","121.452728333333","24.9948083333333","6500100","板橋區"
"220072","277-BY","2017/07/30 19:49:34","新北市板橋區金門街151巷42弄2號","121.433911666667","24.9902433333333","6500100","板橋區"
"220094","283-UM","2017/07/30 19:49:32","新北市板橋區長江路一段27號","121.458351666667","25.0294516666667","6500100","板橋區"
"220071","283-VK","2017/07/30 19:49:38","新北市板橋區信義路279巷19號","121.464688333333","24.990295","6500100","板橋區"
"220053","285-VK","2017/07/30 19:49:32","新北市板橋區中山路二段60巷1弄8號","121.47461","25.0154433333333","6500100","板橋區"
"220083","286-VK","2017/07/30 19:49:34","新北市板橋區龍興街63巷66號","121.4416","25.0020216666667","6500100","板橋區"
"220081","287-VK","2017/07/30 19:49:38","新北市板橋區大觀路一段28巷91-1號","121.450121666667","25.011465","6500100","板橋區"
"220090","288-VK","2017/07/30 19:49:44","新北市板橋區綠堤街25號","121.455955","25.026385","6500100","板橋區"
"220061","295-UM","2017/07/30 19:49:38","新北市板橋區板新路200巷16號","121.46884","25.0163683333333","6500100","板橋區"
"220084","296-UM","2017/07/30 19:49:32","新北市板橋區滿平二街2巷1弄8號","121.425","24.9864116666667","6500100","板橋區"
"220075","297-UM","2017/07/30 19:49:27","新北市板橋區金華街1號","121.45549","25.020065","6500100","板橋區"
"220062","303-R5","2017/07/30 19:49:40","新北市板橋區中山路二段416巷53號","121.483076666667","25.0191466666667","6500100","板橋區"
"220092","307-R5","2017/07/30 19:49:32","新北市板橋區四維路204號","121.46411","25.027235","6500100","板橋區"
"220098","317-R6","2017/07/30 19:49:39","新北市板橋區裕民街135號","121.459001666667","25.0273416666667","6500100","板橋區"
"220064","486-VK","2017/07/30 19:49:35","新北市板橋區忠孝路178-6號","121.464566666667","25.0024983333333","6500100","板橋區"
"220089","487-VK","2017/07/30 19:49:39","新北市板橋區龍泉街82巷11-4號","121.455788333333","25.02549","6500100","板橋區"
"220088","491-VK","2017/07/30 19:49:40","新北市板橋區松柏街85號","121.476841666667","25.030905","6500100","板橋區"
"220035","560-BX","2017/07/30 19:49:30","新北市板橋區金華街52號","121.456768333333","25.0204116666667","6500100","板橋區"
"220103","561-BX","2017/07/30 19:49:27","新北市板橋區陽明街29巷31號","121.46389","25.02252","6500100","板橋區"
"220063","609-BX","2017/07/30 19:49:31","新北市板橋區三民路一段50-1號","121.479368333333","25.0226483333333","6500100","板橋區"
"220091","637-BX","2017/07/30 19:49:41","新北市板橋區懷德街139巷20弄66號","121.480265","25.0304683333333","6500100","板橋區"
"220057","686-BX","2017/07/30 19:49:32","新北市板橋區廣權路16號","121.46125","24.9915016666667","6500100","板橋區"
"220077","687-BX","2017/07/30 19:49:23","新北市板橋區僑中一街102巷7弄20號","121.446071666667","25.0131533333333","6500100","板橋區"
"220093","689-BX","2017/07/30 19:49:44","新北市板橋區長江路二段165號","121.46638","25.0320316666667","6500100","板橋區"
"220054","741-BX","2017/07/30 19:49:36","新北市板橋區忠孝路忠義巷15弄41號","121.465601666667","25.004585","6500100","板橋區"
"220055","827-TW","2017/07/30 19:49:23","新北市板橋區國慶路178號","121.462715","24.9962416666667","6500100","板橋區"
"220067","829-TW","2017/07/30 19:49:33","新北市板橋區長安街331巷19弄13號","121.473388333333","25.0121333333333","6500100","板橋區"
"220102","830-TW","2017/07/30 19:49:43","新北市板橋區仁化街50號","121.475363333333","25.031675","6500100","板橋區"
"220096","831-TW","2017/07/30 19:49:41","新北市板橋區文化路二段2號","121.468735","25.0237933333333","6500100","板橋區"
"220074","895-R6","2017/07/30 19:49:25","新北市板橋區福德街47號","121.456086666667","25.0084083333333","6500100","板橋區"
"220073","985-R7","2017/07/30 19:49:30","新北市板橋區大仁街105號","121.452773333333","25.0157216666667","6500100","板橋區"
"220097","AAC-210","2017/07/30 19:49:41","新北市板橋區文化路一段285巷1弄12號","121.463918333333","25.018945","6500100","板橋區"
"220070","AAC-253","2017/07/30 19:49:24","新北市板橋區民族路135號","121.467708333333","25.0079","6500100","板橋區"
