"lineid","car","time","location","longitude","latitude","cityid","cityname"
"234046","148-BY","2017/07/30 20:09:23","新北市永和區成功路一段30號","121.527045","25.0046833333333","6500400","永和區"
"234013","149-BY","2017/07/30 20:09:41","新北市永和區永貞路387號","121.50802","25.0086366666667","6500400","永和區"
"234007","207-UY","2017/07/30 20:09:30","新北市永和區仁愛路296號","121.50364","25.0081433333333","6500400","永和區"
"234081","298-R6","2017/07/30 20:09:37","新北市永和區國中路86巷2號","121.524758333333","25.0059166666667","6500400","永和區"
"234038","336-UY","2017/07/30 20:09:31","新北市永和區成功路一段47巷36號","121.528278333333","25.0039366666667","6500400","永和區"
"234064","337-UY","2017/07/30 20:09:26","新北市永和區秀朗路二段43號","121.521566666667","25.00238","6500400","永和區"
"234086","338-UY","2017/07/30 20:09:42","新北市永和區中正路581-3號","121.516721666667","25.0090783333333","6500400","永和區"
"234070","552-UM","2017/07/30 20:09:37","新北市永和區永寧街95號","121.518648333333","25.0066516666667","6500400","永和區"
"234054","553-UM","2017/07/30 20:09:30","新北市永和區永和路二段298號","121.516305","25.01575","6500400","永和區"
"234017","745-BX","2017/07/30 20:09:28","新北市永和區文化路2號","121.515606666667","25.0150383333333","6500400","永和區"
"234030","746-BX","2017/07/30 20:09:37","新北市永和區民有街98巷4號","121.517475","24.9958316666667","6500400","永和區"
"234061","AAD-866","2017/07/30 20:09:26","新北市永和區中正路151巷14號","121.515596666667","24.9988033333333","6500400","永和區"
"234042","862-TW","2017/07/30 20:09:37","新北市永和區雙和街64巷24號","121.509895","25.0030916666667","6500400","永和區"
"234050","863-TW","2017/07/30 20:09:23","新北市永和區新生路192號","121.505833333333","25.0134866666667","6500400","永和區"
"234026","9371-KE","2017/07/30 20:09:26","新北市永和區保生路55號","121.504711666667","25.0106916666667","6500400","永和區"
"234011","9373-KE","2017/07/30 20:09:34","新北市永和區仁愛路352巷92弄20號","121.501341666667","25.0083566666667","6500400","永和區"
"249005","172-UM","2017/07/30 20:09:40","新北市八里區下罟子50-1號","121.383956666667","25.1380516666667","6502300","八里區"
"249001","173-UM","2017/07/30 20:09:32","新北市八里區中華路二段310號","121.403808333333","25.148355","6502300","八里區"
"249004","303-UY","2017/07/30 20:09:40","新北市八里區中山路一段215號","121.411341666667","25.1578566666667","6502300","八里區"
"249002","305-UY","2017/07/30 17:32:00","新北市八里區龍形五街37巷8-3號","121.448656666667","25.133675","6502300","八里區"
"249003","593-UM","2017/07/30 20:09:26","新北市八里區中山路二段540巷26號","121.397183333333","25.1469283333333","6502300","八里區"
"248014","025-BX","2017/07/30 20:09:41","新北市五股區成泰路三段79號","121.443723333333","25.08992","6501500","五股區"
"248016","026-BX","2017/07/30 20:09:40","新北市五股區天乙路67號","121.44814","25.104635","6501500","五股區"
"248012","247-BX","2017/07/30 20:09:27","新北市五股區六合街89號","121.430418333333","25.089715","6501500","五股區"
"248018","261-SL","2017/07/30 20:09:42","新北市五股區新五路二段119-10號","121.438461666667","25.0783033333333","6501500","五股區"
"248010","272-BY","2017/07/30 20:09:38","新北市五股區成泰路一段7巷2號","121.433448333333","25.066655","6501500","五股區"
"248004","655-BX","2017/07/30 20:09:34","新北市五股區成泰路一段210號","121.436145","25.0791333333333","6501500","五股區"
"248002","678-BX","2017/07/30 20:09:25","新北市五股區成泰路三段311-2號","121.447883333333","25.0949233333333","6501500","五股區"
"234023","9380-KE","2017/07/30 20:09:28","新北市永和區復興街2巷4號","121.51582","25.0126883333333","6500400","永和區"
"234077","969-R7","2017/07/30 20:09:33","新北市永和區智光街107巷8號","121.515753333333","24.9959733333333","6500400","永和區"
"234074","AAC-211","2017/07/30 20:09:32","新北市永和區竹林路179巷12號","121.521206666667","25.009715","6500400","永和區"
"234067","AAC-212","2017/07/30 20:09:33","新北市永和區永貞路358號","121.510308333333","25.0066333333333","6500400","永和區"
"234003","AAC-295","2017/07/30 20:09:28","新北市永和區中正路620號","121.517035","25.0078316666667","6500400","永和區"
"243003","549-UM","2017/07/30 16:18:24","新北市泰山區黎明路31號","121.421761666667","25.0606766666667","6501600","泰山區"
"231056","0291-UT","2017/07/30 20:09:35","新北市新店區北新路三段53-1號","121.541791666667","24.98076","6500600","新店區"
"231028","046-UY","2017/07/30 20:09:34","新北市新店區安德街58-1號","121.510788333333","24.9621316666667","6500600","新店區"
"231061","047-UY","2017/07/30 20:09:38","新北市新店區安興路61號","121.51616","24.9724666666667","6500600","新店區"
"231060","106-UY","2017/07/30 20:09:35","新北市新店區安康路三段456號","121.48433","24.9511466666667","6500600","新店區"
"231020","187-VK","2017/07/30 20:09:27","新北市新店區新烏路三段寶島巷6號","121.551753333333","24.899005","6500600","新店區"
"231026","256-BX","2017/07/30 20:09:29","新北市新店區梅崗三路1號","121.557893333333","24.9311316666667","6500600","新店區"
"231055","3713-VJ","2017/07/30 20:09:43","新北市新店區中華路42巷16號","121.540543333333","24.968695","6500600","新店區"
"231054","513-UM","2017/07/30 20:09:35","新北市新店區檳榔路4號","121.541","24.9648616666667","6500600","新店區"
"231064","515-UM","2017/07/30 20:09:31","新北市新店區安康路二段118-11號","121.513123333333","24.9635266666667","6500600","新店區"
"231001","619-UM","2017/07/30 20:09:24","新北市新店區中正路108號","121.543081666667","24.9705983333333","6500600","新店區"
"231063","645-TV","2017/07/30 20:09:25","新北市新店區黎明路57巷1號","121.502416666667","24.9479","6500600","新店區"
"231013","719-UM","2017/07/30 20:09:36","新北市新店區北新路二段171巷9號","121.542153333333","24.9764166666667","6500600","新店區"
"231033","720-UM","2017/07/30 20:09:38","新北市新店區安豐路74號","121.496733333333","24.9529133333333","6500600","新店區"
"231044","897-TW","2017/07/30 20:09:28","新北市新店區寶慶街58巷6號","121.542095","24.9870083333333","6500600","新店區"
"231043","899-TW","2017/07/30 20:09:43","新北市新店區民族路190號","121.536408333333","24.9756266666667","6500600","新店區"
"241011","013-R5","2017/07/30 20:09:43","新北市三重區秀江街245號","121.496155","25.07168","6500200","三重區"
"241028","022-UY","2017/07/30 20:09:24","新北市三重區仁化街125號","121.494651666667","25.0575483333333","6500200","三重區"
"241020","060-VK","2017/07/30 20:09:38","新北市三重區三和路三段170巷63號","121.490383333333","25.072555","6500200","三重區"
"241031","061-VK","2017/07/30 20:09:38","新北市三重區過圳街9-1號","121.488713333333","25.05999","6500200","三重區"
"241015","062-VK","2017/07/30 20:09:39","新北市三重區福德北路47號","121.502305","25.0650983333333","6500200","三重區"
"241024","065-VK","2017/07/30 20:09:27","新北市三重區中正北路328號","121.478761666667","25.0692266666667","6500200","三重區"
"241026","066-VK","2017/07/30 20:09:28","新北市三重區福德南路65巷1號","121.502388333333","25.0605283333333","6500200","三重區"
"241002","090-VK","2017/07/30 20:09:32","新北市三重區仁義街231號","121.496575","25.0823916666667","6500200","三重區"
"241003","156-TC","2017/07/30 20:09:21","新北市三重區仁愛街445巷1號","121.48995","25.0823333333333","6500200","三重區"
"241009","265-UM","2017/07/30 20:09:32","新北市三重區永福街20號","121.48256","25.07804","6500200","三重區"
"241016","266-UM","2017/07/30 20:09:21","新北市三重區正德街58號","121.495526666667","25.0633783333333","6500200","三重區"
"241022","267-UM","2017/07/30 20:09:35","新北市三重區新北大道一段42號","121.487906666667","25.0614133333333","6500200","三重區"
"241025","271-UM","2017/07/30 20:09:25","新北市三重區中正北路430-1號","121.474521666667","25.070965","6500200","三重區"
"241007","398-BY","2017/07/30 20:09:41","新北市三重區三和路四段111-32號","121.486156666667","25.0773433333333","6500200","三重區"
"241008","412-TH","2017/07/30 20:09:31","新北市三重區永安北路一段3巷24號","121.477006666667","25.0745416666667","6500200","三重區"
"241035","462-BY","2017/07/30 20:09:33","新北市三重區平安街34號","121.498246666667","25.0641983333333","6500200","三重區"
"241004","475-VK","2017/07/30 20:09:26","新北市三重區仁愛街403號","121.491005","25.080945","6500200","三重區"
"241019","478-VK","2017/07/30 20:09:28","新北市三重區自強路二段24號","121.489646666667","25.0692516666667","6500200","三重區"
"241030","480-VK","2017/07/30 20:09:24","新北市三重區成功路145巷11號","121.487366666667","25.0526666666667","6500200","三重區"
"241014","543-UM","2017/07/30 20:09:37","新北市三重區安和路41號","121.500921666667","25.0693083333333","6500200","三重區"
"241023","545-UM","2017/07/30 20:09:35","新北市三重區頂崁街229號","121.477041666667","25.0682133333333","6500200","三重區"
"241006","AAD-863","2017/07/30 20:09:38","新北市三重區力行路二段123巷4號","121.483253333333","25.0764316666667","6500200","三重區"
"241032","887-TS","2017/07/30 20:09:24","新北市三重區捷運路65號","121.483395","25.0555883333333","6500200","三重區"
"241012","941-UM","2017/07/30 20:09:31","新北市三重區仁厚街40號","121.500106666667","25.0764916666667","6500200","三重區"
"241029","942-UM","2017/07/30 20:09:35","新北市三重區光明路32巷22號","121.491826666667","25.058815","6500200","三重區"
"241033","AAC-255","2017/07/30 20:09:28","新北市三重區光復路一段61巷2號","121.472351666667","25.0493816666667","6500200","三重區"
"235066","003-UY","2017/07/30 20:09:37","新北市中和區水源路115號","121.50806","25.003475","6500300","中和區"
"235039","097-UM","2017/07/30 20:09:26","新北市中和區景平路278巷14弄16號","121.514891666667","24.9933066666667","6500300","中和區"
"235065","098-UM","2017/07/30 20:09:30","新北市中和區福祥路68號","121.499353333333","25.0051016666667","6500300","中和區"
"235040","150-BY","2017/07/30 20:09:38","新北市中和區安平路93號","121.511005","24.9966266666667","6500300","中和區"
"235058","151-BY","2017/07/30 20:09:26","新北市板橋區民生路二段56-3號","121.472185","25.0172783333333","6500300","中和區"
"235055","183-VK","2017/07/30 20:09:36","新北市中和區德光路32號","121.47054","25.0042433333333","6500300","中和區"
"235038","185-VK","2017/07/30 20:09:22","新北市永和區民生路46巷48號","121.52119","24.9963066666667","6500300","中和區"
"235044","293-VK","2017/07/30 20:09:40","新北市中和區南山路150號","121.504223333333","24.9922","6500300","中和區"
"235072","301-VK","2017/07/30 20:09:36","新北市八里區商港路12號","121.396745","25.1444683333333","6500300","中和區"
"235051","376-QA","2017/07/30 20:09:28","新北市中和區景安路222巷4號","121.503511666667","24.990645","6500300","中和區"
"235068","377-QA","2017/07/30 20:09:36","新北市中和區中山路二段248號","121.497706666667","25.0026333333333","6500300","中和區"
"235050","4979-A6","2017/07/30 20:09:18","新北市中和區景新街274巷8號","121.510635","24.99232","6500300","中和區"
"235069","4980-A6","2017/07/30 20:09:38","新北市中和區圓通路192號","121.496388333333","24.9945933333333","6500300","中和區"
"235070","558-UM","2017/07/30 20:09:29","新北市中和區圓通路233號","121.496261666667","24.99418","6500300","中和區"
"235046","733-UM","2017/07/30 20:09:29","新北市中和區忠孝街33號","121.510548333333","24.9831783333333","6500300","中和區"
"235026","800-TS","2017/07/30 20:09:38","新北市中和區員山路36巷13號","121.484295","24.99067","6500300","中和區"
"235041","802-TS","2017/07/30 20:09:42","新北市中和區中安街88號","121.512161666667","25.0013266666667","6500300","中和區"
"235037","AAC-213","2017/07/30 20:09:37","新北市中和區自立路147號","121.522533333333","24.9930616666667","6500300","中和區"
"235059","AAC-215","2017/07/30 20:09:35","新北市中和區圓通路335巷33弄17號","121.49303","24.9889683333333","6500300","中和區"
"220065","072-UY","2017/07/30 20:09:26","新北市板橋區新站路75號","121.465088333333","25.0142366666667","6500100","板橋區"
"220106","075-UY","2017/07/30 20:09:24","新北市板橋區文聖街13號","121.475518333333","25.032355","6500100","板橋區"
"220069","AAD-861","2017/07/30 20:09:33","新北市板橋區大明街15巷11號","121.458481666667","25.002155","6500100","板橋區"
"247020","893-R6","2017/07/30 20:09:39","新北市蘆洲區民權路106巷5弄7號","121.474201666667","25.089095","6501400","蘆洲區"
"247017","500-BY","2017/07/30 20:09:38","新北市蘆洲區民族路314巷3弄5號","121.477178333333","25.0902433333333","6501400","蘆洲區"
"247001","402-BY","2017/07/30 15:49:55","新北市五股區中興路三段3-6號","121.449548333333","25.0787666666667","6501400","蘆洲區"
"247006","341-TH","2017/07/30 20:09:40","新北市蘆洲區永安南路二段16巷10號","121.467825","25.077405","6501400","蘆洲區"
"247008","339-TH","2017/07/30 20:09:37","新北市蘆洲區集賢路401號","121.480273333333","25.0818683333333","6501400","蘆洲區"
"247024","337-TH","2017/07/30 20:09:25","新北市蘆洲區光榮路112號","121.4647","25.0887566666667","6501400","蘆洲區"
"247002","336-TH","2017/07/30 20:09:31","新北市蘆洲區永康街2巷8號","121.459358333333","25.0861883333333","6501400","蘆洲區"
"247014","057-VK","2017/07/30 20:09:27","新北市蘆洲區和平路70號","121.469905","25.079325","6501400","蘆洲區"
"247004","056-VK","2017/07/30 20:09:37","新北市蘆洲區長安街285巷16號","121.45743","25.084185","6501400","蘆洲區"
"247012","007-UY","2017/07/30 20:09:36","新北市蘆洲區民族路250巷10號","121.479655","25.0889466666667","6501400","蘆洲區"
"247016","001-UY","2017/07/30 20:09:41","新北市蘆洲區光華路166號","121.465363333333","25.0824766666667","6501400","蘆洲區"
"208003","665-BX","2017/07/30 20:09:27","新北市金山區海興路112號","121.631303333333","25.23902","6502700","金山區"
"251009","008-UM","2017/07/30 20:09:12","新北市淡水區英專路42-1號","121.445626666667","25.17036","6501000","淡水區"
"251004","009-UM","2017/07/30 20:09:20","新北市淡水區民族路29巷56號","121.46185","25.1368366666667","6501000","淡水區"
"251014","180-VK","2017/07/30 20:09:42","新北市淡水區石頭厝3號","121.458713333333","25.23557","6501000","淡水區"
"251008","181-VK","2017/07/30 20:09:38","新北市淡水區沙崙路156巷13號","121.423835","25.182595","6501000","淡水區"
"251015","182-VK","2017/07/30 20:09:41","新北市淡水區埤島80-7號","121.448526666667","25.1889516666667","6501000","淡水區"
"251010","413-VK","2017/07/30 19:59:44","新北市淡水區崁頂92號","121.429405","25.2021033333333","6501000","淡水區"
"251012","441-VK","2017/07/30 20:09:37","新北市淡水區淡金路三段216號","121.448931666667","25.2046866666667","6501000","淡水區"
"251016","442-VK","2017/07/30 20:09:39","新北市淡水區番子田19號","121.457428333333","25.2290083333333","6501000","淡水區"
"251005","443-VK","2017/07/30 20:09:27","新北市淡水區學府路136巷34號","121.451903333333","25.1726316666667","6501000","淡水區"
"251001","559-UM","2017/07/30 20:09:24","新北市淡水區新市二路四段265號","121.445738333333","25.192465","6501000","淡水區"
"251006","561-UM","2017/07/30 20:09:36","新北市淡水區北新路141巷29號","121.448145","25.1795966666667","6501000","淡水區"
"251013","577-R6","2017/07/30 20:09:34","新北市淡水區水汴頭7號","121.471613333333","25.2054683333333","6501000","淡水區"
"251011","650-BX","2017/07/30 20:08:49","新北市淡水區崁頂78-5號","121.42931","25.2073066666667","6501000","淡水區"
"251003","673-BX","2017/07/30 20:09:39","新北市淡水區中山北路二段189巷15弄25號","121.443395","25.1847083333333","6501000","淡水區"
"207003","550-UM","2017/07/30 20:09:27","新北市萬里區大鵬里萬里加投180號","121.642981666667","25.2157783333333","6502800","萬里區"
"207004","225-TW","2017/07/30 20:09:29","新北市萬里區北基里孝七街29號","121.682473333333","25.1767016666667","6502800","萬里區"
"252005","073-UM","2017/07/30 08:58:12","新北市三芝區埔坪里埔頭坑41號","121.504463333333","25.264405","6502100","三芝區"
"252002","178-VK","2017/07/30 20:09:40","新北市三芝區三民街63號","121.505155","25.25813","6502100","三芝區"
"252001","292-VK","2017/07/30 20:09:33","新北市三芝區公正街31號","121.4997","25.2584383333333","6502100","三芝區"
"252007","AAC-283","2017/07/30 16:00:40","新北市三芝區埔坪里埔頭坑41號","121.504516666667","25.2643983333333","6502100","三芝區"
"237007","153-BY","2017/07/30 20:09:25","新北市三峽區二鬮路136巷22弄51號","121.357575","24.9103766666667","6500900","三峽區"
"237009","210-TH","2017/07/30 20:09:28","新北市三峽區民族街3號","121.369151666667","24.931255","6500900","三峽區"
"237008","302-VK","2017/07/30 20:09:40","新北市三峽區中華路63巷11號","121.372841666667","24.9302283333333","6500900","三峽區"
"237006","5529-G3","2017/07/30 20:09:30","新北市三峽區嘉添109-11號","121.36948","24.909615","6500900","三峽區"
"237005","AKY-6261","2017/07/30 20:09:22","新北市三峽區三樹路46號","121.377788333333","24.937735","6500900","三峽區"
"236041","107-UM","2017/07/30 20:09:30","新北市土城區學府路一段164巷6弄2號","121.453591666667","24.9873516666667","6501300","土城區"
"236075","166-UM","2017/07/30 20:09:24","新北市土城區民族街30號","121.418708333333","24.9633216666667","6501300","土城區"
"236013","270-VK","2017/07/30 20:09:32","新北市土城區德興街137號","121.455091666667","24.9916433333333","6501300","土城區"
"236035","271-VK","2017/07/30 20:09:41","新北市土城區延吉街296巷1弄1號","121.464443333333","24.9843266666667","6501300","土城區"
"236017","401-BY","2017/07/30 20:09:27","新北市土城區延吉街111巷15號","121.471788333333","24.9860533333333","6501300","土城區"
"242021","AAC-296","2017/07/30 20:09:38","新北市新莊區建中街32巷23號","121.448598333333","25.03856","6500500","新莊區"
"242029","986-R7","2017/07/30 20:09:28","新北市新莊區中原路349號","121.445135","25.05427","6500500","新莊區"
"242048","751-BX","2017/07/30 20:09:31","新北市新莊區四維路186巷1號","121.42191","25.0211066666667","6500500","新莊區"
"242025","615-BX","2017/07/30 20:09:35","新北市新莊區五權一路12巷25弄3號","121.458003333333","25.0642266666667","6500500","新莊區"
"242023","613-BX","2017/07/30 20:09:39","新北市新莊區化成路652號","121.466003333333","25.055735","6500500","新莊區"
"242027","612-BX","2017/07/30 20:09:40","新北市新莊區幸福路813號","121.44567","25.0490683333333","6500500","新莊區"
"242036","566-BX","2017/07/30 20:09:39","新北市新莊區後港一路130巷37號","121.43","25.0259383333333","6500500","新莊區"
"242004","442-UM","2017/07/30 20:09:35","新北市新莊區頭興街7巷2號","121.462481666667","25.0535466666667","6500500","新莊區"
"242046","441-UM","2017/07/30 20:09:29","新北市新莊區裕民街55巷1號","121.419361666667","25.0240983333333","6500500","新莊區"
"242051","440-UM","2017/07/30 20:09:41","新北市新莊區民安西路174號","121.425933333333","25.0159333333333","6500500","新莊區"
"242031","415-TV","2017/07/30 20:09:25","新北市新莊區中正路380號","121.443046666667","25.0342216666667","6500500","新莊區"
"242002","413-TV","2017/07/30 20:09:35","新北市三重區重新路五段657號","121.466613333333","25.04308","6500500","新莊區"
"242039","400-BY","2017/07/30 20:09:32","新北市新莊區龍安路499號","121.426088333333","25.0180033333333","6500500","新莊區"
"242061","362-BY","2017/07/30 20:09:41","","121.443438333333","25.0263533333333","6500500","新莊區"
"242058","353-BY","2017/07/30 20:09:27","新北市新莊區八德街167號","121.423406666667","25.0191083333333","6500500","新莊區"
"242042","132-UY","2017/07/30 20:09:24","新北市新莊區新北大道七段239號","121.413106666667","25.02964","6500500","新莊區"
"242034","133-UY","2017/07/30 20:09:32","新北市新莊區中正路318巷18號","121.446396666667","25.03597","6500500","新莊區"
"242019","135-UY","2017/07/30 20:09:43","新北市新莊區銘德街16號","121.458878333333","25.0437633333333","6500500","新莊區"
"242044","172-VK","2017/07/30 20:09:32","新北市新莊區中正路929巷23號","121.411196666667","25.0201016666667","6500500","新莊區"
"242007","173-VK","2017/07/30 20:09:35","新北市新莊區思源路419巷1弄5號","121.45948","25.0522333333333","6500500","新莊區"
"242013","175-VK","2017/07/30 20:09:38","新北市新莊區幸福路710巷6弄2號","121.45015","25.0496716666667","6500500","新莊區"
"242056","176-VK","2017/07/30 20:09:28","新北市新莊區豐年街28巷1弄11號","121.446081666667","25.0318633333333","6500500","新莊區"
"242011","346-TH","2017/07/30 20:09:38","新北市新莊區中信街67巷7號","121.4487","25.050655","6500500","新莊區"
"242017","348-TH","2017/07/30 20:09:43","新北市新莊區中安街5巷29號","121.452195","25.046175","6500500","新莊區"
"242053","349-TH","2017/07/30 20:09:35","新北市新莊區西盛街387巷34弄5號","121.428591666667","25.0129583333333","6500500","新莊區"
"242009","351-TH","2017/07/30 20:09:15","新北市新莊區昌平街82巷13弄32號","121.455225","25.0527633333333","6500500","新莊區"
"221008","489-VK","2017/07/30 20:09:26","新北市汐止區忠三街9巷32號","121.624526666667","25.080235","6501100","汐止區"
"221036","130-UY","2017/07/30 20:09:35","新北市汐止區新台五路二段29號","121.662885","25.0663716666667","6501100","汐止區"
"221015","131-UY","2017/07/30 20:09:42","新北市汐止區建成路9號","121.664631666667","25.0724666666667","6501100","汐止區"
"221012","269-BY","2017/07/30 20:09:37","新北市汐止區連峰街225巷3號","121.644706666667","25.0809","6501100","汐止區"
"221012","278-VK","2017/07/30 15:38:40","新北市汐止區汐萬路一段256巷3號","121.652223333333","25.07526","6501100","汐止區"
"221023","279-VK","2017/07/30 02:45:23","新北市汐止區汐萬路一段256巷1號","121.651925","25.0749983333333","6501100","汐止區"
"221032","280-BY","2017/07/30 20:09:39","新北市汐止區弘道街45號","121.618166666667","25.0485283333333","6501100","汐止區"
"221027","281-BY","2017/07/30 20:09:26","新北市汐止區和平街103號","121.660968333333","25.07001","6501100","汐止區"
"221038","297-VK","2017/07/30 20:09:38","新北市汐止區橋東街5巷2號","121.667108333333","25.0758633333333","6501100","汐止區"
"221029","298-VK","2017/07/30 20:09:32","新北市汐止區樟樹一路119巷8-6號","121.641271666667","25.06447","6501100","汐止區"
"221021","299-VK","2017/07/30 19:58:10","新北市汐止區青山路17號","121.656223333333","25.0621116666667","6501100","汐止區"
"221031","353-TW","2017/07/30 20:09:40","新北市汐止區中興路216號","121.631001666667","25.066315","6501100","汐止區"
"221035","622-UM","2017/07/30 20:09:29","新北市汐止區長江街57巷21弄1號","121.655895","25.07243","6501100","汐止區"
"221025","623-UM","2017/07/30 20:09:41","新北市汐止區秀峰路77號","121.659936666667","25.0642766666667","6501100","汐止區"
"221033","647-BX","2017/07/30 20:09:36","新北市汐止區東勢街201巷104號","121.633541666667","25.04305","6501100","汐止區"
"221002","707-TV","2017/07/30 20:09:38","新北市汐止區工建路302-1號","121.634488333333","25.060535","6501100","汐止區"
"221018","753-BX","2017/07/30 20:09:27","新北市汐止區茄福街35巷11號","121.672861666667","25.0668233333333","6501100","汐止區"
"220080","200-UY","2017/07/30 20:09:42","新北市板橋區大觀路二段185號","121.444841666667","24.9998216666667","6500100","板橋區"
"220101","245-BX","2017/07/30 20:09:34","新北市板橋區雙十路二段47巷4弄18號","121.475021666667","25.026395","6500100","板橋區"
"220064","280-UM","2017/07/30 20:09:26","新北市三重區五谷王北街161-1號","121.47772","25.0545466666667","6500100","板橋區"
"220071","283-VK","2017/07/30 20:09:31","新北市板橋區和平路174巷36弄3號","121.465126666667","24.9940966666667","6500100","板橋區"
"220083","286-VK","2017/07/30 20:09:32","新北市板橋區僑中二街48巷8號","121.445981666667","25.0103416666667","6500100","板橋區"
"220081","287-VK","2017/07/30 20:09:37","新北市板橋區僑中一街80巷12弄1號","121.448138333333","25.01322","6500100","板橋區"
"220061","295-UM","2017/07/30 20:09:38","新北市板橋區觀光街1巷2號","121.472135","25.015515","6500100","板橋區"
"220084","296-UM","2017/07/30 20:09:26","新北市板橋區板林路158號","121.424431666667","24.987765","6500100","板橋區"
"220092","307-R5","2017/07/30 20:09:32","新北市板橋區文化路一段45巷3號","121.460091666667","25.013705","6500100","板橋區"
"220098","317-R6","2017/07/30 20:09:40","新北市板橋區新海路72巷75號","121.461481666667","25.0232516666667","6500100","板橋區"
"220089","487-VK","2017/07/30 20:09:39","新北市板橋區互助街49-1號","121.461008333333","25.0265783333333","6500100","板橋區"
"220088","491-VK","2017/07/30 20:09:40","新北市板橋區民治街55號","121.479388333333","25.0334666666667","6500100","板橋區"
"220103","561-BX","2017/07/30 20:09:24","新北市板橋區陽明街259號","121.462645","25.0253133333333","6500100","板橋區"
"220093","689-BX","2017/07/30 20:09:24","新北市板橋區民生路三段252號","121.464253333333","25.0311966666667","6500100","板橋區"
"220055","827-TW","2017/07/30 20:09:23","新北市板橋區仁愛路75號","121.460911666667","24.999705","6500100","板橋區"
"220102","830-TW","2017/07/30 20:09:43","新北市板橋區縣民大道三段33巷1弄21號","121.47329","25.020125","6500100","板橋區"
"220096","831-TW","2017/07/30 20:09:30","新北市板橋區莒光路79巷4號","121.471975","25.024405","6500100","板橋區"
"220074","895-R6","2017/07/30 20:09:25","新北市板橋區縣民大道一段295號","121.46091","25.0104866666667","6500100","板橋區"
"220097","AAC-210","2017/07/30 20:09:39","新北市板橋區光正街45巷2弄11-1號","121.461338333333","25.0172783333333","6500100","板橋區"
"220070","AAC-253","2017/07/30 20:09:44","新北市板橋區德興街31號","121.453458333333","24.9939466666667","6500100","板橋區"
