"lineid","car","time","location","longitude","latitude","cityid","cityname"
"247008","341-TH","2017/11/15 17:47:00","新北市三重區環河北路二段330號","121.498046666667","25.0837316666667","6501400","蘆洲區"
"224011","AGQ-8101","2017/11/15 18:38:37","新北市瑞芳區烏勢巷111號","121.846163333333","25.108475","6501200","瑞芳區"
"251013","180-VK","2017/11/15 18:39:54","新北市三芝區興華里田心子34-3號","121.485676666667","25.20467","6501000","淡水區"
"251015","182-VK","2017/11/15 18:39:55","新北市淡水區興福寮66巷26號","121.486195","25.1622633333333","6501000","淡水區"
"251002","3G-OBU6","2017/11/15 15:30:39","桃園市中壢區啟文路二段112號","121.201745","24.9869983333333","6501000","淡水區"
