"lineid","car","time","location","longitude","latitude","cityid","cityname"
"234048","863-TW","2017/11/28 14:49:15","新北市五股區凌雲路一段22巷11號","121.453196666667","25.100985","6500400","永和區"
"249002","305-UY","2017/11/28 16:29:41","新北市八里區忠孝路353號","121.416493333333","25.161165","6502300","八里區"
"231046","278-BY","2017/11/28 16:29:45","新北市新店區灣潭路3-3號","121.53818","24.9508383333333","6500600","新店區"
"241011","013-R5","2017/11/28 16:29:37","新北市三重區龍濱路261號","121.501433333333","25.07287","6500200","三重區"
"241028","022-UY","2017/11/28 16:29:51","新北市三重區中正南路157號","121.493826666667","25.0561166666667","6500200","三重區"
"241008","059-VK","2017/11/28 16:29:38","新北市三重區永福街122-2號","121.47906","25.0753133333333","6500200","三重區"
"241009","060-VK","2017/11/28 16:29:53","新北市三重區三和路四段191巷78號","121.484391666667","25.0798883333333","6500200","三重區"
"241031","061-VK","2017/11/28 16:29:45","新北市三重區重陽路一段100號","121.486596666667","25.0595183333333","6500200","三重區"
"241015","062-VK","2017/11/28 16:29:54","新北市三重區福德北路36號","121.501913333333","25.06519","6500200","三重區"
"241017","063-VK","2017/11/28 16:29:53","新北市三重區重新路二段99號","121.495555","25.06183","6500200","三重區"
"241024","065-VK","2017/11/28 16:29:41","新北市三重區中正北路315巷18號","121.47491","25.0715966666667","6500200","三重區"
"241026","066-VK","2017/11/28 16:29:44","新北市三重區光興街1號","121.500348333333","25.0604","6500200","三重區"
"241002","090-VK","2017/11/28 16:29:24","新北市三重區五華街7巷36號","121.496703333333","25.0808533333333","6500200","三重區"
"241003","091-VK","2017/11/28 16:29:48","新北市三重區仁義街230巷2號","121.49468","25.0850033333333","6500200","三重區"
"241005","262-UM","2017/11/28 16:29:47","新北市三重區碧華街218號","121.486745","25.082395","6500200","三重區"
"241004","265-UM","2017/11/28 16:29:56","新北市三重區仁愛街358號","121.49143","25.0802783333333","6500200","三重區"
"241016","266-UM","2017/11/28 16:29:56","新北市三重區大智街23號","121.494235","25.0658666666667","6500200","三重區"
"241022","267-UM","2017/11/28 16:29:45","新北市三重區新北大道一段70號","121.486503333333","25.061635","6500200","三重區"
"241018","268-UM","2017/11/28 16:29:53","新北市三重區重陽路四段77號","121.492403333333","25.070865","6500200","三重區"
"241032","269-UM","2017/11/28 16:29:50","新北市三重區三陽路100巷3弄13號","121.483031666667","25.0580833333333","6500200","三重區"
"241013","270-UM","2017/11/28 16:29:57","新北市三重區仁愛街54號","121.495893333333","25.0728083333333","6500200","三重區"
"241025","271-UM","2017/11/28 16:29:53","新北市三重區中正北路560巷100弄17-1號","121.472751666667","25.0683183333333","6500200","三重區"
"241007","398-BY","2017/11/28 16:29:43","新北市三重區三和路四段167巷117號","121.487441666667","25.080125","6500200","三重區"
"241020","413-TH","2017/11/28 16:29:40","新北市三重區車路頭街37巷2號","121.48391","25.071745","6500200","三重區"
"241019","478-VK","2017/11/28 16:29:51","新北市三重區重陽路三段93號","121.49019","25.06784","6500200","三重區"
"241030","480-VK","2017/11/28 16:29:45","新北市三重區成功路98號","121.487803333333","25.0514533333333","6500200","三重區"
"241014","543-UM","2017/11/28 16:29:51","新北市三重區河邊北街72-6號","121.50444","25.0685033333333","6500200","三重區"
"241023","545-UM","2017/11/28 16:29:55","新北市三重區忠孝路三段50巷80號","121.482943333333","25.064555","6500200","三重區"
"241001","547-UM","2017/11/28 16:29:40","新北市三重區福隆路52號","121.492558333333","25.078545","6500200","三重區"
"241006","AAD-863","2017/11/28 16:29:43","新北市三重區力行路二段170號","121.483166666667","25.076845","6500200","三重區"
"241012","941-UM","2017/11/28 16:29:48","新北市三重區河邊北街238號","121.502011666667","25.0756766666667","6500200","三重區"
"241029","942-UM","2017/11/28 16:29:40","新北市三重區集美街126巷26號","121.490003333333","25.0538866666667","6500200","三重區"
"241033","AAC-255","2017/11/28 16:29:41","新北市三重區五谷王北街20巷15弄2號","121.47498","25.0483466666667","6500200","三重區"
"235026","800-TS","2017/11/28 16:29:49","新北市中和區建八路125巷6弄2號","121.489886666667","24.9989383333333","6500300","中和區"
"247004","336-TH","2017/11/28 14:47:17","新北市五股區中興路三段163號","121.44922","25.0806433333333","6501400","蘆洲區"
"228003","097-TW","2017/11/28 15:18:04","新北市貢寮區貢寮里朝陽街1-2號","121.912341666667","25.0212233333333","6502600","貢寮區"
"224006","676-BX","2017/11/28 16:29:58","新北市瑞芳區東和路31-5號","121.805246666667","25.1060433333333","6501200","瑞芳區"
"224007","273-VK","2017/11/28 16:29:54","新北市瑞芳區中央路49巷3號","121.762246666667","25.1027966666667","6501200","瑞芳區"
"224005","271-BY","2017/11/28 16:29:41","新北市瑞芳區阿美家園6號","121.821801666667","25.1161883333333","6501200","瑞芳區"
"227009","642-TC","2017/11/28 16:29:39","新北市雙溪區三港里雙澳路22號","121.869458333333","25.0498766666667","6502500","雙溪區"
"227003","400-TW","2017/11/28 16:29:35","新北市雙溪區上林里內平林120-1號","121.824913333333","25.0264766666667","6502500","雙溪區"
"251008","181-VK","2017/11/28 16:29:46","新北市淡水區中山路38號","121.444225","25.1698766666667","6501000","淡水區"
"251016","442-VK","2017/11/28 16:29:43","新北市淡水區中正路二段31號","121.419328333333","25.1817266666667","6501000","淡水區"
"242001","233-RS","2017/11/28 08:26:22","新北市新莊區環河路48-7號","121.436901666667","25.0097766666667","6500500","新莊區"
"221012","276-VK","2017/11/28 13:30:37","新北市汐止區汐萬路一段256巷3號","121.653466666667","25.0746283333333","6501100","汐止區"
