"lineid","car","time","location","longitude","latitude","cityid","cityname"
"234048","863-TW","2017/11/28 14:49:15","新北市五股區凌雲路一段22巷11號","121.453196666667","25.100985","6500400","永和區"
"249005","172-UM","2017/11/28 17:19:53","新北市五股區民義路二段132號","121.41012","25.120955","6502300","八里區"
"249001","173-UM","2017/11/28 17:19:50","新北市八里區中華路二段165巷10-1號","121.408116666667","25.1506083333333","6502300","八里區"
"249004","303-UY","2017/11/28 17:19:52","新北市八里區賢三街23號","121.418905","25.1590966666667","6502300","八里區"
"249002","305-UY","2017/11/28 17:19:41","新北市八里區龍米路二段117巷26號","121.44466","25.14277","6502300","八里區"
"249003","593-UM","2017/11/28 17:19:46","新北市八里區中山路二段341號","121.399436666667","25.14729","6502300","八里區"
"244013","069-UM","2017/11/28 17:19:37","新北市林口區粉寮69號","121.405066666667","25.09086","6501700","林口區"
"244007","080-UY","2017/11/28 17:19:55","新北市林口區中湖26-6號","121.3777","25.0949483333333","6501700","林口區"
"244019","403-UM","2017/11/28 17:19:40","新北市林口區公園路225-3號","121.37447","25.0749366666667","6501700","林口區"
"244023","483-VK","2017/11/28 17:19:37","新北市林口區仁愛路一段645號","121.388558333333","25.0766766666667","6501700","林口區"
"244009","656-BX","2017/11/28 17:19:45","新北市林口區文化北路二段550巷20弄37號","121.377911666667","25.0913316666667","6501700","林口區"
"244025","837-TS","2017/11/28 17:19:52","新北市林口區中山路573號","121.380775","25.0820016666667","6501700","林口區"
"244021","838-TS","2017/11/28 17:19:43","新北市林口區粉寮路二段354號","121.404701666667","25.0978966666667","6501700","林口區"
"231046","278-BY","2017/11/28 17:19:45","新北市新店區直潭路92號","121.530913333333","24.9375766666667","6500600","新店區"
"241011","013-R5","2017/11/28 17:19:37","新北市三重區龍濱路197號","121.50195","25.071385","6500200","三重區"
"241028","022-UY","2017/11/28 17:19:52","新北市三重區仁化街66號","121.493953333333","25.0589533333333","6500200","三重區"
"241008","059-VK","2017/11/28 17:19:38","新北市三重區永福街72巷33號","121.48017","25.0763316666667","6500200","三重區"
"241009","060-VK","2017/11/28 17:19:54","新北市三重區三和路四段231巷99號","121.483463333333","25.0805233333333","6500200","三重區"
"241015","062-VK","2017/11/28 17:19:34","新北市三重區長元街82-1號","121.501903333333","25.0662966666667","6500200","三重區"
"241017","063-VK","2017/11/28 17:19:45","新北市三重區大同北路44巷11號","121.494776666667","25.062935","6500200","三重區"
"241024","065-VK","2017/11/28 17:19:41","新北市三重區中正北路193巷21弄9號","121.477226666667","25.070565","6500200","三重區"
"241026","066-VK","2017/11/28 17:19:44","新北市三重區福裕街36-3號","121.498951666667","25.0614683333333","6500200","三重區"
"241002","090-VK","2017/11/28 17:19:45","新北市三重區自強路五段17號","121.49282","25.0806583333333","6500200","三重區"
"241003","091-VK","2017/11/28 17:19:48","新北市三重區富福街42號","121.491035","25.08387","6500200","三重區"
"241005","262-UM","2017/11/28 17:19:47","新北市三重區永安北路二段5巷27號","121.482415","25.0811616666667","6500200","三重區"
"241004","265-UM","2017/11/28 17:19:36","新北市三重區五華街110巷17弄5號","121.490875","25.0823583333333","6500200","三重區"
"241016","266-UM","2017/11/28 17:19:35","新北市三重區大同北路97-3號","121.494416666667","25.063655","6500200","三重區"
"241022","267-UM","2017/11/28 17:19:45","新北市三重區中正北路64巷20號","121.486128333333","25.0637816666667","6500200","三重區"
"241018","268-UM","2017/11/28 17:19:53","新北市三重區安慶街165-1號","121.493985","25.06864","6500200","三重區"
"241032","269-UM","2017/11/28 17:19:50","新北市三重區名源街28巷6號","121.482396666667","25.06043","6500200","三重區"
"241013","270-UM","2017/11/28 17:19:57","新北市三重區仁愛街82巷9號","121.494915","25.0734716666667","6500200","三重區"
"241025","271-UM","2017/11/28 17:19:52","新北市三重區中正北路253號","121.47539","25.0707133333333","6500200","三重區"
"241007","398-BY","2017/11/28 17:19:43","新北市三重區三和路四段145巷66號","121.485853333333","25.0787166666667","6500200","三重區"
"241020","413-TH","2017/11/28 17:19:40","新北市三重區自強路三段7巷44號","121.488368333333","25.0722966666667","6500200","三重區"
"241019","478-VK","2017/11/28 17:19:51","新北市三重區自強路二段74巷14號","121.488211666667","25.0697716666667","6500200","三重區"
"241030","480-VK","2017/11/28 17:19:45","新北市三重區成功路73巷36號","121.489665","25.0522983333333","6500200","三重區"
"241014","543-UM","2017/11/28 17:19:51","新北市三重區三和路二段83號","121.500076666667","25.0684716666667","6500200","三重區"
"241023","545-UM","2017/11/28 17:19:35","新北市三重區三民街166號","121.482156666667","25.0655616666667","6500200","三重區"
"241001","547-UM","2017/11/28 17:19:40","新北市三重區碧華街317號","121.491055","25.0842716666667","6500200","三重區"
"241012","941-UM","2017/11/28 17:19:48","新北市三重區公園街32號","121.498206666667","25.074155","6500200","三重區"
"241033","AAC-255","2017/11/28 17:19:41","新北市三重區中興北街166號","121.468953333333","25.057175","6500200","三重區"
"235062","800-TS","2017/11/28 16:45:05","新北市中和區員山路36巷16-3號","121.485028333333","24.99144","6500300","中和區"
"247022","893-R6","2017/11/28 17:19:47","新北市蘆洲區三民路128巷46號","121.470501666667","25.0886783333333","6501400","蘆洲區"
"247012","546-UM","2017/11/28 17:19:38","新北市蘆洲區信義路319巷10弄17號","121.477531666667","25.086535","6501400","蘆洲區"
"247020","500-BY","2017/11/28 17:19:54","新北市蘆洲區民族路440號","121.473121666667","25.091985","6501400","蘆洲區"
"247008","341-TH","2017/11/28 17:19:13","新北市蘆洲區永安北路一段50號","121.476271666667","25.07534","6501400","蘆洲區"
"247010","339-TH","2017/11/28 17:19:48","新北市蘆洲區中山一路122巷46號","121.476526666667","25.0825583333333","6501400","蘆洲區"
"247002","337-TH","2017/11/28 17:19:47","新北市蘆洲區永樂街38巷33弄6-1號","121.457776666667","25.0896133333333","6501400","蘆洲區"
"247004","336-TH","2017/11/28 17:19:53","新北市蘆洲區中原路23號","121.460488333333","25.0829016666667","6501400","蘆洲區"
"247024","335-TH","2017/11/28 17:19:41","新北市蘆洲區光榮路2號","121.460241666667","25.08625","6501400","蘆洲區"
"247016","057-VK","2017/11/28 17:19:46","新北市蘆洲區正和街106號","121.467891666667","25.0806283333333","6501400","蘆洲區"
"247006","056-VK","2017/11/28 17:19:52","新北市蘆洲區長安街49巷4弄2號","121.462985","25.0792366666667","6501400","蘆洲區"
"247014","007-UY","2017/11/28 17:19:45","新北市蘆洲區中正路83號","121.470071666667","25.0835733333333","6501400","蘆洲區"
"247018","001-UY","2017/11/28 17:19:53","新北市蘆洲區民權路82巷5弄11號","121.474693333333","25.088465","6501400","蘆洲區"
"228003","097-TW","2017/11/28 17:19:53","新北市貢寮區福隆里興隆街24-1號","121.94439","25.0166516666667","6502600","貢寮區"
"228001","212-TW","2017/11/28 17:19:42","新北市貢寮區仁理村尖山腳街18-3號","121.925508333333","25.0483466666667","6502600","貢寮區"
"228002","585-TW","2017/11/28 17:19:55","新北市貢寮區雙玉里下雙溪街24號","121.922973333333","25.0098616666667","6502600","貢寮區"
"224010","AGQ-8101","2017/11/28 10:39:20","新北市瑞芳區民權街3-1號","121.80945","25.1082716666667","6501200","瑞芳區"
"224006","676-BX","2017/11/28 17:07:15","新北市瑞芳區傑魚坑路183號","121.78858","25.108175","6501200","瑞芳區"
"224009","285-BY","2017/11/28 17:19:48","新北市瑞芳區石碑巷101-1號","121.842076666667","25.1082633333333","6501200","瑞芳區"
"224008","275-VK","2017/11/28 17:19:51","新北市瑞芳區侯硐路172號","121.831578333333","25.08428","6501200","瑞芳區"
"224005","271-BY","2017/11/28 17:19:21","新北市瑞芳區鼻頭路247號","121.902953333333","25.1219083333333","6501200","瑞芳區"
"224006","201-TW","2017/11/28 17:19:49","新北市瑞芳區大寮路356-1號","121.784821666667","25.1032316666667","6501200","瑞芳區"
"227009","642-TC","2017/11/28 17:19:39","新北市雙溪區三貂里定福路24-1號","121.851445","25.07224","6502500","雙溪區"
"227003","400-TW","2017/11/28 17:19:35","新北市雙溪區上林里內平林90號","121.827503333333","25.0274533333333","6502500","雙溪區"
"251004","009-UM","2017/11/28 17:19:40","新北市淡水區中正東路二段88巷15號","121.458995","25.150455","6501000","淡水區"
"251005","010-UM","2017/11/28 17:19:51","新北市淡水區鄧公路19號","121.451428333333","25.1700266666667","6501000","淡水區"
"251014","180-VK","2017/11/28 17:19:48","新北市淡水區番子田132號","121.464631666667","25.22777","6501000","淡水區"
"251008","181-VK","2017/11/28 17:19:46","新北市淡水區大同路257號","121.466495","25.1422583333333","6501000","淡水區"
"251010","413-VK","2017/11/28 17:19:18","新北市淡水區新市一路一段6號","121.429101666667","25.187555","6501000","淡水區"
"251012","441-VK","2017/11/28 17:19:49","新北市淡水區中山北路一段156號","121.444181666667","25.1780083333333","6501000","淡水區"
"251016","442-VK","2017/11/28 17:19:43","新北市淡水區埤島64-2號","121.461625","25.1905166666667","6501000","淡水區"
"251006","561-UM","2017/11/28 17:19:42","新北市淡水區大智街45號","121.442768333333","25.1742433333333","6501000","淡水區"
"251009","575-R6","2017/11/28 17:19:38","新北市淡水區三民街21號","121.439063333333","25.172005","6501000","淡水區"
"251007","577-R6","2017/11/28 17:19:37","新北市淡水區民生路60號","121.462095","25.137965","6501000","淡水區"
"251011","650-BX","2017/11/28 17:19:52","新北市淡水區坪頂路140號","121.466546666667","25.1615416666667","6501000","淡水區"
"251002","672-BX","2017/11/28 17:19:49","新北市淡水區中正路二段31號","121.41938","25.18166","6501000","淡水區"
"251003","673-BX","2017/11/28 17:19:49","新北市淡水區中山路158號","121.440778333333","25.1728883333333","6501000","淡水區"
"207003","550-UM","2017/11/28 17:19:53","新北市萬里區龜吼里美崙路45號","121.687208333333","25.18392","6502800","萬里區"
"252002","178-VK","2017/11/28 17:19:52","新北市三芝區忠孝街1-14號","121.505511666667","25.2539116666667","6502100","三芝區"
"252001","292-VK","2017/11/28 17:19:27","新北市三芝區長安街119號","121.49802","25.2596716666667","6502100","三芝區"
"242032","AAC-296","2017/11/28 17:19:41","新北市新莊區新泰路488號","121.442413333333","25.045845","6500500","新莊區"
"242029","986-R7","2017/11/28 17:19:45","新北市新莊區新泰路502巷2號","121.442608333333","25.0463","6500500","新莊區"
"242051","751-BX","2017/11/28 17:19:50","新北市新莊區瓊林北路55號","121.438793333333","25.0207483333333","6500500","新莊區"
"242025","615-BX","2017/11/28 17:19:52","新北市新莊區中港一街143號","121.447875","25.0451033333333","6500500","新莊區"
"242023","613-BX","2017/11/28 17:19:38","新北市新莊區新泰路488號","121.442615","25.0458166666667","6500500","新莊區"
"242027","612-BX","2017/11/28 17:19:42","新北市新莊區中港一街142號","121.446801666667","25.04498","6500500","新莊區"
"242039","566-BX","2017/11/28 17:19:54","新北市新莊區新樹路181號","121.436263333333","25.0247366666667","6500500","新莊區"
"242044","497-BY","2017/11/28 17:19:49","新北市新莊區富國路101-1號","121.421273333333","25.0255566666667","6500500","新莊區"
"242034","442-UM","2017/11/28 17:19:51","新北市新莊區瓊林路98-1號","121.443703333333","25.026665","6500500","新莊區"
"242048","441-UM","2017/11/28 17:19:53","新北市新莊區龍安路253號","121.419683333333","25.0200566666667","6500500","新莊區"
"242054","440-UM","2017/11/28 17:19:53","新北市新莊區環河路462號","121.440116666667","25.0197416666667","6500500","新莊區"
"242005","413-TV","2017/11/28 17:19:48","新北市新莊區新泰路357巷3弄13號","121.442558333333","25.0409083333333","6500500","新莊區"
"242042","400-BY","2017/11/28 17:19:42","新北市新莊區新樹路52號","121.437316666667","25.0266933333333","6500500","新莊區"
"242061","362-BY","2017/11/28 17:19:39","新北市新莊區三和路12-21號","121.441926666667","25.03818","6500500","新莊區"
"242058","353-BY","2017/11/28 17:19:49","新北市新莊區三和路12-9號","121.441913333333","25.03666","6500500","新莊區"
"242037","133-UY","2017/11/28 17:19:52","新北市新莊區新樹路72-5號","121.436553333333","25.0252416666667","6500500","新莊區"
"242021","135-UY","2017/11/28 17:19:52","新北市新莊區中港路256號","121.453726666667","25.043565","6500500","新莊區"
"242046","172-VK","2017/11/28 17:19:41","新北市新莊區中正路481號","121.441395","25.0337616666667","6500500","新莊區"
"242009","173-VK","2017/11/28 15:58:54","新北市新莊區新泰路255巷83號","121.442118333333","25.03894","6500500","新莊區"
"242015","175-VK","2017/11/28 17:19:37","新北市新莊區新泰路331號","121.444941666667","25.0417566666667","6500500","新莊區"
"242001","233-RS","2017/11/28 08:26:22","新北市新莊區環河路48-7號","121.436901666667","25.0097766666667","6500500","新莊區"
"242013","346-TH","2017/11/28 04:26:26","新北市新莊區三和路12-18號","121.442183333333","25.0376633333333","6500500","新莊區"
"242007","347-TH","2017/11/28 14:17:08","新北市新莊區三和路12-18號","121.44233","25.0376516666667","6500500","新莊區"
"242019","348-TH","2017/11/28 17:19:40","新北市新莊區中港路266號","121.453303333333","25.0438016666667","6500500","新莊區"
"242056","349-TH","2017/11/28 17:19:48","新北市新莊區新泰路401巷28-1號","121.44219","25.04407","6500500","新莊區"
"242017","350-TH","2017/11/28 17:19:51","新北市新莊區中港路287號","121.452806666667","25.044045","6500500","新莊區"
"242011","351-TH","2017/11/28 17:19:47","新北市新莊區中港一街142號","121.446903333333","25.04494","6500500","新莊區"
"238015","755-BX","2017/11/28 17:19:43","新北市樹林區大安路320號","121.41718","24.9914883333333","6500700","樹林區"
"238023","601-UM","2017/11/28 17:19:50","新北市樹林區大安路325號","121.41724","24.9915916666667","6500700","樹林區"
"238019","599-UM","2017/11/28 17:19:52","新北市樹林區八德街94號","121.420736666667","24.9803983333333","6500700","樹林區"
"238018","571-TV","2017/11/28 17:19:48","新北市樹林區博愛街233號","121.424086666667","24.9857283333333","6500700","樹林區"
"238024","5061-A6","2017/11/28 17:19:43","新北市樹林區四德街7巷31號","121.426036666667","24.9915933333333","6500700","樹林區"
"238021","KEA-2217","2017/11/28 17:19:37","新北市樹林區西圳街165巷20弄26號","121.395483333333","24.9600683333333","6500700","樹林區"
"238022","KEA-2213","2017/11/28 17:19:47","新北市樹林區和平街67號","121.424433333333","24.98246","6500700","樹林區"
"238025","303-VK","2017/11/28 17:19:47","新北市樹林區中山路一段296號","121.420266666667","24.986415","6500700","樹林區"
"238017","283-BY","2017/11/28 17:19:44","新北市樹林區大安路211號","121.420225","24.9953266666667","6500700","樹林區"
"238014","282-BY","2017/11/28 17:19:56","新北市樹林區大安路455號","121.414985","24.98787","6500700","樹林區"
"238020","268-VK","2017/11/28 17:19:49","新北市樹林區大安路313號","121.41773","24.9921466666667","6500700","樹林區"
"238026","172-UY","2017/11/28 17:19:53","新北市樹林區味王街13號","121.404768333333","24.97448","6500700","樹林區"
"238016","169-UY","2017/11/28 17:19:46","新北市樹林區八德街1號","121.417538333333","24.9849633333333","6500700","樹林區"
"239007","AAC-297","2017/11/28 17:19:44","新北市鶯歌區光復街10-2號","121.351668333333","24.9551133333333","6500800","鶯歌區"
"239006","891-R6","2017/11/28 17:19:49","新北市鶯歌區德昌二街115號","121.333138333333","24.9570033333333","6500800","鶯歌區"
"239008","527-UM","2017/11/28 17:19:37","新北市鶯歌區西湖街45巷13號","121.339948333333","24.959015","6500800","鶯歌區"
"239005","526-UM","2017/11/28 17:19:48","新北市鶯歌區鶯桃路590號","121.330345","24.9681633333333","6500800","鶯歌區"
"239001","417-VK","2017/11/28 17:19:53","新北市鶯歌區尖山路260號","121.34249","24.9463383333333","6500800","鶯歌區"
"239003","360-BY","2017/11/28 17:19:54","新北市鶯歌區德昌二街3巷1-1號","121.333218333333","24.9593283333333","6500800","鶯歌區"
"239002","359-BY","2017/11/28 17:19:52","新北市鶯歌區南雅路6號","121.349915","24.9543866666667","6500800","鶯歌區"
"239004","193-VK","2017/11/28 17:19:40","新北市鶯歌區文化路667號","121.353041666667","24.9462533333333","6500800","鶯歌區"
"221008","489-VK","2017/11/28 17:19:44","新北市汐止區康寧街901號","121.651265","25.0750233333333","6501100","汐止區"
"221012","276-VK","2017/11/28 13:30:37","新北市汐止區汐萬路一段256巷3號","121.653466666667","25.0746283333333","6501100","汐止區"
"220031","286-VK","2017/11/28 16:30:39","新北市板橋區華東街1-10號","121.448401666667","24.99514","6500100","板橋區"
"242002","280-VK","2017/11/28 17:19:36","新北市新莊區中環路一段10號","121.442931666667","25.025975","6500500","新莊區"
