"lineid","car","time","location","longitude","latitude","cityid","cityname"
"234048","863-TW","2017/11/28 14:49:15","新北市五股區凌雲路一段22巷11號","121.453196666667","25.100985","6500400","永和區"
"234026","9381-KE","2017/11/28 17:59:39","新北市永和區永和路一段39號","121.512941666667","25.0062133333333","6500400","永和區"
"249005","172-UM","2017/11/28 17:59:53","新北市八里區荖阡坑路15-4號","121.399555","25.1412933333333","6502300","八里區"
"249001","173-UM","2017/11/28 17:59:50","新北市八里區龍米路二段30號","121.448686666667","25.1400833333333","6502300","八里區"
"249004","303-UY","2017/11/28 17:59:52","新北市八里區龍米路二段159巷2-10號","121.43882","25.1531333333333","6502300","八里區"
"249002","305-UY","2017/11/28 17:59:41","新北市八里區龍米路一段386巷23號","121.452123333333","25.13291","6502300","八里區"
"249003","593-UM","2017/11/28 17:59:46","新北市八里區中山路二段306號","121.40468","25.1501433333333","6502300","八里區"
"248006","077-UY","2017/11/28 17:59:42","新北市五股區中興路二段83巷26-6號","121.460061666667","25.0750183333333","6501500","五股區"
"248020","225-UY","2017/11/28 17:59:41","新北市五股區中興路二段83巷26-6號","121.460016666667","25.0752416666667","6501500","五股區"
"248004","677-BX","2017/11/28 16:14:04","新北市五股區中興路二段37巷28號","121.46016","25.0750366666667","6501500","五股區"
"248002","678-BX","2017/11/28 17:59:42","新北市五股區中興路二段37巷28號","121.46006","25.07492","6501500","五股區"
"232011","375-UM","2017/11/28 17:59:35","新北市坪林區北宜路八段301號","121.711005","24.9340733333333","6502000","坪林區"
"244013","069-UM","2017/11/28 17:59:37","新北市林口區中山路79號","121.39026","25.0787","6501700","林口區"
"244007","080-UY","2017/11/28 17:59:34","新北市林口區竹林路77-2號","121.388411666667","25.0793916666667","6501700","林口區"
"244019","403-UM","2017/11/28 17:59:40","新北市林口區忠孝路512巷16-1號","121.370933333333","25.0684783333333","6501700","林口區"
"244023","483-VK","2017/11/28 17:59:37","新北市林口區東湖一街71號","121.385356666667","25.0724766666667","6501700","林口區"
"244017","485-VK","2017/11/28 17:59:46","新北市林口區公園路169號","121.370633333333","25.071865","6501700","林口區"
"244009","656-BX","2017/11/28 17:59:45","新北市林口區竹林路564號","121.386748333333","25.0835783333333","6501700","林口區"
"244011","701-TV","2017/11/28 17:59:37","新北市林口區中正路277號","121.389938333333","25.077665","6501700","林口區"
"244025","837-TS","2017/11/28 17:59:32","新北市林口區文化三路一段39巷126號","121.359488333333","25.06835","6501700","林口區"
"244021","838-TS","2017/11/28 17:59:43","新北市林口區新寮27號","121.397063333333","25.067635","6501700","林口區"
"222003","436-BY","2017/11/28 17:59:47","新北市深坑區炮子崙23號","121.607176666667","24.9908916666667","6501800","深坑區"
"222002","659-BX","2017/11/28 17:59:56","新北市深坑區文化街98號","121.617023333333","25.001945","6501800","深坑區"
"231046","278-BY","2017/11/28 17:59:45","新北市新店區康雅崙路31號","121.537465","24.925985","6500600","新店區"
"231040","619-UM","2017/11/28 15:50:12","新北市新店區安華路28-1號","121.519538333333","24.9609166666667","6500600","新店區"
"241024","065-VK","2017/11/28 17:59:41","新北市三重區力行路一段277號","121.482148333333","25.071575","6500200","三重區"
"241016","266-UM","2017/11/28 17:59:35","新北市三重區忠孝路三段125號","121.479511666667","25.061635","6500200","三重區"
"241001","547-UM","2017/11/28 17:59:40","新北市三重區仁義街91號","121.499696666667","25.07962","6500200","三重區"
"241033","AAC-255","2017/11/28 17:59:41","新北市三重區重新路五段561號","121.470415","25.0459933333333","6500200","三重區"
"235063","006-UY","2017/11/28 17:59:47","新北市中和區員山路36巷16-3號","121.484951666667","24.9912816666667","6500300","中和區"
"235058","151-BY","2017/11/28 17:59:22","新北市中和區中正路637巷52弄1號","121.485488333333","24.9934316666667","6500300","中和區"
"235038","185-VK","2017/11/28 17:59:48","新北市中和區景平路353號","121.504805","24.99333","6500300","中和區"
"235061","378-QA","2017/11/28 14:51:35","新北市中和區員山路36巷13號","121.484331666667","24.991075","6500300","中和區"
"235069","4980-A6","2017/11/28 17:59:39","新北市中和區圓通路225號","121.496501666667","24.9943416666667","6500300","中和區"
"235042","551-UM","2017/11/28 17:59:48","新北市中和區中正路395號","121.489853333333","24.9935616666667","6500300","中和區"
"235054","640-BX","2017/11/28 17:59:56","新北市中和區員山路36巷16-2號","121.485158333333","24.9914583333333","6500300","中和區"
"235062","800-TS","2017/11/28 17:59:48","新北市中和區員山路36巷16-3號","121.485033333333","24.9912366666667","6500300","中和區"
"235052","805-TS","2017/11/28 17:59:43","新北市中和區中正路13號","121.503051666667","24.9933316666667","6500300","中和區"
"235048","896-TW","2017/11/28 17:59:35","新北市中和區員山路36巷16-2號","121.484988333333","24.9919066666667","6500300","中和區"
"235053","900-TW","2017/11/28 17:59:54","新北市中和區員山路36巷16-3號","121.485141666667","24.9914216666667","6500300","中和區"
"235037","AAC-213","2017/11/28 17:59:50","新北市中和區中正路395號","121.48983","24.993555","6500300","中和區"
"247022","893-R6","2017/11/28 17:59:47","新北市蘆洲區中正路516巷12號","121.462693333333","25.098125","6501400","蘆洲區"
"247012","546-UM","2017/11/28 17:59:38","新北市蘆洲區復興路200號","121.478376666667","25.089025","6501400","蘆洲區"
"247020","500-BY","2017/11/28 17:59:53","新北市蘆洲區民族路377號","121.47008","25.0904183333333","6501400","蘆洲區"
"247002","337-TH","2017/11/28 17:59:47","新北市蘆洲區永平街32巷57弄20號","121.459108333333","25.0932483333333","6501400","蘆洲區"
"247024","335-TH","2017/11/28 17:59:41","新北市蘆洲區光復路30巷20號","121.463861666667","25.08414","6501400","蘆洲區"
"247016","057-VK","2017/11/28 17:59:45","新北市蘆洲區中正路185巷78弄19號","121.465575","25.084995","6501400","蘆洲區"
"247018","001-UY","2017/11/28 17:59:53","新北市蘆洲區復興路282號","121.480638333333","25.0898533333333","6501400","蘆洲區"
"228003","097-TW","2017/11/28 17:59:53","新北市貢寮區真理里美艷山街6-2號","121.928943333333","25.0606933333333","6502600","貢寮區"
"228001","212-TW","2017/11/28 17:59:42","新北市貢寮區仁理村仁愛路106巷36號","121.928861666667","25.0534016666667","6502600","貢寮區"
"228002","585-TW","2017/11/28 17:59:35","新北市貢寮區福連里香蘭街2-1號","121.970533333333","25.0240533333333","6502600","貢寮區"
"224006","676-BX","2017/11/28 17:30:14","新北市瑞芳區傑魚坑路183號","121.788565","25.108085","6501200","瑞芳區"
"224009","285-BY","2017/11/28 17:59:45","新北市瑞芳區山尖路2號","121.854496666667","25.11642","6501200","瑞芳區"
"224008","275-VK","2017/11/28 17:59:51","新北市瑞芳區員山子路23號","121.821783333333","25.1029983333333","6501200","瑞芳區"
"224007","273-VK","2017/11/28 17:59:49","新北市瑞芳區大寮路64-1號","121.781625","25.0990066666667","6501200","瑞芳區"
"224005","271-BY","2017/11/28 17:59:41","新北市瑞芳區深澳路189-8號","121.821065","25.1342716666667","6501200","瑞芳區"
"224006","201-TW","2017/11/28 17:59:49","新北市瑞芳區中山路326號","121.796496666667","25.1101133333333","6501200","瑞芳區"
"253006","295-VK","2017/11/28 17:59:51","新北市石門區大丘田45-2號","121.549821666667","25.27484","6502200","石門區"
"222001","KEA-2212","2017/11/28 17:59:37","新北市深坑區北深路二段222號","121.61224","25.0013683333333","6501800","深坑區"
"208002","742-BX","2017/11/28 17:59:50","新北市金山區三界壇路31號","121.627615","25.2278833333333","6502700","金山區"
"208001","761-BX","2017/11/28 17:59:47","新北市金山區磺港里磺港路169號","121.643506666667","25.2248833333333","6502700","金山區"
"251004","009-UM","2017/11/28 17:59:40","新北市淡水區民權路84號","121.45917","25.13359","6501000","淡水區"
"251005","010-UM","2017/11/28 17:59:51","新北市淡水區英專路133號","121.446391666667","25.1726683333333","6501000","淡水區"
"251014","180-VK","2017/11/28 17:59:48","新北市淡水區公埔子16-6號","121.481008333333","25.22457","6501000","淡水區"
"251008","181-VK","2017/11/28 17:59:46","新北市淡水區八勢一街43-8號","121.461891666667","25.1558333333333","6501000","淡水區"
"251010","413-VK","2017/11/28 17:59:38","新北市淡水區淡海路53號","121.423198333333","25.1803583333333","6501000","淡水區"
"251012","441-VK","2017/11/28 17:59:48","新北市淡水區北新路三段10號","121.482755","25.1853866666667","6501000","淡水區"
"251016","442-VK","2017/11/28 17:59:45","新北市淡水區埤島30-13號","121.447915","25.19821","6501000","淡水區"
"251001","559-UM","2017/11/28 17:59:45","新北市淡水區民權路16號","121.46324","25.1243933333333","6501000","淡水區"
"251006","561-UM","2017/11/28 17:59:42","新北市淡水區真理街3號","121.438033333333","25.1730766666667","6501000","淡水區"
"251009","575-R6","2017/11/28 17:59:38","新北市淡水區大仁街6巷1號","121.442396666667","25.17463","6501000","淡水區"
"251007","577-R6","2017/11/28 17:59:37","新北市淡水區中正東路二段143巷1弄7號","121.460725","25.1482","6501000","淡水區"
"251011","650-BX","2017/11/28 17:59:52","新北市淡水區三空泉7-1號","121.476416666667","25.162465","6501000","淡水區"
"251002","672-BX","2017/11/28 17:59:49","新北市淡水區鼻頭街18-1號","121.44678","25.1666716666667","6501000","淡水區"
"251003","673-BX","2017/11/28 17:59:49","新北市淡水區大忠街113巷8號","121.446901666667","25.1775433333333","6501000","淡水區"
"207003","550-UM","2017/11/28 17:59:33","新北市萬里區港東路野柳風景區攤販66號","121.691335","25.205845","6502800","萬里區"
"207004","225-TW","2017/11/28 17:59:43","新北市萬里區中幅里中福路48號","121.683415","25.1741183333333","6502800","萬里區"
"252002","178-VK","2017/11/28 17:59:52","新北市三芝區中山路二段33號","121.502661666667","25.2551","6502100","三芝區"
"252001","292-VK","2017/11/28 17:59:47","新北市三芝區中興街一段32號","121.497886666667","25.25752","6502100","三芝區"
"237004","078-UY","2017/11/28 17:59:43","新北市三峽區中正路二段136號","121.366188333333","24.9165783333333","6500900","三峽區"
"237007","153-BY","2017/11/28 17:59:40","新北市三峽區中園街167號","121.367171666667","24.921895","6500900","三峽區"
"237009","210-TH","2017/11/28 17:59:44","新北市三峽區中山路106巷35號","121.366","24.9366166666667","6500900","三峽區"
"237013","252-BX","2017/11/28 17:59:49","新北市三峽區介壽路一段147號","121.37644","24.9315133333333","6500900","三峽區"
"237012","275-BY","2017/11/28 17:59:39","新北市三峽區民生街27巷30號","121.376031666667","24.9361416666667","6500900","三峽區"
"237008","302-VK","2017/11/28 17:59:52","新北市三峽區白雞30號","121.369021666667","24.9124066666667","6500900","三峽區"
"237014","433-BY","2017/11/28 17:59:46","新北市三峽區和平街36巷7弄1號","121.370821666667","24.9371783333333","6500900","三峽區"
"237006","5529-G3","2017/11/28 17:59:42","新北市三峽區介壽路二段136巷45弄24-1號","121.393151666667","24.933485","6500900","三峽區"
"237011","572-TV","2017/11/28 17:57:23","新北市三峽區大同路14號","121.378048333333","24.9296416666667","6500900","三峽區"
"237016","649-BX","2017/11/28 17:59:41","新北市三峽區紫微路109號","121.408776666667","24.91117","6500900","三峽區"
"237005","AKY-6261","2017/11/28 17:59:50","新北市三峽區和平街89巷12號","121.369788333333","24.93756","6500900","三峽區"
"236070","105-UM","2017/11/28 17:59:49","新北市土城區青雲路474-2號","121.46385","24.9662433333333","6501300","土城區"
"236043","107-UM","2017/11/28 17:59:55","新北市土城區裕生路85號","121.446778333333","24.9839016666667","6501300","土城區"
"236031","253-BX","2017/11/28 17:59:42","新北市土城區城林路6巷80號","121.438488333333","24.97976","6501300","土城區"
"236027","269-VK","2017/11/28 17:59:37","新北市土城區承天路18號","121.439431666667","24.96358","6501300","土城區"
"236015","270-VK","2017/11/28 17:59:50","新北市土城區城林路6巷80號","121.438285","24.9795166666667","6501300","土城區"
"236038","271-VK","2017/11/28 17:59:43","新北市土城區城林路6巷80號","121.438381666667","24.979915","6501300","土城區"
"236023","401-BY","2017/11/28 17:59:50","新北市土城區城林路6巷80號","121.438681666667","24.9797133333333","6501300","土城區"
"236079","752-BX","2017/11/28 17:59:48","新北市土城區永寧路32巷10弄25號","121.428795","24.9610533333333","6501300","土城區"
"236059","912-UM","2017/11/28 17:59:47","新北市土城區中央路三段42號","121.437581666667","24.96812","6501300","土城區"
"236049","913-UM","2017/11/28 17:56:47","新北市土城區中央路二段280號","121.440733333333","24.9740483333333","6501300","土城區"
"236063","915-UM","2017/11/28 17:59:37","新北市土城區中華路二段2號","121.438986666667","24.9797766666667","6501300","土城區"
"236055","AAC-216","2017/11/28 17:59:51","新北市土城區中央路二段280號","121.440795","24.974065","6501300","土城區"
"242032","AAC-296","2017/11/28 17:59:41","新北市新莊區新泰路353號","121.444473333333","25.0423066666667","6500500","新莊區"
"242029","986-R7","2017/11/28 17:59:45","新北市新莊區中平路32號","121.444721666667","25.0434583333333","6500500","新莊區"
"242051","751-BX","2017/11/28 17:59:50","新北市新莊區民安西路141號","121.426465","25.01708","6500500","新莊區"
"242025","615-BX","2017/11/28 17:59:52","新北市新莊區化成路531巷50號","121.461361666667","25.0634333333333","6500500","新莊區"
"242023","613-BX","2017/11/28 17:59:51","新北市新莊區福壽街64號","121.458255","25.0491033333333","6500500","新莊區"
"242027","612-BX","2017/11/28 17:59:42","新北市新莊區思源路455號","121.45967","25.0534416666667","6500500","新莊區"
"242039","566-BX","2017/11/28 17:59:54","新北市新莊區民安西路22號","121.426686666667","25.021355","6500500","新莊區"
"242044","497-BY","2017/11/28 17:59:49","新北市新莊區雙鳳路163巷2號","121.412761666667","25.0268","6500500","新莊區"
"242034","442-UM","2017/11/28 17:59:51","新北市新莊區福海街8號","121.4453","25.0333633333333","6500500","新莊區"
"242048","441-UM","2017/11/28 17:59:53","新北市新莊區萬安街47巷28號","121.422686666667","25.0241283333333","6500500","新莊區"
"242054","440-UM","2017/11/28 17:59:53","新北市新莊區光華街17號","121.428916666667","25.0108283333333","6500500","新莊區"
"242005","413-TV","2017/11/28 17:59:48","新北市新莊區思源路177巷50號","121.459226666667","25.0467066666667","6500500","新莊區"
"242042","400-BY","2017/11/28 17:59:42","新北市新莊區天祥街120巷3弄2號","121.41482","25.0302866666667","6500500","新莊區"
"242061","362-BY","2017/11/28 17:59:39","新北市新莊區新樹路455號","121.432691666667","25.0132933333333","6500500","新莊區"
"242058","353-BY","2017/11/28 17:59:49","新北市新莊區雙鳳路134巷34號","121.412243333333","25.0284433333333","6500500","新莊區"
"242037","133-UY","2017/11/28 17:59:52","新北市新莊區建福路49巷28號","121.427795","25.02799","6500500","新莊區"
"242021","135-UY","2017/11/28 17:59:52","新北市新莊區建興街6號","121.450148333333","25.036545","6500500","新莊區"
"242046","172-VK","2017/11/28 17:59:41","新北市新莊區福營路183號","121.43138","25.0308066666667","6500500","新莊區"
"242009","173-VK","2017/11/28 17:59:49","新北市新莊區中華路二段294號","121.452428333333","25.05382","6500500","新莊區"
"242015","175-VK","2017/11/28 17:59:37","新北市新莊區中平路119巷10號","121.444263333333","25.0466883333333","6500500","新莊區"
"242001","233-RS","2017/11/28 08:26:22","新北市新莊區環河路48-7號","121.436901666667","25.0097766666667","6500500","新莊區"
"242007","347-TH","2017/11/28 17:59:40","新北市新莊區福樂街156巷12弄20號","121.456765","25.048765","6500500","新莊區"
"242019","348-TH","2017/11/28 17:59:45","新北市新莊區明中街43巷12號","121.45715","25.0386983333333","6500500","新莊區"
"242056","349-TH","2017/11/28 17:59:48","新北市新莊區豐年街124巷24號","121.44542","25.029895","6500500","新莊區"
"242017","350-TH","2017/11/28 17:59:51","新北市新莊區中和街60巷3號","121.448176666667","25.0448033333333","6500500","新莊區"
"242011","351-TH","2017/11/28 17:59:47","新北市新莊區中港路中慶巷44號","121.448528333333","25.053815","6500500","新莊區"
"238015","755-BX","2017/11/28 17:59:43","新北市樹林區啟智街80巷8號","121.419031666667","24.9923366666667","6500700","樹林區"
"238023","601-UM","2017/11/28 17:59:50","新北市樹林區龍興街33號","121.403008333333","25.01587","6500700","樹林區"
"238019","599-UM","2017/11/28 17:59:52","新北市樹林區水源街15號","121.425068333333","24.98309","6500700","樹林區"
"238018","571-TV","2017/11/28 17:59:48","新北市樹林區鎮前街124號","121.424871666667","24.990905","6500700","樹林區"
"238021","KEA-2217","2017/11/28 17:59:37","新北市樹林區柑園街一段23-8號","121.404218333333","24.9602366666667","6500700","樹林區"
"238022","KEA-2213","2017/11/28 17:59:47","新北市樹林區太順街86巷25號","121.416425","24.9781583333333","6500700","樹林區"
"238025","303-VK","2017/11/28 17:59:47","新北市樹林區三俊街164號","121.417095","25.01547","6500700","樹林區"
"238017","283-BY","2017/11/28 17:59:44","新北市樹林區俊德街42號","121.415273333333","25.0138483333333","6500700","樹林區"
"238014","282-BY","2017/11/28 17:59:56","新北市樹林區大安路145巷15號","121.422695","24.996505","6500700","樹林區"
"238020","268-VK","2017/11/28 17:59:49","新北市樹林區三俊街199巷20弄1-1號","121.420555","25.0177666666667","6500700","樹林區"
"238026","172-UY","2017/11/28 17:59:37","新北市樹林區中山路三段125-10號","121.397311666667","24.97354","6500700","樹林區"
"238016","169-UY","2017/11/28 17:59:06","新北市樹林區復興路372巷10號","121.415273333333","24.98617","6500700","樹林區"
"239007","AAC-297","2017/11/28 17:59:44","新北市鶯歌區鶯桃路16號","121.342265","24.95144","6500800","鶯歌區"
"239006","891-R6","2017/11/28 17:59:49","新北市鶯歌區鶯桃路413巷34弄4號","121.330988333333","24.96355","6500800","鶯歌區"
"239008","527-UM","2017/11/28 17:59:37","新北市鶯歌區國際一路76號","121.33573","24.97801","6500800","鶯歌區"
"239005","526-UM","2017/11/28 17:59:48","新北市鶯歌區大湖路361巷81-1號","121.333026666667","24.973935","6500800","鶯歌區"
"239001","417-VK","2017/11/28 17:59:53","新北市鶯歌區中正三路45號","121.338871666667","24.9415633333333","6500800","鶯歌區"
"239003","360-BY","2017/11/28 17:59:34","新北市鶯歌區鶯桃路344號","121.333905","24.962405","6500800","鶯歌區"
"239002","359-BY","2017/11/28 17:59:35","新北市鶯歌區光明街102巷6號","121.345905","24.9561033333333","6500800","鶯歌區"
"239004","193-VK","2017/11/28 17:59:40","新北市鶯歌區尖山路101巷1-3號","121.347893333333","24.947245","6500800","鶯歌區"
"221008","489-VK","2017/11/28 17:59:44","新北市汐止區明峰街21號","121.634543333333","25.0714183333333","6501100","汐止區"
"221036","130-UY","2017/11/28 17:59:37","新北市汐止區建成路18-8號","121.665068333333","25.0736183333333","6501100","汐止區"
"221010","269-BY","2017/11/28 17:59:36","新北市汐止區汐萬路二段275巷1弄25號","121.646273333333","25.0881183333333","6501100","汐止區"
"221012","276-VK","2017/11/28 13:30:37","新北市汐止區汐萬路一段256巷3號","121.653466666667","25.0746283333333","6501100","汐止區"
"221012","278-VK","2017/11/28 17:59:40","新北市汐止區長興街二段28號","121.673165","25.0813016666667","6501100","汐止區"
"221023","279-VK","2017/11/28 17:59:40","新北市汐止區明峰街149號","121.629381666667","25.0704466666667","6501100","汐止區"
"221027","281-BY","2017/11/28 17:59:42","新北市汐止區汐萬路一段1號","121.656","25.067175","6501100","汐止區"
"221029","298-VK","2017/11/28 17:59:51","新北市汐止區樟樹二路334號","121.64145","25.0703866666667","6501100","汐止區"
"221021","299-VK","2017/11/28 17:59:50","新北市汐止區水源路一段56號","121.657246666667","25.0656566666667","6501100","汐止區"
"221031","353-TW","2017/11/28 17:59:48","新北市汐止區中興路86-5號","121.634818333333","25.0624","6501100","汐止區"
"221015","567-BX","2017/11/28 17:59:53","新北市汐止區長江街286-3號","121.66518","25.0809566666667","6501100","汐止區"
"221035","622-UM","2017/11/28 17:59:42","新北市汐止區汐萬路一段115巷36號","121.653413333333","25.070275","6501100","汐止區"
"221025","623-UM","2017/11/28 17:59:33","新北市汐止區仁愛路16號","121.659565","25.0632616666667","6501100","汐止區"
"221038","646-BX","2017/11/28 17:59:49","新北市汐止區連興街124號","121.653848333333","25.0619533333333","6501100","汐止區"
"221033","647-BX","2017/11/28 17:59:49","新北市汐止區合順街35號","121.620548333333","25.0432383333333","6501100","汐止區"
"221002","707-TV","2017/11/28 17:59:51","新北市汐止區中興路62號","121.635551666667","25.0615033333333","6501100","汐止區"
"221018","753-BX","2017/11/28 17:59:35","新北市汐止區招商街11巷2號","121.666581666667","25.0687","6501100","汐止區"
"220031","286-VK","2017/11/28 16:30:39","新北市板橋區華東街1-10號","121.448401666667","24.99514","6500100","板橋區"
"242002","280-VK","2017/11/28 17:59:40","新北市新莊區中正路145-22號","121.458505","25.0376633333333","6500500","新莊區"
