"lineid","car","time","location","longitude","latitude","cityid","cityname"
"234046","148-BY","2017/11/28 18:39:40","新北市永和區秀朗路二段66巷8號","121.52268","25.00094","6500400","永和區"
"234013","149-BY","2017/11/28 18:39:47","新北市永和區保安路69號","121.50909","25.01537","6500400","永和區"
"234007","207-UY","2017/11/28 18:39:43","新北市永和區文化路170號","121.5118","25.0155216666667","6500400","永和區"
"234081","298-R6","2017/11/28 18:39:48","新北市永和區林森路83號","121.523803333333","25.003875","6500400","永和區"
"234038","336-UY","2017/11/28 18:39:56","新北市永和區福和路1號","121.526486666667","25.010085","6500400","永和區"
"234086","338-UY","2017/11/28 18:39:48","新北市中和區安平路30號","121.509538333333","24.99462","6500400","永和區"
"234017","745-BX","2017/11/28 18:39:51","新北市永和區福和路1號","121.526323333333","25.0095366666667","6500400","永和區"
"234030","746-BX","2017/11/28 18:39:42","新北市永和區成功路一段89號","121.526913333333","25.002845","6500400","永和區"
"234061","AAD-866","2017/11/28 18:39:36","新北市永和區福和路1號","121.52599","25.00913","6500400","永和區"
"234042","862-TW","2017/11/28 18:39:51","新北市永和區永貞路267號","121.511793333333","25.004815","6500400","永和區"
"234050","863-TW","2017/11/28 18:39:54","新北市永和區福和路1號","121.526363333333","25.0096366666667","6500400","永和區"
"234026","9381-KE","2017/11/28 18:39:39","新北市永和區保平路59號","121.511516666667","25.0070066666667","6500400","永和區"
"234011","9373-KE","2017/11/28 18:39:39","新北市永和區文化路9巷22弄58號","121.513843333333","25.0144666666667","6500400","永和區"
"249005","172-UM","2017/11/28 18:39:53","新北市八里區中華路三段232號","121.388345","25.124465","6502300","八里區"
"249001","173-UM","2017/11/28 18:39:50","新北市八里區龍米路一段348-2號","121.45157","25.130955","6502300","八里區"
"249004","303-UY","2017/11/28 18:39:52","新北市八里區中山路一段90號","121.420865","25.1594233333333","6502300","八里區"
"249003","593-UM","2017/11/28 18:26:20","新北市八里區博物館路10-1號","121.415038333333","25.164085","6502300","八里區"
"248014","025-BX","2017/11/28 18:39:48","新北市五股區成泰路一段149-7號","121.43533","25.073655","6501500","五股區"
"248016","026-BX","2017/11/28 18:39:42","新北市五股區凌雲路一段133巷27-3號","121.448631666667","25.1008516666667","6501500","五股區"
"248008","095-VK","2017/11/28 18:39:38","新北市五股區中興路一段150巷6號","121.46464","25.0741883333333","6501500","五股區"
"248020","225-UY","2017/11/28 18:39:41","新北市五股區孝義路102號","121.445253333333","25.1197133333333","6501500","五股區"
"248012","247-BX","2017/11/28 18:39:47","新北市五股區成泰路三段43-7號","121.442481666667","25.08905","6501500","五股區"
"248010","272-BY","2017/11/28 18:39:51","新北市五股區水碓一路1號","121.432908333333","25.0727383333333","6501500","五股區"
"248004","677-BX","2017/11/28 18:39:53","新北市五股區民義路一段236-6號","121.427466666667","25.0912383333333","6501500","五股區"
"248002","678-BX","2017/11/28 18:39:42","新北市五股區西雲路205號","121.448576666667","25.096525","6501500","五股區"
"234023","9380-KE","2017/11/28 18:39:36","新北市永和區福和路8巷1號","121.524916666667","25.008835","6500400","永和區"
"234077","969-R7","2017/11/28 18:39:51","新北市永和區民有街1號","121.515838333333","24.9975733333333","6500400","永和區"
"234067","AAC-212","2017/11/28 18:39:39","新北市中和區中和路426號","121.511641666667","25.00329","6500400","永和區"
"234003","AAC-295","2017/11/28 18:39:54","新北市永和區福和路1號","121.526473333333","25.0100083333333","6500400","永和區"
"232011","375-UM","2017/11/28 18:19:18","新北市坪林區坪雙路一段43號","121.711736666667","24.94243","6502000","坪林區"
"244013","069-UM","2017/11/28 18:39:37","新北市林口區佳林路134號","121.384741666667","25.07801","6501700","林口區"
"244007","080-UY","2017/11/28 18:39:55","新北市林口區後湖23-1號","121.387646666667","25.0990533333333","6501700","林口區"
"244019","403-UM","2017/11/28 18:39:40","新北市林口區忠孝路577號","121.375101666667","25.0683416666667","6501700","林口區"
"244023","483-VK","2017/11/28 18:39:37","新北市林口區信義路128號","121.380146666667","25.079545","6501700","林口區"
"244017","485-VK","2017/11/28 18:39:46","新北市林口區文化二路一段269號","121.367418333333","25.0707216666667","6501700","林口區"
"244009","658-BX","2017/11/28 18:39:37","新北市林口區文林二街5號","121.377025","25.089055","6501700","林口區"
"244011","701-TV","2017/11/28 18:39:37","新北市林口區興林路17巷5弄5號","121.390551666667","25.0772183333333","6501700","林口區"
"244025","837-TS","2017/11/28 18:39:52","新北市林口區南勢里53-7號","121.355106666667","25.07482","6501700","林口區"
"244021","838-TS","2017/11/28 18:39:43","新北市林口區工六路22號","121.398206666667","25.07888","6501700","林口區"
"243012","AAD-798","2017/11/28 18:39:47","新北市泰山區福興三街13號","121.434425","25.0577816666667","6501600","泰山區"
"243015","380-SR","2017/11/28 18:32:52","新北市泰山區犁頭窠3-1號","121.422338333333","25.0606","6501600","泰山區"
"243013","646-TV","2017/11/28 18:39:54","新北市泰山區明志路三段206巷3號","121.42327","25.0379033333333","6501600","泰山區"
"222003","436-BY","2017/11/28 18:39:47","新北市深坑區翠谷街14號","121.627028333333","25.0086233333333","6501800","深坑區"
"222002","659-BX","2017/11/28 18:39:56","新北市深坑區文山路一段62巷3號","121.622801666667","25.0008816666667","6501800","深坑區"
"231041","001-UM","2017/11/28 18:39:54","新北市新店區安華路28-1號","121.519868333333","24.96064","6500600","新店區"
"231059","046-UY","2017/11/28 18:39:39","新北市新店區安華路28-1號","121.51963","24.9608033333333","6500600","新店區"
"231061","047-UY","2017/11/28 18:39:46","新北市新店區安華路28-1號","121.5191","24.960965","6500600","新店區"
"231060","106-UY","2017/11/28 18:39:38","新北市新店區安華路28-1號","121.519625","24.9607733333333","6500600","新店區"
"231048","108-UY","2017/11/28 18:39:52","新北市新店區安康路一段75-1號","121.530126666667","24.9611233333333","6500600","新店區"
"231053","187-VK","2017/11/28 18:39:49","新北市新店區永興路38號","121.543335","24.9385966666667","6500600","新店區"
"231051","188-VK","2017/11/28 18:39:53","新北市新店區安華路28-1號","121.519853333333","24.961185","6500600","新店區"
"231050","KEA-2219","2017/11/28 18:39:41","新北市新店區安華路28-1號","121.519675","24.961195","6500600","新店區"
"231057","256-BX","2017/11/28 18:39:41","新北市新店區新烏路一段201號","121.548381666667","24.9318083333333","6500600","新店區"
"231063","268-BY","2017/11/28 18:39:38","新北市新店區安華路1-1號","121.519501666667","24.96037","6500600","新店區"
"231046","278-BY","2017/11/28 18:39:45","新北市新店區直潭二街1號","121.535546666667","24.9431816666667","6500600","新店區"
"231054","AAD-862","2017/11/28 18:39:49","新北市新店區安華路28-1號","121.52012","24.9613916666667","6500600","新店區"
"231058","3712-VJ","2017/11/28 18:39:50","新北市新店區北宜路一段170號","121.540635","24.953065","6500600","新店區"
"231056","3713-VJ","2017/11/28 18:39:45","新北市新店區自立街17號","121.537755","24.97933","6500600","新店區"
"231055","4716-K9","2017/11/28 18:39:53","新北市新店區中央路187-2號","121.537216666667","24.968855","6500600","新店區"
"231064","515-UM","2017/11/28 16:24:07","新北市新店區安華路28-1號","121.519695","24.9611666666667","6500600","新店區"
"231042","616-UM","2017/11/28 18:39:40","新北市新店區安華路1-1號","121.519443333333","24.9604433333333","6500600","新店區"
"231040","619-UM","2017/11/28 18:39:53","新北市新店區安華路28-1號","121.51962","24.960725","6500600","新店區"
"231049","719-UM","2017/11/28 18:39:48","新北市新店區安康路一段156號","121.526241666667","24.96294","6500600","新店區"
"231065","719-UY","2017/11/28 18:39:50","新北市新店區安華路28-1號","121.519125","24.9611183333333","6500600","新店區"
"231062","720-UM","2017/11/28 18:39:40","新北市新店區安華路28-1號","121.51928","24.9611083333333","6500600","新店區"
"231044","897-TW","2017/11/28 18:39:56","新北市新店區光明街179-2號","121.539743333333","24.9629966666667","6500600","新店區"
"231045","898-TW","2017/11/28 18:14:28","新北市新店區安華路28-1號","121.519205","24.9607566666667","6500600","新店區"
"231043","899-TW","2017/11/28 18:39:45","新北市新店區安華路28-1號","121.51887","24.96088","6500600","新店區"
"231066","AKT-0513","2017/11/28 18:39:54","新北市新店區安華路28-1號","121.519536666667","24.9606616666667","6500600","新店區"
"241001","547-UM","2017/11/28 18:39:40","新北市三重區溪尾街154號","121.489006666667","25.0800116666667","6500200","三重區"
"235066","003-UY","2017/11/28 18:39:50","新北市中和區水源路37號","121.504475","25.0035483333333","6500300","中和區"
"235063","006-UY","2017/11/28 18:39:47","新北市中和區連城路347巷4弄22號","121.487388333333","24.9956316666667","6500300","中和區"
"235056","096-UM","2017/11/28 18:39:50","新北市中和區員山路611巷1號","121.477903333333","25.01128","6500300","中和區"
"235039","097-UM","2017/11/28 18:39:51","新北市中和區安平路161號","121.512438333333","24.99839","6500300","中和區"
"235065","098-UM","2017/11/28 18:39:49","新北市中和區莊敬路49巷12號","121.50148","25.0057666666667","6500300","中和區"
"235040","150-BY","2017/11/28 18:39:53","新北市中和區安平路38號","121.509818333333","24.9950566666667","6500300","中和區"
"235058","151-BY","2017/11/28 18:39:42","新北市中和區圓通路435巷3-7號","121.488681666667","24.9872083333333","6500300","中和區"
"235055","183-VK","2017/11/28 18:39:51","新北市中和區中山路三段229巷51號","121.469226666667","25.00541","6500300","中和區"
"235038","185-VK","2017/11/28 18:39:48","新北市中和區大勇街60巷30號","121.519285","24.9946216666667","6500300","中和區"
"235049","186-VK","2017/11/28 18:39:53","新北市中和區明仁街5號","121.50584","24.9957783333333","6500300","中和區"
"235067","255-BX","2017/11/28 18:39:44","新北市中和區新生街11號","121.483203333333","25.0043983333333","6500300","中和區"
"235044","293-VK","2017/11/28 18:39:53","新北市中和區復興路282號","121.5022","24.9904816666667","6500300","中和區"
"235043","352-BY","2017/11/28 18:39:36","新北市中和區景德街88號","121.516136666667","24.9918833333333","6500300","中和區"
"235068","377-QA","2017/11/28 18:39:23","新北市中和區中正路90號","121.49983","24.9937983333333","6500300","中和區"
"235061","378-QA","2017/11/28 18:39:46","新北市中和區民治街29巷2弄6號","121.475553333333","25.0006933333333","6500300","中和區"
"235050","4979-A6","2017/11/28 18:39:46","新北市中和區四維街40號","121.512316666667","24.9869966666667","6500300","中和區"
"235069","4980-A6","2017/11/28 18:39:39","新北市中和區泰和街24號","121.499576666667","25.0005566666667","6500300","中和區"
"235042","551-UM","2017/11/28 18:39:48","新北市中和區成功路97巷18弄1號","121.526705","24.9918016666667","6500300","中和區"
"235070","558-UM","2017/11/28 18:39:50","新北市中和區南華路60號","121.504555","24.9971416666667","6500300","中和區"
"235045","565-BX","2017/11/28 18:39:37","新北市中和區南山路236巷19號","121.50565","24.9886216666667","6500300","中和區"
"235054","640-BX","2017/11/28 18:39:38","新北市中和區民享街88巷2號","121.474491666667","25.0007683333333","6500300","中和區"
"235060","647-TV","2017/11/28 18:39:50","新北市中和區員山路463號","121.480475","25.0044333333333","6500300","中和區"
"235047","732-UM","2017/11/28 18:39:55","新北市中和區興南路二段21號","121.507845","24.9859716666667","6500300","中和區"
"235046","733-UM","2017/11/28 18:39:36","新北市中和區仁愛街81號","121.511601666667","24.9872216666667","6500300","中和區"
"235062","800-TS","2017/11/28 18:39:48","新北市中和區中山路二段312巷33弄12號","121.494853333333","25.0038833333333","6500300","中和區"
"235057","801-TS","2017/11/28 18:39:48","新北市中和區員山路327巷43號","121.479511666667","25.0021433333333","6500300","中和區"
"235041","802-TS","2017/11/28 18:39:42","新北市中和區中和路260-1號","121.508058333333","24.9992533333333","6500300","中和區"
"235052","805-TS","2017/11/28 18:39:43","新北市中和區興南路三段20巷4號","121.497243333333","24.9795433333333","6500300","中和區"
"235048","896-TW","2017/11/28 18:39:55","新北市中和區板南路100號","121.503905","24.9925283333333","6500300","中和區"
"235053","900-TW","2017/11/28 18:39:54","新北市中和區民享街469-1號","121.469828333333","24.9923083333333","6500300","中和區"
"235064","911-UM","2017/11/28 18:39:46","新北市中和區連城路139巷42號","121.496523333333","24.9976","6500300","中和區"
"235037","157-BY","2017/11/28 18:39:40","新北市中和區興南路二段114巷10弄38號","121.504028333333","24.98507","6500300","中和區"
"235037","AAC-213","2017/11/28 18:39:50","新北市中和區景平路111巷49號","121.515515","24.9903683333333","6500300","中和區"
"235059","AAC-215","2017/11/28 18:39:43","新北市中和區錦和路350-1號","121.490253333333","24.99352","6500300","中和區"
"220068","013-TV","2017/11/28 15:25:18","新北市板橋區民生路二段161巷7號","121.4703","25.0197133333333","6500100","板橋區"
"220065","072-UY","2017/11/28 18:39:47","新北市板橋區民族路151巷52號","121.470115","25.0084933333333","6500100","板橋區"
"220086","073-UY","2017/11/28 18:39:51","新北市板橋區大智街71巷42弄15號","121.452133333333","25.01462","6500100","板橋區"
"220069","AAD-861","2017/11/28 18:39:49","新北市板橋區華東街1-10號","121.448635","24.9950066666667","6500100","板橋區"
"228003","097-TW","2017/11/28 18:39:53","新北市貢寮區和美里龍洞街28-3號","121.917488333333","25.1116583333333","6502600","貢寮區"
"228001","212-TW","2017/11/28 18:39:42","新北市貢寮區仁理村保健街73號","121.923726666667","25.0516566666667","6502600","貢寮區"
"228002","585-TW","2017/11/28 18:39:55","新北市貢寮區福隆里東興街6-11號","121.950778333333","25.02106","6502600","貢寮區"
"224010","AGQ-8101","2017/11/28 18:39:39","新北市瑞芳區金光路372號","121.849185","25.1111166666667","6501200","瑞芳區"
"224006","676-BX","2017/11/28 17:30:14","新北市瑞芳區傑魚坑路183號","121.788565","25.108085","6501200","瑞芳區"
"224002","639-TC","2017/11/28 18:39:53","新北市瑞芳區靜安路四段67號","121.794033333333","25.1034733333333","6501200","瑞芳區"
"224009","285-BY","2017/11/28 18:39:45","新北市瑞芳區祈堂路8號","121.858948333333","25.1122833333333","6501200","瑞芳區"
"224008","275-VK","2017/11/28 18:39:51","新北市瑞芳區瑞芳街127號","121.805371666667","25.1097683333333","6501200","瑞芳區"
"224007","273-VK","2017/11/28 18:39:52","新北市瑞芳區大埔路115巷26號","121.762953333333","25.10157","6501200","瑞芳區"
"224005","271-BY","2017/11/28 18:39:41","新北市瑞芳區建基路一段44-6號","121.819046666667","25.1217483333333","6501200","瑞芳區"
"224006","201-TW","2017/11/28 18:39:49","新北市瑞芳區明燈路三段55號","121.806146666667","25.10819","6501200","瑞芳區"
"227009","642-TC","2017/11/28 18:39:39","新北市雙溪區牡丹里下坑11號","121.850986666667","25.0561833333333","6502500","雙溪區"
"227003","400-TW","2017/11/28 18:39:55","新北市雙溪區魚行里坤溪3-5號","121.876196666667","25.0207383333333","6502500","雙溪區"
"253005","032-BX","2017/11/28 18:39:51","新北市石門區中山路56號","121.566673333333","25.2904333333333","6502200","石門區"
"253006","295-VK","2017/11/28 18:39:51","新北市石門區崁子腳58-4號","121.529918333333","25.28633","6502200","石門區"
"222001","KEA-2212","2017/11/28 18:39:44","新北市深坑區北深路一段74號","121.636645","25.010735","6501800","深坑區"
"208002","742-BX","2017/11/28 18:39:55","新北市金山區忠孝一路22號","121.638436666667","25.21956","6502700","金山區"
"208003","665-BX","2017/11/28 18:39:52","新北市金山區中山路379號","121.634206666667","25.2246816666667","6502700","金山區"
"208001","761-BX","2017/11/28 18:39:47","新北市金山區文化三路11號","121.635008333333","25.2249183333333","6502700","金山區"
"251014","180-VK","2017/11/28 18:39:48","新北市淡水區崙頂12-8號","121.495585","25.2172266666667","6501000","淡水區"
"251008","181-VK","2017/11/28 18:39:26","新北市淡水區北投子69-1號","121.453963333333","25.1819","6501000","淡水區"
"251010","413-VK","2017/11/28 18:39:38","新北市淡水區沙崙路141號","121.42328","25.1828966666667","6501000","淡水區"
"251012","441-VK","2017/11/28 18:39:48","新北市淡水區北新路117號","121.448903333333","25.178615","6501000","淡水區"
"251016","442-VK","2017/11/28 18:39:42","新北市淡水區下圭柔山84-1號","121.439695","25.2050866666667","6501000","淡水區"
"251001","559-UM","2017/11/28 18:39:45","新北市淡水區自強路166號","121.465545","25.1340283333333","6501000","淡水區"
"251006","561-UM","2017/11/28 18:39:42","新北市淡水區崁頂37-11號","121.438943333333","25.194635","6501000","淡水區"
"251011","650-BX","2017/11/28 18:39:52","新北市淡水區鄧公路46號","121.45898","25.1687616666667","6501000","淡水區"
"251002","672-BX","2017/11/28 18:39:49","新北市淡水區中正東路71號","121.447268333333","25.167495","6501000","淡水區"
"251003","673-BX","2017/11/28 18:39:49","新北市淡水區中山北路一段212巷38號","121.446158333333","25.1790633333333","6501000","淡水區"
"207003","550-UM","2017/11/28 18:39:53","新北市萬里區大鵬里頂社2-1號","121.660353333333","25.20721","6502800","萬里區"
"207004","225-TW","2017/11/28 18:39:43","新北市萬里區萬里里獅頭路12-4號","121.692851666667","25.179395","6502800","萬里區"
"252002","178-VK","2017/11/28 18:39:52","新北市三芝區民生街64巷9號","121.503591666667","25.2551416666667","6502100","三芝區"
"252003","249-BX","2017/11/28 18:39:50","新北市三芝區後厝里土地公坑999號","121.464796666667","25.2491766666667","6502100","三芝區"
"252001","292-VK","2017/11/28 18:39:54","新北市三芝區中興街二段58號","121.49964","25.2548666666667","6502100","三芝區"
"237004","078-UY","2017/11/28 18:39:43","新北市三峽區插角220-1號","121.41556","24.8667416666667","6500900","三峽區"
"237007","153-BY","2017/11/28 18:39:40","新北市三峽區中正路三段138號","121.35355","24.9035733333333","6500900","三峽區"
"237009","210-TH","2017/11/28 18:39:44","新北市三峽區大同路238號","121.366075","24.92576","6500900","三峽區"
"237013","252-BX","2017/11/28 18:39:48","新北市三峽區光明路69巷25號","121.376746666667","24.92924","6500900","三峽區"
"237012","275-BY","2017/11/28 18:39:19","新北市三峽區三樹路322號","121.381553333333","24.9440566666667","6500900","三峽區"
"237008","302-VK","2017/11/28 18:39:52","新北市三峽區白雞89號","121.402165","24.908345","6500900","三峽區"
"237014","433-BY","2017/11/28 18:39:46","新北市三峽區復興路480巷28號","121.35917","24.9398916666667","6500900","三峽區"
"237006","5529-G3","2017/11/28 18:39:42","新北市三峽區溪東路315號","121.410408333333","24.9304016666667","6500900","三峽區"
"237011","572-TV","2017/11/28 18:03:08","新北市三峽區介壽路三段20號","121.396003333333","24.9362166666667","6500900","三峽區"
"237016","649-BX","2017/11/28 18:39:40","新北市三峽區竹崙路157號","121.436961666667","24.9057666666667","6500900","三峽區"
"237010","706-TV","2017/11/28 18:28:58","新北市三峽區復興路317號","121.36491","24.9387566666667","6500900","三峽區"
"237005","AKY-6261","2017/11/28 18:39:50","新北市三峽區文化路113號","121.370416666667","24.9361066666667","6500900","三峽區"
"236070","105-UM","2017/11/28 18:39:48","新北市土城區永豐路157巷29弄6-1號","121.46838","24.981455","6501300","土城區"
"236043","107-UM","2017/11/28 18:39:55","新北市土城區學成路139號","121.449073333333","24.9895216666667","6501300","土城區"
"236031","253-BX","2017/11/28 18:39:42","新北市土城區慶利街21號","121.439078333333","24.9742166666667","6501300","土城區"
"236027","269-VK","2017/11/28 18:39:37","新北市土城區忠義路49號","121.440476666667","24.9691233333333","6501300","土城區"
"236015","270-VK","2017/11/28 18:39:49","新北市土城區清水路207巷11號","121.459896666667","24.98233","6501300","土城區"
"236038","271-VK","2017/11/28 18:39:48","新北市土城區青山路2巷19號","121.461196666667","24.9763116666667","6501300","土城區"
"236023","401-BY","2017/11/28 18:39:50","新北市土城區延吉街262號","121.466111666667","24.9844933333333","6501300","土城區"
"236079","752-BX","2017/11/28 18:39:48","新北市土城區中央路四段52巷40弄1號","121.419321666667","24.960675","6501300","土城區"
"236059","912-UM","2017/11/28 18:39:46","新北市土城區中央路四段59號","121.417445","24.9584183333333","6501300","土城區"
"236049","913-UM","2017/11/28 18:39:48","新北市土城區金城路三段8號","121.464588333333","24.986035","6501300","土城區"
"236063","915-UM","2017/11/28 18:39:50","新北市土城區延壽路55巷9弄2號","121.469545","24.9916083333333","6501300","土城區"
"236055","AAC-216","2017/11/28 18:39:51","新北市土城區裕民路6-5號","121.446915","24.9890383333333","6501300","土城區"
"242061","362-BY","2017/11/28 18:39:39","新北市新莊區民安西路37號","121.427653333333","25.0209683333333","6500500","新莊區"
"242001","233-RS","2017/11/28 08:26:22","新北市新莊區環河路48-7號","121.436901666667","25.0097766666667","6500500","新莊區"
"242056","349-TH","2017/11/28 18:39:48","新北市新莊區環河路636-7號","121.437456666667","25.011665","6500500","新莊區"
"238015","755-BX","2017/11/28 18:39:43","新北市樹林區備內街9-1號","121.412815","24.9870233333333","6500700","樹林區"
"238023","601-UM","2017/11/28 18:39:50","新北市樹林區三福街114號","121.406476666667","25.0164066666667","6500700","樹林區"
"238019","599-UM","2017/11/28 18:39:52","新北市樹林區中華路190號","121.41191","24.9805166666667","6500700","樹林區"
"238018","571-TV","2017/11/28 18:39:48","新北市樹林區樹新路135號","121.428378333333","24.9963016666667","6500700","樹林區"
"238024","5061-A6","2017/11/28 18:39:43","新北市樹林區太順街79巷17號","121.417058333333","24.97807","6500700","樹林區"
"238022","KEA-2213","2017/11/28 18:39:47","新北市樹林區中華路190-1號","121.41142","24.9805933333333","6500700","樹林區"
"238025","303-VK","2017/11/28 18:39:47","新北市樹林區中山路三段22號","121.395538333333","24.9729016666667","6500700","樹林區"
"238017","283-BY","2017/11/28 18:39:44","新北市樹林區光興街50號","121.40981","25.0027233333333","6500700","樹林區"
"238014","282-BY","2017/11/28 18:39:35","新北市樹林區大安路111巷11號","121.423083333333","24.9976783333333","6500700","樹林區"
"238020","268-VK","2017/11/28 18:39:49","新北市樹林區俊安街38號","121.4198","25.01361","6500700","樹林區"
"238026","172-UY","2017/11/28 18:39:37","新北市樹林區中山路三段160-1號","121.389466666667","24.9704333333333","6500700","樹林區"
"238016","169-UY","2017/11/28 18:39:46","新北市樹林區文化街28號","121.419286666667","24.9876983333333","6500700","樹林區"
"239007","AAC-297","2017/11/28 18:39:44","新北市鶯歌區中正一路建德巷38號","121.364486666667","24.957805","6500800","鶯歌區"
"239006","891-R6","2017/11/28 18:39:49","新北市鶯歌區鶯桃路296巷84弄4號","121.33682","24.961745","6500800","鶯歌區"
"239008","527-UM","2017/11/28 18:39:37","新北市鶯歌區國際一路179號","121.336226666667","24.976525","6500800","鶯歌區"
"239005","526-UM","2017/11/28 18:39:48","新北市鶯歌區鳳吉一街9號","121.325403333333","24.973315","6500800","鶯歌區"
"239001","417-VK","2017/11/28 18:39:53","新北市鶯歌區中正三路107號","121.338078333333","24.9408016666667","6500800","鶯歌區"
"239003","360-BY","2017/11/28 18:39:54","新北市鶯歌區永和街172號","121.336065","24.9704316666667","6500800","鶯歌區"
"239002","359-BY","2017/11/28 18:39:54","新北市鶯歌區中山路288號","121.34398","24.957185","6500800","鶯歌區"
"239004","193-VK","2017/11/28 18:39:40","新北市鶯歌區中正三路156巷2-2號","121.33333","24.9399766666667","6500800","鶯歌區"
"221008","489-VK","2017/11/28 18:39:44","新北市汐止區康寧街901號","121.651425","25.0750666666667","6501100","汐止區"
"221036","130-UY","2017/11/28 18:39:37","新北市汐止區南昌街31號","121.663113333333","25.0691416666667","6501100","汐止區"
"221010","269-BY","2017/11/28 18:39:36","新北市汐止區夢湖路一段2巷5號","121.64148","25.1083583333333","6501100","汐止區"
"221012","276-VK","2017/11/28 13:30:37","新北市汐止區汐萬路一段256巷3號","121.653466666667","25.0746283333333","6501100","汐止區"
"221012","278-VK","2017/11/28 18:39:40","新北市汐止區鄉長路二段18巷1號","121.668283333333","25.0820883333333","6501100","汐止區"
"221023","279-VK","2017/11/28 18:39:40","新北市汐止區翠峰街21巷3弄18號","121.644351666667","25.0757583333333","6501100","汐止區"
"221032","280-BY","2017/11/28 18:39:48","新北市汐止區福山街58巷15號","121.618191666667","25.0459416666667","6501100","汐止區"
"221027","281-BY","2017/11/28 18:39:55","新北市汐止區中正路7號","121.66304","25.0698666666667","6501100","汐止區"
"221029","298-VK","2017/11/28 18:39:51","新北市汐止區樟樹一路138號","121.642221666667","25.0648883333333","6501100","汐止區"
"221021","299-VK","2017/11/28 18:39:50","新北市汐止區新興路55號","121.657235","25.0629666666667","6501100","汐止區"
"221031","353-TW","2017/11/28 18:39:48","新北市汐止區中興路130-1號","121.632916666667","25.0641766666667","6501100","汐止區"
"221015","567-BX","2017/11/28 18:39:53","新北市汐止區吉祥街12巷23號","121.668778333333","25.0807333333333","6501100","汐止區"
"221035","622-UM","2017/11/28 18:39:42","新北市汐止區大同路二段193號","121.652435","25.0643333333333","6501100","汐止區"
"221025","623-UM","2017/11/28 18:39:53","新北市汐止區仁愛路113巷12號","121.66203","25.0639033333333","6501100","汐止區"
"221038","646-BX","2017/11/28 18:39:56","新北市汐止區康寧街901號","121.650731666667","25.0752516666667","6501100","汐止區"
"221033","647-BX","2017/11/28 18:39:48","新北市汐止區南勢街3號","121.62701","25.0370716666667","6501100","汐止區"
"221002","707-TV","2017/11/28 18:39:51","新北市汐止區中興路25號","121.636893333333","25.0596266666667","6501100","汐止區"
"221018","753-BX","2017/11/28 18:39:35","新北市汐止區茄苳路293號","121.672868333333","25.0674016666667","6501100","汐止區"
"220079","145-BY","2017/11/28 18:39:43","新北市板橋區大觀路一段35巷1號","121.449378333333","25.008425","6500100","板橋區"
"220080","200-UY","2017/11/28 18:39:53","新北市板橋區大觀路二段415巷3號","121.44103","24.9962316666667","6500100","板橋區"
"220082","610-BX","2017/11/28 18:39:54","新北市板橋區大觀路三段36巷5號","121.43373","24.99575","6500100","板橋區"
"220056","276-BY","2017/11/28 18:39:37","新北市板橋區四川路二段橋頭6號","121.448296666667","24.994045","6500100","板橋區"
"220072","277-BY","2017/11/28 18:39:47","新北市板橋區大觀路三段5-4號","121.432715","24.9959383333333","6500100","板橋區"
"220094","283-UM","2017/11/28 18:39:51","新北市板橋區民生路二段161巷3號","121.47016","25.0198133333333","6500100","板橋區"
"220071","283-VK","2017/11/28 18:39:44","新北市板橋區華東街1號","121.448423333333","24.9941916666667","6500100","板橋區"
"220053","285-VK","2017/11/28 18:39:39","新北市板橋區民生路二段161巷1號","121.470265","25.0198966666667","6500100","板橋區"
"220031","286-VK","2017/11/28 18:39:37","新北市板橋區板城路421號","121.448023333333","24.9964433333333","6500100","板橋區"
"220061","293-UM","2017/11/28 18:39:36","新北市板橋區民生路二段161巷9號","121.470321666667","25.019565","6500100","板橋區"
"220084","296-UM","2017/11/28 18:39:49","新北市板橋區大觀路二段266號","121.448706666667","24.9970733333333","6500100","板橋區"
"220075","297-UM","2017/11/28 18:39:45","新北市板橋區南雅南路二段120-12號","121.45212","24.999405","6500100","板橋區"
"220045","303-R5","2017/11/28 18:39:37","新北市板橋區民生路二段120號","121.47057","25.0197283333333","6500100","板橋區"
"220064","486-VK","2017/11/28 18:39:54","新北市板橋區縣民大道二段66號","121.46327","25.01243","6500100","板橋區"
"220035","560-BX","2017/11/28 18:39:44","新北市板橋區南雅西路一段53巷11號","121.452706666667","25.0048083333333","6500100","板橋區"
"220063","609-BX","2017/11/28 15:22:17","新北市板橋區民生路二段175號","121.469801666667","25.020175","6500100","板橋區"
"220057","686-BX","2017/11/28 18:39:48","新北市板橋區華東街1-9號","121.448238333333","24.9948666666667","6500100","板橋區"
"220077","687-BX","2017/11/28 18:39:50","新北市板橋區四川路二段橋頭1號","121.446591666667","24.994035","6500100","板橋區"
"220093","689-BX","2017/11/28 18:39:44","新北市板橋區民生路二段161巷1號","121.470086666667","25.0201566666667","6500100","板橋區"
"220054","741-BX","2017/11/28 18:39:56","新北市板橋區華東街1-9號","121.448091666667","24.9948633333333","6500100","板橋區"
"220055","827-TW","2017/11/28 18:39:44","新北市板橋區華東街1-9號","121.448121666667","24.9948766666667","6500100","板橋區"
"220067","829-TW","2017/11/28 18:39:49","新北市板橋區民生路二段161巷7號","121.470246666667","25.0196983333333","6500100","板橋區"
"220074","895-R6","2017/11/28 18:39:48","新北市板橋區南雅南路二段136號","121.452085","24.9965333333333","6500100","板橋區"
"220073","985-R7","2017/11/28 18:39:54","新北市板橋區南雅南路二段126號","121.452115","24.99696","6500100","板橋區"
"220070","AAC-253","2017/11/28 18:39:27","新北市板橋區華東街1-9號","121.448248333333","24.9948416666667","6500100","板橋區"
