"lineid","car","time","location","longitude","latitude","cityid","cityname"
"234046","148-BY","2017/11/28 19:19:40","新北市永和區永元路21號","121.521975","25.0005533333333","6500400","永和區"
"234013","149-BY","2017/11/28 19:19:47","新北市永和區仁愛路135號","121.511621666667","25.0130383333333","6500400","永和區"
"234007","207-UY","2017/11/28 19:19:43","新北市永和區中山路一段232號","121.507931666667","25.00808","6500400","永和區"
"234081","298-R6","2017/11/28 19:19:48","新北市永和區福和路7巷11弄4號","121.525523333333","25.0073","6500400","永和區"
"234038","336-UY","2017/11/28 19:19:36","新北市永和區民樂街70號","121.527415","24.9984116666667","6500400","永和區"
"234064","337-UY","2017/11/28 19:19:38","新北市永和區永元路17巷6弄2號","121.52132","25.0006633333333","6500400","永和區"
"234086","338-UY","2017/11/28 19:19:37","新北市永和區永利路18號","121.518041666667","25.0059283333333","6500400","永和區"
"234070","552-UM","2017/11/28 19:19:52","新北市永和區豫溪街33號","121.516436666667","25.00984","6500400","永和區"
"234054","553-UM","2017/11/28 19:19:51","新北市永和區中興街28號","121.516198333333","25.0117566666667","6500400","永和區"
"234017","745-BX","2017/11/28 19:19:52","新北市永和區文化路144巷27號","121.512473333333","25.0167433333333","6500400","永和區"
"234030","746-BX","2017/11/28 19:19:42","新北市永和區厚德街77號","121.524571666667","24.998705","6500400","永和區"
"234061","AAD-866","2017/11/28 19:19:36","新北市永和區秀朗路一段175號","121.517105","25.0036733333333","6500400","永和區"
"234042","862-TW","2017/11/28 19:19:51","新北市永和區保平路151巷3號","121.510118333333","25.0055866666667","6500400","永和區"
"234050","863-TW","2017/11/28 19:19:54","新北市永和區保福路二段88巷27號","121.511811666667","25.0137116666667","6500400","永和區"
"234026","9381-KE","2017/11/28 19:19:39","新北市永和區得和路42巷21號","121.51543","24.9996933333333","6500400","永和區"
"234011","9373-KE","2017/11/28 19:19:38","新北市永和區保福路二段23巷19號","121.51013","25.0111766666667","6500400","永和區"
"249005","172-UM","2017/11/28 19:19:53","新北市八里區中華路三段170-1號","121.392145","25.1304116666667","6502300","八里區"
"249001","173-UM","2017/11/28 19:19:50","新北市八里區中華路二段145號","121.409121666667","25.1524183333333","6502300","八里區"
"249003","593-UM","2017/11/28 19:19:40","新北市八里區中山路二段448號","121.39942","25.147355","6502300","八里區"
"248020","225-UY","2017/11/28 19:19:41","新北市五股區凌雲路三段57號","121.425296666667","25.125005","6501500","五股區"
"248012","247-BX","2017/11/28 19:19:47","新北市五股區中興路四段48巷16號","121.438626666667","25.0834183333333","6501500","五股區"
"248010","272-BY","2017/11/28 19:19:51","新北市五股區自強路90巷72號","121.430656666667","25.0712366666667","6501500","五股區"
"248004","677-BX","2017/11/28 19:19:53","新北市五股區五福路64號","121.4332","25.089875","6501500","五股區"
"248002","678-BX","2017/11/28 19:19:42","新北市五股區凌雲路一段158巷6號","121.447863333333","25.1030183333333","6501500","五股區"
"234023","9380-KE","2017/11/28 19:19:36","新北市永和區竹林路126號","121.519903333333","25.0113116666667","6500400","永和區"
"234077","969-R7","2017/11/28 19:19:51","新北市永和區民治街72巷4號","121.517993333333","24.99838","6500400","永和區"
"234074","AAC-211","2017/11/28 19:19:38","新北市永和區竹林路85號","121.519591666667","25.0123233333333","6500400","永和區"
"234067","AAC-212","2017/11/28 19:19:45","新北市永和區保平路55號","121.511631666667","25.00705","6500400","永和區"
"234003","AAC-295","2017/11/28 19:19:34","新北市永和區永平路179號","121.510368333333","25.0092416666667","6500400","永和區"
"244013","069-UM","2017/11/28 19:19:37","新北市林口區麗園一街2巷2號","121.375845","25.071425","6501700","林口區"
"244019","403-UM","2017/11/28 19:19:40","新北市林口區麗園二街87號","121.382643333333","25.0667933333333","6501700","林口區"
"244023","483-VK","2017/11/28 19:19:37","新北市林口區文化三路一段555巷9號","121.369681666667","25.07619","6501700","林口區"
"244009","658-BX","2017/11/28 19:19:37","新北市林口區台電新村146號","121.388745","25.0877066666667","6501700","林口區"
"244011","701-TV","2017/11/28 19:19:37","新北市林口區中山路251號","121.38568","25.0794816666667","6501700","林口區"
"243011","267-VK","2017/11/28 19:19:41","新北市泰山區中央路36巷1號","121.426275","25.04272","6501600","泰山區"
"243012","AAD-798","2017/11/28 19:19:47","新北市泰山區仁愛路100巷27號","121.433536666667","25.0551366666667","6501600","泰山區"
"243009","297-R6","2017/11/28 19:19:47","新北市泰山區明志路一段19巷14號","121.434398333333","25.065575","6501600","泰山區"
"243015","380-SR","2017/11/28 19:19:47","新北市泰山區公園路67-1號","121.426655","25.0551333333333","6501600","泰山區"
"243014","421-VK","2017/11/28 19:19:42","新北市泰山區泰林路二段208號","121.433286666667","25.0614083333333","6501600","泰山區"
"243010","KEA-2215","2017/11/28 19:19:43","新北市泰山區明志路一段488號","121.430396666667","25.0546083333333","6501600","泰山區"
"243013","646-TV","2017/11/28 19:19:54","新北市泰山區明志路三段145巷7號","121.425455","25.0399433333333","6501600","泰山區"
"243016","680-BX","2017/11/28 19:19:52","新北市泰山區明志路三段173號","121.424565","25.039255","6501600","泰山區"
"222003","436-BY","2017/11/28 19:19:47","新北市深坑區深南路204號","121.626653333333","25.0160283333333","6501800","深坑區"
"222002","659-BX","2017/11/28 19:19:56","新北市深坑區北深路一段177號","121.632493333333","25.0108316666667","6501800","深坑區"
"231041","001-UM","2017/11/28 19:19:34","新北市新店區溪園路245-6號","121.52529","24.9832116666667","6500600","新店區"
"231059","046-UY","2017/11/28 19:19:50","新北市新店區安和路三段9巷8號","121.517245","24.9807966666667","6500600","新店區"
"231061","047-UY","2017/11/28 19:19:46","新北市新店區安康路一段136號","121.526633333333","24.9628183333333","6500600","新店區"
"231060","106-UY","2017/11/28 19:19:53","新北市新店區安康路二段128號","121.512681666667","24.9624416666667","6500600","新店區"
"231048","108-UY","2017/11/28 19:19:52","新北市新店區中興路一段302號","121.5462","24.969655","6500600","新店區"
"231053","187-VK","2017/11/28 19:19:49","新北市新店區自強路251號","121.548113333333","24.919655","6500600","新店區"
"231051","188-VK","2017/11/28 19:19:53","新北市新店區中正路399巷13號","121.534031666667","24.9768466666667","6500600","新店區"
"231050","KEA-2219","2017/11/28 19:19:41","新北市新店區竹林路157號","121.555816666667","24.948575","6500600","新店區"
"231063","268-BY","2017/11/28 19:19:38","新北市新店區達觀路14巷8號","121.5032","24.9432166666667","6500600","新店區"
"231046","278-BY","2017/11/28 19:19:45","新北市新店區華城路36巷1-1號","121.528438333333","24.95532","6500600","新店區"
"231054","AAD-862","2017/11/28 19:19:49","新北市新店區國校路65巷1號","121.538383333333","24.9540666666667","6500600","新店區"
"231058","3712-VJ","2017/11/28 19:19:50","新北市新店區光明街312號","121.540598333333","24.9650733333333","6500600","新店區"
"231056","3713-VJ","2017/11/28 19:19:45","新北市新店區中央路47號","121.532708333333","24.977555","6500600","新店區"
"231067","4772-VM","2017/11/28 19:19:38","新北市新店區安康路二段414巷2號","121.495865","24.9577383333333","6500600","新店區"
"231064","515-UM","2017/11/28 19:19:48","新北市新店區安忠路57巷26弄33號","121.51219","24.95797","6500600","新店區"
"231042","616-UM","2017/11/28 19:19:40","新北市新店區北宜路一段3號","121.538446666667","24.9585966666667","6500600","新店區"
"231040","619-UM","2017/11/28 19:19:53","新北市新店區中華路70巷2號","121.53902","24.9692733333333","6500600","新店區"
"231049","719-UM","2017/11/28 19:19:48","新北市新店區明德路64號","121.541553333333","24.979465","6500600","新店區"
"231065","719-UY","2017/11/28 19:19:51","新北市新店區安祥路134號","121.474336666667","24.956245","6500600","新店區"
"231062","720-UM","2017/11/28 19:19:39","新北市新店區莒光路85巷8號","121.523535","24.9559283333333","6500600","新店區"
"231044","897-TW","2017/11/28 19:19:36","新北市新店區中興路三段259號","121.542436666667","24.98462","6500600","新店區"
"231045","898-TW","2017/11/28 19:19:55","新北市新店區北宜路一段272-1號","121.54609","24.9526966666667","6500600","新店區"
"231043","899-TW","2017/11/28 19:19:45","新北市新店區北新路二段143號","121.542848333333","24.9757883333333","6500600","新店區"
"231066","AKT-0513","2017/11/28 19:19:54","新北市新店區安康路三段355巷45號","121.485006666667","24.949385","6500600","新店區"
"241009","060-VK","2017/11/28 19:19:55","新北市三重區溪尾街230巷42號","121.486263333333","25.0811233333333","6500200","三重區"
"241031","061-VK","2017/11/28 19:19:45","新北市三重區重新路四段101號","121.485785","25.0545166666667","6500200","三重區"
"241017","063-VK","2017/11/28 19:19:45","新北市三重區大同北路215號","121.491801666667","25.0659816666667","6500200","三重區"
"241026","066-VK","2017/11/28 19:19:40","新北市三重區中正南路216號","121.493708333333","25.0551716666667","6500200","三重區"
"241022","267-UM","2017/11/28 19:19:40","新北市三重區中正北路111-1號","121.48548","25.06536","6500200","三重區"
"241025","271-UM","2017/11/28 19:19:48","新北市三重區中正北路408巷4號","121.475331666667","25.0702633333333","6500200","三重區"
"241007","398-BY","2017/11/28 19:19:43","新北市三重區慈愛街49號","121.486048333333","25.0790883333333","6500200","三重區"
"241020","413-TH","2017/11/28 19:19:40","新北市三重區後竹圍街88號","121.489575","25.0727683333333","6500200","三重區"
"241030","480-VK","2017/11/28 19:19:45","新北市三重區成功路41巷99號","121.491443333333","25.0532516666667","6500200","三重區"
"241001","547-UM","2017/11/28 19:19:43","新北市三重區自強路三段103號","121.487986666667","25.0755383333333","6500200","三重區"
"241006","AAD-863","2017/11/28 19:19:40","新北市三重區車路頭街180號","121.483638333333","25.0770866666667","6500200","三重區"
"241035","743-BX","2017/11/28 19:19:43","新北市三重區新北大道一段3-1號","121.49023","25.0613233333333","6500200","三重區"
"241029","942-UM","2017/11/28 19:19:49","新北市三重區重安街39-2號","121.491345","25.0566683333333","6500200","三重區"
"235066","003-UY","2017/11/28 19:19:50","新北市中和區景新街2號","121.502643333333","24.9996683333333","6500300","中和區"
"235063","006-UY","2017/11/28 19:19:48","新北市中和區連城路249巷17弄2號","121.493845","24.9964316666667","6500300","中和區"
"235056","096-UM","2017/11/28 19:19:53","新北市中和區中正路1163號","121.481646666667","25.0091416666667","6500300","中和區"
"235039","097-UM","2017/11/28 19:19:51","新北市中和區景平路64巷14弄22號","121.522776666667","24.991245","6500300","中和區"
"235065","098-UM","2017/11/28 19:19:48","新北市中和區中山路二段116巷3弄9號","121.5022","25.0039866666667","6500300","中和區"
"235040","150-BY","2017/11/28 19:19:53","新北市中和區保健路48巷47號","121.509515","24.99618","6500300","中和區"
"235058","151-BY","2017/11/28 19:19:42","新北市中和區連城路469巷22弄5號","121.483255","24.99513","6500300","中和區"
"235055","183-VK","2017/11/28 19:19:51","新北市中和區德光路19號","121.471033333333","25.0043633333333","6500300","中和區"
"235038","185-VK","2017/11/28 19:19:48","新北市中和區大仁街20巷44號","121.519781666667","24.9932916666667","6500300","中和區"
"235049","186-VK","2017/11/28 19:19:53","新北市中和區景新街235號","121.508123333333","24.9945216666667","6500300","中和區"
"235067","255-BX","2017/11/28 19:19:44","新北市中和區新生街150號","121.483498333333","25.0006233333333","6500300","中和區"
"235044","293-VK","2017/11/28 19:19:51","新北市中和區復興路302號","121.501373333333","24.99032","6500300","中和區"
"235072","301-VK","2017/11/28 19:19:46","新北市中和區連城路209號","121.494486666667","24.997865","6500300","中和區"
"235043","352-BY","2017/11/28 19:19:36","新北市中和區景平路404號","121.509033333333","24.9930683333333","6500300","中和區"
"235068","377-QA","2017/11/28 19:19:43","新北市中和區景平路545巷1弄15號","121.498798333333","24.9988183333333","6500300","中和區"
"235061","378-QA","2017/11/28 19:19:26","新北市中和區中山路二段523巷60號","121.482081666667","25.00285","6500300","中和區"
"235071","269-TV","2017/11/28 19:19:44","新北市中和區連城路469巷73號","121.483463333333","24.99418","6500300","中和區"
"235050","4979-A6","2017/11/28 19:19:46","新北市中和區景安路208巷2號","121.503848333333","24.9910533333333","6500300","中和區"
"235069","4980-A6","2017/11/28 19:19:54","新北市中和區景平路736巷4號","121.497011666667","25.003925","6500300","中和區"
"235042","551-UM","2017/11/28 19:19:48","新北市永和區中正路105號","121.515478333333","24.9973566666667","6500300","中和區"
"235070","558-UM","2017/11/28 19:19:30","新北市中和區中和路35-1號","121.500173333333","25.0014333333333","6500300","中和區"
"235045","565-BX","2017/11/28 19:19:37","新北市中和區景平路111巷61弄21號","121.514825","24.98978","6500300","中和區"
"235054","640-BX","2017/11/28 19:19:35","新北市中和區民德路140號","121.468708333333","25.0005116666667","6500300","中和區"
"235060","647-TV","2017/11/28 19:19:50","新北市中和區中山路三段89號","121.475521666667","25.00582","6500300","中和區"
"235047","732-UM","2017/11/28 19:19:55","新北市中和區景平路239巷73號","121.50816","24.9920633333333","6500300","中和區"
"235046","733-UM","2017/11/28 19:19:36","新北市中和區忠孝街2巷14弄12號","121.510606666667","24.981365","6500300","中和區"
"235057","801-TS","2017/11/28 19:19:48","新北市中和區民利街53號","121.479338333333","24.99872","6500300","中和區"
"235041","802-TS","2017/11/28 19:19:42","新北市中和區景安路2號","121.507856666667","24.9992133333333","6500300","中和區"
"235052","805-TS","2017/11/28 19:19:43","新北市中和區華新街232巷8號","121.505848333333","24.98199","6500300","中和區"
"235048","896-TW","2017/11/28 19:19:55","新北市中和區忠孝街69號","121.512051666667","24.984965","6500300","中和區"
"235053","900-TW","2017/11/28 19:19:54","新北市中和區華安街21巷11號","121.467526666667","24.99771","6500300","中和區"
"235064","911-UM","2017/11/28 19:19:46","新北市中和區泰和街24號","121.499521666667","25.0005366666667","6500300","中和區"
"235037","157-BY","2017/11/28 19:19:39","新北市中和區和平街2巷3號","121.510043333333","24.9902766666667","6500300","中和區"
"235037","AAC-213","2017/11/28 19:19:50","新北市中和區秀朗路三段50巷21號","121.524608333333","24.995045","6500300","中和區"
"235059","AAC-215","2017/11/28 19:19:43","新北市中和區錦和路195巷14號","121.491278333333","24.9909383333333","6500300","中和區"
"220068","013-TV","2017/11/28 18:43:01","新北市板橋區民生路二段161巷9號","121.47024","25.0196033333333","6500100","板橋區"
"220065","072-UY","2017/11/28 19:19:47","新北市板橋區國泰街76巷13號","121.467155","25.0068616666667","6500100","板橋區"
"220086","073-UY","2017/11/28 19:19:48","新北市板橋區中正路190號","121.456101666667","25.0178383333333","6500100","板橋區"
"220106","075-UY","2017/11/28 19:19:43","新北市板橋區雙十路三段66巷1號","121.470533333333","25.031965","6500100","板橋區"
"220069","AAD-861","2017/11/28 19:19:48","新北市板橋區華興街31巷17號","121.458421666667","25.00384","6500100","板橋區"
"220102","120-SR","2017/11/28 19:19:23","新北市板橋區田單街18號","121.482316666667","25.0286583333333","6500100","板橋區"
"247004","336-TH","2017/11/28 19:19:38","新北市蘆洲區長榮路669號","121.46022","25.0916783333333","6501400","蘆洲區"
"228003","097-TW","2017/11/28 19:19:53","新北市貢寮區和美里和美街19-2號","121.912798333333","25.0825866666667","6502600","貢寮區"
"228001","212-TW","2017/11/28 19:19:42","新北市貢寮區真理里新港街10號","121.925511666667","25.0543983333333","6502600","貢寮區"
"228002","585-TW","2017/11/28 19:19:55","新北市貢寮區龍門里復興街29-3號","121.927508333333","25.02815","6502600","貢寮區"
"224010","AGQ-8101","2017/11/28 19:19:39","新北市瑞芳區基山街147號","121.844025","25.10814","6501200","瑞芳區"
"224006","676-BX","2017/11/28 17:30:14","新北市瑞芳區傑魚坑路183號","121.788565","25.108085","6501200","瑞芳區"
"224008","275-VK","2017/11/28 19:19:51","新北市瑞芳區一坑路217號","121.801406666667","25.1088633333333","6501200","瑞芳區"
"224005","271-BY","2017/11/28 19:19:41","新北市瑞芳區蛇子形路6號","121.825908333333","25.1048783333333","6501200","瑞芳區"
"224006","201-TW","2017/11/28 19:19:55","新北市瑞芳區中山路215號","121.801023333333","25.10673","6501200","瑞芳區"
"227009","642-TC","2017/11/28 19:19:39","新北市雙溪區新基里新基北街40號","121.868556666667","25.03803","6502500","雙溪區"
"227003","400-TW","2017/11/28 19:19:55","新北市雙溪區平林里梅竹蹊66-1號","121.860233333333","25.035825","6502500","雙溪區"
"253005","032-BX","2017/11/28 19:19:51","新北市石門區阿里荖5號","121.610621666667","25.2797716666667","6502200","石門區"
"253006","295-VK","2017/11/28 19:19:51","新北市石門區楓林17-6號","121.537033333333","25.2921716666667","6502200","石門區"
"222001","KEA-2212","2017/11/28 19:19:37","新北市深坑區北深路二段103號","121.617386666667","25.0033633333333","6501800","深坑區"
"208002","742-BX","2017/11/28 19:19:35","新北市金山區中華路133號","121.63308","25.220945","6502700","金山區"
"208003","665-BX","2017/11/28 19:19:52","新北市金山區中山路130號","121.639075","25.2201716666667","6502700","金山區"
"208001","761-BX","2017/11/28 19:19:47","新北市金山區民生路69號","121.640141666667","25.2196933333333","6502700","金山區"
"251014","180-VK","2017/11/28 19:19:47","新北市淡水區小中寮19-7號","121.484708333333","25.229625","6501000","淡水區"
"251010","413-VK","2017/11/28 19:19:38","新北市淡水區沙崙路30號","121.4215","25.181495","6501000","淡水區"
"251016","442-VK","2017/11/28 19:19:43","新北市淡水區下圭柔山119-51號","121.450728333333","25.2084283333333","6501000","淡水區"
"251001","559-UM","2017/11/28 19:19:45","新北市淡水區自強路201巷39號","121.462145","25.1268483333333","6501000","淡水區"
"251006","561-UM","2017/11/28 19:19:42","新北市淡水區大信街40-8號","121.442031666667","25.1773983333333","6501000","淡水區"
"251009","575-R6","2017/11/28 19:19:37","新北市淡水區大忠街5巷9號","121.443375","25.1766016666667","6501000","淡水區"
"251007","577-R6","2017/11/28 19:19:37","新北市淡水區民生路117巷27號","121.464886666667","25.139545","6501000","淡水區"
"251002","672-BX","2017/11/28 19:19:49","新北市淡水區中正路368號","121.433965","25.1743133333333","6501000","淡水區"
"251003","673-BX","2017/11/28 19:19:49","新北市淡水區大義街3號","121.443791666667","25.1779083333333","6501000","淡水區"
"207003","550-UM","2017/11/28 19:19:53","新北市萬里區大鵬里萬里加投79-3號","121.647323333333","25.212345","6502800","萬里區"
"207004","225-TW","2017/11/28 19:19:43","新北市萬里區萬里里瑪鋉路4號","121.68759","25.1750366666667","6502800","萬里區"
"252002","178-VK","2017/11/28 19:19:52","新北市三芝區淡金路二段25號","121.50284","25.25964","6502100","三芝區"
"252001","292-VK","2017/11/28 19:19:46","新北市三芝區長勤街9巷11弄1號","121.501816666667","25.2547133333333","6502100","三芝區"
"237004","078-UY","2017/11/28 19:19:43","新北市三峽區有木205-1號","121.439066666667","24.8515316666667","6500900","三峽區"
"237007","153-BY","2017/11/28 19:19:40","新北市三峽區二鬮路46號","121.362088333333","24.91022","6500900","三峽區"
"237009","210-TH","2017/11/28 19:19:44","新北市三峽區民生街199號","121.371766666667","24.9348016666667","6500900","三峽區"
"237013","252-BX","2017/11/28 19:19:48","新北市三峽區大同路39巷23號","121.377445","24.9275233333333","6500900","三峽區"
"237012","275-BY","2017/11/28 19:19:39","新北市三峽區三樹路222巷236弄23號","121.391485","24.943","6500900","三峽區"
"237008","302-VK","2017/11/28 19:19:52","新北市三峽區光明路106巷36號","121.375691666667","24.9270383333333","6500900","三峽區"
"237014","433-BY","2017/11/28 19:19:46","新北市三峽區中山路63巷8號","121.366945","24.93433","6500900","三峽區"
"237006","5529-G3","2017/11/28 19:19:41","新北市三峽區大同路90號","121.375716666667","24.9276233333333","6500900","三峽區"
"237016","649-BX","2017/11/28 19:19:40","新北市三峽區安坑49-7號","121.46235","24.931995","6500900","三峽區"
"237010","706-TV","2017/11/28 18:59:38","新北市三峽區復興路9號","121.3742","24.9360583333333","6500900","三峽區"
"237005","AKY-6261","2017/11/28 19:19:50","新北市三峽區中山路459巷36號","121.357326666667","24.9377883333333","6500900","三峽區"
"236070","105-UM","2017/11/28 19:19:48","新北市土城區學成路118號","121.449581666667","24.9894133333333","6501300","土城區"
"236027","269-VK","2017/11/28 19:19:37","新北市土城區中央路二段61巷22號","121.443163333333","24.9787316666667","6501300","土城區"
"236015","270-VK","2017/11/28 19:19:50","新北市土城區學府路一段23巷25弄16號","121.457278333333","24.9863183333333","6501300","土城區"
"236023","401-BY","2017/11/28 19:19:50","新北市土城區峰廷街3號","121.469153333333","24.9873316666667","6501300","土城區"
"236079","752-BX","2017/11/28 19:16:48","新北市土城區中央路四段321巷32-1號","121.411716666667","24.9513616666667","6501300","土城區"
"236059","912-UM","2017/11/28 19:19:46","新北市土城區金城路一段131號","121.444766666667","24.9737316666667","6501300","土城區"
"236049","913-UM","2017/11/28 19:19:48","新北市土城區明德路一段398-1號","121.453655","24.9790766666667","6501300","土城區"
"242001","233-RS","2017/11/28 08:26:22","新北市新莊區環河路48-7號","121.436901666667","25.0097766666667","6500500","新莊區"
"242056","349-TH","2017/11/28 19:19:48","新北市新莊區瓊林南路77-41號","121.437705","25.01255","6500500","新莊區"
"238015","755-BX","2017/11/28 19:19:39","新北市樹林區備內街40號","121.412346666667","24.9873183333333","6500700","樹林區"
"238023","601-UM","2017/11/28 19:19:50","新北市樹林區三興路27號","121.396521666667","25.0148666666667","6500700","樹林區"
"238019","599-UM","2017/11/28 19:19:52","新北市樹林區鎮前街411巷1弄16號","121.415548333333","24.983115","6500700","樹林區"
"238018","571-TV","2017/11/28 19:19:48","新北市樹林區中華路229號","121.418718333333","24.9809366666667","6500700","樹林區"
"238024","5061-A6","2017/11/28 19:19:43","新北市樹林區福德街48-6號","121.399016666667","24.974865","6500700","樹林區"
"238021","KEA-2217","2017/11/28 19:19:42","新北市樹林區柑園街二段426號","121.364576666667","24.9472466666667","6500700","樹林區"
"238022","KEA-2213","2017/11/28 19:19:47","新北市樹林區中華路190-8號","121.411333333333","24.980545","6500700","樹林區"
"238025","303-VK","2017/11/28 19:19:47","新北市樹林區中山路二段219號","121.402516666667","24.97608","6500700","樹林區"
"238017","283-BY","2017/11/28 19:19:04","新北市樹林區光興街376巷1號","121.406256666667","25.0056533333333","6500700","樹林區"
"238014","282-BY","2017/11/28 19:19:35","新北市樹林區中正路21號","121.427581666667","24.9993516666667","6500700","樹林區"
"238020","268-VK","2017/11/28 19:19:53","新北市樹林區俊英街133巷18號","121.423723333333","25.0111466666667","6500700","樹林區"
"238026","172-UY","2017/11/28 19:19:37","新北市樹林區佳園路三段12號","121.388036666667","24.9543666666667","6500700","樹林區"
"238016","169-UY","2017/11/28 19:19:46","新北市樹林區中山路二段34號","121.417248333333","24.9850583333333","6500700","樹林區"
"239007","AAC-297","2017/11/28 19:19:44","新北市鶯歌區西湖街45巷21號","121.339833333333","24.9596533333333","6500800","鶯歌區"
"239006","891-R6","2017/11/28 19:19:49","新北市鶯歌區永昌街32號","121.34297","24.9498866666667","6500800","鶯歌區"
"239008","527-UM","2017/11/28 19:19:49","新北市鶯歌區國際二路6巷18號","121.339201666667","24.97375","6500800","鶯歌區"
"239005","526-UM","2017/11/28 19:19:48","新北市鶯歌區中湖街303巷1號","121.34789","24.9774566666667","6500800","鶯歌區"
"239001","417-VK","2017/11/28 19:19:53","新北市鶯歌區建國路473號","121.339901666667","24.9525","6500800","鶯歌區"
"239003","360-BY","2017/11/28 19:19:34","新北市鶯歌區中正二路91巷6號","121.348605","24.9500766666667","6500800","鶯歌區"
"239002","359-BY","2017/11/28 19:19:34","新北市鶯歌區大湖路277號","121.345263333333","24.9732366666667","6500800","鶯歌區"
"239004","193-VK","2017/11/28 19:19:40","新北市鶯歌區中正三路148號","121.336058333333","24.9397366666667","6500800","鶯歌區"
"221008","489-VK","2017/11/28 19:19:44","新北市汐止區康寧街279號","121.626071666667","25.06709","6501100","汐止區"
"221036","130-UY","2017/11/28 19:19:37","新北市汐止區汐萬路一段256巷3號","121.653323333333","25.0746266666667","6501100","汐止區"
"221010","269-BY","2017/11/28 19:19:36","新北市汐止區康寧街901號","121.651391666667","25.07501","6501100","汐止區"
"221012","276-VK","2017/11/28 13:30:37","新北市汐止區汐萬路一段256巷3號","121.653466666667","25.0746283333333","6501100","汐止區"
"221012","278-VK","2017/11/28 19:19:40","新北市汐止區汐萬路一段306號","121.650395","25.0746166666667","6501100","汐止區"
"221023","279-VK","2017/11/28 19:19:40","新北市汐止區康寧街901號","121.650923333333","25.07519","6501100","汐止區"
"221027","281-BY","2017/11/28 19:19:42","新北市汐止區汐萬路一段310號","121.65034","25.0748616666667","6501100","汐止區"
"221029","298-VK","2017/11/28 19:19:51","新北市汐止區康寧街901號","121.651605","25.0749266666667","6501100","汐止區"
"221021","299-VK","2017/11/28 19:19:50","新北市汐止區康寧街901號","121.651458333333","25.0749683333333","6501100","汐止區"
"221031","353-TW","2017/11/28 19:19:48","新北市汐止區康寧街901號","121.650936666667","25.075225","6501100","汐止區"
"221015","567-BX","2017/11/28 19:19:52","新北市汐止區康寧街901號","121.651665","25.074885","6501100","汐止區"
"221025","623-UM","2017/11/28 19:19:33","新北市汐止區汐萬路一段306號","121.650386666667","25.0745933333333","6501100","汐止區"
"221038","646-BX","2017/11/28 19:19:35","新北市汐止區汐萬路一段312號","121.65069","25.0752783333333","6501100","汐止區"
"221033","647-BX","2017/11/28 19:19:48","新北市汐止區南勢街1巷1號","121.627011666667","25.0374133333333","6501100","汐止區"
"221002","707-TV","2017/11/28 19:19:51","新北市汐止區大同路一段398-1號","121.640021666667","25.0599133333333","6501100","汐止區"
"220079","145-BY","2017/11/28 19:19:43","新北市板橋區民權路202巷18弄1號","121.460835","25.016575","6500100","板橋區"
"220080","200-UY","2017/11/28 19:19:53","新北市板橋區大觀路二段1巷60號","121.450605","25.003515","6500100","板橋區"
"220082","610-BX","2017/11/28 19:19:48","新北市板橋區滿平街84巷116號","121.426903333333","24.9863816666667","6500100","板橋區"
"220101","245-BX","2017/11/28 19:19:52","新北市板橋區莊敬路25巷3號","121.474678333333","25.027345","6500100","板橋區"
"220091","267-BY","2017/11/28 19:19:51","新北市板橋區文聖街207-1號","121.47983","25.02645","6500100","板橋區"
"220056","276-BY","2017/11/28 19:19:37","新北市板橋區干城路157號","121.460548333333","24.9922616666667","6500100","板橋區"
"220072","277-BY","2017/11/28 19:19:47","新北市板橋區篤行路二段161巷22-2號","121.430005","24.9873766666667","6500100","板橋區"
"220094","283-UM","2017/11/28 19:19:51","新北市板橋區吳鳳路82號","121.466963333333","25.0312866666667","6500100","板橋區"
"220071","283-VK","2017/11/28 19:19:44","新北市板橋區大豐街15號","121.462343333333","25.0014016666667","6500100","板橋區"
"220053","285-VK","2017/11/28 19:19:40","新北市板橋區富山街16號","121.478388333333","25.0218516666667","6500100","板橋區"
"220083","286-VK","2017/11/28 19:19:37","新北市板橋區龍興街73巷12號","121.443443333333","25.00233","6500100","板橋區"
"220081","287-VK","2017/11/28 19:19:42","新北市板橋區南雅西路一段122號","121.452733333333","25.0066166666667","6500100","板橋區"
"220090","288-VK","2017/11/28 19:19:35","新北市板橋區長江路一段106巷13弄33號","121.461288333333","25.02976","6500100","板橋區"
"220061","293-UM","2017/11/28 19:19:36","新北市板橋區中山路二段318巷18號","121.480426666667","25.0187566666667","6500100","板橋區"
"220084","296-UM","2017/11/28 19:19:49","新北市板橋區溪崑二街66巷35號","121.4271","24.9910233333333","6500100","板橋區"
"220075","297-UM","2017/11/28 19:19:45","新北市板橋區中正路275巷32號","121.454451666667","25.0186916666667","6500100","板橋區"
"220062","303-R5","2017/11/28 19:19:37","新北市板橋區三民路二段居仁巷1弄22號","121.479933333333","25.0135716666667","6500100","板橋區"
"220092","307-R5","2017/11/28 19:19:52","新北市板橋區光武街48巷28號","121.468183333333","25.0268633333333","6500100","板橋區"
"220098","317-R6","2017/11/28 19:19:54","新北市板橋區民有街91號","121.464605","25.0275416666667","6500100","板橋區"
"220064","486-VK","2017/11/28 19:19:53","新北市板橋區縣民大道二段3號","121.462543333333","25.0120333333333","6500100","板橋區"
"220089","487-VK","2017/11/28 19:19:37","新北市板橋區文化路一段413號","121.467483333333","25.0221833333333","6500100","板橋區"
"220088","491-VK","2017/11/28 19:19:52","新北市板橋區雙十路二段79號","121.476071666667","25.0272","6500100","板橋區"
"220035","560-BX","2017/11/28 19:19:44","新北市板橋區中正路360巷25號","121.455341666667","25.0234666666667","6500100","板橋區"
"220103","561-BX","2017/11/28 19:19:43","新北市板橋區介壽街20號","121.467623333333","25.02003","6500100","板橋區"
"220063","609-BX","2017/11/28 19:19:53","新北市板橋區三民路二段202-6號","121.479066666667","25.0144333333333","6500100","板橋區"
"220057","686-BX","2017/11/28 19:19:48","新北市板橋區重慶路319號","121.463878333333","24.9985983333333","6500100","板橋區"
"220077","687-BX","2017/11/28 19:19:51","新北市板橋區僑中二街2號","121.44738","25.011425","6500100","板橋區"
"220093","689-BX","2017/11/28 19:19:44","新北市板橋區文化路一段126號","121.465028333333","25.01859","6500100","板橋區"
"220054","741-BX","2017/11/28 19:19:36","新北市板橋區四川路一段197號","121.460698333333","25.0037316666667","6500100","板橋區"
"220055","827-TW","2017/11/28 19:19:44","新北市板橋區館前東路156巷10號","121.464328333333","25.0072066666667","6500100","板橋區"
"220067","829-TW","2017/11/28 19:19:49","新北市板橋區長安街138巷3弄37號","121.473915","25.0097366666667","6500100","板橋區"
"220096","831-TW","2017/11/28 19:19:48","新北市板橋區大同街8巷41號","121.477836666667","25.026115","6500100","板橋區"
"220074","895-R6","2017/11/28 19:19:48","新北市板橋區中正路自強新村56號","121.454786666667","25.0134883333333","6500100","板橋區"
"220073","985-R7","2017/11/28 19:19:33","新北市板橋區新生街46號","121.45674","25.0210566666667","6500100","板橋區"
"220097","AAC-210","2017/11/28 19:19:46","新北市板橋區幸福路60巷1號","121.460981666667","25.0202466666667","6500100","板橋區"
"220070","AAC-253","2017/11/28 19:19:47","新北市板橋區忠孝路168號","121.464363333333","25.0024866666667","6500100","板橋區"
