"lineid","car","time","location","longitude","latitude","cityid","cityname"
"231067","4772-VM","2017/11/28 21:50:05","新北市新店區安華路28-1號","121.51932","24.9606366666667","6500600","新店區"
"247008","341-TH","2017/11/28 22:09:54","新北市五股區中直路13-7號","121.425168333333","25.1101116666667","6501400","蘆洲區"
"247010","339-TH","2017/11/28 22:09:39","新北市八里區荖阡坑路4-24號","121.398055","25.1430283333333","6501400","蘆洲區"
"247003","336-TH","2017/11/28 22:09:46","新北市五股區中興路三段163號","121.449096666667","25.0808883333333","6501400","蘆洲區"
"224006","676-BX","2017/11/28 17:30:14","新北市瑞芳區傑魚坑路183號","121.788565","25.108085","6501200","瑞芳區"
"251004","009-UM","2017/11/28 22:09:51","新北市淡水區民族路76號","121.46225","25.135595","6501000","淡水區"
"251008","181-VK","2017/11/28 22:09:45","新北市淡水區學府路104號","121.44989","25.1717183333333","6501000","淡水區"
"251016","442-VK","2017/11/28 22:09:42","新北市淡水區水碓街7號","121.44318","25.1771233333333","6501000","淡水區"
"251006","561-UM","2017/11/28 22:09:42","新北市淡水區沙崙路200號","121.424705","25.1838733333333","6501000","淡水區"
"251007","577-R6","2017/11/28 22:09:37","新北市淡水區北新路180號","121.449491666667","25.178785","6501000","淡水區"
"242001","233-RS","2017/11/28 08:26:22","新北市新莊區環河路48-7號","121.436901666667","25.0097766666667","6500500","新莊區"
"221012","276-VK","2017/11/28 13:30:37","新北市汐止區汐萬路一段256巷3號","121.653466666667","25.0746283333333","6501100","汐止區"
"221021","567-BX","2017/11/28 21:12:56","新北市汐止區汐萬路一段256巷3號","121.652438333333","25.07463","6501100","汐止區"
