"lineid","car","time","location","longitude","latitude","cityid","cityname"
"232007","290-BY","2017/08/03 06:39:35","新北市坪林區北宜路八段558號","121.718083333333","24.9097183333333","6502000","坪林區"
"232001","291-BY","2017/08/03 06:39:20","新北市坪林區鶯子瀨12-1號","121.715025","24.9122333333333","6502000","坪林區"
"232010","375-UM","2017/08/03 06:39:27","新北市坪林區北宜路八段558號","121.718136666667","24.9092716666667","6502000","坪林區"
"232014","705-BZ","2017/08/03 06:39:19","新北市坪林區北宜路八段558號","121.71843","24.90963","6502000","坪林區"
"232018","758-BX","2017/08/03 06:39:35","新北市坪林區北宜路八段553號","121.717808333333","24.9097466666667","6502000","坪林區"
"244003","248-BX","2017/08/03 06:39:26","新北市林口區粉寮路二段160巷28號","121.405128333333","25.090795","6501700","林口區"
"235016","805-TS","2017/08/03 06:28:48","新北市中和區和平街29-1號","121.507445","24.9910633333333","6500300","中和區"
"223006","022-BY","2017/08/03 06:39:28","新北市石碇區湳窟22-1號","121.661295","24.9909366666667","6501900","石碇區"
"223003","205-TH","2017/08/03 06:39:19","新北市石碇區下橫坪15號","121.668901666667","24.9835016666667","6501900","石碇區"
"223008","406-TH","2017/08/03 06:39:33","新北市石碇區小粗坑(潭邊里)14-1號","121.68166","24.9816783333333","6501900","石碇區"
"223001","437-BY","2017/08/03 06:39:32","新北市石碇區碇坪路一段196號","121.671238333333","24.9823983333333","6501900","石碇區"
"227007","282-VK","2017/08/03 06:39:23","新北市雙溪區牡丹里聖南10-3號","121.861246666667","25.0487083333333","6502500","雙溪區"
