"lineid","car","time","location","longitude","latitude","cityid","cityname"
"232001","290-BY","2017/10/02 08:17:57","新北市坪林區坪雙路一段117號","121.732826666667","24.9509983333333","6502000","坪林區"
"232012","291-BY","2017/10/02 08:18:00","新北市坪林區九芎根1號","121.669591666667","24.88869","6502000","坪林區"
"232017","705-BZ","2017/10/02 08:08:39","新北市坪林區柑腳坑15號","121.7726","24.9468166666667","6502000","坪林區"
"232005","758-BX","2017/10/02 08:18:18","新北市坪林區鶯子瀨3-1號","121.705825","24.914095","6502000","坪林區"
"244012","069-UM","2017/10/02 08:18:15","新北市林口區文化一路二段202號","121.38341","25.0806333333333","6501700","林口區"
"244006","080-UY","2017/10/02 08:18:18","新北市林口區中湖43-5號","121.381793333333","25.0923416666667","6501700","林口區"
"244018","403-UM","2017/10/02 08:18:08","新北市林口區四維路156號","121.380548333333","25.0754783333333","6501700","林口區"
"244008","410-SL","2017/10/02 08:17:55","新北市林口區文化一路二段285-1號","121.38512","25.084705","6501700","林口區"
"244022","483-VK","2017/10/02 08:18:06","新北市林口區仁愛路一段637巷21號","121.388328333333","25.0759083333333","6501700","林口區"
"244010","656-BX","2017/10/02 08:18:09","新北市林口區竹林路12號","121.386771666667","25.0772733333333","6501700","林口區"
"244001","657-BX","2017/10/02 08:17:29","新北市林口區頂福里9巷90-1號","121.323656666667","25.1068533333333","6501700","林口區"
"244024","837-TS","2017/10/02 08:18:09","新北市林口區仁愛路二段526號","121.372725","25.0781433333333","6501700","林口區"
"244020","838-TS","2017/10/02 08:18:10","新北市林口區粉寮1號","121.397431666667","25.0799616666667","6501700","林口區"
"222005","289-BY","2017/10/02 08:18:04","新北市深坑區萬福路18號","121.602533333333","25.0084416666667","6501800","深坑區"
"231007","189-VK","2017/10/02 08:18:10","新北市新店區新潭路一段42號","121.523558333333","24.941545","6500600","新店區"
"231008","192-VK","2017/10/02 08:18:04","新北市新店區行政街14巷1號","121.543246666667","24.966045","6500600","新店區"
"226005","5620-A6","2017/10/02 08:18:10","新北市平溪區南山里南山坪118-1號","121.783263333333","25.044155","6502400","平溪區"
"226001","7418-A5","2017/10/02 08:18:07","新北市平溪區東勢里芊蓁林32-1號","121.750735","25.0179033333333","6502400","平溪區"
"226003","AGD-0702","2017/10/02 08:17:48","新北市平溪區望古里石灼坑5號","121.760608333333","25.0456466666667","6502400","平溪區"
"223006","022-BY","2017/10/02 08:18:04","新北市深坑區昇高坑路35號","121.628718333333","24.99833","6501900","石碇區"
"223002","198-BX","2017/10/02 08:18:10","新北市石碇區北宜路五段59號","121.635393333333","24.9539666666667","6501900","石碇區"
"223003","205-TH","2017/10/02 08:18:00","新北市石碇區北宜路五段80號","121.646408333333","24.95173","6501900","石碇區"
"223008","406-TH","2017/10/02 08:18:10","新北市石碇區靜安路一段304號","121.692296666667","25.0064016666667","6501900","石碇區"
"223001","437-BY","2017/10/02 08:18:03","新北市石碇區北宜路五段80號","121.64639","24.9516683333333","6501900","石碇區"
"223004","660-BX","2017/10/02 08:18:01","新北市石碇區外按5號","121.651751666667","24.9948216666667","6501900","石碇區"
"223007","661-BX","2017/10/02 08:18:04","新北市石碇區靜安路一段304號","121.692168333333","25.0063783333333","6501900","石碇區"
"223005","677-TV","2017/10/02 08:18:14","新北市石碇區外按8-3號","121.650495","24.995235","6501900","石碇區"
"227005","282-VK","2017/10/02 08:18:08","新北市雙溪區上林里大瀨10號","121.822316666667","25.0222516666667","6502500","雙溪區"
"253003","6232-TK","2017/10/02 08:18:02","新北市石門區石崩山20-8號","121.566236666667","25.275385","6502200","石門區"
"253001","6251-TK","2017/10/02 08:18:09","新北市石門區楓林6-1號","121.537753333333","25.2962716666667","6502200","石門區"
"253002","637-UY","2017/10/02 08:18:12","新北市石門區大溪墘9-2號","121.551671666667","25.2755633333333","6502200","石門區"
"253004","8270-PC","2017/10/02 08:18:02","新北市石門區阿里荖41-1號","121.60552","25.2814833333333","6502200","石門區"
"239001","050-UM","2017/10/02 08:18:12","新北市鶯歌區中正三路39號","121.33898","24.9418783333333","6500800","鶯歌區"
"252006","073-UM","2017/10/02 08:18:11","新北市三芝區後厝里大片頭90號","121.456278333333","25.2456066666667","6502100","三芝區"
"252004","249-BX","2017/10/02 08:18:12","新北市三芝區興華里車埕60號","121.498633333333","25.19693","6502100","三芝區"
"237001","159-UY","2017/10/02 08:18:17","新北市三峽區三樹路279號","121.379078333333","24.9431966666667","6500900","三峽區"
"237010","760-BX","2017/10/02 08:18:14","新北市三峽區插角218-1號","121.415306666667","24.8678966666667","6500900","三峽區"
"236007","165-UM","2017/10/02 08:18:13","新北市土城區青雲路322巷28號","121.457483333333","24.97541","6501300","土城區"
"236001","339-SR","2017/10/02 08:14:23","新北市土城區龍泉路75-1號","121.433575","24.9426583333333","6501300","土城區"
"236005","498-BY","2017/10/02 08:17:58","新北市土城區永平街9號","121.427865","24.9629933333333","6501300","土城區"
"242030","AAC-296","2017/10/02 08:18:04","新北市新莊區新泰路357巷1弄15號","121.442938333333","25.040765","6500500","新莊區"
"242028","986-R7","2017/10/02 08:18:01","新北市新莊區中平路66號","121.444798333333","25.044405","6500500","新莊區"
"242049","751-BX","2017/10/02 08:18:15","新北市新莊區西盛街232巷15號","121.427331666667","25.0164066666667","6500500","新莊區"
"242024","615-BX","2017/10/02 08:18:14","新北市三重區中興北街283號","121.469183333333","25.0617283333333","6500500","新莊區"
"242022","613-BX","2017/10/02 08:18:13","新北市新莊區福樂街102號","121.457553333333","25.047595","6500500","新莊區"
"242026","612-BX","2017/10/02 08:17:59","新北市新莊區福壽街137號","121.458001666667","25.052615","6500500","新莊區"
"242038","566-BX","2017/10/02 08:18:10","新北市新莊區富國路188號","121.42476","25.0243716666667","6500500","新莊區"
"242043","497-BY","2017/10/02 08:18:19","新北市新莊區中正路700-13號","121.418506666667","25.0275883333333","6500500","新莊區"
"242003","442-UM","2017/10/02 08:18:08","新北市新莊區自立街259號","121.45926","25.045595","6500500","新莊區"
"242047","441-UM","2017/10/02 08:18:12","新北市新莊區萬安街146巷1號","121.419923333333","25.0211916666667","6500500","新莊區"
"242052","440-UM","2017/10/02 08:18:01","新北市樹林區樹新路2-2號","121.431386666667","24.9988933333333","6500500","新莊區"
"242033","415-TV","2017/10/02 08:17:57","新北市新莊區新莊路666號","121.441823333333","25.0328883333333","6500500","新莊區"
"242040","400-BY","2017/10/02 08:18:12","新北市新莊區中正路701號","121.425576666667","25.0299416666667","6500500","新莊區"
"242059","362-BY","2017/10/02 08:18:14","新北市新莊區新樹路513號","121.432698333333","25.01057","6500500","新莊區"
"242057","353-BY","2017/10/02 08:18:05","新北市新莊區中正路726-5號","121.415826666667","25.0241483333333","6500500","新莊區"
"242006","132-UY","2017/10/02 08:18:10","新北市新莊區福樂街132巷18號","121.456865","25.048605","6500500","新莊區"
"242035","133-UY","2017/10/02 08:18:09","新北市新莊區後港一路103號","121.428211666667","25.0270733333333","6500500","新莊區"
"242020","135-UY","2017/10/02 08:18:11","新北市新莊區永寧街31號","121.452781666667","25.0388133333333","6500500","新莊區"
"242045","172-VK","2017/10/02 08:17:59","新北市新莊區建國一路42號","121.433875","25.0312883333333","6500500","新莊區"
"242008","173-VK","2017/10/02 08:18:13","新北市新莊區昌明街60號","121.455596666667","25.05208","6500500","新莊區"
"242014","175-VK","2017/10/02 08:18:13","新北市新莊區新泰路502巷52號","121.444268333333","25.0463766666667","6500500","新莊區"
"242001","176-VK","2017/10/02 08:18:05","新北市新莊區中正路161-4號","121.455245","25.0366083333333","6500500","新莊區"
"242012","346-TH","2017/10/02 08:18:17","新北市新莊區中誠街165號","121.448271666667","25.047365","6500500","新莊區"
"242018","348-TH","2017/10/02 08:18:13","新北市新莊區民樂街42號","121.458018333333","25.0413383333333","6500500","新莊區"
"242055","349-TH","2017/10/02 08:18:17","新北市新莊區瓊林路40巷11號","121.447316666667","25.0301666666667","6500500","新莊區"
"242016","350-TH","2017/10/02 08:18:06","新北市新莊區中港路341號","121.452216666667","25.04544","6500500","新莊區"
"242010","351-TH","2017/10/02 08:18:15","新北市新莊區中港路681巷18號","121.449863333333","25.0563533333333","6500500","新莊區"
"220064","282-UM","2017/10/02 08:18:03","新北市五股區新五路三段38號","121.444485","25.087815","6500100","板橋區"
