"lineid","car","time","location","longitude","latitude","cityid","cityname"
"248005","653-BX","2017/10/02 09:06:05","新北市五股區水碓路16巷32號","121.433961666667","25.0729033333333","6501500","五股區"
"232017","705-BZ","2017/10/02 09:05:59","新北市坪林區坪雙路一段115號","121.728263333333","24.9482133333333","6502000","坪林區"
"232005","758-BX","2017/10/02 09:05:58","新北市坪林區魚堀8-5號","121.709248333333","24.9062083333333","6502000","坪林區"
"244012","069-UM","2017/10/02 09:06:15","新北市林口區信義路58-8號","121.382246666667","25.07887","6501700","林口區"
"244006","080-UY","2017/10/02 09:05:58","新北市林口區林口路190號","121.387476666667","25.0828366666667","6501700","林口區"
"244018","403-UM","2017/10/02 09:06:08","新北市林口區忠孝路542巷5弄3號","121.373378333333","25.0675816666667","6501700","林口區"
"244008","410-SL","2017/10/02 09:06:16","新北市林口區文林一街115巷18號","121.378886666667","25.0876516666667","6501700","林口區"
"244022","483-VK","2017/10/02 09:06:06","新北市林口區東湖一街16號","121.384543333333","25.072205","6501700","林口區"
"244016","485-VK","2017/10/02 09:06:06","新北市林口區文化二路一段20巷25弄19號","121.365635","25.0673733333333","6501700","林口區"
"244010","656-BX","2017/10/02 09:06:09","新北市林口區新寮1-64號","121.393028333333","25.076705","6501700","林口區"
"244001","657-BX","2017/10/02 09:06:09","新北市林口區粉寮路17-3號","121.398845","25.0808266666667","6501700","林口區"
"244024","837-TS","2017/10/02 09:06:09","新北市林口區仁愛二路101-1號","121.367873333333","25.0752166666667","6501700","林口區"
"222005","289-BY","2017/10/02 09:04:38","新北市深坑區土庫尖路75-1號","121.631183333333","25.0182433333333","6501800","深坑區"
"231007","189-VK","2017/10/02 09:06:10","新北市新店區新潭路三段215巷25號","121.508138333333","24.9040483333333","6500600","新店區"
"231008","192-VK","2017/10/02 09:06:04","新北市新店區桂山路37號","121.560416666667","24.9017966666667","6500600","新店區"
"226005","5620-A6","2017/10/02 09:06:10","新北市平溪區十分里十分街239號","121.778023333333","25.0441933333333","6502400","平溪區"
"226001","7418-A5","2017/10/02 09:06:07","新北市平溪區東勢里番仔坑34-3號","121.749496666667","24.9832366666667","6502400","平溪區"
"226003","AGD-0702","2017/10/02 09:06:08","新北市平溪區十分里十分街238號","121.778146666667","25.044105","6502400","平溪區"
"223002","198-BX","2017/10/02 09:05:58","新北市深坑區文山路一段8號","121.644443333333","25.0086666666667","6501900","石碇區"
"223003","205-TH","2017/10/02 09:06:00","新北市石碇區北宜路六段十三股巷2-1號","121.65023","24.9448766666667","6501900","石碇區"
"223008","406-TH","2017/10/02 09:06:06","新北市石碇區光明路10號","121.68131","25.027895","6501900","石碇區"
"223001","437-BY","2017/10/02 09:06:03","新北市石碇區北宜路六段十三股巷1號","121.649721666667","24.945385","6501900","石碇區"
"223004","660-BX","2017/10/02 09:06:01","新北市石碇區崩山24-2號","121.678671666667","24.9678366666667","6501900","石碇區"
"223007","661-BX","2017/10/02 09:06:04","新北市石碇區碇南路二段1-1號","121.671353333333","25.02259","6501900","石碇區"
"223005","677-TV","2017/10/02 09:06:14","新北市石碇區崩山24-2號","121.67868","24.967825","6501900","石碇區"
"227005","282-VK","2017/10/02 09:05:08","新北市雙溪區泰平里溪尾寮3號","121.818536666667","24.9703883333333","6502500","雙溪區"
"253003","6232-TK","2017/10/02 09:06:02","新北市石門區尖子鹿8號","121.575145","25.27997","6502200","石門區"
"253001","6251-TK","2017/10/02 09:06:09","新北市石門區下員坑50-1號","121.518593333333","25.272325","6502200","石門區"
"253002","637-UY","2017/10/02 09:04:33","新北市石門區尖山湖19號","121.558578333333","25.24701","6502200","石門區"
"253004","8270-PC","2017/10/02 09:04:43","新北市石門區草埔尾34-5號","121.60297","25.265115","6502200","石門區"
"239001","050-UM","2017/10/02 09:06:06","新北市鶯歌區永樂街22號","121.342003333333","24.9531483333333","6500800","鶯歌區"
"252006","073-UM","2017/10/02 09:06:10","新北市三芝區古庄里山豬堀13-3號","121.492391666667","25.25909","6502100","三芝區"
"252004","249-BX","2017/10/02 09:06:11","新北市三芝區興華里田心子21-3號","121.492508333333","25.1998433333333","6502100","三芝區"
"237001","159-UY","2017/10/02 09:04:57","新北市樹林區中山路三段214號","121.380183333333","24.9678583333333","6500900","三峽區"
"237010","760-BX","2017/10/02 09:06:14","新北市三峽區金敏3號","121.381806666667","24.876545","6500900","三峽區"
"236007","165-UM","2017/10/02 09:06:13","新北市土城區明德路一段398-1號","121.45344","24.9792833333333","6501300","土城區"
"236001","339-SR","2017/10/02 09:06:03","新北市土城區中央路三段85-4號","121.437991666667","24.9680283333333","6501300","土城區"
"236005","498-BY","2017/10/02 09:05:58","新北市土城區承天路33號","121.437176666667","24.96506","6501300","土城區"
"242030","AAC-296","2017/10/02 09:06:04","新北市新莊區公園一路138號","121.446318333333","25.0381616666667","6500500","新莊區"
"242028","986-R7","2017/10/02 09:06:01","新北市新莊區中原路132號","121.449803333333","25.0543416666667","6500500","新莊區"
"242049","751-BX","2017/10/02 09:05:55","新北市新莊區民安西路252巷31號","121.425021666667","25.013935","6500500","新莊區"
"242024","615-BX","2017/10/02 09:06:14","新北市新莊區五工一路80巷14號","121.461206666667","25.0668583333333","6500500","新莊區"
"242022","613-BX","2017/10/02 09:06:07","新北市新莊區化成路463-1號","121.464711666667","25.0623116666667","6500500","新莊區"
"242026","612-BX","2017/10/02 09:05:59","新北市新莊區立信五街6號","121.444436666667","25.0515766666667","6500500","新莊區"
"242038","566-BX","2017/10/02 09:06:00","新北市新莊區龍安路481號","121.425521666667","25.0181283333333","6500500","新莊區"
"242043","497-BY","2017/10/02 09:05:59","新北市新莊區中正路925號","121.41057","25.0211466666667","6500500","新莊區"
"242003","442-UM","2017/10/02 09:06:08","新北市新莊區化成路63巷24弄5號","121.462898333333","25.0458916666667","6500500","新莊區"
"242047","441-UM","2017/10/02 09:06:12","新北市新莊區四維路152巷47號","121.42187","25.0219733333333","6500500","新莊區"
"242052","440-UM","2017/10/02 09:06:07","新北市新莊區西盛街390號","121.427765","25.012855","6500500","新莊區"
"242033","415-TV","2017/10/02 09:05:59","新北市新莊區中正路318巷16號","121.44645","25.0358766666667","6500500","新莊區"
"242040","400-BY","2017/10/02 09:06:12","新北市新莊區新北大道七段356號","121.413156666667","25.0311566666667","6500500","新莊區"
"242059","362-BY","2017/10/02 09:06:12","新北市新莊區瓊林路72-1號","121.445075","25.0286933333333","6500500","新莊區"
"242057","353-BY","2017/10/02 09:06:05","新北市新莊區八德街31號","121.424941666667","25.02236","6500500","新莊區"
"242006","132-UY","2017/10/02 09:06:14","新北市新莊區福壽街94巷19弄1號","121.459186666667","25.0502483333333","6500500","新莊區"
"242035","133-UY","2017/10/02 09:06:09","新北市新莊區建安街41巷10號","121.429066666667","25.0250883333333","6500500","新莊區"
"242020","135-UY","2017/10/02 09:05:59","新北市新莊區新泰路306號","121.445363333333","25.0410433333333","6500500","新莊區"
"242045","172-VK","2017/10/02 09:06:09","新北市新莊區裕民街55巷14號","121.419128333333","25.0236516666667","6500500","新莊區"
"242008","173-VK","2017/10/02 09:06:13","新北市新莊區幸福路64巷4弄5號","121.457381666667","25.049995","6500500","新莊區"
"242014","175-VK","2017/10/02 09:06:12","新北市新莊區永樂街237巷2號","121.446296666667","25.0443066666667","6500500","新莊區"
"242001","176-VK","2017/10/02 09:06:07","新北市新莊區化成路3-1號","121.464288333333","25.0416866666667","6500500","新莊區"
"242012","346-TH","2017/10/02 09:05:57","新北市新莊區中平路270巷5號","121.445241666667","25.0502583333333","6500500","新莊區"
"242018","348-TH","2017/10/02 09:06:13","新北市新莊區銘德街83號","121.456268333333","25.0433733333333","6500500","新莊區"
"242055","349-TH","2017/10/02 09:06:08","新北市新莊區新豐街20巷13號","121.447573333333","25.0343016666667","6500500","新莊區"
"242016","350-TH","2017/10/02 09:06:06","新北市新莊區復興路一段51號","121.447216666667","25.042265","6500500","新莊區"
"242010","351-TH","2017/10/02 09:06:15","新北市新莊區中信街37巷2弄2號","121.45031","25.0505883333333","6500500","新莊區"
"220064","282-UM","2017/10/02 09:06:03","新北市新莊區新泰路357巷3弄33號","121.442045","25.04049","6500100","板橋區"
