"lineid","car","time","location","longitude","latitude","cityid","cityname"
"248005","653-BX","2017/10/02 09:16:05","新北市五股區自強路78號","121.432675","25.0729966666667","6501500","五股區"
"244012","069-UM","2017/10/02 09:15:55","新北市林口區中正路512號","121.381756666667","25.077455","6501700","林口區"
"244006","080-UY","2017/10/02 09:15:58","新北市林口區竹林路564號","121.386825","25.0836883333333","6501700","林口區"
"244018","403-UM","2017/10/02 09:16:08","新北市林口區文化一路一段124號","121.37516","25.0724566666667","6501700","林口區"
"244008","410-SL","2017/10/02 09:15:55","新北市林口區林口路245號","121.386473333333","25.08388","6501700","林口區"
"244022","483-VK","2017/10/02 09:16:06","新北市林口區東湖路153巷135號","121.382201666667","25.073585","6501700","林口區"
"244016","485-VK","2017/10/02 09:16:06","新北市林口區文化二路一段120巷7號","121.367918333333","25.0698333333333","6501700","林口區"
"244010","656-BX","2017/10/02 09:15:49","新北市林口區仁愛路一段285巷92號","121.394966666667","25.0750966666667","6501700","林口區"
"244024","837-TS","2017/10/02 09:16:09","新北市林口區中山路49號","121.394508333333","25.078475","6501700","林口區"
"222005","289-BY","2017/10/02 09:04:38","新北市深坑區土庫尖路75-1號","121.631183333333","25.0182433333333","6501800","深坑區"
"231007","189-VK","2017/10/02 09:16:10","新北市新店區新潭路三段215巷25號","121.508146666667","24.9040466666667","6500600","新店區"
"231008","192-VK","2017/10/02 09:16:05","新北市新店區廣興路30號","121.540633333333","24.9116233333333","6500600","新店區"
"226005","5620-A6","2017/10/02 09:15:50","新北市平溪區靜安路三段272號","121.776363333333","25.04057","6502400","平溪區"
"226001","7418-A5","2017/10/02 09:16:07","新北市平溪區東勢里番仔坑34-3號","121.749501666667","24.983185","6502400","平溪區"
"223002","198-BX","2017/10/02 09:16:00","新北市深坑區昇高坑路72號","121.630793333333","24.9903433333333","6501900","石碇區"
"223003","205-TH","2017/10/02 09:16:00","新北市石碇區北宜路五段66號","121.638381666667","24.9537033333333","6501900","石碇區"
"223008","406-TH","2017/10/02 09:16:06","新北市石碇區光明路13號","121.680028333333","25.033685","6501900","石碇區"
"223001","437-BY","2017/10/02 09:16:03","新北市石碇區北宜路五段十股寮巷3號","121.64036","24.9519583333333","6501900","石碇區"
"223004","660-BX","2017/10/02 09:16:01","新北市石碇區崩山24-2號","121.67944","24.9681383333333","6501900","石碇區"
"223007","661-BX","2017/10/02 09:16:04","新北市石碇區碇南路二段8號","121.666986666667","25.03119","6501900","石碇區"
"223005","677-TV","2017/10/02 09:15:54","新北市石碇區崩山57-3號","121.681765","24.96608","6501900","石碇區"
"227005","282-VK","2017/10/02 09:05:08","新北市雙溪區泰平里溪尾寮3號","121.818536666667","24.9703883333333","6502500","雙溪區"
"253003","6232-TK","2017/10/02 09:16:02","新北市石門區尖子鹿50號","121.580173333333","25.2735516666667","6502200","石門區"
"253001","6251-TK","2017/10/02 09:16:09","新北市石門區八甲73號","121.529906666667","25.2635483333333","6502200","石門區"
"253002","637-UY","2017/10/02 09:04:33","新北市石門區尖山湖19號","121.558578333333","25.24701","6502200","石門區"
"253004","8270-PC","2017/10/02 09:16:04","新北市石門區小坑34號","121.597498333333","25.2668533333333","6502200","石門區"
"239001","050-UM","2017/10/02 09:16:06","新北市鶯歌區建國路512巷39號","121.339256666667","24.951175","6500800","鶯歌區"
"252004","249-BX","2017/10/02 09:15:52","新北市三芝區興華里車埕69-3號","121.493336666667","25.1936783333333","6502100","三芝區"
"237001","159-UY","2017/10/02 09:15:57","新北市三峽區學府路112號","121.37426","24.9490116666667","6500900","三峽區"
"237010","760-BX","2017/10/02 09:15:54","新北市三峽區中正路二段41號","121.366758333333","24.9187566666667","6500900","三峽區"
"236007","165-UM","2017/10/02 09:16:13","新北市土城區中央路四段11號","121.425301666667","24.9629633333333","6501300","土城區"
"236001","339-SR","2017/10/02 09:16:03","新北市土城區中央路二段276-1號","121.440876666667","24.9743283333333","6501300","土城區"
"236005","498-BY","2017/10/02 09:16:06","新北市土城區中央路三段76巷42-1號","121.435745","24.9690116666667","6501300","土城區"
"242030","AAC-296","2017/10/02 09:16:04","新北市新莊區忠孝街3號","121.443943333333","25.0346516666667","6500500","新莊區"
"242028","986-R7","2017/10/02 09:16:01","新北市新莊區昌平街19號","121.454295","25.0514033333333","6500500","新莊區"
"242049","751-BX","2017/10/02 09:16:06","新北市新莊區西盛街278號","121.427975","25.0153083333333","6500500","新莊區"
"242024","615-BX","2017/10/02 09:15:54","新北市新莊區五工二路50巷7號","121.461105","25.0655516666667","6500500","新莊區"
"242022","613-BX","2017/10/02 09:16:07","新北市新莊區化成路654號","121.465978333333","25.0559133333333","6500500","新莊區"
"242026","612-BX","2017/10/02 09:15:59","新北市新莊區幸福路38號","121.458001666667","25.049475","6500500","新莊區"
"242038","566-BX","2017/10/02 09:16:00","新北市新莊區成功街41號","121.425295","25.0209666666667","6500500","新莊區"
"242043","497-BY","2017/10/02 09:15:59","新北市新莊區中正路895-29號","121.412045","25.0218483333333","6500500","新莊區"
"242003","442-UM","2017/10/02 09:16:08","新北市新莊區化成路422號","121.465986666667","25.051","6500500","新莊區"
"242047","441-UM","2017/10/02 09:15:52","新北市新莊區龍安路287號","121.420668333333","25.0198183333333","6500500","新莊區"
"242052","440-UM","2017/10/02 09:16:01","新北市新莊區西盛街362巷15號","121.427196666667","25.0136233333333","6500500","新莊區"
"242033","415-TV","2017/10/02 09:15:57","新北市新莊區仁愛街54巷1號","121.445016666667","25.0371416666667","6500500","新莊區"
"242040","400-BY","2017/10/02 09:16:11","新北市新莊區中正路694巷12號","121.418261666667","25.0285616666667","6500500","新莊區"
"242059","362-BY","2017/10/02 09:16:04","新北市新莊區瓊林路100巷1號","121.443431666667","25.0263883333333","6500500","新莊區"
"242057","353-BY","2017/10/02 09:16:05","新北市新莊區八德街115號","121.424036666667","25.0207816666667","6500500","新莊區"
"242006","132-UY","2017/10/02 09:16:10","新北市新莊區思源路287巷2弄13號","121.459178333333","25.04881","6500500","新莊區"
"242035","133-UY","2017/10/02 09:16:09","新北市新莊區建安街9巷9號","121.429315","25.0266983333333","6500500","新莊區"
"242020","135-UY","2017/10/02 09:15:59","新北市新莊區公園路10巷1號","121.447831666667","25.0388066666667","6500500","新莊區"
"242045","172-VK","2017/10/02 09:15:59","新北市新莊區中正路新生巷42號","121.417186666667","25.0233766666667","6500500","新莊區"
"242014","175-VK","2017/10/02 09:15:59","新北市新莊區中平路82巷29號","121.446128333333","25.0449716666667","6500500","新莊區"
"242001","176-VK","2017/10/02 09:16:05","新北市新莊區明中街43巷29號","121.457016666667","25.0385566666667","6500500","新莊區"
"242012","346-TH","2017/10/02 09:15:57","新北市新莊區中和街175巷13號","121.447008333333","25.05062","6500500","新莊區"
"242018","348-TH","2017/10/02 09:15:55","新北市新莊區思源路129巷20號","121.4585","25.043565","6500500","新莊區"
"242055","349-TH","2017/10/02 09:15:57","新北市新莊區豐年街28巷1弄11號","121.446115","25.0318816666667","6500500","新莊區"
"242016","350-TH","2017/10/02 09:16:06","新北市新莊區新北大道四段261號","121.44241","25.055905","6500500","新莊區"
"242010","351-TH","2017/10/02 09:16:05","新北市新莊區中義街36號","121.450096666667","25.0512133333333","6500500","新莊區"
"220064","282-UM","2017/10/02 09:16:03","新北市板橋區華東街1-9號","121.448185","24.99482","6500100","板橋區"
