"lineid","car","time","location","longitude","latitude","cityid","cityname"
"244018","403-UM","2017/10/02 10:29:48","新北市林口區四維路130號","121.379203333333","25.0771533333333","6501700","林口區"
"244022","483-VK","2017/10/02 10:30:06","新北市林口區文化北路二段8-1號","121.369563333333","25.08151","6501700","林口區"
"244025","837-TS","2017/10/02 09:37:08","新北市林口區粉寮路二段160巷28號","121.405171666667","25.0907683333333","6501700","林口區"
"243008","680-BX","2017/10/02 09:33:42","新北市泰山區黎明路31號","121.421775","25.060585","6501600","泰山區"
"231007","189-VK","2017/10/02 10:29:50","新北市新店區小坑三路79-1號","121.514926666667","24.9092383333333","6500600","新店區"
"231008","192-VK","2017/10/02 10:30:04","新北市新店區小坑一路35巷2號","121.527626666667","24.9083433333333","6500600","新店區"
"227005","282-VK","2017/10/02 10:09:48","新北市雙溪區泰平里灣潭路36號","121.81208","24.9287933333333","6502500","雙溪區"
"253003","6232-TK","2017/10/02 10:30:02","新北市石門區阿里磅1號","121.5866","25.2918616666667","6502200","石門區"
"253001","6251-TK","2017/10/02 10:30:09","新北市石門區崁子腳30-1號","121.536151666667","25.287635","6502200","石門區"
"253002","637-UY","2017/10/02 10:25:52","新北市石門區尖子鹿79號","121.572203333333","25.2959833333333","6502200","石門區"
"253004","8270-PC","2017/10/02 10:27:54","新北市石門區坪林52-1號","121.597491666667","25.273415","6502200","石門區"
"239001","050-UM","2017/10/02 10:30:05","新北市鶯歌區東湖路13-7號","121.353095","24.97132","6500800","鶯歌區"
"252006","AAC-283","2017/10/02 10:29:50","新北市三芝區新庄里番社后24-1號","121.500613333333","25.2725983333333","6502100","三芝區"
"237010","760-BX","2017/10/02 09:41:20","新北市三峽區中山路459巷163-3號","121.348881666667","24.9330633333333","6500900","三峽區"
"236001","339-SR","2017/10/02 10:30:03","新北市土城區明德路二段68-2號","121.44756","24.9833366666667","6501300","土城區"
"242047","441-UM","2017/10/02 10:29:51","新北市八里區中山路三段380號","121.36907","25.1361866666667","6500500","新莊區"
"242059","362-BY","2017/10/02 10:30:04","新北市林口區太平里180號","121.366495","25.134535","6500500","新莊區"
