"lineid","car","time","location","longitude","latitude","cityid","cityname"
"244025","837-TS","2017/10/02 09:37:08","新北市林口區粉寮路二段160巷28號","121.405171666667","25.0907683333333","6501700","林口區"
"243008","680-BX","2017/10/02 09:33:42","新北市泰山區黎明路31號","121.421775","25.060585","6501600","泰山區"
"231007","189-VK","2017/10/02 10:59:50","新北市新店區新潭路二段9號","121.527795","24.926325","6500600","新店區"
"231008","192-VK","2017/10/02 10:59:44","新北市新店區成功路43號","121.542578333333","24.9006583333333","6500600","新店區"
"227005","282-VK","2017/10/02 10:59:48","新北市雙溪區泰平里溪尾寮46號","121.821388333333","24.9675833333333","6502500","雙溪區"
"253003","6232-TK","2017/10/02 11:00:02","新北市石門區小坑9號","121.59446","25.28914","6502200","石門區"
"239001","050-UM","2017/10/02 10:59:45","新北市樹林區中山路三段214號","121.380231666667","24.9680433333333","6500800","鶯歌區"
"237010","760-BX","2017/10/02 09:41:20","新北市三峽區中山路459巷163-3號","121.348881666667","24.9330633333333","6500900","三峽區"
"242059","362-BY","2017/10/02 11:00:04","新北市新莊區新泰路357巷3弄57號","121.442098333333","25.0397066666667","6500500","新莊區"
