"lineid","car","time","location","longitude","latitude","cityid","cityname"
"234005","208-UY","2017/10/02 14:49:41","新北市永和區安樂路218號","121.515028333333","25.0021333333333","6500400","永和區"
"234084","338-UY","2017/10/02 12:38:27","新北市永和區福和路1號","121.52645","25.0097516666667","6500400","永和區"
"234028","746-BX","2017/10/02 14:49:31","新北市中和區中正路456號","121.490723333333","24.9943633333333","6500400","永和區"
"234025","9371-KE","2017/10/02 14:49:31","新北市永和區雙和街52巷1號","121.508966666667","25.0032366666667","6500400","永和區"
"248015","026-BX","2017/10/02 14:49:37","新北市五股區成泰路三段577巷80弄50號","121.44966","25.1049366666667","6501500","五股區"
"248007","095-VK","2017/10/02 14:49:30","新北市五股區四維路118巷9號","121.468791666667","25.0743716666667","6501500","五股區"
"248011","247-BX","2017/10/02 14:49:30","新北市五股區民義路一段212號","121.430568333333","25.0894266666667","6501500","五股區"
"248013","261-SL","2017/10/02 14:49:31","新北市五股區五福路24號","121.434376666667","25.0889333333333","6501500","五股區"
"248009","272-BY","2017/10/02 14:49:41","新北市五股區成泰路一段87-1號","121.435236666667","25.0686133333333","6501500","五股區"
"248003","677-BX","2017/10/02 14:49:42","新北市五股區成泰路一段197號","121.435046666667","25.076575","6501500","五股區"
"248001","678-BX","2017/10/02 14:49:42","新北市五股區成泰路三段149號","121.444868333333","25.09141","6501500","五股區"
"234072","AAC-211","2017/10/02 14:49:29","新北市中和區成功路137號","121.526908333333","24.989495","6500400","永和區"
"244001","657-BX","2017/10/02 14:49:38","新北市林口區竹林路265號","121.389536666667","25.0807483333333","6501700","林口區"
"244025","837-TS","2017/10/02 09:37:08","新北市林口區粉寮路二段160巷28號","121.405171666667","25.0907683333333","6501700","林口區"
"243005","AAD-798","2017/10/02 14:49:31","新北市泰山區應化街7號","121.423848333333","25.04373","6501600","泰山區"
"243001","297-R6","2017/10/02 14:49:28","新北市泰山區泰林路二段116巷3弄2號","121.435213333333","25.0596316666667","6501600","泰山區"
"243007","380-SR","2017/10/02 14:49:38","新北市泰山區明志路二段36號","121.429575","25.05318","6501600","泰山區"
"243006","421-VK","2017/10/02 14:49:31","新北市五股區成泰路一段7巷1號","121.433505","25.06656","6501600","泰山區"
"243002","KEA-2215","2017/10/02 14:49:34","新北市泰山區明志路二段214巷15號","121.426528333333","25.04904","6501600","泰山區"
"243003","KEA-2216","2017/10/02 14:49:32","新北市泰山區明志路三段442號","121.420978333333","25.0327483333333","6501600","泰山區"
"243004","646-TV","2017/10/02 14:49:25","新北市泰山區楓江路62號","121.436866666667","25.06337","6501600","泰山區"
"243008","680-BX","2017/10/02 14:49:45","新北市泰山區明志路三段277號","121.422826666667","25.0366333333333","6501600","泰山區"
"222005","289-BY","2017/10/02 14:37:53","新北市深坑區深坑街75號","121.614678333333","25.001315","6501800","深坑區"
"231002","002-UM","2017/10/02 14:49:43","新北市新店區民權路54號","121.538858333333","24.9829083333333","6500600","新店區"
"231028","046-UY","2017/10/02 14:49:33","新北市新店區安德街156號","121.508361666667","24.9594866666667","6500600","新店區"
"231030","047-UY","2017/10/02 14:49:37","新北市新店區安民街290號","121.517605","24.973355","6500600","新店區"
"231029","106-UY","2017/10/02 14:49:39","新北市新店區錦秀路11巷66號","121.480605","24.9434933333333","6500600","新店區"
"231018","107-UY","2017/10/02 14:49:32","新北市新店區中央路230號","121.529298333333","24.97285","6500600","新店區"
"231011","108-UY","2017/10/02 14:49:31","新北市新店區永華街57號","121.544615","24.9756333333333","6500600","新店區"
"231019","187-VK","2017/10/02 14:49:36","新北市新店區永福路38-6號","121.551236666667","24.92947","6500600","新店區"
"231014","215-TC","2017/10/02 14:49:25","新北市新店區北宜路三段211號","121.590748333333","24.95275","6500600","新店區"
"231023","AAD-862","2017/10/02 14:49:26","新北市新店區檳榔路174號","121.54428","24.9619083333333","6500600","新店區"
"231027","3712-VJ","2017/10/02 14:49:28","新北市新店區中正路334巷5號","121.536876666667","24.975335","6500600","新店區"
"231024","3713-VJ","2017/10/02 14:49:43","新北市新店區新生街5巷10號","121.539858333333","24.9657333333333","6500600","新店區"
"231025","4716-K9","2017/10/02 14:49:37","新北市新店區民族路161號","121.537576666667","24.9767633333333","6500600","新店區"
"231038","4715-K9","2017/10/02 14:49:33","新北市新店區安康路一段76巷34-1號","121.52853","24.9635233333333","6500600","新店區"
"231036","512-UM","2017/10/02 14:49:39","新北市新店區安祥路104巷6弄8號","121.48168","24.96268","6500600","新店區"
"231035","515-UM","2017/10/02 14:49:28","新北市新店區安和路二段148號","121.519673333333","24.9730233333333","6500600","新店區"
"231006","617-UM","2017/10/02 14:49:42","新北市新店區北宜路一段145號","121.54137","24.9529483333333","6500600","新店區"
"231001","619-UM","2017/10/02 14:49:32","新北市新店區三民路40號","121.536191666667","24.9715016666667","6500600","新店區"
"231003","641-BX","2017/10/02 14:49:42","新北市新店區中興路二段121巷1號","121.547518333333","24.97202","6500600","新店區"
"231034","645-TV","2017/10/02 14:49:40","新北市新店區安康路二段318-1號","121.504803333333","24.9581083333333","6500600","新店區"
"231039","718-UY","2017/10/02 14:49:36","新北市新店區寶中路45-3號","121.545185","24.97903","6500600","新店區"
"231013","719-UM","2017/10/02 14:49:38","新北市新店區北新路二段97巷9弄17號","121.542191666667","24.9738083333333","6500600","新店區"
"231031","720-UM","2017/10/02 14:49:37","新北市新店區安康路二段311號","121.499963333333","24.9569166666667","6500600","新店區"
"231005","897-TW","2017/10/02 14:49:38","新北市新店區復興路107號","121.534471666667","24.9879283333333","6500600","新店區"
"231004","899-TW","2017/10/02 14:49:34","新北市新店區民族路161號","121.537736666667","24.9769516666667","6500600","新店區"
"231037","AKT-0513","2017/10/02 14:49:32","新北市新店區柴埕路60巷1-1號","121.510298333333","24.9634166666667","6500600","新店區"
"235030","003-UY","2017/10/02 14:49:32","新北市中和區光華街1號","121.504273333333","25.0045","6500300","中和區"
"235027","006-UY","2017/10/02 14:49:30","新北市中和區連城路263巷5弄2號","121.492125","24.9960816666667","6500300","中和區"
"235021","031-BX","2017/10/02 14:49:37","新北市中和區員山路189號","121.48123","24.9972833333333","6500300","中和區"
"235020","096-UM","2017/10/02 14:49:30","新北市中和區民富街86號","121.47646","25.0082233333333","6500300","中和區"
"235003","097-UM","2017/10/02 14:49:27","新北市中和區安平路196號","121.5133","24.9995166666667","6500300","中和區"
"235029","098-UM","2017/10/02 14:49:34","新北市中和區福祥路57號","121.499306666667","25.0045733333333","6500300","中和區"
"235004","150-BY","2017/10/02 14:49:26","新北市中和區安平路59號","121.50978","24.9951133333333","6500300","中和區"
"235022","151-BY","2017/10/02 14:49:47","新北市中和區員山路150-11號","121.481365","24.9976383333333","6500300","中和區"
"235019","183-VK","2017/10/02 14:49:35","新北市中和區民德路19號","121.468816666667","25.0028","6500300","中和區"
"235002","185-VK","2017/10/02 14:49:40","新北市中和區自立路29巷14弄30號","121.522903333333","24.99517","6500300","中和區"
"235013","186-VK","2017/10/02 14:49:41","新北市中和區中正路2-1號","121.503053333333","24.9936466666667","6500300","中和區"
"235031","255-BX","2017/10/02 14:49:33","新北市中和區員山路148巷23弄28號","121.482285","24.9978116666667","6500300","中和區"
"235008","293-VK","2017/10/02 14:49:43","新北市中和區捷運路127號","121.506965","24.990495","6500300","中和區"
"235036","301-VK","2017/10/02 14:49:37","新北市中和區連城路110號","121.49631","24.9997483333333","6500300","中和區"
"235007","352-BY","2017/10/02 14:49:30","新北市中和區安和路29號","121.510438333333","24.9944133333333","6500300","中和區"
"235032","375-QA","2017/10/02 14:49:30","新北市中和區莊敬路16巷15弄4號","121.50029","25.0037066666667","6500300","中和區"
"235015","376-QA","2017/10/02 14:49:36","新北市中和區復興路275號","121.502501666667","24.9903566666667","6500300","中和區"
"235025","378-QA","2017/10/02 14:49:33","新北市中和區員山路160號","121.481383333333","24.9994883333333","6500300","中和區"
"235035","269-TV","2017/10/02 14:49:39","新北市中和區建康路51號","121.48698","25.0001166666667","6500300","中和區"
"235014","4979-A6","2017/10/02 14:49:37","新北市中和區景平路239巷36號","121.508396666667","24.9921833333333","6500300","中和區"
"235033","4980-A6","2017/10/02 14:49:42","新北市中和區光華街22號","121.504398333333","25.0042833333333","6500300","中和區"
"235006","551-UM","2017/10/02 14:49:39","新北市中和區景安路79巷15號","121.506933333333","24.9969016666667","6500300","中和區"
"235034","558-UM","2017/10/02 14:48:20","新北市中和區連城路94號","121.496448333333","25.00086","6500300","中和區"
"235009","565-BX","2017/10/02 14:49:27","新北市中和區景平路310號","121.512553333333","24.992705","6500300","中和區"
"235018","640-BX","2017/10/02 14:49:40","新北市中和區莒光路151號","121.472655","25.0010816666667","6500300","中和區"
"235024","647-TV","2017/10/02 14:49:46","新北市中和區中山路二段493號","121.482551666667","25.0049983333333","6500300","中和區"
"235011","732-UM","2017/10/02 14:49:28","新北市中和區和平街74號","121.507891666667","24.9911866666667","6500300","中和區"
"235010","733-UM","2017/10/02 14:49:40","新北市中和區仁愛街53號","121.511256666667","24.9880066666667","6500300","中和區"
"235026","800-TS","2017/10/02 14:49:32","新北市中和區中山路二段389號","121.486785","25.0048766666667","6500300","中和區"
"235005","802-TS","2017/10/02 14:49:33","新北市中和區景安路1號","121.508061666667","24.9992283333333","6500300","中和區"
"235016","805-TS","2017/10/02 14:49:35","新北市中和區華新街51號","121.507871666667","24.9844583333333","6500300","中和區"
"235012","896-TW","2017/10/02 14:49:35","新北市中和區忠孝街142號","121.5124","24.9871683333333","6500300","中和區"
"235017","900-TW","2017/10/02 14:49:33","新北市中和區德光路151號","121.467791666667","25.00222","6500300","中和區"
"235001","AAC-213","2017/10/02 14:49:32","新北市中和區秀朗路三段173-2號","121.524468333333","24.9915383333333","6500300","中和區"
"235023","AAC-215","2017/10/02 14:49:42","新北市中和區圓通路305巷25弄6號","121.494933333333","24.9894983333333","6500300","中和區"
"220013","072-UY","2017/10/02 14:49:35","新北市板橋區國泰街25巷8-2號","121.46918","25.0061166666667","6500100","板橋區"
"220105","075-UY","2017/10/02 14:49:31","新北市板橋區文化路二段650巷19號","121.477916666667","25.0349483333333","6500100","板橋區"
"220017","AAD-861","2017/10/02 14:49:33","新北市板橋區南雅南路二段28號","121.454333333333","25.0031416666667","6500100","板橋區"
"220016","120-SR","2017/10/02 14:49:43","新北市板橋區中山路二段412巷31號","121.483858333333","25.0198316666667","6500100","板橋區"
"247021","893-R6","2017/10/02 14:49:38","新北市蘆洲區仁愛街212巷8號","121.46434","25.0942283333333","6501400","蘆洲區"
"247019","500-BY","2017/10/02 14:49:41","新北市蘆洲區民族路359巷7號","121.472136666667","25.0912583333333","6501400","蘆洲區"
"247009","339-TH","2017/10/02 14:49:38","新北市蘆洲區信義路222巷47號","121.48049","25.0855816666667","6501400","蘆洲區"
"247001","337-TH","2017/10/02 14:49:36","新北市蘆洲區長安街246巷37號","121.458765","25.0866316666667","6501400","蘆洲區"
"247015","057-VK","2017/10/02 14:49:45","新北市蘆洲區正和街96巷18號","121.467881666667","25.0811766666667","6501400","蘆洲區"
"247007","053-VK","2017/10/02 14:49:33","新北市蘆洲區信義路65號","121.475876666667","25.07947","6501400","蘆洲區"
"247013","007-UY","2017/10/02 14:49:27","新北市蘆洲區成功路120號","121.472203333333","25.0826433333333","6501400","蘆洲區"
"247023","002-UY","2017/10/02 14:49:35","新北市蘆洲區和平路90號","121.469268333333","25.07926","6501400","蘆洲區"
"208004","AAC-292","2017/10/02 14:49:32","新北市金山區兩湖里葵扇湖12-6號","121.59254","25.2325883333333","6502700","金山區"
"207002","749-BX","2017/10/02 14:49:31","新北市萬里區崁腳里崁腳路73號","121.647563333333","25.1596666666667","6502800","萬里區"
"207001","291-VK","2017/10/02 14:49:31","新北市萬里區雙興里豐稟路31-1號","121.64307","25.1810483333333","6502800","萬里區"
"252005","073-UM","2017/10/02 14:49:36","新北市三芝區埔坪里埔頭坑147號","121.509293333333","25.2498566666667","6502100","三芝區"
"237010","760-BX","2017/10/02 14:34:14","新北市三峽區中山路459巷163-3號","121.348953333333","24.9331483333333","6500900","三峽區"
"236064","105-UM","2017/10/02 14:49:39","新北市土城區金城路二段241號","121.455798333333","24.9825533333333","6501300","土城區"
"236040","107-UM","2017/10/02 14:49:42","新北市土城區裕民路114巷11號","121.45059","24.9860416666667","6501300","土城區"
"236074","166-UM","2017/10/02 14:49:33","新北市土城區中央路四段125巷15-2號","121.416956666667","24.9568833333333","6501300","土城區"
"236028","253-BX","2017/10/02 14:49:34","新北市土城區忠義路26巷10號","121.439876666667","24.9699133333333","6501300","土城區"
"236024","269-VK","2017/10/02 14:49:45","新北市土城區慶安街2號","121.442061666667","24.9735283333333","6501300","土城區"
"236012","270-VK","2017/10/02 14:49:35","新北市土城區金城路二段354巷4號","121.461233333333","24.985065","6501300","土城區"
"236032","271-VK","2017/10/02 14:49:42","新北市土城區明德路一段126號","121.4638","24.9789883333333","6501300","土城區"
"236016","401-BY","2017/10/02 14:49:30","新北市土城區延吉街206號","121.467655","24.9851033333333","6501300","土城區"
"236056","912-UM","2017/10/02 14:49:32","新北市土城區中央路三段155號","121.432071666667","24.9653966666667","6501300","土城區"
"236044","913-UM","2017/10/02 14:49:23","新北市土城區青雲路35號","121.460021666667","24.9886233333333","6501300","土城區"
"236060","915-UM","2017/10/02 14:49:28","新北市土城區金城路三段207巷6弄13號","121.470708333333","24.990305","6501300","土城區"
"236052","AAC-216","2017/10/02 14:49:29","新北市土城區裕民路164號","121.452248333333","24.9857633333333","6501300","土城區"
"242045","172-VK","2017/10/02 14:49:36","新北市土城區中華路一段226號","121.438591666667","24.980645","6500500","新莊區"
"221018","753-BX","2017/10/02 14:49:41","新北市汐止區忠孝東路359號","121.665681666667","25.0707066666667","6501100","汐止區"
"220027","145-BY","2017/10/02 14:49:33","新北市板橋區中正路183巷24-1號","121.455498333333","25.0162483333333","6500100","板橋區"
"220030","610-BX","2017/10/02 14:49:39","新北市板橋區大觀路三段236-6號","121.429275","24.9922233333333","6500100","板橋區"
"220050","245-BX","2017/10/02 14:49:27","新北市板橋區莊敬路234號","121.473276666667","25.0214433333333","6500100","板橋區"
"220040","267-BY","2017/10/02 14:49:41","新北市板橋區懷德街139巷5號","121.479501666667","25.0306033333333","6500100","板橋區"
"220004","276-BY","2017/10/02 14:49:38","新北市板橋區四川路二段47巷4弄2號","121.45414","24.99472","6500100","板橋區"
"220020","277-BY","2017/10/02 14:49:42","新北市板橋區金門街215巷36號","121.434066666667","24.989345","6500100","板橋區"
"220012","280-UM","2017/10/02 14:49:42","新北市板橋區館前東路98-2號","121.462536666667","25.0075616666667","6500100","板橋區"
"220019","283-VK","2017/10/02 14:49:34","新北市板橋區廣權路79號","121.463916666667","24.992415","6500100","板橋區"
"220043","285-UM","2017/10/02 14:49:27","新北市板橋區長江路一段112號","121.459793333333","25.0296683333333","6500100","板橋區"
"220001","285-VK","2017/10/02 14:49:42","新北市板橋區民享街23號","121.475348333333","25.0146016666667","6500100","板橋區"
"220031","286-VK","2017/10/02 14:49:27","新北市板橋區僑中二街8巷8-1號","121.446888333333","25.0113","6500100","板橋區"
"220029","287-VK","2017/10/02 14:46:04","新北市板橋區大觀路一段11號","121.450431666667","25.0084266666667","6500100","板橋區"
"220039","288-VK","2017/10/02 14:49:38","新北市板橋區龍泉街54巷8弄27號","121.45768","25.0270166666667","6500100","板橋區"
"220009","293-UM","2017/10/02 14:49:30","新北市板橋區板新路114號","121.471218333333","25.0154466666667","6500100","板橋區"
"220032","296-UM","2017/10/02 14:49:31","新北市板橋區滿平街11號","121.426321666667","24.99015","6500100","板橋區"
"220023","297-UM","2017/10/02 14:49:42","新北市板橋區大勇街28號","121.454156666667","25.0171333333333","6500100","板橋區"
"220010","305-R5","2017/10/02 14:49:43","新北市板橋區光復街33巷21號","121.482211666667","25.0189916666667","6500100","板橋區"
"220041","307-R5","2017/10/02 14:49:35","新北市板橋區四維路259巷42號","121.461405","25.0271933333333","6500100","板橋區"
"220047","317-R6","2017/10/02 14:49:34","新北市板橋區裕民街133巷2號","121.459276666667","25.0270766666667","6500100","板橋區"
"220038","487-VK","2017/10/02 14:49:44","新北市板橋區英士路61號","121.460561666667","25.0243033333333","6500100","板橋區"
"220037","491-VK","2017/10/02 14:49:40","新北市板橋區文化路二段488號","121.475331666667","25.0331466666667","6500100","板橋區"
"220104","560-BX","2017/10/02 14:49:38","新北市板橋區金華街21巷2號","121.45604","25.0207016666667","6500100","板橋區"
"220052","561-BX","2017/10/02 14:49:29","新北市板橋區文化路一段288號","121.46737","25.0215266666667","6500100","板橋區"
"220011","609-BX","2017/10/02 14:49:37","新北市板橋區三民路一段31巷15號","121.47995","25.0232533333333","6500100","板橋區"
"220028","630-UY","2017/10/02 14:49:40","新北市板橋區大觀路二段153巷46弄42號","121.449355","25.0002816666667","6500100","板橋區"
"220005","686-BX","2017/10/02 14:49:31","新北市板橋區廣和街63號","121.46256","24.9929483333333","6500100","板橋區"
"220025","687-BX","2017/10/02 14:49:34","新北市板橋區僑中二街126巷2號","121.445241666667","25.0051366666667","6500100","板橋區"
"220042","689-BX","2017/10/02 14:49:38","新北市板橋區長江路一段3號","121.457716666667","25.028705","6500100","板橋區"
"220002","741-BX","2017/10/02 14:49:27","新北市板橋區實踐路93巷62號","121.466445","25.00497","6500100","板橋區"
"220003","827-TW","2017/10/02 14:49:32","新北市板橋區仁愛路47巷2號","121.459833333333","24.999485","6500100","板橋區"
"220014","829-TW","2017/10/02 14:49:44","新北市板橋區長安街331巷28號","121.473823333333","25.0126316666667","6500100","板橋區"
"220051","830-TW","2017/10/02 14:49:45","新北市板橋區仁化街83號","121.475973333333","25.0319066666667","6500100","板橋區"
"220045","831-TW","2017/10/02 14:49:28","新北市板橋區民生路二段240巷9號","121.468801666667","25.0231933333333","6500100","板橋區"
"220022","895-R6","2017/10/02 14:49:43","新北市板橋區縣民大道一段297號","121.46116","25.0107083333333","6500100","板橋區"
"220021","985-R7","2017/10/02 14:49:39","新北市板橋區中正路232號","121.45575","25.018685","6500100","板橋區"
"220046","AAC-210","2017/10/02 14:49:38","新北市板橋區文化路一段307巷3號","121.4647","25.0192716666667","6500100","板橋區"
"220018","AAC-253","2017/10/02 14:49:33","新北市板橋區民族路105號","121.466781666667","25.0082933333333","6500100","板橋區"
