"lineid","car","time","location","longitude","latitude","cityid","cityname"
"234046","148-BY","2017/10/02 19:19:43","新北市永和區永元路18巷9號","121.523101666667","25.0002633333333","6500400","永和區"
"234013","149-BY","2017/10/02 19:19:43","新北市永和區仁愛路122號","121.511618333333","25.01323","6500400","永和區"
"234007","207-UY","2017/10/02 19:19:52","新北市永和區中山路一段242號","121.50771","25.0079166666667","6500400","永和區"
"234081","298-R6","2017/10/02 19:19:53","新北市永和區國中路148號","121.523028333333","25.0071033333333","6500400","永和區"
"234038","336-UY","2017/10/02 19:19:52","新北市永和區民樂街55巷2號","121.527441666667","24.9985","6500400","永和區"
"234064","337-UY","2017/10/02 19:19:49","新北市永和區永元路17巷15號","121.521313333333","25.0007833333333","6500400","永和區"
"234084","338-UY","2017/10/02 12:38:27","新北市永和區福和路1號","121.52645","25.0097516666667","6500400","永和區"
"234070","552-UM","2017/10/02 19:19:40","新北市永和區豫溪街55號","121.517208333333","25.00992","6500400","永和區"
"234054","553-UM","2017/10/02 19:19:42","新北市永和區中興街43號","121.516388333333","25.0117516666667","6500400","永和區"
"234017","745-BX","2017/10/02 19:19:43","新北市永和區文化路144巷31弄6-1號","121.512523333333","25.0167933333333","6500400","永和區"
"234030","746-BX","2017/10/02 19:19:44","新北市永和區厚德街54號","121.524741666667","24.9987583333333","6500400","永和區"
"234061","AAD-866","2017/10/02 19:19:49","新北市永和區秀朗路一段175號","121.517083333333","25.0036816666667","6500400","永和區"
"234086","847-RS","2017/10/02 19:19:53","新北市永和區永貞路93號","121.518246666667","25.0044016666667","6500400","永和區"
"234042","862-TW","2017/10/02 19:19:47","新北市永和區保平路151巷2弄6-3號","121.509611666667","25.0053116666667","6500400","永和區"
"234050","863-TW","2017/10/02 19:09:16","新北市永和區文化路135巷24弄2號","121.51059","25.0146133333333","6500400","永和區"
"234026","9371-KE","2017/10/02 19:19:48","新北市永和區安樂路98號","121.514171666667","24.9992533333333","6500400","永和區"
"234011","9373-KE","2017/10/02 19:19:53","新北市永和區仁愛路141巷5弄4號","121.511875","25.0120183333333","6500400","永和區"
"249005","172-UM","2017/10/02 19:19:42","新北市八里區中華路三段62號","121.394086666667","25.1403666666667","6502300","八里區"
"249001","173-UM","2017/10/02 19:19:50","新北市八里區中華路二段145號","121.409133333333","25.15238","6502300","八里區"
"249002","305-UY","2017/10/02 19:19:45","新北市八里區龍形一街33巷6-2號","121.449328333333","25.12947","6502300","八里區"
"249003","593-UM","2017/10/02 19:19:40","新北市八里區中山路二段448號","121.399448333333","25.147365","6502300","八里區"
"248018","225-UY","2017/10/02 19:19:52","新北市五股區民義路一段220巷17號","121.428803333333","25.0945716666667","6501500","五股區"
"248012","247-BX","2017/10/02 19:19:50","新北市五股區中興路四段48巷16號","121.438626666667","25.0834516666667","6501500","五股區"
"248010","272-BY","2017/10/02 19:19:49","新北市五股區水碓一路23號","121.430576666667","25.0712966666667","6501500","五股區"
"248004","677-BX","2017/10/02 19:19:55","新北市五股區五福路31號","121.43376","25.0893433333333","6501500","五股區"
"248002","678-BX","2017/10/02 19:19:47","新北市五股區凌雲路一段158巷1號","121.447731666667","25.1030516666667","6501500","五股區"
"234023","9380-KE","2017/10/02 19:19:48","新北市永和區竹林路124巷6號","121.519566666667","25.0113366666667","6500400","永和區"
"234077","969-R7","2017/10/02 19:19:51","新北市永和區民族街42號","121.518376666667","24.99884","6500400","永和區"
"234074","AAC-211","2017/10/02 19:19:45","新北市永和區竹林路104號","121.51967","25.011925","6500400","永和區"
"234067","AAC-212","2017/10/02 19:19:40","新北市永和區保平路50巷6號","121.511201666667","25.007345","6500400","永和區"
"234003","AAC-295","2017/10/02 19:19:54","新北市永和區永平路174號","121.510623333333","25.00909","6500400","永和區"
"244013","069-UM","2017/10/02 19:19:44","新北市林口區麗園一街4巷2號","121.37657","25.0710083333333","6501700","林口區"
"244019","403-UM","2017/10/02 19:19:47","新北市林口區麗園二街87號","121.38261","25.0668566666667","6501700","林口區"
"244023","483-VK","2017/10/02 19:19:53","新北市林口區嘉寶里42號","121.333638333333","25.1226","6501700","林口區"
"244011","656-BX","2017/10/02 19:19:41","新北市林口區中山路299號","121.38404","25.080305","6501700","林口區"
"244025","837-TS","2017/10/02 19:19:29","新北市林口區嘉寶里11鄰67號","121.339116666667","25.1102083333333","6501700","林口區"
"243013","AAD-798","2017/10/02 19:19:39","新北市泰山區明志路三段145巷2弄15號","121.425106666667","25.0394233333333","6501600","泰山區"
"243009","297-R6","2017/10/02 19:19:41","新北市泰山區和平街9-2號","121.43416","25.0646016666667","6501600","泰山區"
"243015","380-SR","2017/10/02 19:19:46","新北市泰山區公園路71號","121.426333333333","25.0554316666667","6501600","泰山區"
"243014","421-VK","2017/10/02 19:19:53","新北市泰山區泰林路二段85號","121.434808333333","25.0586916666667","6501600","泰山區"
"243010","KEA-2215","2017/10/02 19:19:39","新北市泰山區明志路一段492巷4弄1號","121.429963333333","25.0548133333333","6501600","泰山區"
"243011","KEA-2216","2017/10/02 19:19:42","新北市泰山區中央路11巷14號","121.426648333333","25.0425766666667","6501600","泰山區"
"243012","646-TV","2017/10/02 19:19:55","新北市泰山區仁愛路106號","121.4334","25.0555316666667","6501600","泰山區"
"243016","680-BX","2017/10/02 19:19:54","新北市泰山區工專路63號","121.422416666667","25.0405033333333","6501600","泰山區"
"222005","289-BY","2017/10/02 14:37:53","新北市深坑區深坑街75號","121.614678333333","25.001315","6501800","深坑區"
"222003","436-BY","2017/10/02 19:19:56","新北市深坑區深南路204號","121.62665","25.0160083333333","6501800","深坑區"
"222001","628-TS","2017/10/02 19:19:58","新北市深坑區北深路二段82號","121.617565","25.0035483333333","6501800","深坑區"
"222002","659-BX","2017/10/02 19:19:54","新北市深坑區北深路一段210號","121.63282","25.0109416666667","6501800","深坑區"
"231041","002-UM","2017/10/02 19:19:45","新北市新店區溪園路245-6號","121.525358333333","24.98326","6500600","新店區"
"231059","046-UY","2017/10/02 19:19:50","新北市新店區安和路三段16號","121.517953333333","24.9811616666667","6500600","新店區"
"231061","047-UY","2017/10/02 19:19:57","新北市新店區安康路一段258號","121.520575","24.964045","6500600","新店區"
"231060","106-UY","2017/10/02 19:19:53","新北市新店區安康路二段93號","121.513143333333","24.9627183333333","6500600","新店區"
"231051","107-UY","2017/10/02 19:19:46","新北市新店區中央路116號","121.531103333333","24.97513","6500600","新店區"
"231047","108-UY","2017/10/02 19:19:50","新北市新店區中興路二段33號","121.546136666667","24.9696316666667","6500600","新店區"
"231052","187-VK","2017/10/02 19:19:53","新北市新店區自強路122號","121.545978333333","24.9218966666667","6500600","新店區"
"231050","215-TC","2017/10/02 19:19:48","新北市新店區竹林路73號","121.553751666667","24.9511516666667","6500600","新店區"
"231046","278-BY","2017/10/02 19:19:39","新北市新店區華城路36巷1-1號","121.528436666667","24.9553216666667","6500600","新店區"
"231054","AAD-862","2017/10/02 19:19:49","新北市新店區國校路14號","121.5379","24.95547","6500600","新店區"
"231058","3712-VJ","2017/10/02 19:19:55","新北市新店區光明街286巷21號","121.541156666667","24.963405","6500600","新店區"
"231055","3713-VJ","2017/10/02 19:19:42","新北市新店區力行路30號","121.539171666667","24.9647183333333","6500600","新店區"
"231067","4772-VM","2017/10/02 19:19:56","新北市新店區柴埕路52巷1-1號","121.51185","24.964395","6500600","新店區"
"231065","512-UM","2017/10/02 19:19:48","新北市新店區安祥路118號","121.474616666667","24.9565866666667","6500600","新店區"
"231064","515-UM","2017/10/02 19:19:59","新北市新店區安忠路57巷26弄3號","121.513023333333","24.958725","6500600","新店區"
"231045","617-UM","2017/10/02 19:19:38","新北市新店區北宜路一段260號","121.54578","24.9527716666667","6500600","新店區"
"231040","619-UM","2017/10/02 19:19:55","新北市新店區三民路20巷2號","121.537713333333","24.97063","6500600","新店區"
"231042","641-BX","2017/10/02 19:19:46","新北市新店區光明街24號","121.538391666667","24.9586633333333","6500600","新店區"
"231063","645-TV","2017/10/02 19:19:49","新北市新店區達觀路14巷1-3號","121.504161666667","24.9419516666667","6500600","新店區"
"231049","719-UM","2017/10/02 19:19:48","新北市新店區明德路111號","121.541493333333","24.9794766666667","6500600","新店區"
"231062","720-UM","2017/10/02 19:19:40","新北市新店區莒光路99號","121.521901666667","24.9534316666667","6500600","新店區"
"231044","897-TW","2017/10/02 19:19:54","新北市新店區中興路三段327號","121.541886666667","24.9863183333333","6500600","新店區"
"231043","899-TW","2017/10/02 19:19:56","新北市新店區北新路二段141-1號","121.542888333333","24.9756966666667","6500600","新店區"
"231066","AKT-0513","2017/10/02 19:19:47","新北市新店區安康路三段456號","121.48437","24.9510833333333","6500600","新店區"
"241009","060-VK","2017/10/02 19:19:49","新北市三重區仁美街115號","121.485705","25.0810583333333","6500200","三重區"
"241031","061-VK","2017/10/02 19:19:55","新北市三重區重新路四段218號","121.485848333333","25.0542733333333","6500200","三重區"
"241017","063-VK","2017/10/02 19:19:46","新北市三重區大同北路182號","121.491648333333","25.06585","6500200","三重區"
"241026","265-UM","2017/10/02 19:19:49","新北市三重區中正南路248-6號","121.493326666667","25.0536983333333","6500200","三重區"
"241022","267-UM","2017/10/02 19:19:38","新北市三重區重陽路二段72號","121.487328333333","25.064115","6500200","三重區"
"241025","271-UM","2017/10/02 19:19:46","新北市三重區中正北路404號","121.475408333333","25.0703633333333","6500200","三重區"
"241020","413-TH","2017/10/02 19:19:55","新北市三重區後竹圍街107號","121.489026666667","25.0728733333333","6500200","三重區"
"241030","480-VK","2017/10/02 19:19:53","新北市三重區新興路42號","121.491451666667","25.0533483333333","6500200","三重區"
"241006","AAD-863","2017/10/02 19:19:50","新北市三重區力行路二段145號","121.483531666667","25.0773883333333","6500200","三重區"
"241035","743-BX","2017/10/02 19:19:54","新北市三重區新北大道一段1號","121.491348333333","25.061325","6500200","三重區"
"241029","942-UM","2017/10/02 19:19:39","新北市三重區重安街25號","121.490981666667","25.0571283333333","6500200","三重區"
"235066","003-UY","2017/10/02 19:19:46","新北市中和區中和路136號","121.503485","24.99942","6500300","中和區"
"235064","005-UY","2017/10/02 19:19:57","新北市中和區泰和街18號","121.49957","25.0009833333333","6500300","中和區"
"235063","006-UY","2017/10/02 19:19:43","新北市中和區連城路249巷21弄2號","121.494051666667","24.9959383333333","6500300","中和區"
"235057","031-BX","2017/10/02 19:19:42","新北市中和區民利街87號","121.47829","24.9980983333333","6500300","中和區"
"235056","096-UM","2017/10/02 19:19:52","新北市中和區中正路1163號","121.481806666667","25.0090583333333","6500300","中和區"
"235039","097-UM","2017/10/02 19:19:55","新北市中和區景平路64巷14弄15號","121.52278","24.991305","6500300","中和區"
"235065","098-UM","2017/10/02 19:19:40","新北市中和區中山路二段116巷3弄9號","121.502211666667","25.0040233333333","6500300","中和區"
"235040","150-BY","2017/10/02 19:19:46","新北市中和區保健路50巷8號","121.510223333333","24.9967066666667","6500300","中和區"
"235058","151-BY","2017/10/02 19:19:48","新北市中和區連城路477巷6弄26號","121.482366666667","24.9950516666667","6500300","中和區"
"235055","183-VK","2017/10/02 19:19:54","新北市中和區德光路55號","121.469996666667","25.0038816666667","6500300","中和區"
"235038","185-VK","2017/10/02 19:19:53","新北市中和區大仁街10巷9弄27號","121.519203333333","24.992815","6500300","中和區"
"235049","186-VK","2017/10/02 19:19:53","新北市中和區景新街239號","121.508186666667","24.99444","6500300","中和區"
"235067","255-BX","2017/10/02 19:19:36","新北市中和區民樂路67號","121.48403","25.001315","6500300","中和區"
"235044","293-VK","2017/10/02 19:19:45","新北市中和區中興街256號","121.49909","24.9878333333333","6500300","中和區"
"235072","301-VK","2017/10/02 19:19:55","新北市中和區連城路128號","121.495893333333","24.9990883333333","6500300","中和區"
"235043","352-BY","2017/10/02 19:19:40","新北市中和區景平路424號","121.50759","24.9932866666667","6500300","中和區"
"235068","375-QA","2017/10/02 19:19:55","新北市中和區連勝街38巷2號","121.497913333333","24.9978233333333","6500300","中和區"
"235051","376-QA","2017/10/02 19:19:47","新北市中和區興南路一段75號","121.510218333333","24.9891416666667","6500300","中和區"
"235061","378-QA","2017/10/02 19:19:57","新北市中和區員山路263號","121.481225","24.99922","6500300","中和區"
"235071","269-TV","2017/10/02 19:19:56","新北市中和區中正路637巷52弄9號","121.485023333333","24.99373","6500300","中和區"
"235050","4979-A6","2017/10/02 19:19:51","新北市中和區景安路220巷4弄8號","121.503555","24.9910266666667","6500300","中和區"
"235069","4980-A6","2017/10/02 19:19:55","新北市中和區景平路736巷1弄5號","121.497263333333","25.004025","6500300","中和區"
"235042","551-UM","2017/10/02 19:19:44","新北市中和區安樂路143巷2弄5號","121.514085","24.99778","6500300","中和區"
"235070","558-UM","2017/10/02 19:19:50","新北市中和區中和路92號","121.501263333333","25.0003866666667","6500300","中和區"
"235045","565-BX","2017/10/02 19:19:40","新北市中和區景新街437巷7號","121.513683333333","24.989195","6500300","中和區"
"235054","640-BX","2017/10/02 19:19:48","新北市中和區民德路105-1號","121.469061666667","25.00074","6500300","中和區"
"235060","647-TV","2017/10/02 19:19:45","新北市中和區民有街9號","121.475638333333","25.0055766666667","6500300","中和區"
"235047","732-UM","2017/10/02 19:19:41","新北市中和區景平路239巷59弄17號","121.508893333333","24.991755","6500300","中和區"
"235046","733-UM","2017/10/02 19:19:53","新北市中和區華新街98號","121.508595","24.9829083333333","6500300","中和區"
"235062","800-TS","2017/10/02 19:19:55","新北市中和區中正路891號","121.484233333333","25.00452","6500300","中和區"
"235041","802-TS","2017/10/02 19:19:53","新北市中和區景安路52號","121.506905","24.9980016666667","6500300","中和區"
"235052","805-TS","2017/10/02 19:19:48","新北市中和區興南路二段142巷17弄4號","121.503371666667","24.9833266666667","6500300","中和區"
"235048","896-TW","2017/10/02 19:19:56","新北市中和區忠孝街108-1號","121.512186666667","24.98473","6500300","中和區"
"235053","900-TW","2017/10/02 19:19:51","新北市中和區華福街71巷2號","121.467263333333","24.9968833333333","6500300","中和區"
"235037","AAC-213","2017/10/02 19:19:42","新北市中和區秀朗路三段50巷12弄6號","121.524075","24.995265","6500300","中和區"
"235059","AAC-215","2017/10/02 19:19:43","新北市中和區錦和路195巷1弄6號","121.491125","24.9910166666667","6500300","中和區"
"220065","072-UY","2017/10/02 19:19:39","新北市板橋區民族路170巷1號","121.46734","25.0075216666667","6500100","板橋區"
"220086","073-UY","2017/10/02 19:19:48","新北市板橋區中正路216巷118號","121.459458333333","25.0192283333333","6500100","板橋區"
"220105","075-UY","2017/10/02 19:19:44","新北市板橋區雙十路三段38號","121.47107","25.0310933333333","6500100","板橋區"
"220069","AAD-861","2017/10/02 19:19:56","新北市板橋區四川路一段158號","121.459978333333","25.0033083333333","6500100","板橋區"
"220068","120-SR","2017/10/02 19:19:48","新北市板橋區三民路一段1巷41號","121.480326666667","25.0249466666667","6500100","板橋區"
"247008","053-VK","2017/10/02 19:19:46","新北市五股區中興路三段163號","121.449105","25.0807633333333","6501400","蘆洲區"
"247024","002-UY","2017/10/02 19:02:01","新北市五股區中興路三段163號","121.449285","25.0809166666667","6501400","蘆洲區"
"226004","312-R5","2017/10/02 19:19:55","新北市平溪區南山里南山坪1號","121.777305","25.0427133333333","6502400","平溪區"
"228003","097-TW","2017/10/02 19:19:45","新北市貢寮區和美里和美街22-1號","121.912805","25.0826533333333","6502600","貢寮區"
"228002","585-TW","2017/10/02 19:19:45","新北市貢寮區龍門里復興街14號","121.926625","25.026275","6502600","貢寮區"
"228001","670-TC","2017/10/02 19:19:50","新北市貢寮區真理里新港街10號","121.925543333333","25.0543966666667","6502600","貢寮區"
"224006","676-BX","2017/10/02 19:19:59","新北市瑞芳區傑魚坑路200-1號","121.80133","25.1067716666667","6501200","瑞芳區"
"224009","285-BY","2017/10/02 19:19:48","新北市瑞芳區洞頂路142號","121.859878333333","25.1185833333333","6501200","瑞芳區"
"224008","275-VK","2017/10/02 19:19:53","新北市瑞芳區明燈路三段143號","121.803205","25.10935","6501200","瑞芳區"
"224005","271-BY","2017/10/02 19:19:46","新北市瑞芳區三爪子坑路43號","121.813126666667","25.1074866666667","6501200","瑞芳區"
"227001","642-TC","2017/10/02 19:19:58","新北市雙溪區平林里梅竹蹊66-1號","121.86014","25.035835","6502500","雙溪區"
"227008","400-TW","2017/10/02 19:19:55","新北市雙溪區新基里新基北街40號","121.868868333333","25.0382216666667","6502500","雙溪區"
"253005","032-BX","2017/10/02 19:19:47","新北市石門區阿里荖5號","121.610428333333","25.2797033333333","6502200","石門區"
"253006","295-VK","2017/10/02 19:19:41","新北市石門區楓林18號","121.536551666667","25.291045","6502200","石門區"
"208002","742-BX","2017/10/02 19:19:38","新北市金山區磺清路121號","121.639558333333","25.2279416666667","6502700","金山區"
"208003","665-BX","2017/10/02 19:19:39","新北市金山區中山路165號","121.63877","25.22057","6502700","金山區"
"208001","761-BX","2017/10/02 19:19:50","新北市金山區民生路69號","121.640186666667","25.21968","6502700","金山區"
"251009","008-UM","2017/10/02 19:19:44","新北市淡水區清水街246號","121.44062","25.1721883333333","6501000","淡水區"
"251001","011-UM","2017/10/02 19:19:41","新北市淡水區自強路201巷43號","121.462098333333","25.12689","6501000","淡水區"
"251007","179-VK","2017/10/02 19:19:58","新北市淡水區民生路117巷46號","121.464911666667","25.14012","6501000","淡水區"
"251013","182-VK","2017/10/02 19:19:42","新北市淡水區安子內12號","121.48152","25.2191366666667","6501000","淡水區"
"251010","413-VK","2017/10/02 19:19:40","新北市淡水區沙崙路27號","121.42147","25.181575","6501000","淡水區"
"251015","442-VK","2017/10/02 19:19:52","新北市淡水區山子邊5-2號","121.483385","25.1843633333333","6501000","淡水區"
"251005","443-VK","2017/10/02 19:19:53","新北市淡水區水源街一段13號","121.44284","25.172385","6501000","淡水區"
"251011","650-BX","2017/10/02 19:19:39","新北市淡水區中正東路二段143巷2弄1號","121.4607","25.1473133333333","6501000","淡水區"
"251002","672-BX","2017/10/02 19:19:44","新北市淡水區中正路261號","121.431115","25.17518","6501000","淡水區"
"251003","766-UM","2017/10/02 19:19:39","新北市淡水區中山路189號","121.441346666667","25.1743716666667","6501000","淡水區"
"207003","550-UM","2017/10/02 19:19:39","新北市萬里區大鵬里萬里加投79-3號","121.647361666667","25.2123466666667","6502800","萬里區"
"207004","225-TW","2017/10/02 19:19:41","新北市萬里區萬里里成功新村44號","121.687698333333","25.1746233333333","6502800","萬里區"
"252002","178-VK","2017/10/02 19:19:40","新北市三芝區淡金路二段20號","121.502721666667","25.259565","6502100","三芝區"
"252003","249-BX","2017/10/02 19:19:55","新北市三芝區埔坪里埔頭坑41號","121.50442","25.2646516666667","6502100","三芝區"
"252001","292-VK","2017/10/02 19:19:55","新北市三芝區長勤街9巷11弄3號","121.501851666667","25.25471","6502100","三芝區"
"208002","170-UY","2017/10/02 19:19:49","新北市金山區中正路71巷9號","121.633645","25.2213316666667","6502700","金山區"
"237007","153-BY","2017/10/02 19:19:46","新北市三峽區麻園12號","121.362076666667","24.9167966666667","6500900","三峽區"
"237013","252-BX","2017/10/02 19:19:53","新北市三峽區光明路75巷34-1號","121.377861666667","24.9284566666667","6500900","三峽區"
"237012","275-BY","2017/10/02 19:19:46","新北市三峽區三樹路222巷236弄8-3號","121.391393333333","24.9430233333333","6500900","三峽區"
"237008","302-VK","2017/10/02 19:19:42","新北市三峽區光明路106巷59號","121.375226666667","24.9267116666667","6500900","三峽區"
"237014","433-BY","2017/10/02 19:19:47","新北市三峽區中山路257巷1號","121.362475","24.9372333333333","6500900","三峽區"
"237006","5529-G3","2017/10/02 19:19:50","新北市三峽區橫溪路72號","121.397273333333","24.9352516666667","6500900","三峽區"
"237011","572-TV","2017/10/02 19:14:55","新北市三峽區中正路一段100號","121.374246666667","24.9296783333333","6500900","三峽區"
"237015","649-BX","2017/10/02 19:19:38","新北市三峽區建安83號","121.45355","24.92056","6500900","三峽區"
"237010","706-TV","2017/10/02 19:14:54","新北市三峽區復興路30-4號","121.374173333333","24.9362633333333","6500900","三峽區"
"237010","760-BX","2017/10/02 14:34:14","新北市三峽區中山路459巷163-3號","121.348953333333","24.9331483333333","6500900","三峽區"
"237005","AKY-6261","2017/10/02 19:19:40","新北市三峽區中山路459巷104號","121.353343333333","24.93565","6500900","三峽區"
"236069","105-UM","2017/10/02 19:19:52","新北市土城區學成路136號","121.449016666667","24.989605","6501300","土城區"
"236078","166-UM","2017/10/02 19:19:52","新北市土城區龍泉路14號","121.409795","24.9487066666667","6501300","土城區"
"236026","269-VK","2017/10/02 19:19:55","新北市土城區中央路二段154號","121.44188","24.976845","6501300","土城區"
"236014","270-VK","2017/10/02 19:19:55","新北市土城區學府路一段23巷25弄44號","121.457485","24.9860983333333","6501300","土城區"
"236020","401-BY","2017/10/02 19:19:49","新北市土城區峰廷街3號","121.469185","24.9874066666667","6501300","土城區"
"236058","912-UM","2017/10/02 19:19:46","新北市土城區中央路三段67號","121.43872","24.96936","6501300","土城區"
"236048","913-UM","2017/10/02 19:18:19","新北市土城區明德路一段398-1號","121.453636666667","24.9790833333333","6501300","土城區"
"238015","755-BX","2017/10/02 19:19:40","新北市樹林區備內街1巷23號","121.413006666667","24.98651","6500700","樹林區"
"238023","601-UM","2017/10/02 19:19:44","新北市樹林區三興路39號","121.395986666667","25.01453","6500700","樹林區"
"238019","599-UM","2017/10/02 19:19:57","新北市樹林區鎮前街347巷3弄2號","121.416891666667","24.9833866666667","6500700","樹林區"
"238018","571-TV","2017/10/02 19:19:47","新北市樹林區大同街43號","121.417816666667","24.9814283333333","6500700","樹林區"
"238024","5061-A6","2017/10/02 19:19:52","新北市樹林區福德街48-12號","121.398755","24.97481","6500700","樹林區"
"238021","KEA-2217","2017/10/02 19:19:52","新北市樹林區柑園街二段370號","121.370315","24.95044","6500700","樹林區"
"238022","KEA-2213","2017/10/02 19:19:42","新北市樹林區中山路二段151巷6弄5號","121.406596666667","24.9781416666667","6500700","樹林區"
"238025","303-VK","2017/10/02 19:19:54","新北市樹林區中山路二段133號","121.406893333333","24.9792366666667","6500700","樹林區"
"238017","283-BY","2017/10/02 19:19:52","新北市樹林區保安街二段179-1號","121.415295","25.0029716666667","6500700","樹林區"
"238014","282-BY","2017/10/02 19:19:42","新北市樹林區中正路22-1號","121.427723333333","24.99943","6500700","樹林區"
"238026","172-UY","2017/10/02 19:19:53","新北市樹林區佳園路二段165號","121.389735","24.9565483333333","6500700","樹林區"
"238016","169-UY","2017/10/02 19:19:40","新北市樹林區中山路二段34號","121.417185","24.98519","6500700","樹林區"
"239007","AAC-297","2017/10/02 19:19:53","新北市鶯歌區大湖路余厝巷11號","121.341853333333","24.9613716666667","6500800","鶯歌區"
"239006","891-R6","2017/10/02 19:19:56","新北市鶯歌區鶯桃路240號","121.33629","24.959525","6500800","鶯歌區"
"239008","527-UM","2017/10/02 19:19:40","新北市鶯歌區國際二路4巷15號","121.339076666667","24.9735666666667","6500800","鶯歌區"
"239005","526-UM","2017/10/02 19:19:53","新北市鶯歌區中湖街41號","121.34922","24.9731966666667","6500800","鶯歌區"
"239001","417-VK","2017/10/02 19:19:59","新北市鶯歌區鶯桃路95巷76號","121.337148333333","24.952865","6500800","鶯歌區"
"239003","360-BY","2017/10/02 19:19:56","新北市鶯歌區建國路264號","121.347408333333","24.95343","6500800","鶯歌區"
"239004","193-VK","2017/10/02 19:19:53","新北市鶯歌區中正三路236號","121.33085","24.9372533333333","6500800","鶯歌區"
"221008","489-VK","2017/10/02 19:19:42","新北市汐止區康寧街349號","121.627923333333","25.06754","6501100","汐止區"
"221036","130-UY","2017/10/02 19:19:41","新北市汐止區汐萬路一段256巷3號","121.652201666667","25.0747083333333","6501100","汐止區"
"221015","131-UY","2017/10/02 19:19:43","新北市汐止區康寧街901號","121.651691666667","25.07494","6501100","汐止區"
"221010","269-BY","2017/10/02 19:19:37","新北市汐止區康寧街901號","121.651418333333","25.0750516666667","6501100","汐止區"
"221012","278-VK","2017/10/02 19:19:50","新北市汐止區汐萬路一段244-1號","121.651431666667","25.073535","6501100","汐止區"
"221023","279-VK","2017/10/02 19:19:56","新北市汐止區康寧街901號","121.650965","25.0752","6501100","汐止區"
"221027","281-BY","2017/10/02 19:19:49","新北市汐止區汐萬路一段39號","121.65493","25.069065","6501100","汐止區"
"221038","297-VK","2017/10/02 19:19:53","新北市汐止區汐萬路一段312號","121.650663333333","25.0752783333333","6501100","汐止區"
"221029","298-VK","2017/10/02 19:19:42","新北市汐止區康寧街901號","121.651443333333","25.0749916666667","6501100","汐止區"
"221021","299-VK","2017/10/02 19:19:51","新北市汐止區康寧街901號","121.651383333333","25.0750566666667","6501100","汐止區"
"221031","353-TW","2017/10/02 19:19:40","新北市汐止區康寧街901號","121.650985","25.075205","6501100","汐止區"
"221025","623-UM","2017/10/02 19:19:57","新北市汐止區汐萬路一段220號","121.651751666667","25.0727233333333","6501100","汐止區"
"221033","647-BX","2017/10/02 19:19:36","新北市汐止區南勢街3號","121.62711","25.037415","6501100","汐止區"
"221002","707-TV","2017/10/02 19:19:40","新北市汐止區大同路一段312號","121.636971666667","25.0585733333333","6501100","汐止區"
"220079","145-BY","2017/10/02 19:19:53","新北市板橋區民權路202巷17號","121.460633333333","25.016595","6500100","板橋區"
"220082","610-BX","2017/10/02 19:19:50","新北市板橋區篤行路三段玉平巷76弄18號","121.427216666667","24.9861116666667","6500100","板橋區"
"220101","245-BX","2017/10/02 19:19:40","新北市板橋區雙十路二段47巷8弄14號","121.474491666667","25.0260483333333","6500100","板橋區"
"220091","267-BY","2017/10/02 19:19:55","新北市板橋區萬板路478號","121.479896666667","25.026225","6500100","板橋區"
"220056","276-BY","2017/10/02 19:19:52","新北市板橋區信義路127號","121.457766666667","24.9933","6500100","板橋區"
"220072","277-BY","2017/10/02 19:19:59","新北市板橋區金門街337巷7弄23號","121.430605","24.985205","6500100","板橋區"
"220064","280-UM","2017/10/02 19:19:44","新北市板橋區縣民大道二段1號","121.462061666667","25.011625","6500100","板橋區"
"220071","283-VK","2017/10/02 19:19:54","新北市板橋區重慶路269巷31-3號","121.464275","24.999195","6500100","板橋區"
"220094","285-UM","2017/10/02 19:19:47","新北市板橋區光武街110巷37號","121.46698","25.0302383333333","6500100","板橋區"
"220053","285-VK","2017/10/02 19:19:51","新北市板橋區富山街16號","121.478393333333","25.0218116666667","6500100","板橋區"
"220083","286-VK","2017/10/02 19:19:48","新北市板橋區大觀路二段174巷166弄5號","121.442341666667","25.0031383333333","6500100","板橋區"
"220081","287-VK","2017/10/02 19:19:42","新北市板橋區南雅東路87號","121.453105","25.008445","6500100","板橋區"
"220090","288-VK","2017/10/02 19:19:46","新北市板橋區長江路一段106巷13弄36號","121.461505","25.0296866666667","6500100","板橋區"
"220061","293-UM","2017/10/02 19:19:40","新北市板橋區中山路二段318巷20弄23號","121.481031666667","25.0188633333333","6500100","板橋區"
"220084","296-UM","2017/10/02 19:19:53","新北市板橋區溪崑二街66巷19號","121.427365","24.9907166666667","6500100","板橋區"
"220075","297-UM","2017/10/02 19:19:49","新北市板橋區南雅西路一段10巷14號","121.454545","25.0048366666667","6500100","板橋區"
"220062","305-R5","2017/10/02 19:19:43","新北市板橋區三民路二段153巷36弄2號","121.481121666667","25.014065","6500100","板橋區"
"220092","307-R5","2017/10/02 19:19:54","新北市板橋區光武街65號","121.467236666667","25.0259083333333","6500100","板橋區"
"220098","317-R6","2017/10/02 19:19:56","新北市板橋區民有街75號","121.465021666667","25.0271066666667","6500100","板橋區"
"220080","461-BY","2017/10/02 19:19:55","新北市板橋區大觀路二段1巷28號","121.449406666667","25.0038766666667","6500100","板橋區"
"220089","487-VK","2017/10/02 19:19:38","新北市板橋區文化路一段479巷44號","121.4678","25.0226916666667","6500100","板橋區"
"220088","491-VK","2017/10/02 19:19:53","新北市板橋區雙十路二段79號","121.476023333333","25.02722","6500100","板橋區"
"220035","560-BX","2017/10/02 19:19:38","新北市板橋區中正路360巷53號","121.456341666667","25.0228483333333","6500100","板橋區"
"220103","561-BX","2017/10/02 19:19:59","新北市板橋區介壽街23號","121.468098333333","25.0200833333333","6500100","板橋區"
"220063","609-BX","2017/10/02 19:19:54","新北市板橋區三民路二段187號","121.479113333333","25.014145","6500100","板橋區"
"220057","686-BX","2017/10/02 19:19:52","新北市板橋區重慶路321號","121.463921666667","24.99855","6500100","板橋區"
"220077","687-BX","2017/10/02 19:19:39","新北市板橋區僑中一街80巷6弄12號","121.448116666667","25.0114416666667","6500100","板橋區"
"220093","689-BX","2017/10/02 19:19:44","新北市板橋區文化路一段186號","121.465831666667","25.0198533333333","6500100","板橋區"
"220054","741-BX","2017/10/02 19:19:48","新北市板橋區實踐路34號","121.463571666667","25.007185","6500100","板橋區"
"220055","827-TW","2017/10/02 19:19:54","新北市板橋區館前東路156巷18號","121.464201666667","25.0070316666667","6500100","板橋區"
"220067","829-TW","2017/10/02 19:19:49","新北市板橋區長安街345號","121.474883333333","25.0123616666667","6500100","板橋區"
"220102","830-TW","2017/10/02 19:19:40","新北市板橋區文聖街199號","121.48022","25.0266783333333","6500100","板橋區"
"220096","831-TW","2017/10/02 19:19:47","新北市板橋區大同街4號","121.476961666667","25.0267933333333","6500100","板橋區"
"220074","895-R6","2017/10/02 19:19:44","新北市板橋區中正路自強新村56號","121.454781666667","25.0134916666667","6500100","板橋區"
"220073","985-R7","2017/10/02 19:19:53","新北市板橋區新生街89巷4號","121.458195","25.0222416666667","6500100","板橋區"
"220097","AAC-210","2017/10/02 19:19:41","新北市板橋區幸福路60巷17號","121.460721666667","25.0207233333333","6500100","板橋區"
"220070","AAC-253","2017/10/02 19:19:46","新北市板橋區忠孝路41-1號","121.461266666667","25.0021583333333","6500100","板橋區"
