"lineid","car","time","location","longitude","latitude","cityid","cityname"
"234084","338-UY","2017/10/02 12:38:27","新北市永和區福和路1號","121.52645","25.0097516666667","6500400","永和區"
"234030","746-BX","2017/10/02 20:44:22","新北市板橋區文化路二段656號","121.480553333333","25.0410483333333","6500400","永和區"
"234061","AAD-866","2017/10/02 20:44:33","新北市永和區中正路381號","121.517235","25.003645","6500400","永和區"
"249001","173-UM","2017/10/02 20:44:32","新北市八里區下罟子8-6號","121.384348333333","25.14113","6502300","八里區"
"249004","303-UY","2017/10/02 20:41:20","新北市八里區中山路一段147號","121.412891666667","25.159055","6502300","八里區"
"234023","9380-KE","2017/10/02 20:44:28","新北市永和區竹林路25巷9弄2號","121.517718333333","25.01487","6500400","永和區"
"234074","AAC-211","2017/10/02 20:44:25","新北市永和區竹林路78號","121.519281666667","25.0129283333333","6500400","永和區"
"244019","403-UM","2017/10/02 20:44:27","新北市林口區粉寮路二段160巷40號","121.40544","25.0909933333333","6501700","林口區"
"222005","289-BY","2017/10/02 14:37:53","新北市深坑區深坑街75號","121.614678333333","25.001315","6501800","深坑區"
"222003","436-BY","2017/10/02 20:44:26","新北市深坑區阿柔洋40號","121.610285","24.9985166666667","6501800","深坑區"
"222001","628-TS","2017/10/02 20:44:38","新北市深坑區北深路三段216號","121.601131666667","25.0039816666667","6501800","深坑區"
"222002","659-BX","2017/10/02 20:44:37","新北市深坑區萬福路13號","121.597766666667","25.0063766666667","6501800","深坑區"
"231041","002-UM","2017/10/02 20:44:25","新北市新店區中正路700巷1號","121.53397","24.9912683333333","6500600","新店區"
"231059","046-UY","2017/10/02 20:44:30","新北市新店區僑愛五路15號","121.49946","24.944165","6500600","新店區"
"231061","047-UY","2017/10/02 20:44:31","新北市新店區新和街87號","121.520871666667","24.98638","6500600","新店區"
"231060","106-UY","2017/10/02 20:44:33","新北市新店區安康路三段740號","121.47375","24.9420433333333","6500600","新店區"
"231051","107-UY","2017/10/02 20:44:26","新北市新店區中央八街128號","121.524981666667","24.978385","6500600","新店區"
"231047","108-UY","2017/10/02 20:44:30","新北市新店區寶元路二段1巷1-1號","121.546366666667","24.9830783333333","6500600","新店區"
"231052","187-VK","2017/10/02 20:44:33","新北市新店區廣興路5巷9號","121.546001666667","24.9122033333333","6500600","新店區"
"231050","215-TC","2017/10/02 20:44:39","新北市新店區建國路10號","121.539986666667","24.9736116666667","6500600","新店區"
"231057","256-BX","2017/10/02 20:44:38","新北市新店區花園六路二段20號","121.555485","24.933065","6500600","新店區"
"231054","AAD-862","2017/10/02 20:44:29","新北市新店區行政街17巷2號","121.542733333333","24.9667583333333","6500600","新店區"
"231058","3712-VJ","2017/10/02 20:44:35","新北市新店區自由街53號","121.534485","24.9735916666667","6500600","新店區"
"231056","4716-K9","2017/10/02 20:44:32","新北市新店區中央七街61巷3號","121.52826","24.9765783333333","6500600","新店區"
"231065","512-UM","2017/10/02 20:44:08","新北市新店區安祥路104巷55號","121.482906666667","24.9637566666667","6500600","新店區"
"231064","515-UM","2017/10/02 20:44:39","新北市新店區安和路三段144號","121.516021666667","24.9861766666667","6500600","新店區"
"231045","617-UM","2017/10/02 20:44:38","新北市新店區長春路19巷13號","121.548805","24.9560933333333","6500600","新店區"
"231040","619-UM","2017/10/02 20:44:34","新北市新店區中正路276號","121.538843333333","24.9736083333333","6500600","新店區"
"231042","641-BX","2017/10/02 20:44:26","新北市新店區寶高路116號","121.554525","24.9761033333333","6500600","新店區"
"231063","645-TV","2017/10/02 20:44:29","新北市新店區玫瑰路16號","121.494746666667","24.9504483333333","6500600","新店區"
"231068","718-UY","2017/10/02 20:44:32","新北市新店區寶元路一段44號","121.543701666667","24.9848716666667","6500600","新店區"
"231049","719-UM","2017/10/02 20:44:28","新北市新店區永業路81巷5弄31號","121.530951666667","24.9498233333333","6500600","新店區"
"231062","720-UM","2017/10/02 20:44:40","新北市新店區和成街16巷2號","121.4877","24.9469616666667","6500600","新店區"
"231044","897-TW","2017/10/02 20:44:33","新北市新店區建國路196號","121.53775","24.98043","6500600","新店區"
"231043","899-TW","2017/10/02 20:44:36","新北市新店區中正路244號","121.53955","24.9731483333333","6500600","新店區"
"231066","AKT-0513","2017/10/02 20:44:27","新北市新店區安興路112號","121.514675","24.977615","6500600","新店區"
"241011","013-R5","2017/10/02 20:44:34","新北市三重區龍濱路285號","121.501068333333","25.073395","6500200","三重區"
"241028","022-UY","2017/10/02 20:44:30","新北市三重區中正南路50號","121.493955","25.059895","6500200","三重區"
"241008","059-VK","2017/10/02 20:44:24","新北市三重區下竹圍街91號","121.481103333333","25.07491","6500200","三重區"
"241009","060-VK","2017/10/02 20:44:30","新北市三重區永福街1號","121.482831666667","25.0783283333333","6500200","三重區"
"241031","061-VK","2017/10/02 20:44:34","新北市三重區重陽路一段113巷1弄51號","121.488155","25.05848","6500200","三重區"
"241015","062-VK","2017/10/02 20:44:30","新北市三重區文化北路242號","121.497428333333","25.0696783333333","6500200","三重區"
"241017","063-VK","2017/10/02 20:44:26","新北市三重區民生街60號","121.491355","25.06659","6500200","三重區"
"241024","065-VK","2017/10/02 20:44:33","新北市三重區大勇街49號","121.481325","25.071985","6500200","三重區"
"241002","090-VK","2017/10/02 20:44:23","新北市三重區仁義街171號","121.496935","25.0815133333333","6500200","三重區"
"241003","091-VK","2017/10/02 20:44:40","新北市三重區五華街141巷58號","121.49357","25.0868216666667","6500200","三重區"
"241005","262-UM","2017/10/02 20:44:27","新北市三重區五華街141巷58號","121.493475","25.0867366666667","6500200","三重區"
"241026","265-UM","2017/10/02 20:44:29","新北市三重區環河南路23號","121.503415","25.062415","6500200","三重區"
"241016","266-UM","2017/10/02 20:44:28","新北市三重區長壽西街59號","121.495803333333","25.0672","6500200","三重區"
"241022","267-UM","2017/10/02 20:44:38","新北市三重區中正北路20巷12號","121.488028333333","25.062445","6500200","三重區"
"241018","268-UM","2017/10/02 20:44:29","新北市三重區重陽路四段99號","121.492898333333","25.0716083333333","6500200","三重區"
"241032","269-UM","2017/10/02 20:44:41","新北市三重區重陽路一段120巷35號","121.4851","25.060205","6500200","三重區"
"241013","270-UM","2017/10/02 20:44:23","新北市三重區仁賢街12-1號","121.495673333333","25.0748766666667","6500200","三重區"
"241025","271-UM","2017/10/02 20:44:26","新北市三重區貴陽街20號","121.484261666667","25.062065","6500200","三重區"
"241007","398-BY","2017/10/02 20:44:24","新北市三重區三和路四段95-1號","121.487963333333","25.0760966666667","6500200","三重區"
"241023","KEA-2210","2017/10/02 20:44:23","新北市三重區自由街18巷11號","121.479245","25.0663616666667","6500200","三重區"
"241020","413-TH","2017/10/02 20:44:35","新北市三重區忠孝路一段101號","121.489515","25.072115","6500200","三重區"
"241004","475-VK","2017/10/02 20:44:31","新北市三重區仁愛街411號","121.490771666667","25.0812916666667","6500200","三重區"
"241019","478-VK","2017/10/02 20:44:27","新北市三重區忠孝路一段10巷19號","121.491391666667","25.07142","6500200","三重區"
"241030","480-VK","2017/10/02 20:44:33","新北市三重區成功路73巷18號","121.489355","25.052","6500200","三重區"
"241014","543-UM","2017/10/02 20:44:39","新北市三重區萬壽街54號","121.500486666667","25.069695","6500200","三重區"
"241001","547-UM","2017/10/02 20:44:39","新北市三重區自強路三段76巷27弄8號","121.485126666667","25.074305","6500200","三重區"
"241006","AAD-863","2017/10/02 20:44:30","新北市三重區車路頭街139巷14號","121.484266666667","25.076195","6500200","三重區"
"241035","743-BX","2017/10/02 20:44:34","新北市三重區正義北路351號","121.49326","25.0719516666667","6500200","三重區"
"241012","941-UM","2017/10/02 20:44:35","新北市三重區龍門路274巷15號","121.501515","25.0745233333333","6500200","三重區"
"241029","942-UM","2017/10/02 20:44:39","新北市三重區中正南路267號","121.493018333333","25.0526433333333","6500200","三重區"
"241033","AAC-255","2017/10/02 20:44:35","新北市三重區光復路二段1號","121.472246666667","25.0534","6500200","三重區"
"235040","150-BY","2017/10/02 20:44:26","新北市八里區商港路120號","121.39283","25.1501033333333","6500300","中和區"
"235069","4980-A6","2017/10/02 20:44:34","新北市中和區新生街232號","121.483778333333","24.9981783333333","6500300","中和區"
"247022","893-R6","2017/10/02 20:44:27","新北市蘆洲區中正路243巷18弄1號","121.46712","25.0864","6501400","蘆洲區"
"247012","546-UM","2017/10/02 20:41:48","新北市蘆洲區集賢路224巷29號","121.481196666667","25.0875383333333","6501400","蘆洲區"
"247020","500-BY","2017/10/02 20:44:32","新北市蘆洲區仁愛街19號","121.472488333333","25.09232","6501400","蘆洲區"
"247010","339-TH","2017/10/02 20:44:35","新北市蘆洲區中山一路138號","121.476295","25.0816666666667","6501400","蘆洲區"
"247002","337-TH","2017/10/02 20:44:37","新北市蘆洲區環堤大道136號","121.455616666667","25.0883","6501400","蘆洲區"
"247004","336-TH","2017/10/02 20:44:33","新北市蘆洲區長安街101號","121.461598333333","25.0808416666667","6501400","蘆洲區"
"247016","057-VK","2017/10/02 20:44:27","新北市蘆洲區中山二路288號","121.468871666667","25.0777083333333","6501400","蘆洲區"
"247006","056-VK","2017/10/02 20:44:28","新北市蘆洲區和平路121巷8弄10號","121.466288333333","25.08062","6501400","蘆洲區"
"247008","053-VK","2017/10/02 20:44:26","新北市蘆洲區永安北路二段8巷16號","121.480371666667","25.0809883333333","6501400","蘆洲區"
"247014","007-UY","2017/10/02 20:44:26","新北市蘆洲區三民路97號","121.473553333333","25.0852416666667","6501400","蘆洲區"
"247024","002-UY","2017/10/02 20:44:42","新北市蘆洲區長樂路150號","121.462448333333","25.090635","6501400","蘆洲區"
"251001","011-UM","2017/10/02 20:44:21","新北市淡水區坪頂路27號","121.456415","25.1621183333333","6501000","淡水區"
"251007","179-VK","2017/10/02 20:44:38","新北市淡水區學府路102巷62號","121.453428333333","25.1713116666667","6501000","淡水區"
"251013","182-VK","2017/10/02 20:44:36","新北市淡水區番子厝12-3號","121.459731666667","25.201435","6501000","淡水區"
"251010","413-VK","2017/10/02 20:44:20","新北市淡水區沙崙路145號","121.423395","25.18298","6501000","淡水區"
"251012","441-VK","2017/10/02 20:44:34","新北市淡水區興仁路136號","121.451618333333","25.218965","6501000","淡水區"
"251015","442-VK","2017/10/02 20:44:32","新北市淡水區淡金路四段542巷17號","121.452691666667","25.22713","6501000","淡水區"
"251005","443-VK","2017/10/02 20:44:38","新北市淡水區崁頂64號","121.439791666667","25.2013833333333","6501000","淡水區"
"251011","650-BX","2017/10/02 20:44:39","新北市淡水區新市一路一段282巷20弄36號","121.434951666667","25.1856283333333","6501000","淡水區"
"251002","672-BX","2017/10/02 20:44:25","新北市淡水區中正東路1號","121.447206666667","25.167345","6501000","淡水區"
"251003","766-UM","2017/10/02 20:44:39","新北市淡水區新民街120巷39號","121.439641666667","25.1794666666667","6501000","淡水區"
"252002","178-VK","2017/10/02 20:44:40","新北市三芝區淡金路二段47-2號","121.503655","25.260575","6502100","三芝區"
"237010","760-BX","2017/10/02 14:34:14","新北市三峽區中山路459巷163-3號","121.348953333333","24.9331483333333","6500900","三峽區"
"242031","AAC-296","2017/10/02 20:44:30","新北市新莊區三泰路56-18號","121.434458333333","25.0373","6500500","新莊區"
"242029","986-R7","2017/10/02 20:44:32","新北市新莊區中華路二段125號","121.452853333333","25.050475","6500500","新莊區"
"242050","751-BX","2017/10/02 20:44:26","新北市新莊區民安西路165號","121.426125","25.0162533333333","6500500","新莊區"
"242025","615-BX","2017/10/02 20:44:37","新北市新莊區化成路565號","121.465208333333","25.0655883333333","6500500","新莊區"
"242023","613-BX","2017/10/02 20:44:36","新北市新莊區復興路三段62號","121.463611666667","25.0445383333333","6500500","新莊區"
"242027","612-BX","2017/10/02 20:44:29","新北市新莊區思源路57號","121.459931666667","25.04027","6500500","新莊區"
"242039","566-BX","2017/10/02 20:44:42","新北市新莊區瓊林路208號","121.4362","25.0218666666667","6500500","新莊區"
"242044","497-BY","2017/10/02 20:44:36","新北市新莊區龍安路108號","121.418371666667","25.020555","6500500","新莊區"
"242004","442-UM","2017/10/02 20:44:30","新北市新莊區化成路349巷74號","121.463285","25.056525","6500500","新莊區"
"242048","441-UM","2017/10/02 20:44:38","新北市新莊區中正路652號","121.421646666667","25.0285766666667","6500500","新莊區"
"242053","440-UM","2017/10/02 20:44:32","新北市新莊區民安西路229巷7弄1號","121.426513333333","25.01439","6500500","新莊區"
"242034","415-TV","2017/10/02 20:44:24","新北市新莊區中正路437號","121.443366666667","25.0341183333333","6500500","新莊區"
"242042","400-BY","2017/10/02 20:44:24","新北市新莊區天祥街10號","121.417238333333","25.0271016666667","6500500","新莊區"
"242060","362-BY","2017/10/02 20:44:36","新北市新莊區新樹路280號","121.432613333333","25.01268","6500500","新莊區"
"242058","353-BY","2017/10/02 20:44:26","新北市新莊區四維路149號","121.42258","25.0221383333333","6500500","新莊區"
"242007","132-UY","2017/10/02 20:44:39","新北市新莊區思源路67號","121.459965","25.0405416666667","6500500","新莊區"
"242036","133-UY","2017/10/02 20:44:29","新北市新莊區後港一路56巷12號","121.4265","25.0258166666667","6500500","新莊區"
"242021","135-UY","2017/10/02 20:44:40","新北市新莊區中華路一段10號","121.452001666667","25.0369133333333","6500500","新莊區"
"242046","172-VK","2017/10/02 20:44:40","新北市新莊區中正路652號","121.421563333333","25.028595","6500500","新莊區"
"242009","173-VK","2017/10/02 20:44:29","新北市新莊區福壽街99巷13弄5號","121.457241666667","25.0502366666667","6500500","新莊區"
"242015","175-VK","2017/10/02 20:44:27","新北市新莊區中和街32號","121.448243333333","25.0438383333333","6500500","新莊區"
"242002","176-VK","2017/10/02 20:44:32","新北市新莊區中港路五守新村23巷2號","121.454975","25.0384216666667","6500500","新莊區"
"242056","349-TH","2017/10/02 20:44:25","新北市新莊區瓊泰路94巷61號","121.44501","25.0294583333333","6500500","新莊區"
"242017","350-TH","2017/10/02 20:44:39","新北市新莊區復興路一段213號","121.452493333333","25.0436633333333","6500500","新莊區"
"242011","351-TH","2017/10/02 20:44:29","新北市新莊區中榮街89號","121.44519","25.0527566666667","6500500","新莊區"
"221008","489-VK","2017/10/02 20:44:22","新北市汐止區翠峰街2巷2號","121.645286666667","25.076595","6501100","汐止區"
"221036","130-UY","2017/10/02 20:44:21","新北市汐止區新昌路41號","121.66242","25.06803","6501100","汐止區"
"221015","131-UY","2017/10/02 20:44:22","新北市汐止區建成路22號","121.664723333333","25.0727116666667","6501100","汐止區"
"221027","281-BY","2017/10/02 20:44:28","新北市汐止區中正路144號","121.659968333333","25.0693733333333","6501100","汐止區"
"221038","297-VK","2017/10/02 20:44:34","新北市汐止區水源路一段56-1號","121.657053333333","25.0653","6501100","汐止區"
"221029","298-VK","2017/10/02 20:44:42","新北市汐止區大同路一段337巷16弄16號","121.637903333333","25.061205","6501100","汐止區"
"221021","299-VK","2017/10/02 20:44:31","新北市汐止區水源路一段265號","121.654","25.0594066666667","6501100","汐止區"
"221031","353-TW","2017/10/02 20:44:20","新北市汐止區中興路110巷3號","121.633155","25.0638883333333","6501100","汐止區"
"221035","622-UM","2017/10/02 20:44:29","新北市汐止區長江街101-5號","121.658665","25.0732233333333","6501100","汐止區"
"221033","647-BX","2017/10/02 20:44:36","台北市南港區合順街8巷7弄38號","121.620238333333","25.04188","6501100","汐止區"
"221002","707-TV","2017/10/02 20:44:40","新北市汐止區福德二路169號","121.630826666667","25.0651316666667","6501100","汐止區"
"221018","753-BX","2017/10/02 20:44:30","新北市汐止區茄苳路118號","121.668325","25.070455","6501100","汐止區"
"220062","305-R5","2017/10/02 20:44:22","新北市五股區中直路13-7號","121.425316666667","25.1101716666667","6500100","板橋區"
"220089","487-VK","2017/10/02 20:44:38","新北市板橋區長江路一段188號","121.462176666667","25.0304966666667","6500100","板橋區"
"220103","561-BX","2017/10/02 20:44:39","新北市板橋區漢生東路33巷6號","121.465578333333","25.0171583333333","6500100","板橋區"
