"lineid","car","time","location","longitude","latitude","cityid","cityname"
"234084","338-UY","2017/10/02 12:38:27","新北市永和區福和路1號","121.52645","25.0097516666667","6500400","永和區"
"244019","403-UM","2017/10/02 20:51:11","新北市林口區粉寮69號","121.405106666667","25.0907866666667","6501700","林口區"
"222005","289-BY","2017/10/02 14:37:53","新北市深坑區深坑街75號","121.614678333333","25.001315","6501800","深坑區"
"231064","515-UM","2017/10/02 22:36:19","新北市新店區薏仁坑路自強巷6號","121.496326666667","24.9582666666667","6500600","新店區"
"247008","053-VK","2017/10/02 22:35:46","新北市林口區太平里180號","121.368183333333","25.1345783333333","6501400","蘆洲區"
"237010","760-BX","2017/10/02 14:34:14","新北市三峽區中山路459巷163-3號","121.348953333333","24.9331483333333","6500900","三峽區"
"221018","753-BX","2017/10/02 21:23:20","新北市汐止區汐萬路一段256巷1號","121.65191","25.0747416666667","6501100","汐止區"
