"lineid","car","time","location","longitude","latitude","cityid","cityname"
"244005","248-BX","2017/07/15 08:29:26","新北市林口區嘉寶里11鄰67號","121.33915","25.110115","6501700","林口區"
"222004","289-BY","2017/07/15 08:29:31","新北市深坑區王軍寮13號","121.621218333333","24.9850783333333","6501800","深坑區"
"231008","188-VK","2017/07/15 08:29:21","新北市新店區新烏路二段446號","121.551656666667","24.9079116666667","6500600","新店區"
"231007","189-VK","2017/07/15 08:29:20","新北市新店區新潭路二段40號","121.524706666667","24.926235","6500600","新店區"
"235036","301-VK","2017/07/15 08:29:23","新北市中和區員山路30-7號","121.484793333333","24.98814","6500300","中和區"
"226005","5620-A6","2017/07/15 08:29:36","新北市平溪區十分里十分街259號","121.778226666667","25.0449816666667","6502400","平溪區"
"226002","7418-A5","2017/07/15 08:29:29","新北市平溪區東勢里芊蓁林32-2號","121.727391666667","24.9781416666667","6502400","平溪區"
"226003","AGD-0702","2017/07/15 08:29:38","新北市平溪區新寮里新寮路1-2號","121.789775","25.0583616666667","6502400","平溪區"
"223006","022-BY","2017/07/15 08:29:40","新北市深坑區昇高坑路34號","121.627865","24.9995766666667","6501900","石碇區"
"223002","198-BX","2017/07/15 07:54:20","新北市石碇區烏塗窟26-2號","121.657588333333","24.9758766666667","6501900","石碇區"
"223008","406-TH","2017/07/15 08:29:37","新北市石碇區靜安路一段196號","121.67221","25.00657","6501900","石碇區"
"223001","437-BY","2017/07/15 08:29:26","新北市石碇區北宜路六段直潭巷6號","121.658748333333","24.9351666666667","6501900","石碇區"
"223004","660-BX","2017/07/15 08:29:37","新北市石碇區崩山15號","121.67542","24.9701266666667","6501900","石碇區"
"223007","661-BX","2017/07/15 08:29:39","新北市石碇區靜安路一段139號","121.671325","25.0055383333333","6501900","石碇區"
"223005","677-TV","2017/07/15 08:29:41","新北市石碇區崩山24-2號","121.678586666667","24.9678433333333","6501900","石碇區"
"227006","282-VK","2017/07/15 08:29:27","新北市雙溪區上林里新寮子13-2號","121.837148333333","25.0318483333333","6502500","雙溪區"
"253003","6232-TK","2017/07/15 08:29:23","新北市石門區內石門83-1號","121.569498333333","25.2637216666667","6502200","石門區"
"253001","6251-TK","2017/07/15 08:29:32","新北市三芝區新庄里新庄子96號","121.515595","25.275575","6502200","石門區"
"253002","637-UY","2017/07/15 08:29:23","新北市石門區九芎林6-1號","121.561118333333","25.2669866666667","6502200","石門區"
"252004","249-BX","2017/07/15 08:29:40","新北市三芝區興華里田心子12-2號","121.492658333333","25.2058766666667","6502100","三芝區"
"252007","AAC-283","2017/07/15 08:29:27","新北市淡水區石頭厝5號","121.458153333333","25.2400533333333","6502100","三芝區"
"237001","159-UY","2017/07/14 13:43:26","桃園市八德區興豐路2350巷501號","121.326505","24.9437783333333","6500900","三峽區"
"236011","165-UM","2017/07/15 08:29:22","新北市土城區金城路二段46巷3-10號","121.455598333333","24.9758516666667","6501300","土城區"
"236002","370-SL","2017/07/15 08:27:07","新北市土城區中州路78號","121.411941666667","24.9584016666667","6501300","土城區"
"236006","498-BY","2017/07/15 08:29:24","新北市土城區中央路三段282號","121.426526666667","24.9633516666667","6501300","土城區"
