"lineid","car","time","location","longitude","latitude","cityid","cityname"
"231008","188-VK","2017/07/15 09:47:48","新北市新店區平廣路一段256號","121.507855","24.8883333333333","6500600","新店區"
"231007","189-VK","2017/07/15 10:09:40","新北市新店區新潭路三段215巷25號","121.508118333333","24.9040783333333","6500600","新店區"
"235036","301-VK","2017/07/15 09:47:56","新北市中和區員山路36巷12號","121.483968333333","24.9909533333333","6500300","中和區"
"227006","282-VK","2017/07/15 10:09:27","新北市雙溪區長源里柑腳8號","121.80464","25.014395","6502500","雙溪區"
"253003","6232-TK","2017/07/15 10:09:23","新北市石門區小坑12-8號","121.595355","25.285635","6502200","石門區"
"253001","6251-TK","2017/07/15 10:09:31","新北市石門區崁子腳30-1號","121.536148333333","25.28759","6502200","石門區"
"253002","637-UY","2017/07/15 10:09:23","新北市石門區楓林43號","121.541003333333","25.2824883333333","6502200","石門區"
"252004","249-BX","2017/07/15 10:09:40","新北市三芝區埔坪里埔頭坑41號","121.504603333333","25.2647183333333","6502100","三芝區"
"252007","AAC-283","2017/07/15 10:09:26","新北市三芝區新庄里新庄子51-16號","121.507313333333","25.27787","6502100","三芝區"
