"lineid","car","time","location","longitude","latitude","cityid","cityname"
"231008","188-VK","2017/07/15 10:59:21","新北市新店區小坑一路22號","121.53293","24.9139516666667","6500600","新店區"
"231007","189-VK","2017/07/15 10:59:40","新北市新店區新潭路二段62巷22號","121.520108333333","24.927635","6500600","新店區"
"235036","301-VK","2017/07/15 09:47:56","新北市中和區員山路36巷12號","121.483968333333","24.9909533333333","6500300","中和區"
"227006","282-VK","2017/07/15 10:59:27","新北市雙溪區共和里中山路59號","121.868031666667","25.031525","6502500","雙溪區"
"239006","292-BY","2017/07/15 10:59:35","新北市鶯歌區二甲路13號","121.344036666667","24.9353083333333","6500800","鶯歌區"
