"lineid","car","time","location","longitude","latitude","cityid","cityname"
"231008","188-VK","2017/07/15 11:09:41","新北市新店區新烏路二段300號","121.548451666667","24.9129783333333","6500600","新店區"
"231007","189-VK","2017/07/15 11:09:20","新北市新店區新潭路一段160巷17號","121.529623333333","24.9318833333333","6500600","新店區"
"235036","301-VK","2017/07/15 09:47:56","新北市中和區員山路36巷12號","121.483968333333","24.9909533333333","6500300","中和區"
"227006","282-VK","2017/07/15 11:09:27","新北市雙溪區魚行里坤溪8號","121.866316666667","25.021245","6502500","雙溪區"
"239006","292-BY","2017/07/15 11:05:50","新北市鶯歌區二甲路13號","121.344028333333","24.9353966666667","6500800","鶯歌區"
