"lineid","car","time","location","longitude","latitude","cityid","cityname"
"231008","188-VK","2017/07/15 11:36:21","新北市新店區成功路91-1號","121.53769","24.8951716666667","6500600","新店區"
"235036","301-VK","2017/07/15 09:47:56","新北市中和區員山路36巷12號","121.483968333333","24.9909533333333","6500300","中和區"
"235026","800-TS","2017/07/15 11:49:19","新北市中和區員山路36巷16-3號","121.485123333333","24.9913916666667","6500300","中和區"
"228004","212-TW","2017/07/15 11:49:32","新北市貢寮區貢寮里朝陽街2號","121.912113333333","25.021555","6502600","貢寮區"
"227006","282-VK","2017/07/15 11:49:27","新北市雙溪區魚行里魚杭1號","121.883801666667","25.0265833333333","6502500","雙溪區"
"239006","292-BY","2017/07/15 11:05:50","新北市鶯歌區二甲路13號","121.344028333333","24.9353966666667","6500800","鶯歌區"
