"lineid","car","time","location","longitude","latitude","cityid","cityname"
"234044","148-BY","2017/07/15 13:19:30","新北市永和區得和路373巷19號","121.524925","25.000085","6500400","永和區"
"234012","149-BY","2017/07/15 13:19:30","新北市永和區信義路21號","121.514","25.0122583333333","6500400","永和區"
"234005","207-UY","2017/07/15 13:19:29","新北市永和區中山路一段334號","121.506178333333","25.0064083333333","6500400","永和區"
"234078","298-R6","2017/07/15 13:19:38","新北市永和區福和路7巷14弄2號","121.525455","25.0072666666667","6500400","永和區"
"234036","336-UY","2017/07/15 13:19:37","新北市永和區民樂街30巷2號","121.52758","25.0012483333333","6500400","永和區"
"234062","337-UY","2017/07/15 13:19:34","新北市永和區永元路17巷4號","121.521688333333","25.0004816666667","6500400","永和區"
"234084","338-UY","2017/07/15 13:19:22","新北市永和區永利路37號","121.518723333333","25.005545","6500400","永和區"
"234068","552-UM","2017/07/15 13:19:28","新北市永和區警光街26號","121.519121666667","25.0094633333333","6500400","永和區"
"234052","553-UM","2017/07/15 13:19:34","新北市永和區中興街30號","121.516248333333","25.0117783333333","6500400","永和區"
"234015","745-BX","2017/07/15 13:19:32","新北市永和區環河西路一段85巷4弄20號","121.512008333333","25.0169216666667","6500400","永和區"
"234028","746-BX","2017/07/15 13:19:28","新北市永和區民生路69號","121.522631666667","24.9972916666667","6500400","永和區"
"234060","AAD-866","2017/07/15 13:19:23","新北市永和區秀朗路一段120號","121.517043333333","25.0036033333333","6500400","永和區"
"234003","847-RS","2017/07/15 13:19:27","新北市永和區永和路二段170號","121.515386666667","25.0132533333333","6500400","永和區"
"234040","862-TW","2017/07/15 13:19:21","新北市永和區保平路151巷9號","121.510266666667","25.005415","6500400","永和區"
"234048","863-TW","2017/07/15 13:19:36","新北市永和區仁愛路138號","121.511185","25.0135183333333","6500400","永和區"
"234025","9371-KE","2017/07/15 13:19:26","新北市永和區豫溪街42巷5號","121.515598333333","25.0094916666667","6500400","永和區"
"234010","9373-KE","2017/07/15 13:19:28","新北市永和區文化路90巷32弄10號","121.513663333333","25.01647","6500400","永和區"
"248017","225-UY","2017/07/15 13:19:29","新北市五股區御史路164號","121.42894","25.1036866666667","6501500","五股區"
"234022","9380-KE","2017/07/15 13:19:33","新北市永和區竹林路98號","121.519588333333","25.0120783333333","6500400","永和區"
"234076","969-R7","2017/07/15 13:19:30","新北市永和區民有街25巷2號","121.517178333333","24.9961116666667","6500400","永和區"
"234072","AAC-211","2017/07/15 13:19:23","新北市永和區永和路二段116號","121.515191666667","25.012195","6500400","永和區"
"234066","AAC-212","2017/07/15 13:19:25","新北市永和區保平路50巷8弄1號","121.510975","25.0075233333333","6500400","永和區"
"234001","AAC-295","2017/07/15 13:19:21","新北市永和區保福路一段52號","121.51267","25.0094366666667","6500400","永和區"
"244005","248-BX","2017/07/15 13:19:26","新北市林口區南勢里76-11號","121.349321666667","25.0771633333333","6501700","林口區"
"231002","002-UM","2017/07/15 13:19:24","新北市新店區安華路28-1號","121.519635","24.9608083333333","6500600","新店區"
"231025","0293-UT","2017/07/15 13:19:32","新北市新店區安華路8號","121.519843333333","24.9623","6500600","新店區"
"231028","046-UY","2017/07/15 13:19:30","新北市新店區安華路28-1號","121.519558333333","24.9608266666667","6500600","新店區"
"231030","047-UY","2017/07/15 13:19:35","新北市新店區安忠路205巷8號","121.510075","24.9553933333333","6500600","新店區"
"231029","106-UY","2017/07/15 13:19:23","新北市新店區安華路28-1號","121.519606666667","24.9608183333333","6500600","新店區"
"231018","107-UY","2017/07/15 13:19:25","新北市新店區秀山路14號","121.532693333333","24.9603066666667","6500600","新店區"
"231012","108-UY","2017/07/15 13:19:29","新北市新店區秀山路20號","121.532551666667","24.9603483333333","6500600","新店區"
"231020","187-VK","2017/07/15 13:19:32","新北市新店區安康路一段107-2號","121.528658333333","24.961665","6500600","新店區"
"231026","256-BX","2017/07/15 13:19:21","新北市新店區安華路28-1號","121.519628333333","24.961075","6500600","新店區"
"231034","268-BY","2017/07/15 13:19:24","新北市新店區安華路30巷1號","121.519376666667","24.9596166666667","6500600","新店區"
"231010","278-BY","2017/07/15 13:19:34","新北市新店區安康路一段119號","121.528358333333","24.9617333333333","6500600","新店區"
"231017","AAD-862","2017/07/15 13:19:26","新北市新店區安康路一段152號","121.52629","24.9629383333333","6500600","新店區"
"231027","3712-VJ","2017/07/15 13:19:21","新北市新店區環河路17號","121.537526666667","24.9613","6500600","新店區"
"231024","3713-VJ","2017/07/15 13:19:22","新北市新店區安康路一段198號","121.524373333333","24.9634116666667","6500600","新店區"
"231038","4715-K9","2017/07/15 13:19:27","新北市新店區安華路28-1號","121.519378333333","24.9606916666667","6500600","新店區"
"231036","512-UM","2017/07/15 13:19:16","新北市新店區車子路10-4號","121.504881666667","24.95451","6500600","新店區"
"231023","513-UM","2017/07/15 13:19:20","新北市新店區安康路一段83-1號","121.529613333333","24.96133","6500600","新店區"
"231035","515-UM","2017/07/15 13:19:32","新北市新店區安華路28-1號","121.519678333333","24.9610783333333","6500600","新店區"
"231003","616-UM","2017/07/15 13:19:28","新北市新店區北新路一段126巷25號","121.543293333333","24.9700266666667","6500600","新店區"
"231006","617-UM","2017/07/15 13:19:29","新北市新店區安華路28-1號","121.519443333333","24.96104","6500600","新店區"
"231001","619-UM","2017/07/15 13:19:36","新北市新店區安華路28-1號","121.519465","24.9609816666667","6500600","新店區"
"231013","719-UM","2017/07/15 13:19:38","新北市新店區安康路一段105號","121.529068333333","24.9615183333333","6500600","新店區"
"231033","720-UM","2017/07/15 13:19:27","新北市新店區安華路30巷1號","121.51942","24.959715","6500600","新店區"
"231005","897-TW","2017/07/15 13:19:31","新北市新店區安華路28-1號","121.519608333333","24.9607416666667","6500600","新店區"
"231004","899-TW","2017/07/15 13:19:28","新北市新店區安華路28-1號","121.51929","24.9608266666667","6500600","新店區"
"231037","AKT-0513","2017/07/15 13:19:30","新北市新店區安豐路30-1號","121.50066","24.9569033333333","6500600","新店區"
"235030","003-UY","2017/07/15 13:19:21","新北市中和區中山路二段120號","121.502691666667","25.0037916666667","6500300","中和區"
"235028","005-UY","2017/07/15 13:19:33","新北市中和區中正路154號","121.49867","24.993705","6500300","中和區"
"235027","006-UY","2017/07/15 13:19:27","新北市中和區員山路36巷16-3號","121.484956666667","24.9913366666667","6500300","中和區"
"235020","096-UM","2017/07/15 13:19:25","新北市中和區員山路36巷16-3號","121.484711666667","24.9911083333333","6500300","中和區"
"235003","097-UM","2017/07/15 13:19:32","新北市中和區錦和路350-1號","121.49051","24.993545","6500300","中和區"
"235029","098-UM","2017/07/15 13:19:22","新北市中和區莊敬路49巷20弄20號","121.502681666667","25.005785","6500300","中和區"
"235004","150-BY","2017/07/15 13:19:29","新北市中和區景安路66號","121.505891666667","24.99672","6500300","中和區"
"235022","151-BY","2017/07/15 13:19:24","新北市中和區圓通路367巷35號","121.492288333333","24.9849133333333","6500300","中和區"
"235019","183-VK","2017/07/15 13:19:34","新北市中和區員山路36巷16-3號","121.485083333333","24.9915266666667","6500300","中和區"
"235002","185-VK","2017/07/15 13:19:35","新北市中和區大智街29號","121.520273333333","24.9919433333333","6500300","中和區"
"235031","255-BX","2017/07/15 13:19:34","新北市中和區中正路803號","121.484698333333","25.0012033333333","6500300","中和區"
"235036","301-VK","2017/07/15 13:19:30","新北市中和區員山路36巷16-3號","121.48483","24.9912833333333","6500300","中和區"
"235007","352-BY","2017/07/15 13:19:41","新北市中和區景平路375號","121.504186666667","24.9934666666667","6500300","中和區"
"235015","376-QA","2017/07/15 13:19:22","新北市中和區興南路一段67號","121.510293333333","24.9894866666667","6500300","中和區"
"235032","377-QA","2017/07/15 13:19:33","新北市中和區員山路36巷16-2號","121.485538333333","24.9910116666667","6500300","中和區"
"235025","378-QA","2017/07/15 13:19:30","新北市中和區民德路216號","121.468148333333","24.99799","6500300","中和區"
"235014","4979-A6","2017/07/15 13:19:31","新北市中和區捷運路12-2號","121.509071666667","24.989935","6500300","中和區"
"235006","551-UM","2017/07/15 13:19:37","新北市中和區大仁街20巷25弄26號","121.519461666667","24.9936016666667","6500300","中和區"
"235009","565-BX","2017/07/15 13:19:22","新北市中和區中正路271號","121.495815","24.9937283333333","6500300","中和區"
"235018","640-BX","2017/07/15 13:19:26","新北市中和區國光街38號","121.47119","25.00022","6500300","中和區"
"235024","647-TV","2017/07/15 13:19:19","新北市中和區員山路36巷16-2號","121.485388333333","24.9914833333333","6500300","中和區"
"235010","733-UM","2017/07/15 13:19:30","新北市中和區員山路36巷13號","121.48414","24.9909166666667","6500300","中和區"
"235035","783-BX","2017/07/15 13:19:29","新北市中和區永和路458巷1弄30號","121.483216666667","25.0127933333333","6500300","中和區"
"235026","800-TS","2017/07/15 13:19:24","新北市中和區中山路二段312巷51號","121.495075","25.0045116666667","6500300","中和區"
"235021","801-TS","2017/07/15 13:19:19","新北市中和區員山路72-1號","121.481065","24.993535","6500300","中和區"
"235005","802-TS","2017/07/15 13:19:33","新北市中和區中和路320號","121.509741666667","25.000585","6500300","中和區"
"235016","805-TS","2017/07/15 13:19:22","新北市中和區南山路198號","121.506001666667","24.9905366666667","6500300","中和區"
"235012","896-TW","2017/07/15 13:19:29","新北市中和區員山路36巷16-2號","121.485305","24.9915066666667","6500300","中和區"
"235017","900-TW","2017/07/15 13:19:37","新北市中和區員山路36巷16-2號","121.48523","24.99158","6500300","中和區"
"235034","911-UM","2017/07/15 13:19:34","新北市中和區圓通路207號","121.497193333333","24.99448","6500300","中和區"
"235001","AAC-213","2017/07/15 13:19:19","新北市中和區景平路149號","121.51392","24.9923066666667","6500300","中和區"
"235023","AAC-215","2017/07/15 13:19:37","新北市中和區建八路1號","121.485433333333","24.99866","6500300","中和區"
"228004","212-TW","2017/07/15 13:19:32","新北市貢寮區吉林里內寮街35號","121.900338333333","24.9816183333333","6502600","貢寮區"
"228005","828-UM","2017/07/15 13:19:24","新北市貢寮區美豐里丹裡街18-2號","121.911946666667","25.0583116666667","6502600","貢寮區"
"208004","AAC-292","2017/07/15 13:19:26","新北市金山區南勢湖75號","121.610583333333","25.2106916666667","6502700","金山區"
"207002","749-BX","2017/07/15 13:19:25","新北市萬里區崁腳里崁腳路166號","121.645198333333","25.1560266666667","6502800","萬里區"
"207001","463-BY","2017/07/15 13:19:28","新北市萬里區龜吼里玉田路31號","121.680773333333","25.1945066666667","6502800","萬里區"
"252005","073-UM","2017/07/15 13:18:54","新北市三芝區八賢里八連溪66號","121.51772","25.2313166666667","6502100","三芝區"
"236006","498-BY","2017/07/15 13:19:25","新北市土城區亞洲路11巷3弄20號","121.435903333333","24.971415","6501300","土城區"
"239006","292-BY","2017/07/15 11:05:50","新北市鶯歌區二甲路13號","121.344028333333","24.9353966666667","6500800","鶯歌區"
"221032","280-BY","2017/07/15 13:19:27","新北市汐止區水源路一段56號","121.657433333333","25.0655766666667","6501100","汐止區"
"221002","753-BX","2017/07/15 13:19:35","新北市汐止區福德一路392巷44號","121.626568333333","25.0624583333333","6501100","汐止區"
"220004","276-BY","2017/07/15 13:19:38","新北市板橋區民生路二段36-1號","121.472598333333","25.0166916666667","6500100","板橋區"
"220001","285-VK","2017/07/15 13:19:25","新北市板橋區民生路二段15-1號","121.472778333333","25.0163483333333","6500100","板橋區"
"220009","293-UM","2017/07/15 13:19:24","新北市板橋區民生路二段17號","121.47257","25.0163883333333","6500100","板橋區"
"220010","303-R5","2017/07/15 13:19:30","新北市板橋區民生路二段15-1號","121.472806666667","25.01632","6500100","板橋區"
"220022","895-R6","2017/07/15 13:19:33","新北市板橋區華東街1-10號","121.448328333333","24.994955","6500100","板橋區"
