"lineid","car","time","location","longitude","latitude","cityid","cityname"
"234044","148-BY","2017/07/15 13:49:30","新北市永和區成功路一段78號","121.526285","25.003275","6500400","永和區"
"234012","149-BY","2017/07/15 13:49:30","新北市永和區仁愛路247號","121.508746666667","25.0118016666667","6500400","永和區"
"234005","207-UY","2017/07/15 13:48:30","新北市永和區中和路573號","121.511721666667","25.0035683333333","6500400","永和區"
"234078","298-R6","2017/07/15 13:49:18","新北市永和區永亨路98號","121.522965","25.00484","6500400","永和區"
"234036","336-UY","2017/07/15 13:49:19","新北市永和區成功路二段122號","121.526481666667","24.997705","6500400","永和區"
"234062","337-UY","2017/07/15 13:49:23","新北市永和區中正路368巷26號","121.518821666667","25.000635","6500400","永和區"
"234084","338-UY","2017/07/15 13:49:22","新北市永和區永亨路148號","121.525325","25.003935","6500400","永和區"
"234068","552-UM","2017/07/15 13:49:36","新北市永和區國光路6號","121.519641666667","25.0086366666667","6500400","永和區"
"234052","553-UM","2017/07/15 13:49:34","新北市永和區竹林路75巷25弄8號","121.520166666667","25.01439","6500400","永和區"
"234015","745-BX","2017/07/15 13:49:32","新北市永和區文化路9巷2號","121.515313333333","25.0149516666667","6500400","永和區"
"234028","746-BX","2017/07/15 13:49:28","新北市永和區民生路47巷18號","121.52396","24.997575","6500400","永和區"
"234060","AAD-866","2017/07/15 13:49:34","新北市永和區中正路106號","121.514526666667","24.9959516666667","6500400","永和區"
"234040","862-TW","2017/07/15 13:49:21","新北市永和區中和路393號","121.508611666667","25.00018","6500400","永和區"
"234048","863-TW","2017/07/15 13:49:36","新北市永和區保安路81號","121.508571666667","25.0147933333333","6500400","永和區"
"234010","9373-KE","2017/07/15 13:49:24","新北市永和區保生路55號","121.504731666667","25.0106333333333","6500400","永和區"
"248017","225-UY","2017/07/15 13:49:29","新北市五股區民義路二段22巷24號","121.42388","25.0983583333333","6501500","五股區"
"234022","9380-KE","2017/07/15 13:49:33","新北市永和區復興街10號","121.515718333333","25.01283","6500400","永和區"
"234076","969-R7","2017/07/15 13:49:30","新北市永和區民族街35-1號","121.518775","24.9990633333333","6500400","永和區"
"234072","AAC-211","2017/07/15 13:49:23","新北市永和區豫溪街183號","121.52242","25.010415","6500400","永和區"
"234066","AAC-212","2017/07/15 13:49:25","新北市永和區保平路236巷24弄2號","121.508438333333","25.00699","6500400","永和區"
"234001","AAC-295","2017/07/15 13:49:21","新北市永和區永和路一段118號","121.514081666667","25.0078383333333","6500400","永和區"
"244005","248-BX","2017/07/15 13:49:26","新北市林口區瑞樹坑52-5號","121.341986666667","25.1258966666667","6501700","林口區"
"231002","002-UM","2017/07/15 13:49:24","新北市新店區溪園路389-12號","121.523493333333","24.9789316666667","6500600","新店區"
"231025","0293-UT","2017/07/15 13:49:32","新北市新店區中央六街58號","121.527875","24.975775","6500600","新店區"
"231028","046-UY","2017/07/15 13:49:30","新北市新店區安和路三段7號","121.518071666667","24.9806066666667","6500600","新店區"
"231030","047-UY","2017/07/15 13:49:35","新北市新店區安康路一段222-2號","121.522998333333","24.96369","6500600","新店區"
"231029","106-UY","2017/07/15 13:49:23","新北市新店區安康路二段125-1號","121.512375","24.9609566666667","6500600","新店區"
"231018","107-UY","2017/07/15 13:49:25","新北市新店區中正路400巷4號","121.534851666667","24.9776466666667","6500600","新店區"
"231012","108-UY","2017/07/15 13:49:34","新北市新店區德正街29號","121.544658333333","24.9713083333333","6500600","新店區"
"231020","187-VK","2017/07/15 13:49:32","新北市新店區永興路88-1號","121.544013333333","24.9337633333333","6500600","新店區"
"231026","256-BX","2017/07/15 13:49:23","新北市新店區中正路331號","121.53596","24.9749966666667","6500600","新店區"
"231034","268-BY","2017/07/15 13:49:24","新北市新店區達觀路16號","121.503073333333","24.9408266666667","6500600","新店區"
"231010","278-BY","2017/07/15 13:49:34","新北市新店區三民路60巷3號","121.53534","24.97244","6500600","新店區"
"231017","AAD-862","2017/07/15 13:49:26","新北市新店區竹林路94號","121.553786666667","24.9500583333333","6500600","新店區"
"231027","3712-VJ","2017/07/15 13:49:21","新北市新店區北宜路一段105巷10弄3號","121.54039","24.9557883333333","6500600","新店區"
"231024","3713-VJ","2017/07/15 13:49:22","新北市新店區新生街55號","121.538783333333","24.9669583333333","6500600","新店區"
"231038","4715-K9","2017/07/15 13:49:27","新北市新店區安華路1號","121.520651666667","24.9633766666667","6500600","新店區"
"231036","512-UM","2017/07/15 13:49:36","新北市新店區安祥路108巷35號","121.475126666667","24.9569866666667","6500600","新店區"
"231023","513-UM","2017/07/15 13:49:20","新北市新店區國校路45-1號","121.537911666667","24.95496","6500600","新店區"
"231035","515-UM","2017/07/15 13:49:32","新北市新店區安忠路57巷9弄1號","121.513425","24.9583","6500600","新店區"
"231003","616-UM","2017/07/15 13:49:28","新北市新店區中興路一段162號","121.54258","24.9640883333333","6500600","新店區"
"231006","617-UM","2017/07/15 13:49:36","新北市新店區北宜路一段206號","121.543656666667","24.9530683333333","6500600","新店區"
"231001","619-UM","2017/07/15 13:49:35","新北市新店區三民路42號","121.536173333333","24.9715583333333","6500600","新店區"
"231013","719-UM","2017/07/15 13:49:38","新北市新店區二十張路25巷18弄9號","121.539273333333","24.9815966666667","6500600","新店區"
"231033","720-UM","2017/07/15 13:49:27","新北市新店區莒光路87巷15號","121.525605","24.9532766666667","6500600","新店區"
"231005","897-TW","2017/07/15 13:49:31","新北市新店區寶中路92-1號","121.548875","24.9801483333333","6500600","新店區"
"231004","899-TW","2017/07/15 13:49:28","新北市新店區寶橋路98號","121.546848333333","24.9758916666667","6500600","新店區"
"231037","AKT-0513","2017/07/15 13:49:30","新北市新店區安康路三段454號","121.48434","24.951205","6500600","新店區"
"235030","003-UY","2017/07/15 13:49:21","新北市中和區中山路二段131巷29號","121.503836666667","25.0027316666667","6500300","中和區"
"235028","005-UY","2017/07/15 13:49:33","新北市中和區連城路87號","121.496916666667","25.00045","6500300","中和區"
"235027","006-UY","2017/07/15 13:49:34","新北市中和區錦和路111-1號","121.490173333333","24.9951966666667","6500300","中和區"
"235020","096-UM","2017/07/15 13:49:25","新北市中和區中正路1196號","121.48041","25.0104216666667","6500300","中和區"
"235003","097-UM","2017/07/15 13:49:32","新北市中和區大勇街29巷12號","121.515948333333","24.994495","6500300","中和區"
"235029","098-UM","2017/07/15 13:49:22","新北市中和區中山路二段2巷31號","121.503056666667","25.0069766666667","6500300","中和區"
"235004","150-BY","2017/07/15 13:49:29","新北市中和區保健路50巷66號","121.509176666667","24.995225","6500300","中和區"
"235022","151-BY","2017/07/15 13:49:23","新北市中和區連城路518巷8號","121.476566666667","24.99254","6500300","中和區"
"235019","183-VK","2017/07/15 13:49:34","新北市中和區民德路25巷11號","121.469956666667","25.0032166666667","6500300","中和區"
"235002","185-VK","2017/07/15 13:49:35","新北市中和區立人街14巷65號","121.518621666667","24.995605","6500300","中和區"
"235013","186-VK","2017/07/15 13:49:20","新北市中和區景安路132巷37號","121.503876666667","24.99436","6500300","中和區"
"235031","255-BX","2017/07/15 13:49:34","新北市中和區新生街220巷4號","121.483035","24.9985716666667","6500300","中和區"
"235008","293-VK","2017/07/15 13:49:28","新北市中和區復興路280巷6號","121.502311666667","24.991235","6500300","中和區"
"235036","301-VK","2017/07/15 13:49:30","新北市中和區中山路二段68號","121.50387","25.0046683333333","6500300","中和區"
"235007","352-BY","2017/07/15 13:49:21","新北市中和區成功路139號","121.525911666667","24.9902133333333","6500300","中和區"
"235015","376-QA","2017/07/15 13:49:22","新北市中和區華新街143巷106弄13號","121.506343333333","24.9787216666667","6500300","中和區"
"235032","377-QA","2017/07/15 13:49:33","新北市中和區中正路211巷13弄8號","121.497341666667","24.99316","6500300","中和區"
"235025","378-QA","2017/07/15 13:49:30","新北市中和區民享街30巷1號","121.473991666667","25.00345","6500300","中和區"
"235014","4979-A6","2017/07/15 13:49:31","新北市中和區忠孝街58巷30弄1號","121.512333333333","24.9826833333333","6500300","中和區"
"235033","4980-A6","2017/07/15 13:49:31","新北市中和區圓通路109巷1弄1號","121.499645","24.996485","6500300","中和區"
"235006","551-UM","2017/07/15 13:49:37","新北市中和區秀朗路三段70巷54號","121.524871666667","24.994425","6500300","中和區"
"235009","565-BX","2017/07/15 13:49:22","新北市中和區南山路389號","121.506453333333","24.9903183333333","6500300","中和區"
"235018","640-BX","2017/07/15 13:49:26","新北市中和區民享街54巷7號","121.473573333333","25.0023383333333","6500300","中和區"
"235024","647-TV","2017/07/15 13:49:38","新北市中和區中山路三段148號","121.473648333333","25.0062533333333","6500300","中和區"
"235011","732-UM","2017/07/15 13:49:29","新北市中和區興南路二段34巷57弄2號","121.504945","24.9855816666667","6500300","中和區"
"235010","733-UM","2017/07/15 13:49:30","新北市中和區仁愛街36巷55號","121.51143","24.986275","6500300","中和區"
"235035","783-BX","2017/07/15 13:49:29","新北市中和區立言街48號","121.488065","25.0067933333333","6500300","中和區"
"235026","800-TS","2017/07/15 13:49:30","新北市中和區中山路二段366巷9號","121.491843333333","25.0041816666667","6500300","中和區"
"235021","801-TS","2017/07/15 13:49:39","新北市中和區民安街11號","121.480698333333","25.000765","6500300","中和區"
"235005","802-TS","2017/07/15 13:49:33","新北市中和區永貞路251號","121.512876666667","25.0040933333333","6500300","中和區"
"235016","805-TS","2017/07/15 13:49:22","新北市中和區興南路二段399巷65-1號","121.501225","24.9751433333333","6500300","中和區"
"235012","896-TW","2017/07/15 13:49:38","新北市中和區南山路407號","121.506966666667","24.9898416666667","6500300","中和區"
"235017","900-TW","2017/07/15 13:49:37","新北市中和區華福街6號","121.465428333333","24.9968","6500300","中和區"
"235034","911-UM","2017/07/15 13:49:34","新北市中和區明禮街43號","121.504071666667","24.99646","6500300","中和區"
"235001","AAC-213","2017/07/15 13:49:39","新北市中和區景平路111巷30號","121.515541666667","24.990425","6500300","中和區"
"235023","AAC-215","2017/07/15 13:49:21","新北市中和區圓通路391-2號","121.490001666667","24.9891266666667","6500300","中和區"
"220016","013-TV","2017/07/15 13:49:31","新北市板橋區民生路二段58號","121.472121666667","25.017865","6500100","板橋區"
"220013","072-UY","2017/07/15 13:49:19","新北市板橋區民生路二段56-1號","121.472555","25.01692","6500100","板橋區"
"220034","073-UY","2017/07/15 13:49:36","新北市板橋區大智街71巷2號","121.453501666667","25.0154116666667","6500100","板橋區"
"220105","075-UY","2017/07/15 13:49:26","新北市板橋區民生路二段161巷9號","121.470198333333","25.0196416666667","6500100","板橋區"
"220017","AAD-861","2017/07/15 13:49:19","新北市板橋區民生路二段36-1號","121.472073333333","25.0168416666667","6500100","板橋區"
"247005","341-TH","2017/07/15 13:49:31","新北市蘆洲區中山二路256號","121.469266666667","25.0789616666667","6501400","蘆洲區"
"247007","339-TH","2017/07/15 13:49:32","新北市蘆洲區集賢路271號","121.481101666667","25.0838733333333","6501400","蘆洲區"
"247001","336-TH","2017/07/15 13:49:25","新北市五股區成泰路三段544號","121.4533","25.1029866666667","6501400","蘆洲區"
"247013","057-VK","2017/07/15 13:49:20","新北市蘆洲區中正路100號","121.46977","25.0843633333333","6501400","蘆洲區"
"247003","056-VK","2017/07/15 13:49:36","新北市蘆洲區中原路21巷5號","121.460888333333","25.0824683333333","6501400","蘆洲區"
"247015","001-UY","2017/07/15 13:49:30","新北市蘆洲區光華路44號","121.468811666667","25.0830483333333","6501400","蘆洲區"
"228004","212-TW","2017/07/15 13:41:52","新北市貢寮區龍崗里嵩陽街46號","121.904666666667","25.0124816666667","6502600","貢寮區"
"228005","828-UM","2017/07/15 13:49:24","新北市雙溪區三港里雙澳路100號","121.888985","25.05658","6502600","貢寮區"
"208004","AAC-292","2017/07/15 13:49:27","新北市金山區重和里三重橋1-1號","121.595823333333","25.19766","6502700","金山區"
"207002","749-BX","2017/07/15 13:49:24","新北市萬里區崁腳里崁腳路173-1號","121.646495","25.1547616666667","6502800","萬里區"
"207001","463-BY","2017/07/15 13:49:28","新北市萬里區磺潭里清水1號","121.638803333333","25.20217","6502800","萬里區"
"252005","073-UM","2017/07/15 13:48:14","新北市三芝區圓山里木屐寮38-2號","121.5322","25.2283666666667","6502100","三芝區"
"236068","105-UM","2017/07/15 13:49:27","新北市土城區城林路6巷80號","121.438331666667","24.9797483333333","6501300","土城區"
"236041","107-UM","2017/07/15 13:49:33","新北市土城區城林路6巷80號","121.438463333333","24.979835","6501300","土城區"
"236075","166-UM","2017/07/15 13:49:35","新北市土城區大安路2號","121.432888333333","24.9654566666667","6501300","土城區"
"236029","253-BX","2017/07/15 13:49:23","新北市土城區城林路6巷80號","121.438428333333","24.9798316666667","6501300","土城區"
"236025","269-VK","2017/07/15 13:49:35","新北市土城區城林路6巷80號","121.438523333333","24.979805","6501300","土城區"
"236013","270-VK","2017/07/15 13:49:32","新北市土城區城林路6巷80號","121.438525","24.97978","6501300","土城區"
"236017","401-BY","2017/07/15 13:49:25","新北市土城區城林路6巷80號","121.438568333333","24.9797216666667","6501300","土城區"
"236006","498-BY","2017/07/15 13:49:25","新北市土城區中央路一段225-1號","121.445606666667","24.9863566666667","6501300","土城區"
"236057","912-UM","2017/07/15 13:49:21","新北市土城區城林路6巷80號","121.438365","24.979725","6501300","土城區"
"236061","915-UM","2017/07/15 13:49:34","新北市土城區城林路6巷80號","121.43839","24.9797933333333","6501300","土城區"
"236054","AAC-216","2017/07/15 13:49:36","新北市土城區城林路6巷80號","121.438401666667","24.9798216666667","6501300","土城區"
"239006","292-BY","2017/07/15 11:05:50","新北市鶯歌區二甲路13號","121.344028333333","24.9353966666667","6500800","鶯歌區"
"220027","145-BY","2017/07/15 13:49:21","新北市板橋區民權路192號","121.45926","25.0137483333333","6500100","板橋區"
"220030","610-BX","2017/07/15 13:49:39","新北市板橋區篤行路三段玉平巷45號","121.428606666667","24.9868733333333","6500100","板橋區"
"220050","245-BX","2017/07/15 13:49:36","新北市板橋區民生路二段120號","121.470425","25.0196716666667","6500100","板橋區"
"220040","267-BY","2017/07/15 13:49:29","新北市板橋區民生路二段161巷1號","121.470125","25.0201016666667","6500100","板橋區"
"220004","276-BY","2017/07/15 13:49:38","新北市板橋區四川路二段31號","121.454408333333","24.9954083333333","6500100","板橋區"
"220020","277-BY","2017/07/15 13:49:32","新北市板橋區金門街25巷10號","121.434011666667","24.9943583333333","6500100","板橋區"
"220012","280-UM","2017/07/15 13:49:32","新北市板橋區民生路二段36-1號","121.47258","25.0165866666667","6500100","板橋區"
"220019","283-VK","2017/07/15 13:49:27","新北市板橋區民生路二段36-1號","121.472216666667","25.0169366666667","6500100","板橋區"
"220043","285-UM","2017/07/15 13:49:18","新北市板橋區民生路二段120號","121.470386666667","25.019735","6500100","板橋區"
"220001","285-VK","2017/07/15 13:49:25","新北市板橋區民生路二段36-1號","121.472501666667","25.016785","6500100","板橋區"
"220031","286-VK","2017/07/15 13:49:25","新北市板橋區大觀路二段22巷28號","121.44529","25.0036216666667","6500100","板橋區"
"220029","287-VK","2017/07/15 13:49:33","新北市板橋區大觀路一段28巷106號","121.450281666667","25.011075","6500100","板橋區"
"220039","288-VK","2017/07/15 13:49:28","新北市板橋區民生路二段120號","121.470451666667","25.0195733333333","6500100","板橋區"
"220009","293-UM","2017/07/15 13:49:24","新北市板橋區民生路二段36號","121.472566666667","25.0172083333333","6500100","板橋區"
"220032","296-UM","2017/07/15 13:49:31","新北市板橋區大觀路二段174巷102弄19號","121.441656666667","25.0012416666667","6500100","板橋區"
"220023","297-UM","2017/07/15 13:49:27","新北市板橋區大觀路一段28巷96號","121.450425","25.0110633333333","6500100","板橋區"
"220010","303-R5","2017/07/15 13:49:30","新北市板橋區民生路二段36-1號","121.472608333333","25.0167","6500100","板橋區"
"220041","307-R5","2017/07/15 13:49:20","新北市板橋區民生路二段120號","121.4707","25.01961","6500100","板橋區"
"220047","317-R6","2017/07/15 13:49:37","新北市板橋區民生路二段120號","121.470396666667","25.0196933333333","6500100","板橋區"
"220028","461-BY","2017/07/15 13:49:39","新北市板橋區大觀路二段265巷76弄1號","121.442446666667","24.9965216666667","6500100","板橋區"
"220038","487-VK","2017/07/15 13:49:26","新北市板橋區民生路二段120號","121.47055","25.0195883333333","6500100","板橋區"
"220037","491-VK","2017/07/15 13:49:38","新北市板橋區民生路二段89-6號","121.470511666667","25.0194016666667","6500100","板橋區"
"220104","560-BX","2017/07/15 13:49:38","新北市板橋區中正路325巷41號","121.453435","25.0193083333333","6500100","板橋區"
"220011","609-BX","2017/07/15 13:49:34","新北市板橋區民生路二段36-1號","121.472476666667","25.0166","6500100","板橋區"
"220005","686-BX","2017/07/15 13:49:38","新北市板橋區民生路二段36-1號","121.472618333333","25.01655","6500100","板橋區"
"220025","687-BX","2017/07/15 13:49:18","新北市板橋區金門街95號","121.433341666667","24.9924533333333","6500100","板橋區"
"220042","689-BX","2017/07/15 13:49:31","新北市板橋區民生路二段161巷3號","121.470238333333","25.0197883333333","6500100","板橋區"
"220002","741-BX","2017/07/15 13:49:19","新北市板橋區民生路二段36-1號","121.472548333333","25.0167833333333","6500100","板橋區"
"220003","827-TW","2017/07/15 13:49:32","新北市板橋區民生路二段15-1號","121.47268","25.0164166666667","6500100","板橋區"
"220014","829-TW","2017/07/15 13:49:31","新北市板橋區民生路二段36-1號","121.472206666667","25.0167733333333","6500100","板橋區"
"220051","830-TW","2017/07/15 13:49:33","新北市板橋區民生路二段161巷9號","121.470305","25.0197033333333","6500100","板橋區"
"220045","831-TW","2017/07/14 21:18:40","新北市板橋區民生路二段161巷1號","121.470288333333","25.0199933333333","6500100","板橋區"
"220022","895-R6","2017/07/15 13:49:33","新北市板橋區南雅東路2號","121.455648333333","25.00581","6500100","板橋區"
"220021","985-R7","2017/07/15 13:49:22","新北市板橋區館前西路129號","121.456511666667","25.0076283333333","6500100","板橋區"
"220046","AAC-210","2017/07/15 13:49:29","新北市板橋區民生路二段161巷9號","121.470298333333","25.0196683333333","6500100","板橋區"
"220018","AAC-253","2017/07/15 13:49:31","新北市板橋區民生路二段56-1號","121.472286666667","25.0169783333333","6500100","板橋區"
