"lineid","car","time","location","longitude","latitude","cityid","cityname"
"234044","148-BY","2017/07/15 14:09:30","新北市永和區成功路一段107號","121.526913333333","25.0024133333333","6500400","永和區"
"234012","149-BY","2017/07/15 14:09:30","新北市永和區保生路55號","121.504723333333","25.0106166666667","6500400","永和區"
"234005","207-UY","2017/07/15 14:09:26","新北市中和區中和路232號","121.506795","24.9994283333333","6500400","永和區"
"234078","298-R6","2017/07/15 14:09:26","新北市永和區國中路101號","121.524203333333","25.0060433333333","6500400","永和區"
"234036","336-UY","2017/07/15 14:09:31","新北市永和區成功路一段14號","121.527081666667","25.0051766666667","6500400","永和區"
"234062","337-UY","2017/07/15 14:09:23","新北市永和區永利路150號","121.52241","25.0027733333333","6500400","永和區"
"234084","338-UY","2017/07/15 14:09:22","新北市永和區福和路67號","121.522751666667","25.0078283333333","6500400","永和區"
"234068","552-UM","2017/07/15 14:09:28","新北市永和區永安街16巷2號","121.519068333333","25.00609","6500400","永和區"
"234052","553-UM","2017/07/15 14:09:34","新北市永和區博愛街18巷2號","121.517256666667","25.0157433333333","6500400","永和區"
"234015","745-BX","2017/07/15 14:09:32","新北市永和區仁愛路17號","121.514638333333","25.013325","6500400","永和區"
"234028","746-BX","2017/07/15 14:09:28","新北市永和區民權路84號","121.519726666667","24.997075","6500400","永和區"
"234060","AAD-866","2017/07/15 14:09:23","新北市永和區安樂路100巷11號","121.514433333333","24.99932","6500400","永和區"
"234040","862-TW","2017/07/15 14:09:21","新北市永和區雙和街64巷22弄3號","121.509698333333","25.0031583333333","6500400","永和區"
"234048","863-TW","2017/07/15 14:09:36","新北市永和區環河西路二段37號","121.507423333333","25.0155983333333","6500400","永和區"
"234025","9371-KE","2017/07/15 14:09:26","新北市永和區安樂路198巷安和二弄2號","121.515545","25.00187","6500400","永和區"
"234010","9373-KE","2017/07/15 14:09:24","新北市永和區仁愛路352巷122弄11號","121.500711666667","25.00881","6500400","永和區"
"248017","225-UY","2017/07/15 14:09:29","新北市五股區民義路一段286號","121.425338333333","25.0931366666667","6501500","五股區"
"234022","9380-KE","2017/07/15 14:09:33","新北市永和區竹林路25巷4號","121.517593333333","25.0147916666667","6500400","永和區"
"234076","969-R7","2017/07/15 14:09:30","新北市永和區民權路100號","121.519848333333","24.99665","6500400","永和區"
"234072","AAC-211","2017/07/15 14:09:23","新北市永和區豫溪街191巷5號","121.523606666667","25.01058","6500400","永和區"
"234066","AAC-212","2017/07/15 14:09:25","新北市永和區永貞路362號","121.510191666667","25.00668","6500400","永和區"
"234001","AAC-295","2017/07/15 14:09:21","新北市永和區中正路706號","121.516121666667","25.0098683333333","6500400","永和區"
"244005","248-BX","2017/07/15 14:09:26","新北市林口區瑞平里33-1號","121.34858","25.12823","6501700","林口區"
"231002","002-UM","2017/07/15 14:09:29","新北市新店區中正路530號","121.533798333333","24.9840283333333","6500600","新店區"
"231025","0293-UT","2017/07/15 14:09:32","新北市新店區中正路328巷18號","121.5375","24.9756666666667","6500600","新店區"
"231028","046-UY","2017/07/15 14:09:32","新北市新店區安和路二段211號","121.517751666667","24.9755016666667","6500600","新店區"
"231030","047-UY","2017/07/15 14:09:35","新北市新店區安民街65巷21-2號","121.515263333333","24.9674316666667","6500600","新店區"
"231029","106-UY","2017/07/15 14:09:23","新北市新店區安康路二段137號","121.51183","24.9603766666667","6500600","新店區"
"231018","107-UY","2017/07/15 14:09:25","新北市新店區中央五街37號","121.52854","24.9750333333333","6500600","新店區"
"231012","108-UY","2017/07/15 14:09:34","新北市新店區五峰路63巷8弄42號","121.547875","24.9686866666667","6500600","新店區"
"231020","187-VK","2017/07/15 14:09:32","新北市新店區屈尺路97號","121.545588333333","24.9234633333333","6500600","新店區"
"231026","256-BX","2017/07/15 14:09:21","新北市新店區安康路一段355-3號","121.519428333333","24.9617266666667","6500600","新店區"
"231034","268-BY","2017/07/15 14:09:24","新北市新店區黎明路3號","121.503648333333","24.9524816666667","6500600","新店區"
"231017","AAD-862","2017/07/15 14:09:26","新北市新店區中生路148-2號","121.568833333333","24.948985","6500600","新店區"
"231027","3712-VJ","2017/07/15 14:09:21","新北市新店區北宜路一段39巷20號","121.53881","24.95849","6500600","新店區"
"231038","4715-K9","2017/07/15 14:09:27","新北市新店區溪洲路121號","121.531298333333","24.9626816666667","6500600","新店區"
"231036","512-UM","2017/07/15 14:09:36","新北市新店區安祥路109巷1弄51號","121.477371666667","24.96064","6500600","新店區"
"231023","513-UM","2017/07/15 14:09:40","新北市新店區文中路51號","121.539781666667","24.9566766666667","6500600","新店區"
"231035","515-UM","2017/07/15 14:09:32","新北市新店區安和路一段52巷2-1號","121.517661666667","24.9662866666667","6500600","新店區"
"231003","616-UM","2017/07/15 14:09:28","新北市新店區中興路一段140號","121.542303333333","24.96372","6500600","新店區"
"231006","617-UM","2017/07/15 14:09:31","新北市新店區北宜路二段142號","121.557361666667","24.9539333333333","6500600","新店區"
"231001","619-UM","2017/07/15 14:09:35","新北市新店區中華路52號","121.539576666667","24.96855","6500600","新店區"
"231013","719-UM","2017/07/15 14:09:18","新北市新店區北新路三段65巷12弄21號","121.540691666667","24.981715","6500600","新店區"
"231033","720-UM","2017/07/15 14:09:27","新北市新店區永業路46號","121.531731666667","24.9536616666667","6500600","新店區"
"231005","897-TW","2017/07/15 14:09:32","新北市新店區寶慶街71號","121.541963333333","24.9866066666667","6500600","新店區"
"231004","899-TW","2017/07/15 14:09:28","新北市新店區北新路二段256號","121.542936666667","24.97805","6500600","新店區"
"231037","AKT-0513","2017/07/15 14:09:30","新北市新店區安康路二段317號","121.499375","24.9565716666667","6500600","新店區"
"235030","003-UY","2017/07/15 14:09:21","新北市中和區廣福路69號","121.502625","25.0009933333333","6500300","中和區"
"235028","005-UY","2017/07/15 14:09:33","新北市中和區泰和街30巷15號","121.499098333333","25.0009183333333","6500300","中和區"
"235027","006-UY","2017/07/15 14:09:27","新北市中和區連城路249巷5號","121.493708333333","24.99684","6500300","中和區"
"235020","096-UM","2017/07/15 14:09:25","新北市中和區員山路541號","121.479501666667","25.0071916666667","6500300","中和區"
"235003","097-UM","2017/07/15 14:09:32","新北市中和區景平路3號","121.523666666667","24.9902583333333","6500300","中和區"
"235029","098-UM","2017/07/15 14:09:22","新北市中和區中山路二段136巷8號","121.501955","25.00378","6500300","中和區"
"235004","150-BY","2017/07/15 14:09:29","新北市中和區保健路46巷24弄1號","121.508566666667","24.9955133333333","6500300","中和區"
"235022","151-BY","2017/07/15 14:09:23","新北市中和區員山路104號","121.481135","24.99544","6500300","中和區"
"235019","183-VK","2017/07/15 14:09:34","新北市中和區德光路113號","121.468075","25.00317","6500300","中和區"
"235002","185-VK","2017/07/15 14:09:35","新北市中和區立人街6號","121.51971","24.994215","6500300","中和區"
"235013","186-VK","2017/07/15 14:09:20","新北市中和區明禮街24號","121.504401666667","24.9961916666667","6500300","中和區"
"235031","255-BX","2017/07/15 14:09:34","新北市中和區新生街264號","121.483698333333","24.9971983333333","6500300","中和區"
"235008","293-VK","2017/07/15 14:09:28","新北市中和區中興街163號","121.49996","24.99082","6500300","中和區"
"235036","301-VK","2017/07/15 14:09:30","新北市中和區莊敬路31巷36-1號","121.499928333333","25.0059133333333","6500300","中和區"
"235007","352-BY","2017/07/15 14:09:01","新北市中和區景平路71-3號","121.519461666667","24.99147","6500300","中和區"
"235015","376-QA","2017/07/15 14:09:22","新北市中和區忠孝街19巷29號","121.50973","24.9844266666667","6500300","中和區"
"235032","377-QA","2017/07/15 14:09:33","新北市中和區連勝街38巷9號","121.497618333333","24.997985","6500300","中和區"
"235025","378-QA","2017/07/15 14:09:30","新北市中和區中山路三段54號","121.478361666667","25.0057883333333","6500300","中和區"
"235014","4979-A6","2017/07/15 14:09:31","新北市中和區復興路280巷18弄20號","121.501728333333","24.9922083333333","6500300","中和區"
"235033","4980-A6","2017/07/15 14:09:31","新北市中和區景平路736巷1弄6號","121.497255","25.0038883333333","6500300","中和區"
"235006","551-UM","2017/07/15 14:09:37","新北市中和區自立路113號","121.522245","24.9944816666667","6500300","中和區"
"235009","565-BX","2017/07/15 14:09:22","新北市中和區景新街467巷38弄2號","121.514535","24.988575","6500300","中和區"
"235018","640-BX","2017/07/15 14:09:26","新北市中和區國光街8巷2號","121.471781666667","25.000245","6500300","中和區"
"235024","647-TV","2017/07/15 14:09:38","新北市中和區中山路三段97號","121.47528","25.006085","6500300","中和區"
"235011","732-UM","2017/07/15 14:09:31","新北市中和區興南路一段50號","121.510876666667","24.9906066666667","6500300","中和區"
"235010","733-UM","2017/07/15 14:09:30","新北市中和區忠孝街1巷52號","121.508393333333","24.98449","6500300","中和區"
"235035","783-BX","2017/07/15 14:09:28","新北市中和區中正路755號","121.484971666667","25.000335","6500300","中和區"
"235026","800-TS","2017/07/15 14:09:24","新北市中和區中山路二段488-1號","121.487435","25.0048766666667","6500300","中和區"
"235021","801-TS","2017/07/15 14:09:39","新北市中和區民利街56號","121.47913","24.998735","6500300","中和區"
"235005","802-TS","2017/07/15 14:09:33","新北市中和區中安街216號","121.511885","24.9989316666667","6500300","中和區"
"235016","805-TS","2017/07/15 14:09:22","新北市中和區興南路二段114巷2號","121.504355","24.984255","6500300","中和區"
"235012","896-TW","2017/07/15 14:09:29","新北市中和區華新街109巷11弄3-10號","121.508821666667","24.9796216666667","6500300","中和區"
"235017","900-TW","2017/07/15 14:09:37","新北市板橋區和平路185巷1號","121.464081666667","24.996385","6500300","中和區"
"235034","911-UM","2017/07/15 14:09:34","新北市中和區安和路189號","121.506133333333","24.9983266666667","6500300","中和區"
"235001","AAC-213","2017/07/15 14:09:39","新北市中和區秀朗路三段128巷7弄1號","121.524581666667","24.9927216666667","6500300","中和區"
"235023","AAC-215","2017/07/15 14:09:37","新北市中和區圓通路296巷31弄2號","121.488616666667","24.9905633333333","6500300","中和區"
"220016","013-TV","2017/07/15 14:09:31","新北市板橋區三民路一段1巷53號","121.480928333333","25.0248916666667","6500100","板橋區"
"220013","072-UY","2017/07/15 14:09:39","新北市板橋區民族路247巷3弄19號","121.469858333333","25.0075883333333","6500100","板橋區"
"220034","073-UY","2017/07/15 14:09:36","新北市板橋區中正路236巷54號","121.45755","25.01921","6500100","板橋區"
"220105","075-UY","2017/07/15 14:09:31","新北市板橋區雙十路三段9號","121.471521666667","25.03005","6500100","板橋區"
"220017","AAD-861","2017/07/15 14:09:19","新北市板橋區南雅南路一段1巷42號","121.457418333333","25.0062433333333","6500100","板橋區"
"247019","893-R6","2017/07/15 14:09:35","新北市蘆洲區民族路446-5號","121.472706666667","25.0922266666667","6501400","蘆洲區"
"247009","546-UM","2017/07/15 14:09:21","新北市蘆洲區信義路204號","121.479015","25.0847416666667","6501400","蘆洲區"
"247017","500-BY","2017/07/15 14:09:19","新北市蘆洲區民族路201巷15號","121.477303333333","25.0887583333333","6501400","蘆洲區"
"247005","341-TH","2017/07/15 14:09:31","新北市蘆洲區九芎街58號","121.467161666667","25.0788616666667","6501400","蘆洲區"
"247007","339-TH","2017/07/15 14:09:32","新北市蘆洲區中山一路285號","121.471966666667","25.0795883333333","6501400","蘆洲區"
"247023","337-TH","2017/07/15 14:09:24","新北市蘆洲區光明路16號","121.46115","25.0867166666667","6501400","蘆洲區"
"247001","336-TH","2017/07/15 14:09:25","新北市蘆洲區永平街62號","121.457498333333","25.091635","6501400","蘆洲區"
"247013","057-VK","2017/07/15 14:09:20","新北市蘆洲區三民路165號","121.471456666667","25.0869883333333","6501400","蘆洲區"
"247003","056-VK","2017/07/15 14:09:36","新北市蘆洲區長安街108巷20號","121.461806666667","25.082155","6501400","蘆洲區"
"247011","007-UY","2017/07/15 14:09:36","新北市蘆洲區信義路345號","121.47782","25.0872266666667","6501400","蘆洲區"
"247021","002-UY","2017/07/15 14:09:19","新北市蘆洲區三民路169號","121.471125","25.08705","6501400","蘆洲區"
"247015","001-UY","2017/07/15 14:09:26","新北市蘆洲區光華路46巷22號","121.468248333333","25.0837783333333","6501400","蘆洲區"
"228004","212-TW","2017/07/15 14:09:36","新北市貢寮區雙玉里下雙溪街10-3號","121.916063333333","25.0136216666667","6502600","貢寮區"
"228005","828-UM","2017/07/15 14:09:24","新北市貢寮區美豐里土地公嶺24號","121.890625","25.0631883333333","6502600","貢寮區"
"208004","AAC-292","2017/07/15 14:09:26","新北市金山區六股里下六股65號","121.61441","25.2236333333333","6502700","金山區"
"207002","749-BX","2017/07/15 14:09:24","新北市萬里區溪底里瑞泉路10號","121.603871666667","25.1454366666667","6502800","萬里區"
"207001","463-BY","2017/07/15 14:09:28","新北市萬里區磺潭里清水9號","121.64021","25.1997233333333","6502800","萬里區"
"252005","073-UM","2017/07/15 14:09:14","新北市三芝區橫山里大坑43號","121.535181666667","25.24701","6502100","三芝區"
"236068","105-UM","2017/07/15 14:09:27","新北市土城區金城路一段88巷32號","121.446583333333","24.9735683333333","6501300","土城區"
"236041","107-UM","2017/07/15 14:09:33","新北市土城區裕生路61號","121.44763","24.9860033333333","6501300","土城區"
"236075","166-UM","2017/07/15 14:09:35","新北市土城區永寧路25號","121.430525","24.9635666666667","6501300","土城區"
"236029","253-BX","2017/07/15 14:09:23","新北市土城區城林路6巷80號","121.438321666667","24.9797933333333","6501300","土城區"
"236025","269-VK","2017/07/15 14:09:35","新北市土城區承天路18號","121.439505","24.9633966666667","6501300","土城區"
"236013","270-VK","2017/07/15 14:09:32","新北市土城區學府路二段133號","121.448178333333","24.980395","6501300","土城區"
"236035","271-VK","2017/07/15 14:09:24","新北市土城區青雲路451巷7弄1號","121.459098333333","24.9749416666667","6501300","土城區"
"236017","401-BY","2017/07/15 14:09:24","新北市土城區城林路6巷80號","121.43838","24.9798816666667","6501300","土城區"
"236006","498-BY","2017/07/15 14:09:25","新北市土城區中華路一段79號","121.444956666667","24.9876933333333","6501300","土城區"
"236057","912-UM","2017/07/15 14:09:21","新北市土城區中央路四段8號","121.421225","24.9610833333333","6501300","土城區"
"236045","913-UM","2017/07/15 14:09:31","新北市土城區明德路一段365-1號","121.45348","24.9791183333333","6501300","土城區"
"236061","915-UM","2017/07/15 14:09:34","新北市土城區金城路二段204號","121.455078333333","24.9819133333333","6501300","土城區"
"236054","AAC-216","2017/07/15 14:09:36","新北市土城區中華路二段102號","121.438086666667","24.9743133333333","6501300","土城區"
"239006","292-BY","2017/07/15 11:05:50","新北市鶯歌區二甲路13號","121.344028333333","24.9353966666667","6500800","鶯歌區"
"220027","145-BY","2017/07/15 14:09:25","新北市板橋區民權路260巷35號","121.459181666667","25.0153166666667","6500100","板橋區"
"220030","610-BX","2017/07/15 14:09:34","新北市板橋區溪崑二街57號","121.42826","24.9906816666667","6500100","板橋區"
"220050","245-BX","2017/07/15 14:09:36","新北市板橋區民生路二段183號","121.469406666667","25.0204533333333","6500100","板橋區"
"220052","257-TC","2017/07/15 14:09:37","新北市板橋區文化路一段188巷11弄52號","121.469175","25.01878","6500100","板橋區"
"220040","267-BY","2017/07/15 14:09:31","新北市板橋區縣民大道247巷80號","121.482161666667","25.0269566666667","6500100","板橋區"
"220004","276-BY","2017/07/15 14:09:38","新北市板橋區信義路74巷1弄1號","121.457281666667","24.9932","6500100","板橋區"
"220020","277-BY","2017/07/15 14:07:53","新北市板橋區金門街369巷57弄7號","121.429385","24.9840966666667","6500100","板橋區"
"220012","280-UM","2017/07/15 14:09:32","新北市板橋區民生路一段28-12號","121.476373333333","25.012195","6500100","板橋區"
"220019","283-VK","2017/07/15 14:09:27","新北市板橋區重慶路245巷50弄35號","121.465241666667","24.99989","6500100","板橋區"
"220043","285-UM","2017/07/15 14:09:29","新北市板橋區光武街161號","121.465435","25.0297816666667","6500100","板橋區"
"220001","285-VK","2017/07/15 14:09:33","新北市板橋區懷仁街34巷12號","121.476055","25.0192383333333","6500100","板橋區"
"220031","286-VK","2017/07/15 14:09:25","新北市板橋區大觀路二段174巷176弄15號","121.442843333333","25.003265","6500100","板橋區"
"220029","287-VK","2017/07/15 14:09:33","新北市板橋區光華街39巷28號","121.452933333333","25.013025","6500100","板橋區"
"220039","288-VK","2017/07/15 14:09:29","新北市板橋區裕民街52號","121.461483333333","25.02875","6500100","板橋區"
"220009","293-UM","2017/07/15 14:09:24","新北市板橋區中山路二段268號","121.478961666667","25.018495","6500100","板橋區"
"220032","296-UM","2017/07/15 14:09:31","新北市板橋區篤行路一段22號","121.431963333333","24.994355","6500100","板橋區"
"220023","297-UM","2017/07/15 14:09:27","新北市板橋區大智街25巷42號","121.45379","25.0149983333333","6500100","板橋區"
"220010","303-R5","2017/07/15 14:09:30","新北市板橋區三民路二段居仁巷2弄32號","121.479986666667","25.012885","6500100","板橋區"
"220041","307-R5","2017/07/15 14:09:20","新北市板橋區文化路二段225巷60弄20號","121.469215","25.0289166666667","6500100","板橋區"
"220047","317-R6","2017/07/15 14:09:38","新北市板橋區自由路51巷14弄3號","121.464781666667","25.0236033333333","6500100","板橋區"
"220028","461-BY","2017/07/15 14:09:22","新北市板橋區大觀路二段7巷82號","121.449686666667","25.0030616666667","6500100","板橋區"
"220038","487-VK","2017/07/15 14:09:26","新北市板橋區文化路二段443號","121.475166666667","25.0332366666667","6500100","板橋區"
"220037","491-VK","2017/07/15 14:09:38","新北市板橋區文化路二段182巷3弄31號","121.472178333333","25.02836","6500100","板橋區"
"220104","560-BX","2017/07/15 14:09:18","新北市板橋區中正路411號","121.45411","25.022595","6500100","板橋區"
"220011","609-BX","2017/07/15 14:09:34","新北市板橋區三民路二段167號","121.47916","25.014525","6500100","板橋區"
"220005","686-BX","2017/07/15 14:09:38","新北市板橋區重慶路153號","121.462401666667","25.004145","6500100","板橋區"
"220025","687-BX","2017/07/15 14:09:35","新北市板橋區龍興街65巷1號","121.443435","25.0013633333333","6500100","板橋區"
"220042","689-BX","2017/07/15 14:09:31","新北市板橋區民生路三段309號","121.463658333333","25.0310333333333","6500100","板橋區"
"220002","741-BX","2017/07/15 14:09:19","新北市板橋區重慶路89巷12號","121.46301","25.00643","6500100","板橋區"
"220003","827-TW","2017/07/15 14:09:32","新北市板橋區新民街41號","121.464148333333","25.0108116666667","6500100","板橋區"
"220014","829-TW","2017/07/15 14:09:31","新北市板橋區中山路二段90巷43弄14號","121.47686","25.0150466666667","6500100","板橋區"
"220051","830-TW","2017/07/15 14:09:33","新北市板橋區田單街40號","121.482526666667","25.02798","6500100","板橋區"
"220045","831-TW","2017/07/15 14:09:24","新北市板橋區大同街8巷13號","121.477286666667","25.0264366666667","6500100","板橋區"
"220022","895-R6","2017/07/15 14:09:33","新北市板橋區府中路127號","121.456096666667","25.0095016666667","6500100","板橋區"
"220021","985-R7","2017/07/15 14:09:26","新北市板橋區民權路292號","121.457266666667","25.0158833333333","6500100","板橋區"
"220046","AAC-210","2017/07/15 14:09:29","新北市板橋區英士路199號","121.458816666667","25.0235233333333","6500100","板橋區"
"220018","AAC-253","2017/07/15 14:09:31","新北市板橋區四川路一段292號","121.458668333333","25.0006483333333","6500100","板橋區"
