"lineid","car","time","location","longitude","latitude","cityid","cityname"
"234012","149-BY","2017/07/15 14:29:30","新北市永和區保生路40巷1號","121.505818333333","25.00831","6500400","永和區"
"234005","207-UY","2017/07/15 14:29:26","新北市永和區中正路503號","121.516991666667","25.0068916666667","6500400","永和區"
"234078","298-R6","2017/07/15 14:29:38","新北市永和區永貞路76號","121.520141666667","25.00521","6500400","永和區"
"234062","337-UY","2017/07/15 14:29:23","新北市永和區中正路445號","121.517096666667","25.00531","6500400","永和區"
"234084","338-UY","2017/07/15 14:29:25","新北市永和區永和路二段299號","121.51609","25.01635","6500400","永和區"
"234052","553-UM","2017/07/15 14:29:34","新北市永和區環河東路一段82號","121.519686666667","25.0164433333333","6500400","永和區"
"234028","746-BX","2017/07/15 14:29:17","新北市中和區景安路53號","121.507278333333","24.9982383333333","6500400","永和區"
"234060","AAD-866","2017/07/15 14:29:34","新北市永和區秀安街17號","121.516133333333","25.0035733333333","6500400","永和區"
"234040","862-TW","2017/07/15 14:29:21","新北市永和區安樂路304巷7號","121.514388333333","25.005135","6500400","永和區"
"234048","863-TW","2017/07/15 14:29:36","新北市永和區環河西路二段55號","121.506995","25.01553","6500400","永和區"
"234025","9371-KE","2017/07/15 14:29:26","新北市中和區中安街80號","121.512113333333","25.001675","6500400","永和區"
"248017","225-UY","2017/07/15 14:29:29","新北市五股區外寮路13-1號","121.424918333333","25.0812183333333","6501500","五股區"
"234022","9380-KE","2017/07/15 14:29:33","新北市永和區保生路55-1號","121.504465","25.0109216666667","6500400","永和區"
"234072","AAC-211","2017/07/15 14:29:23","新北市永和區環河東路二段36號","121.522811666667","25.0124516666667","6500400","永和區"
"234066","AAC-212","2017/07/15 14:29:25","新北市永和區保平路268巷27號","121.50788","25.0059883333333","6500400","永和區"
"234001","AAC-295","2017/07/15 14:29:36","新北市永和區大新街31號","121.515175","25.0085366666667","6500400","永和區"
"244005","248-BX","2017/07/15 14:29:26","新北市林口區瑞平里33-1號","121.348285","25.1285566666667","6501700","林口區"
"231002","002-UM","2017/07/15 14:29:31","新北市新店區中正路374號","121.534981666667","24.976445","6500600","新店區"
"231025","0293-UT","2017/07/15 14:29:32","新北市新店區大豐路95號","121.538213333333","24.9788416666667","6500600","新店區"
"231028","046-UY","2017/07/15 14:29:30","新北市新店區安成街6號","121.510805","24.9603783333333","6500600","新店區"
"231030","047-UY","2017/07/15 14:29:35","新北市新店區安民街125號","121.516318333333","24.9687833333333","6500600","新店區"
"231029","106-UY","2017/07/15 14:29:23","新北市新店區安康路二段341巷1號","121.496863333333","24.955265","6500600","新店區"
"231018","107-UY","2017/07/15 14:29:25","新北市新店區中央三街53號","121.527386666667","24.9747183333333","6500600","新店區"
"231012","108-UY","2017/07/15 14:29:29","新北市新店區寶橋路138號","121.547798333333","24.9761816666667","6500600","新店區"
"231020","187-VK","2017/07/15 14:29:32","新北市新店區桂山路2-1號","121.556941666667","24.90429","6500600","新店區"
"231034","268-BY","2017/07/15 14:29:24","新北市新店區車子路11號","121.502873333333","24.9513066666667","6500600","新店區"
"231017","AAD-862","2017/07/15 14:29:26","新北市新店區北宜路三段83號","121.576991666667","24.9517983333333","6500600","新店區"
"231027","3712-VJ","2017/07/15 14:29:21","新北市新店區北新路二段228巷11號","121.543371666667","24.9772033333333","6500600","新店區"
"231038","4715-K9","2017/07/15 14:29:26","新北市新店區溪洲路182號","121.528815","24.9657033333333","6500600","新店區"
"231036","512-UM","2017/07/15 14:29:36","新北市新店區安祥路109巷92號","121.478275","24.959455","6500600","新店區"
"231023","513-UM","2017/07/15 14:29:20","新北市新店區北宜路一段9號","121.538133333333","24.9581216666667","6500600","新店區"
"231035","515-UM","2017/07/15 14:29:32","新北市新店區安光路10-1號","121.513775","24.9640816666667","6500600","新店區"
"231003","616-UM","2017/07/15 14:29:28","新北市新店區中興路一段267-3號","121.544991666667","24.9678383333333","6500600","新店區"
"231006","617-UM","2017/07/15 14:29:29","新北市新店區北宜路二段296號","121.5614","24.9540583333333","6500600","新店區"
"231001","619-UM","2017/07/15 14:29:35","新北市新店區北新路一段96巷23號","121.543083333333","24.9686866666667","6500600","新店區"
"231013","719-UM","2017/07/15 14:29:38","新北市新店區民權路108-4號","121.535911666667","24.9833883333333","6500600","新店區"
"231033","720-UM","2017/07/15 14:29:27","新北市新店區安業街8巷1號","121.515495","24.97743","6500600","新店區"
"231005","897-TW","2017/07/15 14:29:35","新北市新店區北新路三段45號","121.541825","24.9804016666667","6500600","新店區"
"231004","899-TW","2017/07/15 14:29:28","新北市新店區中正路263-1號","121.538486666667","24.973735","6500600","新店區"
"231037","AKT-0513","2017/07/15 14:29:30","新北市新店區柴埕路52巷3號","121.511695","24.9645816666667","6500600","新店區"
"235030","003-UY","2017/07/15 14:29:21","新北市中和區中和路212號","121.50576","24.999655","6500300","中和區"
"235028","005-UY","2017/07/15 14:29:33","新北市中和區連城路2號","121.499281666667","25.0024","6500300","中和區"
"235027","006-UY","2017/07/15 14:29:07","新北市中和區連城路203巷10弄7號","121.494753333333","24.9969783333333","6500300","中和區"
"235020","096-UM","2017/07/15 14:29:25","新北市中和區員山路514巷17號","121.479645","25.0096916666667","6500300","中和區"
"235003","097-UM","2017/07/15 14:29:32","新北市中和區秀峰街127巷2號","121.5195","24.991055","6500300","中和區"
"235029","098-UM","2017/07/15 14:29:22","新北市中和區永和路9巷1號","121.499155","25.0040266666667","6500300","中和區"
"235004","150-BY","2017/07/15 14:29:29","新北市中和區保健路106巷15號","121.512278333333","24.9956433333333","6500300","中和區"
"235022","151-BY","2017/07/15 14:29:23","新北市中和區連城路503號","121.482596666667","24.99537","6500300","中和區"
"235019","183-VK","2017/07/15 14:29:34","新北市中和區莒光路37巷3號","121.472436666667","25.0051633333333","6500300","中和區"
"235002","185-VK","2017/07/15 14:29:35","新北市中和區大智街23巷2弄3號","121.52003","24.9924283333333","6500300","中和區"
"235013","186-VK","2017/07/15 14:29:40","新北市中和區景新街285巷26號","121.510856666667","24.9936933333333","6500300","中和區"
"235031","255-BX","2017/07/15 14:29:34","新北市中和區連城路465號","121.48416","24.99608","6500300","中和區"
"235008","293-VK","2017/07/15 14:29:28","新北市中和區中興街250號","121.499423333333","24.98807","6500300","中和區"
"235036","301-VK","2017/07/15 14:29:30","新北市中和區廣福路10號","121.505693333333","25.0029333333333","6500300","中和區"
"235007","352-BY","2017/07/15 14:29:21","新北市中和區安樂路28號","121.512016666667","24.9922933333333","6500300","中和區"
"235015","376-QA","2017/07/15 14:29:22","新北市中和區和平街74號","121.507858333333","24.9910816666667","6500300","中和區"
"235032","377-QA","2017/07/15 14:29:33","新北市中和區枋寮街20號","121.502225","25.00016","6500300","中和區"
"235025","378-QA","2017/07/15 14:29:30","新北市中和區民安街2巷4號","121.480385","25.0014633333333","6500300","中和區"
"235014","4979-A6","2017/07/15 14:15:51","新北市中和區景安路220巷6-1號","121.50321","24.9911333333333","6500300","中和區"
"235033","4980-A6","2017/07/15 14:29:31","新北市中和區員山路36巷16-3號","121.484611666667","24.99077","6500300","中和區"
"235006","551-UM","2017/07/15 14:29:37","新北市中和區中和路378巷16號","121.511368333333","25.00152","6500300","中和區"
"235009","565-BX","2017/07/15 14:29:22","新北市中和區景新街423巷27號","121.513558333333","24.9895283333333","6500300","中和區"
"235018","640-BX","2017/07/15 14:29:26","新北市中和區國光街109巷27號","121.469415","24.9994183333333","6500300","中和區"
"235024","647-TV","2017/07/15 14:29:38","新北市中和區新生街118巷14號","121.482946666667","25.0017766666667","6500300","中和區"
"235011","732-UM","2017/07/15 14:29:29","新北市中和區景平路241巷64弄10號","121.507501666667","24.99268","6500300","中和區"
"235010","733-UM","2017/07/15 14:29:30","新北市中和區忠孝街37巷20號","121.510926666667","24.9839666666667","6500300","中和區"
"235035","783-BX","2017/07/15 14:29:29","新北市中和區中正路643號","121.485246666667","24.9956716666667","6500300","中和區"
"235026","800-TS","2017/07/15 14:29:24","新北市中和區中山路二段526巷32號","121.485868333333","25.00605","6500300","中和區"
"235021","801-TS","2017/07/15 14:29:39","新北市中和區台新街39號","121.479695","25.00505","6500300","中和區"
"235005","802-TS","2017/07/15 14:29:33","新北市中和區景安路2號","121.507928333333","24.9991166666667","6500300","中和區"
"235016","805-TS","2017/07/15 14:29:22","新北市中和區華新街143巷19號","121.506623333333","24.980955","6500300","中和區"
"235012","896-TW","2017/07/15 14:29:37","新北市中和區忠孝街72號","121.511985","24.984165","6500300","中和區"
"235017","900-TW","2017/07/15 14:29:37","新北市中和區華安街16巷10號","121.466493333333","24.9980483333333","6500300","中和區"
"235034","911-UM","2017/07/15 14:29:34","新北市中和區連城路16號","121.49881","25.00226","6500300","中和區"
"235001","AAC-213","2017/07/15 14:29:19","新北市中和區秀朗路三段60巷3號","121.526016666667","24.9950116666667","6500300","中和區"
"235023","AAC-215","2017/07/15 14:29:37","新北市中和區圓通路252巷6-1號","121.492853333333","24.9918066666667","6500300","中和區"
"220016","013-TV","2017/07/15 14:29:31","新北市板橋區中山路二段553巷4弄3號","121.483331666667","25.02268","6500100","板橋區"
"220013","072-UY","2017/07/15 14:29:39","新北市板橋區實踐路93巷97號","121.467576666667","25.006035","6500100","板橋區"
"220034","073-UY","2017/07/15 14:29:36","新北市板橋區中正路250巷74號","121.458315","25.0196666666667","6500100","板橋區"
"220105","075-UY","2017/07/15 14:29:26","新北市板橋區文化路二段417巷1號","121.473733333333","25.0333966666667","6500100","板橋區"
"220017","AAD-861","2017/07/15 14:29:20","新北市板橋區華興街31巷1號","121.458416666667","25.0044116666667","6500100","板橋區"
"247019","893-R6","2017/07/15 14:29:27","新北市蘆洲區水湳街115號","121.46981","25.0909933333333","6501400","蘆洲區"
"247009","546-UM","2017/07/15 14:29:21","新北市蘆洲區信義路146號","121.479511666667","25.08308","6501400","蘆洲區"
"247017","500-BY","2017/07/15 14:29:19","新北市蘆洲區復興路227巷25號","121.479418333333","25.09096","6501400","蘆洲區"
"247005","341-TH","2017/07/15 14:29:31","新北市蘆洲區長安街74號","121.462471666667","25.0801366666667","6501400","蘆洲區"
"247007","339-TH","2017/07/15 14:29:32","新北市蘆洲區信義路64號","121.475945","25.0791666666667","6501400","蘆洲區"
"247023","337-TH","2017/07/15 14:29:24","新北市蘆洲區中正路128號","121.469361666667","25.0848733333333","6501400","蘆洲區"
"247001","336-TH","2017/07/15 14:29:25","新北市蘆洲區永樂街38巷37號","121.45827","25.08945","6501400","蘆洲區"
"247013","057-VK","2017/07/15 14:29:20","新北市蘆洲區中山二路142號","121.471376666667","25.0814266666667","6501400","蘆洲區"
"247003","056-VK","2017/07/15 14:29:36","新北市蘆洲區長安街220巷9號","121.45926","25.0850283333333","6501400","蘆洲區"
"247011","007-UY","2017/07/15 14:29:36","新北市蘆洲區中興街132號","121.482146666667","25.0894883333333","6501400","蘆洲區"
"247021","002-UY","2017/07/15 14:29:39","新北市蘆洲區中正路507號","121.46123","25.097315","6501400","蘆洲區"
"247015","001-UY","2017/07/15 14:29:26","新北市蘆洲區中正路185巷78弄48號","121.465453333333","25.085265","6501400","蘆洲區"
"228004","212-TW","2017/07/15 14:29:32","新北市貢寮區雙玉里田寮洋街33號","121.93246","25.013045","6502600","貢寮區"
"228005","828-UM","2017/07/15 14:29:24","新北市貢寮區美豐里巫里岸9-1號","121.901943333333","25.0701033333333","6502600","貢寮區"
"208004","AAC-292","2017/07/15 14:29:26","新北市金山區兩湖里葵扇湖5號","121.596166666667","25.2285116666667","6502700","金山區"
"207002","749-BX","2017/07/15 14:27:24","新北市萬里區溪底里福德坑路24-1號","121.621616666667","25.1530333333333","6502800","萬里區"
"207001","463-BY","2017/07/15 14:29:28","新北市萬里區磺潭里清水5-1號","121.64101","25.20035","6502800","萬里區"
"252005","073-UM","2017/07/15 14:29:13","新北市三芝區橫山里大坑85號","121.5291","25.25833","6502100","三芝區"
"236068","105-UM","2017/07/15 14:29:34","新北市土城區永豐路205-3號","121.474093333333","24.977635","6501300","土城區"
"236041","107-UM","2017/07/15 14:29:33","新北市土城區裕民路61巷6號","121.449488333333","24.988075","6501300","土城區"
"236075","166-UM","2017/07/15 14:29:35","新北市土城區大暖路61-2號","121.422081666667","24.958295","6501300","土城區"
"236029","253-BX","2017/07/15 14:29:23","新北市土城區水源街69號","121.43987","24.9763166666667","6501300","土城區"
"236025","269-VK","2017/07/15 14:29:35","新北市土城區承天路20號","121.439546666667","24.9633133333333","6501300","土城區"
"236013","270-VK","2017/07/15 14:29:32","新北市土城區青雲路39巷7號","121.460271666667","24.9875183333333","6501300","土城區"
"236035","271-VK","2017/07/15 14:29:24","新北市土城區青雲路451巷6號","121.45955","24.974555","6501300","土城區"
"236017","401-BY","2017/07/15 14:29:24","新北市土城區永豐路202巷7號","121.46628","24.98326","6501300","土城區"
"236057","912-UM","2017/07/15 14:29:21","新北市土城區中央路四段466號","121.409985","24.9505733333333","6501300","土城區"
"236045","913-UM","2017/07/15 14:29:32","新北市土城區明德路一段311號","121.459485","24.9771366666667","6501300","土城區"
"236061","915-UM","2017/07/15 14:29:34","新北市土城區延壽路44巷11號","121.471426666667","24.99297","6501300","土城區"
"236054","AAC-216","2017/07/15 14:29:36","新北市土城區中華路二段121號","121.439015","24.9766583333333","6501300","土城區"
"239006","292-BY","2017/07/15 11:05:50","新北市鶯歌區二甲路13號","121.344028333333","24.9353966666667","6500800","鶯歌區"
"220027","145-BY","2017/07/15 14:29:21","新北市板橋區建國街5號","121.457166666667","25.0169033333333","6500100","板橋區"
"220030","610-BX","2017/07/15 14:29:39","新北市板橋區金門街293號","121.430265","24.98672","6500100","板橋區"
"220050","245-BX","2017/07/15 14:29:36","新北市板橋區縣民大道三段133巷3號","121.477553333333","25.0234083333333","6500100","板橋區"
"220052","257-TC","2017/07/15 14:29:21","新北市板橋區文化路一段268號","121.467078333333","25.0209033333333","6500100","板橋區"
"220040","267-BY","2017/07/15 14:29:29","新北市板橋區文聖街149巷25號","121.479548333333","25.0286016666667","6500100","板橋區"
"220004","276-BY","2017/07/15 14:29:40","新北市板橋區國慶路39號","121.459093333333","24.9957083333333","6500100","板橋區"
"220020","277-BY","2017/07/15 14:29:36","新北市板橋區篤行路二段153號","121.429706666667","24.9879816666667","6500100","板橋區"
"220012","280-UM","2017/07/15 14:29:32","新北市板橋區館前西路13號","121.458988333333","25.0068383333333","6500100","板橋區"
"220019","283-VK","2017/07/15 14:29:35","新北市板橋區四川路一段283巷2號","121.459703333333","25.0013","6500100","板橋區"
"220043","285-UM","2017/07/15 14:29:38","新北市板橋區雙十路三段17號","121.47075","25.03123","6500100","板橋區"
"220001","285-VK","2017/07/15 14:29:32","新北市板橋區富山街85巷6弄2號","121.476576666667","25.02121","6500100","板橋區"
"220031","286-VK","2017/07/15 14:29:25","新北市板橋區大觀路一段38巷168號","121.442045","25.004595","6500100","板橋區"
"220029","287-VK","2017/07/15 14:29:33","新北市板橋區南雅西路一段5巷7號","121.454525","25.0039783333333","6500100","板橋區"
"220039","288-VK","2017/07/15 14:29:28","新北市板橋區裕民街51號","121.461196666667","25.0284433333333","6500100","板橋區"
"220009","293-UM","2017/07/15 14:29:26","新北市板橋區中山路二段181號","121.476046666667","25.017085","6500100","板橋區"
"220032","296-UM","2017/07/15 14:29:31","新北市板橋區篤行路三段玉平巷83號","121.42828","24.98582","6500100","板橋區"
"220023","297-UM","2017/07/15 14:29:27","新北市板橋區南雅西路一段7巷1號","121.45435","25.0043366666667","6500100","板橋區"
"220010","303-R5","2017/07/15 14:29:30","新北市板橋區三民路二段109巷27號","121.480533333333","25.0161383333333","6500100","板橋區"
"220041","307-R5","2017/07/15 14:29:20","新北市板橋區光武街2巷37號","121.468641666667","25.0259283333333","6500100","板橋區"
"220047","317-R6","2017/07/15 14:29:38","新北市板橋區民生路三段263巷1弄2號","121.463826666667","25.02927","6500100","板橋區"
"220028","461-BY","2017/07/15 14:29:22","新北市板橋區大觀路二段37巷180號","121.449518333333","25.0021733333333","6500100","板橋區"
"220038","487-VK","2017/07/15 14:29:27","新北市板橋區文化路一段149號","121.462831666667","25.0157116666667","6500100","板橋區"
"220037","491-VK","2017/07/15 14:29:38","新北市板橋區三民路一段129-2號","121.479461666667","25.020805","6500100","板橋區"
"220104","560-BX","2017/07/15 14:29:38","新北市板橋區中正路375巷27號","121.45382","25.0203133333333","6500100","板橋區"
"220011","609-BX","2017/07/15 14:29:34","新北市板橋區三民路一段185號","121.479298333333","25.0194266666667","6500100","板橋區"
"220005","686-BX","2017/07/15 14:29:38","新北市板橋區五權街30巷1號","121.464758333333","24.9934233333333","6500100","板橋區"
"220025","687-BX","2017/07/15 14:29:38","新北市板橋區大觀路一段28巷30號","121.449913333333","25.00951","6500100","板橋區"
"220042","689-BX","2017/07/15 14:29:35","新北市板橋區雨農路27巷2號","121.461201666667","25.0242433333333","6500100","板橋區"
"220002","741-BX","2017/07/15 14:29:39","新北市板橋區光明街46號","121.460525","25.0024616666667","6500100","板橋區"
"220003","827-TW","2017/07/15 14:29:36","新北市板橋區重慶路278巷15號","121.462401666667","24.9995383333333","6500100","板橋區"
"220014","829-TW","2017/07/15 14:29:31","新北市板橋區漢生東路279巷10弄1-2號","121.472038333333","25.0089416666667","6500100","板橋區"
"220051","830-TW","2017/07/15 14:29:33","新北市板橋區松柏街17巷2號","121.47449","25.0301616666667","6500100","板橋區"
"220045","831-TW","2017/07/15 14:29:24","新北市板橋區莊敬路168號","121.471703333333","25.0225283333333","6500100","板橋區"
"220022","895-R6","2017/07/15 14:29:33","新北市板橋區福德街2巷17號","121.455653333333","25.0089383333333","6500100","板橋區"
"220021","985-R7","2017/07/15 14:29:22","新北市板橋區新生街16號","121.455481666667","25.0211116666667","6500100","板橋區"
"220046","AAC-210","2017/07/15 14:29:29","新北市板橋區陽明街239號","121.463055","25.0245083333333","6500100","板橋區"
"220018","AAC-253","2017/07/15 14:29:31","新北市板橋區忠孝路2號","121.459545","25.0015166666667","6500100","板橋區"
