"lineid","car","time","location","longitude","latitude","cityid","cityname"
"234005","207-UY","2017/07/15 14:39:26","新北市永和區安樂路218號","121.515006666667","25.0021033333333","6500400","永和區"
"234062","337-UY","2017/07/15 14:39:23","新北市永和區環河西路二段179號","121.504088333333","25.0127833333333","6500400","永和區"
"234084","338-UY","2017/07/15 14:39:22","新北市永和區光復街27號","121.516551666667","25.017545","6500400","永和區"
"234028","746-BX","2017/07/15 14:39:37","新北市板橋區民生路二段120號","121.470511666667","25.0194666666667","6500400","永和區"
"234040","862-TW","2017/07/15 14:39:21","新北市永和區永和路二段216號","121.515796666667","25.0139933333333","6500400","永和區"
"234025","9371-KE","2017/07/15 14:39:26","新北市永和區雙和街7巷7號","121.509525","25.0014966666667","6500400","永和區"
"248017","225-UY","2017/07/15 14:38:49","新北市五股區外寮路13-1號","121.424906666667","25.081235","6501500","五股區"
"234066","AAC-212","2017/07/15 14:39:25","新北市中和區保平路231號","121.508001666667","25.0044466666667","6500400","永和區"
"234001","AAC-295","2017/07/15 14:39:21","新北市永和區中正路626號","121.516928333333","25.0079516666667","6500400","永和區"
"244005","248-BX","2017/07/15 14:39:26","新北市林口區瑞平里33-1號","121.348193333333","25.1286966666667","6501700","林口區"
"231002","002-UM","2017/07/15 14:39:24","新北市新店區中正路468-2號","121.533946666667","24.9800116666667","6500600","新店區"
"231025","0293-UT","2017/07/15 14:39:32","新北市新店區民族路161號","121.537661666667","24.9767366666667","6500600","新店區"
"231028","046-UY","2017/07/15 14:39:30","新北市新店區安德街60巷35號","121.5111","24.9634766666667","6500600","新店區"
"231030","047-UY","2017/07/15 14:39:35","新北市新店區安民街241號","121.517221666667","24.9722583333333","6500600","新店區"
"231029","106-UY","2017/07/15 14:39:23","新北市新店區安康路三段351號","121.484931666667","24.9513833333333","6500600","新店區"
"231018","107-UY","2017/07/15 14:39:25","新北市新店區中央五街10號","121.52976","24.974","6500600","新店區"
"231012","108-UY","2017/07/15 14:39:29","新北市新店區寶橋路78巷2-1號","121.546928333333","24.97459","6500600","新店區"
"231020","187-VK","2017/07/15 14:39:32","新北市新店區桂山路61巷2號","121.565423333333","24.90123","6500600","新店區"
"231034","268-BY","2017/07/15 14:39:24","新北市新店區黎明路51巷2號","121.501976666667","24.9491566666667","6500600","新店區"
"231017","AAD-862","2017/07/15 14:39:26","新北市新店區北宜路三段221號","121.592405","24.9532466666667","6500600","新店區"
"231027","3712-VJ","2017/07/15 14:39:21","新北市新店區德正街12號","121.543655","24.9725316666667","6500600","新店區"
"231038","4715-K9","2017/07/15 14:39:27","新北市新店區安康路一段355-3號","121.519718333333","24.9628183333333","6500600","新店區"
"231036","512-UM","2017/07/15 14:39:36","新北市新店區安祥路106巷341號","121.472806666667","24.959245","6500600","新店區"
"231023","513-UM","2017/07/15 14:39:20","新北市新店區檳榔路20號","121.541221666667","24.9642416666667","6500600","新店區"
"231035","515-UM","2017/07/15 14:39:32","新北市新店區安光路15巷1號","121.512358333333","24.96355","6500600","新店區"
"231003","616-UM","2017/07/15 14:39:28","新北市新店區中正路5號","121.545695","24.9690383333333","6500600","新店區"
"231006","617-UM","2017/07/15 14:39:29","新北市新店區北宜路二段129號","121.55079","24.95306","6500600","新店區"
"231001","619-UM","2017/07/15 14:39:35","新北市新店區中正路31號","121.5451","24.9696316666667","6500600","新店區"
"231013","719-UM","2017/07/15 14:39:18","新北市新店區明德路24-1號","121.541968333333","24.97717","6500600","新店區"
"231005","897-TW","2017/07/15 14:39:31","新北市新店區復興路44-1號","121.538643333333","24.986695","6500600","新店區"
"231004","899-TW","2017/07/15 14:39:28","新北市新店區中正路263-4號","121.53826","24.9737666666667","6500600","新店區"
"235030","003-UY","2017/07/15 14:39:21","新北市中和區景新街162號","121.505751666667","24.9971183333333","6500300","中和區"
"235028","005-UY","2017/07/15 14:39:33","新北市中和區南山路131-11號","121.502415","24.9963316666667","6500300","中和區"
"235027","006-UY","2017/07/15 14:39:27","新北市中和區連城路243號","121.493635","24.9972916666667","6500300","中和區"
"235020","096-UM","2017/07/15 14:39:25","新北市中和區員山路581巷2弄8號","121.478066666667","25.009695","6500300","中和區"
"235003","097-UM","2017/07/15 14:39:32","新北市永和區中正路64號","121.513401666667","24.9947866666667","6500300","中和區"
"235029","098-UM","2017/07/15 14:39:22","新北市中和區莊敬路31巷15號","121.500018333333","25.0052266666667","6500300","中和區"
"235004","150-BY","2017/07/15 14:39:29","新北市中和區宜安路23巷3號","121.512746666667","24.9956266666667","6500300","中和區"
"235022","151-BY","2017/07/15 14:39:23","新北市中和區員山路124巷3號","121.48154","24.9960266666667","6500300","中和區"
"235019","183-VK","2017/07/15 14:39:34","新北市中和區民生街35巷1弄2號","121.470345","25.00501","6500300","中和區"
"235002","185-VK","2017/07/15 14:39:35","新北市中和區自立路123號","121.521806666667","24.9942883333333","6500300","中和區"
"235013","186-VK","2017/07/15 14:39:20","新北市中和區安平路17號","121.509176666667","24.9941566666667","6500300","中和區"
"235031","255-BX","2017/07/15 14:39:34","新北市中和區連城路340巷10弄13號","121.483053333333","24.996625","6500300","中和區"
"235008","293-VK","2017/07/15 14:39:28","新北市中和區捷運路122號","121.505446666667","24.9915183333333","6500300","中和區"
"235036","301-VK","2017/07/15 14:39:30","新北市中和區連城路71號","121.497351666667","25.0011483333333","6500300","中和區"
"235007","352-BY","2017/07/15 14:39:21","新北市中和區景平路532號","121.502866666667","24.9945633333333","6500300","中和區"
"235015","376-QA","2017/07/15 14:39:22","新北市中和區南山路146巷29號","121.502993333333","24.992405","6500300","中和區"
"235032","377-QA","2017/07/15 14:39:33","新北市中和區莊敬路16巷15弄2號","121.500198333333","25.0035816666667","6500300","中和區"
"235025","378-QA","2017/07/15 14:39:30","新北市中和區民樂路22號","121.482411666667","25.0011983333333","6500300","中和區"
"235014","4979-A6","2017/07/15 14:15:51","新北市中和區景安路220巷6-1號","121.50321","24.9911333333333","6500300","中和區"
"235033","4980-A6","2017/07/15 14:39:31","新北市中和區圓通路172號","121.497248333333","24.9945366666667","6500300","中和區"
"235006","551-UM","2017/07/15 14:39:17","新北市中和區保健路2巷3號","121.507705","24.9981183333333","6500300","中和區"
"235009","565-BX","2017/07/15 14:39:22","新北市中和區景新街377號","121.512276666667","24.9903766666667","6500300","中和區"
"235018","640-BX","2017/07/15 14:39:26","新北市中和區國光街112巷22弄20號","121.470555","25.0023416666667","6500300","中和區"
"235024","647-TV","2017/07/15 14:39:38","新北市中和區中山路二段523巷10弄2號","121.481548333333","25.0046333333333","6500300","中和區"
"235011","732-UM","2017/07/15 14:39:29","新北市中和區南山路421巷1弄34號","121.507176666667","24.990585","6500300","中和區"
"235010","733-UM","2017/07/15 14:39:30","新北市中和區忠孝街86號","121.511605","24.984245","6500300","中和區"
"235035","783-BX","2017/07/15 14:39:29","新北市中和區連城路270號","121.484611666667","24.99638","6500300","中和區"
"235026","800-TS","2017/07/15 14:39:24","新北市中和區中山路二段365號","121.487771666667","25.00474","6500300","中和區"
"235021","801-TS","2017/07/15 14:39:22","新北市中和區員山路389號","121.481126666667","25.00274","6500300","中和區"
"235005","802-TS","2017/07/15 14:39:33","新北市中和區安平路36巷5號","121.510251666667","24.9947983333333","6500300","中和區"
"235016","805-TS","2017/07/15 14:39:22","新北市中和區華新街143巷82號","121.506533333333","24.9790116666667","6500300","中和區"
"235012","896-TW","2017/07/15 14:39:29","新北市新店區安和路三段157號","121.516453333333","24.985795","6500300","中和區"
"235017","900-TW","2017/07/15 14:39:17","新北市中和區民德路197-2號","121.468908333333","24.9987533333333","6500300","中和區"
"235034","911-UM","2017/07/15 14:39:34","新北市中和區中和路71號","121.500658333333","25.0009816666667","6500300","中和區"
"235001","AAC-213","2017/07/15 14:39:19","新北市中和區秀朗路三段50巷12弄6號","121.524046666667","24.9952533333333","6500300","中和區"
"235023","AAC-215","2017/07/15 14:39:37","新北市中和區圓通路307號","121.49339","24.990815","6500300","中和區"
"220016","013-TV","2017/07/15 14:39:31","新北市板橋區中山路二段412巷29弄30號","121.484838333333","25.0200183333333","6500100","板橋區"
"220013","072-UY","2017/07/15 14:39:19","新北市板橋區國泰街111巷15號","121.466073333333","25.005995","6500100","板橋區"
"220034","073-UY","2017/07/15 14:39:36","新北市板橋區國光路159號","121.459978333333","25.0182133333333","6500100","板橋區"
"220105","075-UY","2017/07/15 14:39:26","新北市板橋區文化路二段486號","121.475236666667","25.0330183333333","6500100","板橋區"
"220017","AAD-861","2017/07/15 14:39:19","新北市板橋區稚暉街35號","121.457078333333","25.0041083333333","6500100","板橋區"
"247009","546-UM","2017/07/15 14:39:21","新北市蘆洲區信義路222巷61號","121.481268333333","25.08532","6501400","蘆洲區"
"247005","341-TH","2017/07/15 14:39:31","新北市蘆洲區中華街65號","121.462195","25.0807166666667","6501400","蘆洲區"
"247007","339-TH","2017/07/15 14:39:32","新北市蘆洲區信義路27巷1號","121.474026666667","25.0793066666667","6501400","蘆洲區"
"247023","337-TH","2017/07/15 14:39:24","新北市蘆洲區中山二路222巷21弄7號","121.468923333333","25.08001","6501400","蘆洲區"
"247001","336-TH","2017/07/15 14:39:24","新北市蘆洲區長安街373號","121.457245","25.0878083333333","6501400","蘆洲區"
"247013","057-VK","2017/07/15 14:39:25","新北市蘆洲區中央路1號","121.473295","25.0821583333333","6501400","蘆洲區"
"247003","056-VK","2017/07/15 14:39:28","新北市蘆洲區長安街285巷5弄2號","121.45801","25.0841133333333","6501400","蘆洲區"
"247015","001-UY","2017/07/15 14:39:26","新北市蘆洲區正和街79號","121.468443333333","25.0809083333333","6501400","蘆洲區"
"228004","212-TW","2017/07/15 14:39:32","新北市貢寮區福隆里龜壽谷街30-4號","121.946873333333","25.01416","6502600","貢寮區"
"228005","828-UM","2017/07/15 14:39:24","新北市貢寮區美豐里雞母嶺街6-6號","121.902075","25.0642516666667","6502600","貢寮區"
"208004","AAC-292","2017/07/15 14:39:26","新北市金山區兩湖里倒照湖28號","121.600363333333","25.2392266666667","6502700","金山區"
"207002","749-BX","2017/07/15 14:39:24","新北市萬里區崁腳里崁腳路118-1號","121.645105","25.158315","6502800","萬里區"
"207001","463-BY","2017/07/15 14:39:28","新北市萬里區雙興里豐稟路26號","121.641206666667","25.1875","6502800","萬里區"
"252005","073-UM","2017/07/15 14:39:16","新北市三芝區橫山里大坑26號","121.525473333333","25.2544433333333","6502100","三芝區"
"236068","105-UM","2017/07/15 14:39:27","新北市土城區永豐路255巷12號","121.475391666667","24.973115","6501300","土城區"
"236041","107-UM","2017/07/15 14:39:33","新北市土城區學成路78巷9號","121.451206666667","24.9890633333333","6501300","土城區"
"236075","166-UM","2017/07/15 14:39:35","新北市土城區中央路四段125巷27-1號","121.417295","24.95653","6501300","土城區"
"236029","253-BX","2017/07/15 14:39:23","新北市土城區中華路二段187號","121.438478333333","24.97465","6501300","土城區"
"236025","269-VK","2017/07/15 14:39:35","新北市土城區忠義路49號","121.440441666667","24.9691233333333","6501300","土城區"
"236013","270-VK","2017/07/15 14:39:32","新北市土城區清水路211號","121.460436666667","24.982055","6501300","土城區"
"236035","271-VK","2017/07/15 14:39:31","新北市土城區青雲路411巷12弄7號","121.459863333333","24.9757633333333","6501300","土城區"
"236017","401-BY","2017/07/15 14:39:24","新北市土城區延吉街253巷2號","121.467538333333","24.9847133333333","6501300","土城區"
"236057","912-UM","2017/07/15 14:39:21","新北市土城區中央路四段22號","121.42106","24.9608916666667","6501300","土城區"
"236045","913-UM","2017/07/15 14:39:31","新北市土城區金城路三段10號","121.464735","24.986035","6501300","土城區"
"236061","915-UM","2017/07/15 14:39:34","新北市土城區延壽路75巷14號","121.4688","24.991855","6501300","土城區"
"236054","AAC-216","2017/07/15 14:39:36","新北市土城區中華路一段111號","121.444575","24.98698","6501300","土城區"
"239006","292-BY","2017/07/15 11:05:50","新北市鶯歌區二甲路13號","121.344028333333","24.9353966666667","6500800","鶯歌區"
"220027","145-BY","2017/07/15 14:39:21","新北市板橋區建國街52號","121.458735","25.01708","6500100","板橋區"
"220030","610-BX","2017/07/15 14:39:39","新北市板橋區大觀路三段263號","121.4292","24.9921583333333","6500100","板橋區"
"220050","245-BX","2017/07/15 14:39:36","新北市板橋區縣民大道三段33巷17-1號","121.47385","25.02129","6500100","板橋區"
"220052","257-TC","2017/07/15 14:39:35","新北市板橋區文化路一段280-3號","121.467346666667","25.02142","6500100","板橋區"
"220040","267-BY","2017/07/15 14:39:29","新北市板橋區懷德街201巷12號","121.481201666667","25.0294216666667","6500100","板橋區"
"220004","276-BY","2017/07/15 14:39:29","新北市板橋區信義路7號","121.457208333333","24.997005","6500100","板橋區"
"220020","277-BY","2017/07/15 14:39:32","新北市板橋區金門街253巷17弄9號","121.4335","24.98904","6500100","板橋區"
"220012","280-UM","2017/07/15 14:39:32","新北市板橋區民權路33號","121.462318333333","25.0110666666667","6500100","板橋區"
"220019","283-VK","2017/07/15 14:39:27","新北市板橋區五權街30巷37弄8號","121.46345","24.99247","6500100","板橋區"
"220043","285-UM","2017/07/15 14:39:18","新北市板橋區宏國路35號","121.468063333333","25.0317183333333","6500100","板橋區"
"220001","285-VK","2017/07/15 14:39:25","新北市板橋區中山路二段213號","121.47657","25.0170833333333","6500100","板橋區"
"220031","286-VK","2017/07/15 14:39:25","新北市板橋區大觀路二段174巷139號","121.441341666667","25.0023716666667","6500100","板橋區"
"220029","287-VK","2017/07/15 14:39:33","新北市板橋區大觀路一段29巷10弄41號","121.449918333333","25.0055183333333","6500100","板橋區"
"220039","288-VK","2017/07/15 14:39:28","新北市板橋區新海路431巷2號","121.457733333333","25.0274383333333","6500100","板橋區"
"220009","293-UM","2017/07/15 14:39:24","新北市板橋區中山路一段265巷36弄1號","121.469098333333","25.01517","6500100","板橋區"
"220032","296-UM","2017/07/15 14:39:31","新北市板橋區滿平二街32-3號","121.425163333333","24.9874883333333","6500100","板橋區"
"220023","297-UM","2017/07/15 14:39:27","新北市板橋區中正路253巷3號","121.455505","25.0182316666667","6500100","板橋區"
"220010","303-R5","2017/07/15 14:39:33","新北市板橋區三民路二段29巷31弄3號","121.481483333333","25.0178266666667","6500100","板橋區"
"220041","307-R5","2017/07/15 14:39:20","新北市板橋區自由路18號","121.465638333333","25.0224033333333","6500100","板橋區"
"220047","317-R6","2017/07/15 14:39:37","新北市板橋區四維路269巷47號","121.461233333333","25.0273166666667","6500100","板橋區"
"220028","461-BY","2017/07/15 14:39:22","新北市板橋區大觀路二段37巷334號","121.450048333333","25.002375","6500100","板橋區"
"220038","487-VK","2017/07/15 14:39:26","新北市板橋區英士路194號","121.458503333333","25.0229333333333","6500100","板橋區"
"220037","491-VK","2017/07/15 14:39:38","新北市板橋區雙十路二段43號","121.476588333333","25.0260666666667","6500100","板橋區"
"220104","560-BX","2017/07/15 14:39:38","新北市板橋區金華街149號","121.459781666667","25.0209033333333","6500100","板橋區"
"220011","609-BX","2017/07/15 14:39:34","新北市板橋區萬安街53巷6號","121.483538333333","25.02382","6500100","板橋區"
"220005","686-BX","2017/07/15 14:39:27","新北市板橋區和平路59號","121.46102","24.99459","6500100","板橋區"
"220025","687-BX","2017/07/15 14:39:38","新北市板橋區僑中二街108巷1號","121.44584","25.0072316666667","6500100","板橋區"
"220042","689-BX","2017/07/15 14:39:31","新北市板橋區新海路404號","121.458565","25.0269","6500100","板橋區"
"220002","741-BX","2017/07/15 14:39:35","新北市板橋區忠孝路241號","121.466253333333","25.0029133333333","6500100","板橋區"
"220003","827-TW","2017/07/15 14:39:32","新北市板橋區國慶路147號","121.461358333333","24.9962283333333","6500100","板橋區"
"220014","829-TW","2017/07/15 14:39:39","新北市板橋區長安街138巷1弄83號","121.47484","25.0112116666667","6500100","板橋區"
"220051","830-TW","2017/07/15 14:39:33","新北市板橋區雙十路二段70巷24號","121.475931666667","25.0286133333333","6500100","板橋區"
"220045","831-TW","2017/07/15 14:39:40","新北市板橋區文化路一段362號","121.46918","25.023625","6500100","板橋區"
"220022","895-R6","2017/07/15 14:39:33","新北市板橋區縣民大道一段193號","121.458838333333","25.0080633333333","6500100","板橋區"
"220021","985-R7","2017/07/15 14:39:23","新北市板橋區大仁街41號","121.454855","25.0166016666667","6500100","板橋區"
"220046","AAC-210","2017/07/15 14:39:29","新北市板橋區幸福路32巷16-3號","121.46138","25.020895","6500100","板橋區"
"220018","AAC-253","2017/07/15 14:39:31","新北市板橋區館前東路110-1號","121.463338333333","25.0075766666667","6500100","板橋區"
