"lineid","car","time","location","longitude","latitude","cityid","cityname"
"234028","746-BX","2017/07/15 14:49:17","新北市五股區凌雲路一段22巷11號","121.452988333333","25.1006966666667","6500400","永和區"
"234025","9371-KE","2017/07/15 14:49:26","新北市永和區水源街45巷1號","121.50966","25.0041533333333","6500400","永和區"
"248017","225-UY","2017/07/15 14:49:29","新北市五股區外寮路13-1號","121.424911666667","25.081235","6501500","五股區"
"234066","AAC-212","2017/07/15 14:49:25","新北市中和區光環路二段27號","121.488173333333","25.0123333333333","6500400","永和區"
"244005","248-BX","2017/07/15 14:49:25","新北市林口區瑞平里33-1號","121.34846","25.1286066666667","6501700","林口區"
"231002","002-UM","2017/07/15 14:49:24","新北市新店區民權路43號","121.540068333333","24.9828783333333","6500600","新店區"
"231025","0293-UT","2017/07/15 14:49:32","新北市新店區建國路131號","121.539468333333","24.9782333333333","6500600","新店區"
"231028","046-UY","2017/07/15 14:49:30","新北市新店區安德街164號","121.508526666667","24.9590616666667","6500600","新店區"
"231030","047-UY","2017/07/15 14:49:35","新北市新店區安興路94號","121.515131666667","24.9762733333333","6500600","新店區"
"231029","106-UY","2017/07/15 14:49:23","新北市新店區錦秀路11巷64號","121.480741666667","24.9436416666667","6500600","新店區"
"231018","107-UY","2017/07/15 14:49:25","新北市新店區中央路234號","121.529356666667","24.9725733333333","6500600","新店區"
"231012","108-UY","2017/07/15 14:49:29","新北市新店區永華街24號","121.544141666667","24.97595","6500600","新店區"
"231020","187-VK","2017/07/15 14:49:32","新北市新店區新烏路三段42號","121.553776666667","24.9048416666667","6500600","新店區"
"231034","268-BY","2017/07/15 14:49:24","新北市新店區玫瑰路4-1號","121.493623333333","24.9514066666667","6500600","新店區"
"231017","AAD-862","2017/07/15 14:49:26","新北市新店區北宜路三段132號","121.58423","24.9499466666667","6500600","新店區"
"231027","3712-VJ","2017/07/15 14:49:21","新北市新店區中正路328巷1號","121.536923333333","24.975295","6500600","新店區"
"231024","3713-VJ","2017/07/15 14:49:22","新北市新店區新生街1號","121.540355","24.9656166666667","6500600","新店區"
"231036","512-UM","2017/07/15 14:49:16","新北市新店區安祥路106巷2號","121.479006666667","24.9621616666667","6500600","新店區"
"231023","513-UM","2017/07/15 14:49:20","新北市新店區檳榔路174號","121.544238333333","24.96178","6500600","新店區"
"231035","515-UM","2017/07/15 14:49:32","新北市新店區安樂街11號","121.520118333333","24.9736416666667","6500600","新店區"
"231003","616-UM","2017/07/15 14:49:28","新北市新店區中興路二段200-1號","121.548335","24.9742083333333","6500600","新店區"
"231006","617-UM","2017/07/15 14:49:29","新北市新店區北宜路一段143號","121.541175","24.9529133333333","6500600","新店區"
"231001","619-UM","2017/07/15 14:49:35","新北市新店區三民路69號","121.536251666667","24.971325","6500600","新店區"
"231013","719-UM","2017/07/15 14:49:38","新北市新店區北新路二段97巷9弄10號","121.54216","24.97381","6500600","新店區"
"231033","720-UM","2017/07/15 14:49:27","新北市新店區安泰路7巷16號","121.485648333333","24.9509516666667","6500600","新店區"
"231005","897-TW","2017/07/15 14:49:31","新北市新店區復興路2號","121.532358333333","24.9883083333333","6500600","新店區"
"231004","899-TW","2017/07/15 14:49:28","新北市新店區民族路81號","121.539001666667","24.977945","6500600","新店區"
"235030","003-UY","2017/07/15 14:49:21","新北市中和區南工路56號","121.506033333333","25.0016333333333","6500300","中和區"
"235028","005-UY","2017/07/15 14:49:33","新北市中和區南山路127巷18弄42號","121.503618333333","24.9964716666667","6500300","中和區"
"235020","096-UM","2017/07/15 14:49:25","新北市中和區中山路三段114巷41號","121.475551666667","25.0082433333333","6500300","中和區"
"235003","097-UM","2017/07/15 14:49:32","新北市中和區安平路208號","121.513593333333","24.9997766666667","6500300","中和區"
"235029","098-UM","2017/07/15 14:49:31","新北市中和區福祥路56號","121.49936","25.004585","6500300","中和區"
"235004","150-BY","2017/07/15 14:49:29","新北市中和區安平路36巷1號","121.510101666667","24.9949766666667","6500300","中和區"
"235022","151-BY","2017/07/15 14:49:23","新北市中和區員山路144-3號","121.481313333333","24.9967783333333","6500300","中和區"
"235019","183-VK","2017/07/15 14:49:34","新北市中和區民生街85巷1弄2號","121.468963333333","25.0045816666667","6500300","中和區"
"235002","185-VK","2017/07/15 14:49:35","新北市中和區大智街55巷30弄52號","121.521823333333","24.9933316666667","6500300","中和區"
"235013","186-VK","2017/07/15 14:49:19","新北市中和區中正路62號","121.501415","24.9936633333333","6500300","中和區"
"235031","255-BX","2017/07/15 14:49:34","新北市中和區新生街249號","121.483836666667","24.9987","6500300","中和區"
"235008","293-VK","2017/07/15 14:49:28","新北市中和區興南路一段91-2號","121.509688333333","24.9885216666667","6500300","中和區"
"235036","301-VK","2017/07/15 14:49:30","新北市中和區連城路171巷16號","121.495615","24.99739","6500300","中和區"
"235007","352-BY","2017/07/15 14:49:21","新北市中和區安和路21號","121.511031666667","24.9939983333333","6500300","中和區"
"235015","376-QA","2017/07/15 14:49:22","新北市中和區中興街276號","121.498448333333","24.9882216666667","6500300","中和區"
"235032","377-QA","2017/07/15 14:49:33","新北市中和區中山路二段250巷11號","121.497275","25.0031466666667","6500300","中和區"
"235014","4979-A6","2017/07/15 14:15:51","新北市中和區景安路220巷6-1號","121.50321","24.9911333333333","6500300","中和區"
"235033","4980-A6","2017/07/15 14:49:31","新北市中和區中和路128號","121.503445","24.9997266666667","6500300","中和區"
"235018","640-BX","2017/07/15 14:49:26","新北市中和區莒光路105號","121.472466666667","25.002765","6500300","中和區"
"235024","647-TV","2017/07/15 14:49:18","新北市中和區新生街30巷19號","121.482428333333","25.0037116666667","6500300","中和區"
"235011","732-UM","2017/07/15 14:49:29","新北市中和區和平街152號","121.506175","24.9919266666667","6500300","中和區"
"235010","733-UM","2017/07/15 14:49:30","新北市中和區仁愛街86號","121.511456666667","24.9874383333333","6500300","中和區"
"235026","800-TS","2017/07/15 14:49:24","新北市中和區永和路103巷21號","121.494823333333","25.0068616666667","6500300","中和區"
"235021","801-TS","2017/07/15 14:49:39","新北市中和區員山路136號","121.48117","24.9964066666667","6500300","中和區"
"235016","805-TS","2017/07/15 14:49:22","新北市中和區華新街192巷10號","121.506561666667","24.98275","6500300","中和區"
"235012","896-TW","2017/07/15 14:49:31","新北市中和區忠孝街2-12號","121.509433333333","24.9828216666667","6500300","中和區"
"235017","900-TW","2017/07/15 14:49:37","新北市中和區國光街215巷49號","121.467263333333","25.000215","6500300","中和區"
"235034","911-UM","2017/07/15 14:49:34","新北市中和區景平路583-1號","121.497618333333","25.0003116666667","6500300","中和區"
"235001","AAC-213","2017/07/15 14:49:39","新北市中和區秀朗路三段10巷14弄41-5號","121.524228333333","24.9964466666667","6500300","中和區"
"235023","AAC-215","2017/07/15 14:49:17","新北市中和區圓通路305巷5弄40號","121.494636666667","24.99021","6500300","中和區"
"220016","013-TV","2017/07/15 14:49:37","新北市板橋區光復街62號","121.482333333333","25.0185016666667","6500100","板橋區"
"220013","072-UY","2017/07/15 14:49:39","新北市板橋區國泰街39巷3弄2號","121.468555","25.0062133333333","6500100","板橋區"
"220034","073-UY","2017/07/15 14:49:36","新北市板橋區中正路1巷4號","121.455721666667","25.011945","6500100","板橋區"
"220105","075-UY","2017/07/15 14:49:32","新北市板橋區民治街57巷32-1號","121.480178333333","25.0343383333333","6500100","板橋區"
"220017","AAD-861","2017/07/15 14:49:39","新北市板橋區貴興路106巷8號","121.455201666667","25.00298","6500100","板橋區"
"247001","336-TH","2017/07/15 14:49:24","新北市蘆洲區長安街313巷46號","121.455601666667","25.08604","6501400","蘆洲區"
"228004","212-TW","2017/07/15 14:49:31","新北市貢寮區福隆里裕隆街1號","121.947586666667","25.015685","6502600","貢寮區"
"228005","828-UM","2017/07/15 14:49:25","新北市貢寮區美豐里丹裡街65號","121.90904","25.0588933333333","6502600","貢寮區"
"208004","AAC-292","2017/07/15 14:49:26","新北市金山區法鼓路555號","121.614965","25.2426333333333","6502700","金山區"
"207002","749-BX","2017/07/15 14:49:24","新北市萬里區崁腳里崁腳路73號","121.647563333333","25.159585","6502800","萬里區"
"207001","463-BY","2017/07/15 14:47:48","新北市萬里區雙興里豐稟路16號","121.649118333333","25.1803183333333","6502800","萬里區"
"252005","073-UM","2017/07/15 14:47:54","新北市三芝區埔坪里埔頭坑82號","121.510768333333","25.2532966666667","6502100","三芝區"
"236068","105-UM","2017/07/15 14:49:27","新北市土城區明德路一段243號","121.462646666667","24.9782116666667","6501300","土城區"
"236041","107-UM","2017/07/15 14:49:33","新北市土城區裕民路92巷13號","121.44998","24.98654","6501300","土城區"
"236075","166-UM","2017/07/15 14:49:35","新北市土城區中央路四段125巷2弄1號","121.41664","24.9571266666667","6501300","土城區"
"236029","253-BX","2017/07/15 14:49:23","新北市土城區忠義路26巷10號","121.439846666667","24.9699133333333","6501300","土城區"
"236025","269-VK","2017/07/15 14:49:35","新北市土城區慶安街80號","121.440705","24.972755","6501300","土城區"
"236013","270-VK","2017/07/15 14:49:32","新北市土城區金城路二段354巷4號","121.461323333333","24.984955","6501300","土城區"
"236035","271-VK","2017/07/15 14:49:30","新北市土城區明德路一段195巷2弄17號","121.463496666667","24.9782216666667","6501300","土城區"
"236017","401-BY","2017/07/15 14:49:24","新北市土城區延安街42-5號","121.467551666667","24.9852216666667","6501300","土城區"
"236057","912-UM","2017/07/15 14:49:21","新北市土城區中央路三段141-6號","121.4332","24.965355","6501300","土城區"
"236045","913-UM","2017/07/15 14:49:31","新北市土城區青雲路38號","121.459958333333","24.9885533333333","6501300","土城區"
"236061","915-UM","2017/07/15 14:49:34","新北市土城區延和路177巷24號","121.470238333333","24.990845","6501300","土城區"
"236054","AAC-216","2017/07/15 14:49:36","新北市土城區裕民路164號","121.452245","24.9857966666667","6501300","土城區"
"239006","292-BY","2017/07/15 11:05:50","新北市鶯歌區二甲路13號","121.344028333333","24.9353966666667","6500800","鶯歌區"
"220027","145-BY","2017/07/15 14:49:36","新北市板橋區中正路135巷12弄1號","121.455705","25.015615","6500100","板橋區"
"220030","610-BX","2017/07/15 14:49:25","新北市板橋區溪崑一街50號","121.429695","24.9903716666667","6500100","板橋區"
"220050","245-BX","2017/07/15 14:49:36","新北市板橋區縣民大道三段93巷30弄25號","121.474805","25.0226483333333","6500100","板橋區"
"220052","257-TC","2017/07/15 14:49:21","新北市板橋區陽明街29巷8號","121.464868333333","25.0219633333333","6500100","板橋區"
"220040","267-BY","2017/07/15 14:49:29","新北市板橋區懷德街127巷16號","121.479556666667","25.0312483333333","6500100","板橋區"
"220004","276-BY","2017/07/15 14:49:18","新北市板橋區四川路二段99巷7號","121.452873333333","24.994275","6500100","板橋區"
"220020","277-BY","2017/07/15 14:49:33","新北市板橋區金門街215巷6號","121.432888333333","24.9896566666667","6500100","板橋區"
"220012","280-UM","2017/07/15 14:49:32","新北市板橋區館前東路104號","121.462895","25.0075733333333","6500100","板橋區"
"220019","283-VK","2017/07/15 14:49:27","新北市板橋區和平路174巷13號","121.464366666667","24.994835","6500100","板橋區"
"220043","285-UM","2017/07/15 14:49:18","新北市板橋區互助街43號","121.46119","25.02662","6500100","板橋區"
"220001","285-VK","2017/07/15 14:49:38","新北市板橋區中山路二段60巷15號","121.474303333333","25.0151166666667","6500100","板橋區"
"220031","286-VK","2017/07/15 14:49:31","新北市板橋區僑中二街8巷29號","121.44574","25.011305","6500100","板橋區"
"220029","287-VK","2017/07/15 14:49:33","新北市板橋區大觀路一段28巷28號","121.449903333333","25.0093366666667","6500100","板橋區"
"220039","288-VK","2017/07/15 14:49:28","新北市板橋區龍泉街90巷16號","121.456146666667","25.02496","6500100","板橋區"
"220009","293-UM","2017/07/15 14:49:30","新北市板橋區中山路一段283巷1弄2-1號","121.470145","25.0149633333333","6500100","板橋區"
"220032","296-UM","2017/07/15 14:49:33","新北市板橋區溪崑二街124巷3號","121.425705","24.988095","6500100","板橋區"
"220023","297-UM","2017/07/15 14:49:28","新北市板橋區大勇街19號","121.454391666667","25.0171566666667","6500100","板橋區"
"220010","303-R5","2017/07/15 14:49:30","新北市板橋區光復街106號","121.483303333333","25.01825","6500100","板橋區"
"220041","307-R5","2017/07/15 14:49:34","新北市板橋區四維路137巷1弄14號","121.464838333333","25.024625","6500100","板橋區"
"220047","317-R6","2017/07/15 14:49:37","新北市板橋區新海路404號","121.458573333333","25.0269666666667","6500100","板橋區"
"220028","461-BY","2017/07/15 14:49:36","新北市板橋區大觀路二段163巷23號","121.446656666667","25.0000983333333","6500100","板橋區"
"220038","487-VK","2017/07/15 14:49:26","新北市板橋區龍泉街116號","121.457023333333","25.02432","6500100","板橋區"
"220037","491-VK","2017/07/15 14:49:36","新北市板橋區文化路二段560號","121.47639","25.0342983333333","6500100","板橋區"
"220104","560-BX","2017/07/15 14:49:38","新北市板橋區新生街29巷13號","121.45654","25.0218383333333","6500100","板橋區"
"220011","609-BX","2017/07/15 14:49:37","新北市板橋區中山路二段391號","121.480295","25.019425","6500100","板橋區"
"220005","686-BX","2017/07/15 14:49:38","新北市板橋區廣和街110號","121.462433333333","24.9929133333333","6500100","板橋區"
"220025","687-BX","2017/07/15 14:49:18","新北市板橋區僑中一街96號","121.446865","25.011705","6500100","板橋區"
"220042","689-BX","2017/07/15 14:49:30","新北市板橋區長江路二段8號","121.46465","25.031335","6500100","板橋區"
"220002","741-BX","2017/07/15 14:49:39","新北市板橋區忠孝路忠義巷19弄2號","121.466635","25.0039083333333","6500100","板橋區"
"220003","827-TW","2017/07/15 14:49:32","新北市板橋區仁愛路62巷17弄1號","121.460033333333","24.9982683333333","6500100","板橋區"
"220014","829-TW","2017/07/15 14:49:31","新北市板橋區中山路一段206巷40弄11號","121.471193333333","25.0123116666667","6500100","板橋區"
"220051","830-TW","2017/07/15 14:49:33","新北市板橋區仁化街56號","121.475711666667","25.0317533333333","6500100","板橋區"
"220045","831-TW","2017/07/15 14:49:24","新北市板橋區莒光路60號","121.470998333333","25.0241266666667","6500100","板橋區"
"220022","895-R6","2017/07/15 14:49:33","新北市板橋區縣民大道一段287號","121.460706666667","25.0100683333333","6500100","板橋區"
"220021","985-R7","2017/07/15 14:49:23","新北市板橋區南雅西路二段97號","121.452571666667","25.0104633333333","6500100","板橋區"
"220046","AAC-210","2017/07/15 14:49:29","新北市板橋區文化路一段285巷2弄28號","121.464055","25.0196583333333","6500100","板橋區"
"220018","AAC-253","2017/07/15 14:49:31","新北市板橋區民族路218號","121.468491666667","25.0072633333333","6500100","板橋區"
