"lineid","car","time","location","longitude","latitude","cityid","cityname"
"231028","046-UY","2017/07/15 15:39:30","新北市新店區僑信路2巷2號","121.499766666667","24.9534133333333","6500600","新店區"
"231030","047-UY","2017/07/15 15:39:35","新北市新店區新和街116巷3號","121.521236666667","24.98627","6500600","新店區"
"231029","106-UY","2017/07/15 15:39:35","新北市新店區安康路三段352號","121.486271666667","24.9519","6500600","新店區"
"231018","107-UY","2017/07/15 15:39:25","新北市新店區民生路158巷26號","121.528195","24.9812116666667","6500600","新店區"
"231012","108-UY","2017/07/15 15:39:29","新北市新店區文化路92號","121.544975","24.9825983333333","6500600","新店區"
"231020","187-VK","2017/07/15 15:39:32","新北市新店區花園二路一段11號","121.555553333333","24.93247","6500600","新店區"
"231026","256-BX","2017/07/15 15:39:22","新北市新店區三民路75巷5弄1號","121.53558","24.9709","6500600","新店區"
"231034","268-BY","2017/07/15 15:39:24","新北市新店區玫瑰路58巷16號","121.49461","24.9466916666667","6500600","新店區"
"231046","278-BY","2017/07/15 14:08:32","新北市新店區安華路28-1號","121.519663333333","24.9611566666667","6500600","新店區"
"231017","AAD-862","2017/07/15 15:39:26","新北市新店區北宜路二段31號","121.54837","24.951475","6500600","新店區"
"231038","4715-K9","2017/07/15 15:39:26","新北市新店區安康路一段258號","121.520511666667","24.964235","6500600","新店區"
"231036","512-UM","2017/07/15 15:39:17","新北市新店區安祥路65號","121.483613333333","24.9601483333333","6500600","新店區"
"231023","513-UM","2017/07/15 15:39:20","新北市新店區中興路一段285號","121.545328333333","24.9685616666667","6500600","新店區"
"231035","515-UM","2017/07/15 15:39:32","新北市新店區安興路69號","121.515841666667","24.974785","6500600","新店區"
"231003","616-UM","2017/07/15 15:39:33","新北市新店區寶興路49-1號","121.5493","24.9729633333333","6500600","新店區"
"231039","718-UY","2017/07/15 15:39:39","新北市新店區寶元路二段31巷2號","121.546786666667","24.9816783333333","6500600","新店區"
"231013","719-UM","2017/07/15 15:39:32","新北市新店區永業路81巷28號","121.53046","24.9483766666667","6500600","新店區"
"231033","720-UM","2017/07/15 15:39:27","新北市新店區雙城路133號","121.497883333333","24.9387983333333","6500600","新店區"
"231005","897-TW","2017/07/15 15:39:31","新北市新店區建國路132號","121.539073333333","24.9787883333333","6500600","新店區"
"231037","AKT-0513","2017/07/15 15:39:30","新北市新店區安興路112號","121.514636666667","24.9776466666667","6500600","新店區"
"241011","013-R5","2017/07/15 15:39:33","新北市三重區仁愛街6號","121.496923333333","25.0708566666667","6500200","三重區"
"241028","022-UY","2017/07/15 15:39:23","新北市三重區重新路四段121號","121.48481","25.0525166666667","6500200","三重區"
"241015","062-VK","2017/07/15 15:39:21","新北市三重區重新路四段121號","121.484861666667","25.0518716666667","6500200","三重區"
"241017","063-VK","2017/07/15 15:39:35","新北市三重區中正北路70號","121.486546666667","25.06465","6500200","三重區"
"241026","066-VK","2017/07/15 15:39:21","新北市三重區重新路四段121號","121.484736666667","25.0521983333333","6500200","三重區"
"241018","268-UM","2017/07/15 15:39:27","新北市三重區重新路四段121號","121.484986666667","25.052425","6500200","三重區"
"241013","270-UM","2017/07/15 15:39:28","新北市三重區忠孝路二段138號","121.4825","25.068295","6500200","三重區"
"241007","398-BY","2017/07/15 15:39:32","新北市三重區重新路四段121號","121.485206666667","25.0519883333333","6500200","三重區"
"241014","543-UM","2017/07/15 15:39:18","新北市三重區重新路四段121號","121.485116666667","25.05202","6500200","三重區"
"241023","545-UM","2017/07/15 15:39:24","新北市三重區重新路四段121號","121.484833333333","25.0524916666667","6500200","三重區"
"241001","547-UM","2017/07/15 15:39:24","新北市三重區重新路四段121號","121.484466666667","25.0521816666667","6500200","三重區"
"241006","AAD-863","2017/07/15 15:39:27","新北市三重區重新路四段121號","121.484726666667","25.05192","6500200","三重區"
"241029","942-UM","2017/07/15 15:39:24","新北市三重區大同南路204號","121.496768333333","25.056625","6500200","三重區"
"241033","AAC-255","2017/07/15 15:39:21","新北市三重區重新路五段283號","121.479205","25.0493383333333","6500200","三重區"
"235031","255-BX","2017/07/15 15:39:34","新北市林口區太平里180號","121.368315","25.1341983333333","6500300","中和區"
"235033","4980-A6","2017/07/15 15:39:20","新北市中和區連城路469巷44弄20號","121.482666666667","24.9939866666667","6500300","中和區"
"235062","800-TS","2017/07/15 15:37:59","新北市中和區員山路36巷16-3號","121.484986666667","24.99145","6500300","中和區"
"235001","AAC-213","2017/07/15 15:39:19","新北市中和區立人街13號","121.521541666667","24.9940566666667","6500300","中和區"
"235023","AAC-215","2017/07/15 15:39:37","新北市中和區員山路31-8號","121.480811666667","24.98768","6500300","中和區"
"227002","400-TW","2017/07/15 15:39:23","新北市雙溪區牡丹里聖南8號","121.859361666667","25.052155","6502500","雙溪區"
"236068","105-UM","2017/07/15 15:39:27","新北市土城區中央路二段346巷23號","121.439265","24.97231","6501300","土城區"
"236041","107-UM","2017/07/15 15:39:33","新北市土城區學成路1號","121.453491666667","24.9863116666667","6501300","土城區"
"236075","166-UM","2017/07/15 15:39:35","新北市土城區福安街94號","121.417795","24.964195","6501300","土城區"
"236029","253-BX","2017/07/15 15:39:23","新北市土城區學成路130號","121.449183333333","24.989585","6501300","土城區"
"236025","269-VK","2017/07/15 15:39:35","新北市土城區裕生路102巷18號","121.446418333333","24.9847533333333","6501300","土城區"
"236013","270-VK","2017/07/15 15:39:32","新北市土城區廣明街67號","121.45494","24.9938283333333","6501300","土城區"
"236017","401-BY","2017/07/15 15:39:24","新北市土城區延吉街96號","121.470525","24.9863066666667","6501300","土城區"
"236057","912-UM","2017/07/15 15:39:21","新北市土城區中央路一段264-2號","121.443883333333","24.9836283333333","6501300","土城區"
"236045","913-UM","2017/07/15 15:39:32","新北市土城區金城路三段260號","121.473943333333","24.9907316666667","6501300","土城區"
"236061","915-UM","2017/07/15 15:39:34","新北市土城區金城路三段73巷9弄21號","121.465765","24.9874266666667","6501300","土城區"
"236054","AAC-216","2017/07/15 15:39:36","新北市土城區學府路一段8號","121.459523333333","24.98845","6501300","土城區"
"239006","292-BY","2017/07/15 11:05:50","新北市鶯歌區二甲路13號","121.344028333333","24.9353966666667","6500800","鶯歌區"
"220001","285-VK","2017/07/15 15:39:25","新北市八里區中山路三段363-1號","121.37409","25.1384683333333","6500100","板橋區"
"220032","296-UM","2017/07/15 15:39:31","新北市八里區中山路三段378號","121.36857","25.136295","6500100","板橋區"
