"lineid","car","time","location","longitude","latitude","cityid","cityname"
"249005","172-UM","2017/07/15 16:59:15","新北市八里區渡船頭1-1號","121.434075","25.1519216666667","6502300","八里區"
"249004","303-UY","2017/07/15 16:59:20","新北市八里區挖子尾街46號","121.415645","25.1660983333333","6502300","八里區"
"249002","305-UY","2017/07/15 16:59:24","新北市八里區牛寮埔10號","121.43302","25.1424233333333","6502300","八里區"
"249003","593-UM","2017/07/15 16:59:37","新北市八里區中山路二段277號","121.40189","25.1487766666667","6502300","八里區"
"249001","759-BX","2017/07/15 16:59:23","新北市八里區下罟子1-11號","121.390056666667","25.142145","6502300","八里區"
"244019","403-UM","2017/07/15 16:59:24","新北市林口區粉寮路一段183號","121.400066666667","25.0824066666667","6501700","林口區"
"244023","483-VK","2017/07/15 16:59:28","新北市林口區粉寮69號","121.40508","25.0907933333333","6501700","林口區"
"244021","657-BX","2017/07/15 16:59:30","新北市林口區粉寮69號","121.404786666667","25.0908683333333","6501700","林口區"
"231046","278-BY","2017/07/15 16:59:37","新北市新店區新潭路一段22巷2號","121.523081666667","24.9428816666667","6500600","新店區"
"241011","013-R5","2017/07/15 16:59:27","新北市三重區仁愛街53巷156號","121.499703333333","25.072825","6500200","三重區"
"241028","022-UY","2017/07/15 16:59:23","新北市三重區光興街201號","121.494893333333","25.059565","6500200","三重區"
"241008","059-VK","2017/07/15 16:59:38","新北市三重區永福街179巷42號","121.477428333333","25.0747066666667","6500200","三重區"
"241009","060-VK","2017/07/15 16:59:18","新北市三重區仁美街107號","121.485728333333","25.0808","6500200","三重區"
"241031","061-VK","2017/07/15 16:59:27","新北市三重區三寧街40號","121.489935","25.0602283333333","6500200","三重區"
"241015","062-VK","2017/07/15 16:59:21","新北市三重區福德北路82-7號","121.501248333333","25.06625","6500200","三重區"
"241017","063-VK","2017/07/15 16:59:35","新北市三重區國隆路12巷1號","121.492936666667","25.0638183333333","6500200","三重區"
"241024","065-VK","2017/07/15 16:59:02","新北市三重區大勇街82巷26弄30號","121.478491666667","25.0719633333333","6500200","三重區"
"241026","066-VK","2017/07/15 16:59:21","新北市三重區文化南路42號","121.50034","25.06024","6500200","三重區"
"241002","090-VK","2017/07/15 16:59:39","新北市三重區仁義街126號","121.497583333333","25.0802633333333","6500200","三重區"
"241003","091-VK","2017/07/15 16:59:31","新北市三重區仁義街286號","121.493561666667","25.086085","6500200","三重區"
"241005","262-UM","2017/07/15 16:59:25","新北市三重區碧華街112巷6號","121.484481666667","25.0820016666667","6500200","三重區"
"241016","266-UM","2017/07/15 16:59:19","新北市三重區大同北路65號","121.495113333333","25.063595","6500200","三重區"
"241022","267-UM","2017/07/15 16:59:27","新北市三重區中華路97號","121.483556666667","25.06313","6500200","三重區"
"241018","268-UM","2017/07/15 16:59:27","新北市三重區六張街126巷2弄20號","121.492538333333","25.069505","6500200","三重區"
"241032","269-UM","2017/07/15 16:59:33","新北市三重區新北大道一段35巷9號","121.486028333333","25.0607833333333","6500200","三重區"
"241013","270-UM","2017/07/15 16:59:28","新北市三重區仁和街5號","121.496141666667","25.0734783333333","6500200","三重區"
"241025","271-UM","2017/07/15 16:59:29","新北市三重區中正北路361-1號","121.472616666667","25.0717766666667","6500200","三重區"
"241007","398-BY","2017/07/15 16:59:32","新北市三重區三和路四段181巷257號","121.488153333333","25.0806416666667","6500200","三重區"
"241020","413-TH","2017/07/15 16:59:25","新北市三重區自強路三段34巷26號","121.486073333333","25.072305","6500200","三重區"
"241004","475-VK","2017/07/15 16:59:30","新北市三重區五華街98巷10號","121.491753333333","25.0818466666667","6500200","三重區"
"241019","478-VK","2017/07/15 16:59:38","新北市三重區自強路二段74巷19號","121.488025","25.0699316666667","6500200","三重區"
"241030","480-VK","2017/07/15 16:59:22","新北市三重區昌隆街62號","121.49116","25.0511233333333","6500200","三重區"
"241014","543-UM","2017/07/15 16:59:31","新北市三重區介壽路189號","121.50143","25.0707316666667","6500200","三重區"
"241023","545-UM","2017/07/15 16:59:24","新北市三重區名源街54號","121.482506666667","25.0593116666667","6500200","三重區"
"241001","547-UM","2017/07/15 16:59:24","新北市三重區仁愛街192巷1號","121.494085","25.0770616666667","6500200","三重區"
"241006","AAD-863","2017/07/15 16:59:25","新北市三重區車路頭街115號","121.484298333333","25.0752766666667","6500200","三重區"
"241012","941-UM","2017/07/15 16:59:26","新北市三重區仁壽街273號","121.501763333333","25.0750433333333","6500200","三重區"
"241029","942-UM","2017/07/15 16:59:24","新北市三重區重安街107號","121.494286666667","25.0549833333333","6500200","三重區"
"241033","AAC-255","2017/07/15 16:59:20","新北市三重區中興北街275號","121.469073333333","25.0607716666667","6500200","三重區"
"235064","005-UY","2017/07/15 16:59:33","新北市中和區員山路36巷16-2號","121.48526","24.9912666666667","6500300","中和區"
"235067","255-BX","2017/07/15 16:18:40","新北市中和區員山路36巷13號","121.484396666667","24.991225","6500300","中和區"
"235062","800-TS","2017/07/15 15:37:59","新北市中和區員山路36巷16-3號","121.484986666667","24.99145","6500300","中和區"
"247020","893-R6","2017/07/15 16:59:33","新北市蘆洲區民族路422巷84號","121.473746666667","25.093955","6501400","蘆洲區"
"247018","500-BY","2017/07/15 16:59:26","新北市蘆洲區復興路111-7號","121.476748333333","25.088435","6501400","蘆洲區"
"247006","341-TH","2017/07/15 16:59:34","新北市蘆洲區長安街99巷26號","121.460951666667","25.080035","6501400","蘆洲區"
"247008","339-TH","2017/07/15 16:59:31","新北市蘆洲區信義路59巷5弄7號","121.475046666667","25.079975","6501400","蘆洲區"
"247024","337-TH","2017/07/15 16:59:38","新北市蘆洲區長興路258號","121.460648333333","25.08779","6501400","蘆洲區"
"247002","336-TH","2017/07/15 16:59:36","新北市蘆洲區永平街14號","121.459265","25.0905983333333","6501400","蘆洲區"
"247014","057-VK","2017/07/15 16:59:26","新北市蘆洲區中山二路46巷11弄9號","121.474175","25.0826116666667","6501400","蘆洲區"
"247004","056-VK","2017/07/15 16:59:19","新北市蘆洲區永安南路二段268-3號","121.45907","25.0810016666667","6501400","蘆洲區"
"247012","007-UY","2017/07/15 16:59:30","新北市蘆洲區信義路296號","121.47764","25.0875716666667","6501400","蘆洲區"
"247022","002-UY","2017/07/15 16:59:36","新北市蘆洲區三民路128巷128號","121.468866666667","25.091595","6501400","蘆洲區"
"247016","001-UY","2017/07/15 16:59:32","新北市蘆洲區光華路73巷27-1號","121.468593333333","25.0822333333333","6501400","蘆洲區"
"228001","212-TW","2017/07/15 16:59:35","新北市貢寮區貢寮里朝陽街1-2號","121.912303333333","25.02125","6502600","貢寮區"
"228002","585-TW","2017/07/15 16:59:36","新北市貢寮區貢寮里朝陽街1號","121.910023333333","25.0212483333333","6502600","貢寮區"
"228003","828-UM","2017/07/15 16:59:28","新北市貢寮區福隆里興隆街24-1號","121.944398333333","25.01659","6502600","貢寮區"
"224010","AGQ-8101","2017/07/15 08:47:05","新北市瑞芳區逢甲路17號","121.809548333333","25.1084333333333","6501200","瑞芳區"
"224006","676-BX","2017/07/15 16:59:23","新北市瑞芳區大寮路356-1號","121.785513333333","25.10309","6501200","瑞芳區"
"224009","285-BY","2017/07/15 16:59:16","新北市瑞芳區濱二路28-2號","121.839668333333","25.1140733333333","6501200","瑞芳區"
"224008","275-VK","2017/07/15 16:59:37","新北市瑞芳區瑞柑新村71號","121.828873333333","25.1073","6501200","瑞芳區"
"224007","273-VK","2017/07/15 16:59:30","新北市瑞芳區瑞竹路46號","121.76361","25.10339","6501200","瑞芳區"
"224005","271-BY","2017/07/15 16:59:28","新北市瑞芳區哩咾路1號","121.874325","25.1242883333333","6501200","瑞芳區"
"227010","642-TC","2017/07/15 16:59:37","新北市雙溪區牡丹里聖南14號","121.858501666667","25.0528183333333","6502500","雙溪區"
"227002","400-TW","2017/07/15 16:59:23","新北市雙溪區長源里柑腳39號","121.803515","25.0134216666667","6502500","雙溪區"
"251004","009-UM","2017/07/15 16:59:26","新北市淡水區中正路二段31號","121.419236666667","25.1818266666667","6501000","淡水區"
"251014","180-VK","2017/07/15 16:59:23","新北市淡水區興仁路162號","121.451591666667","25.2208016666667","6501000","淡水區"
"251008","181-VK","2017/07/15 16:59:21","新北市淡水區樹梅坑9號","121.472758333333","25.1427116666667","6501000","淡水區"
"251010","413-VK","2017/07/15 16:59:21","新北市淡水區中正路二段31號","121.419463333333","25.1815333333333","6501000","淡水區"
"251012","441-VK","2017/07/15 16:59:19","新北市淡水區中正路二段31號","121.419566666667","25.181505","6501000","淡水區"
"251016","442-VK","2017/07/15 16:59:34","新北市淡水區瓦坑3號","121.477591666667","25.18076","6501000","淡水區"
"251005","443-VK","2017/07/15 16:59:34","新北市淡水區文化路61號","121.438263333333","25.17285","6501000","淡水區"
"251006","561-UM","2017/07/15 16:59:26","新北市淡水區中正路二段31號","121.419233333333","25.1817833333333","6501000","淡水區"
"251011","650-BX","2017/07/15 16:59:34","新北市淡水區中山路18-1號","121.444485","25.1694583333333","6501000","淡水區"
"252002","178-VK","2017/07/15 16:59:34","新北市三芝區忠孝街171號","121.505508333333","25.261375","6502100","三芝區"
"252001","292-VK","2017/07/15 16:59:34","新北市三芝區淡金路二段89號","121.503848333333","25.26078","6502100","三芝區"
"242021","AAC-296","2017/07/15 16:59:27","新北市新莊區新泰路357巷3弄57號","121.441875","25.03942","6500500","新莊區"
"242048","751-BX","2017/07/15 16:59:24","新北市新莊區新泰路255巷83號","121.442336666667","25.0391016666667","6500500","新莊區"
"242025","615-BX","2017/07/15 16:59:25","新北市新莊區公園一路75巷13號","121.442493333333","25.03844","6500500","新莊區"
"242023","613-BX","2017/07/15 16:59:39","新北市新莊區新泰路357巷3弄57號","121.442156666667","25.0391266666667","6500500","新莊區"
"242027","612-BX","2017/07/15 16:59:27","新北市新莊區新泰路357巷3弄57號","121.44229","25.0392966666667","6500500","新莊區"
"242036","566-BX","2017/07/15 16:59:17","新北市新莊區新泰路357巷3弄57號","121.44204","25.0391416666667","6500500","新莊區"
"242042","497-BY","2017/07/15 16:59:30","新北市新莊區新泰路357巷3弄57號","121.44232","25.0396016666667","6500500","新莊區"
"242004","442-UM","2017/07/15 03:05:05","新北市新莊區新泰路357巷3弄57號","121.442106666667","25.0393333333333","6500500","新莊區"
"242046","441-UM","2017/07/15 16:59:20","新北市新莊區三和路12-21號","121.442155","25.0384366666667","6500500","新莊區"
"242031","415-TV","2017/07/15 16:59:21","新北市新莊區新泰路357巷3弄57號","121.44192","25.0392683333333","6500500","新莊區"
"242002","413-TV","2017/07/15 16:59:23","新北市新莊區新泰路357巷3弄57號","121.441883333333","25.039455","6500500","新莊區"
"242061","362-BY","2017/07/15 16:59:17","新北市新莊區三和路12-21號","121.44203","25.038825","6500500","新莊區"
"242011","132-UY","2017/07/15 16:59:17","新北市新莊區新泰路255巷83號","121.442011666667","25.0389133333333","6500500","新莊區"
"242034","133-UY","2017/07/15 16:59:35","新北市新莊區新泰路357巷3號","121.442236666667","25.0415583333333","6500500","新莊區"
"242044","172-VK","2017/07/15 14:31:26","新北市新莊區新泰路255巷83號","121.44216","25.0387466666667","6500500","新莊區"
"242007","173-VK","2017/07/15 00:31:50","新北市新莊區新泰路255巷83號","121.442065","25.0388383333333","6500500","新莊區"
"242056","176-VK","2017/07/15 16:59:35","新北市新莊區新泰路255巷83號","121.44206","25.0389233333333","6500500","新莊區"
"242013","346-TH","2017/07/15 04:16:10","新北市新莊區三和路12-18號","121.442008333333","25.037615","6500500","新莊區"
"242017","348-TH","2017/07/15 16:47:19","新北市新莊區新泰路357巷3弄57號","121.442023333333","25.0390316666667","6500500","新莊區"
"242015","350-TH","2017/07/15 13:44:41","新北市新莊區新泰路255巷83號","121.442053333333","25.0388883333333","6500500","新莊區"
"242009","351-TH","2017/07/15 04:14:08","新北市新莊區新泰路357巷3弄57號","121.44204","25.0395983333333","6500500","新莊區"
"238019","599-UM","2017/07/15 16:59:24","新北市樹林區育德街78-1號","121.38792","24.96809","6500700","樹林區"
"238018","571-TV","2017/07/15 16:59:30","新北市樹林區育德街78-1號","121.387676666667","24.968265","6500700","樹林區"
"238021","311-TH","2017/07/15 01:05:08","新北市樹林區中山路三段202號","121.38663","24.9682416666667","6500700","樹林區"
"238025","303-VK","2017/07/15 16:59:28","新北市樹林區中山路三段204號","121.387301666667","24.9682183333333","6500700","樹林區"
"238014","282-BY","2017/07/15 16:59:28","新北市樹林區育德街78-1號","121.387908333333","24.9681433333333","6500700","樹林區"
"238026","172-UY","2017/07/15 16:59:29","新北市樹林區佳園路一段94號","121.393618333333","24.9686116666667","6500700","樹林區"
"239007","AAC-297","2017/07/15 16:59:23","新北市鶯歌區二甲路13-16號","121.345011666667","24.9352316666667","6500800","鶯歌區"
"239006","891-R6","2017/07/14 20:38:57","新北市鶯歌區二甲路13-16號","121.345438333333","24.9351666666667","6500800","鶯歌區"
"239008","527-UM","2017/07/15 16:59:28","新北市鶯歌區二甲路13-16號","121.345305","24.9352033333333","6500800","鶯歌區"
"239005","526-UM","2017/07/15 16:59:20","新北市鶯歌區二甲路13-16號","121.345185","24.9351583333333","6500800","鶯歌區"
"239001","417-VK","2017/07/15 16:59:25","新北市鶯歌區二甲路12-2號","121.345516666667","24.9350366666667","6500800","鶯歌區"
"239003","360-BY","2017/07/15 16:59:34","新北市鶯歌區二甲路12-2號","121.34582","24.934955","6500800","鶯歌區"
"239002","359-BY","2017/07/14 20:23:58","新北市鶯歌區二甲路13號","121.343943333333","24.93553","6500800","鶯歌區"
"239006","292-BY","2017/07/15 11:05:50","新北市鶯歌區二甲路13號","121.344028333333","24.9353966666667","6500800","鶯歌區"
"239004","193-VK","2017/07/15 03:12:42","新北市鶯歌區二甲路171-1號","121.343633333333","24.93576","6500800","鶯歌區"
