"lineid","car","time","location","longitude","latitude","cityid","cityname"
"234026","9371-KE","2017/07/15 17:49:34","新北市永和區和平街105號","121.511056666667","25.0097866666667","6500400","永和區"
"249005","172-UM","2017/07/15 17:49:35","新北市八里區荖阡坑路34-3號","121.40226","25.1318316666667","6502300","八里區"
"249004","303-UY","2017/07/15 17:49:20","新北市八里區中華路一段79巷7號","121.420623333333","25.1565383333333","6502300","八里區"
"249002","305-UY","2017/07/15 17:49:23","新北市八里區龍形五街37巷2號","121.448643333333","25.1326816666667","6502300","八里區"
"249003","593-UM","2017/07/15 17:49:37","新北市八里區中山路二段123號","121.40548","25.1518933333333","6502300","八里區"
"249001","759-BX","2017/07/15 17:49:23","新北市八里區龍米路二段137號","121.44455","25.1483666666667","6502300","八里區"
"248008","095-VK","2017/07/15 17:49:30","新北市五股區中興路二段37巷28號","121.460205","25.075175","6501500","五股區"
"248018","225-UY","2017/07/15 17:49:19","新北市五股區中興路二段83巷26-6號","121.460036666667","25.0752633333333","6501500","五股區"
"248014","261-SL","2017/07/15 01:55:14","新北市五股區中興路二段83巷26-3號","121.460126666667","25.0754066666667","6501500","五股區"
"232011","375-UM","2017/07/15 17:49:19","新北市坪林區北宜路八段96號","121.705756666667","24.9349716666667","6502000","坪林區"
"244013","069-UM","2017/07/15 17:49:24","新北市林口區中正路503號","121.383261666667","25.07743","6501700","林口區"
"244007","080-UY","2017/07/15 17:49:29","新北市林口區佳林路1號","121.387343333333","25.0824816666667","6501700","林口區"
"244019","403-UM","2017/07/15 17:49:24","新北市林口區公園路168號","121.372415","25.0720983333333","6501700","林口區"
"244009","410-SL","2017/07/15 17:49:19","新北市林口區寶林路123號","121.383025","25.08537","6501700","林口區"
"244023","483-VK","2017/07/15 17:49:28","新北市林口區興林路289號","121.388871666667","25.070005","6501700","林口區"
"244017","485-VK","2017/07/15 17:49:22","新北市林口區忠孝路377號","121.369386666667","25.0715633333333","6501700","林口區"
"244021","657-BX","2017/07/15 17:49:30","新北市林口區仁愛路一段83巷38號","121.397841666667","25.07064","6501700","林口區"
"244011","701-TV","2017/07/15 17:49:23","新北市林口區中興街26號","121.388696666667","25.0770416666667","6501700","林口區"
"244025","837-TS","2017/07/15 17:49:22","新北市林口區忠孝三路42號","121.36022","25.069985","6501700","林口區"
"222003","436-BY","2017/07/15 17:49:19","新北市深坑區阿柔洋60-1號","121.608593333333","24.9985133333333","6501800","深坑區"
"222002","659-BX","2017/07/15 17:49:27","新北市深坑區平埔街22巷17弄1號","121.614876666667","25.00084","6501800","深坑區"
"231046","278-BY","2017/07/15 17:49:37","新北市新店區下石厝路19-1號","121.532205","24.9274133333333","6500600","新店區"
"241017","063-VK","2017/07/15 17:49:35","新北市三重區新北大道一段3-1號","121.490056666667","25.0613983333333","6500200","三重區"
"241024","065-VK","2017/07/15 17:49:22","新北市三重區車路頭街60號","121.483778333333","25.0725366666667","6500200","三重區"
"241005","262-UM","2017/07/15 17:49:25","新北市三重區碧華街317號","121.490958333333","25.0842433333333","6500200","三重區"
"241012","941-UM","2017/07/15 17:49:26","新北市三重區龍門路242號","121.500766666667","25.07367","6500200","三重區"
"241033","AAC-255","2017/07/15 17:49:20","新北市三重區重新路五段525號","121.471166666667","25.0463533333333","6500200","三重區"
"235064","005-UY","2017/07/15 17:49:33","新北市中和區員山路36巷16-3號","121.485041666667","24.9912816666667","6500300","中和區"
"235067","255-BX","2017/07/15 16:18:40","新北市中和區員山路36巷13號","121.484396666667","24.991225","6500300","中和區"
"235061","378-QA","2017/07/15 15:21:37","新北市中和區員山路36巷13號","121.484238333333","24.9909516666667","6500300","中和區"
"235062","800-TS","2017/07/15 17:49:27","新北市中和區員山路36巷16-3號","121.48515","24.9913983333333","6500300","中和區"
"235052","805-TS","2017/07/15 17:49:23","新北市中和區員山路36巷16-3號","121.484753333333","24.991125","6500300","中和區"
"247020","893-R6","2017/07/15 17:49:33","新北市蘆洲區民義街71巷24號","121.472608333333","25.0906766666667","6501400","蘆洲區"
"247010","546-UM","2017/07/15 17:49:33","新北市蘆洲區信義路259巷11號","121.478383333333","25.0845066666667","6501400","蘆洲區"
"247018","500-BY","2017/07/15 17:49:25","新北市蘆洲區復興路227巷2弄16號","121.480741666667","25.0902666666667","6501400","蘆洲區"
"247006","341-TH","2017/07/15 17:49:34","新北市蘆洲區九芎街107號","121.46578","25.0796466666667","6501400","蘆洲區"
"247008","339-TH","2017/07/15 17:49:31","新北市蘆洲區信義路35號","121.474411666667","25.079605","6501400","蘆洲區"
"247024","337-TH","2017/07/15 17:49:18","新北市蘆洲區光榮路46號","121.461153333333","25.08827","6501400","蘆洲區"
"247002","336-TH","2017/07/15 17:49:36","新北市蘆洲區永平街32巷45弄1號","121.459546666667","25.0921133333333","6501400","蘆洲區"
"247014","057-VK","2017/07/15 17:49:26","新北市蘆洲區永安南路二段294號","121.457188333333","25.08174","6501400","蘆洲區"
"247012","007-UY","2017/07/15 17:49:30","新北市蘆洲區民族路167巷13號","121.478338333333","25.088225","6501400","蘆洲區"
"247022","002-UY","2017/07/15 17:49:36","新北市蘆洲區中正路284-1號","121.465076666667","25.0901366666667","6501400","蘆洲區"
"247016","001-UY","2017/07/15 17:49:36","新北市蘆洲區中正路185巷5號","121.468215","25.085345","6501400","蘆洲區"
"228001","212-TW","2017/07/15 17:49:34","新北市貢寮區仁理村仁愛路95-1號","121.9277","25.0554366666667","6502600","貢寮區"
"228002","585-TW","2017/07/15 17:49:16","新北市貢寮區福隆里外隆林街16-4號","121.958183333333","25.0048433333333","6502600","貢寮區"
"228003","828-UM","2017/07/15 17:49:28","新北市貢寮區真理里美艷山街6-2號","121.92889","25.06072","6502600","貢寮區"
"224006","676-BX","2017/07/15 17:49:23","新北市瑞芳區傑魚坑路183號","121.788426666667","25.108255","6501200","瑞芳區"
"224002","639-TC","2017/07/15 17:37:36","新北市瑞芳區民權街3-1號","121.809291666667","25.1081433333333","6501200","瑞芳區"
"224009","285-BY","2017/07/15 17:49:36","新北市瑞芳區新山路14號","121.852703333333","25.110415","6501200","瑞芳區"
"224008","275-VK","2017/07/15 17:49:37","新北市瑞芳區明燈路一段131號","121.820035","25.1071133333333","6501200","瑞芳區"
"224005","271-BY","2017/07/15 17:49:28","新北市瑞芳區海濱路31號","121.830923333333","25.1240683333333","6501200","瑞芳區"
"253006","032-BX","2017/07/15 17:49:31","新北市石門區中山路64號","121.567288333333","25.290705","6502200","石門區"
"208003","665-BX","2017/07/15 17:49:28","新北市金山區磺清路135號","121.639476666667","25.2277566666667","6502700","金山區"
"208001","761-BX","2017/07/15 17:49:33","新北市金山區磺清路121號","121.63962","25.22786","6502700","金山區"
"251009","008-UM","2017/07/15 17:39:12","新北市淡水區中正路38-1號","121.443678333333","25.169285","6501000","淡水區"
"251004","009-UM","2017/07/15 17:49:26","新北市淡水區民權路20號","121.45943","25.1378666666667","6501000","淡水區"
"251002","012-UM","2017/07/15 17:49:37","新北市淡水區中山路70-1號","121.443238333333","25.170525","6501000","淡水區"
"251014","180-VK","2017/07/15 17:49:23","新北市淡水區公埔子16-6號","121.481016666667","25.224565","6501000","淡水區"
"251008","181-VK","2017/07/15 17:49:20","新北市淡水區八勢路一段133號","121.46702","25.1578083333333","6501000","淡水區"
"251010","413-VK","2017/07/15 17:49:21","新北市淡水區中正路二段96號","121.417863333333","25.1853183333333","6501000","淡水區"
"251012","441-VK","2017/07/15 17:49:19","新北市淡水區北新路一段337號","121.466146666667","25.1822016666667","6501000","淡水區"
"251016","442-VK","2017/07/15 17:49:33","新北市淡水區埤島38號","121.450481666667","25.19632","6501000","淡水區"
"251005","443-VK","2017/07/15 17:49:34","新北市淡水區學府路96號","121.449275","25.17114","6501000","淡水區"
"251001","559-UM","2017/07/15 17:49:26","新北市淡水區民權路92巷35-1號","121.462185","25.1266783333333","6501000","淡水區"
"251006","561-UM","2017/07/15 17:49:26","新北市淡水區大信街1巷25號","121.440173333333","25.1767366666667","6501000","淡水區"
"251011","650-BX","2017/07/15 17:48:54","新北市淡水區吳(仔)厝38號","121.479528333333","25.1495966666667","6501000","淡水區"
"251003","673-BX","2017/07/15 17:49:25","新北市淡水區大忠街32號","121.44346","25.175905","6501000","淡水區"
"207003","550-UM","2017/07/15 17:49:34","新北市萬里區野柳里東澳路55號","121.69201","25.2032766666667","6502800","萬里區"
"207004","225-TW","2017/07/15 17:49:35","新北市萬里區萬里里瑪鋉頂街100-1號","121.687733333333","25.1803983333333","6502800","萬里區"
"252002","178-VK","2017/07/15 17:49:34","新北市三芝區智成街43號","121.50413","25.2563833333333","6502100","三芝區"
"252001","292-VK","2017/07/15 17:49:34","新北市三芝區淡金路一段32號","121.50021","25.2592733333333","6502100","三芝區"
"208002","170-UY","2017/07/15 17:49:35","新北市金山區磺清路135號","121.639443333333","25.2276683333333","6502700","金山區"
"237009","210-TH","2017/07/15 17:49:28","新北市三峽區大勇路3巷36號","121.367433333333","24.93681","6500900","三峽區"
"237013","252-BX","2017/07/15 17:49:18","新北市三峽區愛國路33-9號","121.374645","24.93286","6500900","三峽區"
"237012","275-BY","2017/07/15 17:49:32","新北市三峽區文化路16號","121.373256666667","24.935865","6500900","三峽區"
"237008","302-VK","2017/07/15 17:49:19","新北市三峽區中園街237-1號","121.366801666667","24.9195483333333","6500900","三峽區"
"237014","433-BY","2017/07/15 17:49:20","新北市三峽區文化路120巷21號","121.370996666667","24.93676","6500900","三峽區"
"237006","5529-G3","2017/07/15 17:49:28","新北市三峽區介壽路二段136巷73號","121.392386666667","24.9324633333333","6500900","三峽區"
"237011","572-TV","2017/07/15 17:49:38","新北市三峽區光明路60號","121.374871666667","24.9294833333333","6500900","三峽區"
"237016","649-BX","2017/07/15 17:49:24","新北市三峽區白雞64-10號","121.383833333333","24.9123683333333","6500900","三峽區"
"237010","706-TV","2017/07/15 17:49:28","新北市三峽區中山路93號","121.366276666667","24.9353516666667","6500900","三峽區"
"237005","AKY-6261","2017/07/15 17:49:22","新北市三峽區中山路365號","121.358745","24.9370866666667","6500900","三峽區"
"236073","105-UM","2017/07/15 17:49:25","新北市土城區明德路二段8巷2號","121.452246666667","24.9803066666667","6501300","土城區"
"236043","107-UM","2017/07/15 17:49:34","新北市土城區城林路6巷80號","121.438513333333","24.97976","6501300","土城區"
"236079","166-UM","2017/07/15 17:49:29","新北市土城區城林路6巷80號","121.438461666667","24.9796033333333","6501300","土城區"
"236031","253-BX","2017/07/15 17:49:35","新北市土城區城林路6巷80號","121.438575","24.979775","6501300","土城區"
"236015","270-VK","2017/07/15 17:49:32","新北市土城區城林路6巷80號","121.438551666667","24.9795833333333","6501300","土城區"
"236038","271-VK","2017/07/15 17:49:29","新北市土城區城林路6巷80號","121.43857","24.9797416666667","6501300","土城區"
"236059","912-UM","2017/07/15 17:49:32","新北市土城區城林路6巷80號","121.43852","24.9797283333333","6501300","土城區"
"236049","913-UM","2017/07/15 17:49:31","新北市土城區城林路6巷80號","121.438523333333","24.97969","6501300","土城區"
"236063","915-UM","2017/07/15 17:49:34","新北市土城區城林路6巷80號","121.438561666667","24.9795866666667","6501300","土城區"
"236055","AAC-216","2017/07/15 17:49:34","新北市土城區城林路6巷80號","121.438493333333","24.979595","6501300","土城區"
"242021","AAC-296","2017/07/15 17:49:26","新北市新莊區復興路一段216號","121.452943333333","25.043705","6500500","新莊區"
"242029","986-R7","2017/07/15 17:49:26","新北市新莊區復興路一段63號","121.447693333333","25.0424366666667","6500500","新莊區"
"242048","751-BX","2017/07/15 17:49:34","新北市新莊區萬安街144號","121.420106666667","25.0212","6500500","新莊區"
"242025","615-BX","2017/07/15 17:49:25","新北市三重區新北大道二段25號","121.471636666667","25.0612233333333","6500500","新莊區"
"242023","613-BX","2017/07/15 17:49:19","新北市新莊區福樂街58號","121.457693333333","25.046035","6500500","新莊區"
"242027","612-BX","2017/07/15 17:49:27","新北市新莊區福壽街144號","121.45786","25.0520266666667","6500500","新莊區"
"242036","566-BX","2017/07/15 17:49:17","新北市新莊區建福路67號","121.426816666667","25.027005","6500500","新莊區"
"242042","497-BY","2017/07/15 17:49:30","新北市泰山區貴陽街29號","121.422201666667","25.0330733333333","6500500","新莊區"
"242004","442-UM","2017/07/15 17:49:32","新北市新莊區自立街249號","121.458775","25.0455433333333","6500500","新莊區"
"242046","441-UM","2017/07/15 17:49:20","新北市新莊區建國一路31巷11號","121.434738333333","25.0316183333333","6500500","新莊區"
"242051","440-UM","2017/07/15 17:49:28","新北市新莊區西盛街269巷20號","121.428795","25.01544","6500500","新莊區"
"242031","415-TV","2017/07/15 17:49:20","新北市新莊區新泰路338號","121.44476","25.0421683333333","6500500","新莊區"
"242002","413-TV","2017/07/15 17:49:26","新北市新莊區大觀街39巷5號","121.453411666667","25.0354933333333","6500500","新莊區"
"242039","400-BY","2017/07/15 17:49:27","新北市新莊區民安路143號","121.425345","25.0239683333333","6500500","新莊區"
"242061","362-BY","2017/07/15 17:49:18","新北市新莊區新樹路294號","121.432751666667","25.006975","6500500","新莊區"
"242058","353-BY","2017/07/15 17:49:34","新北市新莊區中正路730-11號","121.414526666667","25.0235083333333","6500500","新莊區"
"242011","132-UY","2017/07/15 17:49:37","新北市新莊區中港路713號","121.450643333333","25.05724","6500500","新莊區"
"242034","133-UY","2017/07/15 17:49:29","新北市新莊區新莊路783號","121.441153333333","25.0326433333333","6500500","新莊區"
"242019","135-UY","2017/07/15 17:49:34","新北市新莊區中港路271號","121.453588333333","25.043525","6500500","新莊區"
"242044","172-VK","2017/07/15 17:49:19","新北市新莊區中正路857號","121.419736666667","25.0278416666667","6500500","新莊區"
"242007","173-VK","2017/07/15 17:49:27","新北市新莊區福樂街108巷26號","121.45786","25.0483816666667","6500500","新莊區"
"242056","176-VK","2017/07/15 17:49:15","新北市新莊區瓊林路40巷5號","121.447586666667","25.0301716666667","6500500","新莊區"
"242013","346-TH","2017/07/15 17:49:10","新北市新莊區中誠街142巷15弄2號","121.448651666667","25.04847","6500500","新莊區"
"242017","348-TH","2017/07/15 17:49:22","新北市新莊區永安街162號","121.448993333333","25.0444233333333","6500500","新莊區"
"242053","349-TH","2017/07/15 17:49:34","新北市新莊區新樹路661號","121.432626666667","25.0030316666667","6500500","新莊區"
"242015","350-TH","2017/07/15 17:49:26","新北市新莊區新泰路502巷40號","121.443695","25.046375","6500500","新莊區"
"242009","351-TH","2017/07/15 17:49:34","新北市新莊區昌平街59巷11弄7號","121.45376","25.0530133333333","6500500","新莊區"
"238015","755-BX","2017/07/15 17:49:28","新北市樹林區樹德街136巷33號","121.420008333333","24.9941733333333","6500700","樹林區"
"238023","601-UM","2017/07/15 17:49:37","新北市樹林區福興街3巷9號","121.404701666667","25.016875","6500700","樹林區"
"238019","599-UM","2017/07/15 17:49:24","新北市樹林區太平路106號","121.418566666667","24.9788566666667","6500700","樹林區"
"238018","571-TV","2017/07/15 17:49:30","新北市樹林區鎮前街8號","121.42638","24.99336","6500700","樹林區"
"238024","5061-A6","2017/07/15 17:49:29","新北市樹林區育德街121巷7號","121.389353333333","24.96814","6500700","樹林區"
"238022","312-TH","2017/07/15 17:49:34","新北市樹林區太元街42號","121.418265","24.97983","6500700","樹林區"
"238021","311-TH","2017/07/15 17:08:18","新北市樹林區西圳街一段118巷16號","121.394465","24.9658183333333","6500700","樹林區"
"238025","303-VK","2017/07/15 17:49:28","新北市樹林區保安街三段55-1號","121.412555","25.0115416666667","6500700","樹林區"
"238014","282-BY","2017/07/15 17:49:28","新北市樹林區保安街一段293號","121.417946666667","24.9972716666667","6500700","樹林區"
"238020","268-VK","2017/07/15 17:49:31","新北市樹林區三俊街302號","121.422948333333","25.0141283333333","6500700","樹林區"
"238026","172-UY","2017/07/15 17:49:29","新北市樹林區新興街19巷2弄8號","121.400815","24.9725766666667","6500700","樹林區"
"238016","169-UY","2017/07/15 17:49:34","新北市樹林區啟智街129-10號","121.417615","24.9888283333333","6500700","樹林區"
"239007","AAC-297","2017/07/15 17:49:23","新北市鶯歌區鶯桃路94巷19號","121.340395","24.9541983333333","6500800","鶯歌區"
"239006","891-R6","2017/07/15 17:49:37","新北市鶯歌區鶯桃路413巷42號","121.330751666667","24.9634566666667","6500800","鶯歌區"
"239008","527-UM","2017/07/15 17:49:28","新北市鶯歌區香賓街29巷2號","121.337895","24.9794933333333","6500800","鶯歌區"
"239005","526-UM","2017/07/15 17:49:20","新北市鶯歌區鳳吉五街19號","121.326973333333","24.9725616666667","6500800","鶯歌區"
"239001","417-VK","2017/07/15 17:49:25","新北市鶯歌區中正三路408號","121.325356666667","24.9346816666667","6500800","鶯歌區"
"239003","360-BY","2017/07/15 17:49:33","新北市鶯歌區永吉街61號","121.335318333333","24.9567766666667","6500800","鶯歌區"
"239002","359-BY","2017/07/15 17:49:34","新北市鶯歌區國華路41號","121.342873333333","24.95543","6500800","鶯歌區"
"239006","292-BY","2017/07/15 11:05:50","新北市鶯歌區二甲路13號","121.344028333333","24.9353966666667","6500800","鶯歌區"
"239004","193-VK","2017/07/15 17:49:33","新北市鶯歌區尖山路32號","121.351501666667","24.9503433333333","6500800","鶯歌區"
"221008","489-VK","2017/07/15 17:49:25","新北市汐止區康寧街901號","121.651115","25.0752933333333","6501100","汐止區"
"221036","130-UY","2017/07/15 17:49:15","新北市汐止區長江街89號","121.657683333333","25.07245","6501100","汐止區"
"221015","131-UY","2017/07/15 17:49:18","新北市汐止區長江街213號","121.661486666667","25.0777066666667","6501100","汐止區"
"221010","269-BY","2017/07/15 17:49:29","新北市汐止區汐萬路二段62巷1號","121.649336666667","25.082265","6501100","汐止區"
"221031","277-VK","2017/07/15 17:49:29","新北市汐止區連峰街1巷1號","121.646486666667","25.0760133333333","6501100","汐止區"
"221012","278-VK","2017/07/15 17:49:22","新北市汐止區長江街29號","121.655368333333","25.0711366666667","6501100","汐止區"
"221023","279-VK","2017/07/15 02:12:50","新北市汐止區康寧街901號","121.651608333333","25.0748816666667","6501100","汐止區"
"221032","280-BY","2017/07/15 17:49:32","新北市汐止區民權街一段16號","121.621325","25.0536616666667","6501100","汐止區"
"221038","297-VK","2017/07/15 17:49:20","新北市汐止區汐萬路一段312號","121.650578333333","25.0753916666667","6501100","汐止區"
"221021","299-VK","2017/07/15 17:44:34","新北市汐止區汐萬路一段81號","121.655351666667","25.0702333333333","6501100","汐止區"
"221035","622-UM","2017/07/15 17:49:18","新北市汐止區汐萬路一段211巷13號","121.651561666667","25.071925","6501100","汐止區"
"221025","623-UM","2017/07/15 17:49:21","新北市汐止區新江北路30巷17號","121.65257","25.068295","6501100","汐止區"
"221033","647-BX","2017/07/15 17:49:26","新北市汐止區橫科路73巷20弄16號","121.61967","25.0515633333333","6501100","汐止區"
"221018","753-BX","2017/07/15 17:49:34","新北市汐止區忠孝東路337號","121.66524","25.06997","6501100","汐止區"
