"lineid","car","time","location","longitude","latitude","cityid","cityname"
"234013","149-BY","2017/07/15 18:29:21","新北市永和區福和路1號","121.52643","25.0096383333333","6500400","永和區"
"234007","207-UY","2017/07/15 18:29:20","新北市永和區環河西路二段217巷5號","121.501665","25.0098916666667","6500400","永和區"
"234081","298-R6","2017/07/15 18:29:23","新北市永和區永亨路127號","121.52441","25.0042333333333","6500400","永和區"
"234038","336-UY","2017/07/15 18:29:20","新北市永和區福和路1號","121.526606666667","25.01008","6500400","永和區"
"234086","338-UY","2017/07/15 18:29:23","新北市永和區永利路69號","121.519915","25.0047783333333","6500400","永和區"
"234042","862-TW","2017/07/15 18:29:26","新北市永和區福和路1號","121.526403333333","25.0096416666667","6500400","永和區"
"234026","9371-KE","2017/07/15 18:29:34","新北市永和區中山路一段98-2號","121.511593333333","25.01079","6500400","永和區"
"234011","9373-KE","2017/07/15 18:29:34","新北市永和區文化路204號","121.510486666667","25.0164116666667","6500400","永和區"
"249005","172-UM","2017/07/15 18:29:35","新北市八里區中華路三段90號","121.393378333333","25.1392216666667","6502300","八里區"
"249004","303-UY","2017/07/15 18:29:20","新北市八里區文心街75號","121.428066666667","25.1609783333333","6502300","八里區"
"249002","305-UY","2017/07/15 18:20:24","新北市八里區龍形二街29號","121.450473333333","25.1325666666667","6502300","八里區"
"249001","759-BX","2017/07/15 18:29:22","新北市八里區龍米路一段96號","121.45355","25.1243333333333","6502300","八里區"
"248016","026-BX","2017/07/15 18:29:23","新北市五股區凌雲路一段83巷22弄1號","121.449866666667","25.1007516666667","6501500","五股區"
"248006","077-UY","2017/07/15 18:29:21","新北市五股區四維路69號","121.467235","25.0719783333333","6501500","五股區"
"248008","095-VK","2017/07/15 18:29:30","新北市五股區四維路185巷46號","121.463395","25.077625","6501500","五股區"
"248018","225-UY","2017/07/15 18:26:39","新北市五股區孝義路47巷1-2號","121.454106666667","25.11047","6501500","五股區"
"248012","247-BX","2017/07/14 21:08:08","新北市五股區中興路二段103巷16號","121.458873333333","25.0757916666667","6501500","五股區"
"248014","261-SL","2017/07/15 18:29:29","新北市五股區明德路7巷40號","121.434196666667","25.070855","6501500","五股區"
"248010","272-BY","2017/07/15 18:29:31","新北市五股區明德路8號","121.433316666667","25.071605","6501500","五股區"
"248004","677-BX","2017/07/15 18:29:28","新北市五股區工商路150號","121.43319","25.08741","6501500","五股區"
"248002","678-BX","2017/07/15 18:29:25","新北市五股區西雲路163號","121.446161666667","25.09435","6501500","五股區"
"234077","969-R7","2017/07/15 18:29:34","新北市永和區豫溪街217巷1號","121.525256666667","25.009765","6500400","永和區"
"232011","375-UM","2017/07/15 18:29:19","新北市坪林區坪雙路一段43號","121.711758333333","24.9424566666667","6502000","坪林區"
"244013","069-UM","2017/07/15 18:29:24","新北市林口區中山路256-1號","121.385333333333","25.0796616666667","6501700","林口區"
"244007","080-UY","2017/07/15 18:29:28","新北市林口區湖子22-1號","121.385941666667","25.092725","6501700","林口區"
"244019","403-UM","2017/07/15 18:29:23","新北市林口區忠孝路555號","121.372423333333","25.06852","6501700","林口區"
"244009","410-SL","2017/07/15 18:29:19","新北市林口區民生路108號","121.377951666667","25.088265","6501700","林口區"
"244023","483-VK","2017/07/15 18:29:28","新北市林口區仁愛路二段60號","121.384531666667","25.0755783333333","6501700","林口區"
"244017","485-VK","2017/07/15 18:29:22","新北市林口區公園路19號","121.366761666667","25.0675683333333","6501700","林口區"
"244021","657-BX","2017/07/15 18:29:30","新北市林口區自強二街52號","121.3993","25.0770416666667","6501700","林口區"
"244011","701-TV","2017/07/15 18:29:22","新北市林口區興林路17巷3弄2號","121.390231666667","25.07699","6501700","林口區"
"244025","837-TS","2017/07/15 18:29:22","新北市林口區南勢四街216巷23號","121.356835","25.073535","6501700","林口區"
"243013","AAD-798","2017/07/15 18:29:23","新北市泰山區工專路64號","121.422795","25.0403216666667","6501600","泰山區"
"243012","646-TV","2017/07/15 18:29:19","新北市泰山區忠孝街19巷2弄5號","121.427676666667","25.0656933333333","6501600","泰山區"
"222003","436-BY","2017/07/15 18:29:19","新北市深坑區旺耽路35號","121.627491666667","25.0041616666667","6501800","深坑區"
"222001","628-TS","2017/07/15 18:29:24","新北市深坑區北深路一段199號","121.630411666667","25.0089733333333","6501800","深坑區"
"222002","659-BX","2017/07/15 18:29:27","新北市深坑區雲鄉路143號","121.622175","24.998255","6501800","深坑區"
"231041","002-UM","2017/07/15 18:29:33","新北市新店區安華路28-1號","121.519686666667","24.9608366666667","6500600","新店區"
"231056","0293-UT","2017/07/15 18:29:25","新北市新店區二十張路92號","121.536253333333","24.9798133333333","6500600","新店區"
"231059","046-UY","2017/07/15 18:29:26","新北市新店區安華路28-1號","121.51953","24.960845","6500600","新店區"
"231061","047-UY","2017/07/15 18:29:28","新北市新店區安華路28-1號","121.51909","24.96093","6500600","新店區"
"231060","106-UY","2017/07/15 18:29:22","新北市新店區安華路28-1號","121.519521666667","24.960815","6500600","新店區"
"231051","107-UY","2017/07/15 18:29:20","新北市新店區安華路28-1號","121.519251666667","24.9612333333333","6500600","新店區"
"231048","108-UY","2017/07/15 18:28:24","新北市新店區安康路一段319號","121.522145","24.9636916666667","6500600","新店區"
"231052","187-VK","2017/07/15 18:29:25","新北市新店區北宜路一段298號","121.547111666667","24.9523083333333","6500600","新店區"
"231057","256-BX","2017/07/15 18:29:28","新北市新店區光明街9號","121.538191666667","24.959275","6500600","新店區"
"231063","268-BY","2017/07/15 18:29:21","新北市新店區安華路1-1號","121.519325","24.960495","6500600","新店區"
"231046","278-BY","2017/07/15 18:29:17","新北市新店區直潭七街60號","121.532225","24.9399216666667","6500600","新店區"
"231050","AAD-862","2017/07/15 18:29:30","新北市新店區安華路28-1號","121.52005","24.9612183333333","6500600","新店區"
"231058","3712-VJ","2017/07/15 18:29:25","新北市新店區國校路32-2號","121.537726666667","24.9542233333333","6500600","新店區"
"231055","3713-VJ","2017/07/15 18:29:32","新北市新店區中正路128巷11號","121.542488333333","24.97207","6500600","新店區"
"231067","4772-VM","2017/07/15 18:29:20","新北市新店區安華路1-1號","121.519175","24.9605666666667","6500600","新店區"
"231065","512-UM","2017/07/15 18:29:24","新北市新店區安華路28-1號","121.519271666667","24.9612483333333","6500600","新店區"
"231054","513-UM","2017/07/15 18:29:23","新北市新店區安華路28-1號","121.51966","24.9611516666667","6500600","新店區"
"231064","515-UM","2017/07/15 18:29:27","新北市新店區安華路28-1號","121.519568333333","24.96107","6500600","新店區"
"231042","616-UM","2017/07/15 18:29:37","新北市新店區安華路1-1號","121.519416666667","24.9604566666667","6500600","新店區"
"231045","617-UM","2017/07/15 18:29:34","新北市新店區安華路28-1號","121.51939","24.9609816666667","6500600","新店區"
"231040","619-UM","2017/07/15 18:29:24","新北市新店區安華路28-1號","121.519391666667","24.96085","6500600","新店區"
"231049","719-UM","2017/07/15 18:29:31","新北市新店區安華路28-1號","121.51958","24.9612966666667","6500600","新店區"
"231062","720-UM","2017/07/15 18:29:37","新北市新店區安華路28-1號","121.519008333333","24.9612783333333","6500600","新店區"
"231044","897-TW","2017/07/15 18:29:32","新北市新店區安華路28-1號","121.519578333333","24.96082","6500600","新店區"
"231043","899-TW","2017/07/15 18:29:22","新北市新店區安華路28-1號","121.518783333333","24.9609516666667","6500600","新店區"
"231066","AKT-0513","2017/07/15 18:29:17","新北市新店區安華路1-1號","121.519285","24.9603616666667","6500600","新店區"
"235066","003-UY","2017/07/15 18:29:30","新北市中和區中山路二段122號","121.502626666667","25.00373","6500300","中和區"
"235064","005-UY","2017/07/15 18:29:33","新北市中和區圓通路167巷27號","121.498296666667","24.99442","6500300","中和區"
"235063","006-UY","2017/07/15 18:29:36","新北市中和區連城路347巷16弄1號","121.488471666667","24.9949283333333","6500300","中和區"
"235056","096-UM","2017/07/15 18:29:25","新北市中和區員山路611巷1號","121.477891666667","25.0113633333333","6500300","中和區"
"235039","097-UM","2017/07/15 18:29:31","新北市中和區宜安路66號","121.511486666667","24.9971816666667","6500300","中和區"
"235065","098-UM","2017/07/15 18:29:34","新北市中和區莊敬路49巷18號","121.501626666667","25.0061683333333","6500300","中和區"
"235040","150-BY","2017/07/15 18:29:32","新北市中和區安平路38號","121.509828333333","24.9949466666667","6500300","中和區"
"235058","151-BY","2017/07/15 18:29:24","新北市中和區圓通路369巷53-4號","121.490791666667","24.984645","6500300","中和區"
"235055","183-VK","2017/07/15 18:29:22","新北市中和區莒光路9號","121.471926666667","25.0058783333333","6500300","中和區"
"235038","185-VK","2017/07/15 18:29:17","新北市中和區秀朗路三段128巷17弄4號","121.5243","24.993545","6500300","中和區"
"235049","186-VK","2017/07/15 18:29:36","新北市中和區景安路130號","121.505111666667","24.99443","6500300","中和區"
"235067","255-BX","2017/07/15 18:29:37","新北市中和區和城路一段271巷1號","121.485445","24.9918866666667","6500300","中和區"
"235044","293-VK","2017/07/15 18:29:26","新北市中和區中興街228巷6號","121.50048","24.9898066666667","6500300","中和區"
"235072","301-VK","2017/07/15 18:29:22","新北市中和區連城路237-1號","121.493845","24.997475","6500300","中和區"
"235043","352-BY","2017/07/15 18:29:29","新北市中和區景平路313號","121.50631","24.9931966666667","6500300","中和區"
"235051","376-QA","2017/07/15 18:29:34","新北市中和區興南路二段32巷1號","121.507231666667","24.98559","6500300","中和區"
"235068","377-QA","2017/07/15 18:29:33","新北市中和區圓通路226號","121.495111666667","24.9931683333333","6500300","中和區"
"235061","378-QA","2017/07/15 18:29:36","新北市中和區民享街117巷4號","121.474698333333","24.9988883333333","6500300","中和區"
"235050","4979-A6","2017/07/15 18:29:32","新北市中和區景新街410巷18弄9號","121.511898333333","24.9894616666667","6500300","中和區"
"235069","4980-A6","2017/07/15 18:29:17","新北市中和區連城路127巷4弄2號","121.496323333333","24.9988383333333","6500300","中和區"
"235042","551-UM","2017/07/15 18:29:23","新北市中和區自立路58巷23號","121.523156666667","24.9912966666667","6500300","中和區"
"235045","565-BX","2017/07/15 18:29:15","新北市中和區復興路22號","121.50526","24.9899066666667","6500300","中和區"
"235054","640-BX","2017/07/15 18:29:33","新北市中和區民享街117巷1號","121.474635","24.9991266666667","6500300","中和區"
"235060","647-TV","2017/07/15 18:29:19","新北市中和區員山路104號","121.481038333333","24.9954666666667","6500300","中和區"
"235047","732-UM","2017/07/15 18:29:31","新北市中和區南山路300號","121.507915","24.9871216666667","6500300","中和區"
"235071","783-BX","2017/07/15 18:29:27","新北市中和區員山路36巷16-3號","121.485238333333","24.9912216666667","6500300","中和區"
"235062","800-TS","2017/07/15 18:29:27","新北市中和區景平路671號","121.49645","25.002705","6500300","中和區"
"235057","801-TS","2017/07/15 18:29:30","新北市中和區民享街97巷21號","121.475405","24.999475","6500300","中和區"
"235041","802-TS","2017/07/15 18:29:29","新北市中和區錦和路350-1號","121.490043333333","24.9935566666667","6500300","中和區"
"235052","805-TS","2017/07/15 18:29:23","新北市中和區興南路二段94號","121.505263333333","24.9842416666667","6500300","中和區"
"235048","896-TW","2017/07/15 18:29:28","新北市中和區中正路83號","121.500623333333","24.993545","6500300","中和區"
"235053","900-TW","2017/07/15 18:29:17","新北市中和區民享街467號","121.469891666667","24.99259","6500300","中和區"
"235070","911-UM","2017/07/15 18:29:31","新北市中和區圓通路132號","121.49844","24.99578","6500300","中和區"
"235037","AAC-213","2017/07/15 18:29:30","新北市中和區景德街54號","121.517498333333","24.9914483333333","6500300","中和區"
"235059","AAC-215","2017/07/15 18:29:21","新北市中和區員山路36巷16-3號","121.485023333333","24.9911883333333","6500300","中和區"
"220068","013-TV","2017/07/15 18:29:32","新北市板橋區民生路二段17號","121.47261","25.0163566666667","6500100","板橋區"
"220065","072-UY","2017/07/15 18:29:19","新北市板橋區民生路二段17號","121.472598333333","25.016325","6500100","板橋區"
"220086","073-UY","2017/07/15 18:29:32","新北市板橋區南雅南路二段120-2號","121.452343333333","24.9998","6500100","板橋區"
"247006","341-TH","2017/07/15 18:29:34","新北市林口區太平里180號","121.36701","25.1337783333333","6501400","蘆洲區"
"247002","336-TH","2017/07/15 18:29:36","新北市林口區太平里180號","121.368375","25.1342833333333","6501400","蘆洲區"
"247014","057-VK","2017/07/15 18:27:26","新北市五股區凌雲路一段21號","121.452481666667","25.100195","6501400","蘆洲區"
"226004","312-R5","2017/07/15 18:29:25","新北市平溪區白石里中埔205號","121.725078333333","25.02197","6502400","平溪區"
"228001","212-TW","2017/07/15 18:29:34","新北市貢寮區仁理村仁義街4號","121.923651666667","25.052085","6502600","貢寮區"
"228002","585-TW","2017/07/15 18:29:16","新北市貢寮區福連里香蘭街16-1號","121.983736666667","25.0215733333333","6502600","貢寮區"
"228003","828-UM","2017/07/15 18:29:28","新北市貢寮區和美里和美街46號","121.914896666667","25.0928366666667","6502600","貢寮區"
"224006","676-BX","2017/07/15 18:29:23","新北市瑞芳區明燈路二段66號","121.809376666667","25.10745","6501200","瑞芳區"
"224002","639-TC","2017/07/15 18:29:32","新北市瑞芳區三爪子坑路29巷57號","121.813853333333","25.1064783333333","6501200","瑞芳區"
"224011","420-VK","2017/07/15 18:28:53","新北市瑞芳區崙頂路3-1號","121.846988333333","25.104705","6501200","瑞芳區"
"224009","285-BY","2017/07/15 18:29:16","新北市瑞芳區祈堂路229號","121.856561666667","25.1091516666667","6501200","瑞芳區"
"224008","275-VK","2017/07/15 18:29:17","新北市瑞芳區岳王路10-11號","121.807773333333","25.111145","6501200","瑞芳區"
"224007","273-VK","2017/07/15 18:29:31","新北市瑞芳區大埔路國宅新村24號","121.764786666667","25.1003433333333","6501200","瑞芳區"
"224005","271-BY","2017/07/15 18:29:27","新北市瑞芳區建基新村5-1號","121.812181666667","25.13112","6501200","瑞芳區"
"227010","642-TC","2017/07/15 18:29:34","新北市雙溪區牡丹里牡丹127號","121.850921666667","25.0594516666667","6502500","雙溪區"
"227002","400-TW","2017/07/15 18:29:34","新北市雙溪區魚行里坤溪35號","121.870561666667","25.0303866666667","6502500","雙溪區"
"253006","032-BX","2017/07/15 18:29:31","新北市石門區公地47-1號","121.545606666667","25.29018","6502200","石門區"
"253005","741-TV","2017/07/15 18:29:23","新北市石門區老崩山2號","121.553128333333","25.2915183333333","6502200","石門區"
"208003","665-BX","2017/07/15 18:29:28","新北市金山區慈護街35號","121.639383333333","25.2198216666667","6502700","金山區"
"208001","761-BX","2017/07/15 18:29:33","新北市金山區溫泉路21巷1號","121.637808333333","25.2227566666667","6502700","金山區"
"251004","009-UM","2017/07/15 18:29:26","新北市淡水區民生路52巷22弄12號","121.462373333333","25.13705","6501000","淡水區"
"251002","012-UM","2017/07/15 18:29:17","新北市淡水區竿蓁二街19巷20弄1號","121.45312","25.1636166666667","6501000","淡水區"
"251014","180-VK","2017/07/15 18:29:23","新北市淡水區南平28號","121.492623333333","25.215685","6501000","淡水區"
"251008","181-VK","2017/07/15 18:29:00","新北市淡水區北投子87-3號","121.46929","25.1792266666667","6501000","淡水區"
"251010","413-VK","2017/07/15 18:29:21","新北市淡水區沙崙路181巷1號","121.424136666667","25.1842","6501000","淡水區"
"251012","441-VK","2017/07/15 18:29:31","新北市淡水區北新路一段163號","121.458993333333","25.1822633333333","6501000","淡水區"
"251016","442-VK","2017/07/15 18:29:33","新北市淡水區下圭柔山105-2號","121.445096666667","25.2094866666667","6501000","淡水區"
"251005","443-VK","2017/07/15 18:29:34","新北市淡水區中正東路37號","121.445998333333","25.168335","6501000","淡水區"
"251001","559-UM","2017/07/15 18:29:26","新北市淡水區自強路355號","121.464213333333","25.133035","6501000","淡水區"
"251006","561-UM","2017/07/15 18:29:26","新北市淡水區新民街30號","121.439625","25.1758033333333","6501000","淡水區"
"251011","650-BX","2017/07/15 18:29:34","新北市淡水區中正東路27號","121.448226666667","25.16625","6501000","淡水區"
"251003","673-BX","2017/07/15 18:29:34","新北市淡水區北新路169巷83-1號","121.44762","25.1807716666667","6501000","淡水區"
"207003","550-UM","2017/07/15 18:29:34","新北市萬里區野柳里港東路66號","121.687775","25.20421","6502800","萬里區"
"207004","225-TW","2017/07/15 18:29:19","新北市萬里區萬里里瑪鋉頂街44號","121.689228333333","25.1790883333333","6502800","萬里區"
"252002","178-VK","2017/07/15 18:29:34","新北市三芝區中山路二段45號","121.503025","25.25497","6502100","三芝區"
"252003","249-BX","2017/07/15 18:29:30","新北市三芝區後厝里北勢子43號","121.471843333333","25.25251","6502100","三芝區"
"252001","292-VK","2017/07/15 18:29:34","新北市三芝區中興街二段2號","121.498356666667","25.2566466666667","6502100","三芝區"
"208002","170-UY","2017/07/15 18:29:15","新北市金山區磺港里青年路1號","121.639421666667","25.2258483333333","6502700","金山區"
"237007","153-BY","2017/07/15 18:29:29","新北市三峽區中正路三段150號","121.353161666667","24.90366","6500900","三峽區"
"237009","210-TH","2017/07/15 18:29:28","新北市三峽區大同路247號","121.366743333333","24.926095","6500900","三峽區"
"237013","252-BX","2017/07/15 18:29:18","新北市三峽區永安街9巷12號","121.377128333333","24.9299466666667","6500900","三峽區"
"237012","275-BY","2017/07/15 18:29:32","新北市三峽區三樹路110號","121.378326666667","24.9391816666667","6500900","三峽區"
"237008","302-VK","2017/07/15 18:29:19","新北市三峽區白雞68-251號","121.390963333333","24.90761","6500900","三峽區"
"237014","433-BY","2017/07/15 18:29:20","新北市三峽區文化路103號","121.370626666667","24.9361133333333","6500900","三峽區"
"237006","5529-G3","2017/07/15 18:29:28","新北市三峽區溪東路473巷14號","121.41418","24.92867","6500900","三峽區"
"237011","572-TV","2017/07/15 18:29:18","新北市三峽區溪東路370號","121.413586666667","24.9279433333333","6500900","三峽區"
"237016","649-BX","2017/07/15 18:29:24","新北市三峽區竹崙路158號","121.437991666667","24.9043733333333","6500900","三峽區"
"237010","706-TV","2017/07/15 18:29:28","新北市三峽區復興路323號","121.364761666667","24.9388166666667","6500900","三峽區"
"237005","AKY-6261","2017/07/15 18:29:22","新北市三峽區民族街5巷34號","121.369826666667","24.9324266666667","6500900","三峽區"
"236073","105-UM","2017/07/15 18:29:35","新北市土城區永豐路255巷27弄21號","121.476096666667","24.9730483333333","6501300","土城區"
"236043","107-UM","2017/07/15 18:29:34","新北市土城區裕民路61巷16號","121.449868333333","24.9886333333333","6501300","土城區"
"236079","166-UM","2017/07/15 18:29:29","新北市土城區大暖路61-2號","121.422048333333","24.9582683333333","6501300","土城區"
"236031","253-BX","2017/07/15 18:29:35","新北市土城區水源街81巷1弄2號","121.439521666667","24.976065","6501300","土城區"
"236027","269-VK","2017/07/15 18:29:31","新北市土城區南天母路135巷32號","121.448863333333","24.954395","6501300","土城區"
"236015","270-VK","2017/07/15 18:29:32","新北市土城區青雲路39巷7號","121.460336666667","24.9874216666667","6501300","土城區"
"236038","271-VK","2017/07/15 18:29:29","新北市土城區青雲路451巷8弄12號","121.459478333333","24.9741683333333","6501300","土城區"
"236023","401-BY","2017/07/15 18:29:19","新北市土城區永豐路202巷7-1號","121.46622","24.9832983333333","6501300","土城區"
"236059","912-UM","2017/07/15 18:29:32","新北市土城區中央路四段464號","121.409941666667","24.95048","6501300","土城區"
"236049","913-UM","2017/07/15 18:29:31","新北市土城區青雲路368號","121.458703333333","24.97378","6501300","土城區"
"236063","915-UM","2017/07/15 18:29:34","新北市土城區延壽路77巷2號","121.469193333333","24.992615","6501300","土城區"
"236055","AAC-216","2017/07/15 18:29:34","新北市土城區中華路二段149號","121.438951666667","24.97593","6501300","土城區"
"242029","986-R7","2017/07/15 18:26:13","新北市新莊區新泰路357巷3弄57號","121.442035","25.0391683333333","6500500","新莊區"
"242042","497-BY","2017/07/15 18:29:30","新北市新莊區天祥街116號","121.41476","25.029965","6500500","新莊區"
"242046","441-UM","2017/07/15 18:29:20","新北市新莊區民安路46號","121.422666666667","25.027425","6500500","新莊區"
"242002","413-TV","2017/07/15 18:29:23","新北市新莊區瓊泰路85號","121.442596666667","25.02939","6500500","新莊區"
"242061","362-BY","2017/07/15 18:29:17","新北市新莊區民安路188巷28號","121.424328333333","25.0235216666667","6500500","新莊區"
"242058","353-BY","2017/07/15 18:29:28","新北市新莊區中正路887-13號","121.416335","25.0242816666667","6500500","新莊區"
"242011","132-UY","2017/07/15 18:29:37","新北市新莊區中榮街58號","121.44924","25.0527216666667","6500500","新莊區"
"242034","133-UY","2017/07/15 18:29:35","新北市新莊區環河路48-1號","121.436303333333","25.0082933333333","6500500","新莊區"
"242044","172-VK","2017/07/15 18:29:19","新北市新莊區中正路新旺巷30弄3號","121.416021666667","25.0225716666667","6500500","新莊區"
"242053","349-TH","2017/07/15 18:29:34","新北市新莊區民安西路410巷12弄4號","121.427846666667","25.0091433333333","6500500","新莊區"
"238015","755-BX","2017/07/15 18:29:30","新北市樹林區啟智街173巷2號","121.415781666667","24.9876133333333","6500700","樹林區"
"238023","601-UM","2017/07/15 18:29:31","新北市樹林區忠信街15號","121.407641666667","25.015125","6500700","樹林區"
"238019","599-UM","2017/07/15 18:29:24","新北市樹林區中山路三段245號","121.392753333333","24.9722416666667","6500700","樹林區"
"238018","571-TV","2017/07/15 18:29:35","新北市樹林區保安街一段20巷16號","121.4279","24.9939033333333","6500700","樹林區"
"238024","5061-A6","2017/07/15 18:29:29","新北市樹林區中山路一段31號","121.424745","24.992845","6500700","樹林區"
"238021","311-TH","2017/07/15 18:10:38","新北市樹林區柑園街一段115號","121.40105","24.9600633333333","6500700","樹林區"
"238025","303-VK","2017/07/15 18:29:28","新北市樹林區復興路219號","121.420186666667","24.9911483333333","6500700","樹林區"
"238014","282-BY","2017/07/15 18:29:28","新北市樹林區大安路125巷5號","121.422886666667","24.9974033333333","6500700","樹林區"
"238020","268-VK","2017/07/15 18:29:23","桃園市龜山區宏慶街34巷6號","121.41031","25.0180683333333","6500700","樹林區"
"238026","172-UY","2017/07/15 18:29:28","新北市樹林區佳園路一段75巷84號","121.396053333333","24.97014","6500700","樹林區"
"238016","169-UY","2017/07/15 18:29:14","新北市樹林區文化街24號","121.419493333333","24.9876966666667","6500700","樹林區"
"239007","AAC-297","2017/07/15 18:29:23","新北市鶯歌區國慶街21號","121.349611666667","24.9561583333333","6500800","鶯歌區"
"239006","891-R6","2017/07/15 18:29:17","新北市鶯歌區鶯桃路296巷53號","121.335903333333","24.9613366666667","6500800","鶯歌區"
"239008","527-UM","2017/07/15 18:29:28","新北市鶯歌區國際一路179號","121.33623","24.9765466666667","6500800","鶯歌區"
"239005","526-UM","2017/07/15 18:29:20","新北市鶯歌區鳳吉三街15號","121.326741666667","24.97345","6500800","鶯歌區"
"239001","417-VK","2017/07/15 18:29:25","新北市鶯歌區國中街178號","121.338253333333","24.9392466666667","6500800","鶯歌區"
"239003","360-BY","2017/07/15 18:29:33","新北市鶯歌區福安街58號","121.3356","24.965205","6500800","鶯歌區"
"239002","359-BY","2017/07/15 18:29:34","新北市鶯歌區中山路288號","121.343968333333","24.95711","6500800","鶯歌區"
"239006","292-BY","2017/07/15 11:05:50","新北市鶯歌區二甲路13號","121.344028333333","24.9353966666667","6500800","鶯歌區"
"239004","193-VK","2017/07/15 18:29:33","新北市鶯歌區國中街104號","121.340323333333","24.94045","6500800","鶯歌區"
"221008","489-VK","2017/07/15 18:29:25","新北市汐止區康寧街901號","121.651395","25.0749916666667","6501100","汐止區"
"221036","130-UY","2017/07/15 18:29:36","新北市汐止區大同路三段21號","121.666538333333","25.0761966666667","6501100","汐止區"
"221015","131-UY","2017/07/15 18:29:18","新北市汐止區鄉友街29號","121.66863","25.0811983333333","6501100","汐止區"
"221010","269-BY","2017/07/15 18:29:29","新北市汐止區汐萬路三段56號","121.643713333333","25.0926666666667","6501100","汐止區"
"221031","277-VK","2017/07/15 18:29:29","新北市汐止區光復街7巷16號","121.639645","25.0591233333333","6501100","汐止區"
"221012","278-VK","2017/07/15 18:29:22","新北市汐止區保長路51巷15號","121.673968333333","25.0791666666667","6501100","汐止區"
"221023","279-VK","2017/07/15 02:12:50","新北市汐止區康寧街901號","121.651608333333","25.0748816666667","6501100","汐止區"
"221032","280-BY","2017/07/15 18:29:32","新北市汐止區福山街58巷15號","121.618176666667","25.0459383333333","6501100","汐止區"
"221027","281-BY","2017/07/15 18:29:18","新北市汐止區和平街31號","121.662528333333","25.07078","6501100","汐止區"
"221038","297-VK","2017/07/15 18:29:20","新北市汐止區大同路二段430號","121.659178333333","25.0672366666667","6501100","汐止區"
"221029","298-VK","2017/07/15 18:29:15","新北市汐止區樟樹二路330巷68號","121.642905","25.06985","6501100","汐止區"
"221021","299-VK","2017/07/15 17:44:34","新北市汐止區汐萬路一段81號","121.655351666667","25.0702333333333","6501100","汐止區"
"221035","622-UM","2017/07/15 18:29:18","新北市汐止區大同路二段278號","121.654808333333","25.0663816666667","6501100","汐止區"
"221025","623-UM","2017/07/15 18:29:21","新北市汐止區仁愛路121巷1號","121.662903333333","25.0639283333333","6501100","汐止區"
"221033","647-BX","2017/07/15 18:29:26","新北市汐止區宜興街79巷2號","121.623493333333","25.0435916666667","6501100","汐止區"
"221002","707-TV","2017/07/15 18:29:27","新北市汐止區福德一路154號","121.636491666667","25.0666733333333","6501100","汐止區"
"221018","753-BX","2017/07/15 18:29:29","新北市汐止區茄苳路210號","121.670656666667","25.06886","6501100","汐止區"
"220079","145-BY","2017/07/15 18:29:18","新北市板橋區華東街1-9號","121.448191666667","24.9948066666667","6500100","板橋區"
"220082","610-BX","2017/07/15 18:29:25","新北市板橋區華東街1-10號","121.448245","24.9949766666667","6500100","板橋區"
"220056","276-BY","2017/07/15 18:29:15","新北市板橋區中山路一段161號","121.465318333333","25.01201","6500100","板橋區"
"220053","285-VK","2017/07/15 18:29:19","新北市板橋區民生路二段36-1號","121.472486666667","25.0167966666667","6500100","板橋區"
"220061","293-UM","2017/07/15 18:29:22","新北市板橋區民生路二段36-1號","121.472528333333","25.01678","6500100","板橋區"
"220075","297-UM","2017/07/15 18:29:20","新北市板橋區華東街1-9號","121.44819","24.9949616666667","6500100","板橋區"
"220080","461-BY","2017/07/15 18:29:23","新北市板橋區華東街1-9號","121.448231666667","24.99486","6500100","板橋區"
"220035","560-BX","2017/07/15 18:29:22","新北市板橋區南雅南路二段140號","121.451695","24.9963233333333","6500100","板橋區"
"220063","609-BX","2017/07/15 18:29:34","新北市板橋區民生路二段36-1號","121.472483333333","25.0167316666667","6500100","板橋區"
"220057","686-BX","2017/07/15 18:29:26","新北市板橋區民生路二段22號","121.472693333333","25.0165816666667","6500100","板橋區"
