"lineid","car","time","location","longitude","latitude","cityid","cityname"
"234046","148-BY","2017/07/15 18:49:29","新北市永和區得和路373巷31弄12號","121.524375","25.0004333333333","6500400","永和區"
"234013","149-BY","2017/07/15 18:49:21","新北市永和區保福路二段133巷34號","121.508825","25.0135033333333","6500400","永和區"
"234007","207-UY","2017/07/15 18:49:20","新北市永和區文化路2號","121.51559","25.015055","6500400","永和區"
"234081","298-R6","2017/07/15 18:49:23","新北市永和區永利路116號","121.52137","25.0032383333333","6500400","永和區"
"234038","336-UY","2017/07/15 18:49:32","新北市永和區成功路二段213號","121.52653","24.9957783333333","6500400","永和區"
"234064","337-UY","2017/07/15 18:49:17","新北市永和區福和路1號","121.526506666667","25.0099233333333","6500400","永和區"
"234086","338-UY","2017/07/15 18:49:23","新北市永和區中正路71號","121.51498","24.9967633333333","6500400","永和區"
"234070","552-UM","2017/07/15 18:49:35","新北市永和區中興街88號","121.518623333333","25.0120183333333","6500400","永和區"
"234054","553-UM","2017/07/15 18:49:35","新北市永和區竹林路155號","121.520473333333","25.0103716666667","6500400","永和區"
"234017","745-BX","2017/07/15 18:49:17","新北市永和區永和路二段299號","121.515996666667","25.016135","6500400","永和區"
"234030","746-BX","2017/07/15 18:49:24","新北市永和區得和路321號","121.523376666667","24.99963","6500400","永和區"
"234061","AAD-866","2017/07/15 18:49:28","新北市永和區福和路301號","121.51644","25.0071033333333","6500400","永和區"
"234042","862-TW","2017/07/15 18:49:26","新北市永和區永貞路265號","121.511751666667","25.004735","6500400","永和區"
"234050","863-TW","2017/07/15 18:49:05","新北市永和區保安路2號","121.510846666667","25.0178133333333","6500400","永和區"
"249005","172-UM","2017/07/15 18:49:35","新北市八里區長道坑17號","121.39642","25.1158016666667","6502300","八里區"
"249004","303-UY","2017/07/15 18:49:20","新北市八里區中山路一段33-2號","121.420273333333","25.1596383333333","6502300","八里區"
"249001","759-BX","2017/07/15 18:49:22","新北市八里區龍米路二段16號","121.448978333333","25.1390583333333","6502300","八里區"
"248016","026-BX","2017/07/15 18:49:22","新北市五股區凌雲路一段83巷44號","121.449033333333","25.1012933333333","6501500","五股區"
"248006","077-UY","2017/07/15 18:49:18","新北市五股區四維路1巷2弄2號","121.466496666667","25.070165","6501500","五股區"
"248008","095-VK","2017/07/15 18:49:30","新北市五股區中興路一段147號","121.465156666667","25.0735166666667","6501500","五股區"
"248018","225-UY","2017/07/15 18:41:19","新北市五股區孝義路102號","121.44519","25.11975","6501500","五股區"
"248012","247-BX","2017/07/14 21:08:08","新北市五股區中興路二段103巷16號","121.458873333333","25.0757916666667","6501500","五股區"
"248014","261-SL","2017/07/15 18:49:15","新北市五股區民義路一段107巷32號","121.431946666667","25.0849616666667","6501500","五股區"
"248010","272-BY","2017/07/15 18:49:22","新北市五股區水碓七路81號","121.429731666667","25.0721933333333","6501500","五股區"
"248004","677-BX","2017/07/15 18:49:29","新北市五股區民義路二段50號","121.413208333333","25.1019583333333","6501500","五股區"
"248002","678-BX","2017/07/15 18:49:25","新北市五股區成泰路三段437號","121.449821666667","25.0978616666667","6501500","五股區"
"234023","9380-KE","2017/07/15 18:49:34","新北市永和區竹林路119巷53弄2號","121.522251666667","25.011895","6500400","永和區"
"234077","969-R7","2017/07/15 18:49:14","新北市永和區中正路2巷29弄2-2號","121.513841666667","24.9938766666667","6500400","永和區"
"234074","AAC-211","2017/07/15 18:49:13","新北市永和區福和路1號","121.52651","25.0099716666667","6500400","永和區"
"234067","AAC-212","2017/07/15 18:49:20","新北市中和區中和路432號","121.511866666667","25.003385","6500400","永和區"
"234003","AAC-295","2017/07/15 18:49:35","新北市永和區永和路二段28號","121.514788333333","25.010405","6500400","永和區"
"232011","375-UM","2017/07/15 18:49:19","新北市坪林區坪林街72號","121.711401666667","24.9373866666667","6502000","坪林區"
"244013","069-UM","2017/07/15 18:49:24","新北市林口區文化一路一段223號","121.379145","25.0758016666667","6501700","林口區"
"244007","080-UY","2017/07/15 18:49:28","新北市林口區太平嶺1鄰3號","121.379491666667","25.1116383333333","6501700","林口區"
"244019","403-UM","2017/07/15 18:49:23","新北市林口區忠孝路622巷2號","121.377845","25.0682816666667","6501700","林口區"
"244009","410-SL","2017/07/15 18:49:27","新北市林口區竹林路320巷6號","121.390796666667","25.0821483333333","6501700","林口區"
"244023","483-VK","2017/07/15 18:49:28","新北市林口區吉祥路178號","121.376636666667","25.080495","6501700","林口區"
"244017","485-VK","2017/07/15 18:49:22","新北市林口區文化二路一段68巷18-2號","121.366106666667","25.0677333333333","6501700","林口區"
"244011","701-TV","2017/07/15 18:49:22","新北市林口區仁愛路一段285巷32號","121.395573333333","25.0752583333333","6501700","林口區"
"244025","837-TS","2017/07/15 18:49:22","新北市林口區南勢二街158號","121.35908","25.0745733333333","6501700","林口區"
"243013","AAD-798","2017/07/15 18:49:23","新北市泰山區明志路三段206巷1號","121.423356666667","25.0378916666667","6501600","泰山區"
"243015","380-SR","2017/07/15 18:49:32","新北市泰山區美寧街58號","121.430645","25.0646216666667","6501600","泰山區"
"243012","646-TV","2017/07/15 18:49:19","新北市泰山區泰林路二段73巷33號","121.434355","25.0577883333333","6501600","泰山區"
"243016","680-BX","2017/07/15 18:49:22","新北市泰山區明志路二段137號","121.427603333333","25.050655","6501600","泰山區"
"222003","436-BY","2017/07/15 18:49:19","新北市深坑區翠谷街17巷40號","121.625351666667","25.0100866666667","6501800","深坑區"
"222001","628-TS","2017/07/15 18:49:24","新北市深坑區松柏街34號","121.638731666667","25.01138","6501800","深坑區"
"222002","659-BX","2017/07/15 18:49:27","新北市深坑區文山路一段62巷3號","121.622891666667","25.0008483333333","6501800","深坑區"
"231041","002-UM","2017/07/15 18:49:33","新北市新店區安華路28-1號","121.519531666667","24.9608633333333","6500600","新店區"
"231056","0293-UT","2017/07/15 18:49:25","新北市新店區大豐路66號","121.539193333333","24.9795783333333","6500600","新店區"
"231059","046-UY","2017/07/15 18:49:26","新北市新店區安華路28-1號","121.519541666667","24.9608283333333","6500600","新店區"
"231061","047-UY","2017/07/15 18:49:28","新北市新店區安忠路102-1號","121.510611666667","24.9558416666667","6500600","新店區"
"231060","106-UY","2017/07/15 18:49:22","新北市新店區安華路28-1號","121.519573333333","24.9607916666667","6500600","新店區"
"231051","107-UY","2017/07/15 18:49:20","新北市新店區中央路81號","121.532293333333","24.9765433333333","6500600","新店區"
"231048","108-UY","2017/07/15 18:49:35","新北市新店區德正街24號","121.543921666667","24.97206","6500600","新店區"
"231052","187-VK","2017/07/15 18:49:25","新北市新店區永興路41號","121.543563333333","24.938365","6500600","新店區"
"231063","268-BY","2017/07/15 18:49:21","新北市新店區車子路110號","121.50523","24.9520733333333","6500600","新店區"
"231046","278-BY","2017/07/15 18:49:37","新北市新店區直潭路57號","121.533073333333","24.942395","6500600","新店區"
"231050","AAD-862","2017/07/15 18:49:30","新北市新店區安康路一段52巷2號","121.530123333333","24.9611516666667","6500600","新店區"
"231058","3712-VJ","2017/07/15 18:49:25","新北市新店區北宜路一段88號","121.53882","24.9557516666667","6500600","新店區"
"231055","3713-VJ","2017/07/15 18:49:32","新北市新店區新生街30-1號","121.539533333333","24.9668766666667","6500600","新店區"
"231067","4772-VM","2017/07/15 18:49:20","新北市新店區安康路一段76巷28號","121.528045","24.9632366666667","6500600","新店區"
"231065","512-UM","2017/07/15 18:49:25","新北市新店區安豐路22巷18-1號","121.50228","24.954385","6500600","新店區"
"231054","513-UM","2017/07/15 18:49:23","新北市新店區北新路一段2-16號","121.538358333333","24.9599016666667","6500600","新店區"
"231064","515-UM","2017/07/15 18:49:27","新北市新店區安華路28-1號","121.519555","24.9611616666667","6500600","新店區"
"231042","616-UM","2017/07/15 18:49:17","新北市新店區中正路96號","121.543406666667","24.9702566666667","6500600","新店區"
"231045","617-UM","2017/07/15 18:49:34","新北市新店區安華路8號","121.519846666667","24.9623283333333","6500600","新店區"
"231040","619-UM","2017/07/15 18:49:24","新北市新店區中央四街5-1號","121.53017","24.9738083333333","6500600","新店區"
"231049","719-UM","2017/07/15 18:49:31","新北市新店區中央路2號","121.534095","24.9791233333333","6500600","新店區"
"231062","720-UM","2017/07/15 18:49:32","新北市新店區安豐路56-3號","121.499361666667","24.954465","6500600","新店區"
"231044","897-TW","2017/07/15 18:49:32","新北市新店區寶中路72號","121.547875","24.9805966666667","6500600","新店區"
"231043","899-TW","2017/07/15 18:49:22","新北市新店區安康路一段206號","121.524123333333","24.96345","6500600","新店區"
"231066","AKT-0513","2017/07/15 18:49:17","新北市新店區安豐路22巷15號","121.502936666667","24.954945","6500600","新店區"
"241020","413-TH","2017/07/15 18:49:22","新北市三重區忠孝路二段34號","121.48566","25.0707366666667","6500200","三重區"
"235066","003-UY","2017/07/15 18:49:30","新北市中和區廣福路56巷5號","121.503468333333","25.002315","6500300","中和區"
"235064","005-UY","2017/07/15 18:49:33","新北市中和區連城路107號","121.496361666667","24.999465","6500300","中和區"
"235063","006-UY","2017/07/15 18:49:26","新北市中和區錦和路85號","121.489913333333","24.9959816666667","6500300","中和區"
"235056","096-UM","2017/07/15 18:49:25","新北市中和區員山路611巷5弄9號","121.478485","25.0110366666667","6500300","中和區"
"235039","097-UM","2017/07/15 18:49:31","新北市中和區安樂路143巷9弄2號","121.514005","24.9970166666667","6500300","中和區"
"235065","098-UM","2017/07/15 18:49:34","新北市中和區莊敬路49巷29弄10號","121.501138333333","25.00649","6500300","中和區"
"235040","150-BY","2017/07/15 18:49:32","新北市中和區安平路36巷5號","121.510238333333","24.9947566666667","6500300","中和區"
"235058","151-BY","2017/07/15 18:49:24","新北市中和區連城路526-1號","121.475928333333","24.9916233333333","6500300","中和區"
"235055","183-VK","2017/07/15 18:49:22","新北市中和區民生街14號","121.47033","25.0055366666667","6500300","中和區"
"235038","185-VK","2017/07/15 18:49:17","新北市中和區立人街14巷18號","121.519503333333","24.99524","6500300","中和區"
"235049","186-VK","2017/07/15 18:49:15","新北市中和區明義街11巷14號","121.503636666667","24.994595","6500300","中和區"
"235067","255-BX","2017/07/15 18:49:17","新北市中和區中山路二段449巷1弄9-2號","121.48389","25.0040033333333","6500300","中和區"
"235044","293-VK","2017/07/15 18:49:26","新北市中和區復興路280巷18弄6號","121.502248333333","24.9915783333333","6500300","中和區"
"235072","301-VK","2017/07/15 18:49:22","新北市中和區中山路二段106號","121.503203333333","25.0041383333333","6500300","中和區"
"235043","352-BY","2017/07/15 18:49:29","新北市中和區成功路139號","121.52602","24.99048","6500300","中和區"
"235051","376-QA","2017/07/15 18:49:34","新北市中和區華新街143巷106弄10號","121.505913333333","24.9791166666667","6500300","中和區"
"235068","377-QA","2017/07/15 18:49:33","新北市中和區中正路167巷46號","121.498533333333","24.9926316666667","6500300","中和區"
"235061","378-QA","2017/07/15 18:49:36","新北市中和區民享街32巷2號","121.473946666667","25.0034","6500300","中和區"
"235050","4979-A6","2017/07/15 18:49:32","新北市中和區忠孝街58巷30弄1號","121.512425","24.9825116666667","6500300","中和區"
"235069","4980-A6","2017/07/15 18:49:16","新北市中和區連城路65巷6號","121.49783","25.0009483333333","6500300","中和區"
"235042","551-UM","2017/07/15 18:49:23","新北市中和區秀朗路三段100巷3號","121.525471666667","24.9932666666667","6500300","中和區"
"235045","565-BX","2017/07/15 18:49:34","新北市中和區南山路389號","121.506428333333","24.9902983333333","6500300","中和區"
"235054","640-BX","2017/07/15 18:49:32","新北市中和區民享街56號","121.473935","25.0024033333333","6500300","中和區"
"235060","647-TV","2017/07/15 18:49:19","新北市中和區中山路三段90號","121.477726666667","25.0055766666667","6500300","中和區"
"235047","732-UM","2017/07/15 18:49:31","新北市中和區興南路二段34巷69號","121.505006666667","24.9853383333333","6500300","中和區"
"235046","733-UM","2017/07/15 18:49:30","新北市中和區仁愛街36巷46號","121.511405","24.9861783333333","6500300","中和區"
"235071","783-BX","2017/07/15 18:49:27","新北市中和區員山路36巷16-3號","121.48518","24.991205","6500300","中和區"
"235062","800-TS","2017/07/15 18:49:27","新北市中和區中山路二段328-3號","121.495063333333","25.0022916666667","6500300","中和區"
"235057","801-TS","2017/07/15 18:49:30","新北市中和區民安街24號","121.480383333333","25.0007916666667","6500300","中和區"
"235041","802-TS","2017/07/15 18:49:29","新北市中和區宜安路118巷42號","121.511163333333","24.999115","6500300","中和區"
"235052","805-TS","2017/07/15 18:49:23","新北市中和區興南路二段399巷98弄48號","121.498823333333","24.9767633333333","6500300","中和區"
"235048","896-TW","2017/07/15 18:49:28","新北市中和區南山路304號","121.50786","24.9870066666667","6500300","中和區"
"235053","900-TW","2017/07/15 18:49:17","新北市中和區華福街17號","121.465721666667","24.99684","6500300","中和區"
"235070","911-UM","2017/07/15 18:49:31","新北市中和區景新街129號","121.505798333333","24.9973033333333","6500300","中和區"
"235037","AAC-213","2017/07/15 18:49:29","新北市中和區景平路111巷30號","121.515536666667","24.9904666666667","6500300","中和區"
"235059","AAC-215","2017/07/15 18:49:21","新北市中和區圓通路393巷16號","121.489781666667","24.9886383333333","6500300","中和區"
"220068","013-TV","2017/07/15 18:49:32","新北市板橋區民生路二段56-1號","121.47237","25.0169666666667","6500100","板橋區"
"220065","072-UY","2017/07/15 18:49:19","新北市板橋區民生路二段22號","121.472731666667","25.0165766666667","6500100","板橋區"
"220086","073-UY","2017/07/15 18:49:32","新北市板橋區大智街71巷11號","121.452973333333","25.01436","6500100","板橋區"
"220106","075-UY","2017/07/15 18:49:35","新北市板橋區民生路二段120號","121.470443333333","25.019485","6500100","板橋區"
"247006","341-TH","2017/07/15 18:49:34","新北市五股區更洲路47-1號","121.456685","25.079365","6501400","蘆洲區"
"247002","336-TH","2017/07/15 18:49:36","新北市五股區中興路三段163號","121.449203333333","25.08082","6501400","蘆洲區"
"247014","057-VK","2017/07/15 18:33:32","新北市五股區中興路三段163號","121.449253333333","25.0807633333333","6501400","蘆洲區"
"226004","312-R5","2017/07/15 18:49:24","新北市平溪區平溪里三坑路2號","121.73777","25.028145","6502400","平溪區"
"228001","212-TW","2017/07/15 18:49:14","新北市貢寮區仁理村保健街71號","121.923678333333","25.0516583333333","6502600","貢寮區"
"228002","585-TW","2017/07/15 18:49:16","新北市貢寮區福隆里東興街6-11號","121.950741666667","25.0210666666667","6502600","貢寮區"
"228003","828-UM","2017/07/15 18:49:28","新北市貢寮區和美里龍洞街63-2號","121.916653333333","25.1179133333333","6502600","貢寮區"
"224006","676-BX","2017/07/15 18:49:23","新北市瑞芳區中正路38號","121.80702","25.1072983333333","6501200","瑞芳區"
"224011","420-VK","2017/07/15 18:49:33","新北市瑞芳區崙頂路3-1號","121.84701","25.1047083333333","6501200","瑞芳區"
"224009","285-BY","2017/07/15 18:49:16","新北市瑞芳區祈堂路2號","121.859898333333","25.111785","6501200","瑞芳區"
"224008","275-VK","2017/07/15 18:49:37","新北市瑞芳區逢甲路343-2號","121.800093333333","25.1123816666667","6501200","瑞芳區"
"224007","273-VK","2017/07/15 18:49:31","新北市瑞芳區大埔路82號","121.76225","25.101225","6501200","瑞芳區"
"224005","271-BY","2017/07/15 18:48:47","新北市瑞芳區建基路一段40號","121.819341666667","25.121205","6501200","瑞芳區"
"227010","642-TC","2017/07/15 18:49:34","新北市雙溪區牡丹里聖南26號","121.856583333333","25.0530733333333","6502500","雙溪區"
"227002","400-TW","2017/07/15 18:49:36","新北市雙溪區共和里中山路47號","121.86676","25.0320183333333","6502500","雙溪區"
"253006","032-BX","2017/07/15 18:49:31","新北市石門區下員坑33-6號","121.517305","25.2830133333333","6502200","石門區"
"253005","741-TV","2017/07/15 18:49:23","新北市石門區中山路28-1號","121.565885","25.289965","6502200","石門區"
"208003","665-BX","2017/07/15 18:49:28","新北市金山區中山路346號","121.633423333333","25.225325","6502700","金山區"
"208001","761-BX","2017/07/15 18:49:33","新北市金山區文化三路66巷2弄1號","121.63434","25.22569","6502700","金山區"
"251009","008-UM","2017/07/15 18:49:32","新北市淡水區重建街122號","121.440333333333","25.1730733333333","6501000","淡水區"
"251002","012-UM","2017/07/15 18:49:17","新北市淡水區學府路88號","121.448985","25.1707116666667","6501000","淡水區"
"251014","180-VK","2017/07/15 18:49:23","新北市淡水區崙頂17號","121.486368333333","25.223095","6501000","淡水區"
"251008","181-VK","2017/07/15 18:49:20","新北市淡水區淡金路二段38號","121.451581666667","25.1824433333333","6501000","淡水區"
"251010","413-VK","2017/07/15 18:49:21","新北市淡水區沙崙路15號","121.42122","25.1813","6501000","淡水區"
"251012","441-VK","2017/07/15 18:49:19","新北市淡水區北新路2號","121.444226666667","25.177725","6501000","淡水區"
"251016","442-VK","2017/07/15 18:49:34","新北市淡水區下圭柔山71-3號","121.447091666667","25.2061683333333","6501000","淡水區"
"251001","559-UM","2017/07/15 18:49:31","新北市淡水區自強路108-17號","121.46169","25.1310033333333","6501000","淡水區"
"251006","561-UM","2017/07/15 18:49:26","新北市淡水區崁頂69號","121.438723333333","25.2022","6501000","淡水區"
"251011","650-BX","2017/07/15 18:49:34","新北市淡水區學府路1號","121.447416666667","25.1678616666667","6501000","淡水區"
"251003","673-BX","2017/07/15 18:49:25","新北市淡水區中山北路一段149巷27號","121.442956666667","25.1778983333333","6501000","淡水區"
"207003","550-UM","2017/07/15 18:49:34","新北市萬里區大鵬里頂社1-2號","121.65718","25.2097133333333","6502800","萬里區"
"207004","225-TW","2017/07/15 18:49:35","新北市萬里區萬里里獅頭路23號","121.693206666667","25.1782366666667","6502800","萬里區"
"252002","178-VK","2017/07/15 18:49:34","新北市三芝區中正路一段77號","121.50419","25.257025","6502100","三芝區"
"252003","249-BX","2017/07/15 18:49:30","新北市三芝區後厝里大片頭76號","121.459395","25.2461266666667","6502100","三芝區"
"252001","292-VK","2017/07/15 18:49:13","新北市三芝區中正路三段9號","121.502956666667","25.2539633333333","6502100","三芝區"
"208002","170-UY","2017/07/15 18:47:05","新北市金山區信義路60號","121.6358","25.2192233333333","6502700","金山區"
"237007","153-BY","2017/07/15 18:49:29","新北市三峽區柑樹路2巷3號","121.362583333333","24.9056483333333","6500900","三峽區"
"237013","252-BX","2017/07/15 18:49:18","新北市三峽區光明路69巷25號","121.376753333333","24.9292033333333","6500900","三峽區"
"237012","275-BY","2017/07/15 18:49:32","新北市三峽區三樹路340號","121.383943333333","24.9433083333333","6500900","三峽區"
"237008","302-VK","2017/07/15 18:49:19","新北市三峽區白雞40-6號","121.376453333333","24.9117333333333","6500900","三峽區"
"237014","433-BY","2017/07/15 18:49:20","新北市三峽區隆恩街238號","121.35774","24.94113","6500900","三峽區"
"237006","5529-G3","2017/07/15 18:49:28","新北市三峽區溪東路211巷18弄7號","121.406495","24.9340833333333","6500900","三峽區"
"237011","572-TV","2017/07/15 18:49:18","新北市三峽區介壽路三段138號","121.400803333333","24.943005","6500900","三峽區"
"237016","649-BX","2017/07/15 18:49:24","新北市三峽區建安25-3號","121.445061666667","24.926895","6500900","三峽區"
"237010","706-TV","2017/07/15 18:49:28","新北市三峽區國光街103號","121.373181666667","24.9389516666667","6500900","三峽區"
"237005","AKY-6261","2017/07/15 18:49:22","新北市三峽區中山路333號","121.360598333333","24.9374216666667","6500900","三峽區"
"236073","105-UM","2017/07/15 18:49:25","新北市土城區延和路21巷19號","121.463923333333","24.988835","6501300","土城區"
"236043","107-UM","2017/07/15 18:49:34","新北市土城區裕民路92巷25弄1號","121.449655","24.985935","6501300","土城區"
"236079","166-UM","2017/07/15 18:49:29","新北市土城區中央路四段185巷59號","121.416895","24.9560716666667","6501300","土城區"
"236031","253-BX","2017/07/15 18:49:15","新北市土城區忠義路26巷10號","121.439875","24.96989","6501300","土城區"
"236027","269-VK","2017/07/15 18:49:32","新北市土城區興城路48號","121.441411666667","24.9726183333333","6501300","土城區"
"236015","270-VK","2017/07/15 18:49:32","新北市土城區金城路二段354巷10號","121.460946666667","24.9844666666667","6501300","土城區"
"236038","271-VK","2017/07/15 18:49:29","新北市土城區明德路一段235巷38號","121.46313","24.9774016666667","6501300","土城區"
"236023","401-BY","2017/07/15 18:49:19","新北市土城區延安街76號","121.468093333333","24.984095","6501300","土城區"
"236059","912-UM","2017/07/15 18:49:32","新北市土城區中央路三段141-7號","121.433181666667","24.9653616666667","6501300","土城區"
"236049","913-UM","2017/07/15 18:49:31","新北市板橋區信義路170巷10號","121.459918333333","24.990625","6501300","土城區"
"236063","915-UM","2017/07/15 18:49:14","新北市土城區金城路三段149巷1號","121.468358333333","24.9885666666667","6501300","土城區"
"236055","AAC-216","2017/07/15 18:49:34","新北市土城區裕民路157號","121.45227","24.9858333333333","6501300","土城區"
"242029","986-R7","2017/07/15 18:26:13","新北市新莊區新泰路357巷3弄57號","121.442035","25.0391683333333","6500500","新莊區"
"242034","133-UY","2017/07/15 18:47:35","新北市樹林區中山路三段214號","121.37986","24.9678883333333","6500500","新莊區"
"238023","601-UM","2017/07/15 18:49:17","新北市樹林區福興街3號","121.40434","25.0170983333333","6500700","樹林區"
"238019","599-UM","2017/07/15 18:49:24","新北市樹林區中山路二段81號","121.41181","24.9819216666667","6500700","樹林區"
"238018","571-TV","2017/07/15 18:49:30","新北市樹林區鎮前街168號","121.4244","24.9899016666667","6500700","樹林區"
"238024","5061-A6","2017/07/15 18:49:34","新北市樹林區太平路247巷22號","121.41962","24.9749366666667","6500700","樹林區"
"238022","312-TH","2017/07/15 18:39:26","新北市樹林區育德街78-1號","121.387786666667","24.968135","6500700","樹林區"
"238025","303-VK","2017/07/15 18:49:28","新北市樹林區中山路三段22號","121.39555","24.972875","6500700","樹林區"
"238014","282-BY","2017/07/15 18:49:28","新北市樹林區大安路111巷25號","121.423121666667","24.9975516666667","6500700","樹林區"
"238020","268-VK","2017/07/15 18:49:23","新北市樹林區俊英街280號","121.42377","25.0132716666667","6500700","樹林區"
"238026","172-UY","2017/07/15 18:49:28","新北市樹林區信和街140號","121.386641666667","24.974705","6500700","樹林區"
"238016","169-UY","2017/07/15 18:49:14","新北市樹林區文化街28號","121.419306666667","24.987775","6500700","樹林區"
"239007","AAC-297","2017/07/15 18:49:23","新北市鶯歌區中正一路389號","121.358765","24.957235","6500800","鶯歌區"
"239006","891-R6","2017/07/15 18:49:17","新北市鶯歌區鶯桃路296巷84弄37號","121.337753333333","24.9611616666667","6500800","鶯歌區"
"239008","527-UM","2017/07/15 18:49:28","新北市鶯歌區晨曦街12號","121.337298333333","24.9763566666667","6500800","鶯歌區"
"239005","526-UM","2017/07/15 18:49:20","新北市鶯歌區鳳吉一街75號","121.326806666667","24.9741566666667","6500800","鶯歌區"
"239001","417-VK","2017/07/15 18:49:25","新北市鶯歌區鶯桃路36號","121.341773333333","24.9524583333333","6500800","鶯歌區"
"239003","360-BY","2017/07/15 18:49:33","新北市鶯歌區永和街43號","121.332566666667","24.9673766666667","6500800","鶯歌區"
"239002","359-BY","2017/07/15 18:49:34","新北市鶯歌區中正一路213號","121.353891666667","24.9569833333333","6500800","鶯歌區"
"239006","292-BY","2017/07/15 11:05:50","新北市鶯歌區二甲路13號","121.344028333333","24.9353966666667","6500800","鶯歌區"
"239004","193-VK","2017/07/15 18:49:33","新北市鶯歌區中正三路282巷12弄9號","121.32815","24.9372183333333","6500800","鶯歌區"
"221008","489-VK","2017/07/15 18:49:25","新北市汐止區康寧街901號","121.651376666667","25.0749933333333","6501100","汐止區"
"221036","130-UY","2017/07/15 18:49:15","新北市汐止區水碓街36號","121.665145","25.0687533333333","6501100","汐止區"
"221015","131-UY","2017/07/15 18:49:18","新北市汐止區鄉長路一段55巷19號","121.664903333333","25.0762566666667","6501100","汐止區"
"221010","269-BY","2017/07/15 18:49:29","新北市汐止區汐萬路二段241號","121.64662","25.088235","6501100","汐止區"
"221031","277-VK","2017/07/15 18:49:29","新北市汐止區福德一路272巷9號","121.631938333333","25.064195","6501100","汐止區"
"221012","278-VK","2017/07/15 18:49:22","新北市汐止區康寧街901號","121.650838333333","25.0752733333333","6501100","汐止區"
"221023","279-VK","2017/07/15 02:12:50","新北市汐止區康寧街901號","121.651608333333","25.0748816666667","6501100","汐止區"
"221032","280-BY","2017/07/15 18:49:32","新北市汐止區橫科路367巷24弄5號","121.623436666667","25.0482016666667","6501100","汐止區"
"221027","281-BY","2017/07/15 18:48:13","新北市汐止區康寧街901號","121.65088","25.0752716666667","6501100","汐止區"
"221038","297-VK","2017/07/15 18:49:20","新北市汐止區汐萬路一段312號","121.650641666667","25.0753166666667","6501100","汐止區"
"221029","298-VK","2017/07/15 18:49:15","新北市汐止區樟樹一路93號","121.642233333333","25.0633333333333","6501100","汐止區"
"221021","299-VK","2017/07/15 18:49:34","新北市汐止區汐萬路一段256巷1號","121.651941666667","25.0748766666667","6501100","汐止區"
"221035","622-UM","2017/07/15 18:49:18","新北市汐止區汐萬路一段256巷3號","121.653291666667","25.07462","6501100","汐止區"
"221025","623-UM","2017/07/15 18:49:21","新北市汐止區秀峰路135號","121.660268333333","25.0624583333333","6501100","汐止區"
"221002","707-TV","2017/07/15 18:49:26","新北市汐止區大同路一段154-1號","121.632103333333","25.056055","6501100","汐止區"
"221018","753-BX","2017/07/15 18:49:34","新北市汐止區茄苳路85號","121.66692","25.07069","6501100","汐止區"
"220079","145-BY","2017/07/15 18:49:18","新北市板橋區民權路202巷2弄2號","121.459381666667","25.0141083333333","6500100","板橋區"
"220082","610-BX","2017/07/15 18:49:26","新北市板橋區篤行路三段玉平巷45號","121.428648333333","24.9868483333333","6500100","板橋區"
"220103","257-TC","2017/07/15 18:49:28","新北市板橋區民生路二段89-6號","121.470723333333","25.01912","6500100","板橋區"
"220091","267-BY","2017/07/15 18:49:26","新北市板橋區民生路二段161巷1號","121.470071666667","25.0200683333333","6500100","板橋區"
"220056","276-BY","2017/07/15 18:49:36","新北市板橋區四川路二段23-2號","121.454585","24.99555","6500100","板橋區"
"220072","277-BY","2017/07/15 18:49:29","新北市板橋區金門街25巷2號","121.433665","24.9943983333333","6500100","板橋區"
"220064","280-UM","2017/07/15 18:49:26","新北市板橋區民生路二段17號","121.472486666667","25.0163033333333","6500100","板橋區"
"220071","283-VK","2017/07/15 18:49:26","新北市板橋區民生路二段36-1號","121.47231","25.0167166666667","6500100","板橋區"
"220094","285-UM","2017/07/15 18:49:17","新北市板橋區民生路二段161巷1號","121.470258333333","25.019935","6500100","板橋區"
"220053","285-VK","2017/07/15 18:49:19","新北市板橋區民生路二段36號","121.472636666667","25.0173916666667","6500100","板橋區"
"220083","286-VK","2017/07/15 18:49:24","新北市板橋區大觀路二段22巷34號","121.444983333333","25.0037133333333","6500100","板橋區"
"220081","287-VK","2017/07/15 18:49:31","新北市板橋區南雅西路二段90號","121.452438333333","25.0111116666667","6500100","板橋區"
"220090","288-VK","2017/07/15 18:49:27","新北市板橋區民生路二段120號","121.470458333333","25.0198916666667","6500100","板橋區"
"220061","293-UM","2017/07/15 18:49:22","新北市板橋區民生路二段46號","121.472441666667","25.017685","6500100","板橋區"
"220084","296-UM","2017/07/15 18:49:22","新北市板橋區大觀路二段148巷48號","121.441866666667","25.0003166666667","6500100","板橋區"
"220075","297-UM","2017/07/15 18:49:23","新北市板橋區大觀路一段28巷106-1號","121.450763333333","25.010945","6500100","板橋區"
"220062","303-R5","2017/07/15 18:49:20","新北市板橋區中山路二段23號","121.472293333333","25.0153516666667","6500100","板橋區"
"220092","307-R5","2017/07/15 18:49:35","新北市板橋區民生路二段120號","121.470693333333","25.0197883333333","6500100","板橋區"
"220098","317-R6","2017/07/15 18:49:19","新北市板橋區民生路二段161巷9號","121.470268333333","25.0196683333333","6500100","板橋區"
"220080","461-BY","2017/07/15 18:49:31","新北市板橋區大觀路二段265巷72弄5號","121.442236666667","24.9968683333333","6500100","板橋區"
"220088","491-VK","2017/07/15 18:49:23","新北市板橋區民生路二段161巷1號","121.470191666667","25.0198766666667","6500100","板橋區"
"220035","560-BX","2017/07/15 18:49:22","新北市板橋區中正路275巷59號","121.453041666667","25.0178316666667","6500100","板橋區"
"220063","609-BX","2017/07/15 18:49:14","新北市板橋區民生路二段36-1號","121.472435","25.0168283333333","6500100","板橋區"
"220057","686-BX","2017/07/15 18:49:26","新北市板橋區民生路二段15號","121.472631666667","25.0161133333333","6500100","板橋區"
"220077","687-BX","2017/07/15 18:49:33","新北市板橋區大觀路二段174巷181號","121.442138333333","25.003855","6500100","板橋區"
"220093","689-BX","2017/07/15 18:49:19","新北市板橋區民生路二段161巷5號","121.470196666667","25.0197333333333","6500100","板橋區"
"220054","741-BX","2017/07/15 18:49:19","新北市板橋區中山路二段25號","121.472443333333","25.015275","6500100","板橋區"
"220055","827-TW","2017/07/15 18:49:16","新北市板橋區民生路二段15-1號","121.472668333333","25.0164366666667","6500100","板橋區"
"220067","829-TW","2017/07/15 18:49:19","新北市板橋區民生路二段36-1號","121.472383333333","25.0167916666667","6500100","板橋區"
"220096","831-TW","2017/07/15 16:05:30","新北市板橋區民生路二段161巷5號","121.470208333333","25.019705","6500100","板橋區"
"220074","895-R6","2017/07/15 18:49:15","新北市板橋區南門街52號","121.456873333333","25.008095","6500100","板橋區"
"220073","985-R7","2017/07/15 18:49:28","新北市板橋區館前西路102號","121.457176666667","25.00743","6500100","板橋區"
"220097","AAC-210","2017/07/15 18:49:19","新北市板橋區民生路二段120號","121.470613333333","25.01998","6500100","板橋區"
"220070","AAC-253","2017/07/15 18:49:32","新北市板橋區中山路二段37號","121.472988333333","25.015645","6500100","板橋區"
