"lineid","car","time","location","longitude","latitude","cityid","cityname"
"234046","148-BY","2017/07/15 19:39:29","新北市永和區秀朗路二段190號","121.526445","25.0006533333333","6500400","永和區"
"234013","149-BY","2017/07/15 19:39:21","新北市永和區中山路一段184巷10弄16號","121.508985","25.0096016666667","6500400","永和區"
"234007","207-UY","2017/07/15 19:39:20","新北市永和區中和路415號","121.50918","25.0004766666667","6500400","永和區"
"234081","298-R6","2017/07/15 19:39:24","新北市永和區國中路104巷12弄1號","121.524768333333","25.00713","6500400","永和區"
"234038","336-UY","2017/07/15 19:39:20","新北市永和區民樂街39巷18弄64號","121.528356666667","24.9987616666667","6500400","永和區"
"234064","337-UY","2017/07/15 19:39:17","新北市永和區秀朗路二段24巷55弄8號","121.519796666667","25.0014366666667","6500400","永和區"
"234086","338-UY","2017/07/15 19:39:23","新北市永和區永亨路165巷1-4號","121.526153333333","25.0041933333333","6500400","永和區"
"234070","552-UM","2017/07/15 19:39:31","新北市永和區竹林路38號","121.517508333333","25.0144416666667","6500400","永和區"
"234054","553-UM","2017/07/15 19:39:35","新北市永和區竹林路37號","121.51783","25.0142466666667","6500400","永和區"
"234017","745-BX","2017/07/15 19:39:17","新北市永和區永和路二段405巷3號","121.515265","25.017215","6500400","永和區"
"234030","746-BX","2017/07/15 19:39:24","新北市永和區民生路65號","121.522903333333","24.99722","6500400","永和區"
"234061","AAD-866","2017/07/15 19:39:28","新北市永和區永貞路218-1號","121.515256666667","25.0040566666667","6500400","永和區"
"234042","862-TW","2017/07/15 19:39:26","新北市永和區永貞路304號","121.512015","25.0047783333333","6500400","永和區"
"234050","863-TW","2017/07/15 19:39:25","新北市永和區保安路44號","121.510255","25.0169683333333","6500400","永和區"
"234026","9371-KE","2017/07/15 19:39:33","新北市永和區雙和街14號","121.5095","25.002035","6500400","永和區"
"234011","9373-KE","2017/07/15 19:39:34","新北市永和區保福路二段9巷9號","121.51056","25.0108533333333","6500400","永和區"
"249004","303-UY","2017/07/15 19:39:30","新北市八里區博物館路10-1號","121.415216666667","25.16398","6502300","八里區"
"249002","305-UY","2017/07/15 19:39:24","新北市八里區頂寮二街33-1號","121.450288333333","25.12523","6502300","八里區"
"249003","593-UM","2017/07/15 19:39:31","新北市八里區華峰三街21號","121.399518333333","25.1460383333333","6502300","八里區"
"248016","026-BX","2017/07/15 19:39:17","新北市五股區成泰路三段476號","121.45177","25.1014183333333","6501500","五股區"
"248008","095-VK","2017/07/15 19:39:30","新北市五股區四維路118巷13號","121.469275","25.07422","6501500","五股區"
"248018","225-UY","2017/07/15 19:39:19","新北市五股區中直路19-5號","121.423048333333","25.111785","6501500","五股區"
"248012","247-BX","2017/07/15 19:39:28","新北市五股區成泰路二段87號","121.438163333333","25.083905","6501500","五股區"
"248014","261-SL","2017/07/15 19:39:22","新北市五股區工商路164-1號","121.433448333333","25.088005","6501500","五股區"
"248010","272-BY","2017/07/15 19:39:22","新北市五股區自強路111號","121.432311666667","25.0705516666667","6501500","五股區"
"248004","677-BX","2017/07/15 19:39:28","新北市五股區工商路151號","121.43497","25.0865483333333","6501500","五股區"
"248002","678-BX","2017/07/15 19:39:25","新北市五股區成泰路三段577巷45號","121.450765","25.103175","6501500","五股區"
"234077","969-R7","2017/07/15 19:39:34","新北市永和區民權路29巷19號","121.521105","24.9980416666667","6500400","永和區"
"234074","AAC-211","2017/07/15 19:39:33","新北市永和區竹林路225巷42號","121.522108333333","25.008655","6500400","永和區"
"234067","AAC-212","2017/07/15 19:39:20","新北市永和區永貞路349號","121.509313333333","25.007415","6500400","永和區"
"234003","AAC-295","2017/07/15 19:39:23","新北市永和區自由街58號","121.513785","25.0057933333333","6500400","永和區"
"244019","403-UM","2017/07/15 19:39:23","新北市林口區麗園一街15號","121.377056666667","25.0692383333333","6501700","林口區"
"244023","483-VK","2017/07/15 19:39:28","新北市林口區文化北路二段232號","121.372845","25.0855133333333","6501700","林口區"
"243013","AAD-798","2017/07/15 19:39:23","新北市泰山區應化街7號","121.423855","25.0437183333333","6501600","泰山區"
"243009","297-R6","2017/07/15 19:39:27","新北市泰山區美寧街60號","121.430931666667","25.064625","6501600","泰山區"
"243015","380-SR","2017/07/15 19:39:32","新北市泰山區民權街98號","121.428473333333","25.0500083333333","6501600","泰山區"
"243014","421-VK","2017/07/15 19:39:27","新北市泰山區泰林路二段33-8號","121.435201666667","25.0565116666667","6501600","泰山區"
"243010","548-UM","2017/07/15 19:39:29","新北市泰山區民生路33號","121.430715","25.0522416666667","6501600","泰山區"
"243011","549-UM","2017/07/15 19:39:29","新北市泰山區新北大道六段100號","121.427555","25.0378233333333","6501600","泰山區"
"243012","646-TV","2017/07/15 19:39:19","新北市泰山區全興路243號","121.435798333333","25.05324","6501600","泰山區"
"243016","680-BX","2017/07/15 19:39:22","新北市泰山區中山路三段114號","121.417861666667","25.0321","6501600","泰山區"
"222003","436-BY","2017/07/15 19:39:19","新北市深坑區深南路51-1號","121.621045","25.010035","6501800","深坑區"
"222001","628-TS","2017/07/15 19:39:24","新北市深坑區北深路二段204號","121.612823333333","25.0014633333333","6501800","深坑區"
"222002","659-BX","2017/07/15 19:39:27","新北市深坑區北深路一段177號","121.632503333333","25.01089","6501800","深坑區"
"231041","002-UM","2017/07/15 19:39:33","新北市新店區中正路485號","121.533858333333","24.981785","6500600","新店區"
"231059","046-UY","2017/07/15 19:39:26","新北市新店區安興路141號","121.516748333333","24.9795133333333","6500600","新店區"
"231061","047-UY","2017/07/15 19:39:28","新北市新店區安民街135號","121.516465","24.96926","6500600","新店區"
"231060","106-UY","2017/07/15 19:39:22","新北市新店區安康路二段139號","121.511768333333","24.9603666666667","6500600","新店區"
"231051","107-UY","2017/07/15 19:39:20","新北市新店區中央四街78號","121.526425","24.9757266666667","6500600","新店區"
"231048","108-UY","2017/07/15 19:39:35","新北市新店區五峰路63巷32號","121.54667","24.969545","6500600","新店區"
"231052","187-VK","2017/07/15 19:39:25","新北市新店區新烏路二段411號","121.551578333333","24.90935","6500600","新店區"
"231057","256-BX","2017/07/15 19:39:16","新北市新店區橘園一路11號","121.547968333333","24.9340233333333","6500600","新店區"
"231063","268-BY","2017/07/15 19:39:21","新北市新店區達觀路27-1號","121.504001666667","24.9383983333333","6500600","新店區"
"231046","278-BY","2017/07/15 19:39:16","新北市新店區中正路329巷1弄2號","121.535608333333","24.9749033333333","6500600","新店區"
"231050","AAD-862","2017/07/15 19:39:30","新北市新店區郵政路41號","121.55599","24.95152","6500600","新店區"
"231058","3712-VJ","2017/07/15 19:39:25","新北市新店區寶橋路3號","121.54347","24.9737283333333","6500600","新店區"
"231067","4772-VM","2017/07/15 19:39:20","新北市新店區精忠路10-1號","121.532661666667","24.9590583333333","6500600","新店區"
"231065","512-UM","2017/07/15 19:39:24","新北市新店區安祥路109巷83號","121.477686666667","24.9602316666667","6500600","新店區"
"231054","513-UM","2017/07/15 19:39:22","新北市新店區文中路51號","121.539881666667","24.956705","6500600","新店區"
"231064","515-UM","2017/07/15 19:39:27","新北市新店區安和路一段52巷2號","121.517588333333","24.9661833333333","6500600","新店區"
"231042","616-UM","2017/07/15 19:39:17","新北市新店區中興路一段203號","121.543558333333","24.9655983333333","6500600","新店區"
"231045","617-UM","2017/07/15 19:39:34","新北市新店區北宜路二段208號","121.559368333333","24.9543316666667","6500600","新店區"
"231040","619-UM","2017/07/15 19:39:24","新北市新店區北新路一段96巷23號","121.542813333333","24.9687666666667","6500600","新店區"
"231049","719-UM","2017/07/15 19:39:31","新北市新店區北新路三段47號","121.541865","24.980435","6500600","新店區"
"231062","720-UM","2017/07/15 19:39:17","新北市新店區碧潭路67號","121.534271666667","24.9567033333333","6500600","新店區"
"231044","897-TW","2017/07/15 19:39:32","新北市新店區北新路三段37號","121.541898333333","24.98023","6500600","新店區"
"231043","899-TW","2017/07/15 19:39:22","新北市新店區北新路二段102號","121.543053333333","24.97362","6500600","新店區"
"231066","AKT-0513","2017/07/15 19:39:17","新北市新店區安康路二段341巷29號","121.497185","24.954465","6500600","新店區"
"241011","013-R5","2017/07/15 19:39:27","新北市三重區秀江街219號","121.497315","25.0715766666667","6500200","三重區"
"241028","022-UY","2017/07/15 19:39:18","新北市三重區中正南路165號","121.49379","25.0559083333333","6500200","三重區"
"241008","059-VK","2017/07/15 19:39:22","新北市三重區永福街135巷1號","121.478618333333","25.0768366666667","6500200","三重區"
"241009","060-VK","2017/07/15 19:39:17","新北市三重區三和路四段410號","121.480908333333","25.0796366666667","6500200","三重區"
"241031","061-VK","2017/07/15 19:39:27","新北市三重區重新路四段248號","121.486048333333","25.0534216666667","6500200","三重區"
"241015","062-VK","2017/07/15 19:39:24","新北市三重區福德北路34號","121.50199","25.0651783333333","6500200","三重區"
"241017","063-VK","2017/07/15 19:39:05","新北市三重區重陽路三段5巷42號","121.491875","25.06495","6500200","三重區"
"241026","066-VK","2017/07/15 19:39:21","新北市三重區光興街37號","121.49948","25.060255","6500200","三重區"
"241016","266-UM","2017/07/15 19:39:18","新北市三重區正義北路10號","121.49749","25.0629016666667","6500200","三重區"
"241022","267-UM","2017/07/15 19:39:23","新北市三重區中正北路66號","121.486683333333","25.0646116666667","6500200","三重區"
"241032","269-UM","2017/07/15 19:39:28","新北市三重區重陽路一段60巷73號","121.484365","25.0582516666667","6500200","三重區"
"241013","270-UM","2017/07/15 19:39:36","新北市三重區仁賢街16-1號","121.495776666667","25.07497","6500200","三重區"
"241025","271-UM","2017/07/15 19:39:30","新北市三重區頂崁街201巷1號","121.477411666667","25.0669","6500200","三重區"
"241007","398-BY","2017/07/15 19:39:31","新北市三重區三和路四段135巷49號","121.487618333333","25.078815","6500200","三重區"
"241020","413-TH","2017/07/15 19:39:22","新北市三重區三和路四段20巷99號","121.488191666667","25.0731683333333","6500200","三重區"
"241019","478-VK","2017/07/15 19:39:20","新北市三重區六張街194巷1弄7號","121.48829","25.0682066666667","6500200","三重區"
"241030","480-VK","2017/07/15 19:39:22","新北市三重區新興路28巷13號","121.491686666667","25.0528633333333","6500200","三重區"
"241014","543-UM","2017/07/15 19:39:18","新北市三重區長壽街196號","121.50423","25.0690583333333","6500200","三重區"
"241023","545-UM","2017/07/15 19:39:32","新北市三重區忠孝路三段125-1號","121.479928333333","25.0636083333333","6500200","三重區"
"241001","547-UM","2017/07/15 19:39:23","新北市三重區福隆路117號","121.49282","25.07856","6500200","三重區"
"241006","AAD-863","2017/07/15 19:39:34","新北市三重區聯華街118號","121.485038333333","25.075095","6500200","三重區"
"241035","743-BX","2017/07/15 19:39:31","新北市三重區長元西街42號","121.497853333333","25.0655883333333","6500200","三重區"
"241012","941-UM","2017/07/15 19:39:25","新北市三重區河邊北街256巷25號","121.500771666667","25.0760133333333","6500200","三重區"
"241029","942-UM","2017/07/15 19:39:32","新北市三重區同安街122號","121.49335","25.05605","6500200","三重區"
"235066","003-UY","2017/07/15 19:39:30","新北市中和區景安路85號","121.506115","24.9968933333333","6500300","中和區"
"235064","005-UY","2017/07/15 19:39:33","新北市中和區南山路62號","121.502125","24.9966233333333","6500300","中和區"
"235063","006-UY","2017/07/15 19:39:16","新北市中和區連城路203巷10弄4號","121.494866666667","24.9973016666667","6500300","中和區"
"235056","096-UM","2017/07/15 19:39:25","新北市中和區民富街94號","121.476911666667","25.0085433333333","6500300","中和區"
"235039","097-UM","2017/07/15 19:39:31","新北市中和區秀峰街119巷8弄12號","121.519098333333","24.98992","6500300","中和區"
"235065","098-UM","2017/07/15 19:39:34","新北市中和區莊敬路49巷19號","121.501465","25.00579","6500300","中和區"
"235040","150-BY","2017/07/15 19:39:32","新北市中和區宜安路92巷1號","121.510815","24.9977333333333","6500300","中和區"
"235058","151-BY","2017/07/15 19:39:24","新北市中和區員山路124巷4號","121.481638333333","24.9959283333333","6500300","中和區"
"235055","183-VK","2017/07/15 19:39:21","新北市中和區民享街66號","121.47413","25.002065","6500300","中和區"
"235038","185-VK","2017/07/15 19:39:17","新北市中和區立人街39號","121.5208","24.9940966666667","6500300","中和區"
"235049","186-VK","2017/07/15 19:39:15","新北市中和區安平路13號","121.509165","24.9941083333333","6500300","中和區"
"235067","255-BX","2017/07/15 19:39:17","新北市中和區新生街220巷15弄2號","121.48291","24.9979216666667","6500300","中和區"
"235044","293-VK","2017/07/15 19:39:26","新北市中和區景安路247號","121.504023333333","24.99076","6500300","中和區"
"235072","301-VK","2017/07/15 19:39:22","新北市中和區錦和路91-1號","121.489978333333","24.9956716666667","6500300","中和區"
"235043","352-BY","2017/07/15 19:39:29","新北市中和區景新街320號","121.511705","24.9913083333333","6500300","中和區"
"235051","376-QA","2017/07/15 19:39:14","新北市中和區南華路19號","121.502803333333","24.99585","6500300","中和區"
"235068","377-QA","2017/07/15 19:39:13","新北市中和區景平路632-8號","121.5","24.99845","6500300","中和區"
"235061","378-QA","2017/07/15 19:24:26","新北市中和區員山路143巷21號","121.47988","24.9955866666667","6500300","中和區"
"235050","4979-A6","2017/07/15 19:39:32","新北市中和區圓通路141巷41號","121.49878","24.9946383333333","6500300","中和區"
"235069","4980-A6","2017/07/15 19:39:36","新北市中和區中正路305號","121.492646666667","24.9940916666667","6500300","中和區"
"235042","551-UM","2017/07/15 19:39:23","新北市中和區保健路19巷4弄16號","121.509005","24.9982533333333","6500300","中和區"
"235045","565-BX","2017/07/15 19:39:14","新北市中和區景德街141號","121.514633333333","24.9910116666667","6500300","中和區"
"235054","640-BX","2017/07/15 19:39:32","新北市中和區國光街112巷22弄3號","121.469811666667","25.00242","6500300","中和區"
"235060","647-TV","2017/07/15 19:39:19","新北市中和區新生街114巷2號","121.48337","25.0024216666667","6500300","中和區"
"235047","732-UM","2017/07/15 19:39:31","新北市中和區和平街196號","121.504746666667","24.992635","6500300","中和區"
"235046","733-UM","2017/07/15 19:39:31","新北市中和區忠孝街84號","121.511581666667","24.9842033333333","6500300","中和區"
"235071","783-BX","2017/07/15 19:39:27","新北市中和區中正路839巷29號","121.483556666667","25.0023783333333","6500300","中和區"
"235057","801-TS","2017/07/15 19:39:30","新北市中和區員山路424號","121.480243333333","25.00521","6500300","中和區"
"235041","802-TS","2017/07/15 19:39:29","新北市中和區中和路324巷6弄5號","121.5097","25.0004066666667","6500300","中和區"
"235052","805-TS","2017/07/15 19:39:23","新北市中和區華新街232巷9-4號","121.505853333333","24.9817766666667","6500300","中和區"
"235048","896-TW","2017/07/15 19:39:28","新北市中和區忠孝街1巷2-1號","121.509123333333","24.98302","6500300","中和區"
"235053","900-TW","2017/07/15 19:39:17","新北市中和區華順街32號","121.466816666667","24.9986483333333","6500300","中和區"
"235070","911-UM","2017/07/15 19:39:31","新北市中和區中和路61號","121.500541666667","25.001085","6500300","中和區"
"235037","AAC-213","2017/07/15 19:39:30","新北市中和區秀朗路三段50巷12弄6號","121.524016666667","24.9953333333333","6500300","中和區"
"235059","AAC-215","2017/07/15 19:39:21","新北市中和區錦和路203巷13號","121.491338333333","24.9905083333333","6500300","中和區"
"220068","013-TV","2017/07/15 19:39:32","新北市板橋區中山路二段531巷43號","121.482283333333","25.0230233333333","6500100","板橋區"
"220065","072-UY","2017/07/15 19:39:19","新北市板橋區國泰街38巷3弄7號","121.46817","25.0067516666667","6500100","板橋區"
"220086","073-UY","2017/07/15 19:39:32","新北市板橋區中正路236巷118號","121.459418333333","25.019665","6500100","板橋區"
"220106","075-UY","2017/07/15 19:39:27","新北市板橋區民治街26巷18號","121.477155","25.033605","6500100","板橋區"
"247006","341-TH","2017/07/15 19:39:19","新北市五股區工商路8號","121.44059","25.0824533333333","6501400","蘆洲區"
"247008","339-TH","2017/07/15 19:39:20","新北市蘆洲區中山一路123號","121.47602","25.0815816666667","6501400","蘆洲區"
"247002","336-TH","2017/07/15 19:39:20","新北市蘆洲區三民路593-1號","121.461003333333","25.0935516666667","6501400","蘆洲區"
"247014","057-VK","2017/07/15 19:39:29","新北市蘆洲區中正路143號","121.469263333333","25.0846883333333","6501400","蘆洲區"
"226004","312-R5","2017/07/15 19:39:24","新北市平溪區靜安路三段369號","121.780756666667","25.046195","6502400","平溪區"
"228001","212-TW","2017/07/15 19:39:34","新北市貢寮區真理里延平街49號","121.924653333333","25.0556216666667","6502600","貢寮區"
"228003","828-UM","2017/07/15 19:39:28","新北市貢寮區真理里美艷山街29-1號","121.923303333333","25.0689383333333","6502600","貢寮區"
"224010","AGQ-8101","2017/07/15 19:29:45","新北市瑞芳區基山街93號","121.844726666667","25.1083833333333","6501200","瑞芳區"
"224002","639-TC","2017/07/15 19:39:15","新北市瑞芳區民享新村13號","121.816628333333","25.105805","6501200","瑞芳區"
"224011","420-VK","2017/07/15 19:39:13","新北市瑞芳區崙頂路3-1號","121.847001666667","25.1047133333333","6501200","瑞芳區"
"227010","642-TC","2017/07/15 19:39:34","新北市雙溪區新基里新基北街18號","121.867146666667","25.0386333333333","6502500","雙溪區"
"227002","400-TW","2017/07/15 19:39:20","新北市雙溪區雙溪里內挖路4-1號","121.863531666667","25.0359166666667","6502500","雙溪區"
"253006","032-BX","2017/07/15 19:39:31","新北市石門區中央路2號","121.564448333333","25.291015","6502200","石門區"
"208003","665-BX","2017/07/15 19:39:31","新北市金山區忠孝一路30號","121.6381","25.2197733333333","6502700","金山區"
"208001","761-BX","2017/07/15 19:39:28","新北市金山區六股里下六股49號","121.617771666667","25.2218933333333","6502700","金山區"
"251009","008-UM","2017/07/15 19:11:12","新北市淡水區中正路55號","121.441701666667","25.1694783333333","6501000","淡水區"
"251014","180-VK","2017/07/15 19:39:23","新北市淡水區桂竹圍4-2號","121.474446666667","25.23179","6501000","淡水區"
"251008","181-VK","2017/07/15 19:39:20","新北市淡水區中正路一段8巷1弄11號","121.428321666667","25.1764483333333","6501000","淡水區"
"251010","413-VK","2017/07/15 19:39:21","新北市淡水區新市五路二段75號","121.431416666667","25.19848","6501000","淡水區"
"251016","442-VK","2017/07/15 19:39:33","新北市淡水區下圭柔山119-51號","121.450801666667","25.208395","6501000","淡水區"
"251005","443-VK","2017/07/15 19:39:13","新北市淡水區原德路108巷2號","121.443355","25.173495","6501000","淡水區"
"251001","559-UM","2017/07/15 19:39:27","新北市淡水區民權路77號","121.459675","25.1387916666667","6501000","淡水區"
"251006","561-UM","2017/07/15 19:39:26","新北市淡水區中山北路一段207巷68號","121.441725","25.179275","6501000","淡水區"
"251007","577-R6","2017/07/15 19:39:17","新北市淡水區中正東路一段3巷21號","121.451866666667","25.16606","6501000","淡水區"
"251011","650-BX","2017/07/15 19:39:15","新北市淡水區八勢路20號","121.460456666667","25.15339","6501000","淡水區"
"207003","550-UM","2017/07/15 19:39:34","新北市萬里區大鵬里下社1號","121.647945","25.2151916666667","6502800","萬里區"
"207004","225-TW","2017/07/15 19:39:14","新北市萬里區萬里里瑪鋉路11號","121.687096666667","25.17526","6502800","萬里區"
"252002","178-VK","2017/07/15 19:39:34","新北市三芝區三民街37-1號","121.504773333333","25.25859","6502100","三芝區"
"252001","292-VK","2017/07/15 19:39:34","新北市三芝區公正街9號","121.499793333333","25.257545","6502100","三芝區"
"208002","170-UY","2017/07/15 18:47:05","新北市金山區信義路60號","121.6358","25.2192233333333","6502700","金山區"
"237004","078-UY","2017/07/15 19:39:30","新北市三峽區插角24號","121.401886666667","24.8732883333333","6500900","三峽區"
"237007","153-BY","2017/07/15 19:39:29","新北市三峽區二鬮路178號","121.359075","24.906815","6500900","三峽區"
"237009","210-TH","2017/07/15 19:39:27","新北市三峽區民權街203號","121.367676666667","24.9284433333333","6500900","三峽區"
"237013","252-BX","2017/07/15 19:39:18","新北市三峽區介壽路二段49號","121.390441666667","24.93505","6500900","三峽區"
"237012","275-BY","2017/07/15 19:39:32","新北市三峽區民生街3號","121.37459","24.9354466666667","6500900","三峽區"
"237008","302-VK","2017/07/15 19:39:21","新北市三峽區中正路一段114號","121.37387","24.9293866666667","6500900","三峽區"
"237014","433-BY","2017/07/15 19:39:20","新北市三峽區添福141號","121.375285","24.9009783333333","6500900","三峽區"
"237006","5529-G3","2017/07/15 19:39:27","新北市三峽區中正路一段336巷15弄2號","121.369981666667","24.92495","6500900","三峽區"
"237016","649-BX","2017/07/15 19:39:24","新北市三峽區橫溪路99巷60號","121.40027","24.937235","6500900","三峽區"
"237005","AKY-6261","2017/07/15 19:39:21","新北市三峽區中山路219巷17弄7號","121.363488333333","24.9361883333333","6500900","三峽區"
"236073","105-UM","2017/07/15 19:39:24","新北市土城區裕民路230號","121.453821666667","24.9838716666667","6501300","土城區"
"236043","107-UM","2017/07/15 19:39:34","新北市土城區學士路17號","121.453548333333","24.98283","6501300","土城區"
"236079","166-UM","2017/07/15 19:39:29","新北市土城區中州路27巷14-2號","121.413326666667","24.9574033333333","6501300","土城區"
"236031","253-BX","2017/07/15 19:39:35","新北市土城區福祥街48號","121.441403333333","24.9811083333333","6501300","土城區"
"236027","269-VK","2017/07/15 19:39:23","新北市土城區中央路二段61巷20號","121.443081666667","24.9787983333333","6501300","土城區"
"236038","271-VK","2017/07/15 19:39:29","新北市土城區清水路94號","121.457385","24.9814366666667","6501300","土城區"
"236023","401-BY","2017/07/15 19:39:18","新北市土城區金城路三段200-5號","121.468818333333","24.9876266666667","6501300","土城區"
"236049","913-UM","2017/07/15 19:39:36","新北市土城區明德路一段40號","121.46526","24.98449","6501300","土城區"
"236063","915-UM","2017/07/15 19:39:34","新北市土城區延平街37號","121.468055","24.9919333333333","6501300","土城區"
"236055","AAC-216","2017/07/15 19:39:14","新北市土城區學府路一段276號","121.45024","24.98319","6501300","土城區"
"242029","986-R7","2017/07/15 19:39:35","新北市新莊區新泰路255巷83號","121.442481666667","25.0393566666667","6500500","新莊區"
"242048","751-BX","2017/07/15 19:39:20","新北市新莊區後港一路30號","121.425391666667","25.025925","6500500","新莊區"
"242042","497-BY","2017/07/15 19:39:30","新北市新莊區建國一路7號","121.433725","25.0318166666667","6500500","新莊區"
"242004","442-UM","2017/07/15 19:39:21","新北市新莊區化成路29巷20號","121.464278333333","25.0438966666667","6500500","新莊區"
"242031","415-TV","2017/07/15 19:39:20","新北市新莊區新泰路213巷44號","121.445473333333","25.038655","6500500","新莊區"
"242034","133-UY","2017/07/15 19:39:15","新北市新莊區仁愛街17號","121.444168333333","25.0355833333333","6500500","新莊區"
"242007","173-VK","2017/07/15 19:39:26","新北市新莊區福壽街425號","121.457705","25.05828","6500500","新莊區"
"242013","346-TH","2017/07/15 19:39:30","新北市新莊區中誠街125號","121.449286666667","25.0475383333333","6500500","新莊區"
"238015","755-BX","2017/07/15 19:39:32","新北市樹林區日新街69號","121.422095","24.990985","6500700","樹林區"
"238023","601-UM","2017/07/15 19:39:27","新北市樹林區三福街44號","121.407828333333","25.0165133333333","6500700","樹林區"
"238018","571-TV","2017/07/15 19:39:30","新北市樹林區中山路三段210-2號","121.381203333333","24.965765","6500700","樹林區"
"238024","5061-A6","2017/07/15 19:39:28","新北市樹林區中山路三段92號","121.393201666667","24.972235","6500700","樹林區"
"238022","312-TH","2017/07/15 18:39:26","新北市樹林區育德街78-1號","121.387786666667","24.968135","6500700","樹林區"
"238021","311-TH","2017/07/15 18:10:38","新北市樹林區柑園街一段115號","121.40105","24.9600633333333","6500700","樹林區"
"238025","303-VK","2017/07/15 19:39:28","新北市樹林區中山路一段326號","121.419886666667","24.9862183333333","6500700","樹林區"
"238014","282-BY","2017/07/15 19:34:28","新北市樹林區保安二街64巷29號","121.424466666667","24.9967033333333","6500700","樹林區"
"238020","268-VK","2017/07/15 19:39:30","新北市樹林區俊英街107-1號","121.424478333333","25.0096383333333","6500700","樹林區"
"238026","172-UY","2017/07/15 19:39:28","新北市樹林區佳園路二段15巷9弄17號","121.39418","24.9634516666667","6500700","樹林區"
"238016","169-UY","2017/07/15 19:39:34","新北市樹林區東和街42巷5號","121.400243333333","24.98359","6500700","樹林區"
"239007","AAC-297","2017/07/15 19:39:23","新北市鶯歌區大湖路326巷43號","121.346373333333","24.969705","6500800","鶯歌區"
"239006","891-R6","2017/07/15 19:39:17","新北市鶯歌區文化路124號","121.351801666667","24.952","6500800","鶯歌區"
"239002","359-BY","2017/07/15 19:39:14","新北市樹林區中山路三段210-2號","121.380828333333","24.9659716666667","6500800","鶯歌區"
"239006","292-BY","2017/07/15 11:05:50","新北市鶯歌區二甲路13號","121.344028333333","24.9353966666667","6500800","鶯歌區"
"221008","489-VK","2017/07/15 19:39:25","新北市汐止區康寧街145號","121.622023333333","25.0666316666667","6501100","汐止區"
"221036","130-UY","2017/07/15 19:39:35","新北市汐止區汐萬路一段256巷1號","121.651831666667","25.0748866666667","6501100","汐止區"
"221015","131-UY","2017/07/15 19:39:18","新北市汐止區康寧街901號","121.651623333333","25.07498","6501100","汐止區"
"221010","269-BY","2017/07/15 19:39:29","新北市汐止區汐萬路二段23巷1號","121.649508333333","25.0808116666667","6501100","汐止區"
"221031","277-VK","2017/07/15 19:39:29","新北市汐止區康寧街901號","121.651001666667","25.0751483333333","6501100","汐止區"
"221012","278-VK","2017/07/15 19:39:22","新北市汐止區大同路三段527號","121.680753333333","25.07134","6501100","汐止區"
"221023","279-VK","2017/07/15 02:12:50","新北市汐止區康寧街901號","121.651608333333","25.0748816666667","6501100","汐止區"
"221032","280-BY","2017/07/15 19:39:32","新北市汐止區橫科路119號","121.620106666667","25.050355","6501100","汐止區"
"221027","281-BY","2017/07/15 19:39:28","新北市汐止區忠孝東路9號","121.658335","25.0659633333333","6501100","汐止區"
"221038","297-VK","2017/07/15 19:39:20","新北市汐止區忠孝東路208號","121.661906666667","25.0664383333333","6501100","汐止區"
"221029","298-VK","2017/07/15 19:39:15","新北市汐止區康寧街901號","121.651548333333","25.0749533333333","6501100","汐止區"
"221021","299-VK","2017/07/15 19:39:14","新北市汐止區南興路9號","121.651918333333","25.0624683333333","6501100","汐止區"
"221025","623-UM","2017/07/15 19:39:36","新北市汐止區福安街20巷7號","121.662468333333","25.0648133333333","6501100","汐止區"
"221033","647-BX","2017/07/15 19:39:26","新北市汐止區南勢街3號","121.627071666667","25.0374016666667","6501100","汐止區"
"221002","707-TV","2017/07/15 19:39:26","新北市汐止區大同路一段219巷27號","121.633276666667","25.0584233333333","6501100","汐止區"
"220079","145-BY","2017/07/15 19:39:18","新北市板橋區民權路306號","121.45716","25.0161533333333","6500100","板橋區"
"220082","610-BX","2017/07/15 19:39:25","新北市板橋區大觀路三段212巷36號","121.429545","24.9931216666667","6500100","板橋區"
"220101","245-BX","2017/07/15 19:39:35","新北市板橋區縣民大道三段33巷11號","121.473836666667","25.0210216666667","6500100","板橋區"
"220103","257-TC","2017/07/15 19:39:28","新北市板橋區民生路二段233號","121.46828","25.021345","6500100","板橋區"
"220069","258-TC","2017/07/15 19:39:32","新北市板橋區大明街20巷29弄8號","121.457905","25.0035016666667","6500100","板橋區"
"220091","267-BY","2017/07/15 19:39:28","新北市板橋區懷德街181巷25號","121.480116666667","25.03045","6500100","板橋區"
"220056","276-BY","2017/07/15 19:39:35","新北市板橋區四川路二段47巷1弄2號","121.454126666667","24.99495","6500100","板橋區"
"220072","277-BY","2017/07/15 19:39:29","新北市板橋區金門街287巷35號","121.431955","24.9875866666667","6500100","板橋區"
"220064","280-UM","2017/07/15 19:39:26","新北市板橋區中山路一段91號","121.461646666667","25.0100616666667","6500100","板橋區"
"220071","283-VK","2017/07/15 19:39:26","新北市板橋區四川路一段281號","121.459576666667","25.0017883333333","6500100","板橋區"
"220094","285-UM","2017/07/15 19:39:28","新北市板橋區宏國路94號","121.470055","25.032075","6500100","板橋區"
"220053","285-VK","2017/07/15 19:39:32","新北市板橋區民享街55號","121.4761","25.0151483333333","6500100","板橋區"
"220083","286-VK","2017/07/15 19:39:24","新北市板橋區龍興街71巷4號","121.44356","25.0020166666667","6500100","板橋區"
"220081","287-VK","2017/07/15 19:39:31","新北市板橋區大觀路一段75巷1號","121.44733","25.004515","6500100","板橋區"
"220090","288-VK","2017/07/15 19:39:35","新北市板橋區長江路一段48巷6弄2號","121.459146666667","25.0283233333333","6500100","板橋區"
"220061","293-UM","2017/07/15 19:39:25","新北市板橋區中山路一段265巷1-3號","121.46832","25.0143216666667","6500100","板橋區"
"220084","296-UM","2017/07/15 19:39:26","新北市板橋區滿平街84巷100弄34號","121.425768333333","24.985995","6500100","板橋區"
"220075","297-UM","2017/07/15 19:39:20","新北市板橋區大勇街71號","121.453043333333","25.016655","6500100","板橋區"
"220062","303-R5","2017/07/15 19:39:10","新北市板橋區三民路二段29巷2號","121.481385","25.0180333333333","6500100","板橋區"
"220092","307-R5","2017/07/15 19:39:33","新北市板橋區文化路一段387巷18號","121.466325","25.0221866666667","6500100","板橋區"
"220098","317-R6","2017/07/15 19:39:33","新北市板橋區四維路269巷19號","121.462456666667","25.0280516666667","6500100","板橋區"
"220080","461-BY","2017/07/15 19:39:23","新北市板橋區大觀路二段37巷200號","121.449496666667","25.001395","6500100","板橋區"
"220089","487-VK","2017/07/15 19:39:32","新北市板橋區英士路199號","121.458858333333","25.0236233333333","6500100","板橋區"
"220088","491-VK","2017/07/15 19:39:23","新北市板橋區文化路二段446號","121.474698333333","25.0324683333333","6500100","板橋區"
"220035","560-BX","2017/07/15 19:39:22","新北市板橋區新生街88巷7號","121.458385","25.0214716666667","6500100","板橋區"
"220063","609-BX","2017/07/15 19:39:34","新北市板橋區三民路一段7號","121.479133333333","25.023205","6500100","板橋區"
"220057","686-BX","2017/07/15 19:39:26","新北市板橋區和平路59號","121.461008333333","24.9946283333333","6500100","板橋區"
"220077","687-BX","2017/07/15 19:39:20","新北市板橋區僑中三街2號","121.447061666667","25.004565","6500100","板橋區"
"220093","689-BX","2017/07/15 19:39:19","新北市板橋區新海路434號","121.458081666667","25.027655","6500100","板橋區"
"220054","741-BX","2017/07/15 19:39:19","新北市中和區德光路138號","121.467666666667","25.0035216666667","6500100","板橋區"
"220055","827-TW","2017/07/15 19:39:22","新北市板橋區國慶路149巷3弄1號","121.461213333333","24.9967366666667","6500100","板橋區"
"220067","829-TW","2017/07/15 19:39:19","新北市板橋區長安街251巷32號","121.472166666667","25.011125","6500100","板橋區"
"220096","831-TW","2017/07/15 19:39:22","新北市板橋區民生路二段234巷26弄9號","121.47049","25.0221316666667","6500100","板橋區"
"220074","895-R6","2017/07/15 19:39:35","新北市板橋區府中路83號","121.457181666667","25.0094916666667","6500100","板橋區"
"220073","985-R7","2017/07/15 19:39:25","新北市板橋區國光路67巷14號","121.459015","25.0187633333333","6500100","板橋區"
"220097","AAC-210","2017/07/15 19:39:19","新北市板橋區幸福路32巷4弄14號","121.461411666667","25.0214183333333","6500100","板橋區"
"220070","AAC-253","2017/07/15 19:39:32","新北市板橋區館前東路72號","121.461386666667","25.00737","6500100","板橋區"
