"lineid","car","time","location","longitude","latitude","cityid","cityname"
"234046","148-BY","2017/07/15 19:49:31","新北市永和區永亨路146巷1號","121.52533","25.0037233333333","6500400","永和區"
"234013","149-BY","2017/07/15 19:49:21","新北市永和區永平路246號","121.508566666667","25.0110183333333","6500400","永和區"
"234007","207-UY","2017/07/15 19:49:20","新北市永和區保平路292巷13弄2號","121.507343333333","25.005395","6500400","永和區"
"234081","298-R6","2017/07/15 19:49:23","新北市永和區國中路2號","121.524331666667","25.0042333333333","6500400","永和區"
"234038","336-UY","2017/07/15 19:49:20","新北市永和區成功路二段152-2號","121.52644","24.996575","6500400","永和區"
"234064","337-UY","2017/07/15 19:49:18","新北市永和區中正路412巷4號","121.517861666667","25.0020166666667","6500400","永和區"
"234086","338-UY","2017/07/15 19:49:23","新北市永和區永利路9號","121.517571666667","25.0060016666667","6500400","永和區"
"234070","552-UM","2017/07/15 19:49:28","新北市永和區國光路6號","121.5196","25.0084583333333","6500400","永和區"
"234054","553-UM","2017/07/15 19:49:35","新北市永和區竹林路75巷25弄8號","121.520131666667","25.01444","6500400","永和區"
"234017","745-BX","2017/07/15 19:49:17","新北市永和區文化路29號","121.514933333333","25.0149883333333","6500400","永和區"
"234030","746-BX","2017/07/15 19:49:24","新北市永和區四維街89巷2弄1號","121.524513333333","24.9977433333333","6500400","永和區"
"234061","AAD-866","2017/07/15 19:49:28","新北市永和區中正路79號","121.515081666667","24.9969233333333","6500400","永和區"
"234042","862-TW","2017/07/15 19:49:26","新北市永和區中和路305巷20弄2號","121.507655","25.0019083333333","6500400","永和區"
"234050","863-TW","2017/07/15 19:49:25","新北市永和區保福路二段133巷64弄15號","121.508383333333","25.0142983333333","6500400","永和區"
"234026","9371-KE","2017/07/15 19:49:33","新北市永和區水源街33巷2號","121.510735","25.004155","6500400","永和區"
"249004","303-UY","2017/07/15 19:49:30","新北市八里區中山路一段268巷5弄1號","121.414516666667","25.1606766666667","6502300","八里區"
"249002","305-UY","2017/07/15 19:49:24","新北市八里區頂寮五街18號","121.451425","25.12628","6502300","八里區"
"249003","593-UM","2017/07/15 19:49:31","新北市八里區華峰三街37號","121.398585","25.1453683333333","6502300","八里區"
"249001","759-BX","2017/07/15 19:49:23","新北市八里區中華路二段248號","121.405478333333","25.14979","6502300","八里區"
"248016","026-BX","2017/07/15 19:49:17","新北市五股區成泰路四段22巷2號","121.453856666667","25.106745","6501500","五股區"
"248008","095-VK","2017/07/15 19:49:30","新北市五股區四維路171巷9號","121.467325","25.07516","6501500","五股區"
"248018","225-UY","2017/07/15 19:49:19","新北市五股區中直路35號","121.419773333333","25.1154733333333","6501500","五股區"
"248012","247-BX","2017/07/15 19:40:59","新北市五股區成泰路一段241巷7弄1號","121.436016666667","25.080885","6501500","五股區"
"248014","261-SL","2017/07/15 19:49:22","新北市五股區五福路42巷25號","121.4348","25.090095","6501500","五股區"
"248010","272-BY","2017/07/15 19:49:22","新北市五股區登林路貿商巷1弄1號","121.430476666667","25.069665","6501500","五股區"
"248004","677-BX","2017/07/15 19:49:28","新北市五股區成泰路二段38號","121.437093333333","25.0813233333333","6501500","五股區"
"248002","678-BX","2017/07/15 19:49:24","新北市五股區成泰路四段14號","121.453371666667","25.1067433333333","6501500","五股區"
"234077","969-R7","2017/07/15 19:49:18","新北市永和區民有街23巷57號","121.51773","24.9975316666667","6500400","永和區"
"234074","AAC-211","2017/07/15 19:49:20","新北市永和區竹林路213巷5號","121.521226666667","25.008895","6500400","永和區"
"234067","AAC-212","2017/07/15 19:49:20","新北市永和區中山路一段191巷8號","121.509428333333","25.0082933333333","6500400","永和區"
"234003","AAC-295","2017/07/15 19:49:35","新北市永和區福和路326號","121.515573333333","25.0072516666667","6500400","永和區"
"244019","403-UM","2017/07/15 19:49:23","新北市林口區四維路116號","121.377503333333","25.0780583333333","6501700","林口區"
"243013","AAD-798","2017/07/15 19:49:23","新北市泰山區應化街13號","121.42385","25.0437033333333","6501600","泰山區"
"243009","297-R6","2017/07/15 19:49:27","新北市泰山區美寧街60號","121.430946666667","25.0646133333333","6501600","泰山區"
"243015","380-SR","2017/07/15 19:49:32","新北市泰山區明志路二段239號","121.42741","25.04814","6501600","泰山區"
"243014","421-VK","2017/07/15 19:49:27","新北市泰山區泰林路二段33-8號","121.435188333333","25.0565566666667","6501600","泰山區"
"243010","548-UM","2017/07/15 19:49:29","新北市泰山區民生路33號","121.430625","25.052205","6501600","泰山區"
"243011","549-UM","2017/07/15 19:49:30","新北市泰山區明志路三段196巷21弄27號","121.422445","25.0384966666667","6501600","泰山區"
"243012","646-TV","2017/07/15 19:49:18","新北市泰山區全興路5號","121.432265","25.0590633333333","6501600","泰山區"
"243016","680-BX","2017/07/15 19:49:30","新北市泰山區明志路三段517號","121.421033333333","25.0318566666667","6501600","泰山區"
"222003","436-BY","2017/07/15 19:49:19","新北市深坑區深南路51-1號","121.621073333333","25.0100833333333","6501800","深坑區"
"222001","628-TS","2017/07/15 19:49:24","新北市深坑區北深路三段64號","121.607961666667","25.00135","6501800","深坑區"
"222002","659-BX","2017/07/15 19:49:27","新北市深坑區北深路二段2巷1號","121.621206666667","25.0045666666667","6501800","深坑區"
"231041","002-UM","2017/07/15 19:49:33","新北市新店區中央路155號","121.529816666667","24.9727516666667","6500600","新店區"
"231059","046-UY","2017/07/15 19:49:31","新北市新店區安和路二段3-5號","121.518036666667","24.96735","6500600","新店區"
"231061","047-UY","2017/07/15 19:49:28","新北市新店區安民街261號","121.51737","24.97269","6500600","新店區"
"231060","106-UY","2017/07/15 19:49:22","新北市新店區安康路二段159巷6號","121.510125","24.959175","6500600","新店區"
"231051","107-UY","2017/07/15 19:49:20","新北市新店區中央二街65號","121.526551666667","24.9747616666667","6500600","新店區"
"231048","108-UY","2017/07/15 19:49:14","新北市新店區寶興路61巷2號","121.550838333333","24.971965","6500600","新店區"
"231052","187-VK","2017/07/15 19:49:27","新北市新店區新烏路三段86號","121.553681666667","24.9038633333333","6500600","新店區"
"231057","256-BX","2017/07/15 19:49:28","新北市新店區梅崗一路9號","121.556138333333","24.9313383333333","6500600","新店區"
"231063","268-BY","2017/07/15 19:49:21","新北市新店區黎明路3號","121.5037","24.9525216666667","6500600","新店區"
"231046","278-BY","2017/07/15 19:49:37","新北市新店區中正路329巷3弄1號","121.535545","24.9748116666667","6500600","新店區"
"231050","AAD-862","2017/07/15 19:48:42","新北市新店區北宜路二段579巷39號","121.565256666667","24.955145","6500600","新店區"
"231055","3713-VJ","2017/07/15 19:49:32","新北市新店區新生街5巷5號","121.540103333333","24.96582","6500600","新店區"
"231067","4772-VM","2017/07/15 19:49:20","新北市新店區精忠路10-1號","121.532653333333","24.9590616666667","6500600","新店區"
"231065","512-UM","2017/07/15 19:49:24","新北市新店區安祥路109巷151弄16號","121.477776666667","24.9588116666667","6500600","新店區"
"231054","513-UM","2017/07/15 19:49:22","新北市新店區光明街11號","121.538311666667","24.95927","6500600","新店區"
"231064","515-UM","2017/07/15 19:49:27","新北市新店區安和路二段1號","121.517738333333","24.9667583333333","6500600","新店區"
"231042","616-UM","2017/07/15 19:49:37","新北市新店區中興路一段281號","121.545296666667","24.9683666666667","6500600","新店區"
"231045","617-UM","2017/07/15 19:49:14","新北市新店區北宜路二段382號","121.564431666667","24.95302","6500600","新店區"
"231040","619-UM","2017/07/15 19:49:24","新北市新店區北新路一段96巷23號","121.543003333333","24.9688466666667","6500600","新店區"
"231068","718-UY","2017/07/15 19:49:21","新北市新店區安華路28-1號","121.519411666667","24.9612266666667","6500600","新店區"
"231049","719-UM","2017/07/15 19:49:31","新北市新店區建國路253號","121.537541666667","24.9827466666667","6500600","新店區"
"231062","720-UM","2017/07/15 19:49:17","新北市新店區永業路62號","121.531866666667","24.9525433333333","6500600","新店區"
"231044","897-TW","2017/07/15 19:49:12","新北市新店區順安街69號","121.540726666667","24.986575","6500600","新店區"
"231043","899-TW","2017/07/15 19:49:23","新北市新店區中正路197號","121.540438333333","24.9724833333333","6500600","新店區"
"241011","013-R5","2017/07/15 19:49:27","新北市三重區介壽路39巷46號","121.499881666667","25.070455","6500200","三重區"
"241028","022-UY","2017/07/15 19:49:18","新北市三重區中正南路163號","121.493671666667","25.0560016666667","6500200","三重區"
"241008","059-VK","2017/07/15 19:49:22","新北市三重區永福街96號","121.478815","25.075955","6500200","三重區"
"241009","060-VK","2017/07/15 19:49:17","新北市三重區三和路四段396巷10號","121.480838333333","25.079035","6500200","三重區"
"241031","061-VK","2017/07/15 19:49:27","新北市三重區重新路四段248號","121.48603","25.053385","6500200","三重區"
"241015","062-VK","2017/07/15 19:49:24","新北市三重區三和路一段2號","121.503838333333","25.06429","6500200","三重區"
"241017","063-VK","2017/07/15 19:49:35","新北市三重區重陽路三段5巷8弄29號","121.489588333333","25.0665516666667","6500200","三重區"
"241024","065-VK","2017/07/15 19:49:21","新北市三重區大勇街89號","121.479718333333","25.0714033333333","6500200","三重區"
"241026","066-VK","2017/07/15 19:49:20","新北市三重區文化南路63號","121.500015","25.0608566666667","6500200","三重區"
"241003","091-VK","2017/07/15 19:49:14","新北市三重區五華街93巷83號","121.493745","25.0847983333333","6500200","三重區"
"241005","262-UM","2017/07/15 19:49:25","新北市三重區溪尾街300-2號","121.487375","25.0835","6500200","三重區"
"241016","266-UM","2017/07/15 19:49:18","新北市三重區正義北路48巷13號","121.496791666667","25.063675","6500200","三重區"
"241022","267-UM","2017/07/15 19:49:23","新北市三重區過圳街31巷2號","121.489055","25.060595","6500200","三重區"
"241018","268-UM","2017/07/15 19:49:26","新北市三重區雙園街57巷1號","121.494925","25.0676233333333","6500200","三重區"
"241032","269-UM","2017/07/15 19:49:28","新北市三重區重陽路一段44巷10號","121.485966666667","25.0577566666667","6500200","三重區"
"241013","270-UM","2017/07/15 19:49:15","新北市三重區仁福街64巷39號","121.497393333333","25.07605","6500200","三重區"
"241025","271-UM","2017/07/15 19:49:30","新北市三重區頂崁街210巷16號","121.476475","25.0677283333333","6500200","三重區"
"241007","398-BY","2017/07/15 19:49:31","新北市三重區三和路四段133號","121.484611666667","25.077925","6500200","三重區"
"241020","413-TH","2017/07/15 19:49:22","新北市三重區三和路四段2號","121.491686666667","25.073685","6500200","三重區"
"241004","475-VK","2017/07/15 19:49:22","新北市三重區五華街74號","121.493363333333","25.0820066666667","6500200","三重區"
"241019","478-VK","2017/07/15 19:49:18","新北市三重區自強路二段74巷5號","121.488256666667","25.070085","6500200","三重區"
"241030","480-VK","2017/07/15 19:49:22","新北市三重區環河南路254巷32號","121.49017","25.0510333333333","6500200","三重區"
"241014","543-UM","2017/07/15 19:49:18","新北市三重區長安街82號","121.50148","25.06747","6500200","三重區"
"241023","545-UM","2017/07/15 19:49:24","新北市三重區大有街1-1號","121.477563333333","25.06561","6500200","三重區"
"241001","547-UM","2017/07/15 19:49:23","新北市三重區仁愛街327巷73號","121.493873333333","25.0804133333333","6500200","三重區"
"241006","AAD-863","2017/07/15 19:49:14","新北市三重區永福街281-2號","121.482673333333","25.0744066666667","6500200","三重區"
"241035","743-BX","2017/07/15 19:49:31","新北市三重區文化北路33-7號","121.499196666667","25.0645666666667","6500200","三重區"
"241012","941-UM","2017/07/15 19:49:25","新北市三重區仁福街64巷22號","121.49763","25.07529","6500200","三重區"
"241029","942-UM","2017/07/15 19:49:32","新北市三重區光明路11號","121.49099","25.0587283333333","6500200","三重區"
"241033","AAC-255","2017/07/15 19:49:30","新北市三重區中興南街29-1號","121.470585","25.044005","6500200","三重區"
"235066","003-UY","2017/07/15 19:49:30","新北市中和區南工路20號","121.505485","25.000465","6500300","中和區"
"235064","005-UY","2017/07/15 19:49:33","新北市中和區南華路37號","121.503228333333","24.9961516666667","6500300","中和區"
"235063","006-UY","2017/07/15 19:49:16","新北市中和區連城路263巷4弄1號","121.492103333333","24.9959166666667","6500300","中和區"
"235056","096-UM","2017/07/15 19:49:25","新北市中和區中山路三段124號","121.474313333333","25.0061783333333","6500300","中和區"
"235039","097-UM","2017/07/15 19:49:31","新北市中和區景德街1號","121.519156666667","24.9913483333333","6500300","中和區"
"235065","098-UM","2017/07/15 19:49:34","新北市中和區永和路8號","121.500095","25.00308","6500300","中和區"
"235040","150-BY","2017/07/15 19:49:32","新北市中和區安平路38號","121.509696666667","24.9949466666667","6500300","中和區"
"235058","151-BY","2017/07/15 19:49:24","新北市中和區員山路142巷19號","121.482286666667","24.99658","6500300","中和區"
"235055","183-VK","2017/07/15 19:49:21","新北市中和區中山路三段181巷22號","121.473031666667","25.0052416666667","6500300","中和區"
"235038","185-VK","2017/07/15 19:49:17","新北市中和區自立路99巷16號","121.52293","24.99486","6500300","中和區"
"235049","186-VK","2017/07/15 19:49:35","新北市中和區中正路76號","121.500743333333","24.9937816666667","6500300","中和區"
"235067","255-BX","2017/07/15 19:49:17","新北市中和區新生街249號","121.483865","24.998715","6500300","中和區"
"235044","293-VK","2017/07/15 19:49:26","新北市中和區捷運路85號","121.508373333333","24.9901483333333","6500300","中和區"
"235072","301-VK","2017/07/15 19:49:22","新北市新店區安平路35巷10號","121.521003333333","24.96692","6500300","中和區"
"235043","352-BY","2017/07/15 19:49:29","新北市中和區華新街230號","121.505996666667","24.9816733333333","6500300","中和區"
"235051","376-QA","2017/07/15 19:49:34","新北市中和區中興街132巷20號","121.498895","24.9918566666667","6500300","中和區"
"235068","377-QA","2017/07/15 19:49:33","新北市中和區莊敬路16巷15弄9號","121.500566666667","25.00397","6500300","中和區"
"235061","378-QA","2017/07/15 19:49:36","新北市中和區員山路174巷1號","121.481606666667","24.99986","6500300","中和區"
"235050","4979-A6","2017/07/15 19:49:32","新北市中和區景平路241巷79號","121.50746","24.99211","6500300","中和區"
"235069","4980-A6","2017/07/15 19:49:16","新北市中和區中正路637巷52弄1號","121.485441666667","24.9933433333333","6500300","中和區"
"235042","551-UM","2017/07/15 19:49:23","新北市中和區保健路2巷30號","121.507013333333","24.9974566666667","6500300","中和區"
"235045","565-BX","2017/07/15 19:49:34","新北市中和區興南路一段2號","121.511648333333","24.991485","6500300","中和區"
"235054","640-BX","2017/07/15 19:49:32","新北市中和區國光街107巷2弄32號","121.469251666667","24.9989933333333","6500300","中和區"
"235060","647-TV","2017/07/15 19:49:27","新北市中和區新生街16巷2號","121.482938333333","25.0043433333333","6500300","中和區"
"235047","732-UM","2017/07/15 19:49:31","新北市中和區捷運路57-1號","121.50913","24.9897166666667","6500300","中和區"
"235046","733-UM","2017/07/15 19:49:30","新北市中和區景新街496巷22號","121.5133","24.986205","6500300","中和區"
"235071","783-BX","2017/07/15 19:49:27","新北市中和區永和路335-4號","121.484955","25.0111083333333","6500300","中和區"
"235057","801-TS","2017/07/15 19:49:30","新北市中和區員山路271-1號","121.48137","24.9994083333333","6500300","中和區"
"235041","802-TS","2017/07/15 19:49:29","新北市永和區中和路517號","121.510963333333","25.0027383333333","6500300","中和區"
"235052","805-TS","2017/07/15 19:49:23","新北市中和區華新街192巷32號","121.506256666667","24.9833766666667","6500300","中和區"
"235048","896-TW","2017/07/15 19:49:28","新北市中和區興南路二段49號","121.50735","24.985415","6500300","中和區"
"235053","900-TW","2017/07/15 19:49:17","新北市中和區民德路40號","121.468223333333","25.002295","6500300","中和區"
"235070","911-UM","2017/07/15 19:49:31","新北市中和區景平路589-1號","121.497498333333","25.0004983333333","6500300","中和區"
"235037","AAC-213","2017/07/15 19:49:29","新北市中和區秀朗路三段10巷14弄74號","121.523813333333","24.9965333333333","6500300","中和區"
"235059","AAC-215","2017/07/15 19:49:21","新北市中和區圓通路305巷27弄1號","121.494988333333","24.9891483333333","6500300","中和區"
"220068","013-TV","2017/07/15 19:49:32","新北市板橋區中山路二段416巷47弄30號","121.483696666667","25.0194783333333","6500100","板橋區"
"220065","072-UY","2017/07/15 19:49:19","新北市板橋區民族路276巷44號","121.469338333333","25.005675","6500100","板橋區"
"220086","073-UY","2017/07/15 19:49:32","新北市板橋區中正路13號","121.456141666667","25.01223","6500100","板橋區"
"220106","075-UY","2017/07/15 19:49:35","新北市板橋區民治街57巷26號","121.48008","25.0338733333333","6500100","板橋區"
"247006","341-TH","2017/07/15 19:49:19","新北市蘆洲區永安南路二段26號","121.467295","25.077115","6501400","蘆洲區"
"247008","339-TH","2017/07/15 19:49:20","新北市蘆洲區信義路113巷1弄5號","121.478086666667","25.0804266666667","6501400","蘆洲區"
"247024","337-TH","2017/07/15 19:49:21","新北市蘆洲區光復路6號","121.462453333333","25.0841983333333","6501400","蘆洲區"
"247002","336-TH","2017/07/15 19:49:30","新北市蘆洲區永樂街38巷57弄1號","121.458418333333","25.0900066666667","6501400","蘆洲區"
"247014","057-VK","2017/07/15 19:49:29","新北市蘆洲區保和街50-5號","121.46973","25.0863366666667","6501400","蘆洲區"
"226004","312-R5","2017/07/15 19:49:25","新北市平溪區十分里十分街56-1號","121.775548333333","25.0413533333333","6502400","平溪區"
"228001","212-TW","2017/07/15 19:49:34","新北市貢寮區真理里新港街58號","121.926223333333","25.0566","6502600","貢寮區"
"228003","828-UM","2017/07/15 19:49:28","新北市貢寮區真理里美艷山街3-1號","121.92555","25.05944","6502600","貢寮區"
"224010","AGQ-8101","2017/07/15 19:48:24","新北市瑞芳區市下巷1號","121.84445","25.10876","6501200","瑞芳區"
"224002","639-TC","2017/07/15 19:49:16","新北市瑞芳區員山子路員山巷20-1號","121.816638333333","25.103755","6501200","瑞芳區"
"224011","420-VK","2017/07/15 19:49:13","新北市瑞芳區崙頂路3-1號","121.847003333333","25.1047083333333","6501200","瑞芳區"
"227010","642-TC","2017/07/15 19:49:34","新北市雙溪區新基里中華路90-1號","121.866058333333","25.0390833333333","6502500","雙溪區"
"227002","400-TW","2017/07/15 19:49:16","新北市雙溪區雙溪里內挖路47號","121.863231666667","25.0367383333333","6502500","雙溪區"
"208003","665-BX","2017/07/15 19:49:28","新北市金山區三界壇路1-12號","121.629313333333","25.2264916666667","6502700","金山區"
"208001","761-BX","2017/07/15 19:49:13","新北市金山區重和里茅埔頭22號","121.601223333333","25.2129916666667","6502700","金山區"
"251009","008-UM","2017/07/15 19:44:52","新北市淡水區中山路125號","121.441411666667","25.1708083333333","6501000","淡水區"
"251004","009-UM","2017/07/15 19:49:19","新北市淡水區民權路177巷53號","121.460473333333","25.1338633333333","6501000","淡水區"
"251014","180-VK","2017/07/15 19:49:23","新北市淡水區番社前7-4號","121.476263333333","25.23519","6501000","淡水區"
"251008","181-VK","2017/07/15 19:49:20","新北市淡水區中正路一段24巷2-4號","121.42677","25.1769983333333","6501000","淡水區"
"251012","441-VK","2017/07/15 19:49:19","新北市淡水區中山北路三段138號","121.445938333333","25.1949366666667","6501000","淡水區"
"251016","442-VK","2017/07/15 19:49:13","新北市淡水區三塊厝3-2號","121.45614","25.2091366666667","6501000","淡水區"
"251005","443-VK","2017/07/15 19:49:13","新北市淡水區中山路104號","121.442345","25.1705966666667","6501000","淡水區"
"251001","559-UM","2017/07/15 19:49:26","新北市淡水區中正東路二段85號","121.459445","25.1531283333333","6501000","淡水區"
"251006","561-UM","2017/07/15 19:49:26","新北市淡水區水碓街15號","121.443415","25.176945","6501000","淡水區"
"251011","650-BX","2017/07/15 19:49:15","新北市淡水區淡金路二段180-1號","121.448195","25.1839983333333","6501000","淡水區"
"207003","550-UM","2017/07/15 19:49:14","新北市萬里區大鵬里萬里加投68-8號","121.642443333333","25.2150733333333","6502800","萬里區"
"207004","225-TW","2017/07/15 19:49:34","新北市萬里區萬里里瑪鋉路238號","121.689188333333","25.1804416666667","6502800","萬里區"
"252002","178-VK","2017/07/15 19:49:34","新北市三芝區三民街26號","121.504843333333","25.258715","6502100","三芝區"
"252001","292-VK","2017/07/15 19:49:34","新北市三芝區公正街66號","121.499801666667","25.2574916666667","6502100","三芝區"
"208002","170-UY","2017/07/15 18:47:05","新北市金山區信義路60號","121.6358","25.2192233333333","6502700","金山區"
"237004","078-UY","2017/07/15 19:49:30","新北市三峽區添福151-2號","121.37523","24.8989","6500900","三峽區"
"237007","153-BY","2017/07/15 19:49:29","新北市三峽區二鬮路136巷2弄29號","121.359563333333","24.9088883333333","6500900","三峽區"
"237009","210-TH","2017/07/15 19:49:27","新北市三峽區民權街203號","121.367693333333","24.92843","6500900","三峽區"
"237013","252-BX","2017/07/15 19:49:18","新北市三峽區溪北街38號","121.396853333333","24.936095","6500900","三峽區"
"237012","275-BY","2017/07/15 19:49:32","新北市三峽區中華路30-2號","121.373236666667","24.9317883333333","6500900","三峽區"
"237008","302-VK","2017/07/15 19:49:19","新北市三峽區永安街143-2號","121.3735","24.9281166666667","6500900","三峽區"
"237014","433-BY","2017/07/15 19:49:20","新北市三峽區白雞25號","121.369155","24.9124433333333","6500900","三峽區"
"237006","5529-G3","2017/07/15 19:49:27","新北市三峽區正義街59巷9號","121.370196666667","24.9185366666667","6500900","三峽區"
"237016","649-BX","2017/07/15 19:49:24","新北市三峽區介壽路二段138巷20號","121.395793333333","24.9340983333333","6500900","三峽區"
"237005","AKY-6261","2017/07/15 19:49:21","新北市三峽區民生街111-2號","121.373741666667","24.9353733333333","6500900","三峽區"
"236073","105-UM","2017/07/15 19:49:24","新北市土城區中央路二段210號","121.442063333333","24.97561","6501300","土城區"
"236043","107-UM","2017/07/15 19:49:14","新北市土城區清水路83號","121.455808333333","24.9817316666667","6501300","土城區"
"236079","166-UM","2017/07/15 19:49:29","新北市土城區溪頭路143號","121.409446666667","24.9509483333333","6501300","土城區"
"236031","253-BX","2017/07/15 19:49:35","新北市土城區中央路一段290號","121.443298333333","24.9824166666667","6501300","土城區"
"236027","269-VK","2017/07/15 19:49:23","新北市土城區中央路二段61巷20號","121.44314","24.978765","6501300","土城區"
"236038","271-VK","2017/07/15 19:49:29","新北市土城區國際路150號","121.467888333333","24.9761983333333","6501300","土城區"
"236023","401-BY","2017/07/15 19:49:18","新北市土城區金城路三段200-5號","121.468836666667","24.9876","6501300","土城區"
"236059","912-UM","2017/07/15 19:49:32","新北市土城區中央路二段6-3號","121.442926666667","24.9808716666667","6501300","土城區"
"236049","913-UM","2017/07/15 19:49:31","新北市土城區青雲路303號","121.459016666667","24.9793833333333","6501300","土城區"
"236063","915-UM","2017/07/15 19:49:34","新北市土城區延和路105巷6弄1號","121.46741","24.991095","6501300","土城區"
"236055","AAC-216","2017/07/15 19:49:34","新北市土城區青雲路33號","121.460331666667","24.9883533333333","6501300","土城區"
"242029","986-R7","2017/07/15 19:49:35","新北市新莊區新泰路500號","121.442445","25.0458833333333","6500500","新莊區"
"242048","751-BX","2017/07/15 19:49:23","新北市新莊區建安街121巷7號","121.426466666667","25.0235733333333","6500500","新莊區"
"242027","612-BX","2017/07/15 19:49:37","新北市新莊區立信五街2號","121.444595","25.05156","6500500","新莊區"
"242036","566-BX","2017/07/15 19:49:17","新北市新莊區建安街79號","121.427491666667","25.0246933333333","6500500","新莊區"
"242042","497-BY","2017/07/15 19:49:30","新北市新莊區新北大道七段556號","121.412228333333","25.0290433333333","6500500","新莊區"
"242004","442-UM","2017/07/15 19:49:25","新北市新莊區化成路63巷24弄12號","121.462323333333","25.0460416666667","6500500","新莊區"
"242051","440-UM","2017/07/15 19:49:32","新北市新莊區民安路302號","121.428298333333","25.0217883333333","6500500","新莊區"
"242031","415-TV","2017/07/15 19:49:25","新北市新莊區忠孝街104號","121.443918333333","25.0373366666667","6500500","新莊區"
"242002","413-TV","2017/07/15 19:49:30","新北市新莊區新泰路63號","121.449463333333","25.0341666666667","6500500","新莊區"
"242039","400-BY","2017/07/15 19:49:27","新北市新莊區民安路299巷53號","121.429555","25.0237883333333","6500500","新莊區"
"242061","362-BY","2017/07/15 19:49:32","新北市新莊區中正路473-1號","121.442003333333","25.0331866666667","6500500","新莊區"
"242058","353-BY","2017/07/15 19:49:15","新北市新莊區八德街31號","121.424925","25.0223116666667","6500500","新莊區"
"242034","133-UY","2017/07/15 19:49:35","新北市新莊區公園一路110號","121.444363333333","25.0376333333333","6500500","新莊區"
"242007","173-VK","2017/07/15 19:49:26","新北市新莊區福壽街336號","121.457621666667","25.058555","6500500","新莊區"
"242056","176-VK","2017/07/15 19:49:35","新北市新莊區新泰路87號","121.448785","25.0344983333333","6500500","新莊區"
"242013","346-TH","2017/07/15 19:49:30","新北市新莊區中泰街38巷9號","121.45069","25.0473216666667","6500500","新莊區"
"242017","348-TH","2017/07/15 19:49:18","新北市新莊區中華路一段226號","121.452591666667","25.0429883333333","6500500","新莊區"
"242015","350-TH","2017/07/15 19:49:25","新北市新莊區中港一街161號","121.447243333333","25.044945","6500500","新莊區"
"238015","755-BX","2017/07/15 19:49:33","新北市樹林區中山路二段156號","121.412675","24.98263","6500700","樹林區"
"238023","601-UM","2017/07/15 19:49:17","新北市樹林區三福街124號","121.406008333333","25.01599","6500700","樹林區"
"238018","571-TV","2017/07/15 19:49:30","新北市樹林區育德街78-1號","121.387556666667","24.9681216666667","6500700","樹林區"
"238024","5061-A6","2017/07/15 19:49:28","新北市樹林區中山路三段210-2號","121.381435","24.96561","6500700","樹林區"
"238022","312-TH","2017/07/15 18:39:26","新北市樹林區育德街78-1號","121.387786666667","24.968135","6500700","樹林區"
"238021","311-TH","2017/07/15 18:10:38","新北市樹林區柑園街一段115號","121.40105","24.9600633333333","6500700","樹林區"
"238025","303-VK","2017/07/15 19:49:28","新北市樹林區中山路二段162號","121.41209","24.982885","6500700","樹林區"
"238014","282-BY","2017/07/15 19:48:48","新北市樹林區千歲街46巷11號","121.426645","24.9966283333333","6500700","樹林區"
"238020","268-VK","2017/07/15 19:49:23","新北市樹林區千歲街109號","121.42922","25.00134","6500700","樹林區"
"239006","891-R6","2017/07/15 19:49:37","新北市鶯歌區文化路72號","121.355111666667","24.9539016666667","6500800","鶯歌區"
"239002","359-BY","2017/07/15 19:49:33","新北市鶯歌區二甲路12-2號","121.345543333333","24.9350633333333","6500800","鶯歌區"
"239006","292-BY","2017/07/15 11:05:50","新北市鶯歌區二甲路13號","121.344028333333","24.9353966666667","6500800","鶯歌區"
"221008","489-VK","2017/07/15 19:49:25","新北市汐止區康寧街83巷28號","121.62061","25.0672233333333","6501100","汐止區"
"221036","130-UY","2017/07/15 19:49:15","新北市汐止區汐萬路一段24號","121.655733333333","25.0679383333333","6501100","汐止區"
"221015","131-UY","2017/07/15 19:49:18","新北市汐止區大同路二段535號","121.66194","25.069065","6501100","汐止區"
"221010","269-BY","2017/07/15 19:49:29","新北市汐止區汐萬路一段333巷1號","121.649851666667","25.0761","6501100","汐止區"
"221031","277-VK","2017/07/15 19:49:29","新北市汐止區福德二路54巷6號","121.633801666667","25.06769","6501100","汐止區"
"221012","278-VK","2017/07/15 19:49:22","新北市汐止區大同路三段380號","121.681251666667","25.07141","6501100","汐止區"
"221023","279-VK","2017/07/15 02:12:50","新北市汐止區康寧街901號","121.651608333333","25.0748816666667","6501100","汐止區"
"221032","280-BY","2017/07/15 19:49:32","新北市汐止區橫科路119號","121.620105","25.0503583333333","6501100","汐止區"
"221027","281-BY","2017/07/15 19:49:28","新北市汐止區忠孝東路9號","121.658316666667","25.065955","6501100","汐止區"
"221038","297-VK","2017/07/15 19:49:20","新北市汐止區忠孝東路289號","121.664066666667","25.0686933333333","6501100","汐止區"
"221029","298-VK","2017/07/15 19:49:35","新北市汐止區康寧街901號","121.65144","25.0749","6501100","汐止區"
"221021","299-VK","2017/07/15 19:39:54","新北市汐止區南興路30號","121.651936666667","25.0613316666667","6501100","汐止區"
"221035","622-UM","2017/07/15 19:49:18","新北市汐止區長江街9號","121.654683333333","25.0712","6501100","汐止區"
"221025","623-UM","2017/07/15 19:49:21","新北市汐止區秀峰路81巷32號","121.661273333333","25.06453","6501100","汐止區"
"221033","647-BX","2017/07/15 19:49:26","新北市汐止區東勢街8號","121.631253333333","25.0402466666667","6501100","汐止區"
"221002","707-TV","2017/07/15 19:49:26","新北市汐止區大同路一段219巷26號","121.633275","25.0584466666667","6501100","汐止區"
"221018","753-BX","2017/07/15 19:49:29","新北市汐止區汐萬路一段10號","121.656248333333","25.0674533333333","6501100","汐止區"
"220079","145-BY","2017/07/15 19:49:32","新北市板橋區復興街114號","121.460375","25.017835","6500100","板橋區"
"220082","610-BX","2017/07/15 19:49:25","新北市板橋區溪北路89號","121.428496666667","24.9893733333333","6500100","板橋區"
"220101","245-BX","2017/07/15 19:49:23","新北市板橋區莒光路227號","121.47446","25.02243","6500100","板橋區"
"220103","257-TC","2017/07/15 19:49:28","新北市板橋區陽明街29巷3號","121.46524","25.021655","6500100","板橋區"
"220069","258-TC","2017/07/15 19:49:32","新北市板橋區縣民大道一段64巷15號","121.455838333333","25.003455","6500100","板橋區"
"220091","267-BY","2017/07/15 19:49:26","新北市板橋區懷德街127巷44-3號","121.480296666667","25.0315966666667","6500100","板橋區"
"220056","276-BY","2017/07/15 19:49:37","新北市板橋區四川路二段99巷2弄2-3號","121.452755","24.9944033333333","6500100","板橋區"
"220072","277-BY","2017/07/15 19:49:29","新北市板橋區金門街235巷1號","121.43259","24.9892983333333","6500100","板橋區"
"220064","280-UM","2017/07/15 19:49:26","新北市板橋區實踐路126號","121.464391666667","25.0030183333333","6500100","板橋區"
"220071","283-VK","2017/07/15 19:49:26","新北市板橋區信義路279巷18號","121.463256666667","24.990025","6500100","板橋區"
"220094","285-UM","2017/07/15 19:49:16","新北市板橋區長江路一段105巷1-1號","121.45929","25.0299816666667","6500100","板橋區"
"220053","285-VK","2017/07/15 19:49:19","新北市板橋區中山路二段90巷37號","121.475981666667","25.0153233333333","6500100","板橋區"
"220083","286-VK","2017/07/15 19:49:24","新北市板橋區龍興街71巷1號","121.443741666667","25.0016716666667","6500100","板橋區"
"220081","287-VK","2017/07/15 19:49:31","新北市板橋區大觀路一段29巷131弄21號","121.450596666667","25.0048983333333","6500100","板橋區"
"220090","288-VK","2017/07/15 19:49:27","新北市板橋區龍泉街54巷7弄2號","121.456795","25.026615","6500100","板橋區"
"220061","293-UM","2017/07/15 19:49:26","新北市板橋區板新路200巷6號","121.469096666667","25.0161316666667","6500100","板橋區"
"220084","296-UM","2017/07/15 19:49:22","新北市板橋區滿平二街12號","121.425463333333","24.9868133333333","6500100","板橋區"
"220075","297-UM","2017/07/15 19:49:20","新北市板橋區金華街10巷5號","121.455973333333","25.0201016666667","6500100","板橋區"
"220062","303-R5","2017/07/15 19:49:20","新北市板橋區中山路二段416巷60號","121.48294","25.0188666666667","6500100","板橋區"
"220092","307-R5","2017/07/15 19:49:35","新北市板橋區四維路177巷1弄7號","121.464391666667","25.02604","6500100","板橋區"
"220098","317-R6","2017/07/15 19:49:32","新北市板橋區四維路269巷86號","121.459846666667","25.0267566666667","6500100","板橋區"
"220080","461-BY","2017/07/15 19:49:23","新北市板橋區大觀路二段37巷38號","121.448635","25.00274","6500100","板橋區"
"220089","487-VK","2017/07/15 19:49:31","新北市板橋區龍泉街84-3號","121.456378333333","25.0254283333333","6500100","板橋區"
"220088","491-VK","2017/07/15 19:49:23","新北市板橋區仁化街88號","121.476298333333","25.0319766666667","6500100","板橋區"
"220035","560-BX","2017/07/15 19:49:30","新北市板橋區金華街21巷4號","121.456166666667","25.020635","6500100","板橋區"
"220063","609-BX","2017/07/15 19:49:34","新北市板橋區中山路二段68號","121.474365","25.0159433333333","6500100","板橋區"
"220057","686-BX","2017/07/15 19:49:30","新北市板橋區和平路安樂巷53號","121.4623","24.993105","6500100","板橋區"
"220077","687-BX","2017/07/15 19:49:20","新北市板橋區僑中一街150號","121.44484","25.0120916666667","6500100","板橋區"
"220093","689-BX","2017/07/15 19:49:19","新北市板橋區長江路二段165號","121.46644","25.031975","6500100","板橋區"
"220054","741-BX","2017/07/15 19:49:25","新北市板橋區忠孝路忠義巷15弄55號","121.465468333333","25.0048633333333","6500100","板橋區"
"220055","827-TW","2017/07/15 19:49:16","新北市板橋區國慶路149巷13弄13號","121.46035","24.9967866666667","6500100","板橋區"
"220067","829-TW","2017/07/15 19:49:29","新北市板橋區漢生東路193巷58號","121.472968333333","25.01184","6500100","板橋區"
"220096","831-TW","2017/07/15 19:49:22","新北市板橋區民生路二段240巷25號","121.469203333333","25.0232733333333","6500100","板橋區"
"220074","895-R6","2017/07/15 19:49:35","新北市板橋區福德街32號","121.456031666667","25.0084266666667","6500100","板橋區"
"220073","985-R7","2017/07/15 19:49:25","新北市板橋區國光路10號","121.456785","25.017335","6500100","板橋區"
"220097","AAC-210","2017/07/15 19:49:21","新北市板橋區文化路一段285巷36號","121.463528333333","25.0195533333333","6500100","板橋區"
"220070","AAC-253","2017/07/15 19:49:32","新北市板橋區民族路231號","121.469818333333","25.0071566666667","6500100","板橋區"
