"lineid","car","time","location","longitude","latitude","cityid","cityname"
"249001","759-BX","2017/07/15 21:39:03","新北市八里區挖子尾街6號","121.415446666667","25.1642333333333","6502300","八里區"
"244024","837-TS","2017/07/15 20:10:48","新北市林口區粉寮路二段160巷28號","121.405198333333","25.0907316666667","6501700","林口區"
"243001","297-R6","2017/07/15 21:21:19","新北市泰山區黎明路25號","121.421893333333","25.060785","6501600","泰山區"
"231063","268-BY","2017/07/15 21:39:21","新北市新店區富貴街18巷16號","121.49331","24.9480633333333","6500600","新店區"
"231064","515-UM","2017/07/15 21:39:26","新北市新店區柴埕路100-2號","121.503308333333","24.95933","6500600","新店區"
"241005","262-UM","2017/07/15 21:39:25","新北市三重區碧華街50號","121.4835","25.0812633333333","6500200","三重區"
"241032","269-UM","2017/07/15 21:39:27","新北市八里區下罟子30-35號","121.36761","25.1351266666667","6500200","三重區"
"235026","800-TS","2017/07/15 19:58:27","新北市中和區員山路36巷16-3號","121.485026666667","24.9913283333333","6500300","中和區"
"247006","341-TH","2017/07/15 21:39:19","新北市八里區荖阡坑路15-66號","121.398678333333","25.1410133333333","6501400","蘆洲區"
"247014","057-VK","2017/07/15 21:39:28","新北市五股區中直路21號","121.421368333333","25.1119966666667","6501400","蘆洲區"
"224011","420-VK","2017/07/15 21:39:29","新北市瑞芳區中正路65號","121.806031666667","25.10745","6501200","瑞芳區"
"251009","008-UM","2017/07/15 21:35:32","新北市淡水區民族路31巷64號","121.46291","25.1365516666667","6501000","淡水區"
"251004","009-UM","2017/07/15 21:39:21","新北市淡水區民生路47-4號","121.46202","25.1380233333333","6501000","淡水區"
"251002","012-UM","2017/07/15 21:39:22","新北市淡水區學府路205巷2號","121.446413333333","25.175485","6501000","淡水區"
"251014","180-VK","2017/07/15 21:39:23","新北市淡水區溪口16號","121.455786666667","25.2364833333333","6501000","淡水區"
"251008","181-VK","2017/07/15 21:39:20","新北市淡水區水源街二段76號","121.451105","25.1741633333333","6501000","淡水區"
"251010","413-VK","2017/07/15 21:39:21","新北市淡水區沙崙路216巷56號","121.426243333333","25.184145","6501000","淡水區"
"251012","441-VK","2017/07/15 21:39:19","新北市淡水區牛埔子10-1號","121.449985","25.21866","6501000","淡水區"
"251016","442-VK","2017/07/15 21:39:33","新北市淡水區淡金路二段15號","121.446296666667","25.1892133333333","6501000","淡水區"
"251005","443-VK","2017/07/15 21:39:33","新北市淡水區水源街一段160號","121.448728333333","25.1712816666667","6501000","淡水區"
"251001","559-UM","2017/07/15 21:39:26","新北市淡水區義山路一段401巷66號","121.43698","25.19166","6501000","淡水區"
"251006","561-UM","2017/07/15 21:39:26","新北市淡水區中正路5巷31號","121.44225","25.168915","6501000","淡水區"
"251007","577-R6","2017/07/15 21:39:20","新北市淡水區水源街二段177巷16號","121.455151666667","25.176205","6501000","淡水區"
"251011","650-BX","2017/07/15 21:39:35","新北市淡水區新民街226巷1號","121.436175","25.1806316666667","6501000","淡水區"
"251003","673-BX","2017/07/15 21:39:25","新北市淡水區新春街47號","121.437716666667","25.1819","6501000","淡水區"
"242046","441-UM","2017/07/15 21:39:20","新北市新莊區瓊林南路305巷35號","121.43594","25.0051183333333","6500500","新莊區"
"238022","312-TH","2017/07/15 20:32:02","新北市樹林區育德街78-1號","121.38774","24.968085","6500700","樹林區"
"239006","292-BY","2017/07/15 11:05:50","新北市鶯歌區二甲路13號","121.344028333333","24.9353966666667","6500800","鶯歌區"
"220080","461-BY","2017/07/15 20:22:29","新北市板橋區華東街1-9號","121.448163333333","24.99478","6500100","板橋區"
"220070","AAC-253","2017/07/15 21:39:32","新北市板橋區民生路二段89-6號","121.470583333333","25.01883","6500100","板橋區"
