"lineid","car","time","location","longitude","latitude","cityid","cityname"
"248005","653-BX","2017/08/22 07:44:45","新北市五股區明德路12巷1號","121.433285","25.0716633333333","6501500","五股區"
"232006","290-BY","2017/08/22 08:09:13","新北市坪林區北宜路九段8號","121.720043333333","24.9024016666667","6502000","坪林區"
"244002","248-BX","2017/08/22 08:09:10","新北市林口區下福里80號","121.309015","25.1165316666667","6501700","林口區"
"222005","289-BY","2017/08/22 08:09:04","新北市深坑區昇高坑路51-1號","121.629778333333","24.9949433333333","6501800","深坑區"
"231007","189-VK","2017/08/22 08:09:20","新北市新店區華潭街1巷49號","121.527461666667","24.9472216666667","6500600","新店區"
"231007","192-VK","2017/08/22 08:09:12","新北市新店區環河路2號","121.538465","24.961755","6500600","新店區"
"235001","255-BX","2017/08/22 08:09:19","新北市中和區福美路267號","121.498301666667","25.0048633333333","6500300","中和區"
"235043","352-BY","2017/08/22 08:09:07","新北市中和區景新街153號","121.506573333333","24.9965733333333","6500300","中和區"
"220072","015-TV","2017/08/22 08:09:13","新北市五股區新五路二段88號","121.437083333333","25.074695","6500100","板橋區"
"226005","5620-A6","2017/08/22 08:09:03","新北市平溪區南山里乾坑10號","121.789191666667","25.0479033333333","6502400","平溪區"
"226002","8452-VL","2017/08/22 08:09:07","新北市平溪區十分里十分街51號","121.775158333333","25.0407233333333","6502400","平溪區"
"226003","AGD-0702","2017/08/22 08:09:04","新北市平溪區十分里十分街45號","121.774533333333","25.0408883333333","6502400","平溪區"
"223006","022-BY","2017/08/22 08:09:14","新北市坪林區水柳腳16號","121.711126666667","24.9350733333333","6501900","石碇區"
"223002","198-BX","2017/08/22 08:08:58","新北市石碇區北宜路六段獅子頭坑巷16號","121.64244","24.93223","6501900","石碇區"
"223003","205-TH","2017/08/22 07:52:02","新北市石碇區崩山36-1號","121.672285","24.95806","6501900","石碇區"
"223008","406-TH","2017/08/22 08:09:06","新北市石碇區靜安路一段245號","121.68783","25.007975","6501900","石碇區"
"223001","437-BY","2017/08/22 08:09:15","新北市石碇區大格門5號","121.667605","24.9561533333333","6501900","石碇區"
"223004","660-BX","2017/08/22 08:09:15","新北市石碇區外按16-1號","121.650806666667","24.9974283333333","6501900","石碇區"
"223007","661-BX","2017/08/22 08:09:18","新北市石碇區靜安路一段282號","121.687786666667","25.0094483333333","6501900","石碇區"
"223005","677-TV","2017/08/22 08:09:06","新北市石碇區外按16-1號","121.650745","24.997455","6501900","石碇區"
"227006","282-VK","2017/08/22 08:09:12","新北市雙溪區牡丹里中正路78號","121.862398333333","25.0463216666667","6502500","雙溪區"
"253003","4710-YM","2017/08/22 08:09:09","新北市石門區楓林7號","121.537835","25.2950033333333","6502200","石門區"
"252004","249-BX","2017/08/22 08:08:51","新北市三芝區興華里車埕62號","121.49869","25.19691","6502100","三芝區"
"252007","AAC-283","2017/08/22 08:09:18","新北市三芝區後厝里大片頭99號","121.460386666667","25.243315","6502100","三芝區"
"237001","159-UY","2017/08/22 08:09:19","新北市三峽區學成路278-3號","121.376381666667","24.9433983333333","6500900","三峽區"
"236008","165-UM","2017/08/22 08:09:04","新北市土城區青雲路497號","121.458806666667","24.9734633333333","6501300","土城區"
"236002","339-SR","2017/08/22 08:09:13","新北市土城區龍泉路66-2號","121.414813333333","24.9414633333333","6501300","土城區"
"236006","498-BY","2017/08/22 08:09:08","新北市土城區永平街51號","121.427553333333","24.95903","6501300","土城區"
