"lineid","car","time","location","longitude","latitude","cityid","cityname"
"248005","653-BX","2017/08/22 10:09:01","新北市五股區中興路二段83巷26-6號","121.460078333333","25.0753133333333","6501500","五股區"
"231007","189-VK","2017/08/22 10:08:59","新北市新店區新潭路三段215巷25號","121.50814","24.904055","6500600","新店區"
"231009","192-VK","2017/08/22 09:41:12","新北市新店區平廣路一段205號","121.514481666667","24.889535","6500600","新店區"
"223002","198-BX","2017/08/22 09:18:17","新北市石碇區小粗坑(潭邊里)6號","121.67506","24.9842716666667","6501900","石碇區"
"227006","282-VK","2017/08/22 10:09:12","新北市雙溪區長源里柑腳18號","121.804698333333","25.0141116666667","6502500","雙溪區"
"227012","030-BX","2017/08/22 10:08:59","新北市雙溪區泰平里烏山路15號","121.79475","24.9501666666667","6502500","雙溪區"
"253003","4710-YM","2017/08/22 10:09:12","新北市石門區中山路64-1號","121.567421666667","25.290305","6502200","石門區"
"252004","249-BX","2017/08/22 10:09:11","新北市三芝區忠孝街116號","121.505928333333","25.2573116666667","6502100","三芝區"
"252007","AAC-283","2017/08/22 10:09:18","新北市三芝區新庄里新庄子131號","121.503886666667","25.2707183333333","6502100","三芝區"
