"lineid","car","time","location","longitude","latitude","cityid","cityname"
"234028","746-BX","2017/08/22 11:48:49","新北市永和區福和路1號","121.526471666667","25.0099116666667","6500400","永和區"
"248012","655-BX","2017/08/22 10:34:42","新北市五股區中興路二段83巷26-6號","121.46003","25.0752633333333","6501500","五股區"
"231009","192-VK","2017/08/22 11:34:12","新北市新店區成功路210號","121.52842","24.8886","6500600","新店區"
"228004","212-TW","2017/08/22 11:48:34","新北市貢寮區貢寮里朝陽街1-2號","121.912193333333","25.0212583333333","6502600","貢寮區"
"228005","828-UM","2017/08/22 11:48:39","新北市貢寮區貢寮里朝陽街1-2號","121.912365","25.02124","6502600","貢寮區"
"227006","282-VK","2017/08/22 11:48:52","新北市雙溪區魚行里魚杭1號","121.883786666667","25.0266216666667","6502500","雙溪區"
