"lineid","car","time","location","longitude","latitude","cityid","cityname"
"234068","552-UM","2017/08/22 12:18:33","新北市永和區福和路1號","121.525445","25.00962","6500400","永和區"
"234028","746-BX","2017/08/22 12:18:49","新北市永和區福和路1號","121.526355","25.0096516666667","6500400","永和區"
"234040","862-TW","2017/08/22 12:18:46","新北市永和區福和路1號","121.52641","25.009725","6500400","永和區"
"248012","655-BX","2017/08/22 10:34:42","新北市五股區中興路二段83巷26-6號","121.46003","25.0752633333333","6501500","五股區"
"231069","189-VK","2017/08/22 11:53:09","新北市新店區安華路28-1號","121.519686666667","24.9611016666667","6500600","新店區"
"231009","192-VK","2017/08/22 12:18:32","新北市新店區頂石厝路26號","121.539128333333","24.9187066666667","6500600","新店區"
"235031","255-BX","2017/08/22 12:08:25","新北市中和區和城路一段271巷1號","121.485496666667","24.991865","6500300","中和區"
"228004","212-TW","2017/08/22 12:18:34","新北市貢寮區貢寮里長泰路15號","121.89634","25.0207416666667","6502600","貢寮區"
"228005","828-UM","2017/08/22 12:18:39","新北市貢寮區福連里福連街34號","121.988368333333","25.0112216666667","6502600","貢寮區"
"221012","276-VK","2017/08/22 12:18:44","新北市汐止區中正路250號","121.657365","25.06871","6501100","汐止區"
