"lineid","car","time","location","longitude","latitude","cityid","cityname"
"234044","148-BY","2017/08/22 13:59:07","新北市永和區永利路196號","121.522826666667","25.0023333333333","6500400","永和區"
"234012","149-BY","2017/08/22 13:59:19","新北市永和區仁愛路295號","121.505281666667","25.0093183333333","6500400","永和區"
"234005","207-UY","2017/08/22 13:59:11","新北市中和區中和路302號","121.508891666667","24.9998266666667","6500400","永和區"
"234078","298-R6","2017/08/22 13:59:11","新北市永和區永亨路114號","121.523798333333","25.0043883333333","6500400","永和區"
"234036","336-UY","2017/08/22 13:59:14","新北市永和區成功路一段126號","121.526798333333","25.0022683333333","6500400","永和區"
"234062","337-UY","2017/08/22 13:59:27","新北市永和區中正路368巷1弄47號","121.519223333333","25.0011983333333","6500400","永和區"
"234084","338-UY","2017/08/22 13:59:22","新北市永和區福和路127號","121.52153","25.0078516666667","6500400","永和區"
"234068","552-UM","2017/08/22 13:59:17","新北市永和區永安街14號","121.519105","25.0061833333333","6500400","永和區"
"234052","553-UM","2017/08/22 13:59:15","新北市永和區環河東路一段122號","121.520723333333","25.0155183333333","6500400","永和區"
"234015","745-BX","2017/08/22 13:59:28","新北市永和區文化路7號","121.515421666667","25.0150066666667","6500400","永和區"
"234028","746-BX","2017/08/22 13:59:28","新北市永和區民權路49巷21號","121.521155","24.9974783333333","6500400","永和區"
"234060","AAD-866","2017/08/22 13:59:23","新北市永和區中正路151巷2號","121.516191666667","24.9985783333333","6500400","永和區"
"234040","862-TW","2017/08/22 13:59:06","新北市永和區中和路335巷18弄3號","121.507598333333","25.000365","6500400","永和區"
"234048","863-TW","2017/08/22 13:59:09","新北市永和區保安路260號","121.505913333333","25.0124833333333","6500400","永和區"
"234025","9371-KE","2017/08/22 13:59:11","新北市永和區自由街56號","121.513786666667","25.00605","6500400","永和區"
"234010","9373-KE","2017/08/22 13:59:12","新北市永和區仁愛路352巷122弄13號","121.500771666667","25.00886","6500400","永和區"
"248017","225-UY","2017/08/22 13:59:09","新北市五股區民義路一段287巷2-8號","121.423405","25.09025","6501500","五股區"
"248012","655-BX","2017/08/22 10:34:42","新北市五股區中興路二段83巷26-6號","121.46003","25.0752633333333","6501500","五股區"
"234022","9380-KE","2017/08/22 13:59:14","新北市永和區永和路二段276巷2弄1號","121.516486666667","25.0153133333333","6500400","永和區"
"234076","969-R7","2017/08/22 13:59:18","新北市永和區民族街67巷10號","121.519001666667","24.9971733333333","6500400","永和區"
"234072","AAC-211","2017/08/22 13:59:22","新北市永和區豫溪街145號","121.520733333333","25.0104016666667","6500400","永和區"
"234066","AAC-212","2017/08/22 13:59:11","新北市永和區永貞路356號","121.510203333333","25.0064933333333","6500400","永和區"
"234001","AAC-295","2017/08/22 13:59:22","新北市永和區福和路318號","121.51575","25.0072883333333","6500400","永和區"
"231002","002-UM","2017/08/22 13:59:27","新北市新店區中正路627號","121.533838333333","24.9890616666667","6500600","新店區"
"231028","046-UY","2017/08/22 13:59:25","新北市新店區安和路三段112號","121.5174","24.985325","6500600","新店區"
"231030","047-UY","2017/08/22 13:59:22","新北市新店區安興路7號","121.515033333333","24.968225","6500600","新店區"
"231029","106-UY","2017/08/22 13:59:11","新北市新店區安和路一段5號","121.51682","24.963945","6500600","新店區"
"231018","107-UY","2017/08/22 13:59:14","新北市新店區中央路98-1號","121.531501666667","24.975685","6500600","新店區"
"231012","108-UY","2017/08/22 13:59:17","新北市新店區五峰路83號","121.546233333333","24.9676283333333","6500600","新店區"
"231020","187-VK","2017/08/22 13:58:13","新北市新店區頂石厝路26號","121.537846666667","24.9188883333333","6500600","新店區"
"231069","189-VK","2017/08/22 11:53:09","新北市新店區安華路28-1號","121.519686666667","24.9611016666667","6500600","新店區"
"231026","256-BX","2017/08/22 13:59:30","新北市新店區中央路167-3號","121.533535","24.97025","6500600","新店區"
"231034","268-BY","2017/08/22 13:59:11","新北市新店區達觀路24號","121.501846666667","24.9409083333333","6500600","新店區"
"231015","AAD-862","2017/08/22 13:59:18","新北市新店區北宜路二段144號","121.557425","24.9539266666667","6500600","新店區"
"231027","3712-VJ","2017/08/22 13:59:23","新北市新店區中興路一段24-2號","121.538505","24.9581833333333","6500600","新店區"
"231024","3713-VJ","2017/08/22 13:59:12","新北市新店區力行路12號","121.539413333333","24.9646433333333","6500600","新店區"
"231025","4716-K9","2017/08/22 13:59:30","新北市新店區中正路358號","121.53567","24.9758016666667","6500600","新店區"
"231038","4715-K9","2017/08/22 13:59:28","新北市新店區溪洲路121號","121.531188333333","24.9628316666667","6500600","新店區"
"231036","512-UM","2017/08/22 13:59:14","新北市新店區安祥路109巷1弄43號","121.47712","24.960475","6500600","新店區"
"231023","513-UM","2017/08/22 13:59:19","新北市新店區文中路40號","121.53978","24.956535","6500600","新店區"
"231003","616-UM","2017/08/22 13:59:17","新北市新店區光明街36號","121.538721666667","24.9590683333333","6500600","新店區"
"231006","617-UM","2017/08/22 13:59:18","新北市新店區北宜路二段215號","121.553261666667","24.9534033333333","6500600","新店區"
"231001","619-UM","2017/08/22 13:59:18","新北市新店區三民路24號","121.537196666667","24.9710733333333","6500600","新店區"
"231013","719-UM","2017/08/22 13:59:26","新北市新店區明德路66號","121.541568333333","24.9795016666667","6500600","新店區"
"231035","719-UY","2017/08/22 13:59:23","新北市新店區安康路二段85巷1號","121.513563333333","24.9625833333333","6500600","新店區"
"231032","720-UM","2017/08/22 13:59:24","新北市新店區太平路16號","121.533763333333","24.9583066666667","6500600","新店區"
"231005","897-TW","2017/08/22 13:59:20","新北市新店區中興路三段160號","121.544338333333","24.9807916666667","6500600","新店區"
"231004","899-TW","2017/08/22 13:59:26","新北市新店區寶橋路2號","121.543155","24.9734766666667","6500600","新店區"
"231037","AKT-0513","2017/08/22 13:59:11","新北市新店區安康路三段43號","121.492831666667","24.9527733333333","6500600","新店區"
"235030","003-UY","2017/08/22 13:59:25","新北市中和區中山路二段131巷5弄10號","121.50311","25.003035","6500300","中和區"
"235028","005-UY","2017/08/22 13:59:23","新北市中和區泰和街44巷14號","121.498755","25.000385","6500300","中和區"
"235020","096-UM","2017/08/22 13:59:11","新北市中和區員山路570號","121.478815","25.011235","6500300","中和區"
"235003","097-UM","2017/08/22 13:59:21","新北市中和區景平路64巷13弄9號","121.521895","24.9911483333333","6500300","中和區"
"235029","098-UM","2017/08/22 13:59:17","新北市中和區中山路二段2巷89號","121.500675","25.00772","6500300","中和區"
"235004","150-BY","2017/08/22 13:59:20","新北市中和區保健路46巷20弄2號","121.508956666667","24.9961633333333","6500300","中和區"
"235022","151-BY","2017/08/22 13:59:22","新北市中和區連城路532巷3-6號","121.475295","24.9919883333333","6500300","中和區"
"235019","183-VK","2017/08/22 13:59:14","新北市板橋區民族路276巷15號","121.469705","25.00599","6500300","中和區"
"235002","185-VK","2017/08/22 13:59:08","新北市中和區立人街34號","121.51839","24.994115","6500300","中和區"
"235013","186-VK","2017/08/22 13:59:11","新北市中和區景安路167巷25號","121.506658333333","24.9950183333333","6500300","中和區"
"235031","255-BX","2017/08/22 13:59:10","新北市中和區連城路340巷14弄3號","121.483293333333","24.9971566666667","6500300","中和區"
"235008","293-VK","2017/08/22 13:59:21","新北市中和區中興街208號","121.499791666667","24.9902316666667","6500300","中和區"
"235036","301-VK","2017/08/22 13:59:23","新北市中和區中山路二段78號","121.50364","25.0043783333333","6500300","中和區"
"235007","352-BY","2017/08/22 13:59:12","新北市中和區成功路1巷4號","121.526396666667","24.9944866666667","6500300","中和區"
"235015","376-QA","2017/08/22 13:59:09","新北市中和區忠孝街31巷23號","121.510133333333","24.983515","6500300","中和區"
"235032","377-QA","2017/08/22 13:59:17","新北市中和區安邦街132號","121.497348333333","24.9955783333333","6500300","中和區"
"235025","378-QA","2017/08/22 13:59:18","新北市中和區民享街53號","121.474218333333","25.0026833333333","6500300","中和區"
"235014","4979-A6","2017/08/22 00:58:23","新北市中和區員山路36巷13號","121.48428","24.9911083333333","6500300","中和區"
"235033","4980-A6","2017/08/22 13:59:21","新北市中和區圓通路121巷2-1號","121.500015","24.9952233333333","6500300","中和區"
"235006","551-UM","2017/08/22 13:59:16","新北市中和區秀朗路三段10巷37弄13號","121.52414","24.9957816666667","6500300","中和區"
"235034","558-UM","2017/08/22 13:59:27","新北市中和區中和路162號","121.504088333333","24.9995616666667","6500300","中和區"
"235009","565-BX","2017/08/22 13:59:11","新北市中和區景新街421號","121.512773333333","24.9892283333333","6500300","中和區"
"235018","640-BX","2017/08/22 13:59:10","新北市中和區民享街27巷1號","121.474051666667","25.0048233333333","6500300","中和區"
"235024","647-TV","2017/08/22 13:59:09","新北市中和區中山路三段206號","121.471605","25.0064966666667","6500300","中和區"
"235011","732-UM","2017/08/22 13:59:25","新北市中和區興南路二段54巷2-8號","121.506","24.9856133333333","6500300","中和區"
"235010","733-UM","2017/08/22 13:59:14","新北市中和區興南路二段11號","121.508196666667","24.9862383333333","6500300","中和區"
"235026","800-TS","2017/08/22 13:59:25","新北市中和區中山路二段340巷34號","121.493405","25.0037116666667","6500300","中和區"
"235021","801-TS","2017/08/22 13:59:14","新北市中和區民利街14巷3-3號","121.480608333333","24.9994783333333","6500300","中和區"
"235005","802-TS","2017/08/22 13:59:28","新北市中和區中安街8號","121.513545","25.0032816666667","6500300","中和區"
"235016","805-TS","2017/08/22 13:59:25","新北市中和區興南路二段186號","121.503558333333","24.98226","6500300","中和區"
"235012","896-TW","2017/08/22 13:59:09","新北市中和區華新街32號","121.507806666667","24.984495","6500300","中和區"
"235017","900-TW","2017/08/22 13:59:20","新北市中和區華福街42巷1弄6號","121.466648333333","24.9961866666667","6500300","中和區"
"235035","911-UM","2017/08/22 13:59:22","新北市中和區立德街98巷55號","121.487651666667","25.0090066666667","6500300","中和區"
"235001","AAC-213","2017/08/22 13:59:18","新北市中和區自立路99巷1號","121.522203333333","24.99483","6500300","中和區"
"235023","AAC-215","2017/08/22 13:59:14","新北市中和區圓通路367巷20弄23號","121.49143","24.9883266666667","6500300","中和區"
"220016","013-TV","2017/08/22 13:59:11","新北市板橋區中山路二段465巷3號","121.481646666667","25.0207416666667","6500100","板橋區"
"220013","072-UY","2017/08/22 13:59:24","新北市板橋區漢生東路326巷2弄1號","121.471486666667","25.0078666666667","6500100","板橋區"
"220034","073-UY","2017/08/22 13:59:21","新北市板橋區中正路236巷10號","121.456191666667","25.01907","6500100","板橋區"
"220017","AAD-861","2017/08/22 13:59:14","新北市板橋區大華街11號","121.459013333333","25.006205","6500100","板橋區"
"220051","120-SR","2017/08/22 13:59:11","新北市板橋區萬板路706號","121.481735","25.027105","6500100","板橋區"
"247019","893-R6","2017/08/22 13:59:26","新北市蘆洲區民族路422巷35-1號","121.473535","25.0937583333333","6501400","蘆洲區"
"247009","546-UM","2017/08/22 13:59:26","新北市蘆洲區中興街48號","121.481626666667","25.0872416666667","6501400","蘆洲區"
"247017","500-BY","2017/08/22 13:59:23","新北市蘆洲區民族路255巷18號","121.476023333333","25.0895066666667","6501400","蘆洲區"
"247007","339-TH","2017/08/22 13:59:25","新北市三重區永安北路一段9號","121.476026666667","25.0747616666667","6501400","蘆洲區"
"247001","336-TH","2017/08/22 13:59:22","新北市蘆洲區永平街32巷64弄1號","121.460228333333","25.093165","6501400","蘆洲區"
"247013","057-VK","2017/08/22 13:59:18","新北市蘆洲區中正路187號","121.468593333333","25.0856833333333","6501400","蘆洲區"
"247003","056-VK","2017/08/22 13:59:14","新北市蘆洲區長榮路22-2號","121.463648333333","25.082355","6501400","蘆洲區"
"247005","053-VK","2017/08/22 13:59:14","新北市蘆洲區永安南路二段14號","121.46739","25.0770266666667","6501400","蘆洲區"
"247015","001-UY","2017/08/22 13:59:23","新北市蘆洲區光華路30號","121.469313333333","25.0833816666667","6501400","蘆洲區"
"228004","212-TW","2017/08/22 13:59:14","新北市貢寮區龍崗里嵩陽街35-3號","121.906653333333","25.017405","6502600","貢寮區"
"228005","828-UM","2017/08/22 13:57:39","新北市貢寮區美豐里雞母嶺街52-1號","121.888505","25.068445","6502600","貢寮區"
"208004","AAC-292","2017/08/22 13:59:05","新北市金山區山城路10巷18號","121.593526666667","25.2018916666667","6502700","金山區"
"251001","757-BX","2017/08/22 13:59:16","新北市淡水區民生路47-4號","121.46216","25.1380816666667","6501000","淡水區"
"207002","749-BX","2017/08/22 13:59:19","新北市萬里區溪底里瑞泉路1號","121.611141666667","25.1460183333333","6502800","萬里區"
"207001","662-BX","2017/08/22 13:59:06","新北市萬里區磺潭里清水18號","121.637928333333","25.19775","6502800","萬里區"
"252005","AAC-283","2017/08/22 13:59:21","新北市三芝區橫山里橫山31-1號","121.544251666667","25.2578116666667","6502100","三芝區"
"236065","105-UM","2017/08/22 13:59:23","新北市土城區中正路8號","121.442646666667","24.975005","6501300","土城區"
"236041","107-UM","2017/08/22 13:59:30","新北市土城區裕生路61號","121.447583333333","24.9859883333333","6501300","土城區"
"236075","166-UM","2017/08/22 13:59:13","新北市土城區永寧路32巷10弄21號","121.42896","24.9610266666667","6501300","土城區"
"236029","253-BX","2017/08/22 13:59:13","新北市土城區城林路6巷80號","121.438391666667","24.9798483333333","6501300","土城區"
"236025","269-VK","2017/08/22 13:59:16","新北市土城區承天路67號","121.439568333333","24.9635666666667","6501300","土城區"
"236013","270-VK","2017/08/22 13:59:21","新北市土城區城林路6巷80號","121.43838","24.9798316666667","6501300","土城區"
"236034","271-VK","2017/08/22 13:59:27","新北市土城區中央路二段280號","121.44075","24.9740933333333","6501300","土城區"
"236017","401-BY","2017/08/22 13:59:14","新北市土城區城林路6巷80號","121.438678333333","24.9798233333333","6501300","土城區"
"236006","498-BY","2017/08/22 13:59:19","新北市土城區中華路一段10-1號","121.448013333333","24.990675","6501300","土城區"
"236057","912-UM","2017/08/22 13:59:26","新北市土城區大安路2號","121.432758333333","24.96544","6501300","土城區"
"236045","913-UM","2017/08/22 13:59:13","新北市土城區城林路6巷80號","121.438306666667","24.97977","6501300","土城區"
"236061","915-UM","2017/08/22 13:59:27","新北市土城區城林路6巷80號","121.438436666667","24.9798833333333","6501300","土城區"
"236054","AAC-216","2017/08/22 13:59:26","新北市土城區城林路6巷80號","121.43835","24.979815","6501300","土城區"
"242044","347-TH","2017/08/22 13:59:18","新北市樹林區中山路三段214號","121.379965","24.9678766666667","6500500","新莊區"
"221012","276-VK","2017/08/22 13:25:14","新北市汐止區汐萬路一段256巷3號","121.653455","25.074615","6501100","汐止區"
"221002","753-BX","2017/08/22 13:59:25","台北市文山區老泉街45巷11-4號","121.571978333333","24.9764533333333","6501100","汐止區"
"220027","145-BY","2017/08/22 13:59:28","新北市板橋區民權路202巷1弄2-3號","121.45945","25.0141683333333","6500100","板橋區"
"220028","200-UY","2017/08/22 13:59:18","新北市板橋區大觀路二段文和巷67號","121.443551666667","24.9985366666667","6500100","板橋區"
"220030","610-BX","2017/08/22 13:59:15","新北市板橋區篤行路二段138號","121.429708333333","24.9883533333333","6500100","板橋區"
"220050","245-BX","2017/08/22 13:59:25","新北市板橋區文化路二段19號","121.468745","25.0245766666667","6500100","板橋區"
"220023","256-TC","2017/08/22 13:59:14","新北市板橋區南雅東路100巷13號","121.453971666667","25.0077466666667","6500100","板橋區"
"220105","257-TC","2017/08/22 13:59:24","新北市板橋區文化路二段124巷28-2號","121.471293333333","25.0257216666667","6500100","板橋區"
"220043","267-BY","2017/08/22 13:59:27","新北市板橋區文化路二段76號","121.469425","25.0250316666667","6500100","板橋區"
"220004","276-BY","2017/08/22 13:59:12","新北市板橋區信義路91-2號","121.457316666667","24.9938","6500100","板橋區"
"220020","277-BY","2017/08/22 13:59:24","新北市板橋區大觀路三段50巷49號","121.432025","24.99575","6500100","板橋區"
"220019","283-VK","2017/08/22 13:59:28","新北市板橋區忠孝路176巷48號","121.46548","25.0017133333333","6500100","板橋區"
"220001","285-VK","2017/08/22 13:59:29","新北市板橋區中山路二段89巷66號","121.473635","25.017565","6500100","板橋區"
"220029","287-VK","2017/08/22 13:59:20","新北市板橋區光華街19巷31號","121.452945","25.0119","6500100","板橋區"
"220039","288-VK","2017/08/22 13:59:26","新北市板橋區四維路179號","121.4643","25.0263833333333","6500100","板橋區"
"220009","293-UM","2017/08/22 13:59:11","新北市板橋區富山街83號","121.47677","25.0218633333333","6500100","板橋區"
"220032","296-UM","2017/08/22 13:59:14","新北市板橋區大觀路二段174巷102弄32號","121.441921666667","25.0012233333333","6500100","板橋區"
"220010","303-R5","2017/08/22 13:59:05","新北市中和區員山路568號","121.478875","25.01083","6500100","板橋區"
"220041","307-R5","2017/08/22 13:59:29","新北市板橋區文化路一段104巷4號","121.464968333333","25.0179433333333","6500100","板橋區"
"220047","317-R6","2017/08/22 13:59:17","新北市板橋區民有街32號","121.466125","25.0254783333333","6500100","板橋區"
"220012","486-VK","2017/08/22 13:59:06","新北市板橋區縣民大道二段98號","121.466676666667","25.01473","6500100","板橋區"
"220038","487-VK","2017/08/22 13:59:16","新北市板橋區文化路二段26號","121.468875","25.0245166666667","6500100","板橋區"
"220037","491-VK","2017/08/22 13:59:18","新北市板橋區民生路二段250號","121.46839","25.0232966666667","6500100","板橋區"
"220104","560-BX","2017/08/22 13:59:28","新北市板橋區中正路375巷30號","121.453596666667","25.020795","6500100","板橋區"
"220052","561-BX","2017/08/22 13:59:11","新北市板橋區介壽街86號","121.470263333333","25.01838","6500100","板橋區"
"220003","568-UM","2017/08/22 13:59:19","新北市板橋區民安街22-1號","121.466921666667","25.0115633333333","6500100","板橋區"
"220011","609-BX","2017/08/22 13:59:24","新北市板橋區中山路二段160號","121.476863333333","25.0172233333333","6500100","板橋區"
"220031","630-UY","2017/08/22 13:59:24","新北市板橋區大觀路一段38巷184號","121.441446666667","25.00474","6500100","板橋區"
"220040","637-BX","2017/08/22 13:59:21","新北市板橋區萬板路165號","121.47411","25.0234666666667","6500100","板橋區"
"220005","686-BX","2017/08/22 13:59:13","新北市板橋區館前西路31號","121.458381666667","25.00679","6500100","板橋區"
"220025","687-BX","2017/08/22 13:59:29","新北市板橋區大觀路二段174巷137號","121.441228333333","25.0021833333333","6500100","板橋區"
"220042","689-BX","2017/08/22 13:59:11","新北市板橋區民生路三段24號","121.467545","25.0245683333333","6500100","板橋區"
"220002","741-BX","2017/08/22 13:59:16","新北市板橋區後埔街28號","121.460455","25.00631","6500100","板橋區"
"220014","829-TW","2017/08/22 13:59:22","新北市板橋區三民路二段正隆巷12弄5號","121.477968333333","25.0131383333333","6500100","板橋區"
"220045","831-TW","2017/08/22 01:33:42","新北市板橋區民生路二段120號","121.470508333333","25.0194916666667","6500100","板橋區"
"220022","895-R6","2017/08/22 13:59:09","新北市板橋區南雅南路一段119號","121.455228333333","25.0048216666667","6500100","板橋區"
"220021","985-R7","2017/08/22 13:59:16","新北市板橋區館前西路195號","121.455248333333","25.008375","6500100","板橋區"
"220046","AAC-210","2017/08/22 13:59:13","新北市板橋區陽明街162號","121.463468333333","25.024475","6500100","板橋區"
"220018","AAC-253","2017/08/22 13:59:11","新北市板橋區中山路一段34號","121.46048","25.0086566666667","6500100","板橋區"
