"lineid","car","time","location","longitude","latitude","cityid","cityname"
"234044","148-BY","2017/08/22 14:09:07","新北市永和區成功路一段121號","121.52688","25.00194","6500400","永和區"
"234012","149-BY","2017/08/22 14:09:19","新北市永和區保生路5巷3號","121.50602","25.0070783333333","6500400","永和區"
"234005","207-UY","2017/08/22 14:09:11","新北市中和區光華街59-1號","121.506253333333","25.003275","6500400","永和區"
"234078","298-R6","2017/08/22 14:09:11","新北市永和區國中路206號","121.522138333333","25.0060416666667","6500400","永和區"
"234036","336-UY","2017/08/22 14:08:58","新北市永和區成功路一段93巷20弄3號","121.528453333333","25.0026283333333","6500400","永和區"
"234062","337-UY","2017/08/22 14:09:27","新北市永和區永利路94巷1號","121.52076","25.0035216666667","6500400","永和區"
"234084","338-UY","2017/08/22 14:09:20","新北市永和區福和路280巷6弄4號","121.517926666667","25.00767","6500400","永和區"
"234068","552-UM","2017/08/22 14:09:20","新北市永和區永寧街69號","121.519773333333","25.0067616666667","6500400","永和區"
"234052","553-UM","2017/08/22 14:09:14","新北市永和區博愛街9號","121.516941666667","25.01587","6500400","永和區"
"234015","745-BX","2017/08/22 14:09:28","新北市永和區仁愛路89號","121.513053333333","25.0131266666667","6500400","永和區"
"234028","746-BX","2017/08/22 14:09:08","新北市永和區中正路93號","121.515416666667","24.9972466666667","6500400","永和區"
"234060","AAD-866","2017/08/22 14:09:23","新北市永和區得和路9號","121.51508","25.00074","6500400","永和區"
"234040","862-TW","2017/08/22 14:09:06","新北市永和區雙和街16巷20號","121.509998333333","25.002745","6500400","永和區"
"234048","863-TW","2017/08/22 14:09:09","新北市永和區環河西路二段23號","121.507643333333","25.0158516666667","6500400","永和區"
"234025","9371-KE","2017/08/22 14:09:11","新北市永和區安樂路272巷11號","121.515043333333","25.0044183333333","6500400","永和區"
"234010","9373-KE","2017/08/22 14:09:12","新北市永和區仁愛路352巷138號","121.499873333333","25.0087966666667","6500400","永和區"
"248017","225-UY","2017/08/22 14:09:09","新北市五股區民義路一段255-6號","121.425985","25.0914766666667","6501500","五股區"
"248012","655-BX","2017/08/22 10:34:42","新北市五股區中興路二段83巷26-6號","121.46003","25.0752633333333","6501500","五股區"
"234022","9380-KE","2017/08/22 14:09:14","新北市永和區竹林路39巷1號","121.518085","25.0143333333333","6500400","永和區"
"234076","969-R7","2017/08/22 14:09:18","新北市永和區民權路92號","121.519663333333","24.9967366666667","6500400","永和區"
"234072","AAC-211","2017/08/22 14:09:22","新北市永和區竹林路201巷21號","121.521656666667","25.0093166666667","6500400","永和區"
"234066","AAC-212","2017/08/22 14:09:11","新北市永和區永貞路358號","121.510195","25.00657","6500400","永和區"
"234001","AAC-295","2017/08/22 14:09:23","新北市永和區中正路730號","121.515588333333","25.01009","6500400","永和區"
"231002","002-UM","2017/08/22 14:09:07","新北市新店區中正路503-6號","121.533516666667","24.984435","6500600","新店區"
"231028","046-UY","2017/08/22 14:09:14","新北市新店區安和路二段220號","121.517826666667","24.9756283333333","6500600","新店區"
"231030","047-UY","2017/08/22 14:09:18","新北市新店區安民街65巷21-2號","121.515283333333","24.9674733333333","6500600","新店區"
"231029","106-UY","2017/08/22 14:09:11","新北市新店區安康路二段161號","121.510255","24.9593316666667","6500600","新店區"
"231018","107-UY","2017/08/22 14:09:14","新北市新店區中央五街12號","121.529645","24.9741566666667","6500600","新店區"
"231012","108-UY","2017/08/22 14:09:19","新北市新店區五峰路63巷8弄42號","121.54787","24.9686683333333","6500600","新店區"
"231020","187-VK","2017/08/22 14:08:53","新北市新店區新烏路二段126號","121.549468333333","24.9204366666667","6500600","新店區"
"231069","189-VK","2017/08/22 11:53:09","新北市新店區安華路28-1號","121.519686666667","24.9611016666667","6500600","新店區"
"231026","256-BX","2017/08/22 14:09:10","新北市新店區安華路28-1號","121.519645","24.960855","6500600","新店區"
"231034","268-BY","2017/08/22 14:09:11","新北市新店區黎明路3號","121.50353","24.952445","6500600","新店區"
"231015","AAD-862","2017/08/22 14:09:17","新北市新店區北宜路二段361-3號","121.558628333333","24.9542083333333","6500600","新店區"
"231027","3712-VJ","2017/08/22 14:09:23","新北市新店區中興路一段24號","121.538676666667","24.9581916666667","6500600","新店區"
"231025","4716-K9","2017/08/22 14:09:10","新北市新店區中正路328巷42弄4號","121.538346666667","24.976245","6500600","新店區"
"231038","4715-K9","2017/08/22 14:09:08","新北市新店區溪洲路121號","121.531188333333","24.96283","6500600","新店區"
"231036","512-UM","2017/08/22 14:09:14","新北市新店區安祥路109巷85弄33號","121.478568333333","24.9598683333333","6500600","新店區"
"231023","513-UM","2017/08/22 14:09:19","新北市新店區文中路40-6號","121.539805","24.9565333333333","6500600","新店區"
"231003","616-UM","2017/08/22 14:09:17","新北市新店區中興路一段140號","121.542291666667","24.963675","6500600","新店區"
"231006","617-UM","2017/08/22 14:09:21","新北市新店區北宜路二段150-1號","121.557806666667","24.953985","6500600","新店區"
"231001","619-UM","2017/08/22 14:09:18","新北市新店區三民路31-10號","121.537815","24.9705016666667","6500600","新店區"
"231013","719-UM","2017/08/22 14:09:26","新北市新店區北新路三段65巷34弄15號","121.540038333333","24.981455","6500600","新店區"
"231035","719-UY","2017/08/22 14:09:23","新北市新店區安和路一段52巷2-1號","121.517655","24.9662583333333","6500600","新店區"
"231032","720-UM","2017/08/22 14:09:24","新北市新店區永業路33巷5號","121.533131666667","24.9548716666667","6500600","新店區"
"231005","897-TW","2017/08/22 14:09:25","新北市新店區中興路三段330號","121.542083333333","24.9866066666667","6500600","新店區"
"231004","899-TW","2017/08/22 14:09:26","新北市新店區北新路二段226號","121.542968333333","24.9772133333333","6500600","新店區"
"231037","AKT-0513","2017/08/22 14:09:11","新北市新店區薏仁坑路2-1號","121.500686666667","24.95803","6500600","新店區"
"235030","003-UY","2017/08/22 14:09:25","新北市中和區廣福路66號","121.503523333333","25.0016516666667","6500300","中和區"
"235028","005-UY","2017/08/22 14:09:23","新北市中和區連城路15號","121.498928333333","25.0021433333333","6500300","中和區"
"235020","096-UM","2017/08/22 14:09:11","新北市中和區員山路568號","121.478711666667","25.0107816666667","6500300","中和區"
"235003","097-UM","2017/08/22 14:09:21","新北市中和區景平路3號","121.52383","24.9903616666667","6500300","中和區"
"235029","098-UM","2017/08/22 14:09:17","新北市中和區中山路二段64巷8號","121.50372","25.005005","6500300","中和區"
"235004","150-BY","2017/08/22 14:09:20","新北市中和區宜安路121號","121.509996666667","24.9978816666667","6500300","中和區"
"235022","151-BY","2017/08/22 14:09:22","新北市中和區員山路115號","121.480998333333","24.9952716666667","6500300","中和區"
"235019","183-VK","2017/08/22 14:09:14","新北市中和區德光路113號","121.468091666667","25.0030716666667","6500300","中和區"
"235002","185-VK","2017/08/22 14:09:08","新北市中和區自強路64號","121.520061666667","24.9943833333333","6500300","中和區"
"235013","186-VK","2017/08/22 14:09:11","新北市中和區明禮街22號","121.504655","24.9961216666667","6500300","中和區"
"235031","255-BX","2017/08/22 14:09:10","新北市中和區新生街191號","121.483718333333","25.0002483333333","6500300","中和區"
"235008","293-VK","2017/08/22 14:09:10","新北市中和區中興街161巷3弄3號","121.500533333333","24.9910016666667","6500300","中和區"
"235036","301-VK","2017/08/22 14:09:21","新北市中和區中山路二段153號","121.501708333333","25.0028016666667","6500300","中和區"
"235007","352-BY","2017/08/22 14:09:12","新北市中和區景平路71號","121.519575","24.9914","6500300","中和區"
"235015","376-QA","2017/08/22 14:09:09","新北市中和區景新街399巷2號","121.51278","24.9898083333333","6500300","中和區"
"235032","377-QA","2017/08/22 14:09:17","新北市中和區連勝街52號","121.4976","24.9973883333333","6500300","中和區"
"235025","378-QA","2017/08/22 14:09:18","新北市中和區中山路二段523巷32弄4號","121.481498333333","25.0037816666667","6500300","中和區"
"235014","4979-A6","2017/08/22 00:58:23","新北市中和區員山路36巷13號","121.48428","24.9911083333333","6500300","中和區"
"235033","4980-A6","2017/08/22 14:09:21","新北市中和區廣福路112號","121.502303333333","25.0011383333333","6500300","中和區"
"235006","551-UM","2017/08/22 14:09:17","新北市中和區立人街69巷15弄12號","121.52095","24.993465","6500300","中和區"
"235034","558-UM","2017/08/22 14:09:20","新北市中和區中和路170號","121.504605","24.999765","6500300","中和區"
"235009","565-BX","2017/08/22 14:09:11","新北市中和區景新街467巷31號","121.514515","24.9886783333333","6500300","中和區"
"235018","640-BX","2017/08/22 14:09:10","新北市中和區國光街85巷10號","121.470355","24.999835","6500300","中和區"
"235024","647-TV","2017/08/22 14:09:08","新北市中和區民治街130巷1號","121.475233333333","25.0025533333333","6500300","中和區"
"235011","732-UM","2017/08/22 14:09:25","新北市中和區興南路一段58號","121.51086","24.9904383333333","6500300","中和區"
"235010","733-UM","2017/08/22 14:09:14","新北市中和區忠孝街1巷52號","121.50841","24.9844316666667","6500300","中和區"
"235026","800-TS","2017/08/22 14:09:25","新北市中和區中山路二段380巷2號","121.49096","25.0043083333333","6500300","中和區"
"235021","801-TS","2017/08/22 14:09:14","新北市中和區民利街100巷5弄2號","121.477108333333","24.9982216666667","6500300","中和區"
"235005","802-TS","2017/08/22 14:09:08","新北市中和區中安街110號","121.51132","25.000675","6500300","中和區"
"235016","805-TS","2017/08/22 14:09:24","新北市中和區興南路二段114巷9號","121.5043","24.9841883333333","6500300","中和區"
"235012","896-TW","2017/08/22 14:09:08","新北市中和區工專路139號","121.508458333333","24.9790333333333","6500300","中和區"
"235017","900-TW","2017/08/22 14:09:17","新北市板橋區和平路174巷33號","121.465066666667","24.994295","6500300","中和區"
"235035","911-UM","2017/08/22 14:09:22","新北市中和區中山路二段482巷11弄1號","121.488631666667","25.00622","6500300","中和區"
"235001","AAC-213","2017/08/22 14:09:18","新北市中和區秀朗路三段58-3號","121.525798333333","24.9950866666667","6500300","中和區"
"235023","AAC-215","2017/08/22 14:09:14","新北市中和區圓通路294巷13號","121.488836666667","24.9900466666667","6500300","中和區"
"220016","013-TV","2017/08/22 14:09:10","新北市板橋區三民路一段1巷53號","121.480928333333","25.0249066666667","6500100","板橋區"
"220013","072-UY","2017/08/22 14:09:24","新北市板橋區民族路219巷1號","121.469416666667","25.0076066666667","6500100","板橋區"
"220034","073-UY","2017/08/22 14:09:21","新北市板橋區中正路236巷80號","121.45822","25.0194316666667","6500100","板橋區"
"220017","AAD-861","2017/08/22 14:09:20","新北市板橋區縣民大道一段114號","121.457161666667","25.0059283333333","6500100","板橋區"
"220051","120-SR","2017/08/22 14:09:11","新北市板橋區田單街47號","121.48253","25.0282866666667","6500100","板橋區"
"247019","893-R6","2017/08/22 14:09:26","新北市蘆洲區民族路436巷1號","121.4728","25.0924166666667","6501400","蘆洲區"
"247009","546-UM","2017/08/22 14:09:06","新北市蘆洲區三民路70號","121.47544","25.0838816666667","6501400","蘆洲區"
"247017","500-BY","2017/08/22 14:09:22","新北市蘆洲區民族路227巷29號","121.476353333333","25.0885466666667","6501400","蘆洲區"
"247007","339-TH","2017/08/22 14:09:25","新北市蘆洲區中山一路266號","121.471805","25.0795466666667","6501400","蘆洲區"
"247023","337-TH","2017/08/22 14:09:22","新北市蘆洲區光榮路118-2號","121.464993333333","25.0889766666667","6501400","蘆洲區"
"247001","336-TH","2017/08/22 14:09:22","新北市蘆洲區永平街63號","121.457478333333","25.091505","6501400","蘆洲區"
"247011","335-TH","2017/08/22 14:09:08","新北市蘆洲區信義路254號","121.478328333333","25.0866383333333","6501400","蘆洲區"
"247013","057-VK","2017/08/22 14:09:18","新北市蘆洲區忠孝路57號","121.47128","25.0867733333333","6501400","蘆洲區"
"247003","056-VK","2017/08/22 14:09:14","新北市蘆洲區長安街108巷37號","121.462078333333","25.0826016666667","6501400","蘆洲區"
"247005","053-VK","2017/08/22 14:09:12","新北市蘆洲區和平路97巷13號","121.467591666667","25.0786366666667","6501400","蘆洲區"
"247021","002-UY","2017/08/22 14:09:10","新北市蘆洲區三民路221號","121.469871666667","25.0882716666667","6501400","蘆洲區"
"247015","001-UY","2017/08/22 14:09:23","新北市蘆洲區中正路185巷9號","121.46776","25.0850433333333","6501400","蘆洲區"
"228004","212-TW","2017/08/22 14:09:14","新北市貢寮區雙玉里下雙溪街10-3號","121.91535","25.0136366666667","6502600","貢寮區"
"228005","828-UM","2017/08/22 14:09:19","新北市貢寮區美豐里雞母嶺街52號","121.890475","25.0675883333333","6502600","貢寮區"
"208004","AAC-292","2017/08/22 14:08:45","新北市金山區六股里頂六股2-1號","121.614223333333","25.2217433333333","6502700","金山區"
"251001","757-BX","2017/08/22 14:09:16","新北市淡水區民生路5號","121.460415","25.1378866666667","6501000","淡水區"
"207002","749-BX","2017/08/22 14:09:19","新北市萬里區溪底里瑞泉路16號","121.605533333333","25.1450283333333","6502800","萬里區"
"207001","662-BX","2017/08/22 14:09:06","新北市萬里區磺潭里清水18號","121.637926666667","25.1977383333333","6502800","萬里區"
"252005","AAC-283","2017/08/22 14:09:21","新北市三芝區橫山里大坑94-1號","121.526093333333","25.2599766666667","6502100","三芝區"
"236065","105-UM","2017/08/22 14:09:23","新北市土城區金城路一段88巷10號","121.44566","24.9729183333333","6501300","土城區"
"236041","107-UM","2017/08/22 14:09:10","新北市土城區裕生路64號","121.447558333333","24.9860083333333","6501300","土城區"
"236075","166-UM","2017/08/22 14:09:13","新北市土城區永寧路29號","121.430346666667","24.9630983333333","6501300","土城區"
"236029","253-BX","2017/08/22 14:09:13","新北市土城區城林路6巷80號","121.438461666667","24.979785","6501300","土城區"
"236025","269-VK","2017/08/22 14:09:16","新北市土城區承天路67號","121.439576666667","24.9635783333333","6501300","土城區"
"236013","270-VK","2017/08/22 14:09:21","新北市土城區金城路二段28-6號","121.4505","24.9782166666667","6501300","土城區"
"236034","271-VK","2017/08/22 14:09:07","新北市土城區青雲路449號","121.458933333333","24.9748216666667","6501300","土城區"
"236017","401-BY","2017/08/22 14:09:14","新北市土城區中央路二段280號","121.440746666667","24.9740833333333","6501300","土城區"
"236006","498-BY","2017/08/22 14:09:21","新北市土城區日新街44號","121.443875","24.98796","6501300","土城區"
"236057","912-UM","2017/08/22 14:09:06","新北市土城區中央路四段46巷28號","121.42176","24.9615816666667","6501300","土城區"
"236045","913-UM","2017/08/22 14:09:13","新北市土城區明德路一段365-1號","121.453446666667","24.97917","6501300","土城區"
"236061","915-UM","2017/08/22 14:09:07","新北市土城區金城路二段200號","121.454828333333","24.981775","6501300","土城區"
"236054","AAC-216","2017/08/22 14:09:26","新北市土城區中華路二段92號","121.438228333333","24.9747633333333","6501300","土城區"
"242044","347-TH","2017/08/22 14:09:18","新北市樹林區八德街272號","121.41166","24.9702633333333","6500500","新莊區"
"221012","276-VK","2017/08/22 13:25:14","新北市汐止區汐萬路一段256巷3號","121.653455","25.074615","6501100","汐止區"
"221002","753-BX","2017/08/22 14:09:05","新北市新店區安豐路49號","121.500185","24.9540766666667","6501100","汐止區"
"220027","145-BY","2017/08/22 14:09:25","新北市板橋區民權路202巷9弄4號","121.4603","25.0154833333333","6500100","板橋區"
"220028","200-UY","2017/08/22 14:09:18","新北市板橋區大觀路二段5-2號","121.447123333333","25.0037533333333","6500100","板橋區"
"220030","610-BX","2017/08/22 14:09:10","新北市板橋區大觀路三段273號","121.428531666667","24.9924","6500100","板橋區"
"220050","245-BX","2017/08/22 14:09:25","新北市板橋區莊敬路136-4號","121.471083333333","25.0234483333333","6500100","板橋區"
"220023","256-TC","2017/08/22 14:09:14","新北市板橋區大智街23號","121.455201666667","25.0148566666667","6500100","板橋區"
"220105","257-TC","2017/08/22 14:09:24","新北市板橋區雙十路三段14號","121.471695","25.03044","6500100","板橋區"
"220043","267-BY","2017/08/22 14:09:07","新北市板橋區光武街142號","121.465435","25.0302216666667","6500100","板橋區"
"220004","276-BY","2017/08/22 14:09:12","新北市板橋區信義路74巷1弄2號","121.457146666667","24.9930833333333","6500100","板橋區"
"220020","277-BY","2017/08/22 14:09:07","新北市板橋區金門街369巷81號","121.428468333333","24.9826433333333","6500100","板橋區"
"220019","283-VK","2017/08/22 14:09:23","新北市板橋區重慶路245巷54號","121.465163333333","25.0008333333333","6500100","板橋區"
"220001","285-VK","2017/08/22 14:09:16","新北市板橋區懷仁街24巷23號","121.475621666667","25.0192316666667","6500100","板橋區"
"220029","287-VK","2017/08/22 14:09:20","新北市板橋區南雅西路二段154號","121.45189","25.0133716666667","6500100","板橋區"
"220039","288-VK","2017/08/22 14:09:22","新北市板橋區裕民街38號","121.461913333333","25.0289083333333","6500100","板橋區"
"220009","293-UM","2017/08/22 14:09:11","新北市板橋區三民路二段21巷14號","121.480235","25.0180766666667","6500100","板橋區"
"220032","296-UM","2017/08/22 14:09:14","新北市板橋區篤行路一段8號","121.43184","24.9953583333333","6500100","板橋區"
"220010","303-R5","2017/08/22 14:09:25","新北市板橋區三民路二段居仁巷1弄2號","121.47937","25.0135516666667","6500100","板橋區"
"220041","307-R5","2017/08/22 14:09:21","新北市板橋區文化路二段225巷60弄73號","121.469023333333","25.0300616666667","6500100","板橋區"
"220047","317-R6","2017/08/22 14:09:11","新北市板橋區四維路101號","121.465668333333","25.0244316666667","6500100","板橋區"
"220012","486-VK","2017/08/22 14:09:06","新北市板橋區民生路一段28-12號","121.47638","25.0122816666667","6500100","板橋區"
"220038","487-VK","2017/08/22 14:09:16","新北市板橋區文化路二段516號","121.475686666667","25.0335733333333","6500100","板橋區"
"220037","491-VK","2017/08/22 14:09:18","新北市板橋區文化路二段182巷3弄26號","121.472093333333","25.0280083333333","6500100","板橋區"
"220104","560-BX","2017/08/22 14:09:08","新北市板橋區中正路360巷50號","121.456208333333","25.0227783333333","6500100","板橋區"
"220052","561-BX","2017/08/22 14:09:10","新北市板橋區介壽街84巷36號","121.468935","25.0180816666667","6500100","板橋區"
"220003","568-UM","2017/08/22 14:09:19","新北市板橋區中山路一段118號","121.46291","25.0105316666667","6500100","板橋區"
"220011","609-BX","2017/08/22 14:09:17","新北市板橋區三民路二段202-5號","121.478926666667","25.014555","6500100","板橋區"
"220031","630-UY","2017/08/22 14:09:24","新北市板橋區大觀路二段174巷196弄16號","121.443046666667","25.0036183333333","6500100","板橋區"
"220040","637-BX","2017/08/22 14:09:21","新北市板橋區萬板路508號","121.480291666667","25.0263233333333","6500100","板橋區"
"220005","686-BX","2017/08/22 14:09:13","新北市板橋區重慶路276-1號","121.463146666667","25.0002233333333","6500100","板橋區"
"220025","687-BX","2017/08/22 14:09:09","新北市板橋區龍興街59號","121.443243333333","25.0012683333333","6500100","板橋區"
"220042","689-BX","2017/08/22 14:09:11","新北市板橋區民生路三段259號","121.464581666667","25.0294933333333","6500100","板橋區"
"220002","741-BX","2017/08/22 14:09:16","新北市板橋區重慶路89巷23號","121.463075","25.0065833333333","6500100","板橋區"
"220014","829-TW","2017/08/22 14:09:22","新北市板橋區中山路二段90巷43弄8號","121.476658333333","25.0150066666667","6500100","板橋區"
"220045","831-TW","2017/08/22 14:09:20","新北市板橋區雙十路二段45號","121.476503333333","25.0261066666667","6500100","板橋區"
"220022","895-R6","2017/08/22 14:09:09","新北市板橋區林園街32號","121.453753333333","25.0100933333333","6500100","板橋區"
"220021","985-R7","2017/08/22 14:09:16","新北市板橋區中正路159巷4號","121.456446666667","25.0161383333333","6500100","板橋區"
"220046","AAC-210","2017/08/22 14:09:21","新北市板橋區新海路137號","121.460311666667","25.02325","6500100","板橋區"
"220018","AAC-253","2017/08/22 14:08:51","新北市板橋區四川路一段256號","121.459131666667","25.0013683333333","6500100","板橋區"
