"lineid","car","time","location","longitude","latitude","cityid","cityname"
"234044","148-BY","2017/08/22 14:29:07","新北市永和區永利路248號","121.524223333333","25.00276","6500400","永和區"
"234005","207-UY","2017/08/22 14:29:11","新北市永和區永貞路127號","121.516881666667","25.0042733333333","6500400","永和區"
"234036","336-UY","2017/08/22 14:29:09","新北市永和區環河東路四段112號","121.527941666667","24.9962633333333","6500400","永和區"
"234062","337-UY","2017/08/22 14:29:07","新北市永和區中正路417號","121.517195","25.0049333333333","6500400","永和區"
"234084","338-UY","2017/08/22 14:29:20","新北市永和區光復街21號","121.516533333333","25.0174383333333","6500400","永和區"
"234052","553-UM","2017/08/22 14:29:14","新北市永和區環河東路一段82號","121.519646666667","25.0164616666667","6500400","永和區"
"234028","746-BX","2017/08/22 14:29:08","新北市五股區天乙路101-6號","121.445005","25.1070216666667","6500400","永和區"
"234060","AAD-866","2017/08/22 14:29:03","新北市永和區中正路381號","121.517178333333","25.0037233333333","6500400","永和區"
"234040","862-TW","2017/08/22 14:29:06","新北市永和區安樂路276號","121.514466666667","25.004235","6500400","永和區"
"234048","863-TW","2017/08/22 14:29:09","新北市永和區保安路144號","121.508553333333","25.01492","6500400","永和區"
"234025","9371-KE","2017/08/22 14:29:11","新北市中和區中安街110號","121.511291666667","25.00071","6500400","永和區"
"248017","225-UY","2017/08/22 14:20:31","新北市五股區壟路16號","121.41549","25.08585","6501500","五股區"
"248012","655-BX","2017/08/22 10:34:42","新北市五股區中興路二段83巷26-6號","121.46003","25.0752633333333","6501500","五股區"
"234076","969-R7","2017/08/22 14:29:18","新北市永和區民族街81巷62號","121.52025","24.9965183333333","6500400","永和區"
"234072","AAC-211","2017/08/22 14:29:22","新北市永和區環河東路一段126號","121.520848333333","25.0154483333333","6500400","永和區"
"234066","AAC-212","2017/08/22 14:29:11","新北市永和區保平路268巷14號","121.507931666667","25.0059833333333","6500400","永和區"
"234001","AAC-295","2017/08/22 14:29:23","新北市永和區大新街16號","121.515126666667","25.0084583333333","6500400","永和區"
"231002","002-UM","2017/08/22 14:29:07","新北市新店區中央路22-1號","121.53324","24.97831","6500600","新店區"
"231028","046-UY","2017/08/22 14:29:14","新北市新店區安康路二段147號","121.51128","24.9598916666667","6500600","新店區"
"231030","047-UY","2017/08/22 14:29:18","新北市新店區碧安街9巷22號","121.51634","24.9684666666667","6500600","新店區"
"231029","106-UY","2017/08/22 14:29:11","新北市新店區安康路二段408號","121.496736666667","24.9551833333333","6500600","新店區"
"231018","107-UY","2017/08/22 14:29:14","新北市新店區中央三街62號","121.526838333333","24.97486","6500600","新店區"
"231012","108-UY","2017/08/22 14:29:15","新北市新店區中興路二段233-1號","121.547576666667","24.9753283333333","6500600","新店區"
"231020","187-VK","2017/08/22 14:29:13","新北市新店區桂山路51巷4號","121.563653333333","24.9010333333333","6500600","新店區"
"231069","189-VK","2017/08/22 11:53:09","新北市新店區安華路28-1號","121.519686666667","24.9611016666667","6500600","新店區"
"231034","268-BY","2017/08/22 14:29:11","新北市新店區黎明路9號","121.502631666667","24.9506283333333","6500600","新店區"
"231015","AAD-862","2017/08/22 14:29:18","新北市新店區北宜路三段65號","121.576148333333","24.9516366666667","6500600","新店區"
"231027","3712-VJ","2017/08/22 14:29:03","新北市新店區北新路二段228巷13號","121.543475","24.9772283333333","6500600","新店區"
"231025","4716-K9","2017/08/22 14:29:10","新北市新店區民族路161號","121.537823333333","24.9766316666667","6500600","新店區"
"231038","4715-K9","2017/08/22 14:29:08","新北市新店區溪洲路101號","121.532583333333","24.9618083333333","6500600","新店區"
"231036","512-UM","2017/08/22 14:29:14","新北市新店區安祥路109巷1弄6號","121.475453333333","24.9588766666667","6500600","新店區"
"231023","513-UM","2017/08/22 14:29:23","新北市新店區光明街51號","121.538631666667","24.9601833333333","6500600","新店區"
"231003","616-UM","2017/08/22 14:29:17","新北市新店區中興路一段267-3號","121.544896666667","24.9679383333333","6500600","新店區"
"231006","617-UM","2017/08/22 14:29:18","新北市新店區北宜路二段493號","121.562876666667","24.9538066666667","6500600","新店區"
"231001","619-UM","2017/08/22 14:29:18","新北市新店區北新路一段96巷23號","121.543036666667","24.9688316666667","6500600","新店區"
"231013","719-UM","2017/08/22 14:29:06","新北市新店區民權路104號","121.535825","24.9830083333333","6500600","新店區"
"231035","719-UY","2017/08/22 14:29:03","新北市新店區安光路10-2號","121.513901666667","24.9640366666667","6500600","新店區"
"231032","720-UM","2017/08/22 14:29:04","新北市新店區安業街151巷19號","121.520583333333","24.9747066666667","6500600","新店區"
"231005","897-TW","2017/08/22 14:29:20","新北市新店區寶強路6-1號","121.543286666667","24.9785016666667","6500600","新店區"
"231004","899-TW","2017/08/22 14:29:06","新北市新店區中正路265巷3號","121.538198333333","24.9736283333333","6500600","新店區"
"231037","AKT-0513","2017/08/22 14:29:11","新北市新店區安康路二段320巷6號","121.504906666667","24.9587683333333","6500600","新店區"
"235030","003-UY","2017/08/22 14:29:05","新北市中和區景新街22號","121.502975","24.9993216666667","6500300","中和區"
"235028","005-UY","2017/08/22 14:29:02","新北市中和區明禮街45號","121.504058333333","24.99652","6500300","中和區"
"235020","096-UM","2017/08/22 14:29:11","新北市中和區員山路581巷10號","121.478291666667","25.0093866666667","6500300","中和區"
"235003","097-UM","2017/08/22 14:29:02","新北市中和區秀峰街103巷7弄4號","121.51951","24.9889416666667","6500300","中和區"
"235029","098-UM","2017/08/22 14:29:17","新北市中和區永和路8巷21號","121.500778333333","25.00356","6500300","中和區"
"235004","150-BY","2017/08/22 14:29:00","新北市中和區宜安路23巷5號","121.512656666667","24.9955883333333","6500300","中和區"
"235022","151-BY","2017/08/22 14:29:02","新北市中和區員山路36巷16-2號","121.485263333333","24.9916466666667","6500300","中和區"
"235019","183-VK","2017/08/22 14:29:14","新北市中和區中山路三段181巷18弄41號","121.472663333333","25.0050916666667","6500300","中和區"
"235002","185-VK","2017/08/22 14:29:08","新北市中和區大仁街10巷51號","121.519898333333","24.9924083333333","6500300","中和區"
"235013","186-VK","2017/08/22 14:29:16","新北市中和區景新街240號","121.50884","24.9938","6500300","中和區"
"235031","255-BX","2017/08/22 14:29:10","新北市中和區中正路740號","121.48526","24.997815","6500300","中和區"
"235008","293-VK","2017/08/22 14:29:10","新北市中和區中興街263巷8號","121.500145","24.9888366666667","6500300","中和區"
"235036","301-VK","2017/08/22 14:29:01","新北市中和區保平路326巷28號","121.506268333333","25.0049283333333","6500300","中和區"
"235007","352-BY","2017/08/22 14:29:12","新北市中和區景平路296號","121.513175","24.9926833333333","6500300","中和區"
"235015","376-QA","2017/08/22 14:29:09","新北市中和區捷運路113號","121.507866666667","24.9901883333333","6500300","中和區"
"235032","377-QA","2017/08/22 14:29:17","新北市中和區中和路127號","121.501856666667","25.0001583333333","6500300","中和區"
"235025","378-QA","2017/08/22 14:29:18","新北市中和區民安街2巷4號","121.480403333333","25.0014616666667","6500300","中和區"
"235014","4979-A6","2017/08/22 00:58:23","新北市中和區員山路36巷13號","121.48428","24.9911083333333","6500300","中和區"
"235006","551-UM","2017/08/22 14:29:16","新北市中和區中和路350巷15弄12號","121.510876666667","25.0011283333333","6500300","中和區"
"235034","558-UM","2017/08/22 14:29:06","新北市中和區中和路47號","121.50035","25.0015133333333","6500300","中和區"
"235009","565-BX","2017/08/22 14:29:11","新北市中和區景新街427號","121.513191666667","24.98922","6500300","中和區"
"235018","640-BX","2017/08/22 14:29:10","新北市中和區國光街109巷20號","121.46962","24.9998683333333","6500300","中和區"
"235024","647-TV","2017/08/22 14:29:08","新北市中和區員山路294巷22號","121.482283333333","25.0023483333333","6500300","中和區"
"235011","732-UM","2017/08/22 14:29:05","新北市中和區景平路241巷64弄2號","121.507741666667","24.9924716666667","6500300","中和區"
"235010","733-UM","2017/08/22 14:29:14","新北市中和區忠孝街37巷30號","121.510868333333","24.9842716666667","6500300","中和區"
"235026","800-TS","2017/08/22 14:29:05","新北市中和區中山路二段488-1號","121.4875","25.00493","6500300","中和區"
"235021","801-TS","2017/08/22 14:29:14","新北市中和區員山路421號","121.480983333333","25.0034433333333","6500300","中和區"
"235005","802-TS","2017/08/22 14:29:08","新北市中和區景安路40號","121.507123333333","24.9981783333333","6500300","中和區"
"235016","805-TS","2017/08/22 14:29:04","新北市中和區華新街143巷63弄2號","121.506438333333","24.97926","6500300","中和區"
"235012","896-TW","2017/08/22 14:29:09","新北市中和區忠孝街39-4號","121.51181","24.983925","6500300","中和區"
"235017","900-TW","2017/08/22 14:29:20","新北市中和區民德路206號","121.468133333333","24.9984666666667","6500300","中和區"
"235035","911-UM","2017/08/22 14:29:14","新北市中和區連城路469巷46號","121.483465","24.99459","6500300","中和區"
"235001","AAC-213","2017/08/22 14:29:18","新北市中和區秀朗路三段10巷12弄8號","121.525858333333","24.9966716666667","6500300","中和區"
"235023","AAC-215","2017/08/22 14:29:14","新北市中和區圓通路252巷1號","121.493553333333","24.991095","6500300","中和區"
"220016","013-TV","2017/08/22 14:29:10","新北市板橋區中山路二段531巷34號","121.482858333333","25.0222533333333","6500100","板橋區"
"220013","072-UY","2017/08/22 14:29:04","新北市板橋區國泰街75巷45號","121.468268333333","25.004745","6500100","板橋區"
"220034","073-UY","2017/08/22 14:29:21","新北市板橋區中正路216巷150弄1號","121.460708333333","25.01962","6500100","板橋區"
"220017","AAD-861","2017/08/22 14:29:14","新北市板橋區貴興路39號","121.457518333333","25.0037083333333","6500100","板橋區"
"220051","120-SR","2017/08/22 14:29:11","新北市板橋區松柏街22巷1號","121.474641666667","25.0298583333333","6500100","板橋區"
"247019","893-R6","2017/08/22 14:29:06","新北市蘆洲區民族路492號","121.469928333333","25.0909","6501400","蘆洲區"
"247009","546-UM","2017/08/22 14:29:06","新北市蘆洲區鷺江街29號","121.47878","25.0824283333333","6501400","蘆洲區"
"247017","500-BY","2017/08/22 14:29:02","新北市蘆洲區民族路336巷27弄1號","121.477678333333","25.0912","6501400","蘆洲區"
"247007","339-TH","2017/08/22 14:29:05","新北市蘆洲區民生街6號","121.475848333333","25.0791616666667","6501400","蘆洲區"
"247023","337-TH","2017/08/22 14:29:02","新北市蘆洲區中正路261號","121.46744","25.0873233333333","6501400","蘆洲區"
"247001","336-TH","2017/08/22 14:29:22","新北市蘆洲區永樂街38巷33弄3號","121.45797","25.08943","6501400","蘆洲區"
"247011","335-TH","2017/08/22 14:29:08","新北市蘆洲區復興路298號","121.481195","25.0900666666667","6501400","蘆洲區"
"247013","057-VK","2017/08/22 14:29:18","新北市蘆洲區中山二路199號","121.470718333333","25.0806133333333","6501400","蘆洲區"
"247003","056-VK","2017/08/22 14:29:21","新北市蘆洲區長安街214號","121.458595","25.0843083333333","6501400","蘆洲區"
"247005","053-VK","2017/08/22 14:29:12","新北市蘆洲區長安街59號","121.463013333333","25.0797283333333","6501400","蘆洲區"
"247021","002-UY","2017/08/22 14:29:10","新北市蘆洲區中正路505號","121.461681666667","25.0970533333333","6501400","蘆洲區"
"247015","001-UY","2017/08/22 14:29:02","新北市蘆洲區中正路185巷78弄50號","121.465693333333","25.0853883333333","6501400","蘆洲區"
"228004","212-TW","2017/08/22 14:29:14","新北市貢寮區雙玉里田寮洋街33-1號","121.932195","25.0135716666667","6502600","貢寮區"
"228005","828-UM","2017/08/22 14:29:19","新北市貢寮區美豐里巫里岸9-1號","121.901958333333","25.07013","6502600","貢寮區"
"208004","AAC-292","2017/08/22 14:29:05","新北市金山區兩湖里倒照湖37號","121.590556666667","25.236255","6502700","金山區"
"251001","757-BX","2017/08/22 14:29:16","新北市淡水區民族路14號","121.460788333333","25.1367133333333","6501000","淡水區"
"207002","749-BX","2017/08/22 14:29:19","新北市萬里區崁腳里崁腳路106-4號","121.646778333333","25.1589333333333","6502800","萬里區"
"207001","662-BX","2017/08/22 14:29:06","新北市萬里區磺潭里清水9號","121.640438333333","25.2000183333333","6502800","萬里區"
"252005","AAC-283","2017/08/22 14:29:00","新北市三芝區埔坪里埔頭坑91-3號","121.50811","25.2529883333333","6502100","三芝區"
"236065","105-UM","2017/08/22 14:29:23","新北市土城區永豐路209號","121.473861666667","24.977445","6501300","土城區"
"236041","107-UM","2017/08/22 14:29:14","新北市土城區裕民路67巷4弄12號","121.450071666667","24.987575","6501300","土城區"
"236075","166-UM","2017/08/22 14:29:13","新北市土城區中央路四段47號","121.422401666667","24.9613583333333","6501300","土城區"
"236029","253-BX","2017/08/22 14:29:13","新北市土城區順風路7號","121.440065","24.97628","6501300","土城區"
"236025","269-VK","2017/08/22 14:29:16","新北市土城區承天路67號","121.4396","24.963575","6501300","土城區"
"236013","270-VK","2017/08/22 14:29:01","新北市土城區青雲路39巷7號","121.46033","24.9875133333333","6501300","土城區"
"236034","271-VK","2017/08/22 14:29:06","新北市土城區青雲路451巷13號","121.45958","24.9747833333333","6501300","土城區"
"236017","401-BY","2017/08/22 14:29:14","新北市土城區永豐路202巷7號","121.466291666667","24.9832816666667","6501300","土城區"
"236057","912-UM","2017/08/22 14:29:06","新北市土城區中央路四段466號","121.409945","24.95063","6501300","土城區"
"236045","913-UM","2017/08/22 14:29:13","新北市土城區明德路一段323號","121.4589","24.976685","6501300","土城區"
"236061","915-UM","2017/08/22 14:29:07","新北市中和區莒光路213號","121.46901","24.9946933333333","6501300","土城區"
"236054","AAC-216","2017/08/22 14:29:06","新北市土城區中華路二段159號","121.43877","24.9756783333333","6501300","土城區"
"242044","347-TH","2017/08/22 14:29:18","新北市新莊區新泰路357巷3號","121.442083333333","25.0415733333333","6500500","新莊區"
"221012","276-VK","2017/08/22 13:25:14","新北市汐止區汐萬路一段256巷3號","121.653455","25.074615","6501100","汐止區"
"221002","753-BX","2017/08/22 14:29:05","新北市新店區安豐路22巷18-1號","121.502498333333","24.954265","6501100","汐止區"
"220027","145-BY","2017/08/22 14:29:20","新北市板橋區民權路202巷15弄7號","121.460323333333","25.01614","6500100","板橋區"
"220028","200-UY","2017/08/22 14:29:18","新北市板橋區大觀路二段37巷160號","121.44925","25.0014066666667","6500100","板橋區"
"220030","610-BX","2017/08/22 14:29:10","新北市板橋區金門街301號","121.430023333333","24.986445","6500100","板橋區"
"220050","245-BX","2017/08/22 14:29:19","新北市板橋區縣民大道三段149號","121.478258333333","25.0236516666667","6500100","板橋區"
"220023","256-TC","2017/08/22 14:29:14","新北市板橋區南雅西路二段287巷18號","121.45022","25.0161666666667","6500100","板橋區"
"220105","257-TC","2017/08/22 14:29:04","新北市板橋區雙十路三段10巷1弄31號","121.471316666667","25.0317766666667","6500100","板橋區"
"220043","267-BY","2017/08/22 14:29:07","新北市板橋區松江街109巷5號","121.469031666667","25.0306666666667","6500100","板橋區"
"220004","276-BY","2017/08/22 14:28:52","新北市板橋區國慶路49巷19弄15號","121.458846666667","24.9959433333333","6500100","板橋區"
"220020","277-BY","2017/08/22 14:29:07","新北市板橋區金門街287巷37號","121.432278333333","24.9875666666667","6500100","板橋區"
"220019","283-VK","2017/08/22 14:29:12","新北市板橋區忠孝路48巷4弄11號","121.460468333333","25.0006516666667","6500100","板橋區"
"220001","285-VK","2017/08/22 14:29:08","新北市板橋區永豐街221號","121.476875","25.021195","6500100","板橋區"
"220029","287-VK","2017/08/22 14:29:20","新北市板橋區大觀路一段75巷8號","121.447508333333","25.00433","6500100","板橋區"
"220039","288-VK","2017/08/22 14:29:23","新北市板橋區長江路一段48巷9號","121.459328333333","25.0284783333333","6500100","板橋區"
"220009","293-UM","2017/08/22 14:29:10","新北市板橋區中山路一段275號","121.469178333333","25.0136266666667","6500100","板橋區"
"220032","296-UM","2017/08/22 14:29:14","新北市板橋區篤行路三段玉平巷76弄2號","121.427988333333","24.9855883333333","6500100","板橋區"
"220010","303-R5","2017/08/22 14:29:05","新北市板橋區三民路二段137號","121.479188333333","25.0152616666667","6500100","板橋區"
"220041","307-R5","2017/08/22 14:29:17","新北市板橋區光武街2巷35號","121.468856666667","25.0258016666667","6500100","板橋區"
"220047","317-R6","2017/08/22 14:29:11","新北市板橋區四維路257號","121.463436666667","25.02819","6500100","板橋區"
"220012","486-VK","2017/08/22 14:28:51","新北市板橋區重慶路8號","121.46058","25.00798","6500100","板橋區"
"220038","487-VK","2017/08/22 14:29:16","新北市板橋區文化路一段189號","121.46315","25.0164966666667","6500100","板橋區"
"220037","491-VK","2017/08/22 14:29:18","新北市板橋區雙十路二段85號","121.475696666667","25.0274266666667","6500100","板橋區"
"220104","560-BX","2017/08/22 14:29:08","新北市板橋區金華街85巷16號","121.458633333333","25.021305","6500100","板橋區"
"220052","561-BX","2017/08/22 14:29:11","新北市板橋區文化路一段270巷3弄15-1號","121.468353333333","25.02083","6500100","板橋區"
"220003","568-UM","2017/08/22 14:29:19","新北市板橋區重慶路278-1號","121.46292","24.99965","6500100","板橋區"
"220011","609-BX","2017/08/22 14:29:22","新北市板橋區三民路一段156號","121.479116666667","25.01987","6500100","板橋區"
"220031","630-UY","2017/08/22 14:29:04","新北市板橋區龍興街65巷39號","121.442545","25.0017683333333","6500100","板橋區"
"220040","637-BX","2017/08/22 14:29:01","新北市板橋區文聖街149巷23弄1號","121.479395","25.028475","6500100","板橋區"
"220005","686-BX","2017/08/22 14:29:13","新北市板橋區和平路213號","121.464328333333","24.99672","6500100","板橋區"
"220025","687-BX","2017/08/22 14:29:09","新北市板橋區僑中二街50號","121.44681","25.010495","6500100","板橋區"
"220042","689-BX","2017/08/22 14:29:11","新北市板橋區雨農路50號","121.46111","25.0243166666667","6500100","板橋區"
"220002","741-BX","2017/08/22 14:29:16","新北市板橋區忠孝路23號","121.460481666667","25.0019133333333","6500100","板橋區"
"220022","827-TW","2017/08/22 14:29:22","新北市樹林區環河路2號","121.427823333333","24.9788583333333","6500100","板橋區"
"220014","829-TW","2017/08/22 14:29:03","新北市板橋區漢生東路313巷2弄68號","121.472863333333","25.008045","6500100","板橋區"
"220045","831-TW","2017/08/22 14:29:08","新北市板橋區民生路二段226巷6弄9號","121.469873333333","25.02155","6500100","板橋區"
"220022","895-R6","2017/08/22 14:29:10","新北市板橋區後菜園街1號","121.457916666667","25.010115","6500100","板橋區"
"220021","985-R7","2017/08/22 14:29:16","新北市板橋區新生街74號","121.457858333333","25.0212183333333","6500100","板橋區"
"220046","AAC-210","2017/08/22 14:29:13","新北市板橋區漢生西路137號","121.462763333333","25.0216683333333","6500100","板橋區"
"220018","AAC-253","2017/08/22 14:29:11","新北市板橋區忠孝路148號","121.463945","25.00238","6500100","板橋區"
