"lineid","car","time","location","longitude","latitude","cityid","cityname"
"248012","655-BX","2017/08/22 10:34:42","新北市五股區中興路二段83巷26-6號","121.46003","25.0752633333333","6501500","五股區"
"231002","002-UM","2017/08/22 15:28:47","新北市新店區環河路152號","121.535306666667","24.9665616666667","6500600","新店區"
"231028","046-UY","2017/08/22 15:28:54","新北市新店區僑信路27號","121.49936","24.9508083333333","6500600","新店區"
"231030","047-UY","2017/08/22 15:28:58","新北市新店區新和街46號","121.51933","24.9849883333333","6500600","新店區"
"231029","106-UY","2017/08/22 15:28:51","新北市新店區安康路三段567-1號","121.475518333333","24.94324","6500600","新店區"
"231018","107-UY","2017/08/22 15:28:54","新北市新店區中央七街61巷3號","121.528203333333","24.97665","6500600","新店區"
"231012","108-UY","2017/08/22 15:28:54","新北市新店區寶元路一段84巷1號","121.544601666667","24.9836916666667","6500600","新店區"
"231020","187-VK","2017/08/22 15:28:53","新北市新店區湖興路128-1號","121.562911666667","24.93074","6500600","新店區"
"231069","189-VK","2017/08/22 11:53:09","新北市新店區安華路28-1號","121.519686666667","24.9611016666667","6500600","新店區"
"231026","256-BX","2017/08/22 15:29:03","新北市新店區三民路117巷8弄2號","121.53405","24.97108","6500600","新店區"
"231034","268-BY","2017/08/22 15:28:52","新北市新店區如意街24號","121.494063333333","24.9485066666667","6500600","新店區"
"231015","AAD-862","2017/08/22 15:28:57","新北市新店區明山路45號","121.563845","24.9558733333333","6500600","新店區"
"231025","4716-K9","2017/08/22 15:28:50","新北市新店區溪園路365-8號","121.522598333333","24.9806683333333","6500600","新店區"
"231036","512-UM","2017/08/22 15:28:54","新北市新店區安祥路69巷54弄28號","121.482726666667","24.95874","6500600","新店區"
"231023","513-UM","2017/08/22 15:28:59","新北市新店區北新路一段96巷23號","121.5428","24.9687","6500600","新店區"
"231003","616-UM","2017/08/22 15:28:57","新北市新店區寶高路116號","121.554501666667","24.97608","6500600","新店區"
"231039","718-UY","2017/08/22 15:29:00","新北市新店區寶元路一段74巷1號","121.54412","24.9841333333333","6500600","新店區"
"231035","719-UY","2017/08/22 15:29:03","新北市新店區安興路112號","121.515033333333","24.9775366666667","6500600","新店區"
"231032","720-UM","2017/08/22 15:29:03","新北市新店區裕合街81號","121.48915","24.9493816666667","6500600","新店區"
"231005","897-TW","2017/08/22 15:28:59","新北市新店區民權路90巷36號","121.536993333333","24.9844116666667","6500600","新店區"
"231004","899-TW","2017/08/22 15:29:06","新北市新店區民族路89號","121.53876","24.9777433333333","6500600","新店區"
"231037","AKT-0513","2017/08/22 15:28:51","新北市新店區安興路112號","121.514653333333","24.977585","6500600","新店區"
"241013","270-UM","2017/08/22 15:29:07","新北市三重區重新路四段121號","121.484781666667","25.052485","6500200","三重區"
"241033","AAC-255","2017/08/22 15:28:53","新北市三重區重新路五段283號","121.480591666667","25.04992","6500200","三重區"
"235033","4980-A6","2017/08/22 15:29:01","新北市中和區中正路746號","121.485775","24.9982616666667","6500300","中和區"
"235012","896-TW","2017/08/22 15:28:49","新北市中和區忠孝街1巷2-1號","121.509083333333","24.9829833333333","6500300","中和區"
"235035","911-UM","2017/08/22 15:29:02","新北市中和區建康路2號","121.485675","25.0001233333333","6500300","中和區"
"235023","AAC-215","2017/08/22 15:28:54","新北市中和區圓通路332號","121.48435","24.9860766666667","6500300","中和區"
"220051","120-SR","2017/08/22 15:28:51","新北市板橋區文化路二段319號","121.472228333333","25.0298866666667","6500100","板橋區"
"251001","757-BX","2017/08/22 15:23:36","新北市淡水區下圭柔山90-8號","121.431668333333","25.2108","6501000","淡水區"
"252005","AAC-283","2017/08/22 15:29:00","新北市三芝區埔坪里埔頭坑41號","121.504578333333","25.2647416666667","6502100","三芝區"
"236065","105-UM","2017/08/22 15:29:03","新北市土城區中正路69號","121.44467","24.9756083333333","6501300","土城區"
"236041","107-UM","2017/08/22 15:28:50","新北市土城區學府路一段164巷6弄1號","121.453618333333","24.9874733333333","6501300","土城區"
"236075","166-UM","2017/08/22 15:28:53","新北市土城區龍泉路12號","121.409711666667","24.949015","6501300","土城區"
"236029","253-BX","2017/08/22 15:28:59","新北市土城區中央路一段118巷1弄13號","121.445803333333","24.9877466666667","6501300","土城區"
"236025","269-VK","2017/08/22 15:28:56","新北市土城區中央路二段7號","121.443015","24.9807633333333","6501300","土城區"
"236013","270-VK","2017/08/22 15:29:01","新北市土城區廣明街4號","121.45604","24.9917416666667","6501300","土城區"
"236034","271-VK","2017/08/22 15:29:06","新北市土城區延吉街351號","121.464601666667","24.98395","6501300","土城區"
"236017","401-BY","2017/08/22 15:28:54","新北市土城區金城路三段200-5號","121.468841666667","24.9875566666667","6501300","土城區"
"236057","912-UM","2017/08/22 15:29:06","新北市土城區中央路二段183號","121.44204","24.9758366666667","6501300","土城區"
"236045","913-UM","2017/08/22 15:27:53","新北市土城區青雲路145號","121.458766666667","24.9840983333333","6501300","土城區"
"236061","915-UM","2017/08/22 15:29:07","新北市土城區金城路三段73巷4弄7號","121.46632","24.9880383333333","6501300","土城區"
"236054","AAC-216","2017/08/22 15:29:01","新北市土城區延和路46號","121.465268333333","24.988775","6501300","土城區"
"221012","276-VK","2017/08/22 13:25:14","新北市汐止區汐萬路一段256巷3號","121.653455","25.074615","6501100","汐止區"
"220050","245-BX","2017/08/22 15:29:05","新北市板橋區漢生東路83巷1號","121.466393333333","25.0159466666667","6500100","板橋區"
"220038","487-VK","2017/08/22 15:28:56","新北市板橋區四維路294號","121.462785","25.0292583333333","6500100","板橋區"
"220052","561-BX","2017/08/22 15:28:51","新北市板橋區漢生東路73巷28號","121.467288333333","25.01697","6500100","板橋區"
