"lineid","car","time","location","longitude","latitude","cityid","cityname"
"234026","9371-KE","2017/08/22 17:38:35","新北市永和區中正路696-1號","121.516541666667","25.0098983333333","6500400","永和區"
"249005","172-UM","2017/08/22 17:38:33","新北市八里區荖阡坑路34號","121.402381666667","25.1299683333333","6502300","八里區"
"249001","173-UM","2017/08/22 17:38:22","新北市八里區龍米路二段148-1號","121.437496666667","25.1552733333333","6502300","八里區"
"249004","303-UY","2017/08/22 17:38:29","新北市八里區賢三街96號","121.417256666667","25.1578583333333","6502300","八里區"
"249002","305-UY","2017/08/22 17:38:31","新北市八里區石壁腳19號","121.44173","25.1353516666667","6502300","八里區"
"249003","593-UM","2017/08/22 17:38:36","新北市八里區中山路二段233號","121.403266666667","25.1491783333333","6502300","八里區"
"248006","077-UY","2017/08/22 17:38:31","新北市五股區中興路二段37巷28號","121.460213333333","25.0748933333333","6501500","五股區"
"248012","655-BX","2017/08/22 10:34:42","新北市五股區中興路二段83巷26-6號","121.46003","25.0752633333333","6501500","五股區"
"234067","AAC-212","2017/08/22 16:39:26","新北市永和區福和路1號","121.526383333333","25.0096233333333","6500400","永和區"
"232011","375-UM","2017/08/22 17:38:24","新北市坪林區北宜路八段363號","121.71006","24.933305","6502000","坪林區"
"244007","080-UY","2017/08/22 17:38:21","新北市林口區林口路272巷8號","121.386713333333","25.0844916666667","6501700","林口區"
"244019","403-UM","2017/08/22 17:38:33","新北市林口區文化一路一段133號","121.373758333333","25.071825","6501700","林口區"
"244009","410-SL","2017/08/22 17:38:22","新北市林口區文化一路二段299-2號","121.38538","25.0856466666667","6501700","林口區"
"244017","656-BX","2017/08/22 17:38:37","新北市林口區文化一路二段9號","121.380736666667","25.0775483333333","6501700","林口區"
"244023","657-BX","2017/08/22 17:38:26","新北市林口區東明三街326號","121.390731666667","25.06994","6501700","林口區"
"244013","658-BX","2017/08/22 17:38:23","新北市林口區文化一路二段40號","121.38056","25.0772733333333","6501700","林口區"
"244011","701-TV","2017/08/22 17:38:33","新北市林口區佳林路154號","121.384186666667","25.0771133333333","6501700","林口區"
"244025","837-TS","2017/08/22 17:38:32","新北市林口區文化二路一段289-5號","121.367393333333","25.0718183333333","6501700","林口區"
"244021","838-TS","2017/08/22 17:38:35","新北市林口區仁愛路一段26號","121.397441666667","25.07537","6501700","林口區"
"243012","539-UM","2017/08/22 15:39:13","新北市泰山區犁頭窠3-1號","121.421973333333","25.0605316666667","6501600","泰山區"
"231069","189-VK","2017/08/22 11:53:09","新北市新店區安華路28-1號","121.519686666667","24.9611016666667","6500600","新店區"
"231046","278-BY","2017/08/22 17:38:26","新北市新店區直潭路92號","121.530896666667","24.937565","6500600","新店區"
"241017","063-VK","2017/08/22 17:38:28","新北市三重區大同北路34巷12號","121.494885","25.0624516666667","6500200","三重區"
"241024","065-VK","2017/08/22 17:38:29","新北市三重區大勇街6號","121.483185","25.0714366666667","6500200","三重區"
"241003","091-VK","2017/08/22 17:38:25","新北市三重區自強路五段61號","121.494695","25.0818266666667","6500200","三重區"
"241006","156-TC","2017/08/22 17:38:31","新北市三重區車路頭街135-1號","121.484271666667","25.0761733333333","6500200","三重區"
"241005","262-UM","2017/08/22 17:38:40","新北市三重區仁愛街519號","121.487318333333","25.0822133333333","6500200","三重區"
"241016","266-UM","2017/08/22 17:38:40","新北市三重區正義北路19號","121.49754","25.063325","6500200","三重區"
"241007","398-BY","2017/08/22 17:38:34","新北市蘆洲區永安南路一段164號","121.474365","25.0749366666667","6500200","三重區"
"241030","480-VK","2017/08/22 17:38:27","新北市三重區中華路1號","121.483538333333","25.0605983333333","6500200","三重區"
"241014","543-UM","2017/08/22 17:38:21","新北市三重區河邊北街82號","121.504308333333","25.068965","6500200","三重區"
"241023","545-UM","2017/08/22 17:38:33","新北市三重區中華路109號","121.48355","25.0635816666667","6500200","三重區"
"241012","941-UM","2017/08/22 17:38:32","新北市三重區龍門路239號","121.501953333333","25.07404","6500200","三重區"
"241033","AAC-255","2017/08/22 17:38:33","新北市三重區光復路一段138-2號","121.471576666667","25.05301","6500200","三重區"
"235067","255-BX","2017/08/22 16:20:03","新北市中和區員山路36巷13號","121.484351666667","24.9912466666667","6500300","中和區"
"235062","800-TS","2017/08/22 17:38:31","新北市中和區員山路36巷16-3號","121.485118333333","24.9913266666667","6500300","中和區"
"247020","893-R6","2017/08/22 17:38:26","新北市蘆洲區民族路331-20號","121.473511666667","25.09187","6501400","蘆洲區"
"247010","546-UM","2017/08/22 17:38:36","新北市蘆洲區中山一路100號","121.477958333333","25.0813516666667","6501400","蘆洲區"
"247018","500-BY","2017/08/22 17:38:35","新北市蘆洲區三民路110巷53號","121.472538333333","25.0882283333333","6501400","蘆洲區"
"247008","339-TH","2017/08/22 17:38:28","新北市蘆洲區和平路29巷14號","121.471976666667","25.0784966666667","6501400","蘆洲區"
"247024","337-TH","2017/08/22 17:38:17","新北市蘆洲區長樂路159號","121.46206","25.0880966666667","6501400","蘆洲區"
"247002","336-TH","2017/08/22 17:38:25","新北市蘆洲區永平街42-1號","121.458146666667","25.0911816666667","6501400","蘆洲區"
"247012","335-TH","2017/08/22 17:38:28","新北市蘆洲區復興路76號","121.474993333333","25.0866516666667","6501400","蘆洲區"
"247014","057-VK","2017/08/22 17:38:35","新北市蘆洲區中山二路130號","121.471706666667","25.0815766666667","6501400","蘆洲區"
"247004","056-VK","2017/08/22 17:38:33","新北市蘆洲區中原路12巷24號","121.460811666667","25.0839683333333","6501400","蘆洲區"
"247006","053-VK","2017/08/22 17:38:23","新北市蘆洲區長安街68巷4號","121.46289","25.0803066666667","6501400","蘆洲區"
"247022","002-UY","2017/08/22 17:38:31","新北市蘆洲區三民路285號","121.467473333333","25.0900483333333","6501400","蘆洲區"
"247016","001-UY","2017/08/22 17:38:31","新北市蘆洲區光華路48號","121.468643333333","25.0830733333333","6501400","蘆洲區"
"228001","212-TW","2017/08/22 17:38:33","新北市貢寮區仁理村仁愛路95-1號","121.927676666667","25.0554666666667","6502600","貢寮區"
"228002","663-BX","2017/08/22 17:38:30","新北市貢寮區福隆里龜壽谷街12號","121.95602","25.0062566666667","6502600","貢寮區"
"228003","828-UM","2017/08/22 17:38:30","新北市貢寮區仁理村仁和路214號","121.923693333333","25.0531233333333","6502600","貢寮區"
"224010","AGQ-8101","2017/08/22 17:36:47","新北市瑞芳區岳王路19號","121.807283333333","25.1112116666667","6501200","瑞芳區"
"224006","676-BX","2017/08/22 17:38:20","新北市瑞芳區中山路369號","121.796188333333","25.110085","6501200","瑞芳區"
"224002","639-TC","2017/08/22 17:38:23","新北市瑞芳區民權街3-1號","121.809365","25.1081933333333","6501200","瑞芳區"
"224009","285-BY","2017/08/22 17:38:37","新北市瑞芳區崙頂路1-5號","121.846741666667","25.10635","6501200","瑞芳區"
"224008","275-VK","2017/08/22 17:38:20","新北市瑞芳區瑞柑新村3號","121.829111666667","25.1063066666667","6501200","瑞芳區"
"224005","271-BY","2017/08/22 17:38:24","新北市瑞芳區海濱路8-6號","121.830808333333","25.12556","6501200","瑞芳區"
"251004","009-UM","2017/08/22 17:38:22","新北市淡水區中正東路二段163號","121.459296666667","25.1450483333333","6501000","淡水區"
"251014","180-VK","2017/08/22 17:38:24","新北市淡水區水碓5-3號","121.477045","25.22209","6501000","淡水區"
"251008","181-VK","2017/08/22 17:38:32","新北市淡水區八勢路50巷14號","121.463341666667","25.150945","6501000","淡水區"
"251010","413-VK","2017/08/22 17:38:38","新北市淡水區淡海路280巷97號","121.419941666667","25.188885","6501000","淡水區"
"251012","441-VK","2017/08/22 17:38:26","新北市淡水區北新路200巷8號","121.451743333333","25.17965","6501000","淡水區"
"251016","442-VK","2017/08/22 17:38:21","新北市淡水區埤島39-15號","121.452745","25.1958916666667","6501000","淡水區"
"251005","443-VK","2017/08/22 17:38:22","新北市淡水區鄧公路33巷3號","121.451585","25.1710533333333","6501000","淡水區"
"251001","559-UM","2017/08/22 17:38:35","新北市淡水區民權路92巷35-1號","121.462168333333","25.1266816666667","6501000","淡水區"
"251006","561-UM","2017/08/22 17:38:39","新北市淡水區大信街26號","121.442045","25.17682","6501000","淡水區"
"251009","575-R6","2017/08/22 17:38:32","新北市淡水區中正路38-1號","121.443728333333","25.169335","6501000","淡水區"
"251007","577-R6","2017/08/22 17:38:36","新北市淡水區民生路124巷2號","121.463903333333","25.1381283333333","6501000","淡水區"
"251011","650-BX","2017/08/22 17:38:21","新北市淡水區小坪頂20-1號","121.484631666667","25.1575816666667","6501000","淡水區"
"251002","672-BX","2017/08/22 17:38:34","新北市淡水區中山路151-9號","121.440156666667","25.17241","6501000","淡水區"
"251003","766-UM","2017/08/22 17:38:40","新北市淡水區中山北路一段104號","121.44272","25.1765016666667","6501000","淡水區"
"207003","550-UM","2017/08/22 17:38:38","新北市萬里區龜吼里漁澳路85-2號","121.690876666667","25.1986216666667","6502800","萬里區"
"207004","225-TW","2017/08/22 17:38:24","新北市萬里區中幅里中福路22號","121.682171666667","25.1652616666667","6502800","萬里區"
"252002","178-VK","2017/08/22 17:38:30","新北市三芝區智成街88號","121.505106666667","25.2556833333333","6502100","三芝區"
"252001","702-TV","2017/08/22 17:38:33","新北市三芝區淡金路一段55號","121.500101666667","25.2591733333333","6502100","三芝區"
"237009","210-TH","2017/08/22 17:38:34","新北市三峽區中山路459巷163-3號","121.34876","24.9332133333333","6500900","三峽區"
"237008","302-VK","2017/08/22 17:38:28","新北市三峽區中山路459巷131號","121.351011666667","24.9347416666667","6500900","三峽區"
"237011","572-TV","2017/08/22 17:38:21","新北市三峽區中山路107巷10號","121.364941666667","24.93551","6500900","三峽區"
"237016","649-BX","2017/08/22 17:38:21","新北市三峽區民權街134號","121.36864","24.9318516666667","6500900","三峽區"
"237010","706-TV","2017/08/22 17:38:21","新北市三峽區中山路175號","121.363691666667","24.9368166666667","6500900","三峽區"
"236043","107-UM","2017/08/22 17:38:29","新北市土城區城林路6巷80號","121.438533333333","24.97962","6501300","土城區"
"242021","AAC-296","2017/08/22 17:38:20","新北市新莊區中華路一段80號","121.452125","25.0392033333333","6500500","新莊區"
"242029","986-R7","2017/08/22 17:38:33","新北市新莊區復興路二段178號","121.458828333333","25.0442733333333","6500500","新莊區"
"242048","751-BX","2017/08/22 17:38:27","新北市新莊區萬安街120號","121.420405","25.021915","6500500","新莊區"
"242023","705-TV","2017/08/22 17:38:33","新北市新莊區公園路129-1號","121.456936666667","25.0406966666667","6500500","新莊區"
"242025","615-BX","2017/08/22 17:38:19","新北市新莊區復興路二段143號","121.457631666667","25.0445133333333","6500500","新莊區"
"242027","612-BX","2017/08/22 17:38:32","新北市新莊區福壽街122號","121.457891666667","25.0511133333333","6500500","新莊區"
"242037","566-BX","2017/08/22 17:38:35","新北市新莊區後港一路162號","121.430935","25.0276366666667","6500500","新莊區"
"242042","497-BY","2017/08/22 17:38:35","新北市新莊區中正路514號","121.429793333333","25.0352166666667","6500500","新莊區"
"242046","441-UM","2017/08/22 17:38:20","新北市新莊區福營路126號","121.435906666667","25.0324633333333","6500500","新莊區"
"242051","440-UM","2017/08/22 17:38:37","新北市新莊區西盛街195號","121.428218333333","25.017245","6500500","新莊區"
"242032","415-TV","2017/08/22 17:38:26","新北市新莊區新泰路336號","121.444868333333","25.0420966666667","6500500","新莊區"
"242002","413-TV","2017/08/22 17:38:36","新北市新莊區新莊路407號","121.450828333333","25.0335733333333","6500500","新莊區"
"242039","400-BY","2017/08/22 17:38:35","新北市新莊區民安東路2號","121.427755","25.0209516666667","6500500","新莊區"
"242061","362-BY","2017/08/22 17:38:36","新北市新莊區瓊林南路66號","121.434538333333","25.0135983333333","6500500","新莊區"
"242058","353-BY","2017/08/22 17:38:35","新北市新莊區中正路652號","121.42163","25.028645","6500500","新莊區"
"242005","132-UY","2017/08/22 17:38:20","新北市新莊區自立街126號","121.455463333333","25.0453733333333","6500500","新莊區"
"242034","133-UY","2017/08/22 17:38:29","新北市新莊區新莊路595號","121.446168333333","25.03323","6500500","新莊區"
"242019","135-UY","2017/08/22 17:38:30","新北市新莊區中港路151號","121.455015","25.041005","6500500","新莊區"
"242007","173-VK","2017/08/22 17:38:26","新北市新莊區福樂街69號","121.457075","25.0477866666667","6500500","新莊區"
"242013","175-VK","2017/08/22 17:38:37","新北市新莊區中誠街119號","121.449398333333","25.047545","6500500","新莊區"
"242056","176-VK","2017/08/22 17:36:23","新北市新莊區瓊林路34號","121.44867","25.03115","6500500","新莊區"
"242011","346-TH","2017/08/22 17:38:29","新北市新莊區中港路570號","121.45153","25.0532866666667","6500500","新莊區"
"242044","347-TH","2017/08/22 17:38:20","新北市新莊區富國路2號","121.418085","25.0264333333333","6500500","新莊區"
"242017","348-TH","2017/08/22 17:38:33","新北市新莊區復興路一段149巷21弄23號","121.449076666667","25.0438","6500500","新莊區"
"242054","349-TH","2017/08/22 17:38:27","新北市新莊區新樹路723號","121.431883333333","25.001865","6500500","新莊區"
"242015","350-TH","2017/08/22 17:38:21","新北市新莊區新泰路394號","121.443975","25.0435733333333","6500500","新莊區"
"242009","351-TH","2017/08/22 17:38:23","新北市新莊區福壽街169巷12號","121.457276666667","25.0537616666667","6500500","新莊區"
"238015","755-BX","2017/08/22 17:38:22","新北市樹林區長壽街19巷2號","121.421856666667","24.9941766666667","6500700","樹林區"
"238023","601-UM","2017/08/22 17:38:29","新北市樹林區三福街114號","121.406495","25.0163633333333","6500700","樹林區"
"238019","599-UM","2017/08/22 17:38:35","新北市樹林區太平路129號","121.4193","24.9804933333333","6500700","樹林區"
"238018","571-TV","2017/08/22 17:38:34","新北市樹林區鎮前街181號","121.421775","24.98687","6500700","樹林區"
"238024","5061-A6","2017/08/22 17:38:21","新北市樹林區博愛街206號","121.424625","24.9891316666667","6500700","樹林區"
"238022","312-TH","2017/08/22 17:38:31","新北市樹林區仁愛街18號","121.422165","24.9819233333333","6500700","樹林區"
"238021","311-TH","2017/08/22 17:13:56","新北市樹林區西圳街一段165巷19號","121.395648333333","24.961825","6500700","樹林區"
"238025","303-VK","2017/08/22 17:38:23","新北市樹林區保安街二段24-1號","121.41539","25.001855","6500700","樹林區"
"238017","283-BY","2017/08/22 17:38:20","新北市樹林區中正路244號","121.417968333333","25.007145","6500700","樹林區"
"238014","282-BY","2017/08/22 17:38:30","新北市樹林區保安街一段247號","121.41977","24.9966183333333","6500700","樹林區"
"238020","268-VK","2017/08/22 17:36:59","新北市樹林區俊英街116巷27號","121.428238333333","25.0061583333333","6500700","樹林區"
"238026","172-UY","2017/08/22 17:38:26","新北市樹林區新興街3號","121.400176666667","24.9739966666667","6500700","樹林區"
"238016","169-UY","2017/08/22 17:38:23","新北市樹林區樹德街38巷10號","121.422615","24.9920083333333","6500700","樹林區"
"239007","AAC-297","2017/08/22 17:38:30","新北市鶯歌區鶯桃路184號","121.336955","24.9554533333333","6500800","鶯歌區"
"239006","891-R6","2017/08/22 17:38:36","新北市鶯歌區永和街34巷26號","121.333786666667","24.9669483333333","6500800","鶯歌區"
"239008","527-UM","2017/08/22 17:38:34","新北市鶯歌區大湖路700巷22弄3號","121.333746666667","24.97713","6500800","鶯歌區"
"239005","526-UM","2017/08/22 17:38:34","新北市鶯歌區鳳吉四街33號","121.327058333333","24.97295","6500800","鶯歌區"
"239001","417-VK","2017/08/22 17:38:36","新北市鶯歌區中正三路238號","121.330086666667","24.9366316666667","6500800","鶯歌區"
"239003","360-BY","2017/08/22 17:38:22","新北市鶯歌區鶯桃路208號","121.337408333333","24.959205","6500800","鶯歌區"
"239002","359-BY","2017/08/22 17:38:20","新北市鶯歌區育樂街106號","121.343658333333","24.9543766666667","6500800","鶯歌區"
"239004","193-VK","2017/08/22 17:38:32","新北市三峽區隆恩街250號","121.35699","24.94091","6500800","鶯歌區"
"221008","489-VK","2017/08/22 17:38:33","新北市汐止區康寧街901號","121.651368333333","25.075075","6501100","汐止區"
"221010","269-BY","2017/08/22 17:38:35","新北市汐止區汐萬路一段256巷1號","121.651858333333","25.0749083333333","6501100","汐止區"
"221012","276-VK","2017/08/22 13:25:14","新北市汐止區汐萬路一段256巷3號","121.653455","25.074615","6501100","汐止區"
"221023","279-VK","2017/08/22 17:38:39","新北市汐止區汐萬路一段256巷1號","121.651743333333","25.07491","6501100","汐止區"
"221032","280-BY","2017/08/22 17:38:22","新北市汐止區工建路207號","121.635806666667","25.061745","6501100","汐止區"
"221033","647-BX","2017/08/22 17:38:28","新北市汐止區大同路一段142-1號","121.631375","25.0553733333333","6501100","汐止區"
"221018","753-BX","2017/08/22 17:38:28","新北市汐止區汐萬路一段39-3號","121.654898333333","25.06962","6501100","汐止區"
