"lineid","car","time","location","longitude","latitude","cityid","cityname"
"234026","9371-KE","2017/08/22 17:48:15","新北市永和區永平路169號","121.510683333333","25.00896","6500400","永和區"
"234011","9373-KE","2017/08/22 17:48:34","新北市永和區福和路1號","121.525468333333","25.0092816666667","6500400","永和區"
"249005","172-UM","2017/08/22 17:48:33","新北市八里區荖阡坑路34-2號","121.402288333333","25.1307266666667","6502300","八里區"
"249001","173-UM","2017/08/22 17:47:22","新北市八里區龍米路二段143號","121.444231666667","25.1490366666667","6502300","八里區"
"249004","303-UY","2017/08/22 17:48:32","新北市八里區中華路一段81巷18號","121.41955","25.155815","6502300","八里區"
"249002","305-UY","2017/08/22 17:48:31","新北市八里區龍形五街37巷3-1號","121.448705","25.13263","6502300","八里區"
"249003","593-UM","2017/08/22 17:48:36","新北市八里區中山路二段123號","121.405455","25.151885","6502300","八里區"
"248006","077-UY","2017/08/22 17:48:31","新北市五股區中興路二段37巷28號","121.460096666667","25.07498","6501500","五股區"
"248020","225-UY","2017/08/22 17:48:36","新北市五股區中興路二段83巷26-6號","121.460031666667","25.0752833333333","6501500","五股區"
"248012","655-BX","2017/08/22 10:34:42","新北市五股區中興路二段83巷26-6號","121.46003","25.0752633333333","6501500","五股區"
"234067","AAC-212","2017/08/22 17:48:33","新北市永和區福和路1號","121.526471666667","25.0097683333333","6500400","永和區"
"232011","375-UM","2017/08/22 17:48:04","新北市坪林區北宜路八段120號","121.706213333333","24.9346516666667","6502000","坪林區"
"244007","080-UY","2017/08/22 17:48:21","新北市林口區林口路197號","121.3877","25.0824583333333","6501700","林口區"
"244019","403-UM","2017/08/22 17:48:33","新北市林口區文化一路一段89-5號","121.371938333333","25.0703516666667","6501700","林口區"
"244009","410-SL","2017/08/22 17:48:22","新北市林口區民享路178號","121.3822","25.0836983333333","6501700","林口區"
"244017","656-BX","2017/08/22 17:48:17","新北市林口區文化一路一段57-2號","121.371255","25.0698416666667","6501700","林口區"
"244023","657-BX","2017/08/22 17:48:26","新北市林口區興林路318巷7號","121.388508333333","25.0704716666667","6501700","林口區"
"244013","658-BX","2017/08/22 17:48:23","新北市林口區中正路501號","121.383378333333","25.0777083333333","6501700","林口區"
"244011","701-TV","2017/08/22 17:48:33","新北市林口區中興街3號","121.388951666667","25.0774766666667","6501700","林口區"
"244025","837-TS","2017/08/22 17:48:32","新北市林口區文化三路一段179號","121.361995","25.0695416666667","6501700","林口區"
"244021","838-TS","2017/08/22 17:48:35","新北市林口區仁愛路一段139巷7號","121.398373333333","25.0716733333333","6501700","林口區"
"243012","539-UM","2017/08/22 15:39:13","新北市泰山區犁頭窠3-1號","121.421973333333","25.0605316666667","6501600","泰山區"
"222003","436-BY","2017/08/22 17:48:32","新北市深坑區北深路三段18號","121.609488333333","25.00108","6501800","深坑區"
"231069","189-VK","2017/08/22 11:53:09","新北市新店區安華路28-1號","121.519686666667","24.9611016666667","6500600","新店區"
"231046","278-BY","2017/08/22 17:48:26","新北市新店區下石厝路29-1號","121.534371666667","24.9295366666667","6500600","新店區"
"241024","065-VK","2017/08/22 17:48:29","新北市三重區車路頭街62巷14號","121.48347","25.0724416666667","6500200","三重區"
"241006","156-TC","2017/08/22 17:48:31","新北市三重區車路頭街135-1號","121.484271666667","25.0761733333333","6500200","三重區"
"241016","266-UM","2017/08/22 17:48:20","新北市三重區重新路3段43-1號","121.493398333333","25.061265","6500200","三重區"
"241007","398-BY","2017/08/22 17:48:34","新北市五股區成泰路三段544-1號","121.453696666667","25.1015483333333","6500200","三重區"
"241033","AAC-255","2017/08/22 17:48:33","新北市三重區光復路一段22號","121.47199","25.047125","6500200","三重區"
"235067","255-BX","2017/08/22 16:20:03","新北市中和區員山路36巷13號","121.484351666667","24.9912466666667","6500300","中和區"
"235061","378-QA","2017/08/22 14:50:38","新北市中和區員山路36巷13號","121.484291666667","24.9913416666667","6500300","中和區"
"235062","800-TS","2017/08/22 17:48:31","新北市中和區員山路36巷16-3號","121.485165","24.9913766666667","6500300","中和區"
"235052","805-TS","2017/08/22 17:48:16","新北市中和區員山路36巷16號","121.48444","24.9915416666667","6500300","中和區"
"247020","893-R6","2017/08/22 17:48:25","新北市蘆洲區民義街71巷24號","121.47258","25.0907316666667","6501400","蘆洲區"
"247010","546-UM","2017/08/22 17:48:36","新北市蘆洲區民族路47號","121.478396666667","25.08541","6501400","蘆洲區"
"247018","500-BY","2017/08/22 17:48:35","新北市蘆洲區復興路127號","121.477578333333","25.08837","6501400","蘆洲區"
"247008","339-TH","2017/08/22 17:48:28","新北市蘆洲區信義路30巷1號","121.474251666667","25.0792133333333","6501400","蘆洲區"
"247024","337-TH","2017/08/22 17:48:17","新北市蘆洲區長樂路120巷8號","121.462461666667","25.08967","6501400","蘆洲區"
"247002","336-TH","2017/08/22 17:48:25","新北市蘆洲區永平街32巷21弄31號","121.458073333333","25.0921966666667","6501400","蘆洲區"
"247012","335-TH","2017/08/22 17:48:28","新北市蘆洲區復興路60巷1弄2號","121.474866666667","25.086055","6501400","蘆洲區"
"247004","056-VK","2017/08/22 17:48:34","新北市蘆洲區環堤大道92號","121.455638333333","25.0852283333333","6501400","蘆洲區"
"247006","053-VK","2017/08/22 17:48:23","新北市蘆洲區九芎街107號","121.465831666667","25.079765","6501400","蘆洲區"
"247022","002-UY","2017/08/22 17:48:34","新北市蘆洲區中正路385號","121.463773333333","25.0923516666667","6501400","蘆洲區"
"247016","001-UY","2017/08/22 17:48:31","新北市蘆洲區中正路185巷27號","121.466698333333","25.08446","6501400","蘆洲區"
"228001","212-TW","2017/08/22 17:48:32","新北市貢寮區仁理村仁愛路95-1號","121.927671666667","25.0554716666667","6502600","貢寮區"
"228002","663-BX","2017/08/22 17:48:30","新北市貢寮區福隆里外隆林街15號","121.958991666667","25.0036633333333","6502600","貢寮區"
"228003","828-UM","2017/08/22 17:48:30","新北市貢寮區真理里美艷山街13-1號","121.928516666667","25.0607883333333","6502600","貢寮區"
"224006","676-BX","2017/08/22 17:48:31","新北市瑞芳區傑魚坑路264號","121.789136666667","25.1090866666667","6501200","瑞芳區"
"224002","639-TC","2017/08/22 17:48:23","新北市瑞芳區民權街3-1號","121.809376666667","25.1081916666667","6501200","瑞芳區"
"224009","285-BY","2017/08/22 17:48:37","新北市瑞芳區金光路334號","121.849615","25.1096966666667","6501200","瑞芳區"
"224008","275-VK","2017/08/22 17:48:20","新北市瑞芳區明燈路一段222號","121.818166666667","25.10848","6501200","瑞芳區"
"224005","271-BY","2017/08/22 17:48:24","新北市瑞芳區瑞芳街32-10號","121.822055","25.1210133333333","6501200","瑞芳區"
"253003","6232-TK","2017/08/22 17:48:24","新北市石門區中央路1-25號","121.5588","25.2911183333333","6502200","石門區"
"208002","742-BX","2017/08/22 17:48:35","新北市金山區磺清路135號","121.639431666667","25.227665","6502700","金山區"
"208003","665-BX","2017/08/22 17:48:28","新北市金山區磺清路135號","121.639276666667","25.2275633333333","6502700","金山區"
"208001","761-BX","2017/08/22 17:48:21","新北市金山區磺清路121號","121.639551666667","25.227855","6502700","金山區"
"251004","009-UM","2017/08/22 17:48:22","新北市淡水區民權一街17巷15號","121.459348333333","25.1366816666667","6501000","淡水區"
"251014","180-VK","2017/08/22 17:48:24","新北市淡水區公埔子16-6號","121.48101","25.2245666666667","6501000","淡水區"
"251008","181-VK","2017/08/22 17:48:32","新北市淡水區八勢路一段155號","121.467723333333","25.1564983333333","6501000","淡水區"
"251010","413-VK","2017/08/22 17:48:18","新北市淡水區淡海路300號","121.418191666667","25.1881333333333","6501000","淡水區"
"251012","441-VK","2017/08/22 17:48:26","新北市淡水區北新路一段403號","121.467775","25.182585","6501000","淡水區"
"251016","442-VK","2017/08/22 17:48:21","新北市淡水區埤島39-15號","121.452745","25.1958883333333","6501000","淡水區"
"251005","443-VK","2017/08/22 17:48:22","新北市淡水區學府路100巷1號","121.450251666667","25.1717516666667","6501000","淡水區"
"251001","559-UM","2017/08/22 17:48:35","新北市淡水區民權路92巷35-1號","121.462166666667","25.1267116666667","6501000","淡水區"
"251006","561-UM","2017/08/22 17:48:39","新北市淡水區中山北路一段53號","121.441336666667","25.1759816666667","6501000","淡水區"
"251009","575-R6","2017/08/22 17:48:32","新北市淡水區長興街31-1號","121.443988333333","25.1712583333333","6501000","淡水區"
"251011","650-BX","2017/08/22 17:48:21","新北市淡水區吳(仔)厝70號","121.479588333333","25.1497","6501000","淡水區"
"251002","672-BX","2017/08/22 17:48:34","新北市淡水區中山路64號","121.443713333333","25.1705916666667","6501000","淡水區"
"251003","766-UM","2017/08/22 17:48:32","新北市淡水區大仁街69號","121.442955","25.1762983333333","6501000","淡水區"
"207003","550-UM","2017/08/22 17:48:18","新北市萬里區野柳里東澳路66號","121.692691666667","25.2009183333333","6502800","萬里區"
"207004","225-TW","2017/08/22 17:48:04","新北市萬里區萬里里瑪鋉路79號","121.688378333333","25.1765566666667","6502800","萬里區"
"252002","178-VK","2017/08/22 17:48:30","新北市三芝區智成街58號","121.504386666667","25.2561533333333","6502100","三芝區"
"252001","702-TV","2017/08/22 17:48:33","新北市三芝區中山路一段16號","121.501013333333","25.25818","6502100","三芝區"
"237004","078-UY","2017/08/22 17:48:17","新北市三峽區中山路119號","121.365515","24.9359333333333","6500900","三峽區"
"237009","210-TH","2017/08/22 17:48:34","新北市三峽區大勇路17號","121.367271666667","24.9367366666667","6500900","三峽區"
"237013","252-BX","2017/08/22 17:48:26","新北市三峽區愛國路16巷2號","121.374","24.9335016666667","6500900","三峽區"
"237012","275-BY","2017/08/22 17:47:55","新北市三峽區中山路131號","121.365181666667","24.9359083333333","6500900","三峽區"
"237008","302-VK","2017/08/22 17:48:27","新北市三峽區中園街237-1號","121.366825","24.91951","6500900","三峽區"
"237014","433-BY","2017/08/22 17:48:21","新北市三峽區文化路120巷7號","121.37106","24.936565","6500900","三峽區"
"237006","5529-G3","2017/08/22 17:48:35","新北市三峽區介壽路二段38巷22號","121.391658333333","24.93456","6500900","三峽區"
"237011","572-TV","2017/08/22 17:48:21","新北市三峽區光明路100-6號","121.376091666667","24.9279066666667","6500900","三峽區"
"237016","649-BX","2017/08/22 17:48:21","新北市三峽區白雞35-6號","121.377155","24.911885","6500900","三峽區"
"237010","706-TV","2017/08/22 17:48:21","新北市三峽區和平街26號","121.37017","24.9367266666667","6500900","三峽區"
"237005","AKY-6261","2017/08/22 17:48:28","新北市三峽區中山路459巷66號","121.355676666667","24.9364866666667","6500900","三峽區"
"236070","105-UM","2017/08/22 17:48:27","新北市土城區明德路二段118號","121.444843333333","24.9842783333333","6501300","土城區"
"236043","107-UM","2017/08/22 17:48:29","新北市土城區城林路6巷80號","121.438498333333","24.97962","6501300","土城區"
"236079","166-UM","2017/08/22 17:48:34","新北市土城區中華路二段2號","121.43883","24.9798383333333","6501300","土城區"
"236027","269-VK","2017/08/22 17:48:17","新北市土城區中華路二段210號","121.437611666667","24.9687716666667","6501300","土城區"
"236038","271-VK","2017/08/22 17:48:37","新北市土城區城林路6巷80號","121.438376666667","24.9797783333333","6501300","土城區"
"236059","912-UM","2017/08/22 17:48:28","新北市土城區城林路6巷80號","121.438628333333","24.9796916666667","6501300","土城區"
"236049","913-UM","2017/08/22 17:48:15","新北市板橋區金門街369巷83-1號","121.431706666667","24.9801916666667","6501300","土城區"
"236055","AAC-216","2017/08/22 17:48:22","新北市土城區城林路6巷80號","121.438516666667","24.97964","6501300","土城區"
"242021","AAC-296","2017/08/22 17:48:20","新北市新莊區中港路204號","121.454788333333","25.0424133333333","6500500","新莊區"
"242029","986-R7","2017/08/22 17:48:34","新北市新莊區復興路一段179號","121.451461666667","25.0434866666667","6500500","新莊區"
"242048","751-BX","2017/08/22 17:48:25","新北市新莊區萬安街60巷9號","121.420586666667","25.0233416666667","6500500","新莊區"
"242023","705-TV","2017/08/22 17:48:33","新北市新莊區福樂街70號","121.457753333333","25.0464566666667","6500500","新莊區"
"242025","615-BX","2017/08/22 17:48:19","新北市新莊區中山路一段7號","121.465433333333","25.0611866666667","6500500","新莊區"
"242027","612-BX","2017/08/22 17:48:32","新北市新莊區福壽街173號","121.457986666667","25.0538733333333","6500500","新莊區"
"242037","566-BX","2017/08/22 17:48:35","新北市新莊區後港一路103號","121.428245","25.0270166666667","6500500","新莊區"
"242042","497-BY","2017/08/22 17:48:37","新北市新莊區中正路614巷4弄1號","121.425738333333","25.0305833333333","6500500","新莊區"
"242046","441-UM","2017/08/22 17:48:20","新北市新莊區建國一路68號","121.434303333333","25.0306183333333","6500500","新莊區"
"242051","440-UM","2017/08/22 17:48:37","新北市新莊區西盛街311巷21號","121.428895","25.015235","6500500","新莊區"
"242032","415-TV","2017/08/22 17:48:26","新北市新莊區新泰路321巷37號","121.443026666667","25.0411733333333","6500500","新莊區"
"242002","413-TV","2017/08/22 17:48:36","新北市新莊區景德路83號","121.452448333333","25.0349333333333","6500500","新莊區"
"242039","400-BY","2017/08/22 17:48:35","新北市新莊區民安路160號","121.4247","25.02457","6500500","新莊區"
"242061","362-BY","2017/08/22 17:48:36","新北市新莊區瓊林南路221號","121.434776666667","25.0088683333333","6500500","新莊區"
"242058","353-BY","2017/08/22 17:48:35","新北市新莊區中正路726-2號","121.415961666667","25.02427","6500500","新莊區"
"242005","132-UY","2017/08/22 17:48:19","新北市新莊區思源路177巷5弄12號","121.458863333333","25.0450033333333","6500500","新莊區"
"242034","133-UY","2017/08/22 17:48:29","新北市新莊區新莊路660號","121.442475","25.0327283333333","6500500","新莊區"
"242019","135-UY","2017/08/22 17:48:30","新北市新莊區復興路二段131號","121.457165","25.044355","6500500","新莊區"
"242007","173-VK","2017/08/22 17:48:26","新北市新莊區福樂街108巷13號","121.457678333333","25.04818","6500500","新莊區"
"242013","175-VK","2017/08/22 17:48:37","新北市新莊區中誠街164號","121.448143333333","25.0474366666667","6500500","新莊區"
"242056","176-VK","2017/08/22 17:48:31","新北市新莊區瓊林路40巷32號","121.446673333333","25.0302","6500500","新莊區"
"242011","346-TH","2017/08/22 17:48:29","新北市新莊區中港路697號","121.45072","25.0568333333333","6500500","新莊區"
"242044","347-TH","2017/08/22 17:48:20","新北市新莊區富國路57號","121.419518333333","25.0261183333333","6500500","新莊區"
"242017","348-TH","2017/08/22 17:48:33","新北市新莊區永安街155號","121.449186666667","25.0443783333333","6500500","新莊區"
"242054","349-TH","2017/08/22 17:48:27","新北市新莊區新樹路603號","121.433178333333","25.0056933333333","6500500","新莊區"
"242015","350-TH","2017/08/22 17:48:21","新北市新莊區新泰路502巷40號","121.443696666667","25.046365","6500500","新莊區"
"242009","351-TH","2017/08/22 17:48:23","新北市新莊區昌明街66號","121.45548","25.052105","6500500","新莊區"
"238015","755-BX","2017/08/22 17:48:22","新北市樹林區樹德街136巷10號","121.419395","24.9936633333333","6500700","樹林區"
"238023","601-UM","2017/08/22 17:48:29","新北市樹林區三福街128號","121.405848333333","25.01631","6500700","樹林區"
"238019","599-UM","2017/08/22 17:48:35","新北市樹林區太順街3號","121.420038333333","24.98022","6500700","樹林區"
"238018","571-TV","2017/08/22 17:48:25","新北市樹林區鎮前街119號","121.424253333333","24.989625","6500700","樹林區"
"238024","5061-A6","2017/08/22 17:48:21","新北市樹林區八德街226-7號","121.414756666667","24.97118","6500700","樹林區"
"238022","312-TH","2017/08/22 17:48:31","新北市樹林區中華路267號","121.417958333333","24.98037","6500700","樹林區"
"238021","311-TH","2017/08/22 17:47:39","新北市樹林區民權街2號","121.395683333333","24.956625","6500700","樹林區"
"238025","303-VK","2017/08/22 17:48:37","新北市樹林區三俊街7號","121.411361666667","25.0154483333333","6500700","樹林區"
"238017","283-BY","2017/08/22 17:48:20","新北市樹林區三俊街74巷47號","121.41436","25.0130566666667","6500700","樹林區"
"238014","282-BY","2017/08/22 17:48:30","新北市樹林區保安街一段340號","121.41804","24.9980683333333","6500700","樹林區"
"238020","268-VK","2017/08/22 17:46:41","新北市樹林區俊保路60號","121.424883333333","25.00943","6500700","樹林區"
"238026","172-UY","2017/08/22 17:48:26","新北市樹林區新興街19巷26號","121.401291666667","24.9733216666667","6500700","樹林區"
"238016","169-UY","2017/08/22 17:48:23","新北市樹林區復興路260號","121.418305","24.9889083333333","6500700","樹林區"
"239007","AAC-297","2017/08/22 17:48:30","新北市鶯歌區鶯桃路94巷27號","121.340695","24.9542933333333","6500800","鶯歌區"
"239006","891-R6","2017/08/22 17:48:36","新北市鶯歌區鶯桃路413巷20號","121.331401666667","24.96373","6500800","鶯歌區"
"239008","527-UM","2017/08/22 17:48:34","新北市鶯歌區香賓街7巷23號","121.336016666667","24.9794766666667","6500800","鶯歌區"
"239005","526-UM","2017/08/22 17:48:34","桃園市八德區桃鶯路142號","121.328661666667","24.9695066666667","6500800","鶯歌區"
"239001","417-VK","2017/08/22 17:48:36","新北市鶯歌區中正三路489號","121.321031666667","24.933885","6500800","鶯歌區"
"239003","360-BY","2017/08/22 17:48:22","新北市鶯歌區永吉街56號","121.335346666667","24.956905","6500800","鶯歌區"
"239002","359-BY","2017/08/22 17:48:20","新北市鶯歌區育英街17巷1弄3號","121.347453333333","24.9552066666667","6500800","鶯歌區"
"239004","193-VK","2017/08/22 17:48:32","新北市鶯歌區文化路136巷56號","121.350671666667","24.9501816666667","6500800","鶯歌區"
"221008","489-VK","2017/08/22 17:48:33","新北市汐止區康寧街901號","121.651428333333","25.0750583333333","6501100","汐止區"
"221036","130-UY","2017/08/22 17:48:30","新北市汐止區長江街11號","121.654718333333","25.07119","6501100","汐止區"
"221015","131-UY","2017/08/22 17:48:23","新北市汐止區汐萬路一段137號","121.653636666667","25.0711116666667","6501100","汐止區"
"221010","269-BY","2017/08/22 17:48:35","新北市汐止區汐萬路一段418巷6弄10號","121.650308333333","25.0779933333333","6501100","汐止區"
"221012","276-VK","2017/08/22 13:25:14","新北市汐止區汐萬路一段256巷3號","121.653455","25.074615","6501100","汐止區"
"221031","277-VK","2017/08/22 17:48:15","新北市汐止區汐萬路一段256巷1號","121.651846666667","25.0748483333333","6501100","汐止區"
"221012","278-VK","2017/08/22 17:48:18","新北市汐止區汐萬路一段129號","121.653838333333","25.0711683333333","6501100","汐止區"
"221023","279-VK","2017/08/22 17:48:19","新北市汐止區民族一街18號","121.634956666667","25.071155","6501100","汐止區"
"221032","280-BY","2017/08/22 17:48:22","新北市汐止區民權街一段16號","121.621253333333","25.0535966666667","6501100","汐止區"
"221027","281-BY","2017/08/22 17:48:34","新北市汐止區汐萬路一段256巷1號","121.651753333333","25.0749083333333","6501100","汐止區"
"221038","297-VK","2017/08/22 17:48:37","新北市汐止區康寧街901號","121.651651666667","25.0749283333333","6501100","汐止區"
"221029","298-VK","2017/08/22 17:48:26","新北市汐止區康寧街901號","121.65168","25.07495","6501100","汐止區"
"221021","299-VK","2017/08/22 17:48:25","新北市汐止區水源路一段5號","121.657165","25.0669783333333","6501100","汐止區"
"221035","622-UM","2017/08/22 17:48:21","新北市汐止區汐萬路一段211巷13號","121.651616666667","25.0718966666667","6501100","汐止區"
"221025","623-UM","2017/08/22 17:48:26","新北市汐止區大同路二段175號","121.651636666667","25.0643833333333","6501100","汐止區"
"221033","647-BX","2017/08/22 17:48:28","新北市汐止區橫科路73巷20弄22號","121.619771666667","25.051665","6501100","汐止區"
"221018","753-BX","2017/08/22 17:48:28","新北市汐止區忠孝東路348號","121.665643333333","25.0697133333333","6501100","汐止區"
