"lineid","car","time","location","longitude","latitude","cityid","cityname"
"234013","149-BY","2017/08/22 18:19:23","新北市永和區福和路1號","121.526376666667","25.0099733333333","6500400","永和區"
"234007","207-UY","2017/08/22 18:19:25","新北市永和區環河西路二段5號","121.510063333333","25.0174333333333","6500400","永和區"
"234081","298-R6","2017/08/22 18:19:30","新北市永和區福和路1號","121.52663","25.0098616666667","6500400","永和區"
"234042","862-TW","2017/08/22 18:19:23","新北市永和區福和路1號","121.526463333333","25.0097116666667","6500400","永和區"
"234026","9371-KE","2017/08/22 18:19:35","新北市永和區豫溪街42巷2號","121.515465","25.0096766666667","6500400","永和區"
"234011","9373-KE","2017/08/22 18:19:34","新北市永和區保福路二段158巷1號","121.509136666667","25.0150616666667","6500400","永和區"
"249005","172-UM","2017/08/22 18:19:33","新北市八里區荖阡坑路15-13號","121.400295","25.14037","6502300","八里區"
"249001","173-UM","2017/08/22 18:19:22","新北市八里區龍米路一段131號","121.452175","25.126755","6502300","八里區"
"249004","303-UY","2017/08/22 18:19:29","新北市八里區龍米路二段232巷1弄9號","121.430718333333","25.1594566666667","6502300","八里區"
"249002","305-UY","2017/08/22 18:19:31","新北市八里區龍形二街60號","121.450168333333","25.1331566666667","6502300","八里區"
"249003","593-UM","2017/08/22 18:19:17","新北市八里區松子腳1-1號","121.403351666667","25.1451433333333","6502300","八里區"
"248014","025-BX","2017/08/22 18:19:20","新北市五股區自強路19巷5-1號","121.434681666667","25.073755","6501500","五股區"
"248016","026-BX","2017/08/22 18:19:29","新北市五股區成泰路三段477巷18號","121.44985","25.09892","6501500","五股區"
"248006","077-UY","2017/08/22 18:19:31","新北市五股區中興路一段137號","121.465525","25.073365","6501500","五股區"
"248008","095-VK","2017/08/22 18:19:17","新北市五股區更洲路32巷8弄17號","121.45928","25.0796416666667","6501500","五股區"
"248020","225-UY","2017/08/22 18:19:16","新北市五股區孝義路47巷3號","121.453923333333","25.1103083333333","6501500","五股區"
"248010","272-BY","2017/08/22 18:19:24","新北市五股區成泰路一段139巷1弄2號","121.435086666667","25.07289","6501500","五股區"
"248012","655-BX","2017/08/22 18:19:16","新北市五股區御史路1巷101弄2號","121.440975","25.0912233333333","6501500","五股區"
"248004","677-BX","2017/08/22 18:19:22","新北市五股區成泰路二段222-2號","121.439116666667","25.0854883333333","6501500","五股區"
"248002","678-BX","2017/08/22 18:19:30","新北市五股區西雲路93號","121.44371","25.09237","6501500","五股區"
"234067","AAC-212","2017/08/22 18:19:33","新北市永和區福和路1號","121.52633","25.0095616666667","6500400","永和區"
"232011","375-UM","2017/08/22 18:16:26","新北市坪林區坪雙路一段43號","121.711773333333","24.942455","6502000","坪林區"
"244007","080-UY","2017/08/22 18:19:21","新北市林口區湖子11號","121.387233333333","25.089","6501700","林口區"
"244019","403-UM","2017/08/22 18:19:33","新北市林口區文化一路一段100巷10弄1號","121.373935","25.070725","6501700","林口區"
"244009","410-SL","2017/08/22 18:19:27","新北市林口區佳林路97號","121.385956666667","25.080625","6501700","林口區"
"244017","656-BX","2017/08/22 18:19:17","新北市林口區八德路36號","121.367575","25.0665983333333","6501700","林口區"
"244023","657-BX","2017/08/22 18:19:26","新北市林口區仁愛路二段71號","121.384836666667","25.0756533333333","6501700","林口區"
"244013","658-BX","2017/08/22 18:19:23","新北市林口區中山路160巷15號","121.391735","25.07962","6501700","林口區"
"244011","701-TV","2017/08/22 18:19:33","新北市林口區中正路106號","121.393708333333","25.0772516666667","6501700","林口區"
"244025","837-TS","2017/08/22 18:19:32","新北市林口區南勢四街71-3號","121.354813333333","25.06996","6501700","林口區"
"244021","838-TS","2017/08/22 18:19:15","新北市林口區工六路6巷8號","121.397496666667","25.0787816666667","6501700","林口區"
"243013","AAD-798","2017/08/22 18:19:33","新北市泰山區南林路93號","121.41548","25.05118","6501600","泰山區"
"243012","539-UM","2017/08/22 15:39:13","新北市泰山區犁頭窠3-1號","121.421973333333","25.0605316666667","6501600","泰山區"
"222003","436-BY","2017/08/22 18:19:32","新北市深坑區文山路一段79號","121.626715","25.00182","6501800","深坑區"
"222002","659-BX","2017/08/22 18:19:20","新北市深坑區雲鄉路11號","121.621655","24.9997516666667","6501800","深坑區"
"222001","696-SL","2017/08/22 18:19:29","新北市深坑區北深路二段51號","121.618981666667","25.00403","6501800","深坑區"
"231059","001-UM","2017/08/22 18:18:53","新北市新店區安華路28-1號","121.519683333333","24.961285","6500600","新店區"
"231041","002-UM","2017/08/22 18:19:28","新北市新店區安華路28-1號","121.519741666667","24.9608483333333","6500600","新店區"
"231061","047-UY","2017/08/22 18:19:29","新北市新店區安華路28-1號","121.51918","24.9608016666667","6500600","新店區"
"231060","106-UY","2017/08/22 18:19:33","新北市新店區安華路28-1號","121.519885","24.9607883333333","6500600","新店區"
"231051","107-UY","2017/08/22 18:19:36","新北市新店區安華路28-1號","121.519315","24.9612783333333","6500600","新店區"
"231048","108-UY","2017/08/22 16:33:58","新北市新店區安華路28-1號","121.519503333333","24.96129","6500600","新店區"
"231053","187-VK","2017/08/22 18:19:31","新北市新店區安康路一段94-3號","121.52762","24.962185","6500600","新店區"
"231069","189-VK","2017/08/22 11:53:09","新北市新店區安華路28-1號","121.519686666667","24.9611016666667","6500600","新店區"
"231057","256-BX","2017/08/22 18:19:30","新北市新店區安華路28-1號","121.519766666667","24.9610666666667","6500600","新店區"
"231063","268-BY","2017/08/22 18:19:17","新北市新店區安華路28-1號","121.519326666667","24.96059","6500600","新店區"
"231046","278-BY","2017/08/22 18:19:26","新北市新店區直潭七街60號","121.532243333333","24.9398866666667","6500600","新店區"
"231058","3712-VJ","2017/08/22 18:19:17","新北市新店區環河路27號","121.537285","24.961335","6500600","新店區"
"231055","3713-VJ","2017/08/22 18:19:27","新北市新店區安康路一段33-1號","121.532326666667","24.9604483333333","6500600","新店區"
"231056","4716-K9","2017/08/22 18:19:21","新北市新店區環河路29巷1號","121.537","24.96141","6500600","新店區"
"231067","4772-VM","2017/08/22 18:19:33","新北市新店區安忠路57巷26弄62號","121.512036666667","24.9569216666667","6500600","新店區"
"231065","512-UM","2017/08/22 18:19:32","新北市新店區安華路28-1號","121.519145","24.9609816666667","6500600","新店區"
"231054","513-UM","2017/08/22 18:19:37","新北市新店區安華路28-1號","121.51979","24.9611333333333","6500600","新店區"
"231042","616-UM","2017/08/22 18:19:36","新北市新店區安華路1-1號","121.519461666667","24.9604933333333","6500600","新店區"
"231045","617-UM","2017/08/22 18:19:33","新北市新店區安華路28-1號","121.519316666667","24.9611316666667","6500600","新店區"
"231040","619-UM","2017/08/22 18:19:20","新北市新店區安華路28-1號","121.519485","24.961025","6500600","新店區"
"231049","719-UM","2017/08/22 18:19:20","新北市新店區安華路28-1號","121.519223333333","24.961145","6500600","新店區"
"231062","720-UM","2017/08/22 18:19:23","新北市新店區安華路28-1號","121.519006666667","24.961255","6500600","新店區"
"231044","897-TW","2017/08/22 18:19:29","新北市新店區安華路28-1號","121.519566666667","24.960865","6500600","新店區"
"231043","899-TW","2017/08/22 15:46:50","新北市新店區安華路28-1號","121.51909","24.9607933333333","6500600","新店區"
"241033","AAC-255","2017/08/22 18:19:33","新北市三重區光復路一段68巷10號","121.47153","25.0492283333333","6500200","三重區"
"235066","003-UY","2017/08/22 18:19:29","新北市中和區中山路二段122號","121.502636666667","25.0037166666667","6500300","中和區"
"235064","005-UY","2017/08/22 18:19:31","新北市中和區中正路166-1號","121.498341666667","24.99388","6500300","中和區"
"235039","097-UM","2017/08/22 18:19:28","新北市中和區中正路281號","121.49492","24.9938616666667","6500300","中和區"
"235065","098-UM","2017/08/22 18:19:17","新北市中和區莊敬路49巷18號","121.501603333333","25.0060983333333","6500300","中和區"
"235040","150-BY","2017/08/22 18:19:33","新北市中和區中正路270號","121.495028333333","24.9940183333333","6500300","中和區"
"235058","151-BY","2017/08/22 18:19:19","新北市中和區錦和路408號","121.491181666667","24.9895833333333","6500300","中和區"
"235055","183-VK","2017/08/22 18:19:29","新北市中和區員山路36巷16-3號","121.484906666667","24.991495","6500300","中和區"
"235038","185-VK","2017/08/22 18:19:28","新北市中和區大智街40號","121.521878333333","24.9922083333333","6500300","中和區"
"235049","186-VK","2017/08/22 18:19:18","新北市中和區員山路36巷16-2號","121.485253333333","24.9916883333333","6500300","中和區"
"235067","255-BX","2017/08/22 18:19:25","新北市中和區員山路36巷16-4號","121.485313333333","24.991945","6500300","中和區"
"235072","301-VK","2017/08/22 18:19:23","新北市中和區中正路589巷15號","121.485925","24.9936666666667","6500300","中和區"
"235043","352-BY","2017/08/22 18:19:21","新北市中和區景平路381號","121.503991666667","24.99342","6500300","中和區"
"235051","376-QA","2017/08/22 18:19:25","新北市中和區中正路273號","121.495576666667","24.993785","6500300","中和區"
"235068","377-QA","2017/08/22 18:19:23","新北市中和區員山路36巷16-2號","121.485226666667","24.9913683333333","6500300","中和區"
"235061","378-QA","2017/08/22 18:19:31","新北市中和區莒光路222-8號","121.469","24.9947766666667","6500300","中和區"
"235050","4979-A6","2017/08/22 18:19:33","新北市中和區捷運路57號","121.509111666667","24.9895133333333","6500300","中和區"
"235069","4980-A6","2017/08/22 18:19:18","新北市中和區連城路129號","121.496215","24.99906","6500300","中和區"
"235042","551-UM","2017/08/22 18:19:29","新北市中和區景平路159巷29弄5號","121.512993333333","24.9913266666667","6500300","中和區"
"235070","558-UM","2017/08/22 15:25:00","新北市中和區員山路36巷16-2號","121.485231666667","24.9914116666667","6500300","中和區"
"235045","565-BX","2017/08/22 18:19:15","新北市中和區中正路13號","121.503003333333","24.9933866666667","6500300","中和區"
"235054","640-BX","2017/08/22 18:19:29","新北市中和區莒光路203號","121.472535","24.9989766666667","6500300","中和區"
"235060","647-TV","2017/08/22 18:19:21","新北市中和區員山路36巷16-3號","121.484975","24.99182","6500300","中和區"
"235047","732-UM","2017/08/22 18:19:26","新北市中和區中正路273號","121.495618333333","24.993755","6500300","中和區"
"235062","800-TS","2017/08/22 18:19:31","新北市中和區景平路989巷6-3號","121.495355","25.0052666666667","6500300","中和區"
"235057","801-TS","2017/08/22 18:19:19","新北市中和區員山路63號","121.480788333333","24.9937166666667","6500300","中和區"
"235052","805-TS","2017/08/22 18:19:16","新北市中和區興南路二段81號","121.506473333333","24.9849183333333","6500300","中和區"
"235048","896-TW","2017/08/22 18:19:35","新北市中和區和城路一段271巷1號","121.485433333333","24.9919633333333","6500300","中和區"
"235053","900-TW","2017/08/22 18:19:17","新北市中和區員山路36巷16-3號","121.48492","24.9914466666667","6500300","中和區"
"235037","AAC-213","2017/08/22 18:19:18","新北市中和區景平路149號","121.513831666667","24.992095","6500300","中和區"
"226004","205-ST","2017/08/22 18:19:33","新北市平溪區靜安路二段86號","121.718651666667","25.02231","6502400","平溪區"
"228001","212-TW","2017/08/22 18:19:32","新北市貢寮區真理里新港街26巷55弄2-1號","121.92733","25.05284","6502600","貢寮區"
"228002","663-BX","2017/08/22 18:19:30","新北市貢寮區福連里馬崗街1號","121.996543333333","25.0169083333333","6502600","貢寮區"
"228003","828-UM","2017/08/22 18:19:30","新北市貢寮區和美里和美街63號","121.922375","25.0710916666667","6502600","貢寮區"
"224006","676-BX","2017/08/22 18:19:20","新北市瑞芳區民權街3-2號","121.808086666667","25.1074383333333","6501200","瑞芳區"
"224002","639-TC","2017/08/22 18:19:23","新北市瑞芳區三爪子坑路91巷1號","121.811631666667","25.107295","6501200","瑞芳區"
"224011","420-VK","2017/08/22 18:19:30","新北市瑞芳區烏勢巷145號","121.84743","25.1085183333333","6501200","瑞芳區"
"224009","285-BY","2017/08/22 18:19:27","新北市瑞芳區金光路103號","121.854408333333","25.106495","6501200","瑞芳區"
"224008","275-VK","2017/08/22 18:19:20","新北市瑞芳區逢甲路37-3號","121.808718333333","25.1089833333333","6501200","瑞芳區"
"224007","273-VK","2017/08/22 18:19:23","新北市瑞芳區大埔路44號","121.764378333333","25.1019783333333","6501200","瑞芳區"
"224005","271-BY","2017/08/22 18:19:24","新北市瑞芳區建基新村1號","121.812798333333","25.1305333333333","6501200","瑞芳區"
"227003","642-TC","2017/08/22 18:18:58","新北市雙溪區共和里中山路2號","121.863805","25.0337966666667","6502500","雙溪區"
"227009","400-TW","2017/08/22 18:19:08","新北市雙溪區牡丹里牡丹73號","121.851738333333","25.0593116666667","6502500","雙溪區"
"253006","032-BX","2017/08/22 18:19:34","新北市石門區老梅路55號","121.545626666667","25.2892616666667","6502200","石門區"
"253005","295-VK","2017/08/22 18:19:24","新北市石門區中央路30號","121.567848333333","25.2923366666667","6502200","石門區"
"253003","6232-TK","2017/08/22 18:19:24","新北市石門區老梅路57號","121.545685","25.2892566666667","6502200","石門區"
"208002","742-BX","2017/08/22 18:19:35","新北市金山區磺港里社寮28號","121.636491666667","25.22943","6502700","金山區"
"208003","665-BX","2017/08/22 18:19:28","新北市金山區中山路69號","121.64169","25.2185033333333","6502700","金山區"
"208001","761-BX","2017/08/22 18:19:21","新北市金山區自強路11號","121.640378333333","25.2165733333333","6502700","金山區"
"251004","009-UM","2017/08/22 18:19:22","新北市淡水區民族路31巷21-1號","121.461975","25.1364966666667","6501000","淡水區"
"251014","180-VK","2017/08/22 18:19:24","新北市淡水區北勢子1號","121.486061666667","25.2231116666667","6501000","淡水區"
"251008","181-VK","2017/08/22 18:19:32","新北市淡水區水源街二段201號","121.457378333333","25.1762533333333","6501000","淡水區"
"251010","413-VK","2017/08/22 18:19:38","新北市淡水區淡海路199號","121.420355","25.1847766666667","6501000","淡水區"
"251012","441-VK","2017/08/22 18:19:26","新北市淡水區北新路二段77-5號","121.48041","25.1856416666667","6501000","淡水區"
"251016","442-VK","2017/08/22 18:19:21","新北市淡水區淡金路三段228巷5號","121.449253333333","25.2050083333333","6501000","淡水區"
"251005","443-VK","2017/08/22 18:19:22","新北市淡水區水源街一段122巷39號","121.44717","25.170295","6501000","淡水區"
"251001","559-UM","2017/08/22 18:19:35","新北市淡水區自強路110-10號","121.462218333333","25.13177","6501000","淡水區"
"251006","561-UM","2017/08/22 18:19:19","新北市淡水區新民街28號","121.439571666667","25.175495","6501000","淡水區"
"251011","650-BX","2017/08/22 18:19:21","新北市淡水區坪頂路51巷2號","121.458046666667","25.16262","6501000","淡水區"
"251002","672-BX","2017/08/22 18:19:34","新北市淡水區中正東路一段125號","121.455531666667","25.15944","6501000","淡水區"
"251003","766-UM","2017/08/22 18:19:32","新北市淡水區北新路180號","121.449461666667","25.1787883333333","6501000","淡水區"
"207003","550-UM","2017/08/22 18:19:31","新北市萬里區野柳里港東路62號","121.687701666667","25.2038566666667","6502800","萬里區"
"207004","225-TW","2017/08/22 18:19:24","新北市萬里區中幅里中福路124號","121.67556","25.1658716666667","6502800","萬里區"
"252002","178-VK","2017/08/22 18:19:30","新北市三芝區中山路二段39號","121.50295","25.2551166666667","6502100","三芝區"
"252003","249-BX","2017/08/22 18:19:29","新北市三芝區錫板里海尾11-7號","121.478323333333","25.2607116666667","6502100","三芝區"
"252001","702-TV","2017/08/22 18:19:33","新北市三芝區中興街一段50號","121.498283333333","25.25672","6502100","三芝區"
"237004","078-UY","2017/08/22 18:19:17","新北市三峽區五寮124-6號","121.359658333333","24.858945","6500900","三峽區"
"237007","153-BY","2017/08/22 18:19:19","新北市三峽區中正路二段612號","121.3583","24.9056783333333","6500900","三峽區"
"237009","210-TH","2017/08/22 18:19:34","新北市三峽區大勇路36巷31號","121.36512","24.93686","6500900","三峽區"
"237013","252-BX","2017/08/22 18:19:26","新北市三峽區中正路一段19巷9號","121.376433333333","24.9304","6500900","三峽區"
"237012","275-BY","2017/08/22 18:19:35","新北市三峽區民生街1巷1-11號","121.37791","24.9364666666667","6500900","三峽區"
"237008","302-VK","2017/08/22 18:19:27","新北市三峽區白雞55號","121.387191666667","24.91234","6500900","三峽區"
"237014","433-BY","2017/08/22 18:19:21","新北市三峽區復興路78號","121.37314","24.9373183333333","6500900","三峽區"
"237006","5529-G3","2017/08/22 18:19:35","新北市三峽區溪東路473巷56號","121.415371666667","24.9287383333333","6500900","三峽區"
"237011","572-TV","2017/08/22 18:19:21","新北市三峽區溪東路317號","121.410421666667","24.9303416666667","6500900","三峽區"
"237016","649-BX","2017/08/22 18:19:21","新北市三峽區紫新路48號","121.422118333333","24.9219416666667","6500900","三峽區"
"237010","706-TV","2017/08/22 18:19:21","新北市三峽區中山路145號","121.365026666667","24.9362066666667","6500900","三峽區"
"237005","AKY-6261","2017/08/22 18:19:28","新北市三峽區忠孝街35號","121.370935","24.9339383333333","6500900","三峽區"
"236070","105-UM","2017/08/22 18:19:27","新北市土城區永豐路202巷14號","121.466383333333","24.9833266666667","6501300","土城區"
"236043","107-UM","2017/08/22 18:19:29","新北市土城區樂利街3巷15號","121.448555","24.9865333333333","6501300","土城區"
"236079","166-UM","2017/08/22 18:19:34","新北市土城區永平街29號","121.428473333333","24.9623616666667","6501300","土城區"
"236031","253-BX","2017/08/22 18:19:20","新北市土城區順風路41號","121.4407","24.97675","6501300","土城區"
"236027","269-VK","2017/08/22 18:19:17","新北市土城區承天路18號","121.439348333333","24.963755","6501300","土城區"
"236015","270-VK","2017/08/22 18:19:25","新北市土城區青雲路39巷7號","121.460261666667","24.9873383333333","6501300","土城區"
"236038","271-VK","2017/08/22 18:19:17","新北市土城區青雲路483巷9號","121.459386666667","24.9735033333333","6501300","土城區"
"236023","401-BY","2017/08/22 18:19:37","新北市土城區清水路223號","121.46098","24.982475","6501300","土城區"
"236059","912-UM","2017/08/22 18:19:28","新北市土城區中央路四段157-1號","121.415393333333","24.95702","6501300","土城區"
"236049","913-UM","2017/08/22 18:19:16","新北市土城區金城路二段245巷66號","121.45482","24.9840083333333","6501300","土城區"
"236063","915-UM","2017/08/22 18:19:27","新北市土城區延壽路44巷14號","121.470981666667","24.9924133333333","6501300","土城區"
"236055","AAC-216","2017/08/22 18:19:22","新北市土城區中華路二段92號","121.438206666667","24.9747916666667","6501300","土城區"
"242021","AAC-296","2017/08/22 18:19:20","新北市新莊區新興街36巷2號","121.450776666667","25.037005","6500500","新莊區"
"242029","986-R7","2017/08/22 18:19:33","新北市新莊區中平路181號","121.444681666667","25.048905","6500500","新莊區"
"242025","615-BX","2017/08/22 18:19:19","新北市新莊區五權一路12巷9弄13號","121.457738333333","25.0650883333333","6500500","新莊區"
"242027","612-BX","2017/08/22 18:19:32","新北市新莊區幸福路914號","121.442693333333","25.0490833333333","6500500","新莊區"
"242042","497-BY","2017/08/22 18:19:35","新北市新莊區天祥街71巷11號","121.415785","25.02895","6500500","新莊區"
"242046","441-UM","2017/08/22 18:19:20","新北市新莊區中正路855巷23弄2號","121.420616666667","25.0268616666667","6500500","新莊區"
"242051","440-UM","2017/08/22 18:19:37","新北市新莊區民安西路54號","121.427411666667","25.0205333333333","6500500","新莊區"
"242032","415-TV","2017/08/22 18:19:34","新北市新莊區新泰路289巷55號","121.443166666667","25.0402883333333","6500500","新莊區"
"242002","413-TV","2017/08/22 18:19:16","新北市新莊區碧江街27-11號","121.452475","25.0332333333333","6500500","新莊區"
"242061","362-BY","2017/08/22 18:19:36","新北市新莊區新樹路69號","121.438746666667","25.0299016666667","6500500","新莊區"
"242058","353-BY","2017/08/22 18:19:35","新北市新莊區中正路905號","121.411096666667","25.0213633333333","6500500","新莊區"
"242005","132-UY","2017/08/22 18:19:19","新北市新莊區中港一街64號","121.450101666667","25.0454633333333","6500500","新莊區"
"242034","133-UY","2017/08/22 18:19:09","新北市新莊區新豐街8號","121.4489","25.0345866666667","6500500","新莊區"
"242007","173-VK","2017/08/22 18:19:26","新北市新莊區自重街1號","121.45328","25.0476533333333","6500500","新莊區"
"242056","176-VK","2017/08/22 18:19:33","新北市新莊區瓊林路46-6號","121.447148333333","25.0293966666667","6500500","新莊區"
"242011","346-TH","2017/08/22 18:19:29","新北市新莊區中港路615巷10號","121.450736666667","25.0533833333333","6500500","新莊區"
"242044","347-TH","2017/08/22 18:19:20","新北市新莊區鳳山街56巷35號","121.413791666667","25.0268466666667","6500500","新莊區"
"242054","349-TH","2017/08/22 18:19:27","新北市新莊區光華街60巷1號","121.428338333333","25.0118266666667","6500500","新莊區"
"242009","351-TH","2017/08/22 18:19:23","新北市新莊區中華路二段71巷2號","121.452986666667","25.0475116666667","6500500","新莊區"
"238015","755-BX","2017/08/22 18:19:22","新北市樹林區啟智街86巷8號","121.41846","24.9907483333333","6500700","樹林區"
"238023","601-UM","2017/08/22 18:19:29","新北市樹林區三福街72號","121.404621666667","25.016205","6500700","樹林區"
"238019","599-UM","2017/08/22 18:19:35","新北市樹林區國凱街112號","121.421816666667","24.9797","6500700","樹林區"
"238018","571-TV","2017/08/22 18:19:25","新北市板橋區溪崑二街22巷30號","121.428133333333","24.9919983333333","6500700","樹林區"
"238022","312-TH","2017/08/22 18:19:31","新北市樹林區太順街108巷1號","121.415886666667","24.9779583333333","6500700","樹林區"
"238021","311-TH","2017/08/22 18:16:05","新北市樹林區柑園街一段172號","121.396173333333","24.95669","6500700","樹林區"
"238025","303-VK","2017/08/22 18:19:23","新北市樹林區保安街一段179-10號","121.42122","24.9956966666667","6500700","樹林區"
"238017","283-BY","2017/08/22 18:19:20","新北市樹林區保安街三段42號","121.41272","25.0116566666667","6500700","樹林區"
"238014","282-BY","2017/08/22 18:19:30","新北市樹林區潭興街103號","121.42472","24.9984816666667","6500700","樹林區"
"238020","268-VK","2017/08/22 18:19:28","新北市樹林區三俊街65巷23號","121.413316666667","25.0168816666667","6500700","樹林區"
"238026","172-UY","2017/08/22 18:19:26","新北市樹林區佳園路一段80巷2號","121.393266666667","24.9697283333333","6500700","樹林區"
"238016","169-UY","2017/08/22 18:19:23","新北市樹林區文化街28-1號","121.419213333333","24.9880666666667","6500700","樹林區"
"239007","AAC-297","2017/08/22 18:19:30","新北市鶯歌區重慶街108號","121.347933333333","24.9523416666667","6500800","鶯歌區"
"239006","891-R6","2017/08/22 18:19:36","新北市鶯歌區鶯桃路311號","121.333833333333","24.9607283333333","6500800","鶯歌區"
"239008","527-UM","2017/08/22 18:19:34","新北市鶯歌區國際一路179號","121.336205","24.9765283333333","6500800","鶯歌區"
"239005","526-UM","2017/08/22 18:19:34","新北市鶯歌區鶯桃路二段48號","121.325408333333","24.9726183333333","6500800","鶯歌區"
"239001","417-VK","2017/08/22 18:19:36","新北市鶯歌區國中街199號","121.338161666667","24.93916","6500800","鶯歌區"
"239003","360-BY","2017/08/22 18:19:22","新北市鶯歌區福安街13巷1號","121.3355","24.96529","6500800","鶯歌區"
"239002","359-BY","2017/08/22 18:19:20","新北市鶯歌區中正一路461-5號","121.363173333333","24.956485","6500800","鶯歌區"
"239004","193-VK","2017/08/22 18:19:32","新北市鶯歌區尖山路240巷30號","121.342388333333","24.9473816666667","6500800","鶯歌區"
"221008","489-VK","2017/08/22 18:19:33","新北市汐止區康寧街901號","121.650776666667","25.0752983333333","6501100","汐止區"
"221036","130-UY","2017/08/22 18:19:31","新北市汐止區長安路87號","121.669481666667","25.0784633333333","6501100","汐止區"
"221015","131-UY","2017/08/22 18:19:23","新北市汐止區鄉長路二段23巷8號","121.667351666667","25.0829183333333","6501100","汐止區"
"221010","269-BY","2017/08/22 18:19:15","新北市汐止區祥雲街18巷23號","121.64734","25.0894133333333","6501100","汐止區"
"221012","276-VK","2017/08/22 13:25:14","新北市汐止區汐萬路一段256巷3號","121.653455","25.074615","6501100","汐止區"
"221031","277-VK","2017/08/22 18:19:15","新北市汐止區中興路155號","121.631175","25.0660183333333","6501100","汐止區"
"221012","278-VK","2017/08/22 18:19:18","新北市汐止區保長路25號","121.672345","25.07969","6501100","汐止區"
"221023","279-VK","2017/08/22 18:19:19","新北市汐止區康寧街430號","121.631341666667","25.06754","6501100","汐止區"
"221032","280-BY","2017/08/22 18:19:22","新北市汐止區民權街二段97巷10-1號","121.619206666667","25.046825","6501100","汐止區"
"221027","281-BY","2017/08/22 18:19:34","新北市汐止區和平街18號","121.663071666667","25.0707866666667","6501100","汐止區"
"221038","297-VK","2017/08/22 18:19:17","新北市汐止區仁愛路313號","121.664683333333","25.06756","6501100","汐止區"
"221029","298-VK","2017/08/22 18:19:26","新北市汐止區樟樹二路330巷76號","121.643075","25.0700133333333","6501100","汐止區"
"221021","299-VK","2017/08/22 18:19:25","新北市汐止區連興街120號","121.653711666667","25.0625516666667","6501100","汐止區"
"221035","622-UM","2017/08/22 18:19:21","新北市汐止區大同路二段179號","121.651961666667","25.0642283333333","6501100","汐止區"
"221025","623-UM","2017/08/22 18:19:26","新北市汐止區秀峰路138巷31號","121.659836666667","25.0617383333333","6501100","汐止區"
"221033","647-BX","2017/08/22 18:19:36","新北市汐止區宜興街53號","121.622585","25.0426483333333","6501100","汐止區"
"221002","707-TV","2017/08/22 18:19:34","新北市汐止區福德一路213巷35號","121.635825","25.0648066666667","6501100","汐止區"
"221018","753-BX","2017/08/22 18:19:28","新北市汐止區茄苳路120巷4號","121.667671666667","25.0699333333333","6501100","汐止區"
