"lineid","car","time","location","longitude","latitude","cityid","cityname"
"234013","149-BY","2017/08/22 18:29:23","新北市永和區福和路1號","121.526381666667","25.010065","6500400","永和區"
"234007","207-UY","2017/08/22 18:29:25","新北市永和區環河西路二段217巷3號","121.501663333333","25.0100533333333","6500400","永和區"
"234081","298-R6","2017/08/22 18:29:30","新北市永和區林森路20巷1號","121.525995","25.0053316666667","6500400","永和區"
"234086","338-UY","2017/08/22 18:29:25","新北市永和區環河東路二段92號","121.5244","25.0106316666667","6500400","永和區"
"234017","745-BX","2017/08/22 18:29:22","新北市永和區福和路1號","121.526448333333","25.0098316666667","6500400","永和區"
"234030","746-BX","2017/08/22 18:29:31","新北市永和區福和路1號","121.526321666667","25.0096316666667","6500400","永和區"
"234042","862-TW","2017/08/22 18:29:23","新北市永和區福和路1號","121.526463333333","25.0097133333333","6500400","永和區"
"234026","9371-KE","2017/08/22 18:29:35","新北市永和區中山路一段90號","121.511655","25.0108133333333","6500400","永和區"
"234011","9373-KE","2017/08/22 18:29:34","新北市永和區文化路113巷19號","121.513203333333","25.0140466666667","6500400","永和區"
"249005","172-UM","2017/08/22 18:29:33","新北市八里區中華路三段103號","121.39295","25.13857","6502300","八里區"
"249001","173-UM","2017/08/22 18:29:22","新北市八里區龍米路一段162號","121.452663333333","25.126035","6502300","八里區"
"249004","303-UY","2017/08/22 18:29:29","新北市八里區忠孝路86號","121.425993333333","25.1604233333333","6502300","八里區"
"249002","305-UY","2017/08/22 18:29:31","新北市八里區龍形二街21號","121.450561666667","25.1318583333333","6502300","八里區"
"248014","025-BX","2017/08/22 18:29:34","新北市五股區自強路90巷57號","121.43155","25.07119","6501500","五股區"
"248016","026-BX","2017/08/22 18:29:29","新北市五股區凌雲路一段83巷22弄1號","121.449836666667","25.1007466666667","6501500","五股區"
"248006","077-UY","2017/08/22 18:29:11","新北市五股區四維路23號","121.467116666667","25.0705316666667","6501500","五股區"
"248008","095-VK","2017/08/22 18:29:17","新北市五股區更洲路32巷8弄35號","121.460173333333","25.0794016666667","6501500","五股區"
"248020","225-UY","2017/08/22 18:29:16","新北市五股區孝義路55巷5號","121.452003333333","25.1121366666667","6501500","五股區"
"248010","272-BY","2017/08/22 18:29:24","新北市五股區明德路10號","121.433376666667","25.0717483333333","6501500","五股區"
"248012","655-BX","2017/08/22 18:29:36","新北市五股區御成路143號","121.441043333333","25.0941583333333","6501500","五股區"
"248004","677-BX","2017/08/22 18:29:22","新北市五股區工商路150號","121.43316","25.0874233333333","6501500","五股區"
"248002","678-BX","2017/08/22 18:29:30","新北市五股區西雲路167-1號","121.446825","25.0948266666667","6501500","五股區"
"234067","AAC-212","2017/08/22 18:29:33","新北市永和區福和路1號","121.526325","25.0096","6500400","永和區"
"232011","375-UM","2017/08/22 18:16:26","新北市坪林區坪雙路一段43號","121.711773333333","24.942455","6502000","坪林區"
"244007","080-UY","2017/08/22 18:29:21","新北市林口區後湖29-5號","121.387213333333","25.0995116666667","6501700","林口區"
"244019","403-UM","2017/08/22 18:29:33","新北市林口區忠孝路559號","121.372905","25.0684883333333","6501700","林口區"
"244009","410-SL","2017/08/22 18:29:22","新北市林口區福林路33號","121.379333333333","25.0886416666667","6501700","林口區"
"244017","656-BX","2017/08/22 18:29:17","新北市林口區公園路42號","121.367321666667","25.0682083333333","6501700","林口區"
"244023","657-BX","2017/08/22 18:29:26","新北市林口區四維路245巷45號","121.38255","25.0753966666667","6501700","林口區"
"244013","658-BX","2017/08/22 18:29:23","新北市林口區中山路258-1號","121.385145","25.079765","6501700","林口區"
"244011","701-TV","2017/08/22 18:29:33","新北市林口區中正路257巷12號","121.390606666667","25.0772416666667","6501700","林口區"
"244025","837-TS","2017/08/22 18:29:32","新北市林口區南勢四街218號","121.356643333333","25.0735883333333","6501700","林口區"
"244021","838-TS","2017/08/22 18:29:15","新北市林口區自強二街26號","121.398098333333","25.0779316666667","6501700","林口區"
"243013","AAD-798","2017/08/22 18:29:33","新北市泰山區工專路20號","121.42364","25.0397116666667","6501600","泰山區"
"243012","539-UM","2017/08/22 15:39:13","新北市泰山區犁頭窠3-1號","121.421973333333","25.0605316666667","6501600","泰山區"
"243012","646-TV","2017/08/22 18:29:31","新北市泰山區泰林路二段581號","121.422065","25.0635466666667","6501600","泰山區"
"222003","436-BY","2017/08/22 18:29:32","新北市深坑區旺耽路8號","121.6306","25.0054316666667","6501800","深坑區"
"222002","659-BX","2017/08/22 18:29:20","新北市深坑區雲鄉路141號","121.622236666667","24.9982016666667","6501800","深坑區"
"222001","696-SL","2017/08/22 18:29:29","新北市深坑區北深路一段201巷1號","121.630381666667","25.0089216666667","6501800","深坑區"
"231059","001-UM","2017/08/22 18:29:13","新北市新店區安華路28-1號","121.519525","24.96098","6500600","新店區"
"231041","002-UM","2017/08/22 18:29:28","新北市新店區安華路28-1號","121.519635","24.96087","6500600","新店區"
"231061","047-UY","2017/08/22 18:29:29","新北市新店區安華路28-1號","121.519143333333","24.9610083333333","6500600","新店區"
"231060","106-UY","2017/08/22 18:29:33","新北市新店區安華路28-1號","121.519791666667","24.96075","6500600","新店區"
"231051","107-UY","2017/08/22 18:29:16","新北市新店區安華路28-1號","121.519301666667","24.9612716666667","6500600","新店區"
"231048","108-UY","2017/08/22 18:29:27","新北市新店區安華路28-1號","121.51926","24.960825","6500600","新店區"
"231053","187-VK","2017/08/22 18:29:31","新北市新店區新烏路一段12號","121.546846666667","24.951465","6500600","新店區"
"231069","189-VK","2017/08/22 11:53:09","新北市新店區安華路28-1號","121.519686666667","24.9611016666667","6500600","新店區"
"231057","256-BX","2017/08/22 18:29:30","新北市新店區北宜路一段264號","121.545898333333","24.9528133333333","6500600","新店區"
"231063","268-BY","2017/08/22 18:29:17","新北市新店區安華路1-1號","121.519418333333","24.9604766666667","6500600","新店區"
"231046","278-BY","2017/08/22 18:29:26","新北市新店區直潭七街60號","121.532228333333","24.93988","6500600","新店區"
"231050","AAD-862","2017/08/22 18:29:27","新北市新店區安華路28-1號","121.519753333333","24.9612466666667","6500600","新店區"
"231058","3712-VJ","2017/08/22 18:29:17","新北市新店區新店後街105號","121.537691666667","24.9559283333333","6500600","新店區"
"231055","3713-VJ","2017/08/22 18:29:27","新北市新店區北新路二段29巷1弄20號","121.541981666667","24.9722683333333","6500600","新店區"
"231056","4716-K9","2017/08/22 18:29:25","新北市新店區二十張路96號","121.536213333333","24.9797333333333","6500600","新店區"
"231067","4772-VM","2017/08/22 18:29:13","新北市新店區安康路二段362號","121.501836666667","24.9573966666667","6500600","新店區"
"231065","512-UM","2017/08/22 18:29:32","新北市新店區安華路28-1號","121.519213333333","24.9610516666667","6500600","新店區"
"231054","513-UM","2017/08/22 18:29:18","新北市新店區安華路28-1號","121.519631666667","24.9611583333333","6500600","新店區"
"231042","616-UM","2017/08/22 18:29:16","新北市新店區安華路1-1號","121.519476666667","24.960425","6500600","新店區"
"231045","617-UM","2017/08/22 18:29:32","新北市新店區安華路28-1號","121.519455","24.9609066666667","6500600","新店區"
"231040","619-UM","2017/08/22 18:29:20","新北市新店區安華路28-1號","121.519408333333","24.9608366666667","6500600","新店區"
"231049","719-UM","2017/08/22 18:29:20","新北市新店區安華路28-1號","121.519391666667","24.96104","6500600","新店區"
"231064","719-UY","2017/08/22 18:29:23","新北市新店區安華路28-1號","121.51921","24.960615","6500600","新店區"
"231062","720-UM","2017/08/22 18:29:23","新北市新店區安康路一段359-27號","121.518935","24.9613933333333","6500600","新店區"
"231044","897-TW","2017/08/22 18:29:29","新北市新店區安華路8號","121.519856666667","24.9615516666667","6500600","新店區"
"231043","899-TW","2017/08/22 18:29:21","新北市新店區安華路28-1號","121.519086666667","24.9609483333333","6500600","新店區"
"231066","AKT-0513","2017/08/22 18:29:24","新北市新店區安華路28-1號","121.519543333333","24.960545","6500600","新店區"
"235066","003-UY","2017/08/22 18:29:29","新北市中和區中山路二段120號","121.502623333333","25.003835","6500300","中和區"
"235064","005-UY","2017/08/22 18:29:33","新北市中和區圓通路141巷35弄1號","121.498971666667","24.9951783333333","6500300","中和區"
"235056","096-UM","2017/08/22 18:29:26","新北市板橋區三民路二段220巷19號","121.477888333333","25.0114433333333","6500300","中和區"
"235039","097-UM","2017/08/22 18:29:28","新北市中和區安平路82號","121.511103333333","24.9967566666667","6500300","中和區"
"235065","098-UM","2017/08/22 18:29:17","新北市中和區莊敬路49巷18號","121.501653333333","25.0061433333333","6500300","中和區"
"235040","150-BY","2017/08/22 18:29:33","新北市中和區安平路38號","121.50982","24.994945","6500300","中和區"
"235058","151-BY","2017/08/22 18:29:19","新北市中和區圓通路369巷30弄92號","121.488665","24.9848616666667","6500300","中和區"
"235055","183-VK","2017/08/22 18:29:29","新北市中和區莒光路220號","121.470075","24.9959383333333","6500300","中和區"
"235038","185-VK","2017/08/22 18:29:28","新北市中和區大智街106巷2號","121.524005","24.9925816666667","6500300","中和區"
"235049","186-VK","2017/08/22 18:29:18","新北市中和區景安路183號","121.505026666667","24.99314","6500300","中和區"
"235067","255-BX","2017/08/22 18:29:25","新北市中和區員山路36巷16-4號","121.485321666667","24.991975","6500300","中和區"
"235072","301-VK","2017/08/22 18:29:23","新北市中和區連城路237-1號","121.493821666667","24.9973433333333","6500300","中和區"
"235043","352-BY","2017/08/22 18:29:21","新北市中和區景平路311號","121.506406666667","24.993265","6500300","中和區"
"235051","376-QA","2017/08/22 18:29:25","新北市中和區信義街45號","121.511188333333","24.98902","6500300","中和區"
"235068","377-QA","2017/08/22 18:29:23","新北市中和區錦和路203巷13號","121.491363333333","24.9906666666667","6500300","中和區"
"235061","378-QA","2017/08/22 18:29:31","新北市中和區莒光路177巷2號","121.472908333333","24.9992766666667","6500300","中和區"
"235050","4979-A6","2017/08/22 18:29:33","新北市中和區景新街410巷18弄24號","121.511851666667","24.9900816666667","6500300","中和區"
"235069","4980-A6","2017/08/22 18:29:18","新北市中和區連城路99巷43號","121.497066666667","24.998875","6500300","中和區"
"235042","551-UM","2017/08/22 18:29:29","新北市中和區大仁街20巷25弄24號","121.519421666667","24.9936133333333","6500300","中和區"
"235070","558-UM","2017/08/22 18:29:34","新北市中和區圓通路207號","121.497208333333","24.994445","6500300","中和區"
"235045","565-BX","2017/08/22 18:29:15","新北市中和區復興路13號","121.505836666667","24.9897283333333","6500300","中和區"
"235054","640-BX","2017/08/22 18:29:29","新北市中和區民享街119巷1號","121.474555","24.9988883333333","6500300","中和區"
"235060","647-TV","2017/08/22 18:29:21","新北市中和區員山路238號","121.48125","25.001275","6500300","中和區"
"235047","732-UM","2017/08/22 18:29:26","新北市中和區南山路300號","121.507893333333","24.9871183333333","6500300","中和區"
"235046","733-UM","2017/08/22 18:29:22","新北市中和區錦和路350-1號","121.490021666667","24.9935466666667","6500300","中和區"
"235062","800-TS","2017/08/22 18:29:31","新北市中和區景平路728號","121.496716666667","25.0036883333333","6500300","中和區"
"235057","801-TS","2017/08/22 18:29:19","新北市中和區民享街97巷22號","121.475395","24.999935","6500300","中和區"
"235041","802-TS","2017/08/22 18:29:25","新北市中和區和城路一段271巷1號","121.485395","24.99187","6500300","中和區"
"235052","805-TS","2017/08/22 18:29:35","新北市中和區興南路二段149號","121.504896666667","24.9837783333333","6500300","中和區"
"235048","896-TW","2017/08/22 18:29:15","新北市中和區中正路175號","121.497586666667","24.9935616666667","6500300","中和區"
"235053","900-TW","2017/08/22 18:29:16","新北市中和區莒光路211-39號","121.470335","24.99319","6500300","中和區"
"235037","AAC-213","2017/08/22 18:29:18","新北市中和區景平路151巷59號","121.514825","24.9901883333333","6500300","中和區"
"220086","073-UY","2017/08/22 18:29:16","新北市板橋區南雅南路二段120-11號","121.452071666667","24.999325","6500100","板橋區"
"226004","205-ST","2017/08/22 18:29:33","新北市平溪區石底里公園街17號","121.737153333333","25.0249733333333","6502400","平溪區"
"228001","212-TW","2017/08/22 18:29:32","新北市貢寮區仁理村仁義街4號","121.923681666667","25.052085","6502600","貢寮區"
"228002","663-BX","2017/08/22 18:29:30","新北市貢寮區福連里香蘭街26號","121.98488","25.0212216666667","6502600","貢寮區"
"228003","828-UM","2017/08/22 18:29:30","新北市貢寮區和美里和美街43-1號","121.914153333333","25.091255","6502600","貢寮區"
"224006","676-BX","2017/08/22 18:29:20","新北市瑞芳區逢甲路1號","121.81034","25.1083766666667","6501200","瑞芳區"
"224002","639-TC","2017/08/22 18:29:23","新北市瑞芳區三爪子坑路25號","121.813501666667","25.107555","6501200","瑞芳區"
"224011","420-VK","2017/08/22 18:29:30","新北市瑞芳區崙頂路1-6號","121.847036666667","25.1047333333333","6501200","瑞芳區"
"224009","285-BY","2017/08/22 18:29:17","新北市瑞芳區祈堂路239號","121.856278333333","25.10906","6501200","瑞芳區"
"224008","275-VK","2017/08/22 18:29:20","新北市瑞芳區瑞芳街2號","121.806688333333","25.1101516666667","6501200","瑞芳區"
"224007","273-VK","2017/08/22 18:29:23","新北市瑞芳區大埔路國宅新村58號","121.764805","25.1002583333333","6501200","瑞芳區"
"224005","271-BY","2017/08/22 18:29:24","新北市瑞芳區建基路一段44-6號","121.81946","25.12282","6501200","瑞芳區"
"227003","642-TC","2017/08/22 18:29:18","新北市雙溪區魚行里新店76號","121.871626666667","25.0267716666667","6502500","雙溪區"
"227009","400-TW","2017/08/22 18:29:27","新北市雙溪區牡丹里牡丹105號","121.851315","25.059925","6502500","雙溪區"
"253006","032-BX","2017/08/22 18:29:15","新北市石門區公地20號","121.545773333333","25.2901966666667","6502200","石門區"
"253005","295-VK","2017/08/22 18:29:24","新北市石門區老崩山10-5號","121.552685","25.2910766666667","6502200","石門區"
"253003","6232-TK","2017/08/22 18:29:24","新北市石門區公地20-1號","121.545765","25.29017","6502200","石門區"
"208002","742-BX","2017/08/22 18:29:15","新北市金山區民生路204號","121.641265","25.220805","6502700","金山區"
"208003","665-BX","2017/08/22 18:29:29","新北市金山區中山路216號","121.637398333333","25.2218483333333","6502700","金山區"
"208001","761-BX","2017/08/22 18:29:21","新北市金山區文化一路14號","121.636838333333","25.2245683333333","6502700","金山區"
"251004","009-UM","2017/08/22 18:29:22","新北市淡水區民族路31巷29號","121.462218333333","25.1365116666667","6501000","淡水區"
"251014","180-VK","2017/08/22 18:29:24","新北市淡水區南平18號","121.49218","25.2186216666667","6501000","淡水區"
"251008","181-VK","2017/08/22 18:29:32","新北市淡水區北投子87-3號","121.469115","25.1791716666667","6501000","淡水區"
"251010","413-VK","2017/08/22 18:29:18","新北市淡水區沙崙路181巷1號","121.424108333333","25.1841916666667","6501000","淡水區"
"251012","441-VK","2017/08/22 18:29:26","新北市淡水區北新路一段175號","121.459338333333","25.182295","6501000","淡水區"
"251016","442-VK","2017/08/22 18:29:21","新北市淡水區下圭柔山115-13號","121.44652","25.2114233333333","6501000","淡水區"
"251001","559-UM","2017/08/22 18:29:15","新北市淡水區自強路122巷1號","121.464518333333","25.1331933333333","6501000","淡水區"
"251006","561-UM","2017/08/22 18:29:19","新北市淡水區中山北路一段281-6號","121.444661666667","25.1819483333333","6501000","淡水區"
"251011","650-BX","2017/08/22 18:29:21","新北市淡水區中正東路21號","121.448111666667","25.166335","6501000","淡水區"
"251002","672-BX","2017/08/22 18:29:14","新北市淡水區竿蓁二街61-2號","121.454898333333","25.1633083333333","6501000","淡水區"
"251003","766-UM","2017/08/22 18:29:32","新北市淡水區北新路169巷55號","121.448615","25.1806683333333","6501000","淡水區"
"207003","550-UM","2017/08/22 18:29:18","新北市萬里區野柳里港東路155號","121.68956","25.2051166666667","6502800","萬里區"
"207004","225-TW","2017/08/22 18:29:30","新北市萬里區萬里里瑪鋉路181號","121.6902","25.1785216666667","6502800","萬里區"
"252002","178-VK","2017/08/22 18:29:30","新北市三芝區中山路二段39號","121.502951666667","25.255125","6502100","三芝區"
"252003","249-BX","2017/08/22 18:29:30","新北市三芝區後厝里北勢子45-30號","121.469251666667","25.2508116666667","6502100","三芝區"
"252001","702-TV","2017/08/22 18:29:12","新北市三芝區中興街一段50號","121.498286666667","25.2567283333333","6502100","三芝區"
"237004","078-UY","2017/08/22 18:29:17","新北市三峽區金敏17號","121.391548333333","24.8743683333333","6500900","三峽區"
"237007","153-BY","2017/08/22 18:29:19","新北市三峽區中正路三段170巷17號","121.35252","24.9042133333333","6500900","三峽區"
"237009","210-TH","2017/08/22 18:29:34","新北市三峽區大同路228號","121.366586666667","24.9259816666667","6500900","三峽區"
"237013","252-BX","2017/08/22 18:29:26","新北市三峽區光明路69巷25號","121.376686666667","24.9292833333333","6500900","三峽區"
"237012","275-BY","2017/08/22 18:29:16","新北市三峽區三樹路60號","121.377891666667","24.9380433333333","6500900","三峽區"
"237008","302-VK","2017/08/22 18:29:27","新北市三峽區白雞68-153號","121.390428333333","24.90859","6500900","三峽區"
"237014","433-BY","2017/08/22 18:29:21","新北市三峽區文化路113號","121.370406666667","24.9360916666667","6500900","三峽區"
"237006","5529-G3","2017/08/22 18:29:35","新北市三峽區溪東路315巷31號","121.41168","24.9309616666667","6500900","三峽區"
"237011","572-TV","2017/08/22 18:29:21","新北市三峽區溪東路367號","121.411666666667","24.9292616666667","6500900","三峽區"
"237016","649-BX","2017/08/22 18:29:21","新北市三峽區紫微南路5號","121.425558333333","24.9199116666667","6500900","三峽區"
"237010","706-TV","2017/08/22 18:29:21","新北市三峽區復興路357號","121.363801666667","24.938725","6500900","三峽區"
"237005","AKY-6261","2017/08/22 18:29:28","新北市三峽區秀川街69號","121.370265","24.9332216666667","6500900","三峽區"
"236070","105-UM","2017/08/22 18:29:27","新北市土城區永豐路255巷27弄47號","121.47708","24.9735683333333","6501300","土城區"
"236043","107-UM","2017/08/22 18:29:29","新北市土城區裕民路61巷16號","121.44977","24.9885366666667","6501300","土城區"
"236079","166-UM","2017/08/22 18:29:33","新北市土城區中央路四段25-10號","121.424455","24.96249","6501300","土城區"
"236031","253-BX","2017/08/22 18:29:20","新北市土城區水源街81巷1弄1號","121.439558333333","24.97618","6501300","土城區"
"236027","269-VK","2017/08/22 18:29:18","新北市土城區南天母路135巷34號","121.448806666667","24.9543883333333","6501300","土城區"
"236015","270-VK","2017/08/22 18:29:25","新北市土城區青雲路39巷7號","121.460271666667","24.987355","6501300","土城區"
"236038","271-VK","2017/08/22 18:29:17","新北市土城區青雲路483巷3號","121.459433333333","24.97391","6501300","土城區"
"236023","401-BY","2017/08/22 18:29:17","新北市土城區永豐路202巷7-1號","121.466215","24.9833133333333","6501300","土城區"
"236059","912-UM","2017/08/22 18:29:28","新北市土城區中央路四段466號","121.409976666667","24.9505733333333","6501300","土城區"
"236049","913-UM","2017/08/22 18:29:16","新北市土城區青雲路172巷1-2號","121.458653333333","24.9825166666667","6501300","土城區"
"236063","915-UM","2017/08/22 18:29:34","新北市土城區延壽路77巷6弄4號","121.468565","24.99263","6501300","土城區"
"236055","AAC-216","2017/08/22 18:29:22","新北市土城區中華路二段139號","121.439018333333","24.9762916666667","6501300","土城區"
"242042","497-BY","2017/08/22 18:29:15","新北市新莊區天祥街82巷13號","121.415838333333","25.0300283333333","6500500","新莊區"
"242046","441-UM","2017/08/22 18:29:20","新北市新莊區中正路803巷39號","121.422033333333","25.02781","6500500","新莊區"
"242032","415-TV","2017/08/22 18:29:29","新北市新莊區新泰路255巷13號","121.445526666667","25.0397716666667","6500500","新莊區"
"242002","413-TV","2017/08/22 18:29:16","新北市新莊區三和路12-21號","121.442273333333","25.0384316666667","6500500","新莊區"
"242061","362-BY","2017/08/22 18:29:36","新北市新莊區富國路115號","121.423748333333","25.0247466666667","6500500","新莊區"
"242058","353-BY","2017/08/22 18:29:15","新北市新莊區中正路887-7號","121.416623333333","25.0244883333333","6500500","新莊區"
"242034","133-UY","2017/08/22 18:29:29","新北市新莊區瓊林路59-70號","121.44215","25.023945","6500500","新莊區"
"242056","176-VK","2017/08/22 18:29:31","新北市新莊區豐年街55-3號","121.446503333333","25.0311216666667","6500500","新莊區"
"242044","347-TH","2017/08/22 18:29:20","新北市新莊區中正路新旺巷36號","121.416325","25.0225733333333","6500500","新莊區"
"242054","349-TH","2017/08/22 18:29:27","新北市新莊區民安西路392-7號","121.42857","25.0096866666667","6500500","新莊區"
"242009","351-TH","2017/08/22 18:29:23","新北市新莊區新泰路528號","121.441978333333","25.0470416666667","6500500","新莊區"
"238015","755-BX","2017/08/22 18:29:22","新北市樹林區啟智街124巷1號","121.416075","24.9878316666667","6500700","樹林區"
"238023","601-UM","2017/08/22 18:29:29","新北市樹林區忠義街18號","121.409563333333","25.0144783333333","6500700","樹林區"
"238019","599-UM","2017/08/22 18:29:16","新北市樹林區中華路190號","121.411918333333","24.9806016666667","6500700","樹林區"
"238018","571-TV","2017/08/22 18:29:25","新北市樹林區保安街一段16巷26號","121.428453333333","24.9941583333333","6500700","樹林區"
"238024","5061-A6","2017/08/22 18:29:21","新北市樹林區育英街6號","121.422768333333","24.9890033333333","6500700","樹林區"
"238021","311-TH","2017/08/22 18:20:59","新北市樹林區柑園街一段361號","121.388798333333","24.9559666666667","6500700","樹林區"
"238025","303-VK","2017/08/22 18:29:23","新北市樹林區大安路536號","121.41373","24.985775","6500700","樹林區"
"238017","283-BY","2017/08/22 18:29:20","新北市樹林區光榮街21號","121.411983333333","25.0037916666667","6500700","樹林區"
"238014","282-BY","2017/08/22 18:29:30","新北市樹林區大安路111巷11號","121.423015","24.9977033333333","6500700","樹林區"
"238020","268-VK","2017/08/22 18:28:01","新北市樹林區三龍街22號","121.411395","25.0175733333333","6500700","樹林區"
"238026","172-UY","2017/08/22 18:29:26","新北市樹林區佳園路一段75巷14弄10號","121.395236666667","24.969935","6500700","樹林區"
"238016","169-UY","2017/08/22 18:29:23","新北市樹林區育英街135巷36號","121.419195","24.9881666666667","6500700","樹林區"
"239007","AAC-297","2017/08/22 18:29:30","新北市鶯歌區中正一路230號","121.354061666667","24.956975","6500800","鶯歌區"
"239006","891-R6","2017/08/22 18:29:16","新北市鶯歌區鶯桃路296巷53號","121.335841666667","24.9613533333333","6500800","鶯歌區"
"239008","527-UM","2017/08/22 18:29:34","新北市鶯歌區國際一路179號","121.336201666667","24.9765233333333","6500800","鶯歌區"
"239005","526-UM","2017/08/22 18:29:34","新北市鶯歌區鳳吉一街170號","121.32898","24.9755283333333","6500800","鶯歌區"
"239001","417-VK","2017/08/22 18:29:16","新北市鶯歌區二甲路光照巷2號","121.338388333333","24.940345","6500800","鶯歌區"
"239003","360-BY","2017/08/22 18:29:22","新北市鶯歌區福安街11巷2號","121.335483333333","24.9652633333333","6500800","鶯歌區"
"239002","359-BY","2017/08/22 18:29:20","新北市鶯歌區中正一路221號","121.354036666667","24.9570566666667","6500800","鶯歌區"
"239004","193-VK","2017/08/22 18:29:32","新北市鶯歌區尖山路386號","121.34191","24.9434383333333","6500800","鶯歌區"
"221008","489-VK","2017/08/22 18:29:33","新北市汐止區康寧街901號","121.651368333333","25.0751033333333","6501100","汐止區"
"221036","130-UY","2017/08/22 18:29:31","新北市汐止區長安路134號","121.670331666667","25.0782416666667","6501100","汐止區"
"221015","131-UY","2017/08/22 18:29:23","新北市汐止區鄉友街26號","121.668665","25.081135","6501100","汐止區"
"221010","269-BY","2017/08/22 18:29:35","新北市汐止區汐萬路三段246號","121.642798333333","25.096665","6501100","汐止區"
"221012","276-VK","2017/08/22 13:25:14","新北市汐止區汐萬路一段256巷3號","121.653455","25.074615","6501100","汐止區"
"221031","277-VK","2017/08/22 18:29:15","新北市汐止區光復街8巷7號","121.638508333333","25.0578233333333","6501100","汐止區"
"221012","278-VK","2017/08/22 18:29:18","新北市汐止區保長路147巷2號","121.676993333333","25.0765533333333","6501100","汐止區"
"221023","279-VK","2017/08/22 18:29:19","新北市汐止區康寧街534巷26號","121.63479","25.0689416666667","6501100","汐止區"
"221032","280-BY","2017/08/22 18:29:22","新北市汐止區民權街二段131號","121.617946666667","25.0455233333333","6501100","汐止區"
"221027","281-BY","2017/08/22 18:29:34","新北市汐止區和平街47號","121.662065","25.0707633333333","6501100","汐止區"
"221038","297-VK","2017/08/22 18:29:17","新北市汐止區忠孝東路200-5號","121.661581666667","25.0662233333333","6501100","汐止區"
"221029","298-VK","2017/08/22 18:29:26","新北市汐止區樟樹一路276號","121.6428","25.0692866666667","6501100","汐止區"
"221021","299-VK","2017/08/22 18:29:25","新北市汐止區新台五路一段183號","121.655461666667","25.0631683333333","6501100","汐止區"
"221035","622-UM","2017/08/22 18:29:21","新北市汐止區大同路二段37號","121.647716666667","25.0634183333333","6501100","汐止區"
"221025","623-UM","2017/08/22 18:29:26","新北市汐止區仁愛路120號","121.662923333333","25.06376","6501100","汐止區"
"221033","647-BX","2017/08/22 18:29:28","新北市汐止區宜興街19巷3號","121.621398333333","25.0419533333333","6501100","汐止區"
"221002","707-TV","2017/08/22 18:29:14","新北市汐止區福德一路163號","121.636253333333","25.0663616666667","6501100","汐止區"
"221018","753-BX","2017/08/22 18:29:28","新北市汐止區茄苳路224巷3弄11號","121.670983333333","25.068205","6501100","汐止區"
"220079","145-BY","2017/08/22 18:29:36","新北市板橋區華東街1-9號","121.448253333333","24.9947433333333","6500100","板橋區"
"220082","610-BX","2017/08/22 18:29:24","新北市板橋區華東街1-10號","121.448235","24.99497","6500100","板橋區"
"220056","276-BY","2017/08/22 18:29:33","新北市板橋區中山路一段161號","121.465493333333","25.011995","6500100","板橋區"
"220061","293-UM","2017/08/22 18:29:25","新北市板橋區民生路二段36-1號","121.472371666667","25.01693","6500100","板橋區"
"220035","560-BX","2017/08/22 18:29:24","新北市板橋區南雅南路二段140號","121.451723333333","24.9962383333333","6500100","板橋區"
