"lineid","car","time","location","longitude","latitude","cityid","cityname"
"234046","148-BY","2017/08/22 18:39:23","新北市永和區林森路100號","121.523033333333","25.0034933333333","6500400","永和區"
"234013","149-BY","2017/08/22 18:39:23","新北市永和區保福路二段109巷2號","121.510111666667","25.0134166666667","6500400","永和區"
"234007","207-UY","2017/08/22 18:39:25","新北市永和區文化路178號","121.511416666667","25.0157633333333","6500400","永和區"
"234081","298-R6","2017/08/22 18:39:30","新北市永和區林森路77號","121.523968333333","25.00389","6500400","永和區"
"234064","337-UY","2017/08/22 18:39:16","新北市永和區福和路1號","121.526458333333","25.010055","6500400","永和區"
"234086","338-UY","2017/08/22 18:39:25","新北市永和區永貞路123號","121.516951666667","25.0042183333333","6500400","永和區"
"234070","552-UM","2017/08/22 18:39:18","新北市永和區福和路1號","121.52553","25.0095116666667","6500400","永和區"
"234054","553-UM","2017/08/22 18:39:13","新北市永和區福和路1號","121.525921666667","25.0096566666667","6500400","永和區"
"234017","745-BX","2017/08/22 18:39:23","新北市永和區福和路1號","121.526396666667","25.009885","6500400","永和區"
"234030","746-BX","2017/08/22 18:39:31","新北市永和區成功路一段89號","121.526921666667","25.00288","6500400","永和區"
"234042","862-TW","2017/08/22 18:39:23","新北市永和區永貞路302號","121.512075","25.0047533333333","6500400","永和區"
"234050","863-TW","2017/08/22 18:38:59","新北市永和區福和路1號","121.526513333333","25.0100416666667","6500400","永和區"
"234026","9371-KE","2017/08/22 18:39:15","新北市永和區保平路93巷3號","121.511835","25.0066616666667","6500400","永和區"
"234011","9373-KE","2017/08/22 18:39:14","新北市永和區永和路二段231巷19號","121.514688333333","25.0139733333333","6500400","永和區"
"249005","172-UM","2017/08/22 18:39:33","新北市八里區中華路三段212號","121.388948333333","25.1253116666667","6502300","八里區"
"249001","173-UM","2017/08/22 18:39:22","新北市八里區龍米路一段388號","121.451485","25.1325916666667","6502300","八里區"
"249004","303-UY","2017/08/22 18:39:29","新北市八里區龍米路三段58-1號","121.424393333333","25.159095","6502300","八里區"
"248014","025-BX","2017/08/22 18:39:19","新北市五股區成泰路一段198號","121.435916666667","25.07862","6501500","五股區"
"248016","026-BX","2017/08/22 18:39:29","新北市五股區凌雲路一段149巷5-1號","121.448911666667","25.1017366666667","6501500","五股區"
"248006","077-UY","2017/08/22 18:39:31","新北市五股區中興路二段83巷26-6號","121.460138333333","25.07523","6501500","五股區"
"248008","095-VK","2017/08/22 18:39:17","新北市五股區中興路一段140巷10-1號","121.46507","25.07464","6501500","五股區"
"248020","225-UY","2017/08/22 18:39:16","新北市五股區孝義路69-2號","121.447171666667","25.118295","6501500","五股區"
"248010","272-BY","2017/08/22 18:39:24","新北市五股區水碓三路120號","121.431756666667","25.073595","6501500","五股區"
"248012","655-BX","2017/08/22 18:39:16","新北市五股區成泰路三段43-3號","121.442365","25.0889316666667","6501500","五股區"
"248004","677-BX","2017/08/22 18:39:22","新北市五股區民義路一段236-6號","121.427445","25.0912966666667","6501500","五股區"
"248002","678-BX","2017/08/22 18:39:30","新北市五股區西雲路221號","121.448803333333","25.0969083333333","6501500","五股區"
"234023","9380-KE","2017/08/22 18:39:27","新北市永和區福和路76巷5弄14號","121.522273333333","25.008405","6500400","永和區"
"234077","969-R7","2017/08/22 18:39:17","新北市永和區中正路191號","121.51704","24.9990016666667","6500400","永和區"
"234074","AAC-211","2017/08/22 18:39:25","新北市永和區福和路1號","121.526555","25.0099183333333","6500400","永和區"
"234067","AAC-212","2017/08/22 18:39:33","新北市永和區福和路1號","121.525065","25.0089316666667","6500400","永和區"
"234003","AAC-295","2017/08/22 18:39:17","新北市永和區福和路1號","121.526376666667","25.0099883333333","6500400","永和區"
"232011","375-UM","2017/08/22 18:16:26","新北市坪林區坪雙路一段43號","121.711773333333","24.942455","6502000","坪林區"
"244007","080-UY","2017/08/22 18:39:21","新北市林口區太平里5-15號","121.380441666667","25.1137133333333","6501700","林口區"
"244019","403-UM","2017/08/22 18:39:13","新北市林口區忠孝路604巷8號","121.376515","25.0677583333333","6501700","林口區"
"244009","410-SL","2017/08/22 18:39:22","新北市林口區文林一街115巷14號","121.37876","25.0874883333333","6501700","林口區"
"244017","656-BX","2017/08/22 18:39:29","新北市林口區文化二路66-5號","121.365655","25.0688766666667","6501700","林口區"
"244023","657-BX","2017/08/22 18:39:26","新北市林口區信義路172-1號","121.379886666667","25.0805566666667","6501700","林口區"
"244013","658-BX","2017/08/22 18:39:24","新北市林口區中山路267號","121.385291666667","25.0795083333333","6501700","林口區"
"244011","701-TV","2017/08/22 18:39:27","新北市林口區仁愛路一段274號","121.3934","25.0760316666667","6501700","林口區"
"244025","837-TS","2017/08/22 18:39:12","新北市林口區南勢里53-6號","121.355036666667","25.0749116666667","6501700","林口區"
"244021","838-TS","2017/08/22 18:39:14","新北市林口區工六路92號","121.400891666667","25.0768116666667","6501700","林口區"
"243013","AAD-798","2017/08/22 18:39:33","新北市泰山區明志路三段206巷3號","121.423285","25.0379033333333","6501600","泰山區"
"243015","380-SR","2017/08/22 18:39:31","新北市泰山區犁頭窠3-1號","121.422246666667","25.0603116666667","6501600","泰山區"
"243012","539-UM","2017/08/22 15:39:13","新北市泰山區犁頭窠3-1號","121.421973333333","25.0605316666667","6501600","泰山區"
"243012","646-TV","2017/08/22 18:39:31","新北市泰山區泰林路二段194號","121.433506666667","25.0610933333333","6501600","泰山區"
"243016","680-BX","2017/08/22 18:39:28","新北市泰山區犁頭窠3-1號","121.422171666667","25.0605316666667","6501600","泰山區"
"222003","436-BY","2017/08/22 18:39:32","新北市深坑區翠谷街79號","121.628053333333","25.009075","6501800","深坑區"
"222002","659-BX","2017/08/22 18:39:20","新北市深坑區雲鄉路1號","121.620975","24.9996733333333","6501800","深坑區"
"222001","696-SL","2017/08/22 18:39:29","新北市深坑區北深路一段84號","121.636261666667","25.0107033333333","6501800","深坑區"
"231059","001-UM","2017/08/22 18:39:13","新北市新店區安華路28-1號","121.519508333333","24.961","6500600","新店區"
"231041","002-UM","2017/08/22 18:39:28","新北市新店區安華路28-1號","121.519743333333","24.9608433333333","6500600","新店區"
"231061","047-UY","2017/08/22 18:39:29","新北市新店區安華路28-1號","121.519125","24.960965","6500600","新店區"
"231060","106-UY","2017/08/22 18:39:33","新北市新店區安華路28-1號","121.51985","24.96069","6500600","新店區"
"231051","107-UY","2017/08/22 18:39:10","新北市新店區安康路一段299-1號","121.522203333333","24.9637116666667","6500600","新店區"
"231048","108-UY","2017/08/22 18:39:27","新北市新店區環河路6號","121.538255","24.9618316666667","6500600","新店區"
"231053","187-VK","2017/08/22 18:39:31","新北市新店區永興路9號","121.544415","24.9394666666667","6500600","新店區"
"231069","189-VK","2017/08/22 11:53:09","新北市新店區安華路28-1號","121.519686666667","24.9611016666667","6500600","新店區"
"231057","256-BX","2017/08/22 18:39:30","新北市新店區新烏路一段215號","121.549498333333","24.9316916666667","6500600","新店區"
"231063","268-BY","2017/08/22 18:39:17","新北市新店區安華路1-1號","121.519398333333","24.9604866666667","6500600","新店區"
"231046","278-BY","2017/08/22 18:39:26","新北市新店區直潭二街1號","121.535536666667","24.9432066666667","6500600","新店區"
"231050","AAD-862","2017/08/22 18:39:27","新北市新店區安華路28-1號","121.519953333333","24.9612433333333","6500600","新店區"
"231058","3712-VJ","2017/08/22 18:39:17","新北市新店區國校路76-1號","121.538606666667","24.953115","6500600","新店區"
"231055","3713-VJ","2017/08/22 18:39:27","新北市新店區中華路47巷2弄2號","121.539773333333","24.9677066666667","6500600","新店區"
"231056","4716-K9","2017/08/22 18:39:21","新北市新店區自立街17號","121.537761666667","24.97936","6500600","新店區"
"231067","4772-VM","2017/08/22 18:39:13","新北市新店區安華路28-1號","121.519641666667","24.9607066666667","6500600","新店區"
"231065","512-UM","2017/08/22 18:39:32","新北市新店區安華路28-1號","121.519576666667","24.9612966666667","6500600","新店區"
"231054","513-UM","2017/08/22 18:39:18","新北市新店區安華路28-1號","121.51964","24.96116","6500600","新店區"
"231042","616-UM","2017/08/22 18:39:16","新北市新店區安華路1-1號","121.519493333333","24.960395","6500600","新店區"
"231045","617-UM","2017/08/22 18:39:32","新北市新店區安華路28-1號","121.519533333333","24.9608916666667","6500600","新店區"
"231040","619-UM","2017/08/22 18:39:20","新北市新店區安華路28-1號","121.51942","24.96056","6500600","新店區"
"231049","719-UM","2017/08/22 18:39:20","新北市新店區安康路一段75-1號","121.530098333333","24.9611216666667","6500600","新店區"
"231064","719-UY","2017/08/22 18:39:23","新北市新店區安華路28-1號","121.519218333333","24.9605783333333","6500600","新店區"
"231062","720-UM","2017/08/22 18:39:23","新北市新店區安華路28-1號","121.519023333333","24.9611983333333","6500600","新店區"
"231044","897-TW","2017/08/22 18:39:30","新北市新店區安康路一段17號","121.533125","24.9603733333333","6500600","新店區"
"231043","899-TW","2017/08/22 18:39:21","新北市新店區安華路28-1號","121.519151666667","24.9607616666667","6500600","新店區"
"231066","AKT-0513","2017/08/22 18:39:24","新北市新店區安華路1-1號","121.519421666667","24.9603533333333","6500600","新店區"
"235066","003-UY","2017/08/22 18:39:29","新北市中和區水源路33號","121.50429","25.0035483333333","6500300","中和區"
"235064","005-UY","2017/08/22 18:39:31","新北市中和區連城路89巷40號","121.497691666667","24.9986316666667","6500300","中和區"
"235056","096-UM","2017/08/22 18:39:26","新北市板橋區三民路二段220巷19號","121.477888333333","25.0114216666667","6500300","中和區"
"235039","097-UM","2017/08/22 18:39:28","新北市永和區安樂路100巷5號","121.514206666667","24.999485","6500300","中和區"
"235065","098-UM","2017/08/22 18:39:17","新北市中和區莊敬路49巷20弄32號","121.503173333333","25.0050683333333","6500300","中和區"
"235040","150-BY","2017/08/22 18:39:33","新北市中和區宜安路56號","121.511798333333","24.9968466666667","6500300","中和區"
"235058","151-BY","2017/08/22 18:39:19","新北市中和區員山路32-3號","121.480956666667","24.9874066666667","6500300","中和區"
"235055","183-VK","2017/08/22 18:39:29","新北市板橋區國泰街75巷51-4號","121.46861","25.0050116666667","6500300","中和區"
"235038","185-VK","2017/08/22 18:39:28","新北市中和區自強路12號","121.5203","24.995765","6500300","中和區"
"235049","186-VK","2017/08/22 18:39:18","新北市中和區景安路175-2號","121.505176666667","24.9941983333333","6500300","中和區"
"235067","255-BX","2017/08/22 18:39:25","新北市中和區新生街116巷2號","121.483416666667","25.0020983333333","6500300","中和區"
"235044","293-VK","2017/08/22 18:39:24","新北市中和區復興路301巷31號","121.502186666667","24.9896783333333","6500300","中和區"
"235072","301-VK","2017/08/22 18:39:23","新北市中和區連城路32號","121.498525","25.0020866666667","6500300","中和區"
"235043","352-BY","2017/08/22 18:39:21","新北市中和區景德街88號","121.515938333333","24.9919016666667","6500300","中和區"
"235051","376-QA","2017/08/22 18:39:25","新北市中和區興南路二段142巷17弄41號","121.503085","24.9824833333333","6500300","中和區"
"235068","377-QA","2017/08/22 18:39:23","新北市中和區中正路155號","121.498968333333","24.993565","6500300","中和區"
"235061","378-QA","2017/08/22 18:39:31","新北市中和區民享街90巷22號","121.473508333333","25.000045","6500300","中和區"
"235050","4979-A6","2017/08/22 18:39:13","新北市中和區景新街496巷26弄7號","121.513075","24.9860383333333","6500300","中和區"
"235069","4980-A6","2017/08/22 18:39:18","新北市中和區連城路65巷2號","121.4977","25.0012133333333","6500300","中和區"
"235042","551-UM","2017/08/22 18:39:29","新北市中和區景平路64巷17號","121.522268333333","24.9914383333333","6500300","中和區"
"235070","558-UM","2017/08/22 18:39:27","新北市中和區景平路431巷88號","121.50075","24.9952633333333","6500300","中和區"
"235045","565-BX","2017/08/22 18:39:15","新北市中和區復興路14號","121.505656666667","24.9898216666667","6500300","中和區"
"235054","640-BX","2017/08/22 18:39:29","新北市中和區民享街93巷3號","121.475161666667","25.0006116666667","6500300","中和區"
"235060","647-TV","2017/08/22 18:39:25","新北市中和區中山路二段507號","121.482241666667","25.0050283333333","6500300","中和區"
"235047","732-UM","2017/08/22 18:39:26","新北市中和區南山路320巷10弄21號","121.506786666667","24.9867","6500300","中和區"
"235046","733-UM","2017/08/22 18:39:22","新北市中和區南山路222號","121.50638","24.9902583333333","6500300","中和區"
"235062","800-TS","2017/08/22 18:39:31","新北市中和區中山路二段312巷33弄12號","121.494885","25.0039166666667","6500300","中和區"
"235057","801-TS","2017/08/22 18:39:19","新北市中和區民安街42巷38弄6號","121.479006666667","25.0017116666667","6500300","中和區"
"235041","802-TS","2017/08/22 18:39:25","新北市中和區景平路353號","121.504801666667","24.9932433333333","6500300","中和區"
"235052","805-TS","2017/08/22 18:39:15","新北市中和區興南路三段52巷2-5號","121.494791666667","24.97618","6500300","中和區"
"235048","896-TW","2017/08/22 18:39:15","新北市中和區南山路231號","121.503433333333","24.9932316666667","6500300","中和區"
"235053","900-TW","2017/08/22 18:39:16","新北市土城區延壽路55巷1號","121.46981","24.9921433333333","6500300","中和區"
"235037","AAC-213","2017/08/22 18:39:35","新北市中和區景平路111巷18號","121.516398333333","24.9909133333333","6500300","中和區"
"235059","AAC-215","2017/08/22 18:39:22","新北市中和區錦和路350-1號","121.490325","24.99355","6500300","中和區"
"220086","073-UY","2017/08/22 18:39:20","新北市板橋區南雅西路二段194號","121.45181","25.0145","6500100","板橋區"
"220102","120-SR","2017/08/22 18:39:18","新北市板橋區民生路二段161巷1號","121.469981666667","25.0200366666667","6500100","板橋區"
"226004","205-ST","2017/08/22 18:39:33","新北市平溪區平溪里平溪街60-1號","121.738036666667","25.0273116666667","6502400","平溪區"
"228001","212-TW","2017/08/22 18:39:12","新北市貢寮區仁理村研海街12-1號","121.923768333333","25.05165","6502600","貢寮區"
"228002","663-BX","2017/08/22 18:39:30","新北市貢寮區福隆里東興街6-11號","121.950756666667","25.02106","6502600","貢寮區"
"228003","828-UM","2017/08/22 18:39:30","新北市貢寮區和美里龍洞街35-2號","121.916673333333","25.1117016666667","6502600","貢寮區"
"224006","676-BX","2017/08/22 18:39:20","新北市瑞芳區明燈路三段130號","121.804525","25.1084133333333","6501200","瑞芳區"
"224002","639-TC","2017/08/22 18:39:23","新北市瑞芳區傑魚坑路307-2號","121.79355","25.1091916666667","6501200","瑞芳區"
"224011","420-VK","2017/08/22 18:39:30","新北市瑞芳區崙頂路1-6號","121.847028333333","25.1047283333333","6501200","瑞芳區"
"224009","285-BY","2017/08/22 18:39:17","新北市瑞芳區祈堂路105號","121.859041666667","25.10942","6501200","瑞芳區"
"224008","275-VK","2017/08/22 18:39:20","新北市瑞芳區瑞芳街119號","121.80565","25.1097116666667","6501200","瑞芳區"
"224007","273-VK","2017/08/22 18:39:23","新北市瑞芳區大埔路115巷2號","121.76334","25.1010983333333","6501200","瑞芳區"
"224005","271-BY","2017/08/22 18:39:24","新北市瑞芳區瑞濱路129號","121.819916666667","25.1201783333333","6501200","瑞芳區"
"227003","642-TC","2017/08/22 18:39:18","新北市雙溪區魚行里坤溪3-5號","121.876116666667","25.0208383333333","6502500","雙溪區"
"227009","400-TW","2017/08/22 18:39:27","新北市雙溪區牡丹里下坑11號","121.851051666667","25.0561416666667","6502500","雙溪區"
"253006","032-BX","2017/08/22 18:39:15","新北市石門區崁子腳16號","121.532933333333","25.2883066666667","6502200","石門區"
"253005","295-VK","2017/08/22 18:39:24","新北市石門區中山路62號","121.566886666667","25.2906333333333","6502200","石門區"
"253003","6232-TK","2017/08/22 18:39:24","新北市石門區崁子腳1-2號","121.532075","25.2881683333333","6502200","石門區"
"208002","742-BX","2017/08/22 18:39:15","新北市金山區忠孝一路19巷17號","121.63735","25.2178316666667","6502700","金山區"
"208003","665-BX","2017/08/22 18:39:28","新北市金山區中山路393號","121.63342","25.225265","6502700","金山區"
"208001","761-BX","2017/08/22 18:39:21","新北市金山區文化三路7號","121.635163333333","25.22487","6502700","金山區"
"251004","009-UM","2017/08/22 18:39:22","新北市淡水區中正東路二段143巷2弄1號","121.460651666667","25.14729","6501000","淡水區"
"251014","180-VK","2017/08/22 18:39:24","新北市淡水區南平21-2號","121.498075","25.2162033333333","6501000","淡水區"
"251008","181-VK","2017/08/22 18:39:32","新北市淡水區北投子69-1號","121.45415","25.1816866666667","6501000","淡水區"
"251010","413-VK","2017/08/22 18:39:18","新北市淡水區沙崙路141-1號","121.423168333333","25.1830916666667","6501000","淡水區"
"251012","441-VK","2017/08/22 18:39:26","新北市淡水區北新路121號","121.448923333333","25.1786833333333","6501000","淡水區"
"251016","442-VK","2017/08/22 18:39:21","新北市淡水區下圭柔山72-1號","121.445988333333","25.2059933333333","6501000","淡水區"
"251001","559-UM","2017/08/22 18:39:15","新北市淡水區自強路415巷2號","121.465458333333","25.134245","6501000","淡水區"
"251006","561-UM","2017/08/22 18:39:19","新北市淡水區崁頂55-1號","121.442391666667","25.1970233333333","6501000","淡水區"
"251011","650-BX","2017/08/22 18:39:21","新北市淡水區鄧公路210巷6號","121.455171666667","25.169195","6501000","淡水區"
"251002","672-BX","2017/08/22 18:39:34","新北市淡水區中正東路一段3巷2號","121.450596666667","25.1648266666667","6501000","淡水區"
"251003","766-UM","2017/08/22 18:39:12","新北市淡水區北新路69巷26號","121.446808333333","25.18016","6501000","淡水區"
"207003","550-UM","2017/08/22 18:39:18","新北市萬里區大鵬里頂社2-1號","121.660348333333","25.207235","6502800","萬里區"
"207004","225-TW","2017/08/22 18:39:24","新北市萬里區萬里里獅頭路10-1號","121.692088333333","25.1787133333333","6502800","萬里區"
"252002","178-VK","2017/08/22 18:39:30","新北市三芝區中正路二段37號","121.503878333333","25.2548566666667","6502100","三芝區"
"252003","249-BX","2017/08/22 18:39:29","新北市三芝區後厝里土地公坑73-3號","121.46052","25.247485","6502100","三芝區"
"252001","702-TV","2017/08/22 18:39:12","新北市三芝區中興街二段123號","121.499543333333","25.2548283333333","6502100","三芝區"
"237004","078-UY","2017/08/22 18:39:17","新北市三峽區插角222號","121.414976666667","24.8677183333333","6500900","三峽區"
"237007","153-BY","2017/08/22 18:39:19","新北市三峽區中正路三段39-1號","121.345716666667","24.904265","6500900","三峽區"
"237009","210-TH","2017/08/22 18:39:14","新北市三峽區弘園街93號","121.365745","24.9261916666667","6500900","三峽區"
"237013","252-BX","2017/08/22 18:39:26","新北市三峽區光明路69巷27號","121.376861666667","24.9293516666667","6500900","三峽區"
"237012","275-BY","2017/08/22 18:39:15","新北市三峽區三樹路212-1號","121.379218333333","24.9421933333333","6500900","三峽區"
"237008","302-VK","2017/08/22 18:39:27","新北市三峽區白雞115-7號","121.40079","24.9067366666667","6500900","三峽區"
"237014","433-BY","2017/08/22 18:39:21","新北市三峽區復興路480巷51-1號","121.360656666667","24.9405616666667","6500900","三峽區"
"237006","5529-G3","2017/08/22 18:39:15","新北市三峽區溪東路211巷37號","121.40533","24.934695","6500900","三峽區"
"237011","572-TV","2017/08/22 18:39:21","新北市三峽區橫溪路11號","121.396141666667","24.9359866666667","6500900","三峽區"
"237016","649-BX","2017/08/22 18:39:21","新北市三峽區紫微南路5號","121.425466666667","24.9195516666667","6500900","三峽區"
"237010","706-TV","2017/08/22 18:39:21","新北市三峽區復興路315號","121.365016666667","24.938845","6500900","三峽區"
"237005","AKY-6261","2017/08/22 18:39:30","新北市三峽區文化路33號","121.372846666667","24.936105","6500900","三峽區"
"236070","105-UM","2017/08/22 18:39:31","新北市土城區永豐路157巷29弄1號","121.46868","24.9813866666667","6501300","土城區"
"236043","107-UM","2017/08/22 18:39:29","新北市土城區學成路108巷11號","121.450205","24.989755","6501300","土城區"
"236079","166-UM","2017/08/22 18:39:34","新北市土城區中央路四段52巷40弄5號","121.419161666667","24.9605683333333","6501300","土城區"
"236031","253-BX","2017/08/22 18:39:20","新北市土城區福仁街65號","121.439571666667","24.974695","6501300","土城區"
"236027","269-VK","2017/08/22 18:39:25","新北市土城區忠義路51-1號","121.4405","24.9688766666667","6501300","土城區"
"236015","270-VK","2017/08/22 18:39:25","新北市土城區青雲路185號","121.459335","24.98262","6501300","土城區"
"236038","271-VK","2017/08/22 18:39:17","新北市土城區青山路26號","121.463458333333","24.9752783333333","6501300","土城區"
"236023","401-BY","2017/08/22 18:39:17","新北市土城區延吉街268號","121.465908333333","24.984385","6501300","土城區"
"236059","912-UM","2017/08/22 18:39:28","新北市土城區中央路四段76-3號","121.419075","24.95947","6501300","土城區"
"236049","913-UM","2017/08/22 18:39:16","新北市土城區永豐路98巷38弄11號","121.463108333333","24.9862383333333","6501300","土城區"
"236063","915-UM","2017/08/22 18:39:31","新北市土城區延和路125巷39號","121.469118333333","24.991265","6501300","土城區"
"236055","AAC-216","2017/08/22 18:39:22","新北市土城區中華路一段75號","121.445091666667","24.9878316666667","6501300","土城區"
"242032","415-TV","2017/08/22 18:39:26","新北市新莊區新泰路277巷45號","121.444086666667","25.04007","6500500","新莊區"
"242061","362-BY","2017/08/22 18:39:16","新北市新莊區民安路193號","121.426095","25.02266","6500500","新莊區"
"242034","133-UY","2017/08/22 18:39:29","新北市樹林區環河路10-1號","121.424455","24.9761683333333","6500500","新莊區"
"242056","176-VK","2017/08/22 18:39:31","新北市新莊區豐年街豐2巷2號","121.446778333333","25.0307366666667","6500500","新莊區"
"242044","347-TH","2017/08/22 18:39:20","新北市泰山區德安街2號","121.419276666667","25.0320316666667","6500500","新莊區"
"242054","349-TH","2017/08/22 18:39:27","新北市樹林區俊英街2號","121.430426666667","24.99903","6500500","新莊區"
"238015","755-BX","2017/08/22 18:39:22","新北市樹林區備內街79號","121.409123333333","24.9895533333333","6500700","樹林區"
"238023","601-UM","2017/08/22 18:39:29","新北市樹林區三福街114號","121.406435","25.0162716666667","6500700","樹林區"
"238019","599-UM","2017/08/22 18:39:16","新北市樹林區中華路190-16號","121.411733333333","24.9805766666667","6500700","樹林區"
"238018","571-TV","2017/08/22 18:39:25","新北市樹林區樹新路50巷5弄28號","121.429415","24.9967466666667","6500700","樹林區"
"238024","5061-A6","2017/08/22 18:39:21","新北市樹林區大安路593號","121.41179","24.9830216666667","6500700","樹林區"
"238025","303-VK","2017/08/22 18:39:23","新北市樹林區中山路三段22號","121.39568","24.9730083333333","6500700","樹林區"
"238017","283-BY","2017/08/22 18:39:20","新北市樹林區光興街44號","121.409893333333","25.0027483333333","6500700","樹林區"
"238014","282-BY","2017/08/22 18:39:30","新北市樹林區大安路109號","121.422965","24.9976966666667","6500700","樹林區"
"238020","268-VK","2017/08/22 18:39:21","新北市樹林區三俊街233號","121.421635","25.014735","6500700","樹林區"
"238026","172-UY","2017/08/22 18:39:26","新北市樹林區八德街828-18號","121.392541666667","24.9692883333333","6500700","樹林區"
"238016","169-UY","2017/08/22 18:39:23","新北市樹林區文化街28號","121.419261666667","24.98769","6500700","樹林區"
"239007","AAC-297","2017/08/22 18:39:30","新北市鶯歌區中正一路建德巷2號","121.364551666667","24.9567766666667","6500800","鶯歌區"
"239006","891-R6","2017/08/22 18:39:16","新北市鶯歌區鶯桃路296巷46-3號","121.335798333333","24.9612616666667","6500800","鶯歌區"
"239008","527-UM","2017/08/22 18:39:14","新北市鶯歌區國際一路179號","121.336215","24.9765183333333","6500800","鶯歌區"
"239005","526-UM","2017/08/22 18:39:14","新北市鶯歌區鳳吉一街60號","121.326495","24.9740416666667","6500800","鶯歌區"
"239001","417-VK","2017/08/22 18:39:15","新北市鶯歌區中正二路192-4號","121.339703333333","24.9434516666667","6500800","鶯歌區"
"239003","360-BY","2017/08/22 18:39:22","新北市鶯歌區永和街148號","121.335515","24.9699683333333","6500800","鶯歌區"
"239002","359-BY","2017/08/22 18:39:20","新北市鶯歌區中山路288號","121.343973333333","24.957","6500800","鶯歌區"
"239004","193-VK","2017/08/22 18:39:32","新北市鶯歌區中正三路194巷46號","121.330968333333","24.9409883333333","6500800","鶯歌區"
"221008","489-VK","2017/08/22 18:39:13","新北市汐止區康寧街901號","121.651411666667","25.0750966666667","6501100","汐止區"
"221036","130-UY","2017/08/22 18:39:10","新北市汐止區南昌街13號","121.663531666667","25.0694733333333","6501100","汐止區"
"221015","131-UY","2017/08/22 18:39:23","新北市汐止區吉祥街1巷2號","121.667873333333","25.0799316666667","6501100","汐止區"
"221010","269-BY","2017/08/22 18:39:14","新北市汐止區夢湖路2巷5號","121.642721666667","25.10636","6501100","汐止區"
"221012","276-VK","2017/08/22 13:25:14","新北市汐止區汐萬路一段256巷3號","121.653455","25.074615","6501100","汐止區"
"221031","277-VK","2017/08/22 18:39:15","新北市汐止區大同路一段247號","121.635616666667","25.0580783333333","6501100","汐止區"
"221012","278-VK","2017/08/22 18:39:18","新北市汐止區汐萬路一段153號","121.653216666667","25.0710916666667","6501100","汐止區"
"221023","279-VK","2017/08/22 18:39:19","新北市汐止區伯爵街2巷11號","121.642421666667","25.0755","6501100","汐止區"
"221032","280-BY","2017/08/22 18:39:22","新北市汐止區民權街二段79號","121.619205","25.0480516666667","6501100","汐止區"
"221027","281-BY","2017/08/22 18:39:14","新北市汐止區大同路二段381號","121.657545","25.0674833333333","6501100","汐止區"
"221038","297-VK","2017/08/22 18:39:17","新北市汐止區汐萬路一段312號","121.650376666667","25.0749583333333","6501100","汐止區"
"221029","298-VK","2017/08/22 18:39:26","新北市汐止區樟樹一路140號","121.642275","25.0649583333333","6501100","汐止區"
"221021","299-VK","2017/08/22 18:39:25","新北市汐止區新興路47號","121.657126666667","25.0631816666667","6501100","汐止區"
"221035","622-UM","2017/08/22 18:39:21","新北市汐止區大同路二段266號","121.654558333333","25.0661883333333","6501100","汐止區"
"221025","623-UM","2017/08/22 18:39:26","新北市汐止區仁愛路119巷27號","121.662005","25.0644333333333","6501100","汐止區"
"221033","647-BX","2017/08/22 18:39:28","台北市南港區舊莊街一段192巷1號","121.62181","25.0388416666667","6501100","汐止區"
"221002","707-TV","2017/08/22 18:39:13","新北市汐止區中興路25號","121.636871666667","25.0596333333333","6501100","汐止區"
"221018","753-BX","2017/08/22 18:39:28","新北市汐止區茄苳路293號","121.672896666667","25.0673716666667","6501100","汐止區"
"220079","145-BY","2017/08/22 18:39:16","新北市板橋區大觀路二段111號","121.446193333333","25.0015733333333","6500100","板橋區"
"220080","200-UY","2017/08/22 18:39:21","新北市板橋區大觀路二段435-1號","121.446745","24.99472","6500100","板橋區"
"220082","610-BX","2017/08/22 18:39:24","新北市板橋區華東街1-10號","121.448285","24.9948816666667","6500100","板橋區"
"220075","256-TC","2017/08/22 18:39:32","新北市板橋區板城路421號","121.448161666667","24.9957166666667","6500100","板橋區"
"220056","276-BY","2017/08/22 18:39:33","新北市板橋區南雅南路二段49號","121.451533333333","24.9944433333333","6500100","板橋區"
"220071","283-VK","2017/08/22 15:45:52","新北市板橋區民生路二段36-1號","121.47256","25.016535","6500100","板橋區"
"220053","285-VK","2017/08/22 18:39:20","新北市板橋區民生路二段36-1號","121.472431666667","25.0167166666667","6500100","板橋區"
"220081","287-VK","2017/08/22 18:39:25","新北市板橋區華東街1-10號","121.448248333333","24.995055","6500100","板橋區"
"220090","288-VK","2017/08/22 18:39:18","新北市板橋區民生路二段120號","121.470546666667","25.0196366666667","6500100","板橋區"
"220061","293-UM","2017/08/22 18:39:25","新北市板橋區民生路二段56-1號","121.472361666667","25.0169633333333","6500100","板橋區"
"220084","296-UM","2017/08/22 18:39:15","新北市板橋區華東街1-9號","121.448126666667","24.9949666666667","6500100","板橋區"
"220035","560-BX","2017/08/22 18:39:24","新北市板橋區南雅西路二段145巷4號","121.451681666667","25.011635","6500100","板橋區"
"220091","637-BX","2017/08/22 18:39:27","新北市板橋區民生路二段188號","121.470131666667","25.0203716666667","6500100","板橋區"
"220057","686-BX","2017/08/22 18:39:19","新北市板橋區民生路二段36-1號","121.472486666667","25.0166516666667","6500100","板橋區"
"220077","687-BX","2017/08/22 18:39:20","新北市板橋區華東街1-10號","121.448305","24.9949466666667","6500100","板橋區"
"220074","895-R6","2017/08/22 18:39:33","新北市板橋區華東街1-9號","121.44817","24.9949966666667","6500100","板橋區"
"220073","985-R7","2017/08/22 18:39:34","新北市板橋區華東街1-10號","121.448353333333","24.9950216666667","6500100","板橋區"
