"lineid","car","time","location","longitude","latitude","cityid","cityname"
"234046","148-BY","2017/08/22 19:17:03","新北市永和區秀朗路二段148巷5弄1號","121.525415","25.000915","6500400","永和區"
"234013","149-BY","2017/08/22 19:18:02","新北市永和區信義路57-1號","121.512781666667","25.0126833333333","6500400","永和區"
"234007","207-UY","2017/08/22 19:19:05","新北市永和區中山路一段155號","121.509855","25.0094233333333","6500400","永和區"
"234081","298-R6","2017/08/22 19:13:50","新北市永和區福和路57巷4弄2號","121.523","25.0074666666667","6500400","永和區"
"234038","336-UY","2017/08/22 19:18:41","新北市永和區成功路二段65號","121.527386666667","25.0001316666667","6500400","永和區"
"234064","337-UY","2017/08/22 19:13:56","新北市永和區永元路54號","121.52243","25.0011366666667","6500400","永和區"
"234086","338-UY","2017/08/22 19:18:25","新北市永和區永利路2號","121.517335","25.0058633333333","6500400","永和區"
"234070","552-UM","2017/08/22 19:18:27","新北市永和區中正路666巷53號","121.51884","25.009075","6500400","永和區"
"234054","553-UM","2017/08/22 19:16:13","新北市永和區勵行街119號","121.517581666667","25.0118766666667","6500400","永和區"
"234017","745-BX","2017/08/22 19:18:43","新北市永和區文化路144巷19弄20號","121.512173333333","25.01682","6500400","永和區"
"234030","746-BX","2017/08/22 19:15:11","新北市永和區厚德街9巷1號","121.525788333333","24.9982433333333","6500400","永和區"
"234061","AAD-866","2017/08/22 19:14:39","新北市永和區秀朗路一段84號","121.516005","25.0052066666667","6500400","永和區"
"234042","862-TW","2017/08/22 19:19:03","新北市永和區保平路151巷2弄7-2號","121.50961","25.005235","6500400","永和區"
"234050","863-TW","2017/08/22 19:17:39","新北市永和區保福路二段88巷19號","121.511638333333","25.013935","6500400","永和區"
"234026","9371-KE","2017/08/22 19:18:18","新北市永和區安樂路98號","121.514215","24.9992566666667","6500400","永和區"
"234011","9373-KE","2017/08/22 19:19:14","新北市永和區仁愛路141巷3弄23號","121.512383333333","25.0125766666667","6500400","永和區"
"249005","172-UM","2017/08/22 19:18:33","新北市八里區中華路三段170-1號","121.392038333333","25.1305583333333","6502300","八里區"
"249001","173-UM","2017/08/22 19:17:42","新北市八里區中華路一段40-18號","121.419026666667","25.1567816666667","6502300","八里區"
"249003","593-UM","2017/08/22 19:19:05","新北市八里區中山路二段466巷22號","121.398921666667","25.148325","6502300","八里區"
"248016","026-BX","2017/08/22 19:18:09","新北市五股區成洲五路12號","121.452366666667","25.10153","6501500","五股區"
"248020","225-UY","2017/08/22 19:17:16","新北市五股區凌雲路三段57號","121.425268333333","25.1250116666667","6501500","五股區"
"248010","272-BY","2017/08/22 19:18:04","新北市五股區水碓一路23號","121.430625","25.07128","6501500","五股區"
"248012","655-BX","2017/08/22 19:19:16","新北市五股區中興路四段38巷11號","121.438726666667","25.0834866666667","6501500","五股區"
"248004","677-BX","2017/08/22 19:18:42","新北市五股區五福路48號","121.433691666667","25.0894033333333","6501500","五股區"
"248002","678-BX","2017/08/22 19:19:10","新北市五股區凌雲路一段158巷6號","121.447835","25.1030166666667","6501500","五股區"
"234023","9380-KE","2017/08/22 19:13:07","新北市永和區中興街10巷29號","121.516506666667","25.011025","6500400","永和區"
"234077","969-R7","2017/08/22 19:15:17","新北市永和區民族街42號","121.5185","24.9988466666667","6500400","永和區"
"234074","AAC-211","2017/08/22 19:19:05","新北市永和區竹林路73-1號","121.518796666667","25.0132216666667","6500400","永和區"
"234067","AAC-212","2017/08/22 19:16:33","新北市永和區永平路81巷12號","121.511601666667","25.0079883333333","6500400","永和區"
"234003","AAC-295","2017/08/22 19:18:43","新北市永和區永平路168號","121.510723333333","25.0089916666667","6500400","永和區"
"244019","403-UM","2017/08/22 19:17:33","新北市林口區麗園二街12巷1-3號","121.378391666667","25.0694716666667","6501700","林口區"
"244009","410-SL","2017/08/22 19:18:22","新北市林口區竹林路460號","121.387801666667","25.085185","6501700","林口區"
"244023","657-BX","2017/08/22 19:18:06","新北市林口區民富街93號","121.370088333333","25.0750466666667","6501700","林口區"
"244013","658-BX","2017/08/22 19:19:03","新北市林口區麗園一街4巷1號","121.376106666667","25.0713333333333","6501700","林口區"
"244011","701-TV","2017/08/22 19:17:53","新北市林口區中山路490號","121.380186666667","25.08242","6501700","林口區"
"243013","AAD-798","2017/08/22 19:19:13","新北市泰山區台麗街2號","121.424198333333","25.038295","6501600","泰山區"
"243009","297-R6","2017/08/22 19:17:53","新北市泰山區和平街9-2號","121.434066666667","25.0646316666667","6501600","泰山區"
"243015","380-SR","2017/08/22 19:19:11","新北市泰山區公園路65號","121.427093333333","25.0550183333333","6501600","泰山區"
"243014","421-VK","2017/08/22 19:19:10","新北市泰山區泰林路二段253號","121.431788333333","25.0622266666667","6501600","泰山區"
"243012","539-UM","2017/08/22 15:39:13","新北市泰山區犁頭窠3-1號","121.421973333333","25.0605316666667","6501600","泰山區"
"243010","548-UM","2017/08/22 19:19:19","新北市泰山區明志路一段492巷7號","121.429986666667","25.054795","6501600","泰山區"
"243011","549-UM","2017/08/22 19:18:54","新北市泰山區中央路36巷1號","121.42631","25.0427366666667","6501600","泰山區"
"243012","646-TV","2017/08/22 19:18:51","新北市泰山區仁愛路94號","121.433298333333","25.0553783333333","6501600","泰山區"
"243016","680-BX","2017/08/22 19:17:48","新北市泰山區明志路三段123巷1弄7號","121.425111666667","25.041045","6501600","泰山區"
"222003","436-BY","2017/08/22 19:19:12","新北市深坑區深南路204號","121.626676666667","25.0160066666667","6501800","深坑區"
"222002","659-BX","2017/08/22 19:18:40","新北市深坑區北深路一段177號","121.632578333333","25.0108783333333","6501800","深坑區"
"222001","696-SL","2017/08/22 19:19:16","新北市深坑區北深路二段82號","121.61755","25.0036183333333","6501800","深坑區"
"231059","001-UM","2017/08/22 19:18:53","新北市新店區安和路三段46號","121.517956666667","24.981765","6500600","新店區"
"231041","002-UM","2017/08/22 19:19:08","新北市新店區溪園路245-6號","121.525361666667","24.9832283333333","6500600","新店區"
"231061","047-UY","2017/08/22 19:18:49","新北市新店區安康路一段228號","121.52328","24.9636466666667","6500600","新店區"
"231060","106-UY","2017/08/22 19:19:13","新北市新店區安康路二段128號","121.512705","24.9624783333333","6500600","新店區"
"231051","107-UY","2017/08/22 19:19:10","新北市新店區百忍街90號","121.532678333333","24.9771816666667","6500600","新店區"
"231048","108-UY","2017/08/22 19:18:22","新北市新店區中興路二段81號","121.546708333333","24.97118","6500600","新店區"
"231053","187-VK","2017/08/22 19:18:31","新北市新店區屈尺路123號","121.545146666667","24.9235116666667","6500600","新店區"
"231069","189-VK","2017/08/22 11:53:09","新北市新店區安華路28-1號","121.519686666667","24.9611016666667","6500600","新店區"
"231063","268-BY","2017/08/22 19:16:37","新北市新店區達觀路8巷5號","121.503728333333","24.9433316666667","6500600","新店區"
"231046","278-BY","2017/08/22 19:17:06","新北市新店區華城路6號","121.530218333333","24.9604783333333","6500600","新店區"
"231050","AAD-862","2017/08/22 19:18:47","新北市新店區竹林路158-1號","121.55731","24.9484883333333","6500600","新店區"
"231058","3712-VJ","2017/08/22 19:19:17","新北市新店區光明街286巷21號","121.541171666667","24.9633916666667","6500600","新店區"
"231067","4772-VM","2017/08/22 19:19:13","新北市新店區安康路二段414巷2號","121.495816666667","24.9577883333333","6500600","新店區"
"231065","512-UM","2017/08/22 19:19:12","新北市新店區安祥路110巷19號","121.473843333333","24.956115","6500600","新店區"
"231054","513-UM","2017/08/22 19:18:57","新北市新店區國校路41號","121.537898333333","24.95543","6500600","新店區"
"231042","616-UM","2017/08/22 19:19:16","新北市新店區北宜路一段3號","121.538293333333","24.9585916666667","6500600","新店區"
"231045","617-UM","2017/08/22 19:19:13","新北市新店區北宜路一段256號","121.545625","24.9528","6500600","新店區"
"231040","619-UM","2017/08/22 19:18:50","新北市新店區三民路32號","121.536736666667","24.9712116666667","6500600","新店區"
"231049","719-UM","2017/08/22 19:19:00","新北市新店區明德路111號","121.541538333333","24.9794716666667","6500600","新店區"
"231064","719-UY","2017/08/22 19:17:23","新北市新店區安忠路57巷1-5號","121.5134","24.9595816666667","6500600","新店區"
"231062","720-UM","2017/08/22 19:17:43","新北市新店區莒光路61巷1號","121.523628333333","24.9581216666667","6500600","新店區"
"231044","897-TW","2017/08/22 19:19:01","新北市新店區中興路三段298號","121.54249","24.985005","6500600","新店區"
"231043","899-TW","2017/08/22 19:18:41","新北市新店區寶橋路15號","121.543761666667","24.973925","6500600","新店區"
"231066","AKT-0513","2017/08/22 19:17:42","新北市新店區安康路三段355巷5號","121.484626666667","24.95063","6500600","新店區"
"241009","060-VK","2017/08/22 19:18:35","新北市三重區仁美街113號","121.485733333333","25.081005","6500200","三重區"
"241031","061-VK","2017/08/22 19:18:44","新北市三重區重新路四段246號","121.485783333333","25.0535616666667","6500200","三重區"
"241017","063-VK","2017/08/22 19:18:27","新北市三重區大同北路182號","121.491655","25.0657683333333","6500200","三重區"
"241026","066-VK","2017/08/22 19:18:56","新北市三重區中正南路216號","121.49381","25.05505","6500200","三重區"
"241022","267-UM","2017/08/22 19:18:14","新北市三重區中正北路60號","121.486891666667","25.064425","6500200","三重區"
"241032","269-UM","2017/08/22 19:19:16","新北市三重區新生街97號","121.48354","25.0594383333333","6500200","三重區"
"241020","412-TH","2017/08/22 19:19:18","新北市三重區後竹圍街118號","121.48837","25.07265","6500200","三重區"
"241029","942-UM","2017/08/22 19:18:27","新北市三重區集美街229號","121.492273333333","25.0550866666667","6500200","三重區"
"235066","003-UY","2017/08/22 19:17:49","新北市中和區廣福路106號","121.502436666667","25.001215","6500300","中和區"
"235064","005-UY","2017/08/22 19:18:51","新北市中和區中和路38號","121.500016666667","25.0015","6500300","中和區"
"235056","096-UM","2017/08/22 19:18:06","新北市中和區中山路二段525號","121.481628333333","25.0053483333333","6500300","中和區"
"235039","097-UM","2017/08/22 19:18:28","新北市中和區景平路64巷13弄18號","121.521875","24.9914383333333","6500300","中和區"
"235065","098-UM","2017/08/22 19:19:17","新北市中和區中山路二段136巷6弄1號","121.502113333333","25.0038833333333","6500300","中和區"
"235040","150-BY","2017/08/22 19:18:53","新北市中和區保健路48巷57號","121.50937","24.996095","6500300","中和區"
"235058","151-BY","2017/08/22 19:18:39","新北市中和區連城路523巷9弄16號","121.48203","24.9944916666667","6500300","中和區"
"235055","183-VK","2017/08/22 19:18:09","新北市中和區德光路104號","121.468246666667","25.00332","6500300","中和區"
"235038","185-VK","2017/08/22 19:18:08","新北市中和區大仁街20巷43號","121.519188333333","24.9932183333333","6500300","中和區"
"235049","186-VK","2017/08/22 19:18:58","新北市中和區景新街229號","121.507878333333","24.9946716666667","6500300","中和區"
"235067","255-BX","2017/08/22 19:19:05","新北市中和區新生街177巷9號","121.484261666667","25.0007733333333","6500300","中和區"
"235044","293-VK","2017/08/22 19:18:44","新北市中和區中興街222-4號","121.50056","24.9895366666667","6500300","中和區"
"235072","301-VK","2017/08/22 19:16:43","新北市中和區景平路668號","121.497123333333","25.0009166666667","6500300","中和區"
"235043","352-BY","2017/08/22 19:19:01","新北市中和區景平路372號","121.51086","24.9927516666667","6500300","中和區"
"235051","376-QA","2017/08/22 19:18:46","新北市中和區忠孝街31巷25-6號","121.509955","24.983995","6500300","中和區"
"235068","377-QA","2017/08/22 19:19:03","新北市中和區連勝街6號","121.498946666667","24.9986766666667","6500300","中和區"
"235061","378-QA","2017/08/22 19:18:11","新北市中和區員山路356號","121.480976666667","25.0036466666667","6500300","中和區"
"235050","4979-A6","2017/08/22 19:18:13","新北市中和區景安路208巷7號","121.503593333333","24.99109","6500300","中和區"
"235069","4980-A6","2017/08/22 19:19:06","新北市中和區景平路736巷3弄3號","121.497276666667","25.00372","6500300","中和區"
"235042","551-UM","2017/08/22 19:18:14","新北市中和區大勇街60巷27號","121.518866666667","24.9947533333333","6500300","中和區"
"235070","558-UM","2017/08/22 19:19:07","新北市中和區中和路88號","121.501263333333","25.00054","6500300","中和區"
"235045","565-BX","2017/08/22 19:18:15","新北市中和區景新街437巷2弄1號","121.51359","24.98907","6500300","中和區"
"235054","640-BX","2017/08/22 19:18:49","新北市中和區民德路153號","121.468685","25.000205","6500300","中和區"
"235060","647-TV","2017/08/22 19:18:21","新北市中和區民有街57號","121.476183333333","25.0039783333333","6500300","中和區"
"235047","732-UM","2017/08/22 19:19:06","新北市中和區景平路239巷53弄7號","121.508961666667","24.99179","6500300","中和區"
"235046","733-UM","2017/08/22 19:19:02","新北市中和區華新街170號","121.507308333333","24.9821733333333","6500300","中和區"
"235057","801-TS","2017/08/22 19:15:18","新北市中和區民利街87號","121.478158333333","24.9980483333333","6500300","中和區"
"235041","802-TS","2017/08/22 19:18:05","新北市中和區景安路65號","121.506955","24.9978583333333","6500300","中和區"
"235052","805-TS","2017/08/22 19:18:55","新北市中和區興南路二段128巷1弄4號","121.503741666667","24.98357","6500300","中和區"
"235048","896-TW","2017/08/22 19:16:55","新北市中和區忠孝街54號","121.511375","24.9836233333333","6500300","中和區"
"235053","900-TW","2017/08/22 19:18:36","新北市中和區華福街71號","121.467116666667","24.9965633333333","6500300","中和區"
"235071","911-UM","2017/08/22 19:18:43","新北市中和區中正路637巷46號","121.485538333333","24.9942583333333","6500300","中和區"
"235037","AAC-213","2017/08/22 19:18:38","新北市中和區秀朗路三段50巷7-1號","121.52578","24.9953483333333","6500300","中和區"
"235059","AAC-215","2017/08/22 19:19:01","新北市中和區圓通路365號","121.491288333333","24.989625","6500300","中和區"
"220068","013-TV","2017/08/22 19:18:06","新北市板橋區翠華街6巷61號","121.481193333333","25.0249366666667","6500100","板橋區"
"220065","072-UY","2017/08/22 19:15:27","新北市板橋區海山路21巷3號","121.469416666667","25.009155","6500100","板橋區"
"220086","073-UY","2017/08/22 19:14:56","新北市板橋區國光路173巷3弄1號","121.460431666667","25.0188033333333","6500100","板橋區"
"220069","AAD-861","2017/08/22 19:14:01","新北市板橋區華興街53號","121.45756","25.00482","6500100","板橋區"
"220102","120-SR","2017/08/22 19:13:58","新北市板橋區田單街49巷1弄4號","121.482815","25.028485","6500100","板橋區"
"226004","205-ST","2017/08/22 19:17:33","新北市平溪區十分里十分街210號","121.779168333333","25.04436","6502400","平溪區"
"228001","212-TW","2017/08/22 19:18:52","新北市貢寮區真理里新港街10號","121.9255","25.054365","6502600","貢寮區"
"228002","663-BX","2017/08/22 19:19:09","新北市貢寮區雙玉里田寮洋街21號","121.92716","25.0240033333333","6502600","貢寮區"
"228003","828-UM","2017/08/22 19:19:10","新北市貢寮區和美里和美街33號","121.913825","25.0829833333333","6502600","貢寮區"
"224010","AGQ-8101","2017/08/22 19:08:20","新北市瑞芳區崙頂路1-5號","121.846868333333","25.1062616666667","6501200","瑞芳區"
"224006","676-BX","2017/08/22 19:17:40","新北市瑞芳區中山路153-2號","121.8023","25.1064666666667","6501200","瑞芳區"
"224011","420-VK","2017/08/22 19:18:50","新北市瑞芳區崙頂路1-6號","121.847068333333","25.1046716666667","6501200","瑞芳區"
"224009","285-BY","2017/08/22 19:13:17","新北市瑞芳區長仁路40號","121.86358","25.1178566666667","6501200","瑞芳區"
"224008","275-VK","2017/08/22 19:18:40","新北市瑞芳區一坑路71-5號","121.802301666667","25.10856","6501200","瑞芳區"
"224005","271-BY","2017/08/22 19:17:24","新北市瑞芳區三爪子坑路335號","121.818843333333","25.1049683333333","6501200","瑞芳區"
"227003","642-TC","2017/08/22 19:18:18","新北市雙溪區平林里梅竹蹊82號","121.860173333333","25.03598","6502500","雙溪區"
"227009","400-TW","2017/08/22 19:17:48","新北市雙溪區新基里新基北街40號","121.868493333333","25.0380416666667","6502500","雙溪區"
"253006","032-BX","2017/08/22 19:19:15","新北市石門區楓林23-10號","121.538668333333","25.291115","6502200","石門區"
"253005","295-VK","2017/08/22 19:19:04","新北市石門區阿里荖6-2號","121.610216666667","25.2798933333333","6502200","石門區"
"253003","6232-TK","2017/08/22 19:19:04","新北市石門區楓林15-1號","121.534625","25.2937733333333","6502200","石門區"
"208002","742-BX","2017/08/22 19:19:15","新北市金山區環金路376巷1號","121.632003333333","25.2222216666667","6502700","金山區"
"208003","665-BX","2017/08/22 19:14:48","新北市金山區中山路190巷2號","121.637978333333","25.2214383333333","6502700","金山區"
"208001","761-BX","2017/08/22 19:19:01","新北市金山區民生路69號","121.64015","25.2197066666667","6502700","金山區"
"251014","180-VK","2017/08/22 19:19:04","新北市淡水區小中寮19-7號","121.484776666667","25.2296183333333","6501000","淡水區"
"251010","413-VK","2017/08/22 19:19:18","新北市淡水區沙崙路30號","121.421483333333","25.18151","6501000","淡水區"
"251016","442-VK","2017/08/22 19:19:00","新北市淡水區淡金路三段350巷18號","121.45081","25.2083816666667","6501000","淡水區"
"251005","443-VK","2017/08/22 19:17:02","新北市淡水區水源街一段20號","121.442925","25.1723216666667","6501000","淡水區"
"251001","559-UM","2017/08/22 19:19:15","新北市淡水區自強路201巷39號","121.462126666667","25.1268633333333","6501000","淡水區"
"251009","575-R6","2017/08/22 19:18:12","新北市淡水區中山路159-6號","121.44085","25.1732233333333","6501000","淡水區"
"251007","577-R6","2017/08/22 19:18:56","新北市淡水區中正東路二段143巷6弄1號","121.461175","25.1473283333333","6501000","淡水區"
"251011","650-BX","2017/08/22 19:19:01","新北市淡水區中正東路二段143巷2弄1號","121.460678333333","25.1473883333333","6501000","淡水區"
"251002","672-BX","2017/08/22 19:19:14","新北市淡水區中正路342號","121.435035","25.1737233333333","6501000","淡水區"
"251003","766-UM","2017/08/22 19:18:10","新北市淡水區清水街250號","121.440381666667","25.1722983333333","6501000","淡水區"
"207003","550-UM","2017/08/22 19:18:58","新北市萬里區大鵬里萬里加投79-3號","121.647363333333","25.2123416666667","6502800","萬里區"
"207004","225-TW","2017/08/22 19:18:40","新北市萬里區萬里里成功新村44號","121.687728333333","25.1746066666667","6502800","萬里區"
"252002","178-VK","2017/08/22 19:18:50","新北市三芝區淡金路二段18-1號","121.502648333333","25.2595133333333","6502100","三芝區"
"252003","249-BX","2017/08/22 19:19:09","新北市三芝區埔坪里埔頭坑41號","121.5044","25.2646133333333","6502100","三芝區"
"252001","292-VK","2017/08/22 19:15:56","新北市三芝區埔頭里埔頭14號","121.501008333333","25.25368","6502100","三芝區"
"237004","078-UY","2017/08/22 19:18:57","新北市三峽區有木206號","121.43908","24.851505","6500900","三峽區"
"237007","153-BY","2017/08/22 19:17:59","新北市三峽區中園街156-7號","121.366598333333","24.919375","6500900","三峽區"
"237009","210-TH","2017/08/22 19:18:59","新北市三峽區和平街3號","121.370553333333","24.93499","6500900","三峽區"
"237013","252-BX","2017/08/22 19:17:26","新北市三峽區大同路5巷18號","121.37812","24.928615","6500900","三峽區"
"237012","275-BY","2017/08/22 19:18:55","新北市三峽區三樹路222巷236弄8-1號","121.391278333333","24.942985","6500900","三峽區"
"237008","302-VK","2017/08/22 19:19:07","新北市三峽區光明路73-4號","121.376506666667","24.9278266666667","6500900","三峽區"
"237014","433-BY","2017/08/22 19:19:01","新北市三峽區中山路63巷10號","121.366941666667","24.9343133333333","6500900","三峽區"
"237006","5529-G3","2017/08/22 19:18:55","新北市三峽區介壽路二段25號","121.39005","24.9348933333333","6500900","三峽區"
"237011","572-TV","2017/08/22 19:18:41","新北市三峽區中正路一段112-1號","121.374068333333","24.9294666666667","6500900","三峽區"
"237016","649-BX","2017/08/22 19:19:21","新北市三峽區安坑51-2號","121.463905","24.931295","6500900","三峽區"
"237010","706-TV","2017/08/22 19:19:00","新北市三峽區復興路36-7號","121.373935","24.9366283333333","6500900","三峽區"
"237005","AKY-6261","2017/08/22 19:19:08","新北市三峽區中山路459巷52-1號","121.35637","24.936795","6500900","三峽區"
"236070","105-UM","2017/08/22 19:19:07","新北市土城區學成路156號","121.44812","24.9894016666667","6501300","土城區"
"236079","166-UM","2017/08/22 19:18:54","新北市土城區中央路四段321巷28號","121.41148","24.9513416666667","6501300","土城區"
"236027","269-VK","2017/08/22 19:18:17","新北市土城區中央路二段219-7號","121.440773333333","24.9738283333333","6501300","土城區"
"236015","270-VK","2017/08/22 19:18:39","新北市土城區學府路一段23巷41號","121.457165","24.9865333333333","6501300","土城區"
"236038","271-VK","2017/08/22 19:19:17","新北市土城區清水路98巷3弄1號","121.457548333333","24.981315","6501300","土城區"
"236023","401-BY","2017/08/22 19:14:17","新北市土城區明峰街83號","121.468953333333","24.9873316666667","6501300","土城區"
"236059","912-UM","2017/08/22 19:19:14","新北市土城區金城路一段33號","121.440128333333","24.9692816666667","6501300","土城區"
"236049","913-UM","2017/08/22 19:18:37","新北市土城區明德路一段398-1號","121.453645","24.979115","6501300","土城區"
"238015","755-BX","2017/08/22 19:18:07","新北市樹林區備內街38號","121.412481666667","24.9872616666667","6500700","樹林區"
"238023","601-UM","2017/08/22 19:14:49","新北市樹林區大慶街42號","121.39734","25.014275","6500700","樹林區"
"238019","599-UM","2017/08/22 19:19:16","新北市樹林區東榮街90號","121.415985","24.9825883333333","6500700","樹林區"
"238018","571-TV","2017/08/22 19:19:05","新北市樹林區中華路257號","121.418281666667","24.9807066666667","6500700","樹林區"
"238024","5061-A6","2017/08/22 19:19:00","新北市樹林區福德街17號","121.400998333333","24.9760716666667","6500700","樹林區"
"238022","312-TH","2017/08/22 19:18:31","新北市樹林區中山路二段151巷6弄1號","121.406675","24.9785316666667","6500700","樹林區"
"238021","311-TH","2017/08/22 19:19:05","新北市樹林區柑園街二段376巷6號","121.36919","24.9503","6500700","樹林區"
"238025","303-VK","2017/08/22 19:19:03","新北市樹林區中山路二段64號","121.415798333333","24.9841433333333","6500700","樹林區"
"238017","283-BY","2017/08/22 19:19:00","新北市樹林區光興街273號","121.407518333333","25.0055266666667","6500700","樹林區"
"238014","282-BY","2017/08/22 19:14:30","新北市樹林區千歲街136號","121.427191666667","24.9987283333333","6500700","樹林區"
"238020","268-VK","2017/08/22 19:13:21","新北市樹林區俊英街113-3號","121.424733333333","25.009995","6500700","樹林區"
"238026","172-UY","2017/08/22 19:19:06","新北市樹林區八德街828-2號","121.39408","24.967455","6500700","樹林區"
"238016","169-UY","2017/08/22 19:14:43","新北市樹林區中山路一段306巷18號","121.419403333333","24.9865966666667","6500700","樹林區"
"239007","AAC-297","2017/08/22 19:19:09","新北市鶯歌區大湖路94號","121.3425","24.963045","6500800","鶯歌區"
"239006","891-R6","2017/08/22 19:14:35","新北市鶯歌區鶯桃路67巷5號","121.340905","24.9524383333333","6500800","鶯歌區"
"239008","527-UM","2017/08/22 19:19:18","新北市鶯歌區大湖路468巷10號","121.339795","24.9726","6500800","鶯歌區"
"239005","526-UM","2017/08/22 19:17:34","新北市鶯歌區中湖街319號","121.348948333333","24.9754583333333","6500800","鶯歌區"
"239001","417-VK","2017/08/22 19:18:56","新北市鶯歌區建國路367巷1號","121.339046666667","24.94972","6500800","鶯歌區"
"239003","360-BY","2017/08/22 19:19:02","新北市鶯歌區國華路58號","121.342296666667","24.9549","6500800","鶯歌區"
"239002","359-BY","2017/08/22 19:19:00","新北市鶯歌區大湖路342號","121.346438333333","24.9721533333333","6500800","鶯歌區"
"239004","193-VK","2017/08/22 19:18:12","新北市鶯歌區二甲路33-27號","121.340203333333","24.9376716666667","6500800","鶯歌區"
"221008","489-VK","2017/08/22 19:18:53","新北市汐止區康寧街308號","121.626563333333","25.0671583333333","6501100","汐止區"
"221036","130-UY","2017/08/22 19:19:10","新北市汐止區汐萬路一段256巷1號","121.651751666667","25.0748916666667","6501100","汐止區"
"221015","131-UY","2017/08/22 19:19:03","新北市汐止區康寧街901號","121.651593333333","25.0748766666667","6501100","汐止區"
"221010","269-BY","2017/08/22 19:19:14","新北市汐止區康寧街901號","121.651451666667","25.075025","6501100","汐止區"
"221012","276-VK","2017/08/22 13:25:14","新北市汐止區汐萬路一段256巷3號","121.653455","25.074615","6501100","汐止區"
"221031","277-VK","2017/08/22 19:19:15","新北市汐止區汐萬路一段256巷3號","121.652506666667","25.0745183333333","6501100","汐止區"
"221012","278-VK","2017/08/22 19:18:18","新北市汐止區康寧街901號","121.650863333333","25.0752216666667","6501100","汐止區"
"221023","279-VK","2017/08/22 19:19:19","新北市汐止區康寧街901號","121.651026666667","25.07518","6501100","汐止區"
"221027","281-BY","2017/08/22 18:56:41","新北市汐止區康寧街901號","121.650873333333","25.0752766666667","6501100","汐止區"
"221038","297-VK","2017/08/22 19:19:17","新北市汐止區汐萬路一段312號","121.65066","25.0753166666667","6501100","汐止區"
"221029","298-VK","2017/08/22 19:18:46","新北市汐止區康寧街901號","121.651575","25.0748816666667","6501100","汐止區"
"221021","299-VK","2017/08/22 19:19:05","新北市汐止區康寧街901號","121.651375","25.075","6501100","汐止區"
"221025","623-UM","2017/08/22 19:17:46","新北市汐止區康寧街901號","121.65157","25.074995","6501100","汐止區"
"221033","647-BX","2017/08/22 19:18:28","新北市汐止區南勢街1巷1號","121.626993333333","25.03741","6501100","汐止區"
"221002","707-TV","2017/08/22 19:19:00","新北市汐止區大同路一段325號","121.638143333333","25.0591466666667","6501100","汐止區"
"221018","753-BX","2017/08/22 19:18:48","新北市汐止區康寧街901號","121.651541666667","25.0749033333333","6501100","汐止區"
"220079","145-BY","2017/08/22 19:13:16","新北市板橋區民權路302巷15號","121.457708333333","25.0165583333333","6500100","板橋區"
"220080","200-UY","2017/08/22 19:12:21","新北市板橋區大觀路二段7巷36號","121.44828","25.0033216666667","6500100","板橋區"
"220082","610-BX","2017/08/22 19:15:53","新北市板橋區溪崑二街89號","121.427271666667","24.9894116666667","6500100","板橋區"
"220101","245-BX","2017/08/22 19:17:40","新北市板橋區莊敬路208巷6弄8號","121.471168333333","25.0210866666667","6500100","板橋區"
"220075","256-TC","2017/08/22 19:16:52","新北市板橋區南雅南路一段4巷14號","121.454673333333","25.0051916666667","6500100","板橋區"
"220106","257-TC","2017/08/22 19:18:55","新北市板橋區長江路二段280-1號","121.46997","25.0328766666667","6500100","板橋區"
"220094","267-BY","2017/08/22 19:09:52","新北市板橋區光武街108-5號","121.465821666667","25.02906","6500100","板橋區"
"220056","276-BY","2017/08/22 19:15:53","新北市板橋區信義路129號","121.457905","24.99316","6500100","板橋區"
"220072","277-BY","2017/08/22 19:13:27","新北市板橋區金門街369巷48號","121.428433333333","24.982645","6500100","板橋區"
"220071","283-VK","2017/08/22 19:12:55","新北市板橋區重慶路223巷13號","121.463316666667","25.001755","6500100","板橋區"
"220053","285-VK","2017/08/22 19:14:00","新北市板橋區富山街53巷35號","121.477571666667","25.02091","6500100","板橋區"
"220081","287-VK","2017/08/22 19:17:45","新北市板橋區南雅西路二段25號","121.452913333333","25.0095466666667","6500100","板橋區"
"220090","288-VK","2017/08/22 19:17:38","新北市板橋區長江路一段106巷13弄34號","121.461361666667","25.0297416666667","6500100","板橋區"
"220061","293-UM","2017/08/22 19:17:18","新北市板橋區中山路二段318巷27弄2號","121.480543333333","25.018475","6500100","板橋區"
"220084","296-UM","2017/08/22 19:14:55","新北市板橋區溪崑二街22巷9號","121.428216666667","24.991525","6500100","板橋區"
"220062","303-R5","2017/08/22 19:15:44","新北市板橋區三民路二段居仁巷2弄24號","121.479816666667","25.0128616666667","6500100","板橋區"
"220092","307-R5","2017/08/22 19:12:03","新北市板橋區文化路二段225巷72弄32號","121.468741666667","25.0291533333333","6500100","板橋區"
"220098","317-R6","2017/08/22 19:14:27","新北市板橋區四維路169號","121.464698333333","25.025995","6500100","板橋區"
"220064","486-VK","2017/08/22 19:13:02","新北市板橋區板新路1號","121.475826666667","25.0123466666667","6500100","板橋區"
"220089","487-VK","2017/08/22 19:12:36","新北市板橋區文化路二段282號","121.471638333333","25.0291183333333","6500100","板橋區"
"220088","491-VK","2017/08/22 19:16:58","新北市板橋區雙十路二段138號","121.473745","25.0289466666667","6500100","板橋區"
"220035","560-BX","2017/08/22 19:19:04","新北市板橋區中正路360巷61號","121.456581666667","25.022625","6500100","板橋區"
"220055","568-UM","2017/08/22 19:15:52","新北市板橋區新民街4巷19號","121.465096666667","25.0098916666667","6500100","板橋區"
"220063","609-BX","2017/08/22 19:15:14","新北市板橋區三民路二段103號","121.479271666667","25.016125","6500100","板橋區"
"220083","630-UY","2017/08/22 19:13:02","新北市板橋區龍興街97巷15號","121.443375","25.0029283333333","6500100","板橋區"
"220091","637-BX","2017/08/22 19:15:27","新北市板橋區縣民大道三段223號","121.480475","25.0254483333333","6500100","板橋區"
"220057","686-BX","2017/08/22 19:11:19","新北市板橋區成都街69號","121.462168333333","25.0051066666667","6500100","板橋區"
"220077","687-BX","2017/08/22 19:11:40","新北市板橋區大觀路二段71號","121.44653","25.00231","6500100","板橋區"
"220093","689-BX","2017/08/22 19:11:00","新北市板橋區民生路三段209-5號","121.46522","25.0280766666667","6500100","板橋區"
"220054","741-BX","2017/08/22 19:09:06","新北市板橋區重慶路93巷32號","121.463368333333","25.0059233333333","6500100","板橋區"
"220067","829-TW","2017/08/22 19:18:24","新北市板橋區長安街263號","121.4738","25.0114666666667","6500100","板橋區"
"220096","831-TW","2017/08/22 19:17:48","新北市板橋區大同街23號","121.477533333333","25.02704","6500100","板橋區"
"220074","895-R6","2017/08/22 19:16:13","新北市板橋區中正路自強新村43-2號","121.454903333333","25.0139416666667","6500100","板橋區"
"220073","985-R7","2017/08/22 19:16:54","新北市板橋區中正路360巷45號","121.456006666667","25.0232616666667","6500100","板橋區"
"220097","AAC-210","2017/08/22 19:14:23","新北市板橋區幸福路70巷8號","121.460683333333","25.0203166666667","6500100","板橋區"
"220070","AAC-253","2017/08/22 19:11:14","新北市板橋區四川路一段268號","121.459018333333","25.001095","6500100","板橋區"
