"lineid","car","time","location","longitude","latitude","cityid","cityname"
"234046","148-BY","2017/08/22 19:38:43","新北市永和區秀朗路二段179號","121.525861666667","25.0015066666667","6500400","永和區"
"234013","149-BY","2017/08/22 19:37:23","新北市永和區永平路212號","121.509418333333","25.0102633333333","6500400","永和區"
"234007","207-UY","2017/08/22 19:39:05","新北市永和區永和路一段6號","121.512896666667","25.004495","6500400","永和區"
"234081","298-R6","2017/08/22 19:32:30","新北市永和區福和路7巷15弄20號","121.526115","25.007445","6500400","永和區"
"234038","336-UY","2017/08/22 19:39:12","新北市永和區民樂街39巷18弄44號","121.528465","24.99898","6500400","永和區"
"234064","337-UY","2017/08/22 19:34:16","新北市永和區秀朗路二段24巷25弄34號","121.520228333333","25.0015183333333","6500400","永和區"
"234086","338-UY","2017/08/22 19:38:53","新北市永和區林森路41巷1號","121.525091666667","25.0047","6500400","永和區"
"234070","552-UM","2017/08/22 19:38:46","新北市永和區竹林路38號","121.517516666667","25.0144283333333","6500400","永和區"
"234054","553-UM","2017/08/22 19:38:53","新北市永和區復興街91號","121.517803333333","25.01417","6500400","永和區"
"234017","745-BX","2017/08/22 19:39:02","新北市永和區永和路二段411號","121.515246666667","25.0173916666667","6500400","永和區"
"234030","746-BX","2017/08/22 19:34:31","新北市永和區民生路4號","121.522656666667","24.9979","6500400","永和區"
"234061","AAD-866","2017/08/22 19:34:27","新北市永和區永貞路153號","121.515626666667","25.0039483333333","6500400","永和區"
"234042","862-TW","2017/08/22 19:39:23","新北市永和區永貞路261號","121.512056666667","25.004665","6500400","永和區"
"234050","863-TW","2017/08/22 19:36:59","新北市永和區保安路61號","121.509333333333","25.0156166666667","6500400","永和區"
"234026","9371-KE","2017/08/22 19:38:35","新北市永和區雙和街8號","121.50968","25.0017966666667","6500400","永和區"
"234011","9373-KE","2017/08/22 19:38:55","新北市永和區保福路二段10號","121.511021666667","25.0111883333333","6500400","永和區"
"249002","305-UY","2017/08/22 19:39:06","新北市八里區頂寮二街35號","121.450265","25.12513","6502300","八里區"
"249003","593-UM","2017/08/22 19:39:06","新北市八里區中華路二段532號","121.399118333333","25.1457366666667","6502300","八里區"
"248014","025-BX","2017/08/22 19:38:16","新北市五股區民義路一段172巷11號","121.433601666667","25.0882116666667","6501500","五股區"
"248016","026-BX","2017/08/22 19:39:02","新北市五股區成泰路三段476號","121.451871666667","25.1014133333333","6501500","五股區"
"248020","225-UY","2017/08/22 19:39:08","新北市五股區凌雲路三段25號","121.43093","25.1121183333333","6501500","五股區"
"248010","272-BY","2017/08/22 19:39:04","新北市五股區自強路90巷18號","121.431958333333","25.07234","6501500","五股區"
"248012","655-BX","2017/08/22 19:39:16","新北市五股區工商路99巷22號","121.436823333333","25.0848133333333","6501500","五股區"
"248004","677-BX","2017/08/22 19:37:42","新北市五股區工商路70號","121.438471666667","25.0849783333333","6501500","五股區"
"248002","678-BX","2017/08/22 19:38:10","新北市五股區成泰路三段577巷77號","121.449731666667","25.1036716666667","6501500","五股區"
"234077","969-R7","2017/08/22 19:34:17","新北市永和區民族街67巷18號","121.519498333333","24.9971016666667","6500400","永和區"
"234074","AAC-211","2017/08/22 19:35:25","新北市永和區竹林路225巷5-1號","121.521271666667","25.0085366666667","6500400","永和區"
"234067","AAC-212","2017/08/22 19:39:13","新北市永和區中山路一段201號","121.508946666667","25.00868","6500400","永和區"
"234003","AAC-295","2017/08/22 19:36:17","新北市永和區永和路一段136號","121.514046666667","25.0079666666667","6500400","永和區"
"244019","403-UM","2017/08/22 19:39:13","新北市林口區文化二路一段490-8號","121.375818333333","25.0781883333333","6501700","林口區"
"244023","657-BX","2017/08/22 19:39:06","新北市林口區文林三街139號","121.374605","25.0878216666667","6501700","林口區"
"243013","AAD-798","2017/08/22 19:38:30","新北市泰山區明志路三段2號","121.424663333333","25.0436416666667","6501600","泰山區"
"243009","297-R6","2017/08/22 19:38:32","新北市泰山區美寧街68號","121.431018333333","25.064635","6501600","泰山區"
"243015","380-SR","2017/08/22 19:39:11","新北市泰山區民權街63號","121.429081666667","25.0499516666667","6501600","泰山區"
"243014","421-VK","2017/08/22 19:39:13","新北市泰山區仁愛路6巷5弄3號","121.43138","25.0540766666667","6501600","泰山區"
"243012","539-UM","2017/08/22 15:39:13","新北市泰山區犁頭窠3-1號","121.421973333333","25.0605316666667","6501600","泰山區"
"243010","548-UM","2017/08/22 19:38:59","新北市泰山區明志路二段7巷4號","121.430378333333","25.0534366666667","6501600","泰山區"
"243011","549-UM","2017/08/22 19:38:56","新北市泰山區明志路三段196巷21弄5號","121.423283333333","25.038365","6501600","泰山區"
"243012","646-TV","2017/08/22 19:38:11","新北市泰山區中港西路388號","121.434851666667","25.0548216666667","6501600","泰山區"
"243016","680-BX","2017/08/22 19:38:48","新北市泰山區明志路三段352巷10號","121.421245","25.0356666666667","6501600","泰山區"
"222003","436-BY","2017/08/22 19:33:12","新北市深坑區深南路51-1號","121.621178333333","25.0100166666667","6501800","深坑區"
"222002","659-BX","2017/08/22 19:39:20","新北市深坑區北深路一段177號","121.6326","25.0108766666667","6501800","深坑區"
"222001","696-SL","2017/08/22 19:39:09","新北市深坑區深坑街150號","121.612991666667","25.001505","6501800","深坑區"
"231059","001-UM","2017/08/22 19:38:33","新北市新店區安和路二段216號","121.517595","24.975725","6500600","新店區"
"231041","002-UM","2017/08/22 19:38:59","新北市新店區中正路485號","121.533805","24.981845","6500600","新店區"
"231061","047-UY","2017/08/22 19:38:29","新北市新店區安民街160號","121.516763333333","24.9703083333333","6500600","新店區"
"231060","106-UY","2017/08/22 19:39:13","新北市新店區安康路二段161號","121.51016","24.9594566666667","6500600","新店區"
"231051","107-UY","2017/08/22 19:39:10","新北市新店區中央四街88號","121.525908333333","24.9760466666667","6500600","新店區"
"231048","108-UY","2017/08/22 19:39:07","新北市新店區中興路一段306號","121.546683333333","24.9697033333333","6500600","新店區"
"231053","187-VK","2017/08/22 19:39:11","新北市新店區廣興路42號","121.539865","24.9123833333333","6500600","新店區"
"231069","189-VK","2017/08/22 11:53:09","新北市新店區安華路28-1號","121.519686666667","24.9611016666667","6500600","新店區"
"231057","256-BX","2017/08/22 19:38:00","新北市新店區橘園一路11號","121.547943333333","24.9340066666667","6500600","新店區"
"231063","268-BY","2017/08/22 19:39:17","新北市新店區達觀路41號","121.502796666667","24.9382566666667","6500600","新店區"
"231046","278-BY","2017/08/22 19:39:06","新北市新店區自由街13號","121.535548333333","24.97489","6500600","新店區"
"231050","AAD-862","2017/08/22 19:39:07","新北市新店區郵政路4巷49號","121.555871666667","24.9517833333333","6500600","新店區"
"231058","3712-VJ","2017/08/22 19:38:17","新北市新店區寶橋路69-1號","121.545376666667","24.975055","6500600","新店區"
"231067","4772-VM","2017/08/22 19:38:53","新北市新店區太平路57號","121.532725","24.9590183333333","6500600","新店區"
"231065","512-UM","2017/08/22 19:38:32","新北市新店區安祥路109巷5號","121.475816666667","24.9589583333333","6500600","新店區"
"231054","513-UM","2017/08/22 19:39:17","新北市新店區北宜路一段41號","121.538333333333","24.9572966666667","6500600","新店區"
"231042","616-UM","2017/08/22 19:38:16","新北市新店區中興路一段216號","121.543881666667","24.9657866666667","6500600","新店區"
"231045","617-UM","2017/08/22 19:38:44","新北市新店區北宜路二段126號","121.55687","24.953845","6500600","新店區"
"231040","619-UM","2017/08/22 19:35:19","新北市新店區北新路一段90號","121.541855","24.9685933333333","6500600","新店區"
"231068","718-UY","2017/08/22 19:38:10","新北市新店區安華路28-1號","121.519398333333","24.9611316666667","6500600","新店區"
"231049","719-UM","2017/08/22 19:39:00","新北市新店區大豐路43號","121.540308333333","24.9798683333333","6500600","新店區"
"231064","719-UY","2017/08/22 19:38:23","新北市新店區安和路一段52巷2號","121.517608333333","24.9661716666667","6500600","新店區"
"231062","720-UM","2017/08/22 19:38:23","新北市新店區太平路57號","121.532576666667","24.9586","6500600","新店區"
"231044","897-TW","2017/08/22 19:38:50","新北市新店區北新路三段63號","121.541766666667","24.9809716666667","6500600","新店區"
"231043","899-TW","2017/08/22 19:39:01","新北市新店區北新路二段40號","121.54303","24.9716233333333","6500600","新店區"
"231066","AKT-0513","2017/08/22 19:39:06","新北市新店區安康路二段341巷4號","121.496776666667","24.9549833333333","6500600","新店區"
"241011","013-R5","2017/08/22 19:38:40","新北市三重區秀江街176號","121.498011666667","25.0716566666667","6500200","三重區"
"241008","059-VK","2017/08/22 19:38:59","新北市三重區永福街135巷15號","121.478186666667","25.0770383333333","6500200","三重區"
"241009","060-VK","2017/08/22 19:38:55","新北市三重區三和路四段420-1號","121.480521666667","25.0798516666667","6500200","三重區"
"241031","061-VK","2017/08/22 19:39:04","新北市三重區重新路四段248號","121.486123333333","25.0534166666667","6500200","三重區"
"241015","062-VK","2017/08/22 19:36:46","新北市三重區福德北路19號","121.502411666667","25.06445","6500200","三重區"
"241017","063-VK","2017/08/22 19:39:07","新北市三重區重陽路三段5巷30號","121.491265","25.0653466666667","6500200","三重區"
"241026","066-VK","2017/08/22 19:35:56","新北市三重區文化南路38-2號","121.50033","25.0608483333333","6500200","三重區"
"241006","156-TC","2017/08/22 19:39:00","新北市三重區聯華街140號","121.48469","25.0749283333333","6500200","三重區"
"241022","267-UM","2017/08/22 19:39:14","新北市三重區中正北路109號","121.484843333333","25.0659016666667","6500200","三重區"
"241032","269-UM","2017/08/22 19:39:16","新北市三重區重陽路一段60巷73號","121.484335","25.0582016666667","6500200","三重區"
"241013","270-UM","2017/08/22 19:38:28","新北市三重區仁福街64巷37號","121.497568333333","25.0758383333333","6500200","三重區"
"241025","271-UM","2017/08/22 19:39:10","新北市三重區頂崁街210巷3號","121.476833333333","25.06764","6500200","三重區"
"241020","412-TH","2017/08/22 19:39:18","新北市三重區三和路四段20巷84號","121.488905","25.0733466666667","6500200","三重區"
"241019","478-VK","2017/08/22 19:34:44","新北市三重區六張街255巷15號","121.487098333333","25.0687716666667","6500200","三重區"
"241014","543-UM","2017/08/22 19:37:01","新北市三重區長榮路123號","121.503668333333","25.0693216666667","6500200","三重區"
"241023","545-UM","2017/08/22 19:39:08","新北市三重區忠孝路三段99巷11號","121.47982","25.064285","6500200","三重區"
"241001","547-UM","2017/08/22 19:37:52","新北市三重區福隆路18號","121.491453333333","25.0778983333333","6500200","三重區"
"241035","743-BX","2017/08/22 19:38:42","新北市三重區長元西街30號","121.498146666667","25.0656333333333","6500200","三重區"
"241012","941-UM","2017/08/22 19:38:52","新北市三重區河邊北街256巷7號","121.501365","25.0762066666667","6500200","三重區"
"241029","942-UM","2017/08/22 19:39:19","新北市三重區同安街122號","121.49337","25.0560583333333","6500200","三重區"
"235066","003-UY","2017/08/22 19:39:09","新北市中和區景新街164號","121.505793333333","24.99709","6500300","中和區"
"235064","005-UY","2017/08/22 19:38:11","新北市中和區南山路129號","121.50227","24.9971333333333","6500300","中和區"
"235056","096-UM","2017/08/22 19:39:06","新北市中和區民富街37號","121.476281666667","25.0080466666667","6500300","中和區"
"235039","097-UM","2017/08/22 19:38:38","新北市中和區秀峰街119巷8弄1號","121.519328333333","24.9897583333333","6500300","中和區"
"235065","098-UM","2017/08/22 19:36:56","新北市中和區福美路245號","121.499206666667","25.0051066666667","6500300","中和區"
"235040","150-BY","2017/08/22 19:38:13","新北市中和區宜安路120號","121.510156666667","24.9980283333333","6500300","中和區"
"235058","151-BY","2017/08/22 19:38:33","新北市中和區連城路360號","121.481996666667","24.9954783333333","6500300","中和區"
"235055","183-VK","2017/08/22 19:37:28","新北市中和區民享街2號","121.473898333333","25.0056516666667","6500300","中和區"
"235038","185-VK","2017/08/22 19:38:28","新北市中和區立人街33-3號","121.520871666667","24.9941816666667","6500300","中和區"
"235049","186-VK","2017/08/22 19:38:18","新北市中和區安平路29號","121.509343333333","24.99446","6500300","中和區"
"235067","255-BX","2017/08/22 19:38:25","新北市中和區新生街264號","121.483575","24.997215","6500300","中和區"
"235044","293-VK","2017/08/22 19:37:44","新北市中和區景安路211號","121.504501666667","24.9917583333333","6500300","中和區"
"235072","301-VK","2017/08/22 19:38:43","新北市中和區中正路432巷32號","121.490993333333","24.99582","6500300","中和區"
"235043","352-BY","2017/08/22 19:38:45","新北市中和區安樂路46號","121.511903333333","24.9929433333333","6500300","中和區"
"235051","376-QA","2017/08/22 19:39:16","新北市中和區景平路239巷33弄14號","121.50933","24.9921583333333","6500300","中和區"
"235068","377-QA","2017/08/22 19:37:03","新北市中和區景平路493-5號","121.500091666667","24.9979183333333","6500300","中和區"
"235061","378-QA","2017/08/22 19:35:51","新北市中和區民利街9巷3弄1號","121.480673333333","24.99868","6500300","中和區"
"235050","4979-A6","2017/08/22 19:38:53","新北市中和區中正路21號","121.502786666667","24.9934416666667","6500300","中和區"
"235042","551-UM","2017/08/22 19:37:08","新北市中和區中和路262巷20號","121.509665","24.998935","6500300","中和區"
"235070","558-UM","2017/08/22 19:38:27","新北市中和區中和路49號","121.500145","25.0013316666667","6500300","中和區"
"235045","565-BX","2017/08/22 19:37:35","新北市中和區景新街383巷22號","121.513233333333","24.9905483333333","6500300","中和區"
"235054","640-BX","2017/08/22 19:39:09","新北市中和區國光街112巷20弄1-2號","121.470651666667","25.0020616666667","6500300","中和區"
"235060","647-TV","2017/08/22 19:39:21","新北市中和區員山路314巷7弄4號","121.482231666667","25.0031","6500300","中和區"
"235047","732-UM","2017/08/22 19:39:06","新北市中和區南山路263巷10號","121.504353333333","24.9927366666667","6500300","中和區"
"235046","733-UM","2017/08/22 19:38:22","新北市中和區忠孝街60巷2弄2號","121.511696666667","24.983695","6500300","中和區"
"235057","801-TS","2017/08/22 19:37:18","新北市中和區員山路390號","121.480523333333","25.0044483333333","6500300","中和區"
"235041","802-TS","2017/08/22 19:38:45","新北市中和區中和路324巷7弄3號","121.510258333333","25.0008066666667","6500300","中和區"
"235052","805-TS","2017/08/22 19:39:15","新北市中和區華新街232巷24號","121.505705","24.982605","6500300","中和區"
"235048","896-TW","2017/08/22 19:39:15","新北市中和區忠孝街1巷2-1號","121.509178333333","24.9831466666667","6500300","中和區"
"235053","900-TW","2017/08/22 19:39:16","新北市中和區華順街25號","121.467271666667","24.998655","6500300","中和區"
"235071","911-UM","2017/08/22 19:39:24","新北市中和區中正路839巷29號","121.483613333333","25.0023366666667","6500300","中和區"
"235037","AAC-213","2017/08/22 19:38:28","新北市中和區秀朗路三段10巷37弄4號","121.524073333333","24.995845","6500300","中和區"
"235059","AAC-215","2017/08/22 19:39:22","新北市中和區錦和路201號","121.490755","24.9905","6500300","中和區"
"220068","013-TV","2017/08/22 19:31:45","新北市板橋區萬安街98號","121.48384","25.0241266666667","6500100","板橋區"
"220065","072-UY","2017/08/22 19:34:26","新北市板橋區實踐路93巷41號","121.465946666667","25.005175","6500100","板橋區"
"220086","073-UY","2017/08/22 19:32:36","新北市板橋區中正路236巷10號","121.456193333333","25.019","6500100","板橋區"
"220069","AAD-861","2017/08/22 19:32:21","新北市板橋區貴興路43號","121.457465","25.003575","6500100","板橋區"
"220102","120-SR","2017/08/22 19:36:38","新北市板橋區文化路二段410巷2弄18-1號","121.474036666667","25.0305966666667","6500100","板橋區"
"247008","339-TH","2017/08/22 19:38:25","新北市蘆洲區中山一路138號","121.47625","25.08173","6501400","蘆洲區"
"247002","336-TH","2017/08/22 19:39:03","新北市蘆洲區三民路595號","121.460976666667","25.093625","6501400","蘆洲區"
"247014","057-VK","2017/08/22 19:39:15","新北市蘆洲區中正路102號","121.469778333333","25.084395","6501400","蘆洲區"
"247004","056-VK","2017/08/22 19:32:53","新北市蘆洲區長安街237號","121.45932","25.0829166666667","6501400","蘆洲區"
"226004","205-ST","2017/08/22 19:39:12","新北市平溪區十分里十分街312號","121.775138333333","25.0433983333333","6502400","平溪區"
"228001","212-TW","2017/08/22 19:36:35","新北市貢寮區真理里延平街67巷2號","121.924025","25.0557283333333","6502600","貢寮區"
"228003","828-UM","2017/08/22 19:38:30","新北市貢寮區和美里和美街63號","121.922541666667","25.0704516666667","6502600","貢寮區"
"224010","AGQ-8101","2017/08/22 19:23:00","新北市瑞芳區基山街132號","121.843708333333","25.1082616666667","6501200","瑞芳區"
"224006","676-BX","2017/08/22 19:30:20","新北市瑞芳區三爪子坑路106巷1-11號","121.808016666667","25.1052066666667","6501200","瑞芳區"
"224002","639-TC","2017/08/22 19:35:43","新北市瑞芳區三爪子坑路13巷211號","121.815878333333","25.10595","6501200","瑞芳區"
"224011","420-VK","2017/08/22 19:39:10","新北市瑞芳區崙頂路3-1號","121.847071666667","25.1046516666667","6501200","瑞芳區"
"224005","271-BY","2017/08/22 19:38:44","新北市瑞芳區大寮路356-1號","121.784626666667","25.1036033333333","6501200","瑞芳區"
"227003","642-TC","2017/08/22 19:38:38","新北市雙溪區雙溪里光復街5號","121.865338333333","25.0356766666667","6502500","雙溪區"
"227009","400-TW","2017/08/22 19:38:54","新北市雙溪區新基里新基北街19巷14號","121.86716","25.038215","6502500","雙溪區"
"253003","6232-TK","2017/08/22 19:37:43","新北市石門區小坑9號","121.593816666667","25.287845","6502200","石門區"
"208002","742-BX","2017/08/22 19:38:50","新北市金山區四維路23號","121.635161666667","25.2227916666667","6502700","金山區"
"208003","665-BX","2017/08/22 19:34:28","新北市金山區仁愛路37-11號","121.636135","25.2199683333333","6502700","金山區"
"208001","761-BX","2017/08/22 19:32:01","新北市金山區南勢105號","121.623721666667","25.2197783333333","6502700","金山區"
"251014","180-VK","2017/08/22 19:39:04","新北市淡水區桂竹圍4-3號","121.475358333333","25.2322366666667","6501000","淡水區"
"251008","181-VK","2017/08/22 19:37:32","新北市淡水區中正路32巷9號","121.430376666667","25.17602","6501000","淡水區"
"251010","413-VK","2017/08/22 19:39:18","新北市淡水區新市五路二段75號","121.431241666667","25.198075","6501000","淡水區"
"251016","442-VK","2017/08/22 19:39:21","新北市淡水區淡金路三段350巷18號","121.450816666667","25.2083816666667","6501000","淡水區"
"251005","443-VK","2017/08/22 19:37:51","新北市淡水區水源街一段47巷58號","121.444228333333","25.174475","6501000","淡水區"
"251001","559-UM","2017/08/22 19:37:55","新北市淡水區民權路89號","121.459881666667","25.138275","6501000","淡水區"
"251006","561-UM","2017/08/22 19:38:58","新北市淡水區中山北路一段207巷56號","121.442223333333","25.17927","6501000","淡水區"
"251009","575-R6","2017/08/22 19:34:32","新北市淡水區中山北路一段180巷11號","121.445168333333","25.178215","6501000","淡水區"
"251007","577-R6","2017/08/22 19:38:56","新北市淡水區中正東路一段5巷9號","121.450876666667","25.1647633333333","6501000","淡水區"
"251011","650-BX","2017/08/22 19:35:01","新北市淡水區八勢路50巷66號","121.462103333333","25.1495483333333","6501000","淡水區"
"207003","550-UM","2017/08/22 19:38:38","新北市萬里區大鵬里萬里加投285號","121.644965","25.2169733333333","6502800","萬里區"
"207004","225-TW","2017/08/22 19:36:04","新北市萬里區萬里里瑪鋉路85號","121.688533333333","25.176815","6502800","萬里區"
"252002","178-VK","2017/08/22 19:39:10","新北市三芝區中正路一段18巷46號","121.504031666667","25.2590666666667","6502100","三芝區"
"252001","292-VK","2017/08/22 19:38:55","新北市三芝區公正街9號","121.49974","25.2574483333333","6502100","三芝區"
"237004","078-UY","2017/08/22 19:38:57","新北市三峽區金敏5號","121.386255","24.8743333333333","6500900","三峽區"
"237007","153-BY","2017/08/22 19:39:19","新北市三峽區二鬮路178號","121.359085","24.90684","6500900","三峽區"
"237009","210-TH","2017/08/22 19:38:50","新北市三峽區中園街62-1號","121.368113333333","24.9258716666667","6500900","三峽區"
"237013","252-BX","2017/08/22 19:39:06","新北市三峽區介壽路二段36號","121.39102","24.9352716666667","6500900","三峽區"
"237012","275-BY","2017/08/22 19:38:15","新北市三峽區民生街2-2號","121.376541666667","24.9369583333333","6500900","三峽區"
"237008","302-VK","2017/08/22 19:38:47","新北市三峽區中正路一段107號","121.374175","24.92947","6500900","三峽區"
"237014","433-BY","2017/08/22 19:38:12","新北市三峽區添福9-34號","121.371636666667","24.9068233333333","6500900","三峽區"
"237006","5529-G3","2017/08/22 19:39:15","新北市三峽區中正路一段336巷15弄2號","121.369973333333","24.9249433333333","6500900","三峽區"
"237016","649-BX","2017/08/22 19:38:41","新北市三峽區成福路302號","121.42883","24.9235066666667","6500900","三峽區"
"237010","706-TV","2017/08/22 19:39:21","新北市樹林區中山路三段210-2號","121.380691666667","24.96662","6500900","三峽區"
"237005","AKY-6261","2017/08/22 19:38:28","新北市三峽區中山路219巷17弄2號","121.363246666667","24.9362216666667","6500900","三峽區"
"236070","105-UM","2017/08/22 19:36:27","新北市土城區裕民路193-1號","121.453791666667","24.9841683333333","6501300","土城區"
"236043","107-UM","2017/08/22 19:38:09","新北市土城區學士路13號","121.453628333333","24.9829433333333","6501300","土城區"
"236079","166-UM","2017/08/22 19:36:14","新北市土城區中州路27巷51號","121.413153333333","24.9569783333333","6501300","土城區"
"236031","253-BX","2017/08/22 19:37:46","新北市土城區福祥街12號","121.440791666667","24.979645","6501300","土城區"
"236027","269-VK","2017/08/22 19:38:17","新北市土城區中央路二段61巷22號","121.443196666667","24.9788683333333","6501300","土城區"
"236038","271-VK","2017/08/22 19:37:57","新北市土城區清水路98巷3弄1號","121.457543333333","24.9813233333333","6501300","土城區"
"236023","401-BY","2017/08/22 19:38:57","新北市土城區峰廷街14號","121.468815","24.9874916666667","6501300","土城區"
"236049","913-UM","2017/08/22 19:37:57","新北市土城區金城路三段6號","121.464385","24.9859916666667","6501300","土城區"
"236063","915-UM","2017/08/22 19:36:47","新北市土城區延和路129號","121.468945","24.990425","6501300","土城區"
"236055","AAC-216","2017/08/22 19:38:02","新北市土城區學府路一段217號","121.451421666667","24.9844","6501300","土城區"
"242048","751-BX","2017/08/22 19:39:12","新北市新莊區民安路35號","121.423725","25.0267633333333","6500500","新莊區"
"242056","442-UM","2017/08/22 19:38:15","新北市新莊區中正路400號","121.441818333333","25.0341666666667","6500500","新莊區"
"242032","415-TV","2017/08/22 19:36:21","新北市新莊區新泰路213巷39號","121.444475","25.0382983333333","6500500","新莊區"
"242061","362-BY","2017/08/22 19:37:23","新北市新莊區中正路486-1號","121.436788333333","25.03313","6500500","新莊區"
"242005","132-UY","2017/08/22 19:37:47","新北市新莊區化成路11巷47號","121.463198333333","25.0433883333333","6500500","新莊區"
"242034","133-UY","2017/08/22 19:36:09","新北市新莊區中正路346號","121.444253333333","25.0344166666667","6500500","新莊區"
"242007","173-VK","2017/08/22 19:38:26","新北市新莊區福壽街336號","121.457805","25.058295","6500500","新莊區"
"242013","175-VK","2017/08/22 19:38:45","新北市新莊區中誠街121巷1號","121.449456666667","25.0473966666667","6500500","新莊區"
"242017","348-TH","2017/08/22 19:39:09","新北市新莊區新泰路277巷11號","121.445181666667","25.0402433333333","6500500","新莊區"
"238015","755-BX","2017/08/22 19:38:47","新北市樹林區日新街95號","121.421565","24.9901","6500700","樹林區"
"238023","601-UM","2017/08/22 19:37:09","新北市樹林區三福街28號","121.40838","25.016635","6500700","樹林區"
"238019","599-UM","2017/08/22 19:34:15","新北市樹林區東榮街90號","121.416001666667","24.9825433333333","6500700","樹林區"
"238018","571-TV","2017/08/22 19:38:45","新北市樹林區八德街328號","121.409591666667","24.9698183333333","6500700","樹林區"
"238024","5061-A6","2017/08/22 19:36:41","新北市樹林區山佳街19號","121.393825","24.9727683333333","6500700","樹林區"
"238022","312-TH","2017/08/22 19:38:51","新北市樹林區名園街64號","121.419988333333","24.9780683333333","6500700","樹林區"
"238021","311-TH","2017/08/22 19:39:05","新北市樹林區學府路210號","121.377605","24.9501183333333","6500700","樹林區"
"238025","303-VK","2017/08/22 19:39:03","新北市樹林區中山路二段64號","121.41601","24.9843316666667","6500700","樹林區"
"238017","283-BY","2017/08/22 19:39:00","新北市樹林區保安街二段169號","121.414901666667","25.0029266666667","6500700","樹林區"
"238014","282-BY","2017/08/22 19:38:10","新北市樹林區千歲街4號","121.42504","24.9956366666667","6500700","樹林區"
"238020","268-VK","2017/08/22 19:13:21","新北市樹林區俊英街113-3號","121.424733333333","25.009995","6500700","樹林區"
"238026","172-UY","2017/08/22 19:39:06","新北市樹林區佳園路二段111-10號","121.390468333333","24.9586816666667","6500700","樹林區"
"239007","AAC-297","2017/08/22 19:39:09","新北市鶯歌區大湖路360號","121.346251666667","24.972615","6500800","鶯歌區"
"239006","891-R6","2017/08/22 19:39:16","新北市鶯歌區文化路249號","121.353526666667","24.9531383333333","6500800","鶯歌區"
"221008","489-VK","2017/08/22 19:39:13","新北市汐止區康寧街83巷24號","121.62024","25.0670016666667","6501100","汐止區"
"221036","130-UY","2017/08/22 19:38:30","新北市汐止區汐萬路一段256巷1號","121.651753333333","25.07488","6501100","汐止區"
"221015","131-UY","2017/08/22 19:38:23","新北市汐止區汐萬路一段257號","121.650841666667","25.07399","6501100","汐止區"
"221010","269-BY","2017/08/22 19:38:55","新北市汐止區汐萬路一段418巷1弄26號","121.64974","25.0783633333333","6501100","汐止區"
"221012","276-VK","2017/08/22 13:25:14","新北市汐止區汐萬路一段256巷3號","121.653455","25.074615","6501100","汐止區"
"221031","277-VK","2017/08/22 19:37:35","新北市汐止區福德三路129巷2號","121.63349","25.0675166666667","6501100","汐止區"
"221012","278-VK","2017/08/22 19:38:58","新北市汐止區汐平路一段5號","121.680745","25.071195","6501100","汐止區"
"221023","279-VK","2017/08/22 19:37:19","新北市汐止區明峰街190號","121.628158333333","25.0696483333333","6501100","汐止區"
"221032","280-BY","2017/08/22 19:39:22","新北市汐止區新台五路一段83號","121.646236666667","25.0607733333333","6501100","汐止區"
"221027","281-BY","2017/08/22 19:38:33","新北市汐止區忠孝東路9號","121.658321666667","25.0659333333333","6501100","汐止區"
"221038","297-VK","2017/08/22 19:38:57","新北市汐止區忠孝東路216號","121.662098333333","25.0666483333333","6501100","汐止區"
"221029","298-VK","2017/08/22 19:39:06","新北市汐止區康寧街901號","121.651431666667","25.074935","6501100","汐止區"
"221021","299-VK","2017/08/22 19:39:05","新北市汐止區大同路二段175號","121.651623333333","25.0642583333333","6501100","汐止區"
"221025","623-UM","2017/08/22 19:38:46","新北市汐止區福安街20巷3號","121.6625","25.0649466666667","6501100","汐止區"
"221033","647-BX","2017/08/22 19:39:08","新北市汐止區南勢街1巷2號","121.6271","25.037655","6501100","汐止區"
"221002","707-TV","2017/08/22 19:39:13","新北市汐止區大同路一段219巷26號","121.633295","25.0584333333333","6501100","汐止區"
"221018","753-BX","2017/08/22 19:38:48","新北市汐止區汐萬路一段312號","121.650683333333","25.0753466666667","6501100","汐止區"
"220079","145-BY","2017/08/22 19:22:56","新北市板橋區民權路202巷16弄4號","121.460775","25.0160666666667","6500100","板橋區"
"220080","200-UY","2017/08/22 19:21:01","新北市板橋區大觀路二段19巷93號","121.449606666667","25.0028466666667","6500100","板橋區"
"220082","610-BX","2017/08/22 19:31:24","新北市板橋區金門街249號","121.431988333333","24.9891483333333","6500100","板橋區"
"220101","245-BX","2017/08/22 19:38:00","新北市板橋區莊敬路208巷4弄5號","121.471405","25.0211183333333","6500100","板橋區"
"220075","256-TC","2017/08/22 19:35:52","新北市板橋區中正路253巷27號","121.454171666667","25.01771","6500100","板橋區"
"220106","257-TC","2017/08/22 19:35:35","新北市板橋區文化路二段319號","121.472266666667","25.0299916666667","6500100","板橋區"
"220094","267-BY","2017/08/22 19:22:52","新北市板橋區光武街136巷9號","121.465946666667","25.0302633333333","6500100","板橋區"
"220056","276-BY","2017/08/22 19:30:53","新北市板橋區信義路1巷26弄2號","121.458048333333","24.9969983333333","6500100","板橋區"
"220072","277-BY","2017/08/22 19:36:27","新北市板橋區溪北路142號","121.430051666667","24.988485","6500100","板橋區"
"220071","283-VK","2017/08/22 19:25:55","新北市板橋區重慶路265號","121.463298333333","25.0001116666667","6500100","板橋區"
"220053","285-VK","2017/08/22 19:31:40","新北市板橋區富山街53巷1弄112號","121.477721666667","25.0195866666667","6500100","板橋區"
"220081","287-VK","2017/08/22 19:38:54","新北市板橋區大觀路一段75巷16號","121.447728333333","25.00428","6500100","板橋區"
"220090","288-VK","2017/08/22 19:39:11","新北市板橋區長江路一段48巷17號","121.45939","25.02814","6500100","板橋區"
"220061","293-UM","2017/08/22 19:38:45","新北市板橋區中山路一段279號","121.469543333333","25.01372","6500100","板橋區"
"220084","296-UM","2017/08/22 19:27:15","新北市板橋區滿平街136巷8弄2號","121.427945","24.98733","6500100","板橋區"
"220062","303-R5","2017/08/22 19:36:04","新北市板橋區三民路二段81巷41號","121.480693333333","25.017025","6500100","板橋區"
"220092","307-R5","2017/08/22 19:36:43","新北市板橋區文化路一段387巷19號","121.466106666667","25.0221283333333","6500100","板橋區"
"220098","317-R6","2017/08/22 19:39:07","新北市板橋區四維路269巷27號","121.46211","25.027865","6500100","板橋區"
"220064","486-VK","2017/08/22 19:25:22","新北市板橋區中山路一段84號","121.461836666667","25.010125","6500100","板橋區"
"220089","487-VK","2017/08/22 19:24:17","新北市板橋區文化路一段233號","121.464051666667","25.017535","6500100","板橋區"
"220088","491-VK","2017/08/22 19:25:38","新北市板橋區雙十路二段37-1號","121.476871666667","25.025895","6500100","板橋區"
"220035","560-BX","2017/08/22 19:38:44","新北市板橋區中正路415號","121.45412","25.0226666666667","6500100","板橋區"
"220055","568-UM","2017/08/22 19:39:05","新北市板橋區國慶路149巷11號","121.460988333333","24.99714","6500100","板橋區"
"220063","609-BX","2017/08/22 19:25:34","新北市板橋區三民路一段31巷87弄5號","121.48141","25.023325","6500100","板橋區"
"220083","630-UY","2017/08/22 19:30:22","新北市板橋區龍興街73巷31號","121.442598333333","25.0026533333333","6500100","板橋區"
"220091","637-BX","2017/08/22 19:37:49","新北市板橋區文聖街149巷40號","121.479996666667","25.0288933333333","6500100","板橋區"
"220057","686-BX","2017/08/22 19:30:39","新北市板橋區五權街30巷1號","121.464753333333","24.9934016666667","6500100","板橋區"
"220077","687-BX","2017/08/22 19:22:40","新北市板橋區僑中二街90巷2號","121.446448333333","25.00921","6500100","板橋區"
"220093","689-BX","2017/08/22 19:22:00","新北市板橋區漢生西路83-2號","121.462661666667","25.019395","6500100","板橋區"
"220054","741-BX","2017/08/22 19:23:06","新北市板橋區重慶路182號","121.462363333333","25.0034283333333","6500100","板橋區"
"220067","829-TW","2017/08/22 19:36:31","新北市板橋區長安街138巷25號","121.47319","25.008865","6500100","板橋區"
"220096","831-TW","2017/08/22 19:35:28","新北市板橋區民生路二段226巷8弄1號","121.470423333333","25.0217033333333","6500100","板橋區"
"220074","895-R6","2017/08/22 19:39:13","新北市板橋區北門街42號","121.457016666667","25.01101","6500100","板橋區"
"220073","985-R7","2017/08/22 19:34:34","新北市板橋區中正路268號","121.4553","25.0196366666667","6500100","板橋區"
"220097","AAC-210","2017/08/22 19:31:23","新北市板橋區陽明街29巷1弄42號","121.463198333333","25.0225883333333","6500100","板橋區"
"220070","AAC-253","2017/08/22 19:27:54","新北市板橋區忠孝路168號","121.464386666667","25.002485","6500100","板橋區"
