"lineid","car","time","location","longitude","latitude","cityid","cityname"
"234046","148-BY","2017/08/22 19:59:03","新北市永和區永利路230號","121.523705","25.0025383333333","6500400","永和區"
"234013","149-BY","2017/08/22 19:58:22","新北市永和區保生路55號","121.504651666667","25.0105666666667","6500400","永和區"
"234007","207-UY","2017/08/22 19:59:05","新北市永和區永貞路389巷2弄2號","121.507693333333","25.008565","6500400","永和區"
"234081","298-R6","2017/08/22 19:48:10","新北市永和區永亨路106號","121.523458333333","25.0045483333333","6500400","永和區"
"234038","336-UY","2017/08/22 19:58:17","新北市永和區成功路二段76號","121.526626666667","24.9991066666667","6500400","永和區"
"234064","337-UY","2017/08/22 19:57:35","新北市永和區中正路412巷4弄15號","121.518556666667","25.0017283333333","6500400","永和區"
"234086","338-UY","2017/08/22 19:59:05","新北市永和區中正路511號","121.516888333333","25.0071283333333","6500400","永和區"
"234070","552-UM","2017/08/22 19:50:58","新北市永和區大新街109巷8號","121.518551666667","25.0081166666667","6500400","永和區"
"234054","553-UM","2017/08/22 19:59:10","新北市永和區竹林路39巷46號","121.520223333333","25.0152583333333","6500400","永和區"
"234017","745-BX","2017/08/22 19:57:23","新北市永和區文化路91號","121.513368333333","25.0151","6500400","永和區"
"234030","746-BX","2017/08/22 19:53:51","新北市永和區民權路49巷2號","121.520211666667","24.997115","6500400","永和區"
"234061","AAD-866","2017/08/22 19:48:07","新北市永和區民有街1號","121.515876666667","24.9975633333333","6500400","永和區"
"234042","862-TW","2017/08/22 19:53:03","新北市永和區中和路389巷32號","121.508201666667","25.0016116666667","6500400","永和區"
"234050","863-TW","2017/08/22 19:54:59","新北市永和區保安路151號","121.506991666667","25.0131033333333","6500400","永和區"
"234026","9371-KE","2017/08/22 19:58:15","新北市永和區保平路268巷27號","121.507903333333","25.0059333333333","6500400","永和區"
"249005","172-UM","2017/08/22 19:58:53","新北市八里區楓林路1-8號","121.386293333333","25.1311433333333","6502300","八里區"
"249001","173-UM","2017/08/22 19:58:52","新北市八里區中華路二段312號","121.403735","25.148325","6502300","八里區"
"249004","303-UY","2017/08/22 19:54:52","新北市八里區仁愛路65號","121.411996666667","25.1600933333333","6502300","八里區"
"249002","305-UY","2017/08/22 19:58:46","新北市八里區龍米路一段87巷1號","121.454216666667","25.12338","6502300","八里區"
"249003","593-UM","2017/08/22 19:58:45","新北市八里區中華路二段558號","121.398673333333","25.1451816666667","6502300","八里區"
"248014","025-BX","2017/08/22 19:58:59","新北市五股區五福路22巷8號","121.434696666667","25.0890216666667","6501500","五股區"
"248016","026-BX","2017/08/22 19:58:22","新北市五股區成泰路三段577巷31號","121.451235","25.10295","6501500","五股區"
"248020","225-UY","2017/08/22 19:57:37","新北市五股區中直路28-3號","121.424095","25.1120566666667","6501500","五股區"
"248010","272-BY","2017/08/22 19:59:04","新北市五股區登林路75號","121.428271666667","25.069825","6501500","五股區"
"248012","655-BX","2017/08/22 19:59:07","新北市五股區成泰路一段237-12號","121.436713333333","25.0803916666667","6501500","五股區"
"248004","677-BX","2017/08/22 19:55:41","新北市五股區成泰路一段106-1號","121.435656666667","25.0721033333333","6501500","五股區"
"248002","678-BX","2017/08/22 19:57:30","新北市五股區成泰路三段464號","121.451681666667","25.10113","6501500","五股區"
"234023","9380-KE","2017/08/22 19:57:27","新北市永和區豫溪街57巷8弄5號","121.517671666667","25.0104316666667","6500400","永和區"
"234077","969-R7","2017/08/22 19:52:37","新北市永和區民有街26號","121.516785","24.9963666666667","6500400","永和區"
"234074","AAC-211","2017/08/22 19:59:05","新北市永和區豫溪街207巷1號","121.523511666667","25.0098683333333","6500400","永和區"
"234067","AAC-212","2017/08/22 19:58:13","新北市永和區保平路236巷20號","121.508273333333","25.0069366666667","6500400","永和區"
"234003","AAC-295","2017/08/22 19:56:17","新北市永和區永和路二段3號","121.514391666667","25.0099116666667","6500400","永和區"
"243013","AAD-798","2017/08/22 19:58:53","新北市泰山區應化街7號","121.423885","25.04369","6501600","泰山區"
"243009","297-R6","2017/08/22 19:58:34","新北市泰山區楓江路16巷13號","121.43395","25.06176","6501600","泰山區"
"243015","380-SR","2017/08/22 19:58:51","新北市泰山區明志路二段214巷16弄16號","121.42697","25.0496133333333","6501600","泰山區"
"243014","421-VK","2017/08/22 19:58:10","新北市泰山區泰林路二段137號","121.434055","25.05994","6501600","泰山區"
"243012","539-UM","2017/08/22 15:39:13","新北市泰山區犁頭窠3-1號","121.421973333333","25.0605316666667","6501600","泰山區"
"243010","548-UM","2017/08/22 19:57:59","新北市泰山區明志路二段78號","121.428623333333","25.0522283333333","6501600","泰山區"
"243011","549-UM","2017/08/22 19:58:16","新北市泰山區明志路三段182巷5號","121.423846666667","25.0390166666667","6501600","泰山區"
"243012","646-TV","2017/08/22 19:58:52","新北市泰山區全興路180號","121.433155","25.057535","6501600","泰山區"
"243016","680-BX","2017/08/22 19:59:08","新北市泰山區新北大道六段462號","121.422161666667","25.0329216666667","6501600","泰山區"
"222003","436-BY","2017/08/22 19:57:55","新北市深坑區北深路二段20號","121.620783333333","25.004425","6501800","深坑區"
"222002","659-BX","2017/08/22 19:59:00","新北市深坑區北深路二段81巷8弄1號","121.618338333333","25.0030866666667","6501800","深坑區"
"222001","696-SL","2017/08/22 19:57:48","新北市深坑區北深路三段83號","121.606448333333","25.00149","6501800","深坑區"
"231059","001-UM","2017/08/22 19:58:38","新北市新店區安康路二段147號","121.511218333333","24.9598583333333","6500600","新店區"
"231041","002-UM","2017/08/22 19:59:08","新北市新店區中正路352號","121.535891666667","24.9755066666667","6500600","新店區"
"231061","047-UY","2017/08/22 19:56:49","新北市新店區安興路102號","121.51529","24.976685","6500600","新店區"
"231060","106-UY","2017/08/22 19:58:33","新北市新店區安康路二段382號","121.500425","24.9569616666667","6500600","新店區"
"231051","107-UY","2017/08/22 19:58:30","新北市新店區中央路135號","121.530448333333","24.9737833333333","6500600","新店區"
"231048","108-UY","2017/08/22 19:58:07","新北市新店區寶宏路3-6號","121.549301666667","24.9763666666667","6500600","新店區"
"231053","187-VK","2017/08/22 19:58:11","新北市新店區新烏路二段482號","121.552975","24.9079833333333","6500600","新店區"
"231069","189-VK","2017/08/22 11:53:09","新北市新店區安華路28-1號","121.519686666667","24.9611016666667","6500600","新店區"
"231057","256-BX","2017/08/22 19:56:20","新北市新店區花園二路一段4-5號","121.556078333333","24.9323366666667","6500600","新店區"
"231063","268-BY","2017/08/22 19:58:57","新北市新店區車子路11號","121.502823333333","24.9511066666667","6500600","新店區"
"231050","AAD-862","2017/08/22 19:58:27","新北市新店區中生路61號","121.564743333333","24.9522366666667","6500600","新店區"
"231055","3713-VJ","2017/08/22 19:58:27","新北市新店區中華路83巷67號","121.538333333333","24.9672366666667","6500600","新店區"
"231056","4716-K9","2017/08/22 19:59:01","新北市新店區民權路34號","121.540765","24.98291","6500600","新店區"
"231067","4772-VM","2017/08/22 19:58:53","新北市新店區精忠路10-1號","121.5325","24.9591433333333","6500600","新店區"
"231065","512-UM","2017/08/22 19:59:12","新北市新店區安祥路109巷8號","121.475443333333","24.958815","6500600","新店區"
"231054","513-UM","2017/08/22 19:56:37","新北市新店區北宜路一段3號","121.538613333333","24.9585716666667","6500600","新店區"
"231042","616-UM","2017/08/22 19:58:44","新北市新店區中興路一段280號","121.545543333333","24.96851","6500600","新店區"
"231045","617-UM","2017/08/22 19:58:53","新北市新店區北宜路二段177號","121.552481666667","24.9531816666667","6500600","新店區"
"231040","619-UM","2017/08/22 19:58:40","新北市新店區中正路70號","121.544055","24.970215","6500600","新店區"
"231068","718-UY","2017/08/22 19:59:10","新北市新店區安康路一段355號","121.519783333333","24.9629316666667","6500600","新店區"
"231049","719-UM","2017/08/22 19:58:40","新北市新店區明德路77號","121.541295","24.9781316666667","6500600","新店區"
"231064","719-UY","2017/08/22 19:59:03","新北市新店區光華街5巷30號","121.517545","24.968045","6500600","新店區"
"231062","720-UM","2017/08/22 19:57:23","新北市新店區華潭街52號","121.528431666667","24.9545083333333","6500600","新店區"
"231044","897-TW","2017/08/22 19:58:30","新北市新店區復興路43-1號","121.536931666667","24.98701","6500600","新店區"
"231043","899-TW","2017/08/22 19:59:01","新北市新店區中正路263-5號","121.538178333333","24.9738033333333","6500600","新店區"
"241011","013-R5","2017/08/22 19:57:00","新北市三重區三和路二段125號","121.49862","25.0691066666667","6500200","三重區"
"241008","059-VK","2017/08/22 19:58:19","新北市三重區永福街124號","121.479296666667","25.0750833333333","6500200","三重區"
"241009","060-VK","2017/08/22 19:58:55","新北市三重區三和路四段390巷36號","121.480625","25.0785683333333","6500200","三重區"
"241031","061-VK","2017/08/22 19:56:55","新北市三重區重新路四段144巷36號","121.487276666667","25.05488","6500200","三重區"
"241015","062-VK","2017/08/22 19:58:46","新北市三重區三和路二段8號","121.501083333333","25.06684","6500200","三重區"
"241017","063-VK","2017/08/22 19:57:07","新北市三重區重陽路三段99號","121.490376666667","25.0681783333333","6500200","三重區"
"241024","065-VK","2017/08/22 19:57:53","新北市三重區大勇街38號","121.481443333333","25.0716916666667","6500200","三重區"
"241026","066-VK","2017/08/22 19:57:37","新北市三重區中央南路3號","121.50113","25.0629683333333","6500200","三重區"
"241002","090-VK","2017/08/22 19:56:21","新北市三重區五華街7巷32號","121.496626666667","25.08081","6500200","三重區"
"241003","091-VK","2017/08/22 19:59:09","新北市三重區仁愛街445巷59號","121.491413333333","25.083275","6500200","三重區"
"241006","156-TC","2017/08/22 19:58:20","新北市三重區力行路二段33巷1號","121.482565","25.07359","6500200","三重區"
"241016","266-UM","2017/08/22 19:57:49","新北市三重區正義北路36巷2號","121.49714","25.0633916666667","6500200","三重區"
"241022","267-UM","2017/08/22 19:57:54","新北市三重區過圳街31巷2號","121.489205","25.0605783333333","6500200","三重區"
"241032","269-UM","2017/08/22 19:58:56","新北市三重區朝陽街23號","121.483621666667","25.056495","6500200","三重區"
"241013","270-UM","2017/08/22 19:56:28","新北市三重區三和路三段125巷3號","121.493115","25.0734433333333","6500200","三重區"
"241025","271-UM","2017/08/22 19:58:50","新北市三重區頂崁街210巷16號","121.476511666667","25.067645","6500200","三重區"
"241020","412-TH","2017/08/22 19:56:18","新北市三重區三和路四段20巷28號","121.489858333333","25.0731566666667","6500200","三重區"
"241004","475-VK","2017/08/22 19:58:37","新北市三重區仁愛街377巷132號","121.49353","25.0818716666667","6500200","三重區"
"241019","478-VK","2017/08/22 19:58:31","新北市三重區重陽路四段40號","121.491363333333","25.069895","6500200","三重區"
"241030","480-VK","2017/08/22 19:57:07","新北市三重區成功路171號","121.486168333333","25.0524266666667","6500200","三重區"
"241014","543-UM","2017/08/22 19:58:41","新北市三重區三和路二段105號","121.499355","25.0686133333333","6500200","三重區"
"241023","545-UM","2017/08/22 19:58:08","新北市三重區頂崁街172號","121.477598333333","25.0659783333333","6500200","三重區"
"241001","547-UM","2017/08/22 19:58:32","新北市三重區仁愛街283巷13號","121.49351","25.0793416666667","6500200","三重區"
"241035","743-BX","2017/08/22 19:58:03","新北市三重區大榮街23號","121.498525","25.0633516666667","6500200","三重區"
"241012","941-UM","2017/08/22 19:59:12","新北市三重區仁厚街60號","121.500425","25.076605","6500200","三重區"
"241029","942-UM","2017/08/22 19:58:59","新北市三重區重新路三段204號","121.490118333333","25.0582333333333","6500200","三重區"
"241033","AAC-255","2017/08/22 19:58:54","新北市三重區中興北街73號","121.469496666667","25.0476683333333","6500200","三重區"
"235066","003-UY","2017/08/22 19:59:09","新北市中和區光華街33號","121.50496","25.0039883333333","6500300","中和區"
"235056","096-UM","2017/08/22 19:57:06","新北市中和區中山路三段170巷5號","121.472773333333","25.0067933333333","6500300","中和區"
"235039","097-UM","2017/08/22 19:59:08","新北市中和區大勇街27巷20號","121.516428333333","24.99386","6500300","中和區"
"235065","098-UM","2017/08/22 19:57:56","新北市中和區福美路257號","121.498568333333","25.0050733333333","6500300","中和區"
"235040","150-BY","2017/08/22 19:57:33","新北市中和區保健路10巷21弄1號","121.507638333333","24.99695","6500300","中和區"
"235058","151-BY","2017/08/22 19:56:59","新北市中和區員山路167號","121.481181666667","24.9968033333333","6500300","中和區"
"235055","183-VK","2017/08/22 19:58:09","新北市中和區德光路15巷6號","121.471178333333","25.003945","6500300","中和區"
"235038","185-VK","2017/08/22 19:58:48","新北市中和區立人街69巷5號","121.519993333333","24.9937883333333","6500300","中和區"
"235049","186-VK","2017/08/22 19:58:28","新北市中和區景平路385巷42-1號","121.50153","24.9944016666667","6500300","中和區"
"235067","255-BX","2017/08/22 19:58:45","新北市中和區中正路751巷3弄12號","121.484323333333","24.9993766666667","6500300","中和區"
"235044","293-VK","2017/08/22 19:59:04","新北市中和區南山路174-3號","121.505063333333","24.9912083333333","6500300","中和區"
"235072","301-VK","2017/08/22 19:58:43","新北市三重區光復路二段175號","121.472835","25.0617016666667","6500300","中和區"
"235043","352-BY","2017/08/22 19:58:01","新北市中和區興南路二段159巷18號","121.505153333333","24.9829783333333","6500300","中和區"
"235051","376-QA","2017/08/22 19:59:05","新北市中和區中興街132巷1號","121.499675","24.9920883333333","6500300","中和區"
"235068","377-QA","2017/08/22 19:58:41","新北市中和區福美路301巷14號","121.49748","25.0043233333333","6500300","中和區"
"235050","4979-A6","2017/08/22 19:52:38","新北市中和區和平街76巷6弄4號","121.508001666667","24.9920333333333","6500300","中和區"
"235069","4980-A6","2017/08/22 19:58:38","新北市中和區景新街132巷6-3號","121.504713333333","24.9982833333333","6500300","中和區"
"235042","551-UM","2017/08/22 19:58:08","新北市中和區宜安路19號","121.513005","24.99586","6500300","中和區"
"235070","558-UM","2017/08/22 19:58:27","新北市中和區連勝街31號","121.49844","24.9977933333333","6500300","中和區"
"235054","640-BX","2017/08/22 19:59:09","新北市中和區莒光路110號","121.472448333333","25.0020833333333","6500300","中和區"
"235060","647-TV","2017/08/22 19:58:01","新北市中和區新生街28號","121.483135","25.0038716666667","6500300","中和區"
"235047","732-UM","2017/08/22 19:59:06","新北市中和區和平街74號","121.50778","24.9911483333333","6500300","中和區"
"235046","733-UM","2017/08/22 19:58:22","新北市中和區興南路一段93巷6弄3號","121.509745","24.9881","6500300","中和區"
"235057","801-TS","2017/08/22 19:54:39","新北市中和區員山路134號","121.481193333333","24.9963266666667","6500300","中和區"
"235041","802-TS","2017/08/22 19:58:23","新北市中和區永貞路241號","121.513088333333","25.0038833333333","6500300","中和區"
"235052","805-TS","2017/08/22 19:57:35","新北市中和區華新街144巷9號","121.507503333333","24.9830816666667","6500300","中和區"
"235048","896-TW","2017/08/22 19:58:39","新北市中和區興南路一段50號","121.511021666667","24.9905633333333","6500300","中和區"
"235053","900-TW","2017/08/22 19:58:36","新北市中和區國光街191號","121.467306666667","25.0016966666667","6500300","中和區"
"235037","AAC-213","2017/08/22 19:58:57","新北市中和區秀朗路三段171號","121.524493333333","24.99169","6500300","中和區"
"235059","AAC-215","2017/08/22 19:59:05","新北市中和區圓通路305巷5弄28號","121.494311666667","24.9901316666667","6500300","中和區"
"220068","013-TV","2017/08/22 19:47:26","新北市板橋區中山路二段416巷47弄30號","121.483683333333","25.0194233333333","6500100","板橋區"
"220065","072-UY","2017/08/22 19:55:06","新北市板橋區民族路276巷15號","121.469601666667","25.0059266666667","6500100","板橋區"
"220086","073-UY","2017/08/22 19:40:36","新北市板橋區國光路156號","121.459908333333","25.0180766666667","6500100","板橋區"
"220069","AAD-861","2017/08/22 19:58:21","新北市板橋區貴興路107號","121.455946666667","25.00265","6500100","板橋區"
"220102","120-SR","2017/08/22 19:50:38","新北市板橋區松柏街31號","121.47518","25.0302933333333","6500100","板橋區"
"247020","893-R6","2017/08/22 19:57:51","新北市蘆洲區民義街53號","121.472823333333","25.08974","6501400","蘆洲區"
"247018","500-BY","2017/08/22 19:58:55","新北市蘆洲區民族路290巷13號","121.478601666667","25.0898116666667","6501400","蘆洲區"
"247008","339-TH","2017/08/22 19:59:06","新北市蘆洲區中山一路165號","121.475323333333","25.0815816666667","6501400","蘆洲區"
"247024","337-TH","2017/08/22 19:56:15","新北市蘆洲區光復路80號","121.46451","25.0856116666667","6501400","蘆洲區"
"247002","336-TH","2017/08/22 19:58:43","新北市蘆洲區永樂街31巷9號","121.45808","25.08715","6501400","蘆洲區"
"247012","335-TH","2017/08/22 19:57:54","新北市蘆洲區民族路157號","121.479433333333","25.08816","6501400","蘆洲區"
"247014","057-VK","2017/08/22 19:58:15","新北市蘆洲區成功路185號","121.471838333333","25.0830216666667","6501400","蘆洲區"
"247004","056-VK","2017/08/22 19:58:13","新北市蘆洲區永安南路二段356號","121.456061666667","25.0827883333333","6501400","蘆洲區"
"247006","053-VK","2017/08/22 19:58:10","新北市蘆洲區九芎街108號","121.465425","25.0795016666667","6501400","蘆洲區"
"247016","001-UY","2017/08/22 19:57:21","新北市蘆洲區中正路173號","121.46888","25.0852516666667","6501400","蘆洲區"
"226004","205-ST","2017/08/22 19:55:32","新北市平溪區靜安路二段500號","121.743705","25.0267416666667","6502400","平溪區"
"228003","828-UM","2017/08/22 19:58:30","新北市貢寮區仁理村仁和路218號","121.923721666667","25.0533483333333","6502600","貢寮區"
"224011","420-VK","2017/08/22 19:58:50","新北市瑞芳區崙頂路3-1號","121.847013333333","25.1046716666667","6501200","瑞芳區"
"227003","642-TC","2017/08/22 19:58:38","新北市雙溪區雙溪里長安街16號","121.865016666667","25.0346933333333","6502500","雙溪區"
"227009","400-TW","2017/08/22 19:59:08","新北市雙溪區新基里朝陽街3號","121.866286666667","25.0383566666667","6502500","雙溪區"
"208002","742-BX","2017/08/22 19:57:55","新北市金山區忠孝一路19巷28號","121.635666666667","25.2170566666667","6502700","金山區"
"208003","665-BX","2017/08/22 19:56:48","新北市金山區永興里跳石15號","121.633326666667","25.258185","6502700","金山區"
"208001","761-BX","2017/08/22 19:36:21","新北市金山區重和里牛埔仔1-4號","121.60744","25.2230033333333","6502700","金山區"
"251004","009-UM","2017/08/22 19:58:02","新北市淡水區民權路177巷7號","121.460785","25.1355783333333","6501000","淡水區"
"251014","180-VK","2017/08/22 19:58:24","新北市淡水區石頭厝13-2號","121.46232","25.2364483333333","6501000","淡水區"
"251008","181-VK","2017/08/22 19:58:49","新北市淡水區淡海路70號","121.4232","25.1808966666667","6501000","淡水區"
"251010","413-VK","2017/08/22 19:58:38","新北市淡水區崁頂98號","121.434875","25.2038016666667","6501000","淡水區"
"251012","441-VK","2017/08/22 19:58:46","新北市淡水區下圭柔山61-5號","121.447765","25.2048233333333","6501000","淡水區"
"251016","442-VK","2017/08/22 19:59:00","新北市淡水區番子田16-13號","121.453728333333","25.2315816666667","6501000","淡水區"
"251005","443-VK","2017/08/22 19:58:03","新北市淡水區學府路112號","121.450151666667","25.1722283333333","6501000","淡水區"
"251001","559-UM","2017/08/22 19:57:55","新北市淡水區淡金路一段96號","121.458035","25.17418","6501000","淡水區"
"251006","561-UM","2017/08/22 19:56:39","新北市淡水區水碓街28號","121.444128333333","25.177275","6501000","淡水區"
"251009","575-R6","2017/08/22 19:58:52","新北市淡水區英專路21巷8號","121.44504","25.1697766666667","6501000","淡水區"
"251011","650-BX","2017/08/22 19:58:21","新北市淡水區崁頂55號","121.442368333333","25.1966083333333","6501000","淡水區"
"207003","550-UM","2017/08/22 19:58:18","新北市萬里區磺潭里公館崙5號","121.641871666667","25.2142166666667","6502800","萬里區"
"207004","225-TW","2017/08/22 19:58:44","新北市萬里區北基里忠二街35號","121.685638333333","25.17573","6502800","萬里區"
"252002","178-VK","2017/08/22 19:58:30","新北市三芝區三民街39巷10號","121.505108333333","25.257915","6502100","三芝區"
"252001","292-VK","2017/08/22 19:57:55","新北市三芝區公正街66號","121.499863333333","25.25747","6502100","三芝區"
"237004","078-UY","2017/08/22 19:58:17","新北市三峽區嘉添137號","121.369255","24.911425","6500900","三峽區"
"237007","153-BY","2017/08/22 19:57:59","新北市三峽區二鬮路136巷18弄33號","121.358731666667","24.9087266666667","6500900","三峽區"
"237009","210-TH","2017/08/22 19:56:54","新北市三峽區民族街28巷2-9號","121.368968333333","24.93066","6500900","三峽區"
"237012","275-BY","2017/08/22 19:58:15","新北市三峽區中華路13-5號","121.373228333333","24.9316116666667","6500900","三峽區"
"237008","302-VK","2017/08/22 19:57:49","新北市三峽區大同路141號","121.371511666667","24.92697","6500900","三峽區"
"237014","433-BY","2017/08/22 19:59:01","新北市三峽區介壽路一段53號","121.375631666667","24.9329483333333","6500900","三峽區"
"237006","5529-G3","2017/08/22 19:58:35","新北市三峽區正義街29號","121.36959","24.9193033333333","6500900","三峽區"
"237016","649-BX","2017/08/22 19:58:01","新北市三峽區溪東路218巷3號","121.407378333333","24.9314366666667","6500900","三峽區"
"237010","706-TV","2017/08/22 19:58:00","新北市三峽區中山路459巷163-3號","121.34886","24.9331816666667","6500900","三峽區"
"237005","AKY-6261","2017/08/22 19:58:48","新北市三峽區民生街1巷1-5號","121.37687","24.936715","6500900","三峽區"
"236070","105-UM","2017/08/22 19:57:27","新北市土城區忠承路5-1號","121.442173333333","24.9679333333333","6501300","土城區"
"236043","107-UM","2017/08/22 19:58:58","新北市土城區裕民路183號","121.453651666667","24.98463","6501300","土城區"
"236079","166-UM","2017/08/22 19:58:36","新北市土城區福安街55巷1號","121.418611666667","24.9642766666667","6501300","土城區"
"236031","253-BX","2017/08/22 19:58:42","新北市土城區中華路一段205號","121.442878333333","24.98485","6501300","土城區"
"236027","269-VK","2017/08/22 19:56:16","新北市土城區學府路二段259號","121.44502","24.97744","6501300","土城區"
"236015","270-VK","2017/08/22 19:58:45","新北市土城區廣福街128號","121.456306666667","24.99285","6501300","土城區"
"236038","271-VK","2017/08/22 19:57:17","新北市土城區國際路139巷52號","121.46841","24.9775383333333","6501300","土城區"
"236023","401-BY","2017/08/22 19:56:37","新北市土城區延吉街120號","121.469801666667","24.985955","6501300","土城區"
"236059","912-UM","2017/08/22 19:55:08","新北市土城區中央路一段245-1號","121.445316666667","24.9860133333333","6501300","土城區"
"236049","913-UM","2017/08/22 19:58:37","新北市土城區金城路三段69號","121.46629","24.98706","6501300","土城區"
"236063","915-UM","2017/08/22 19:51:47","新北市土城區延和路107號","121.467656666667","24.9902666666667","6501300","土城區"
"236055","AAC-216","2017/08/22 19:51:42","新北市土城區延和路78號","121.466133333333","24.9893483333333","6501300","土城區"
"242021","AAC-296","2017/08/22 19:55:47","新北市新莊區建中街28號","121.449025","25.037485","6500500","新莊區"
"242029","986-R7","2017/08/22 19:59:05","新北市新莊區中平路294號","121.444751666667","25.0515033333333","6500500","新莊區"
"242048","751-BX","2017/08/22 19:59:04","新北市新莊區民安路144巷9號","121.424055","25.0252666666667","6500500","新莊區"
"242023","705-TV","2017/08/22 19:56:41","新北市新莊區化成路306號","121.465675","25.0481283333333","6500500","新莊區"
"242025","615-BX","2017/08/22 19:56:03","新北市新莊區五工二路86巷2號","121.459716666667","25.0664566666667","6500500","新莊區"
"242027","612-BX","2017/08/22 19:55:30","新北市新莊區立信三街30號","121.443081666667","25.0506933333333","6500500","新莊區"
"242037","566-BX","2017/08/22 19:57:35","新北市新莊區建安街57巷3號","121.42872","25.02486","6500500","新莊區"
"242042","497-BY","2017/08/22 19:55:15","新北市新莊區青山路一段8號","121.411863333333","25.02757","6500500","新莊區"
"242056","442-UM","2017/08/22 19:56:28","新北市新莊區新豐街20巷3號","121.448023333333","25.03444","6500500","新莊區"
"242051","440-UM","2017/08/22 19:59:12","新北市新莊區西盛街139號","121.428181666667","25.0184066666667","6500500","新莊區"
"242032","415-TV","2017/08/22 19:58:41","新北市新莊區公園一路40號","121.44333","25.0355566666667","6500500","新莊區"
"242002","413-TV","2017/08/22 19:55:56","新北市新莊區中正路261號","121.449811666667","25.0354883333333","6500500","新莊區"
"242039","400-BY","2017/08/22 19:55:31","新北市新莊區民安路346號","121.429498333333","25.0223983333333","6500500","新莊區"
"242061","362-BY","2017/08/22 19:55:42","新北市新莊區瓊林路59-74號","121.444155","25.02729","6500500","新莊區"
"242058","353-BY","2017/08/22 19:58:32","新北市新莊區八德街107號","121.42427","25.0209983333333","6500500","新莊區"
"242005","132-UY","2017/08/22 19:57:18","新北市新莊區化成路63巷15號","121.464473333333","25.0457916666667","6500500","新莊區"
"242034","133-UY","2017/08/22 19:57:37","新北市新莊區建中街91號","121.446703333333","25.036505","6500500","新莊區"
"242019","135-UY","2017/08/22 19:53:38","新北市新莊區中港路177號","121.454891666667","25.0414366666667","6500500","新莊區"
"242007","173-VK","2017/08/22 19:53:46","新北市新莊區思源路593巷3號","121.45933","25.0595066666667","6500500","新莊區"
"242013","175-VK","2017/08/22 19:58:36","新北市新莊區幸福路670巷2弄1號","121.451068333333","25.0494883333333","6500500","新莊區"
"242011","346-TH","2017/08/22 19:57:49","新北市新莊區中港路531巷68號","121.450493333333","25.0515533333333","6500500","新莊區"
"242044","347-TH","2017/08/22 19:59:06","新北市新莊區中正路746巷37號","121.411031666667","25.0249766666667","6500500","新莊區"
"242017","348-TH","2017/08/22 19:55:09","新北市新莊區中華路二段3巷29號","121.453051666667","25.0463966666667","6500500","新莊區"
"242009","351-TH","2017/08/22 19:57:53","新北市新莊區昌盛街21號","121.453598333333","25.04999","6500500","新莊區"
"238015","755-BX","2017/08/22 19:59:07","新北市樹林區中山路三段210-2號","121.380746666667","24.9668166666667","6500700","樹林區"
"238023","601-UM","2017/08/22 19:52:09","新北市樹林區三福街114號","121.40664","25.0163216666667","6500700","樹林區"
"238021","311-TH","2017/08/22 19:51:55","新北市樹林區佳園路三段219巷39號","121.387825","24.9459183333333","6500700","樹林區"
"238025","303-VK","2017/08/22 19:59:03","新北市樹林區育德街78-1號","121.388283333333","24.96815","6500700","樹林區"
"238020","268-VK","2017/08/22 19:13:21","新北市樹林區俊英街113-3號","121.424733333333","25.009995","6500700","樹林區"
"221008","489-VK","2017/08/22 19:58:33","台北市內湖區康樂街125巷14號","121.620216666667","25.0732966666667","6501100","汐止區"
"221036","130-UY","2017/08/22 19:55:07","新北市汐止區仁愛路317號","121.664551666667","25.0676033333333","6501100","汐止區"
"221015","131-UY","2017/08/22 19:59:03","新北市汐止區大同路三段41號","121.666815","25.07641","6501100","汐止區"
"221010","269-BY","2017/08/22 19:58:14","新北市汐止區連峰街128號","121.646131666667","25.0791166666667","6501100","汐止區"
"221012","276-VK","2017/08/22 13:25:14","新北市汐止區汐萬路一段256巷3號","121.653455","25.074615","6501100","汐止區"
"221031","277-VK","2017/08/22 19:58:55","新北市汐止區福德一路176巷3弄2號","121.63521","25.0665616666667","6501100","汐止區"
"221012","278-VK","2017/08/22 19:58:58","新北市汐止區大同路三段279號","121.67406","25.07517","6501100","汐止區"
"221023","279-VK","2017/08/22 19:58:00","新北市汐止區明峰街200-1號","121.627738333333","25.0692583333333","6501100","汐止區"
"221032","280-BY","2017/08/22 19:59:02","新北市汐止區力行街59巷7號","121.617201666667","25.0495516666667","6501100","汐止區"
"221027","281-BY","2017/08/22 19:58:53","新北市汐止區中正路70號","121.661706666667","25.0699116666667","6501100","汐止區"
"221038","297-VK","2017/08/22 19:58:57","新北市汐止區忠孝東路438號","121.666065","25.0723533333333","6501100","汐止區"
"221029","298-VK","2017/08/22 19:58:46","新北市汐止區樟樹一路137巷26號","121.641046666667","25.0659416666667","6501100","汐止區"
"221021","299-VK","2017/08/22 19:55:44","新北市汐止區莊敬街70號","121.656336666667","25.061475","6501100","汐止區"
"221035","622-UM","2017/08/22 19:59:01","新北市汐止區長江街39巷21號","121.655295","25.0720683333333","6501100","汐止區"
"221025","623-UM","2017/08/22 19:58:46","新北市汐止區秀峰路107號","121.660135","25.06346","6501100","汐止區"
"221033","647-BX","2017/08/22 19:59:08","新北市汐止區東勢街190巷1號","121.633875","25.04166","6501100","汐止區"
"221018","753-BX","2017/08/22 19:59:08","新北市汐止區茄苳路204號","121.670483333333","25.0690116666667","6501100","汐止區"
"220079","145-BY","2017/08/22 19:34:56","新北市板橋區復興街90號","121.459563333333","25.0176416666667","6500100","板橋區"
"220080","200-UY","2017/08/22 19:36:21","新北市板橋區大觀路二段37巷64號","121.449446666667","25.0022533333333","6500100","板橋區"
"220082","610-BX","2017/08/22 19:43:24","新北市板橋區大觀路三段263號","121.429181666667","24.992185","6500100","板橋區"
"220101","245-BX","2017/08/22 19:52:00","新北市板橋區莊敬路251號","121.47339","25.0214866666667","6500100","板橋區"
"220075","256-TC","2017/08/22 19:57:52","新北市板橋區金華街10巷48弄24號","121.45788","25.0198733333333","6500100","板橋區"
"220106","257-TC","2017/08/22 19:45:55","新北市板橋區仁化街221號","121.478845","25.0346533333333","6500100","板橋區"
"220094","267-BY","2017/08/22 19:44:12","新北市板橋區宏國路75號","121.468941666667","25.0321733333333","6500100","板橋區"
"220072","277-BY","2017/08/22 19:53:46","新北市板橋區金門街151巷25號","121.434166666667","24.990115","6500100","板橋區"
"220071","283-VK","2017/08/22 19:43:55","新北市板橋區四川路一段283巷19號","121.459491666667","25.0007966666667","6500100","板橋區"
"220053","285-VK","2017/08/22 19:57:00","新北市板橋區永豐街69號","121.473681666667","25.0186083333333","6500100","板橋區"
"220081","287-VK","2017/08/22 19:40:03","新北市板橋區大觀路一段71巷1號","121.447488333333","25.0046883333333","6500100","板橋區"
"220090","288-VK","2017/08/22 19:56:58","新北市板橋區新海路109巷1弄2號","121.460748333333","25.022395","6500100","板橋區"
"220061","293-UM","2017/08/22 19:58:04","新北市板橋區觀光街21號","121.471395","25.0162083333333","6500100","板橋區"
"220084","296-UM","2017/08/22 19:38:55","新北市板橋區滿平街84巷100弄15號","121.425966666667","24.9861383333333","6500100","板橋區"
"220062","303-R5","2017/08/22 19:54:24","新北市板橋區中山路二段416巷57弄2號","121.483003333333","25.0188816666667","6500100","板橋區"
"220092","307-R5","2017/08/22 19:54:43","新北市板橋區四維路259巷87號","121.46003","25.0264183333333","6500100","板橋區"
"220098","317-R6","2017/08/22 19:59:07","新北市板橋區英士路199號","121.459086666667","25.0236066666667","6500100","板橋區"
"220064","486-VK","2017/08/22 19:46:22","新北市板橋區民族路80號","121.463098333333","25.00921","6500100","板橋區"
"220089","487-VK","2017/08/22 19:53:36","新北市板橋區龍泉街83-3號","121.456693333333","25.025015","6500100","板橋區"
"220088","491-VK","2017/08/22 19:42:58","新北市板橋區民治街35號","121.478406666667","25.0342033333333","6500100","板橋區"
"220035","560-BX","2017/08/22 19:58:44","新北市板橋區新生街87巷32號","121.456561666667","25.0221733333333","6500100","板橋區"
"220055","568-UM","2017/08/22 19:57:13","新北市板橋區國慶路149巷37弄15號","121.460236666667","24.9979","6500100","板橋區"
"220063","609-BX","2017/08/22 19:44:14","新北市板橋區三民路一段143號","121.479176666667","25.019845","6500100","板橋區"
"220083","630-UY","2017/08/22 19:51:22","新北市板橋區僑中二街126巷2號","121.445418333333","25.0052533333333","6500100","板橋區"
"220091","637-BX","2017/08/22 19:58:07","新北市板橋區文聖街149巷6-1號","121.478856666667","25.0281766666667","6500100","板橋區"
"220057","686-BX","2017/08/22 19:50:39","新北市板橋區和平路安樂巷45號","121.462048333333","24.9930483333333","6500100","板橋區"
"220077","687-BX","2017/08/22 19:42:00","新北市板橋區僑中一街122號","121.445966666667","25.01171","6500100","板橋區"
"220093","689-BX","2017/08/22 19:38:40","新北市板橋區長江路一段40號","121.458475","25.0290533333333","6500100","板橋區"
"220054","741-BX","2017/08/22 19:37:46","新北市中和區德光路100號","121.468471666667","25.0034883333333","6500100","板橋區"
"220067","829-TW","2017/08/22 19:58:39","新北市板橋區漢生東路193巷66號","121.473173333333","25.0120033333333","6500100","板橋區"
"220096","831-TW","2017/08/22 19:53:08","新北市板橋區莒光路15巷34號","121.47065","25.0255066666667","6500100","板橋區"
"220074","895-R6","2017/08/22 19:55:33","新北市板橋區府中路42號","121.457381666667","25.0095716666667","6500100","板橋區"
"220073","985-R7","2017/08/22 19:58:16","新北市板橋區南雅西路二段226號","121.452281666667","25.0155","6500100","板橋區"
"220097","AAC-210","2017/08/22 19:48:03","新北市板橋區文化路一段285巷20號","121.463818333333","25.019415","6500100","板橋區"
"220070","AAC-253","2017/08/22 19:46:54","新北市板橋區民族路165號","121.468333333333","25.0075916666667","6500100","板橋區"
