"lineid","car","time","location","longitude","latitude","cityid","cityname"
"243012","539-UM","2017/08/22 15:39:13","新北市泰山區犁頭窠3-1號","121.421973333333","25.0605316666667","6501600","泰山區"
"231059","001-UM","2017/08/22 21:18:53","新北市新店區安華路30巷1號","121.519461666667","24.95977","6500600","新店區"
"231061","047-UY","2017/08/22 21:18:49","新北市新店區安和路三段47號","121.517943333333","24.9824866666667","6500600","新店區"
"231051","107-UY","2017/08/22 21:18:50","新北市新店區中正路680巷33弄6號","121.53504","24.9893983333333","6500600","新店區"
"231048","108-UY","2017/08/22 21:18:47","新北市新店區中央路208號","121.530285","24.9738116666667","6500600","新店區"
"231053","187-VK","2017/08/22 21:18:51","新北市新店區安康路一段266巷4號","121.519916666667","24.9639733333333","6500600","新店區"
"231069","189-VK","2017/08/22 11:53:09","新北市新店區安華路28-1號","121.519686666667","24.9611016666667","6500600","新店區"
"231063","268-BY","2017/08/22 21:18:57","新北市新店區玫瑰路57巷32號","121.496788333333","24.9462766666667","6500600","新店區"
"231050","AAD-862","2017/08/22 21:18:47","新北市新店區中華路147號","121.538118333333","24.9704983333333","6500600","新店區"
"231067","4772-VM","2017/08/22 21:18:53","新北市新店區薏仁坑路11號","121.498238333333","24.9590116666667","6500600","新店區"
"231065","512-UM","2017/08/22 21:18:52","新北市新店區薏仁坑路2-1號","121.500433333333","24.95781","6500600","新店區"
"231054","513-UM","2017/08/22 21:18:57","新北市新店區大新街9巷28號","121.544233333333","24.9666233333333","6500600","新店區"
"231040","619-UM","2017/08/22 21:19:00","新北市新店區光明街310號","121.54056","24.9650333333333","6500600","新店區"
"231064","719-UY","2017/08/22 21:19:03","新北市新店區安華路28-1號","121.519751666667","24.961495","6500600","新店區"
"231044","897-TW","2017/08/22 21:18:49","新北市樹林區中山路三段182號","121.387835","24.969335","6500600","新店區"
"241011","013-R5","2017/08/22 21:19:00","新北市三重區龍濱路197號","121.50186","25.0714","6500200","三重區"
"241008","059-VK","2017/08/22 21:18:59","新北市三重區自強路一段73號","121.497223333333","25.0668433333333","6500200","三重區"
"241009","060-VK","2017/08/22 21:18:55","新北市三重區忠孝路二段160號","121.482195","25.0680783333333","6500200","三重區"
"241031","061-VK","2017/08/22 21:18:44","新北市三重區重新路五段408巷19號","121.475743333333","25.0455833333333","6500200","三重區"
"241015","062-VK","2017/08/22 21:18:45","新北市三重區河邊北街23號","121.504201666667","25.0653133333333","6500200","三重區"
"241017","063-VK","2017/08/22 21:18:47","新北市三重區中正北路25巷28號","121.493863333333","25.0633283333333","6500200","三重區"
"241024","065-VK","2017/08/22 21:18:53","新北市三重區中正北路145巷14號","121.484098333333","25.0678533333333","6500200","三重區"
"241026","066-VK","2017/08/22 21:18:56","新北市三重區大同南路218號","121.496798333333","25.05625","6500200","三重區"
"241002","090-VK","2017/08/22 21:18:47","新北市三重區五華街20號","121.494825","25.0804116666667","6500200","三重區"
"241003","091-VK","2017/08/22 21:19:03","新北市三重區五華街71巷118號","121.495016666667","25.0845616666667","6500200","三重區"
"241006","156-TC","2017/08/22 21:19:00","新北市三重區重陽路二段67號","121.487735","25.0638416666667","6500200","三重區"
"241005","262-UM","2017/08/22 21:19:00","新北市三重區三信路182號","121.488065","25.086195","6500200","三重區"
"241016","266-UM","2017/08/22 21:19:00","新北市三重區自強路一段95號","121.495853333333","25.0664483333333","6500200","三重區"
"241018","268-UM","2017/08/22 21:18:59","新北市三重區忠孝路一段107號","121.489075","25.0721533333333","6500200","三重區"
"241032","269-UM","2017/08/22 21:18:56","新北市三重區光復路二段133號","121.472128333333","25.0595283333333","6500200","三重區"
"241013","270-UM","2017/08/22 21:18:48","新北市三重區仁愛街66號","121.495795","25.0731566666667","6500200","三重區"
"241025","271-UM","2017/08/22 21:18:50","新北市三重區中正北路208巷10弄4號","121.48238","25.0669133333333","6500200","三重區"
"241004","475-VK","2017/08/22 21:18:57","新北市三重區分子尾街81號","121.48902","25.0824916666667","6500200","三重區"
"241019","478-VK","2017/08/22 21:19:04","新北市三重區重陽路三段11號","121.48921","25.0667166666667","6500200","三重區"
"241030","480-VK","2017/08/22 21:18:47","新北市三重區五谷王北街42巷2號","121.475746666667","25.048855","6500200","三重區"
"241014","543-UM","2017/08/22 21:19:01","新北市三重區三和路二段173巷47號","121.499246666667","25.0703183333333","6500200","三重區"
"241023","545-UM","2017/08/22 21:18:48","新北市三重區中正北路176巷27號","121.482635","25.065955","6500200","三重區"
"241001","547-UM","2017/08/22 21:18:52","新北市三重區福隆路44號","121.492365","25.07845","6500200","三重區"
"241012","941-UM","2017/08/22 21:18:51","新北市三重區龍門路282號","121.501941666667","25.0741333333333","6500200","三重區"
"241033","AAC-255","2017/08/22 21:18:54","新北市三重區光復路二段102巷37號","121.470195","25.05865","6500200","三重區"
"235026","800-TS","2017/08/22 20:49:39","新北市中和區員山路36巷16-3號","121.484981666667","24.9917433333333","6500300","中和區"
"247020","893-R6","2017/08/22 21:18:51","新北市蘆洲區民族路422巷82弄2號","121.473616666667","25.0937","6501400","蘆洲區"
"247010","546-UM","2017/08/22 21:18:53","新北市蘆洲區鷺江街16-2號","121.47878","25.0824666666667","6501400","蘆洲區"
"247018","500-BY","2017/08/22 21:18:55","新北市蘆洲區復興路105巷11號","121.476413333333","25.0884083333333","6501400","蘆洲區"
"247008","339-TH","2017/08/22 21:18:45","新北市蘆洲區信義路64號","121.475931666667","25.0791816666667","6501400","蘆洲區"
"247024","337-TH","2017/08/22 21:18:55","新北市蘆洲區光明路139號","121.464156666667","25.0885183333333","6501400","蘆洲區"
"247002","336-TH","2017/08/22 21:19:03","新北市蘆洲區永樂街38巷40號","121.458565","25.0900783333333","6501400","蘆洲區"
"247012","335-TH","2017/08/22 21:18:54","新北市蘆洲區民族路236巷8號","121.48033","25.0885833333333","6501400","蘆洲區"
"247014","057-VK","2017/08/22 21:18:55","新北市蘆洲區保和街24號","121.470463333333","25.0867116666667","6501400","蘆洲區"
"247004","056-VK","2017/08/22 21:18:53","新北市蘆洲區永安南路二段322號","121.456963333333","25.0827383333333","6501400","蘆洲區"
"247006","053-VK","2017/08/22 21:18:50","新北市蘆洲區長安街60號","121.463091666667","25.07982","6501400","蘆洲區"
"247022","002-UY","2017/08/22 21:18:55","新北市蘆洲區中正路174巷37號","121.469053333333","25.0884916666667","6501400","蘆洲區"
"247016","001-UY","2017/08/22 21:19:01","新北市蘆洲區光華路46巷51號","121.467363333333","25.0847216666667","6501400","蘆洲區"
"224011","420-VK","2017/08/22 20:49:02","新北市瑞芳區明燈路二段66號","121.80927","25.107565","6501200","瑞芳區"
"251014","180-VK","2017/08/22 21:19:04","新北市淡水區六塊厝3-2號","121.45047","25.2405883333333","6501000","淡水區"
"251008","181-VK","2017/08/22 21:18:52","新北市淡水區水源街二段236號","121.460893333333","25.17628","6501000","淡水區"
"251010","413-VK","2017/08/22 21:18:57","新北市淡水區中正路一段156巷51號","121.421823333333","25.180895","6501000","淡水區"
"251012","441-VK","2017/08/22 21:19:05","新北市淡水區石頭埔8號","121.452611666667","25.234505","6501000","淡水區"
"251016","442-VK","2017/08/22 21:19:00","新北市淡水區淡金路四段81號","121.44974","25.218355","6501000","淡水區"
"251005","443-VK","2017/08/22 21:19:02","新北市淡水區仁愛街18巷4號","121.446908333333","25.17038","6501000","淡水區"
"251001","559-UM","2017/08/22 21:18:55","新北市淡水區中山北路二段375號","121.44409","25.1874116666667","6501000","淡水區"
"251009","575-R6","2017/08/22 21:18:32","新北市淡水區民族路45號","121.46274","25.1353533333333","6501000","淡水區"
"251011","650-BX","2017/08/22 21:19:01","新北市淡水區新民街152巷6弄22號","121.4389","25.17872","6501000","淡水區"
"251002","672-BX","2017/08/22 21:18:49","新北市淡水區學府路172巷21號","121.448291666667","25.17487","6501000","淡水區"
"251003","766-UM","2017/08/22 21:18:52","新北市淡水區新春街85巷25弄35號","121.438803333333","25.18442","6501000","淡水區"
"221012","276-VK","2017/08/22 13:25:14","新北市汐止區汐萬路一段256巷3號","121.653455","25.074615","6501100","汐止區"
"220070","AAC-253","2017/08/22 21:18:54","新北市八里區中山路三段227號","121.381875","25.1403933333333","6500100","板橋區"
