"lineid","car","time","location","longitude","latitude","cityid","cityname"
"232001","290-BY","2017/11/02 08:28:47","新北市坪林區坪雙路一段115號","121.728438333333","24.9481416666667","6502000","坪林區"
"232014","291-BY","2017/11/02 08:28:54","新北市坪林區北宜路七段338號","121.696931666667","24.9348516666667","6502000","坪林區"
"232018","705-BZ","2017/11/02 08:28:57","新北市坪林區坪雙路一段31號","121.711533333333","24.942445","6502000","坪林區"
"244012","069-UM","2017/11/02 08:29:01","新北市林口區中正路478-1號","121.383141666667","25.077615","6501700","林口區"
"244006","080-UY","2017/11/02 08:29:05","新北市林口區湖子17-9號","121.38517","25.0915016666667","6501700","林口區"
"244018","403-UM","2017/11/02 08:29:01","新北市林口區公園路223巷15號","121.373283333333","25.0748216666667","6501700","林口區"
"244024","742-UY","2017/11/02 08:28:59","新北市林口區文化三路一段41-1號","121.360281666667","25.0668766666667","6501700","林口區"
"244008","410-SL","2017/11/02 08:28:57","新北市林口區寶林路269號","121.384563333333","25.0846966666667","6501700","林口區"
"244022","483-VK","2017/11/02 08:29:06","新北市林口區東明一街35巷2號","121.392268333333","25.0720833333333","6501700","林口區"
"244016","485-VK","2017/11/02 08:28:55","新北市林口區文化二路一段230巷5-1號","121.369848333333","25.0721916666667","6501700","林口區"
"244003","657-BX","2017/11/02 08:28:51","新北市林口區下福里2號","121.317143333333","25.1086433333333","6501700","林口區"
"244010","701-TV","2017/11/02 08:29:02","新北市林口區中正路160號","121.392308333333","25.07742","6501700","林口區"
"244021","838-TS","2017/11/02 08:29:08","新北市林口區自強一街113號","121.400788333333","25.076435","6501700","林口區"
"222005","289-BY","2017/11/02 08:28:54","新北市深坑區萬福路147號","121.611003333333","25.0163633333333","6501800","深坑區"
"231069","189-VK","2017/11/02 08:28:59","新北市新店區新潭路三段25號","121.508595","24.914035","6500600","新店區"
"231008","192-VK","2017/11/02 08:29:08","新北市新店區永興路41號","121.543975","24.93792","6500600","新店區"
"235043","352-BY","2017/11/02 08:29:04","新北市中和區南山路283巷2號","121.504325","24.992345","6500300","中和區"
"226005","5620-A6","2017/11/02 08:28:53","新北市平溪區南山里六分8號","121.795368333333","25.0493616666667","6502400","平溪區"
"226002","7418-A5","2017/11/02 08:28:52","新北市平溪區東勢里芊蓁坑30號","121.727491666667","24.979115","6502400","平溪區"
"226003","AGD-0702","2017/11/02 08:29:08","新北市平溪區新寮里頂寮子4號","121.773931666667","25.0516833333333","6502400","平溪區"
"223006","022-BY","2017/11/02 08:28:52","新北市深坑區文山路一段10號","121.642995","25.0086166666667","6501900","石碇區"
"223002","198-BX","2017/11/02 08:28:57","新北市石碇區樟空子10-3號","121.66609","24.963065","6501900","石碇區"
"223003","205-TH","2017/11/02 08:28:57","新北市石碇區北宜路六段直潭巷26號","121.660033333333","24.9348983333333","6501900","石碇區"
"223008","406-TH","2017/11/02 08:28:56","新北市石碇區串空湖9號","121.668876666667","25.0027216666667","6501900","石碇區"
"223001","592-UM","2017/11/02 08:28:58","新北市石碇區北宜路六段柑腳巷2號","121.659608333333","24.9380733333333","6501900","石碇區"
"223004","660-BX","2017/11/02 08:28:58","新北市石碇區碇坪路一段268號","121.675425","24.9775683333333","6501900","石碇區"
"223007","661-BX","2017/11/02 08:29:07","新北市石碇區番子坑103號","121.674743333333","25.0103633333333","6501900","石碇區"
"223005","677-TV","2017/11/02 08:29:11","新北市石碇區碇坪路一段280號","121.675811666667","24.9770983333333","6501900","石碇區"
"253003","6232-TK","2017/11/02 08:28:50","新北市石門區內石門85號","121.569236666667","25.2651283333333","6502200","石門區"
"253001","6251-TK","2017/11/02 08:29:05","新北市石門區下員坑30-3號","121.519658333333","25.282265","6502200","石門區"
"253002","637-UY","2017/11/02 08:29:08","新北市石門區九芎林8號","121.56447","25.2648533333333","6502200","石門區"
"253004","8270-PC","2017/11/02 08:29:01","新北市石門區阿里荖50號","121.609538333333","25.2741633333333","6502200","石門區"
"252004","249-BX","2017/11/02 08:29:07","新北市三芝區興華里車埕2號","121.501193333333","25.2023833333333","6502100","三芝區"
"252007","AAC-283","2017/11/02 08:28:57","新北市三芝區蘭陽街13-1號","121.473551666667","25.242455","6502100","三芝區"
"237001","159-UY","2017/11/02 08:29:07","新北市三峽區學成路286號","121.376881666667","24.94354","6500900","三峽區"
"236009","165-UM","2017/11/02 08:29:05","新北市土城區石門路85-8號","121.466831666667","24.9583266666667","6501300","土城區"
"236003","339-SR","2017/11/02 08:29:00","新北市土城區中州路74號","121.411985","24.9583183333333","6501300","土城區"
"236005","498-BY","2017/11/02 08:29:04","新北市土城區大暖路64號","121.42291","24.9591516666667","6501300","土城區"
"242030","AAC-296","2017/11/02 08:29:10","新北市新莊區新泰路305巷1號","121.44533","25.0409933333333","6500500","新莊區"
"242028","986-R7","2017/11/02 08:28:56","新北市新莊區中平路35號","121.444693333333","25.0438833333333","6500500","新莊區"
"242049","751-BX","2017/11/02 08:28:59","新北市新莊區民本街22號","121.428161666667","25.019735","6500500","新莊區"
"242024","615-BX","2017/11/02 08:28:38","新北市新莊區五權一路7-7號","121.45871","25.0667666666667","6500500","新莊區"
"242022","613-BX","2017/11/02 08:29:08","新北市新莊區化成路344號","121.465751666667","25.0489166666667","6500500","新莊區"
"242026","612-BX","2017/11/02 08:29:02","新北市新莊區思源路385號","121.45976","25.0513916666667","6500500","新莊區"
"242038","566-BX","2017/11/02 08:29:08","新北市新莊區民安西路24巷15號","121.426326666667","25.0208383333333","6500500","新莊區"
"242043","497-BY","2017/11/02 08:28:58","新北市新莊區中正路730-2號","121.414835","25.023935","6500500","新莊區"
"242047","442-UM","2017/11/02 08:28:56","新北市新莊區萬安街77巷7號","121.421626666667","25.0237233333333","6500500","新莊區"
"242052","440-UM","2017/11/02 08:28:54","新北市新莊區民安西路468-1號","121.431695","25.007855","6500500","新莊區"
"242033","415-TV","2017/11/02 08:28:51","新北市新莊區中正路377巷6號","121.446166666667","25.0342716666667","6500500","新莊區"
"242003","413-TV","2017/11/02 08:28:55","新北市新莊區自由街24號","121.455775","25.0470316666667","6500500","新莊區"
"242040","400-BY","2017/11/02 08:29:03","新北市新莊區中正路692-8號","121.419981666667","25.02851","6500500","新莊區"
"242059","362-BY","2017/11/02 08:28:58","新北市新莊區新樹路225號","121.435293333333","25.0228133333333","6500500","新莊區"
"242057","353-BY","2017/11/02 08:28:53","新北市新莊區新北大道七段490號","121.412955","25.029945","6500500","新莊區"
"242006","132-UY","2017/11/02 08:29:06","新北市新莊區中華路二段25號","121.453866666667","25.0460833333333","6500500","新莊區"
"242035","133-UY","2017/11/02 08:29:08","新北市新莊區建福路55號","121.426715","25.027435","6500500","新莊區"
"242020","135-UY","2017/11/02 08:29:11","新北市新莊區建興街56巷1號","121.449931666667","25.038655","6500500","新莊區"
"242045","172-VK","2017/11/02 08:29:00","新北市新莊區福營路167號","121.43181","25.0311016666667","6500500","新莊區"
"242008","173-VK","2017/11/02 08:28:46","新北市新莊區中華路二段209號","121.452343333333","25.05305","6500500","新莊區"
"242014","175-VK","2017/11/02 08:28:54","新北市新莊區中和街59巷28號","121.446216666667","25.0468016666667","6500500","新莊區"
"242001","176-VK","2017/11/02 08:29:09","新北市新莊區思明街5號","121.455426666667","25.0353566666667","6500500","新莊區"
"242012","347-TH","2017/11/02 08:29:06","新北市新莊區中誠街147巷7號","121.448906666667","25.0470233333333","6500500","新莊區"
"242055","349-TH","2017/11/02 08:28:54","新北市新莊區豐年街豐1巷10號","121.44702","25.031135","6500500","新莊區"
"242016","350-TH","2017/11/02 08:28:54","新北市新莊區中港路339巷52號","121.450086666667","25.0451116666667","6500500","新莊區"
"242010","351-TH","2017/11/02 08:29:06","新北市新莊區中港路中慶巷49號","121.448583333333","25.05361","6500500","新莊區"
"220064","282-UM","2017/11/02 08:29:00","新北市八里區下罟子5-11號","121.385876666667","25.145465","6500100","板橋區"
"242018","280-VK","2017/11/02 08:28:58","新北市新莊區明中街47巷15號","121.456911666667","25.0386416666667","6500500","新莊區"
