"lineid","car","time","location","longitude","latitude","cityid","cityname"
"244012","069-UM","2017/11/02 09:19:01","新北市林口區中正路503號","121.383281666667","25.0776466666667","6501700","林口區"
"244006","080-UY","2017/11/02 09:19:05","新北市林口區後湖17-6號","121.386611666667","25.0961216666667","6501700","林口區"
"244018","403-UM","2017/11/02 09:19:01","新北市林口區文化一路一段133號","121.374028333333","25.0718633333333","6501700","林口區"
"244024","742-UY","2017/11/02 09:18:58","新北市林口區中山路143號","121.387568333333","25.0790966666667","6501700","林口區"
"244008","410-SL","2017/11/02 09:18:57","新北市林口區竹林路278巷18號","121.390875","25.0811566666667","6501700","林口區"
"244022","483-VK","2017/11/02 09:19:06","新北市林口區仁愛路二段113號","121.383806666667","25.0749916666667","6501700","林口區"
"244003","657-BX","2017/11/02 09:18:50","新北市林口區湖南里70-9號","121.375476666667","25.0899466666667","6501700","林口區"
"244010","701-TV","2017/11/02 09:19:02","新北市林口區中興街3-1號","121.389095","25.0776266666667","6501700","林口區"
"222005","289-BY","2017/11/02 09:18:55","新北市深坑區北深路一段266-3號","121.62928","25.00999","6501800","深坑區"
"231069","189-VK","2017/11/02 09:18:59","新北市新店區新潭路三段215巷25號","121.508208333333","24.9042433333333","6500600","新店區"
"231008","192-VK","2017/11/02 09:19:09","新北市新店區廣興路60巷35號","121.542368333333","24.91641","6500600","新店區"
"226005","5620-A6","2017/11/02 09:18:53","新北市平溪區嶺腳里中華街7-1號","121.742421666667","25.02552","6502400","平溪區"
"226002","7418-A5","2017/11/02 09:18:51","新北市平溪區靜安路二段520號","121.743905","25.0269633333333","6502400","平溪區"
"223002","198-BX","2017/11/02 09:18:57","新北市石碇區小粗坑(潭邊里)9-2號","121.678623333333","24.9857783333333","6501900","石碇區"
"223003","205-TH","2017/11/02 09:18:57","新北市石碇區北宜路五段6號","121.630358333333","24.9568183333333","6501900","石碇區"
"223008","406-TH","2017/11/02 09:15:56","新北市石碇區光明路17-2號","121.685455","25.0318616666667","6501900","石碇區"
"223001","592-UM","2017/11/02 09:18:58","新北市石碇區北宜路四段26號","121.623086666667","24.9579233333333","6501900","石碇區"
"223004","660-BX","2017/11/02 09:18:58","新北市石碇區碇坪路一段89號","121.662171666667","24.9903216666667","6501900","石碇區"
"223007","661-BX","2017/11/02 09:13:47","新北市石碇區光明路18-6號","121.686716666667","25.0372416666667","6501900","石碇區"
"253003","6232-TK","2017/11/02 09:18:50","新北市石門區尖子鹿45-1號","121.583226666667","25.2685683333333","6502200","石門區"
"253001","6251-TK","2017/11/02 09:19:05","新北市石門區八甲16號","121.525203333333","25.280485","6502200","石門區"
"253002","637-UY","2017/11/02 09:19:08","新北市石門區七股14號","121.547593333333","25.2677116666667","6502200","石門區"
"253004","8270-PC","2017/11/02 09:19:01","新北市石門區草埔尾19-3號","121.602708333333","25.2633833333333","6502200","石門區"
"252004","249-BX","2017/11/02 09:19:07","新北市三芝區興華里田心子7-2號","121.499195","25.2039266666667","6502100","三芝區"
"252007","AAC-283","2017/11/02 09:18:57","新北市三芝區古庄里山豬堀14-2號","121.492205","25.2600233333333","6502100","三芝區"
"236009","165-UM","2017/11/02 09:19:05","新北市土城區中央路三段87號","121.437758333333","24.9680483333333","6501300","土城區"
"236003","339-SR","2017/11/02 09:19:00","新北市土城區中央路二段91號","121.442336666667","24.9780316666667","6501300","土城區"
"236005","498-BY","2017/11/02 09:19:04","新北市土城區中央路三段76巷50弄1號","121.435631666667","24.9692183333333","6501300","土城區"
"242030","AAC-296","2017/11/02 09:19:10","新北市新莊區忠孝街29巷41號","121.443593333333","25.037115","6500500","新莊區"
"242028","986-R7","2017/11/02 09:18:56","新北市新莊區中原路219號","121.45033","25.0542266666667","6500500","新莊區"
"242049","751-BX","2017/11/02 09:18:59","新北市新莊區民安西路94號","121.426946666667","25.0191916666667","6500500","新莊區"
"242024","615-BX","2017/11/02 09:18:58","新北市新莊區化成路906號","121.464576666667","25.0618116666667","6500500","新莊區"
"242022","613-BX","2017/11/02 09:19:05","新北市新莊區化成路254號","121.465605","25.0470866666667","6500500","新莊區"
"242026","612-BX","2017/11/02 09:18:51","新北市新莊區新莊路55號","121.458916666667","25.0368133333333","6500500","新莊區"
"242038","566-BX","2017/11/02 09:19:08","新北市新莊區八德街15巷21號","121.425901666667","25.0220633333333","6500500","新莊區"
"242043","497-BY","2017/11/02 09:18:58","新北市新莊區中正路新建巷28弄71號","121.413666666667","25.0211166666667","6500500","新莊區"
"242047","442-UM","2017/11/02 09:18:58","新北市新莊區龍安路265號","121.420178333333","25.0200116666667","6500500","新莊區"
"242052","440-UM","2017/11/02 09:18:54","新北市新莊區西盛街321號","121.428196666667","25.0148083333333","6500500","新莊區"
"242033","415-TV","2017/11/02 09:19:00","新北市新莊區新泰路129號","121.448141666667","25.0361483333333","6500500","新莊區"
"242003","413-TV","2017/11/02 09:18:57","新北市新莊區化成路554巷30號","121.467481666667","25.0540066666667","6500500","新莊區"
"242040","400-BY","2017/11/02 09:19:03","新北市新莊區中正路694巷24號","121.418138333333","25.02873","6500500","新莊區"
"242059","362-BY","2017/11/02 09:19:09","新北市新莊區瓊林北路6號","121.44081","25.0229533333333","6500500","新莊區"
"242057","353-BY","2017/11/02 09:18:52","新北市新莊區龍安路284號","121.422423333333","25.01905","6500500","新莊區"
"242035","133-UY","2017/11/02 09:19:08","新北市新莊區後港一路56巷12號","121.426498333333","25.025835","6500500","新莊區"
"242020","135-UY","2017/11/02 09:18:51","新北市新莊區公園路14號","121.448063333333","25.0389833333333","6500500","新莊區"
"242045","172-VK","2017/11/02 09:19:06","新北市新莊區裕民街90巷3號","121.41807","25.0237083333333","6500500","新莊區"
"242014","175-VK","2017/11/02 09:18:54","新北市新莊區中和街12號","121.4484","25.04317","6500500","新莊區"
"242001","176-VK","2017/11/02 09:19:03","新北市新莊區中港路2號","121.455033333333","25.0367316666667","6500500","新莊區"
"242001","233-RS","2017/11/02 09:08:59","新北市新莊區環河路48-7號","121.436921666667","25.009825","6500500","新莊區"
"242055","349-TH","2017/11/02 09:19:05","新北市新莊區新莊路713巷48號","121.44425","25.0319966666667","6500500","新莊區"
"242016","350-TH","2017/11/02 09:18:50","新北市新莊區中和街2號","121.44851","25.0428666666667","6500500","新莊區"
"242010","351-TH","2017/11/02 09:19:05","新北市新莊區中榮街102號","121.447248333333","25.0529166666667","6500500","新莊區"
"242018","280-VK","2017/11/02 09:18:58","新北市新莊區銘德街46號","121.457288333333","25.04378","6500500","新莊區"
