"lineid","car","time","location","longitude","latitude","cityid","cityname"
"234044","148-BY","2017/11/02 13:29:39","新北市永和區秀朗路二段249號","121.526275","24.9994583333333","6500400","永和區"
"234012","149-BY","2017/11/02 13:29:33","新北市永和區信義路14-1號","121.514398333333","25.012065","6500400","永和區"
"234005","207-UY","2017/11/02 13:29:47","新北市永和區中山路一段240號","121.50759","25.0079233333333","6500400","永和區"
"234078","298-R6","2017/11/02 13:29:51","新北市永和區福和路5-9號","121.525555","25.0083483333333","6500400","永和區"
"234036","336-UY","2017/11/02 13:29:48","新北市永和區民樂街42號","121.527505","25.0005983333333","6500400","永和區"
"234062","337-UY","2017/11/02 13:29:49","新北市永和區中正路368巷1弄88號","121.520491666667","25.0007733333333","6500400","永和區"
"234084","338-UY","2017/11/02 13:29:48","新北市永和區永利路91-1號","121.521555","25.0032333333333","6500400","永和區"
"234068","552-UM","2017/11/02 13:29:40","新北市永和區中正路666巷59號","121.519063333333","25.0091733333333","6500400","永和區"
"234052","553-UM","2017/11/02 13:29:45","新北市永和區復興街19巷8號","121.51621","25.0132683333333","6500400","永和區"
"234015","745-BX","2017/11/02 13:29:36","新北市永和區環河西路一段1號","121.515321666667","25.0178616666667","6500400","永和區"
"234028","746-BX","2017/11/02 13:29:43","新北市永和區民生路75號","121.52264","24.9970116666667","6500400","永和區"
"234060","AAD-866","2017/11/02 13:29:38","新北市永和區中正路532號","121.517275","25.005255","6500400","永和區"
"234040","862-TW","2017/11/02 13:29:51","新北市永和區中和路519巷12號","121.51089","25.0032416666667","6500400","永和區"
"234048","863-TW","2017/11/02 13:29:38","新北市永和區仁愛路104巷4號","121.512146666667","25.0133866666667","6500400","永和區"
"234025","9371-KE","2017/11/02 13:29:50","新北市永和區中山路一段17巷4弄16號","121.513093333333","25.0101616666667","6500400","永和區"
"234010","9373-KE","2017/11/02 13:29:35","新北市永和區信義路25巷53號","121.51228","25.0115433333333","6500400","永和區"
"248015","026-BX","2017/11/02 13:29:31","新北市五股區凌雲路一段83巷22弄1號","121.449841666667","25.1007516666667","6501500","五股區"
"248005","077-UY","2017/11/02 13:29:45","新北市五股區四維路4號","121.467236666667","25.0708833333333","6501500","五股區"
"248007","095-VK","2017/11/02 13:29:36","新北市五股區四維路185巷46號","121.463383333333","25.0774333333333","6501500","五股區"
"248017","225-UY","2017/11/02 13:29:41","新北市五股區御史路300號","121.41692","25.1097916666667","6501500","五股區"
"248011","247-BX","2017/11/02 13:29:36","新北市五股區御成路148號","121.440883333333","25.0944266666667","6501500","五股區"
"248013","261-SL","2017/11/02 13:29:41","新北市五股區明德路7巷37號","121.434653333333","25.0708283333333","6501500","五股區"
"248009","272-BY","2017/11/02 13:29:41","新北市五股區明德路8號","121.433485","25.0713383333333","6501500","五股區"
"248003","677-BX","2017/11/02 13:29:40","新北市五股區六合街3號","121.431926666667","25.0885466666667","6501500","五股區"
"248001","678-BX","2017/11/02 13:29:38","新北市五股區西雲路148號","121.446158333333","25.0943366666667","6501500","五股區"
"234022","9380-KE","2017/11/02 13:29:47","新北市永和區竹林路91巷47弄5號","121.521103333333","25.0129516666667","6500400","永和區"
"234076","969-R7","2017/11/02 13:29:42","新北市永和區智光街24號","121.517951666667","24.9990783333333","6500400","永和區"
"234072","AAC-211","2017/11/02 13:29:31","新北市永和區光復街60巷4弄10號","121.51697","25.0178266666667","6500400","永和區"
"234066","AAC-212","2017/11/02 13:29:36","新北市永和區保平路113號","121.510853333333","25.0066516666667","6500400","永和區"
"234001","AAC-295","2017/11/02 13:29:39","新北市永和區永和路一段105號","121.513816666667","25.0077583333333","6500400","永和區"
"244003","657-BX","2017/11/02 13:27:41","新北市林口區瑞平里8鄰56號","121.343028333333","25.121615","6501700","林口區"
"243005","AAD-798","2017/11/02 13:29:38","新北市泰山區明志路三段206巷3號","121.423286666667","25.03794","6501600","泰山區"
"243007","380-SR","2017/11/02 12:05:25","新北市泰山區犁頭窠3-1號","121.422446666667","25.0604316666667","6501600","泰山區"
"231002","002-UM","2017/11/02 13:29:40","新北市新店區環河路64號","121.537206666667","24.96273","6500600","新店區"
"231028","046-UY","2017/11/02 13:29:45","新北市新店區安和路一段21號","121.517025","24.9646783333333","6500600","新店區"
"231030","047-UY","2017/11/02 13:29:42","新北市新店區安康路二段1-5號","121.517301666667","24.9638066666667","6500600","新店區"
"231029","106-UY","2017/11/02 13:29:40","新北市新店區安忠路57巷11弄14號","121.515216666667","24.9579433333333","6500600","新店區"
"231011","108-UY","2017/11/02 13:29:42","新北市新店區德正街12號","121.54371","24.972565","6500600","新店區"
"231021","187-VK","2017/11/02 13:29:52","新北市新店區新烏路一段105巷6號","121.545995","24.94095","6500600","新店區"
"231007","189-VK","2017/11/02 11:55:47","新北市新店區安華路28-1號","121.519576666667","24.961315","6500600","新店區"
"231017","KEA-2219","2017/11/02 13:29:51","新北市新店區新烏路一段11巷7號","121.547353333333","24.9513266666667","6500600","新店區"
"231026","256-BX","2017/11/02 13:29:46","新北市新店區光明街22號","121.538053333333","24.9586866666667","6500600","新店區"
"231010","278-BY","2017/11/02 13:29:39","新北市新店區自由街11號","121.53546","24.974955","6500600","新店區"
"231027","3712-VJ","2017/11/02 13:29:50","新北市新店區環河路19巷24號","121.537513333333","24.96021","6500600","新店區"
"231024","3713-VJ","2017/11/02 13:29:42","新北市新店區中正路128巷11號","121.542486666667","24.9720833333333","6500600","新店區"
"231025","4716-K9","2017/11/02 13:29:43","新北市新店區環河路120號","121.536658333333","24.9680666666667","6500600","新店區"
"231038","4715-K9","2017/11/02 13:29:48","新北市新店區安華路30巷1號","121.519568333333","24.9592866666667","6500600","新店區"
"231036","512-UM","2017/11/02 13:29:49","新北市新店區建業路102號","121.478888333333","24.9553","6500600","新店區"
"231023","513-UM","2017/11/02 13:29:44","新北市新店區新店路27-1號","121.539985","24.9527683333333","6500600","新店區"
"231035","515-UM","2017/11/02 00:18:59","新北市新店區安華路28-1號","121.519688333333","24.9612683333333","6500600","新店區"
"231001","619-UM","2017/11/02 13:29:41","新北市新店區環河路29巷1號","121.536906666667","24.9614","6500600","新店區"
"231003","641-BX","2017/11/02 13:29:42","新北市新店區安康路一段17號","121.533156666667","24.9604166666667","6500600","新店區"
"231034","645-TV","2017/11/02 13:29:46","新北市新店區安忠路57巷11弄14號","121.51532","24.957925","6500600","新店區"
"231013","719-UM","2017/11/02 13:29:49","新北市新店區中正路454-5號","121.534466666667","24.9790983333333","6500600","新店區"
"231018","719-UY","2017/11/02 13:29:33","新北市新店區中央路238號","121.529093333333","24.9719066666667","6500600","新店區"
"231031","720-UM","2017/11/02 13:29:38","新北市新店區安忠路205巷8號","121.50913","24.9546233333333","6500600","新店區"
"231005","897-TW","2017/11/02 13:29:40","新北市新店區北新路一段128-3號","121.542443333333","24.9702716666667","6500600","新店區"
"231006","898-TW","2017/11/02 13:29:41","新北市新店區安康路一段132號","121.526705","24.962775","6500600","新店區"
"231004","899-TW","2017/11/02 13:29:44","新北市新店區秀山路4號","121.532893333333","24.96018","6500600","新店區"
"231037","AKT-0513","2017/11/02 13:28:33","新北市新店區薏仁坑路47號","121.491973333333","24.9640633333333","6500600","新店區"
"235030","003-UY","2017/11/02 13:29:35","新北市中和區中山路二段122號","121.502595","25.0037533333333","6500300","中和區"
"235028","005-UY","2017/11/02 13:29:39","新北市中和區圓通路145巷9弄1號","121.498666666667","24.99479","6500300","中和區"
"235027","006-UY","2017/11/02 13:29:33","新北市中和區連城路347巷2弄2號","121.487961666667","24.9959316666667","6500300","中和區"
"235020","096-UM","2017/11/02 13:29:32","新北市中和區新民街104號","121.480816666667","25.0083633333333","6500300","中和區"
"235003","097-UM","2017/11/02 13:29:44","新北市中和區景平路386號","121.510641666667","24.992865","6500300","中和區"
"235029","098-UM","2017/11/02 13:29:48","新北市中和區莊敬路49巷2號","121.50142","25.005475","6500300","中和區"
"235004","150-BY","2017/11/02 13:29:37","新北市中和區安平路59號","121.509441666667","24.9951516666667","6500300","中和區"
"235022","151-BY","2017/11/02 13:29:48","新北市中和區圓通路369巷156弄39號","121.489436666667","24.9820883333333","6500300","中和區"
"235019","183-VK","2017/11/02 13:29:36","新北市中和區民享街283號","121.471128333333","24.996005","6500300","中和區"
"235002","185-VK","2017/11/02 13:29:43","新北市中和區秀朗路三段128巷7弄9號","121.524111666667","24.992635","6500300","中和區"
"235013","186-VK","2017/11/02 13:29:39","新北市中和區中正路273號","121.49562","24.993795","6500300","中和區"
"235031","255-BX","2017/11/02 13:29:42","新北市中和區中正路803號","121.484918333333","25.0009883333333","6500300","中和區"
"235036","301-VK","2017/11/02 13:29:32","新北市中和區連城路265號","121.491306666667","24.9964416666667","6500300","中和區"
"235007","352-BY","2017/11/02 13:29:37","新北市中和區景平路293-1號","121.50705","24.993035","6500300","中和區"
"235032","377-QA","2017/11/02 13:28:05","新北市中和區中正路305號","121.492555","24.9935483333333","6500300","中和區"
"235025","378-QA","2017/11/02 13:29:44","新北市中和區民享街97巷18號","121.475145","24.9999466666667","6500300","中和區"
"235014","4979-A6","2017/11/02 13:29:42","新北市中和區景新街410巷18弄4號","121.512128333333","24.9892766666667","6500300","中和區"
"235033","4980-A6","2017/11/02 13:29:49","新北市中和區連城路89巷18號","121.497156666667","24.9990866666667","6500300","中和區"
"235006","551-UM","2017/11/02 13:29:44","新北市中和區景平路64巷26號","121.52242","24.991555","6500300","中和區"
"235034","558-UM","2017/11/02 13:29:46","新北市中和區圓通路77號","121.500046666667","24.9968166666667","6500300","中和區"
"235009","565-BX","2017/11/02 13:29:46","新北市中和區復興路47號","121.504745","24.98995","6500300","中和區"
"235018","640-BX","2017/11/02 13:29:47","新北市中和區民享街90巷1號","121.474763333333","25.000285","6500300","中和區"
"235011","732-UM","2017/11/02 13:29:38","新北市中和區板南路218號","121.498055","24.9939966666667","6500300","中和區"
"235010","733-UM","2017/11/02 13:29:39","新北市中和區錦和路350-1號","121.490516666667","24.9935783333333","6500300","中和區"
"235026","800-TS","2017/11/02 13:29:34","新北市中和區景平路758號","121.496358333333","25.00475","6500300","中和區"
"235021","801-TS","2017/11/02 13:29:34","新北市中和區民享街97巷21號","121.47537","24.999525","6500300","中和區"
"235005","802-TS","2017/11/02 13:29:46","新北市中和區中安街80號","121.512146666667","25.0018466666667","6500300","中和區"
"235016","805-TS","2017/11/02 13:29:48","新北市中和區興南路二段96號","121.505161666667","24.9841183333333","6500300","中和區"
"235012","896-TW","2017/11/02 13:29:49","新北市中和區中正路637巷52弄1號","121.485545","24.9936383333333","6500300","中和區"
"235017","900-TW","2017/11/02 13:29:40","新北市中和區民享街457號","121.470383333333","24.9931966666667","6500300","中和區"
"235024","911-UM","2017/11/02 13:29:45","新北市中和區員山路128號","121.48116","24.9961","6500300","中和區"
"235001","157-BY","2017/11/02 13:29:46","新北市中和區華新街232巷25號","121.505723333333","24.9821983333333","6500300","中和區"
"235001","AAC-213","2017/11/02 13:29:36","新北市中和區景新街383巷62號","121.514671666667","24.99049","6500300","中和區"
"235023","AAC-215","2017/11/02 13:27:13","新北市中和區員山路36巷16-2號","121.485323333333","24.9917033333333","6500300","中和區"
"220016","013-TV","2017/11/02 13:29:44","新北市板橋區民生路二段171號","121.46996","25.0202116666667","6500100","板橋區"
"220013","072-UY","2017/11/02 13:29:46","新北市板橋區華東街1-9號","121.448118333333","24.994935","6500100","板橋區"
"220034","073-UY","2017/11/02 13:29:43","新北市板橋區南雅南路二段122號","121.451615","24.9986816666667","6500100","板橋區"
"247009","339-TH","2017/11/02 13:29:42","新北市蘆洲區長安街73巷31號","121.462233333333","25.0786883333333","6501400","蘆洲區"
"247003","336-TH","2017/11/02 13:29:41","新北市五股區中興路三段198號","121.44111","25.0821283333333","6501400","蘆洲區"
"247007","053-VK","2017/11/02 13:29:38","新北市五股區中興路三段163號","121.449355","25.08061","6501400","蘆洲區"
"247017","001-UY","2017/11/02 13:29:35","新北市五股區中興路三段163號","121.449505","25.0805566666667","6501400","蘆洲區"
"223003","205-TH","2017/11/02 09:54:57","新北市石碇區小粗坑(潭邊里)9-1號","121.677778333333","24.98478","6501900","石碇區"
"228005","097-TW","2017/11/02 13:29:48","新北市貢寮區美豐里文秀坑8號","121.902123333333","25.050295","6502600","貢寮區"
"228004","212-TW","2017/11/02 13:29:43","新北市貢寮區龍崗里石壁坑街17號","121.910388333333","24.9894416666667","6502600","貢寮區"
"208004","AAC-292","2017/11/02 13:29:48","新北市金山區南勢湖67號","121.616091666667","25.215135","6502700","金山區"
"207002","749-BX","2017/11/02 13:29:38","新北市萬里區崁腳里崁腳路166號","121.645263333333","25.1561883333333","6502800","萬里區"
"252005","073-UM","2017/11/02 13:29:44","新北市三芝區福德里土地公埔67-3號","121.519923333333","25.2277816666667","6502100","三芝區"
"207001","662-BX","2017/11/02 13:27:52","新北市萬里區龜吼里石角路40號","121.684238333333","25.1919483333333","6502800","萬里區"
"236005","498-BY","2017/11/02 13:29:39","新北市土城區亞洲路11巷1弄19號","121.435628333333","24.9718316666667","6501300","土城區"
"242001","233-RS","2017/11/02 09:08:59","新北市新莊區環河路48-7號","121.436921666667","25.009825","6500500","新莊區"
"238021","KEA-2217","2017/11/02 13:29:34","新北市樹林區育德街78-1號","121.388323333333","24.96818","6500700","樹林區"
"221012","276-VK","2017/11/02 13:14:44","新北市汐止區汐萬路一段256巷3號","121.653451666667","25.074595","6501100","汐止區"
"221032","280-BY","2017/11/02 13:29:36","新北市汐止區水源路一段56號","121.657421666667","25.0656633333333","6501100","汐止區"
"220027","145-BY","2017/11/02 13:29:50","新北市板橋區板城路421號","121.448153333333","24.9957033333333","6500100","板橋區"
"220030","610-BX","2017/11/02 13:29:37","新北市板橋區華東街1-10號","121.448251666667","24.994945","6500100","板橋區"
"220043","285-UM","2017/11/02 13:29:37","新北市板橋區民生路二段161巷1號","121.470136666667","25.0199883333333","6500100","板橋區"
"220029","287-VK","2017/11/02 13:29:42","新北市板橋區華東街1-10號","121.448225","24.9950316666667","6500100","板橋區"
"220012","486-VK","2017/11/02 13:29:46","新北市板橋區南雅南路二段144巷38號","121.450511666667","24.9959616666667","6500100","板橋區"
"220104","560-BX","2017/11/02 13:29:35","新北市板橋區南雅西路一段53巷10號","121.452626666667","25.0054083333333","6500100","板橋區"
"220005","686-BX","2017/11/02 13:29:49","新北市板橋區華東街1-9號","121.448236666667","24.994865","6500100","板橋區"
"220025","687-BX","2017/11/02 13:29:44","新北市板橋區華東街1-10號","121.448303333333","24.9950116666667","6500100","板橋區"
"220002","741-BX","2017/11/02 13:29:44","新北市板橋區華東街1-9號","121.44806","24.9949466666667","6500100","板橋區"
"220022","895-R6","2017/11/02 13:29:46","新北市板橋區華東街1-9號","121.448178333333","24.9949766666667","6500100","板橋區"
"220018","AAC-253","2017/11/02 13:29:51","新北市板橋區華東街1-9號","121.448245","24.9948666666667","6500100","板橋區"
