"lineid","car","time","location","longitude","latitude","cityid","cityname"
"234044","148-BY","2017/11/02 13:59:39","新北市永和區成功路一段89號","121.526928333333","25.0028766666667","6500400","永和區"
"234012","149-BY","2017/11/02 13:59:33","新北市永和區保生路55號","121.504746666667","25.01059","6500400","永和區"
"234005","207-UY","2017/11/02 13:59:47","新北市永和區中和路499號","121.51061","25.0022216666667","6500400","永和區"
"234078","298-R6","2017/11/02 13:59:51","新北市永和區國中路12號","121.524371666667","25.00494","6500400","永和區"
"234036","336-UY","2017/11/02 13:59:48","新北市永和區成功路二段159號","121.526705","24.9973666666667","6500400","永和區"
"234062","337-UY","2017/11/02 13:59:49","新北市永和區中正路412巷20弄9號","121.518663333333","25.0018166666667","6500400","永和區"
"234084","338-UY","2017/11/02 13:59:48","新北市永和區福和路256號","121.518495","25.0075783333333","6500400","永和區"
"234068","552-UM","2017/11/02 13:59:38","新北市永和區國光路39號","121.519165","25.0082383333333","6500400","永和區"
"234052","553-UM","2017/11/02 13:59:45","新北市永和區竹林路39巷3號","121.518111666667","25.014345","6500400","永和區"
"234015","745-BX","2017/11/02 13:59:42","新北市永和區文化路123號","121.512201666667","25.015325","6500400","永和區"
"234028","746-BX","2017/11/02 13:59:35","新北市永和區民生路47巷33號","121.525066666667","24.9977833333333","6500400","永和區"
"234060","AAD-866","2017/11/02 13:59:38","新北市永和區中正路151巷14號","121.5156","24.9988783333333","6500400","永和區"
"234040","862-TW","2017/11/02 13:59:43","新北市永和區中和路389巷5號","121.507976666667","25.0005366666667","6500400","永和區"
"234048","863-TW","2017/11/02 13:59:49","新北市永和區保安路256號","121.506115","25.0125133333333","6500400","永和區"
"234010","9373-KE","2017/11/02 13:59:35","新北市永和區仁愛路352巷112弄7號","121.50075","25.0084716666667","6500400","永和區"
"249005","172-UM","2017/11/02 13:59:35","新北市八里區中華路二段341號","121.401121666667","25.1457133333333","6502300","八里區"
"248015","026-BX","2017/11/02 13:59:34","新北市五股區成泰路三段543巷12弄6號","121.451236666667","25.102135","6501500","五股區"
"248007","095-VK","2017/11/02 13:59:51","新北市五股區中興路一段118巷6弄3號","121.466233333333","25.074155","6501500","五股區"
"248017","225-UY","2017/11/02 13:59:41","新北市五股區民義路一段287巷2-2號","121.423883333333","25.0910566666667","6501500","五股區"
"248011","247-BX","2017/11/02 13:59:36","新北市五股區成泰路二段195巷1號","121.440436666667","25.0874066666667","6501500","五股區"
"248009","272-BY","2017/11/02 13:59:41","新北市五股區水碓三路19號","121.42953","25.0708533333333","6501500","五股區"
"248003","677-BX","2017/11/02 13:59:40","新北市五股區民義路二段50-19號","121.412638333333","25.10237","6501500","五股區"
"248001","678-BX","2017/11/02 13:59:38","新北市五股區凌雲路一段161號","121.448996666667","25.1025733333333","6501500","五股區"
"234022","9380-KE","2017/11/02 13:59:47","新北市永和區復興街7號","121.515893333333","25.01297","6500400","永和區"
"234076","969-R7","2017/11/02 13:59:22","新北市永和區民族街43巷8號","121.518938333333","24.9983666666667","6500400","永和區"
"234072","AAC-211","2017/11/02 13:59:31","新北市永和區豫溪街185號","121.522518333333","25.0103716666667","6500400","永和區"
"234066","AAC-212","2017/11/02 13:59:36","新北市永和區永貞路358號","121.51019","25.00654","6500400","永和區"
"234001","AAC-295","2017/11/02 13:59:39","新北市永和區福和路315號","121.516021666667","25.007175","6500400","永和區"
"244003","657-BX","2017/11/02 13:59:41","新北市林口區後坑38號","121.354741666667","25.1313583333333","6501700","林口區"
"243005","AAD-798","2017/11/02 13:59:38","新北市泰山區明志路三段257號","121.423325","25.037405","6501600","泰山區"
"243007","380-SR","2017/11/02 13:59:34","新北市泰山區明志路一段210號","121.4327","25.06159","6501600","泰山區"
"243006","421-VK","2017/11/02 13:59:44","新北市泰山區黎明路23-1號","121.421393333333","25.06117","6501600","泰山區"
"243002","KEA-2215","2017/11/02 13:59:47","新北市泰山區辭修路30號","121.428958333333","25.05827","6501600","泰山區"
"243003","KEA-2216","2017/11/02 13:59:31","新北市泰山區明志路二段298巷10號","121.426065","25.0466466666667","6501600","泰山區"
"243004","646-TV","2017/11/02 13:59:36","新北市泰山區仁德路110號","121.432691666667","25.0569233333333","6501600","泰山區"
"243008","680-BX","2017/11/02 13:59:42","新北市泰山區明志路二段135號","121.427683333333","25.050795","6501600","泰山區"
"231002","002-UM","2017/11/02 13:59:40","新北市新店區中正路689號","121.533943333333","24.9905166666667","6500600","新店區"
"231028","046-UY","2017/11/02 13:59:45","新北市新店區安和路三段123號","121.517423333333","24.9851866666667","6500600","新店區"
"231030","047-UY","2017/11/02 13:59:42","新北市新店區安興路7-1號","121.515023333333","24.9685633333333","6500600","新店區"
"231029","106-UY","2017/11/02 13:59:40","新北市新店區安康路二段2號","121.51648","24.9638116666667","6500600","新店區"
"231011","108-UY","2017/11/02 13:59:42","新北市新店區中興路一段282-5號","121.54622","24.96816","6500600","新店區"
"231021","187-VK","2017/11/02 13:59:31","新北市新店區自強路74巷8號","121.545405","24.9251166666667","6500600","新店區"
"231007","189-VK","2017/11/02 11:55:47","新北市新店區安華路28-1號","121.519576666667","24.961315","6500600","新店區"
"231017","KEA-2219","2017/11/02 13:59:31","新北市新店區北宜路二段82-40號","121.553398333333","24.95308","6500600","新店區"
"231026","256-BX","2017/11/02 13:59:46","新北市新店區安康路一段35-5號","121.531903333333","24.9606633333333","6500600","新店區"
"231027","3712-VJ","2017/11/02 13:59:50","新北市新店區北宜路一段3號","121.538506666667","24.9584483333333","6500600","新店區"
"231024","3713-VJ","2017/11/02 13:59:42","新北市新店區新生街13巷10號","121.539533333333","24.9660166666667","6500600","新店區"
"231025","4716-K9","2017/11/02 13:59:43","新北市新店區中央路9號","121.533423333333","24.9785566666667","6500600","新店區"
"231038","4715-K9","2017/11/02 13:59:48","新北市新店區溪洲路121號","121.531333333333","24.96268","6500600","新店區"
"231036","512-UM","2017/11/02 13:59:49","新北市新店區安祥路109巷5號","121.475635","24.9588766666667","6500600","新店區"
"231023","513-UM","2017/11/02 13:59:36","新北市新店區文中路40號","121.539663333333","24.9565816666667","6500600","新店區"
"231035","515-UM","2017/11/02 13:59:39","新北市新店區安忠路40號","121.513218333333","24.9598266666667","6500600","新店區"
"231001","619-UM","2017/11/02 13:59:41","新北市新店區三民路24號","121.537051666667","24.97098","6500600","新店區"
"231003","641-BX","2017/11/02 13:59:42","新北市新店區北宜路一段3號","121.538533333333","24.9583883333333","6500600","新店區"
"231034","645-TV","2017/11/02 13:59:46","新北市新店區達觀路41號","121.502785","24.938865","6500600","新店區"
"231013","719-UM","2017/11/02 13:59:49","新北市新店區明德路64號","121.541611666667","24.9795066666667","6500600","新店區"
"231018","719-UY","2017/11/02 13:59:33","新北市新店區百忍街90號","121.53269","24.9771583333333","6500600","新店區"
"231031","720-UM","2017/11/02 13:59:38","新北市新店區秀山路72號","121.531363333333","24.9608716666667","6500600","新店區"
"231005","897-TW","2017/11/02 13:59:40","新北市新店區寶中路47-3號","121.545485","24.97938","6500600","新店區"
"231006","898-TW","2017/11/02 13:59:41","新北市新店區北宜路二段205號","121.55307","24.9533666666667","6500600","新店區"
"231004","899-TW","2017/11/02 13:59:44","新北市新店區寶橋路6巷4號","121.543196666667","24.9735666666667","6500600","新店區"
"231037","AKT-0513","2017/11/02 13:59:44","新北市新店區安康路三段165巷2弄4號","121.489426666667","24.95137","6500600","新店區"
"235030","003-UY","2017/11/02 13:59:35","新北市中和區中山路二段131巷10弄4號","121.502768333333","25.0023216666667","6500300","中和區"
"235028","005-UY","2017/11/02 13:59:38","新北市中和區泰和街38號","121.499305","25.0000516666667","6500300","中和區"
"235027","006-UY","2017/11/02 13:59:32","新北市中和區中正路578號","121.486078333333","24.994755","6500300","中和區"
"235020","096-UM","2017/11/02 13:59:52","新北市中和區員山路516號","121.479016666667","25.009515","6500300","中和區"
"235003","097-UM","2017/11/02 13:59:44","新北市中和區景平路64巷14弄15號","121.522725","24.9913566666667","6500300","中和區"
"235029","098-UM","2017/11/02 13:59:39","新北市中和區勝利路1號","121.500066666667","25.008195","6500300","中和區"
"235004","150-BY","2017/11/02 13:59:37","新北市中和區保健路46巷26弄24號","121.507953333333","24.9956566666667","6500300","中和區"
"235022","151-BY","2017/11/02 13:59:48","新北市中和區連城路532號","121.475708333333","24.9915933333333","6500300","中和區"
"235019","183-VK","2017/11/02 13:59:36","新北市板橋區民族路276巷13號","121.469763333333","25.0060166666667","6500300","中和區"
"235002","185-VK","2017/11/02 13:59:43","新北市中和區大勇街31巷23號","121.517066666667","24.9945533333333","6500300","中和區"
"235013","186-VK","2017/11/02 13:59:39","新北市中和區景新街210巷5號","121.50706","24.9948883333333","6500300","中和區"
"235031","255-BX","2017/11/02 13:59:42","新北市中和區新生街266號","121.483456666667","24.997225","6500300","中和區"
"235008","293-VK","2017/11/02 13:59:43","新北市中和區中興街165號","121.499828333333","24.9906916666667","6500300","中和區"
"235036","301-VK","2017/11/02 13:59:32","新北市中和區中山路二段195號","121.499888333333","25.0027016666667","6500300","中和區"
"235007","352-BY","2017/11/02 13:59:37","新北市中和區秀朗路三段93號","121.526546666667","24.9953233333333","6500300","中和區"
"235032","377-QA","2017/11/02 13:59:25","新北市中和區中正路211巷32弄20號","121.496501666667","24.992335","6500300","中和區"
"235025","378-QA","2017/11/02 13:59:50","新北市中和區中山路三段63巷2號","121.476841666667","25.004925","6500300","中和區"
"235014","4979-A6","2017/11/02 13:59:42","新北市中和區華新街2-6號","121.507436666667","24.9852133333333","6500300","中和區"
"235033","4980-A6","2017/11/02 13:59:49","新北市中和區中和路217巷1弄1號","121.50404","25.0003466666667","6500300","中和區"
"235006","551-UM","2017/11/02 13:59:44","新北市中和區秀朗路三段10巷29弄11號","121.52509","24.9959633333333","6500300","中和區"
"235034","558-UM","2017/11/02 13:59:46","新北市中和區中和路100號","121.501843333333","24.9995366666667","6500300","中和區"
"235009","565-BX","2017/11/02 13:59:46","新北市中和區景新街467巷4號","121.513676666667","24.9881166666667","6500300","中和區"
"235018","640-BX","2017/11/02 13:59:46","新北市中和區民享街3號","121.473895","25.005745","6500300","中和區"
"235011","732-UM","2017/11/02 13:59:37","新北市中和區興南路二段54巷11弄2號","121.505703333333","24.98566","6500300","中和區"
"235010","733-UM","2017/11/02 13:59:38","新北市中和區興南路一段135巷22弄4號","121.509128333333","24.9868616666667","6500300","中和區"
"235026","800-TS","2017/11/02 13:59:34","新北市中和區中山路二段340巷62號","121.492995","25.004675","6500300","中和區"
"235021","801-TS","2017/11/02 13:59:34","新北市中和區民安街65巷2號","121.478666666667","24.9995716666667","6500300","中和區"
"235005","802-TS","2017/11/02 13:59:46","新北市中和區中安街178巷2號","121.511126666667","24.9996033333333","6500300","中和區"
"235016","805-TS","2017/11/02 13:59:33","新北市中和區興南路二段244號","121.503326666667","24.982065","6500300","中和區"
"235012","896-TW","2017/11/02 13:59:49","新北市中和區華新街57號","121.507963333333","24.9842783333333","6500300","中和區"
"235017","900-TW","2017/11/02 13:59:51","新北市中和區壽德街33-3號","121.466405","24.9946466666667","6500300","中和區"
"235024","911-UM","2017/11/02 13:59:51","新北市中和區中山路三段87號","121.475691666667","25.0059033333333","6500300","中和區"
"235001","157-BY","2017/11/02 13:59:46","新北市中和區忠孝街4號","121.509975","24.9827333333333","6500300","中和區"
"235001","AAC-213","2017/11/02 13:59:49","新北市中和區自立路99巷4號","121.52237","24.9947716666667","6500300","中和區"
"235023","AAC-215","2017/11/02 13:59:34","新北市中和區圓通路369巷14弄12號","121.490068333333","24.987705","6500300","中和區"
"220016","013-TV","2017/11/02 13:59:44","新北市板橋區中山路二段437號","121.4813","25.0201","6500100","板橋區"
"220013","072-UY","2017/11/02 13:59:48","新北市板橋區漢生東路340巷11號","121.471445","25.0072316666667","6500100","板橋區"
"220034","073-UY","2017/11/02 13:59:43","新北市板橋區民權路328-4號","121.456786666667","25.016455","6500100","板橋區"
"220105","075-UY","2017/11/02 13:59:35","新北市板橋區文化路二段124巷28-2號","121.471213333333","25.0257316666667","6500100","板橋區"
"220017","AAD-861","2017/11/02 13:59:39","新北市板橋區華興街66號","121.457483333333","25.004915","6500100","板橋區"
"247019","500-BY","2017/11/02 13:59:48","新北市蘆洲區民族路422巷29號","121.47344","25.0933333333333","6501400","蘆洲區"
"247009","339-TH","2017/11/02 13:59:47","新北市蘆洲區集賢路226號","121.482426666667","25.0865666666667","6501400","蘆洲區"
"247001","337-TH","2017/11/02 13:59:29","新北市蘆洲區永平街32巷74號","121.460581666667","25.0935533333333","6501400","蘆洲區"
"247003","336-TH","2017/11/02 13:59:45","新北市蘆洲區長安街98巷8號","121.462565","25.08132","6501400","蘆洲區"
"247015","057-VK","2017/11/02 13:59:37","新北市蘆洲區光華路43號","121.468958333333","25.0828616666667","6501400","蘆洲區"
"247005","056-VK","2017/11/02 13:59:43","新北市蘆洲區永安南路二段76號","121.464713333333","25.0782066666667","6501400","蘆洲區"
"247007","053-VK","2017/11/02 13:59:38","新北市蘆洲區永安北路二段12巷1號","121.481256666667","25.0807633333333","6501400","蘆洲區"
"247013","007-UY","2017/11/02 13:59:33","新北市蘆洲區中正路100號","121.46981","25.0843283333333","6501400","蘆洲區"
"247017","001-UY","2017/11/02 13:59:43","新北市蘆洲區民族路327巷140號","121.475441666667","25.0893416666667","6501400","蘆洲區"
"223003","205-TH","2017/11/02 09:54:57","新北市石碇區小粗坑(潭邊里)9-1號","121.677778333333","24.98478","6501900","石碇區"
"228005","097-TW","2017/11/02 13:59:40","新北市貢寮區美豐里雞母嶺街52-1號","121.888545","25.0685116666667","6502600","貢寮區"
"228004","212-TW","2017/11/02 13:59:43","新北市貢寮區龍崗里嵩陽街35-1號","121.906758333333","25.017545","6502600","貢寮區"
"208004","AAC-292","2017/11/02 13:59:48","新北市金山區重和里茅埔頭9-1號","121.60543","25.21864","6502700","金山區"
"207002","749-BX","2017/11/02 13:58:58","新北市萬里區溪底里烏塗炭12號","121.635623333333","25.1505883333333","6502800","萬里區"
"252005","073-UM","2017/11/02 13:59:44","新北市三芝區圓山里內柑宅25-2號","121.538381666667","25.22704","6502100","三芝區"
"207001","662-BX","2017/11/02 13:59:52","新北市萬里區磺潭里清水18號","121.637776666667","25.1977266666667","6502800","萬里區"
"236066","105-UM","2017/11/02 13:59:33","新北市土城區員福街52號","121.440391666667","24.97916","6501300","土城區"
"236040","107-UM","2017/11/02 13:59:41","新北市土城區裕生路61號","121.447633333333","24.9860583333333","6501300","土城區"
"236076","166-UM","2017/11/02 13:59:46","新北市土城區永寧路32巷10弄3號","121.428868333333","24.9609483333333","6501300","土城區"
"236028","253-BX","2017/11/02 13:59:47","新北市土城區城林路6巷80號","121.4385","24.97984","6501300","土城區"
"236024","269-VK","2017/11/02 13:59:32","新北市土城區承天路67號","121.439638333333","24.96347","6501300","土城區"
"236012","270-VK","2017/11/02 13:59:45","新北市土城區城林路6巷80號","121.438386666667","24.9798","6501300","土城區"
"236033","271-VK","2017/11/02 13:59:44","新北市土城區城林路6巷80號","121.438585","24.979775","6501300","土城區"
"236018","401-BY","2017/11/02 13:59:36","新北市土城區城林路6巷80號","121.438578333333","24.9797766666667","6501300","土城區"
"236005","498-BY","2017/11/02 13:59:38","新北市土城區中央路一段365巷27弄1號","121.446636666667","24.979875","6501300","土城區"
"236047","752-BX","2017/11/02 13:59:38","新北市土城區城林路6巷80號","121.438798333333","24.9796816666667","6501300","土城區"
"236056","912-UM","2017/11/02 13:59:48","新北市土城區中央路三段188號","121.430433333333","24.9649266666667","6501300","土城區"
"236060","915-UM","2017/11/02 13:59:48","新北市土城區城林路6巷80號","121.43847","24.9798583333333","6501300","土城區"
"236052","AAC-216","2017/11/02 13:59:32","新北市土城區城林路6巷80號","121.438415","24.9798383333333","6501300","土城區"
"242001","233-RS","2017/11/02 09:08:59","新北市新莊區環河路48-7號","121.436921666667","25.009825","6500500","新莊區"
"221012","276-VK","2017/11/02 13:14:44","新北市汐止區汐萬路一段256巷3號","121.653451666667","25.074595","6501100","汐止區"
"220027","145-BY","2017/11/02 13:59:50","新北市板橋區民權路202巷7弄2號","121.460053333333","25.014735","6500100","板橋區"
"220028","200-UY","2017/11/02 13:59:42","新北市板橋區大觀路二段265巷20弄1號","121.44277","24.9981733333333","6500100","板橋區"
"220030","610-BX","2017/11/02 13:59:37","新北市板橋區篤行路三段74號","121.42698","24.9853233333333","6500100","板橋區"
"220050","245-BX","2017/11/02 13:59:44","新北市板橋區文化路二段182巷3弄1號","121.471368333333","25.027295","6500100","板橋區"
"220004","276-BY","2017/11/02 13:59:46","新北市板橋區信義路98號","121.458113333333","24.992855","6500100","板橋區"
"220020","277-BY","2017/11/02 13:59:35","新北市板橋區大觀路三段50巷59號","121.431811666667","24.9960333333333","6500100","板橋區"
"220019","283-VK","2017/11/02 13:59:52","新北市板橋區重慶路243號","121.463088333333","25.0005916666667","6500100","板橋區"
"220043","285-UM","2017/11/02 13:59:37","新北市板橋區文化路二段39號","121.468933333333","25.0249933333333","6500100","板橋區"
"220001","285-VK","2017/11/02 13:59:47","新北市板橋區中山路二段89巷39號","121.473696666667","25.0171133333333","6500100","板橋區"
"220031","286-VK","2017/11/02 13:59:38","新北市板橋區大觀路一段38巷156弄51號","121.44277","25.0062366666667","6500100","板橋區"
"220029","287-VK","2017/11/02 13:59:42","新北市板橋區光華街19巷68號","121.452938333333","25.01194","6500100","板橋區"
"220039","288-VK","2017/11/02 13:59:42","新北市板橋區四維路177巷2弄1號","121.46396","25.0262583333333","6500100","板橋區"
"220009","295-UM","2017/11/02 13:59:38","新北市板橋區永豐街120巷2弄11號","121.476331666667","25.0201683333333","6500100","板橋區"
"220032","296-UM","2017/11/02 13:59:47","新北市板橋區大觀路二段174巷116弄49號","121.442468333333","25.0012783333333","6500100","板橋區"
"220023","297-UM","2017/11/02 13:59:44","新北市板橋區館前西路269號","121.453535","25.008705","6500100","板橋區"
"220010","303-R5","2017/11/02 13:59:53","新北市板橋區三民路二段245巷49號","121.48063","25.0125916666667","6500100","板橋區"
"220041","307-R5","2017/11/02 13:59:49","新北市板橋區文化路一段136巷8弄10號","121.465615","25.0181716666667","6500100","板橋區"
"220047","317-R6","2017/11/02 13:59:47","新北市板橋區民有街34號","121.465963333333","25.02547","6500100","板橋區"
"220012","486-VK","2017/11/02 13:59:46","新北市板橋區板新路159號","121.469703333333","25.015735","6500100","板橋區"
"220038","487-VK","2017/11/02 13:59:48","新北市板橋區文化路二段317號","121.472211666667","25.02978","6500100","板橋區"
"220037","491-VK","2017/11/02 13:59:46","新北市板橋區民生路二段216號","121.46936","25.02156","6500100","板橋區"
"220104","560-BX","2017/11/02 13:59:35","新北市板橋區中正路341巷28號","121.454173333333","25.020055","6500100","板橋區"
"220052","561-BX","2017/11/02 13:59:42","新北市板橋區介壽街118號","121.469848333333","25.0178166666667","6500100","板橋區"
"220011","609-BX","2017/11/02 13:59:35","新北市板橋區中山路二段123號","121.474903333333","25.0164333333333","6500100","板橋區"
"220040","637-BX","2017/11/02 13:59:33","新北市板橋區大同街37號","121.478016666667","25.0273366666667","6500100","板橋區"
"220005","686-BX","2017/11/02 13:59:49","新北市板橋區重慶路91號","121.462045","25.00599","6500100","板橋區"
"220025","687-BX","2017/11/02 13:59:44","新北市板橋區大觀路二段443-2號","121.439155","24.9950233333333","6500100","板橋區"
"220042","689-BX","2017/11/02 13:59:52","新北市板橋區民生路三段142號","121.466275","25.0271333333333","6500100","板橋區"
"220002","741-BX","2017/11/02 13:59:44","新北市板橋區後埔街79號","121.46067","25.0055633333333","6500100","板橋區"
"220003","827-TW","2017/11/02 13:59:45","新北市板橋區中山路一段158巷31號","121.46666","25.011075","6500100","板橋區"
"220014","829-TW","2017/11/02 13:59:41","新北市板橋區三民路二段正泰3巷23號","121.477811666667","25.0141683333333","6500100","板橋區"
"220051","830-TW","2017/11/02 13:59:47","新北市板橋區懷德街233巷8號","121.480898333333","25.028735","6500100","板橋區"
"220045","831-TW","2017/11/02 13:59:34","新北市板橋區莒光路95號","121.472356666667","25.02402","6500100","板橋區"
"220022","895-R6","2017/11/02 13:59:46","新北市板橋區館前西路158-8號","121.454575","25.00868","6500100","板橋區"
"220021","985-R7","2017/11/02 13:59:43","新北市板橋區館前西路267號","121.453866666667","25.0086833333333","6500100","板橋區"
"220046","AAC-210","2017/11/02 13:59:50","新北市板橋區漢生西路197號","121.463101666667","25.0242833333333","6500100","板橋區"
"220018","AAC-253","2017/11/02 13:59:31","新北市板橋區四川路一段353號","121.458326666667","24.9998466666667","6500100","板橋區"
