"lineid","car","time","location","longitude","latitude","cityid","cityname"
"249005","172-UM","2017/11/02 17:19:14","新北市五股區凌雲路三段130號","121.417263333333","25.1279883333333","6502300","八里區"
"249001","173-UM","2017/11/02 17:16:31","新北市八里區中華路二段165巷3號","121.407695","25.15077","6502300","八里區"
"249004","303-UY","2017/11/02 17:19:17","新北市八里區中山路一段90號","121.421038333333","25.1597316666667","6502300","八里區"
"249003","593-UM","2017/11/02 17:19:06","新北市八里區商港路82號","121.395448333333","25.1464266666667","6502300","八里區"
"244013","069-UM","2017/11/02 17:18:58","新北市林口區粉寮69號","121.40504","25.090885","6501700","林口區"
"244007","080-UY","2017/11/02 17:19:08","新北市林口區文化北路二段616號","121.379395","25.094425","6501700","林口區"
"244019","403-UM","2017/11/02 17:19:18","新北市林口區公園路223巷2號","121.373923333333","25.07489","6501700","林口區"
"244009","410-SL","2017/11/02 17:19:19","新北市林口區文化北路二段550巷20弄37號","121.377928333333","25.0912966666667","6501700","林口區"
"244023","483-VK","2017/11/02 17:19:09","新北市林口區仁愛路一段667巷43號","121.387038333333","25.0763033333333","6501700","林口區"
"244011","701-TV","2017/11/02 17:19:21","新北市林口區粉寮路二段160巷28號","121.40518","25.09078","6501700","林口區"
"244021","838-TS","2017/11/02 17:19:06","新北市林口區粉寮路二段167-1號","121.4045","25.0885933333333","6501700","林口區"
"243009","297-R6","2017/11/02 16:03:25","新北市泰山區黎明路25號","121.421888333333","25.0608833333333","6501600","泰山區"
"243016","680-BX","2017/11/02 17:19:19","新北市泰山區黎明路31號","121.421845","25.0605966666667","6501600","泰山區"
"231007","189-VK","2017/11/02 11:55:47","新北市新店區安華路28-1號","121.519576666667","24.961315","6500600","新店區"
"231046","278-BY","2017/11/02 17:19:12","新北市新店區直潭路92號","121.530926666667","24.9376733333333","6500600","新店區"
"231035","515-UM","2017/11/02 17:19:18","新北市新店區安華路28-1號","121.51959","24.9611833333333","6500600","新店區"
"241011","013-R5","2017/11/02 17:19:25","新北市三重區河邊北街100巷5號","121.503675","25.070405","6500200","三重區"
"241028","022-UY","2017/11/02 17:19:11","新北市三重區仁化商場3號","121.49351","25.0595666666667","6500200","三重區"
"241017","063-VK","2017/11/02 17:19:22","新北市三重區大同北路52號","121.495073333333","25.0631","6500200","三重區"
"241024","065-VK","2017/11/02 17:19:12","新北市三重區中正北路193巷21弄8號","121.476763333333","25.0705816666667","6500200","三重區"
"241026","066-VK","2017/11/02 17:19:06","新北市三重區文化南路31-3號","121.500015","25.0617933333333","6500200","三重區"
"241003","091-VK","2017/11/02 17:19:22","新北市三重區富福街62號","121.491991666667","25.084595","6500200","三重區"
"241008","156-TC","2017/11/02 17:19:16","新北市三重區下竹圍街4號","121.480786666667","25.076065","6500200","三重區"
"241005","262-UM","2017/11/02 17:19:09","新北市三重區永安北路二段11號","121.481903333333","25.0814433333333","6500200","三重區"
"241015","265-UM","2017/11/02 17:19:08","新北市三重區長元街82-1號","121.501896666667","25.0662933333333","6500200","三重區"
"241016","266-UM","2017/11/02 17:19:12","新北市三重區大同北路97-3號","121.494331666667","25.0637316666667","6500200","三重區"
"241022","267-UM","2017/11/02 17:19:20","新北市三重區重陽路二段34巷44號","121.485701666667","25.0637683333333","6500200","三重區"
"241018","268-UM","2017/11/02 17:19:08","新北市三重區安慶街151號","121.494383333333","25.0688066666667","6500200","三重區"
"241032","269-UM","2017/11/02 17:19:17","新北市三重區興華街123號","121.483415","25.0598116666667","6500200","三重區"
"241013","270-UM","2017/11/02 17:19:13","新北市三重區仁愛街104號","121.495318333333","25.0741666666667","6500200","三重區"
"241025","271-UM","2017/11/02 17:19:13","新北市三重區中正北路279號","121.474911666667","25.07106","6500200","三重區"
"241007","398-BY","2017/11/02 17:19:06","新北市三重區慈愛街8號","121.484431666667","25.0784883333333","6500200","三重區"
"241009","KEA-2210","2017/11/02 17:19:09","新北市三重區仁愛街664號","121.482455","25.0804266666667","6500200","三重區"
"241020","413-TH","2017/11/02 17:19:17","新北市三重區自強路三段72號","121.486745","25.0736433333333","6500200","三重區"
"241019","478-VK","2017/11/02 17:18:50","新北市三重區三張街161號","121.486055","25.0694933333333","6500200","三重區"
"241030","480-VK","2017/11/02 17:19:17","新北市三重區環河南路254巷43-1號","121.489436666667","25.0516516666667","6500200","三重區"
"241014","543-UM","2017/11/02 17:19:04","新北市三重區長榮路3號","121.500168333333","25.068435","6500200","三重區"
"241023","545-UM","2017/11/02 17:19:09","新北市三重區三民街209-1號","121.48155","25.0659533333333","6500200","三重區"
"241006","AAD-863","2017/11/02 17:19:15","新北市三重區三和路四段264巷2弄9號","121.485265","25.0768833333333","6500200","三重區"
"241002","887-TS","2017/11/02 17:19:24","新北市三重區仁義街225巷37號","121.497748333333","25.082815","6500200","三重區"
"241012","941-UM","2017/11/02 17:19:19","新北市三重區河邊北街248巷13號","121.501326666667","25.0759033333333","6500200","三重區"
"241029","942-UM","2017/11/02 17:19:11","新北市三重區重新路四段65-10號","121.486986666667","25.056865","6500200","三重區"
"241033","AAC-255","2017/11/02 17:19:23","新北市三重區中興北街191號","121.469045","25.056515","6500200","三重區"
"235062","800-TS","2017/11/02 17:19:20","新北市中和區員山路36巷16-3號","121.484913333333","24.9916283333333","6500300","中和區"
"247022","893-R6","2017/11/02 17:19:15","新北市蘆洲區三民路128巷37號","121.469848333333","25.0896733333333","6501400","蘆洲區"
"247012","546-UM","2017/11/02 17:19:17","新北市蘆洲區信義路319巷4號","121.478048333333","25.0863433333333","6501400","蘆洲區"
"247020","500-BY","2017/11/02 17:19:03","新北市蘆洲區民族路428號","121.473683333333","25.0920416666667","6501400","蘆洲區"
"247010","339-TH","2017/11/02 17:19:04","新北市蘆洲區鷺江街55號","121.47767","25.08247","6501400","蘆洲區"
"247002","337-TH","2017/11/02 17:19:10","新北市蘆洲區永樂街38巷33弄20號","121.457241666667","25.089735","6501400","蘆洲區"
"247004","336-TH","2017/11/02 17:19:13","新北市蘆洲區中原路34號","121.459898333333","25.0828066666667","6501400","蘆洲區"
"247016","057-VK","2017/11/02 17:19:05","新北市蘆洲區正和街81號","121.468228333333","25.08076","6501400","蘆洲區"
"247006","056-VK","2017/11/02 17:19:12","新北市蘆洲區永安南路二段160號","121.46158","25.07892","6501400","蘆洲區"
"247008","053-VK","2017/11/02 17:19:12","新北市三重區永福街135巷32弄7號","121.477006666667","25.077135","6501400","蘆洲區"
"247014","007-UY","2017/11/02 17:19:08","新北市蘆洲區中正路90號","121.470171666667","25.0836833333333","6501400","蘆洲區"
"247024","002-UY","2017/11/02 17:19:05","新北市蘆洲區光榮路2號","121.460335","25.08609","6501400","蘆洲區"
"247018","001-UY","2017/11/02 17:19:22","新北市蘆洲區民權路84號","121.474521666667","25.0876383333333","6501400","蘆洲區"
"223003","205-TH","2017/11/02 09:54:57","新北市石碇區小粗坑(潭邊里)9-1號","121.677778333333","24.98478","6501900","石碇區"
"228003","097-TW","2017/11/02 17:19:21","新北市貢寮區福隆里興隆街24-1號","121.944323333333","25.016665","6502600","貢寮區"
"228001","212-TW","2017/11/02 17:19:10","新北市貢寮區仁理村尖山腳街18-3號","121.925515","25.0483933333333","6502600","貢寮區"
"228002","585-TW","2017/11/02 17:19:06","新北市貢寮區雙玉里下雙溪街28-1號","121.925055","25.0118816666667","6502600","貢寮區"
"224006","676-BX","2017/11/02 17:19:19","新北市瑞芳區大寮路58-2號","121.781643333333","25.097955","6501200","瑞芳區"
"224009","285-BY","2017/11/02 17:19:09","新北市瑞芳區汽車路106-2號","121.840555","25.1091166666667","6501200","瑞芳區"
"224008","275-VK","2017/11/02 17:19:09","新北市瑞芳區侯硐路48號","121.825745","25.0830016666667","6501200","瑞芳區"
"224005","271-BY","2017/11/02 17:17:52","新北市瑞芳區鼻頭路247號","121.904745","25.1216916666667","6501200","瑞芳區"
"227010","642-TC","2017/11/02 17:19:10","新北市雙溪區三貂里政光路10號","121.851325","25.071605","6502500","雙溪區"
"227004","400-TW","2017/11/02 17:19:24","新北市雙溪區上林里內平林63號","121.831705","25.0293183333333","6502500","雙溪區"
"251009","008-UM","2017/11/02 17:19:20","新北市淡水區三民街22號","121.439028333333","25.1718083333333","6501000","淡水區"
"251004","009-UM","2017/11/02 17:19:19","新北市淡水區中正東路二段88巷15號","121.459113333333","25.15064","6501000","淡水區"
"251002","012-UM","2017/11/02 17:19:05","新北市淡水區中正路二段31號","121.419275","25.18185","6501000","淡水區"
"251007","179-VK","2017/11/02 17:19:09","新北市淡水區民生路47-4號","121.462131666667","25.138015","6501000","淡水區"
"251008","181-VK","2017/11/02 17:19:04","新北市淡水區大同路289號","121.468156666667","25.14263","6501000","淡水區"
"251014","182-VK","2017/11/02 17:19:08","新北市淡水區公埔子45號","121.463963333333","25.2301916666667","6501000","淡水區"
"251010","413-VK","2017/11/02 17:19:22","新北市淡水區中正路二段215號","121.426238333333","25.1891933333333","6501000","淡水區"
"251012","441-VK","2017/11/02 17:19:06","新北市淡水區中山北路一段158號","121.444268333333","25.17793","6501000","淡水區"
"251016","442-VK","2017/11/02 17:19:03","新北市淡水區鄒厝崙12-1號","121.467458333333","25.1895033333333","6501000","淡水區"
"251005","443-VK","2017/11/02 17:19:24","新北市淡水區鄧公路19號","121.451406666667","25.170065","6501000","淡水區"
"251006","561-UM","2017/11/02 17:19:14","新北市淡水區重建街204號","121.4412","25.1745533333333","6501000","淡水區"
"251011","650-BX","2017/11/02 17:19:20","新北市淡水區坪頂路128號","121.465015","25.1612566666667","6501000","淡水區"
"251003","766-UM","2017/11/02 17:19:14","新北市淡水區中正路一段1號","121.42727","25.175885","6501000","淡水區"
"207003","550-UM","2017/11/02 17:19:23","新北市萬里區萬里里瑪鋉路340號","121.688055","25.182545","6502800","萬里區"
"252002","178-VK","2017/11/02 17:19:20","新北市三芝區忠孝街1-14號","121.505443333333","25.25396","6502100","三芝區"
"252001","292-VK","2017/11/02 17:19:18","新北市三芝區淡金路一段4-5號","121.49807","25.2597016666667","6502100","三芝區"
"237014","756-BX","2017/11/02 15:08:36","新北市三峽區中山路459巷163-3號","121.34895","24.9331766666667","6500900","三峽區"
"242031","AAC-296","2017/11/02 17:19:15","新北市新莊區新泰路476巷11號","121.443673333333","25.0456616666667","6500500","新莊區"
"242029","986-R7","2017/11/02 17:19:10","新北市新莊區幸福路770號","121.447055","25.0491983333333","6500500","新莊區"
"242051","751-BX","2017/11/02 17:19:20","新北市新莊區瓊林北路55號","121.438811666667","25.020775","6500500","新莊區"
"242025","615-BX","2017/11/02 17:19:12","新北市新莊區中平路82巷29號","121.445975","25.0449766666667","6500500","新莊區"
"242023","613-BX","2017/11/02 17:19:18","新北市新莊區新泰路486號","121.442511666667","25.0456883333333","6500500","新莊區"
"242027","612-BX","2017/11/02 17:19:15","新北市新莊區中和街16號","121.448383333333","25.0432916666667","6500500","新莊區"
"242039","566-BX","2017/11/02 17:19:12","新北市新莊區新樹路225號","121.435201666667","25.0228016666667","6500500","新莊區"
"242044","497-BY","2017/11/02 17:19:19","新北市新莊區富國路101-1號","121.421313333333","25.0255833333333","6500500","新莊區"
"242048","442-UM","2017/11/02 17:19:06","新北市新莊區福營路226號","121.427155","25.02923","6500500","新莊區"
"242053","440-UM","2017/11/02 17:19:26","新北市新莊區環漢路三段1號","121.442218333333","25.02411","6500500","新莊區"
"242034","415-TV","2017/11/02 17:19:18","新北市新莊區中正路473-1號","121.441908333333","25.0331483333333","6500500","新莊區"
"242004","413-TV","2017/11/02 17:19:09","新北市新莊區新泰路486號","121.442478333333","25.04569","6500500","新莊區"
"242042","400-BY","2017/11/02 17:19:10","新北市新莊區新樹路44號","121.437695","25.0275516666667","6500500","新莊區"
"242061","362-BY","2017/11/02 17:19:13","新北市新莊區新泰路357巷3弄57號","121.44183","25.0394016666667","6500500","新莊區"
"242058","353-BY","2017/11/02 17:19:08","新北市泰山區磚雅厝3號","121.441841666667","25.041965","6500500","新莊區"
"242007","132-UY","2017/11/02 17:19:15","新北市新莊區新泰路357巷3弄57號","121.4424","25.0395933333333","6500500","新莊區"
"242036","133-UY","2017/11/02 17:19:08","新北市新莊區新樹路79號","121.437736666667","25.02754","6500500","新莊區"
"242021","135-UY","2017/11/02 17:19:23","新北市新莊區明中街44號","121.456843333333","25.0397233333333","6500500","新莊區"
"242046","172-VK","2017/11/02 17:19:25","新北市新莊區中正路402號","121.441461666667","25.0338583333333","6500500","新莊區"
"242009","173-VK","2017/11/02 10:57:12","新北市新莊區三和路12-21號","121.441826666667","25.038785","6500500","新莊區"
"242015","175-VK","2017/11/02 17:19:12","新北市新莊區新泰路488號","121.442448333333","25.0458466666667","6500500","新莊區"
"242002","176-VK","2017/11/02 17:19:06","新北市新莊區新泰路357巷3弄51號","121.441883333333","25.0399966666667","6500500","新莊區"
"242001","233-RS","2017/11/02 09:08:59","新北市新莊區環河路48-7號","121.436921666667","25.009825","6500500","新莊區"
"242013","347-TH","2017/11/02 17:19:18","新北市新莊區中環路二段392-1號","121.442356666667","25.0455283333333","6500500","新莊區"
"242056","349-TH","2017/11/02 17:19:18","新北市泰山區磚雅厝6號","121.442276666667","25.042275","6500500","新莊區"
"242017","350-TH","2017/11/02 17:19:10","新北市新莊區中平路82巷29號","121.446235","25.044975","6500500","新莊區"
"242011","351-TH","2017/11/02 17:19:12","新北市新莊區中平路82巷29號","121.446266666667","25.0450333333333","6500500","新莊區"
"238015","755-BX","2017/11/02 17:19:03","新北市樹林區中山路三段27號","121.401505","24.9755366666667","6500700","樹林區"
"238023","601-UM","2017/11/02 17:19:03","新北市樹林區中正路433號","121.415023333333","25.008555","6500700","樹林區"
"238019","599-UM","2017/11/02 17:19:11","新北市樹林區八德街94號","121.420858333333","24.9802833333333","6500700","樹林區"
"238018","571-TV","2017/11/02 17:19:21","新北市樹林區博愛街223號","121.424033333333","24.986395","6500700","樹林區"
"238024","5061-A6","2017/11/02 17:19:12","新北市樹林區四德街22號","121.426263333333","24.9921716666667","6500700","樹林區"
"238021","KEA-2217","2017/11/02 17:19:20","新北市樹林區西圳街一段165巷20弄16號","121.395361666667","24.9606133333333","6500700","樹林區"
"238022","KEA-2213","2017/11/02 17:19:16","新北市樹林區和平街67號","121.424403333333","24.9825566666667","6500700","樹林區"
"238016","308-TH","2017/11/02 17:19:14","新北市樹林區八德街1號","121.417583333333","24.9849916666667","6500700","樹林區"
"238025","303-VK","2017/11/02 17:19:09","新北市樹林區保安街一段29號","121.424698333333","24.9944133333333","6500700","樹林區"
"238004","283-BY","2017/11/02 17:19:06","新北市樹林區光武街7-3號","121.415721666667","25.0054383333333","6500700","樹林區"
"238001","282-BY","2017/11/02 17:19:10","新北市樹林區千歲街7號","121.424763333333","24.9954333333333","6500700","樹林區"
"238020","268-VK","2017/11/02 17:19:21","新北市樹林區大安路211號","121.420265","24.9953166666667","6500700","樹林區"
"238026","172-UY","2017/11/02 17:19:18","新北市樹林區東大街166號","121.40953","24.9757233333333","6500700","樹林區"
"239007","AAC-297","2017/11/02 17:19:09","新北市鶯歌區國慶街115巷21號","121.3512","24.9544166666667","6500800","鶯歌區"
"239006","891-R6","2017/11/02 17:19:23","新北市鶯歌區德昌二街3巷1-1號","121.333193333333","24.959155","6500800","鶯歌區"
"239008","527-UM","2017/11/02 17:19:11","新北市鶯歌區大湖路570號","121.336438333333","24.9733116666667","6500800","鶯歌區"
"239005","526-UM","2017/11/02 17:19:03","新北市鶯歌區鶯桃路545號","121.330388333333","24.9678133333333","6500800","鶯歌區"
"239001","417-VK","2017/11/02 17:19:10","新北市鶯歌區黃厝街43號","121.342506666667","24.94542","6500800","鶯歌區"
"239003","360-BY","2017/11/02 17:19:19","新北市鶯歌區德昌街76號","121.33283","24.9600283333333","6500800","鶯歌區"
"239002","359-BY","2017/11/02 17:19:10","新北市鶯歌區南雅路35號","121.348988333333","24.95414","6500800","鶯歌區"
"239004","193-VK","2017/11/02 17:19:07","新北市鶯歌區文化路501-16號","121.353668333333","24.9486516666667","6500800","鶯歌區"
"221012","276-VK","2017/11/02 13:14:44","新北市汐止區汐萬路一段256巷3號","121.653451666667","25.074595","6501100","汐止區"
"242019","280-VK","2017/11/02 17:19:07","新北市新莊區中港路307號","121.45275","25.0447083333333","6500500","新莊區"
