"lineid","car","time","location","longitude","latitude","cityid","cityname"
"234026","9371-KE","2017/11/02 17:59:06","新北市永和區永和路一段45-1號","121.512758333333","25.0062833333333","6500400","永和區"
"249005","172-UM","2017/11/02 17:59:14","新北市八里區荖阡坑路20-8號","121.396876666667","25.1368266666667","6502300","八里區"
"249001","173-UM","2017/11/02 17:59:11","新北市八里區龍米路二段39號","121.448266666667","25.140075","6502300","八里區"
"249004","303-UY","2017/11/02 17:59:17","新北市八里區中山路一段18-1號","121.423028333333","25.15901","6502300","八里區"
"249002","305-UY","2017/11/02 17:59:08","新北市八里區龍米路一段436號","121.450971666667","25.1340833333333","6502300","八里區"
"249003","593-UM","2017/11/02 17:59:06","新北市八里區中山路二段306號","121.404656666667","25.15017","6502300","八里區"
"248016","026-BX","2017/11/02 17:59:05","新北市五股區中興路二段83巷26-6號","121.460018333333","25.0753366666667","6501500","五股區"
"248006","077-UY","2017/11/02 17:59:11","新北市五股區中興路二段83巷26-6號","121.460176666667","25.0751533333333","6501500","五股區"
"248008","095-VK","2017/11/02 17:59:05","新北市五股區更洲路18號","121.458186666667","25.0789233333333","6501500","五股區"
"248020","225-UY","2017/11/02 17:59:19","新北市五股區中興路二段83巷26-6號","121.460038333333","25.075275","6501500","五股區"
"248012","247-BX","2017/11/02 17:59:01","新北市五股區中興路二段57-6號","121.460516666667","25.0755033333333","6501500","五股區"
"248014","261-SL","2017/11/02 17:59:11","新北市五股區中興路二段182巷3號","121.456413333333","25.0781383333333","6501500","五股區"
"248010","272-BY","2017/11/02 17:59:05","新北市五股區中興路二段83巷26-6號","121.459886666667","25.0750066666667","6501500","五股區"
"248004","677-BX","2017/11/02 17:59:08","新北市五股區中興路二段83巷26-6號","121.46004","25.0750333333333","6501500","五股區"
"232011","375-UM","2017/11/02 17:59:07","新北市坪林區水柳腳16號","121.710821666667","24.9348433333333","6502000","坪林區"
"244013","069-UM","2017/11/02 17:59:18","新北市林口區中山路158號","121.390761666667","25.07873","6501700","林口區"
"244007","080-UY","2017/11/02 17:59:08","新北市林口區竹林路265號","121.389355","25.0808316666667","6501700","林口區"
"244019","403-UM","2017/11/02 17:59:21","新北市林口區忠孝路542巷11弄2號","121.373025","25.06702","6501700","林口區"
"244025","742-UY","2017/11/02 17:59:13","新北市林口區八德路400-1號","121.359471666667","25.0665366666667","6501700","林口區"
"244009","410-SL","2017/11/02 17:59:19","新北市林口區竹林路582巷16號","121.386018333333","25.0833966666667","6501700","林口區"
"244023","483-VK","2017/11/02 17:59:09","新北市林口區東湖路105巷92號","121.385096666667","25.07139","6501700","林口區"
"244017","485-VK","2017/11/02 17:59:10","新北市林口區文化二路一段228-1號","121.369806666667","25.0724333333333","6501700","林口區"
"244011","701-TV","2017/11/02 17:59:21","新北市林口區中正路313號","121.388918333333","25.07747","6501700","林口區"
"244021","838-TS","2017/11/02 17:58:45","新北市林口區新寮45-13號","121.404161666667","25.0648366666667","6501700","林口區"
"243009","297-R6","2017/11/02 16:03:25","新北市泰山區黎明路25號","121.421888333333","25.0608833333333","6501600","泰山區"
"222003","436-BY","2017/11/02 17:59:21","新北市深坑區炮子崙9號","121.604081666667","24.9862383333333","6501800","深坑區"
"222002","659-BX","2017/11/02 17:59:14","新北市深坑區文化街102號","121.616678333333","25.0019283333333","6501800","深坑區"
"231007","189-VK","2017/11/02 11:55:47","新北市新店區安華路28-1號","121.519576666667","24.961315","6500600","新店區"
"231046","278-BY","2017/11/02 17:59:12","新北市新店區康雅崙路1號","121.540355","24.92614","6500600","新店區"
"231035","515-UM","2017/11/02 17:59:18","新北市新店區安華路28-1號","121.519601666667","24.9612633333333","6500600","新店區"
"241016","266-UM","2017/11/02 17:59:12","新北市三重區中華路48號","121.483216666667","25.0616383333333","6500200","三重區"
"241024","462-BY","2017/11/02 17:59:12","新北市三重區中正北路193巷35弄20號","121.476685","25.071035","6500200","三重區"
"241033","AAC-255","2017/11/02 17:59:23","新北市三重區重新路五段636號","121.46848","25.0447183333333","6500200","三重區"
"235064","005-UY","2017/11/02 17:59:17","新北市中和區員山路36巷16-3號","121.485038333333","24.991465","6500300","中和區"
"235063","006-UY","2017/11/02 17:59:05","新北市中和區員山路36巷16-3號","121.485016666667","24.9912983333333","6500300","中和區"
"235058","151-BY","2017/11/02 17:59:21","新北市中和區中正路637巷52弄1號","121.485481666667","24.993485","6500300","中和區"
"235038","185-VK","2017/11/02 17:59:21","新北市中和區中正路395號","121.489948333333","24.9936016666667","6500300","中和區"
"235067","255-BX","2017/11/02 17:59:15","新北市中和區和城路一段271巷1號","121.485678333333","24.9919533333333","6500300","中和區"
"235061","378-QA","2017/11/02 15:28:33","新北市中和區員山路36巷13號","121.484186666667","24.9911533333333","6500300","中和區"
"235054","640-BX","2017/11/02 17:59:15","新北市中和區中正路506號","121.488691666667","24.9943383333333","6500300","中和區"
"235062","800-TS","2017/11/02 17:59:23","新北市中和區中正路460號","121.490245","24.9943","6500300","中和區"
"235060","911-UM","2017/11/02 15:52:36","新北市中和區員山路36巷16-3號","121.48479","24.9918466666667","6500300","中和區"
"235037","AAC-213","2017/11/02 17:59:09","新北市中和區員山路36巷13號","121.484293333333","24.99143","6500300","中和區"
"247022","893-R6","2017/11/02 17:59:15","新北市蘆洲區中正路472號","121.46239","25.0953333333333","6501400","蘆洲區"
"247012","546-UM","2017/11/02 17:59:17","新北市蘆洲區民族路167巷16號","121.478276666667","25.0884233333333","6501400","蘆洲區"
"247020","500-BY","2017/11/02 17:59:23","新北市蘆洲區民權路131巷6號","121.471563333333","25.0900666666667","6501400","蘆洲區"
"247010","339-TH","2017/11/02 17:59:25","新北市蘆洲區信義路257號","121.478931666667","25.0847216666667","6501400","蘆洲區"
"247002","337-TH","2017/11/02 17:59:10","新北市蘆洲區永平街32巷45弄36號","121.458363333333","25.093055","6501400","蘆洲區"
"247016","057-VK","2017/11/02 17:59:25","新北市蘆洲區中正路185巷76號","121.466173333333","25.0843783333333","6501400","蘆洲區"
"247006","056-VK","2017/11/02 17:59:12","新北市蘆洲區中華街24號","121.462821666667","25.0813216666667","6501400","蘆洲區"
"247008","053-VK","2017/11/02 17:59:12","新北市蘆洲區中山一路312號","121.469225","25.0771316666667","6501400","蘆洲區"
"247014","007-UY","2017/11/02 17:59:08","新北市蘆洲區復興路11號","121.471991666667","25.0853683333333","6501400","蘆洲區"
"247024","002-UY","2017/11/02 17:59:05","新北市蘆洲區光復路39-1號","121.462943333333","25.0849016666667","6501400","蘆洲區"
"247018","001-UY","2017/11/02 17:59:02","新北市蘆洲區復興路312號","121.481526666667","25.0900566666667","6501400","蘆洲區"
"223003","205-TH","2017/11/02 09:54:57","新北市石碇區小粗坑(潭邊里)9-1號","121.677778333333","24.98478","6501900","石碇區"
"228003","097-TW","2017/11/02 17:59:21","新北市貢寮區真理里美艷山街6-2號","121.928938333333","25.0607483333333","6502600","貢寮區"
"228001","212-TW","2017/11/02 17:59:17","新北市貢寮區真理里新港街26巷53號","121.928016666667","25.0535633333333","6502600","貢寮區"
"228002","585-TW","2017/11/02 17:59:06","新北市貢寮區福隆里桂安街17號","121.967263333333","25.0232266666667","6502600","貢寮區"
"224006","676-BX","2017/11/02 17:59:22","新北市瑞芳區傑魚坑路187號","121.788258333333","25.1079633333333","6501200","瑞芳區"
"224002","639-TC","2017/11/02 17:59:12","新北市瑞芳區三爪子坑路127號","121.810236666667","25.10694","6501200","瑞芳區"
"224009","285-BY","2017/11/02 17:59:26","新北市瑞芳區山尖路163-1號","121.853306666667","25.1131433333333","6501200","瑞芳區"
"224008","275-VK","2017/11/02 17:59:09","新北市瑞芳區明燈路一段45巷1-3號","121.821505","25.1064116666667","6501200","瑞芳區"
"224007","273-VK","2017/11/02 17:59:05","新北市瑞芳區大寮路84號","121.780471666667","25.101345","6501200","瑞芳區"
"224005","271-BY","2017/11/02 17:59:12","新北市瑞芳區深澳路163號","121.819748333333","25.1329666666667","6501200","瑞芳區"
"253005","032-BX","2017/11/02 17:59:13","新北市石門區中山路62-11號","121.567516666667","25.2896966666667","6502200","石門區"
"253006","295-VK","2017/11/02 17:59:03","新北市石門區大丘田45-2號","121.54981","25.2748633333333","6502200","石門區"
"222001","KEA-2212","2017/11/02 17:59:03","新北市深坑區北深路二段189號","121.612173333333","25.0012","6501800","深坑區"
"208002","742-BX","2017/11/02 17:59:18","新北市金山區三界壇路93-1號","121.624448333333","25.2288133333333","6502700","金山區"
"208003","665-BX","2017/11/02 17:59:08","新北市金山區磺港里磺港路306號","121.643846666667","25.227135","6502700","金山區"
"251009","008-UM","2017/11/02 17:59:20","新北市淡水區中山北路一段6號","121.441566666667","25.1746516666667","6501000","淡水區"
"251004","009-UM","2017/11/02 17:59:19","新北市淡水區民權路187巷37號","121.46116","25.13371","6501000","淡水區"
"251002","012-UM","2017/11/02 17:59:05","新北市淡水區鼻頭街18-5號","121.446803333333","25.16672","6501000","淡水區"
"251008","181-VK","2017/11/02 17:59:08","新北市淡水區八勢一街51號","121.461948333333","25.155705","6501000","淡水區"
"251014","182-VK","2017/11/02 17:59:08","新北市淡水區公埔子16-6號","121.481018333333","25.2245666666667","6501000","淡水區"
"251010","413-VK","2017/11/02 17:59:21","新北市淡水區中正路一段87巷1號","121.421778333333","25.1791633333333","6501000","淡水區"
"251012","441-VK","2017/11/02 17:59:06","新北市淡水區北新路三段21號","121.483563333333","25.18623","6501000","淡水區"
"251016","442-VK","2017/11/02 17:59:23","新北市淡水區埤島30-14號","121.448251666667","25.19808","6501000","淡水區"
"251005","443-VK","2017/11/02 17:59:24","新北市淡水區水源街一段141號","121.447226666667","25.17192","6501000","淡水區"
"251001","559-UM","2017/11/02 17:59:18","新北市淡水區民權路94巷1號","121.463161666667","25.1248266666667","6501000","淡水區"
"251006","561-UM","2017/11/02 17:59:14","新北市淡水區新生街20-5號","121.438945","25.17392","6501000","淡水區"
"251011","650-BX","2017/11/02 17:59:20","新北市淡水區三空泉5-1號","121.477978333333","25.1618783333333","6501000","淡水區"
"251003","766-UM","2017/11/02 17:59:14","新北市淡水區大忠街79-1號","121.445866666667","25.1773716666667","6501000","淡水區"
"207003","550-UM","2017/11/02 17:59:23","新北市萬里區港東路野柳風景區攤販66號","121.691343333333","25.2058866666667","6502800","萬里區"
"207004","225-TW","2017/11/02 17:59:06","新北市萬里區中幅里中福路48號","121.683265","25.1741366666667","6502800","萬里區"
"252002","178-VK","2017/11/02 17:59:20","新北市三芝區中山路二段40號","121.503016666667","25.2550583333333","6502100","三芝區"
"252001","292-VK","2017/11/02 17:59:18","新北市三芝區中興街一段45號","121.497866666667","25.2574633333333","6502100","三芝區"
"237004","078-UY","2017/11/02 17:59:11","新北市三峽區中正路二段126號","121.366243333333","24.9166883333333","6500900","三峽區"
"237007","153-BY","2017/11/02 17:59:05","新北市三峽區中正路二段54號","121.366641666667","24.9187383333333","6500900","三峽區"
"237009","210-TH","2017/11/02 17:59:17","新北市三峽區中山路110號","121.365951666667","24.9358883333333","6500900","三峽區"
"237013","252-BX","2017/11/02 17:59:09","新北市三峽區介壽路一段197號","121.378213333333","24.930775","6500900","三峽區"
"237012","275-BY","2017/11/02 17:59:22","新北市三峽區民生街27巷1號","121.376046666667","24.9361933333333","6500900","三峽區"
"237008","302-VK","2017/11/02 17:59:05","新北市三峽區白雞30號","121.369073333333","24.9124333333333","6500900","三峽區"
"237014","433-BY","2017/11/02 17:59:06","新北市三峽區復興路141-1號","121.370921666667","24.9377216666667","6500900","三峽區"
"237006","5529-G3","2017/11/02 17:59:15","新北市三峽區介壽路二段138巷1弄45-5號","121.398058333333","24.9324433333333","6500900","三峽區"
"237011","572-TV","2017/11/02 17:58:20","新北市三峽區大同路50號","121.377011666667","24.9286616666667","6500900","三峽區"
"237016","649-BX","2017/11/02 17:59:12","新北市三峽區紫微路139號","121.406691666667","24.9115983333333","6500900","三峽區"
"237014","756-BX","2017/11/02 15:08:36","新北市三峽區中山路459巷163-3號","121.34895","24.9331766666667","6500900","三峽區"
"237005","AKY-6261","2017/11/02 17:59:20","新北市三峽區復興路239-1號","121.368185","24.938565","6500900","三峽區"
"236071","105-UM","2017/11/02 17:59:20","新北市土城區青雲路665-2號","121.466541666667","24.9645433333333","6501300","土城區"
"236042","107-UM","2017/11/02 17:59:08","新北市土城區裕生路61號","121.447645","24.986155","6501300","土城區"
"236078","166-UM","2017/11/02 17:59:09","新北市土城區永寧路32巷10弄8號","121.429073333333","24.9610166666667","6501300","土城區"
"236030","253-BX","2017/11/02 17:59:15","新北市土城區城林路6巷80號","121.438453333333","24.97981","6501300","土城區"
"236026","269-VK","2017/11/02 17:59:07","新北市土城區承天路18號","121.439478333333","24.9634316666667","6501300","土城區"
"236014","270-VK","2017/11/02 17:59:22","新北市土城區城林路6巷80號","121.438538333333","24.9795566666667","6501300","土城區"
"236037","271-VK","2017/11/02 17:59:16","新北市土城區城林路6巷80號","121.43842","24.979755","6501300","土城區"
"236021","401-BY","2017/11/02 17:59:19","新北市土城區中華路二段2號","121.438806666667","24.979765","6501300","土城區"
"236051","752-BX","2017/11/02 17:59:17","新北市土城區城林路6巷80號","121.438608333333","24.979735","6501300","土城區"
"236058","912-UM","2017/11/02 17:59:06","新北市土城區中央路三段134-1號","121.433466666667","24.9656483333333","6501300","土城區"
"236062","915-UM","2017/11/02 17:59:08","新北市土城區城林路6巷80號","121.438528333333","24.9797966666667","6501300","土城區"
"236053","AAC-216","2017/11/02 17:59:21","新北市土城區城林路6巷80號","121.43863","24.97982","6501300","土城區"
"242031","AAC-296","2017/11/02 17:59:15","新北市新莊區新泰路305巷12號","121.444645","25.040985","6500500","新莊區"
"242029","986-R7","2017/11/02 17:59:10","新北市新莊區中平路57號","121.444698333333","25.0444316666667","6500500","新莊區"
"242051","751-BX","2017/11/02 17:59:20","新北市新莊區龍安路502號","121.426706666667","25.0172316666667","6500500","新莊區"
"242025","615-BX","2017/11/02 17:59:12","新北市新莊區五工路58號","121.45864","25.0630333333333","6500500","新莊區"
"242023","613-BX","2017/11/02 17:59:18","新北市新莊區福壽街35號","121.458186666667","25.048465","6500500","新莊區"
"242027","612-BX","2017/11/02 17:59:15","新北市新莊區思源路375號","121.459648333333","25.051125","6500500","新莊區"
"242039","566-BX","2017/11/02 17:59:15","新北市新莊區民安路236號","121.426331666667","25.022195","6500500","新莊區"
"242044","497-BY","2017/11/02 17:59:22","新北市新莊區雙鳳路155號","121.412841666667","25.0271383333333","6500500","新莊區"
"242048","442-UM","2017/11/02 17:59:06","新北市新莊區後港二路10號","121.422801666667","25.0241333333333","6500500","新莊區"
"242053","440-UM","2017/11/02 17:59:09","新北市新莊區民安西路375號","121.42866","25.0102833333333","6500500","新莊區"
"242034","415-TV","2017/11/02 17:59:18","新北市新莊區福海街26號","121.445355","25.03407","6500500","新莊區"
"242004","413-TV","2017/11/02 17:59:09","新北市新莊區思源路177巷34號","121.459318333333","25.0463133333333","6500500","新莊區"
"242042","400-BY","2017/11/02 17:59:09","新北市新莊區壽山路41號","121.415018333333","25.0304466666667","6500500","新莊區"
"242061","362-BY","2017/11/02 17:59:19","新北市新莊區新樹路262號","121.432665","25.0147516666667","6500500","新莊區"
"242058","353-BY","2017/11/02 17:59:08","新北市新莊區雙鳳路134巷2號","121.412971666667","25.0279833333333","6500500","新莊區"
"242007","132-UY","2017/11/02 17:59:15","新北市新莊區自信街63號","121.455361666667","25.0482383333333","6500500","新莊區"
"242036","133-UY","2017/11/02 17:59:08","新北市新莊區中正路695號","121.425866666667","25.02963","6500500","新莊區"
"242021","135-UY","2017/11/02 17:59:23","新北市新莊區建興街32號","121.45006","25.0371733333333","6500500","新莊區"
"242046","172-VK","2017/11/02 17:59:05","新北市新莊區福營路197號","121.431068333333","25.0305083333333","6500500","新莊區"
"242009","173-VK","2017/11/02 17:59:18","新北市新莊區中華路二段260號","121.45262","25.0532116666667","6500500","新莊區"
"242015","175-VK","2017/11/02 17:59:12","新北市新莊區中平路87巷6號","121.444386666667","25.0459216666667","6500500","新莊區"
"242002","176-VK","2017/11/02 17:59:06","新北市新莊區新泰路16號","121.449678333333","25.0330766666667","6500500","新莊區"
"242001","233-RS","2017/11/02 09:08:59","新北市新莊區環河路48-7號","121.436921666667","25.009825","6500500","新莊區"
"242013","347-TH","2017/11/02 17:59:18","新北市新莊區中和街111號","121.446846666667","25.048295","6500500","新莊區"
"242056","349-TH","2017/11/02 17:59:18","新北市新莊區豐年街124巷18號","121.445453333333","25.0298733333333","6500500","新莊區"
"242017","350-TH","2017/11/02 17:59:10","新北市新莊區中港路339巷18號","121.451386666667","25.0453","6500500","新莊區"
"242011","351-TH","2017/11/02 17:59:12","新北市新莊區中港路629-1號","121.45071","25.05384","6500500","新莊區"
"238015","755-BX","2017/11/02 17:59:03","新北市樹林區啟智街34號","121.420821666667","24.9933766666667","6500700","樹林區"
"238023","601-UM","2017/11/02 17:59:03","新北市樹林區龍興街31巷23號","121.403781666667","25.0162016666667","6500700","樹林區"
"238019","599-UM","2017/11/02 17:59:11","新北市樹林區水源街80號","121.425836666667","24.980565","6500700","樹林區"
"238018","571-TV","2017/11/02 17:59:21","新北市樹林區中正路7-1號","121.43025","24.997655","6500700","樹林區"
"238024","5061-A6","2017/11/02 17:59:20","新北市樹林區中山路三段67-5號","121.400663333333","24.975125","6500700","樹林區"
"238021","KEA-2217","2017/11/02 17:59:20","新北市樹林區柑園街一段21巷1號","121.404801666667","24.96064","6500700","樹林區"
"238022","KEA-2213","2017/11/02 17:59:16","新北市樹林區太順街60號","121.417876666667","24.97927","6500700","樹林區"
"238016","308-TH","2017/11/02 17:59:14","新北市樹林區啟智街137巷9弄2號","121.417596666667","24.9880233333333","6500700","樹林區"
"238025","303-VK","2017/11/02 17:59:09","新北市樹林區保安街二段329號","121.41247","25.007035","6500700","樹林區"
"238017","283-BY","2017/11/02 17:59:06","新北市樹林區三德街3號","121.412785","25.0127883333333","6500700","樹林區"
"238014","282-BY","2017/11/02 17:59:10","新北市樹林區大安路145巷1號","121.422333333333","24.9967233333333","6500700","樹林區"
"238020","268-VK","2017/11/02 17:59:01","新北市樹林區三俊街199巷20弄1-1號","121.420536666667","25.01776","6500700","樹林區"
"238026","172-UY","2017/11/02 17:59:17","新北市樹林區中山路三段125-10號","121.397378333333","24.9734016666667","6500700","樹林區"
"239007","AAC-297","2017/11/02 17:59:09","新北市鶯歌區鶯桃路40號","121.34163","24.9528683333333","6500800","鶯歌區"
"239006","891-R6","2017/11/02 17:59:12","新北市鶯歌區鶯桃路413巷74號","121.329783333333","24.9630866666667","6500800","鶯歌區"
"239008","527-UM","2017/11/02 17:59:11","新北市鶯歌區朝陽街55號","121.33796","24.97827","6500800","鶯歌區"
"239005","526-UM","2017/11/02 17:59:03","新北市鶯歌區鶯桃路668巷73號","121.329933333333","24.97181","6500800","鶯歌區"
"239001","417-VK","2017/11/02 17:59:09","新北市鶯歌區中正三路35號","121.33907","24.9421533333333","6500800","鶯歌區"
"239003","360-BY","2017/11/02 17:59:19","新北市鶯歌區鶯桃路340號","121.333961666667","24.9623583333333","6500800","鶯歌區"
"239002","359-BY","2017/11/02 17:59:10","新北市鶯歌區光明街76號","121.346858333333","24.9559083333333","6500800","鶯歌區"
"221008","489-VK","2017/11/02 17:59:08","新北市汐止區明峰街15號","121.63485","25.0714583333333","6501100","汐止區"
"221036","130-UY","2017/11/02 17:59:10","新北市汐止區忠孝東路473巷24-1號","121.665113333333","25.0736533333333","6501100","汐止區"
"221015","131-UY","2017/11/02 17:59:18","新北市汐止區長江街363號","121.667938333333","25.08234","6501100","汐止區"
"221010","269-BY","2017/11/02 17:59:21","新北市汐止區汐萬路二段275巷1弄25號","121.646221666667","25.0881116666667","6501100","汐止區"
"221012","276-VK","2017/11/02 13:14:44","新北市汐止區汐萬路一段256巷3號","121.653451666667","25.074595","6501100","汐止區"
"221023","279-VK","2017/11/02 17:59:17","新北市汐止區明峰街162號","121.629213333333","25.07055","6501100","汐止區"
"221032","280-BY","2017/11/02 17:59:06","新北市汐止區大同路一段50號","121.62238","25.0549533333333","6501100","汐止區"
"221027","281-BY","2017/11/02 17:59:09","新北市汐止區大同路二段370號","121.657623333333","25.0671916666667","6501100","汐止區"
"221029","298-VK","2017/11/02 17:59:22","新北市汐止區樟樹二路329號","121.641313333333","25.070355","6501100","汐止區"
"221021","299-VK","2017/11/02 17:59:14","新北市汐止區連興街16號","121.655783333333","25.0637","6501100","汐止區"
"221031","353-TW","2017/11/02 17:59:18","新北市汐止區中興路101號","121.632398333333","25.0646483333333","6501100","汐止區"
"221002","358-BY","2017/11/02 17:59:23","新北市汐止區工建路202號","121.636971666667","25.0628233333333","6501100","汐止區"
"221035","622-UM","2017/11/02 17:59:06","新北市汐止區新江北路30巷22弄7號","121.651245","25.069685","6501100","汐止區"
"221025","623-UM","2017/11/02 17:59:16","新北市汐止區仁愛路16號","121.659648333333","25.0631633333333","6501100","汐止區"
"221038","646-BX","2017/11/02 17:59:22","新北市汐止區連興街128巷7弄1號","121.65346","25.0615233333333","6501100","汐止區"
"221033","647-BX","2017/11/02 17:59:15","新北市汐止區合順街17號","121.620018333333","25.0432033333333","6501100","汐止區"
"221018","753-BX","2017/11/02 17:59:14","新北市汐止區招商街6號","121.6665","25.0686516666667","6501100","汐止區"
"242019","280-VK","2017/11/02 17:59:07","新北市新莊區明中街18號","121.4575","25.0393483333333","6500500","新莊區"
