"lineid","car","time","location","longitude","latitude","cityid","cityname"
"234046","148-BY","2017/11/02 18:39:12","新北市永和區永元路68號","121.522561666667","25.0015883333333","6500400","永和區"
"234013","149-BY","2017/11/02 18:39:13","新北市永和區環河東路二段36號","121.52276","25.0123333333333","6500400","永和區"
"234007","207-UY","2017/11/02 18:39:09","新北市永和區保安路218號","121.507321666667","25.0136133333333","6500400","永和區"
"234081","298-R6","2017/11/02 18:39:19","新北市永和區林森路77號","121.523958333333","25.0038883333333","6500400","永和區"
"234064","337-UY","2017/11/02 18:39:12","新北市永和區福和路1號","121.526521666667","25.0099233333333","6500400","永和區"
"234086","338-UY","2017/11/02 18:39:17","新北市永和區安樂路248號","121.514705","25.00329","6500400","永和區"
"234070","552-UM","2017/11/02 18:39:07","新北市永和區福和路1號","121.525396666667","25.0093816666667","6500400","永和區"
"234054","553-UM","2017/11/02 18:39:02","新北市永和區福和路1號","121.525965","25.0096816666667","6500400","永和區"
"234030","746-BX","2017/11/02 18:39:13","新北市永和區林森路20巷2號","121.526165","25.0055","6500400","永和區"
"234061","AAD-866","2017/11/02 18:39:05","新北市永和區福和路1號","121.525795","25.0094383333333","6500400","永和區"
"234042","862-TW","2017/11/02 18:39:15","新北市永和區永貞路296號","121.512395","25.0046283333333","6500400","永和區"
"234050","863-TW","2017/11/02 18:38:57","新北市永和區環河西路一段63號","121.513353333333","25.0182283333333","6500400","永和區"
"234026","9371-KE","2017/11/02 18:39:06","新北市永和區保平路38-1號","121.511568333333","25.007045","6500400","永和區"
"234011","9373-KE","2017/11/02 18:39:02","新北市永和區文化路9巷22弄34號","121.514423333333","25.0146233333333","6500400","永和區"
"249005","172-UM","2017/11/02 18:39:14","新北市八里區中華路三段232號","121.388366666667","25.12442","6502300","八里區"
"249001","173-UM","2017/11/02 18:39:10","新北市八里區龍米路一段360號","121.451513333333","25.1314","6502300","八里區"
"249004","303-UY","2017/11/02 18:39:17","新北市八里區龍米路三段58-2號","121.424353333333","25.1590866666667","6502300","八里區"
"249002","305-UY","2017/11/02 18:39:08","新北市八里區龍形一街31號","121.449515","25.13034","6502300","八里區"
"248016","026-BX","2017/11/02 18:39:05","新北市五股區凌雲路一段149巷7號","121.448896666667","25.1016783333333","6501500","五股區"
"248006","077-UY","2017/11/02 18:39:11","新北市五股區中興路二段63巷17號","121.46021","25.0753766666667","6501500","五股區"
"248008","095-VK","2017/11/02 18:39:18","新北市五股區中興路一段161號","121.46484","25.0737216666667","6501500","五股區"
"248020","225-UY","2017/11/02 18:39:19","新北市五股區孝義路118號","121.441605","25.12012","6501500","五股區"
"248012","247-BX","2017/11/02 18:39:21","新北市五股區御史路1巷1-5號","121.442458333333","25.0898933333333","6501500","五股區"
"248014","261-SL","2017/11/02 18:39:11","新北市五股區蓬萊路24號","121.43397","25.0799","6501500","五股區"
"248010","272-BY","2017/11/02 18:39:05","新北市五股區水碓一路1號","121.43286","25.0726233333333","6501500","五股區"
"248004","677-BX","2017/11/02 18:39:08","新北市五股區民義路一段206號","121.430321666667","25.08913","6501500","五股區"
"248002","678-BX","2017/11/02 18:39:11","新北市五股區西雲路221號","121.44881","25.096895","6501500","五股區"
"234023","9380-KE","2017/11/02 18:39:08","新北市永和區福和路76巷5弄12號","121.522416666667","25.008445","6500400","永和區"
"234077","969-R7","2017/11/02 18:39:13","新北市永和區中正路163號","121.516573333333","24.9985116666667","6500400","永和區"
"234074","AAC-211","2017/11/02 18:39:13","新北市永和區福和路1號","121.526151666667","25.00956","6500400","永和區"
"234067","AAC-212","2017/11/02 18:39:19","新北市永和區福和路160號","121.521353333333","25.0079366666667","6500400","永和區"
"234003","AAC-295","2017/11/02 18:39:12","新北市永和區福和路1號","121.526545","25.0100566666667","6500400","永和區"
"232011","375-UM","2017/11/02 18:19:57","新北市坪林區坪雙路一段43號","121.711761666667","24.9424733333333","6502000","坪林區"
"244013","069-UM","2017/11/02 18:39:18","新北市林口區中正路478號","121.382673333333","25.0775016666667","6501700","林口區"
"244007","080-UY","2017/11/02 18:39:08","新北市林口區湖北里61號","121.383421666667","25.1072216666667","6501700","林口區"
"244019","403-UM","2017/11/02 18:39:18","新北市林口區忠孝路584號","121.375125","25.0681916666667","6501700","林口區"
"244025","742-UY","2017/11/02 18:39:13","新北市林口區南勢四街327號","121.356613333333","25.0749066666667","6501700","林口區"
"244009","410-SL","2017/11/02 18:39:19","新北市林口區文化一路二段285-1號","121.385016666667","25.08455","6501700","林口區"
"244023","483-VK","2017/11/02 18:39:09","新北市林口區民享路72號","121.380891666667","25.0811016666667","6501700","林口區"
"244017","485-VK","2017/11/02 18:39:10","新北市林口區文化二路一段68巷18-2號","121.36611","25.067845","6501700","林口區"
"244011","701-TV","2017/11/02 18:39:21","新北市林口區中正路257巷12號","121.390588333333","25.0772383333333","6501700","林口區"
"244021","838-TS","2017/11/02 18:39:06","新北市林口區粉寮路一段66號","121.396968333333","25.0786916666667","6501700","林口區"
"243013","AAD-798","2017/11/02 18:39:02","新北市泰山區明志路三段206巷3號","121.423311666667","25.037955","6501600","泰山區"
"243009","297-R6","2017/11/02 16:03:25","新北市泰山區黎明路25號","121.421888333333","25.0608833333333","6501600","泰山區"
"243012","646-TV","2017/11/02 18:39:08","新北市泰山區泰林路二段65號","121.435025","25.0580266666667","6501600","泰山區"
"222003","436-BY","2017/11/02 18:39:21","新北市深坑區翠谷街27號","121.626728333333","25.0089183333333","6501800","深坑區"
"222002","659-BX","2017/11/02 18:39:05","新北市深坑區文山路一段62巷10號","121.621815","25.000895","6501800","深坑區"
"231041","002-UM","2017/11/02 18:39:04","新北市新店區安華路28-1號","121.519615","24.9607716666667","6500600","新店區"
"231059","046-UY","2017/11/02 18:39:13","新北市新店區安華路28-1號","121.519608333333","24.9608766666667","6500600","新店區"
"231061","047-UY","2017/11/02 18:39:09","新北市新店區安華路28-1號","121.519123333333","24.9608683333333","6500600","新店區"
"231060","106-UY","2017/11/02 18:39:15","新北市新店區安華路28-1號","121.519696666667","24.9608466666667","6500600","新店區"
"231047","108-UY","2017/11/02 18:39:16","新北市新店區環河路29巷1號","121.53629","24.9611666666667","6500600","新店區"
"231052","187-VK","2017/11/02 18:39:09","新北市新店區新烏路一段65號","121.546081666667","24.9436433333333","6500600","新店區"
"231007","189-VK","2017/11/02 11:55:47","新北市新店區安華路28-1號","121.519576666667","24.961315","6500600","新店區"
"231050","KEA-2219","2017/11/02 18:39:07","新北市新店區安華路28-1號","121.519848333333","24.9612383333333","6500600","新店區"
"231057","256-BX","2017/11/02 18:39:09","新北市新店區新烏路一段215號","121.549305","24.9313883333333","6500600","新店區"
"231046","278-BY","2017/11/02 18:39:12","新北市新店區直潭二街1號","121.535563333333","24.9432216666667","6500600","新店區"
"231058","3712-VJ","2017/11/02 18:39:15","新北市新店區國校路76-1號","121.538576666667","24.953095","6500600","新店區"
"231055","3713-VJ","2017/11/02 18:39:09","新北市新店區華興街40號","121.536973333333","24.9691433333333","6500600","新店區"
"231056","4716-K9","2017/11/02 18:39:05","新北市新店區自立街72號","121.537548333333","24.9796083333333","6500600","新店區"
"231067","4772-VM","2017/11/02 18:39:05","新北市新店區安華路28-1號","121.519288333333","24.9607666666667","6500600","新店區"
"231065","512-UM","2017/11/02 18:39:02","新北市新店區安華路28-1號","121.519396666667","24.9613133333333","6500600","新店區"
"231054","513-UM","2017/11/02 18:39:07","新北市新店區安華路28-1號","121.519715","24.9611216666667","6500600","新店區"
"231064","515-UM","2017/11/02 18:39:18","新北市新店區安華路28-1號","121.519876666667","24.9612","6500600","新店區"
"231040","619-UM","2017/11/02 18:39:20","新北市新店區安華路28-1號","121.519526666667","24.9608233333333","6500600","新店區"
"231042","641-BX","2017/11/02 18:39:20","新北市新店區安華路28-1號","121.519568333333","24.9607983333333","6500600","新店區"
"231063","645-TV","2017/11/02 18:39:20","新北市新店區安華路28-1號","121.519351666667","24.960725","6500600","新店區"
"231049","719-UM","2017/11/02 18:39:09","新北市新店區安康路一段94-2號","121.527766666667","24.9621333333333","6500600","新店區"
"231051","719-UY","2017/11/02 18:39:22","新北市新店區安康路一段323-3號","121.521143333333","24.9638033333333","6500600","新店區"
"231062","720-UM","2017/11/02 18:39:14","新北市新店區安華路28-1號","121.519333333333","24.9613416666667","6500600","新店區"
"231044","897-TW","2017/11/02 18:39:09","新北市新店區環河路29巷1號","121.536641666667","24.9612466666667","6500600","新店區"
"231045","898-TW","2017/11/02 18:39:06","新北市新店區安華路28-1號","121.519416666667","24.9610116666667","6500600","新店區"
"231043","899-TW","2017/11/02 18:39:09","新北市新店區安華路28-1號","121.5193","24.96095","6500600","新店區"
"231066","AKT-0513","2017/11/02 18:39:22","新北市新店區安華路1-1號","121.519518333333","24.960435","6500600","新店區"
"235066","003-UY","2017/11/02 18:39:11","新北市中和區水源路45號","121.504765","25.003625","6500300","中和區"
"235064","005-UY","2017/11/02 18:39:17","新北市中和區連城路139巷38號","121.496526666667","24.9977333333333","6500300","中和區"
"235063","006-UY","2017/11/02 18:39:05","新北市中和區連城路347巷4弄1-3號","121.488201666667","24.9955833333333","6500300","中和區"
"235056","096-UM","2017/11/02 18:39:09","新北市中和區員山路611巷5弄1號","121.47795","25.0112583333333","6500300","中和區"
"235039","097-UM","2017/11/02 18:39:19","新北市永和區安樂路50巷1弄1號","121.514875","24.997345","6500300","中和區"
"235065","098-UM","2017/11/02 18:39:05","新北市中和區莊敬路49巷20弄32號","121.503203333333","25.0050933333333","6500300","中和區"
"235040","150-BY","2017/11/02 18:39:06","新北市中和區安平路48號","121.510088333333","24.995505","6500300","中和區"
"235058","151-BY","2017/11/02 18:39:21","新北市中和區圓通路369巷39-30號","121.489713333333","24.9856566666667","6500300","中和區"
"235055","183-VK","2017/11/02 18:39:14","新北市中和區中山路三段229巷57-1號","121.469023333333","25.00534","6500300","中和區"
"235038","185-VK","2017/11/02 18:39:21","新北市永和區民有街75巷2弄15號","121.51906","24.9958316666667","6500300","中和區"
"235049","186-VK","2017/11/02 18:39:05","新北市中和區景平路480號","121.50508","24.993785","6500300","中和區"
"235067","255-BX","2017/11/02 18:39:15","新北市中和區新生街12號","121.483155","25.004455","6500300","中和區"
"235044","293-VK","2017/11/02 18:39:20","新北市中和區復興路263巷7-3號","121.502891666667","24.9899633333333","6500300","中和區"
"235072","301-VK","2017/11/02 18:39:21","新北市中和區連城路2號","121.499325","25.0024133333333","6500300","中和區"
"235043","352-BY","2017/11/02 18:39:16","新北市中和區景平路188號","121.515635","24.99218","6500300","中和區"
"235068","377-QA","2017/11/02 18:38:39","新北市中和區中正路221號","121.49635","24.9936316666667","6500300","中和區"
"235061","378-QA","2017/11/02 18:39:19","新北市中和區民享街92巷6號","121.474658333333","24.9999633333333","6500300","中和區"
"235050","4979-A6","2017/11/02 18:39:17","新北市中和區景新街496巷28弄6號","121.51319","24.9859266666667","6500300","中和區"
"235069","4980-A6","2017/11/02 18:39:15","新北市中和區泰和街38巷9號","121.499016666667","25.0003816666667","6500300","中和區"
"235042","551-UM","2017/11/02 18:39:17","新北市中和區成功路127巷1號","121.526335","24.991095","6500300","中和區"
"235070","558-UM","2017/11/02 18:39:00","新北市中和區南華路65號","121.504548333333","24.99736","6500300","中和區"
"235045","565-BX","2017/11/02 18:39:11","新北市中和區南山路236巷20弄1號","121.505963333333","24.9891666666667","6500300","中和區"
"235054","640-BX","2017/11/02 18:39:15","新北市中和區民享街86巷21號","121.473426666667","25.0006216666667","6500300","中和區"
"235047","732-UM","2017/11/02 18:39:15","新北市中和區南山路320巷8號","121.507615","24.98657","6500300","中和區"
"235046","733-UM","2017/11/02 18:39:10","新北市中和區仁愛街55號","121.511246666667","24.9879416666667","6500300","中和區"
"235062","800-TS","2017/11/02 18:39:23","新北市中和區中山路二段312巷33弄12號","121.494891666667","25.0039266666667","6500300","中和區"
"235057","801-TS","2017/11/02 18:39:16","新北市中和區員山路327巷51號","121.479206666667","25.0023416666667","6500300","中和區"
"235041","802-TS","2017/11/02 18:39:07","新北市中和區中和路260-1號","121.507983333333","24.9994833333333","6500300","中和區"
"235052","805-TS","2017/11/02 18:39:18","新北市中和區興南路三段52號","121.495036666667","24.9763333333333","6500300","中和區"
"235048","896-TW","2017/11/02 18:39:14","新北市中和區南山路186號","121.505701666667","24.9907333333333","6500300","中和區"
"235053","900-TW","2017/11/02 18:39:21","新北市土城區延壽路55巷1號","121.469815","24.992195","6500300","中和區"
"235060","911-UM","2017/11/02 18:39:21","新北市中和區中山路二段570號","121.483088333333","25.005145","6500300","中和區"
"235037","157-BY","2017/11/02 18:39:13","新北市中和區興南路二段114巷10弄38號","121.50405","24.985","6500300","中和區"
"235037","AAC-213","2017/11/02 18:39:09","新北市中和區景平路111巷71號","121.51504","24.990275","6500300","中和區"
"235059","AAC-215","2017/11/02 18:39:23","新北市中和區錦和路350-1號","121.49046","24.9935616666667","6500300","中和區"
"220068","013-TV","2017/11/02 18:39:05","新北市板橋區民生路二段120號","121.470365","25.0196533333333","6500100","板橋區"
"220065","072-UY","2017/11/02 18:39:12","新北市板橋區漢生東路276-3號","121.469108333333","25.0121266666667","6500100","板橋區"
"220086","073-UY","2017/11/02 18:39:22","新北市板橋區南雅西路二段190-1號","121.451853333333","25.014435","6500100","板橋區"
"220069","AAD-861","2017/11/02 18:39:21","新北市板橋區華東街1-10號","121.448335","24.9951783333333","6500100","板橋區"
"247010","339-TH","2017/11/02 18:39:04","新北市八里區荖阡坑路18號","121.398461666667","25.1383816666667","6501400","蘆洲區"
"247008","053-VK","2017/11/02 18:39:12","新北市八里區荖阡坑路34-1號","121.40095","25.13063","6501400","蘆洲區"
"226004","312-R5","2017/11/02 18:39:10","新北市平溪區靜安路二段280號","121.728808333333","25.0231416666667","6502400","平溪區"
"223003","205-TH","2017/11/02 09:54:57","新北市石碇區小粗坑(潭邊里)9-1號","121.677778333333","24.98478","6501900","石碇區"
"228003","097-TW","2017/11/02 18:39:21","新北市貢寮區和美里龍洞街41號","121.912641666667","25.1132683333333","6502600","貢寮區"
"228001","212-TW","2017/11/02 18:39:10","新北市貢寮區仁理村研海街12-1號","121.923798333333","25.0516866666667","6502600","貢寮區"
"228002","585-TW","2017/11/02 18:39:06","新北市貢寮區福隆里桂安街11號","121.961176666667","25.0204983333333","6502600","貢寮區"
"224010","AGQ-8101","2017/11/02 18:38:32","新北市瑞芳區烏勢巷108號","121.846156666667","25.10882","6501200","瑞芳區"
"224006","676-BX","2017/11/02 18:39:19","新北市瑞芳區明燈路三段84號","121.80578","25.1083533333333","6501200","瑞芳區"
"224002","639-TC","2017/11/02 18:38:52","新北市瑞芳區中山路46號","121.803343333333","25.1063666666667","6501200","瑞芳區"
"224009","285-BY","2017/11/02 18:39:05","新北市瑞芳區五號路308號","121.856826666667","25.1114566666667","6501200","瑞芳區"
"224008","275-VK","2017/11/02 18:39:16","新北市瑞芳區逢甲路149號","121.80693","25.1100466666667","6501200","瑞芳區"
"224007","273-VK","2017/11/02 18:39:13","新北市瑞芳區大埔路67巷3-1號","121.764431666667","25.1015283333333","6501200","瑞芳區"
"224005","271-BY","2017/11/02 18:39:12","新北市瑞芳區永龍新村34號","121.818905","25.1194866666667","6501200","瑞芳區"
"227010","642-TC","2017/11/02 18:39:17","新北市雙溪區牡丹里下坑11號","121.85098","25.0561666666667","6502500","雙溪區"
"227004","400-TW","2017/11/02 18:39:04","新北市雙溪區魚行里坤溪3-5號","121.876203333333","25.0207733333333","6502500","雙溪區"
"253005","032-BX","2017/11/02 18:39:13","新北市石門區石門街39號","121.566328333333","25.29049","6502200","石門區"
"253006","295-VK","2017/11/02 18:39:23","新北市石門區崁子腳1號","121.532575","25.2882883333333","6502200","石門區"
"222001","KEA-2212","2017/11/02 18:39:03","新北市深坑區北深路一段82號","121.636318333333","25.01069","6501800","深坑區"
"208002","742-BX","2017/11/02 18:39:23","新北市金山區忠孝一路20巷2號","121.638551666667","25.2194366666667","6502700","金山區"
"208003","665-BX","2017/11/02 18:39:08","新北市金山區中山路253號","121.637056666667","25.222135","6502700","金山區"
"208001","761-BX","2017/11/02 18:39:04","新北市金山區文化三路7號","121.635115","25.22504","6502700","金山區"
"251004","009-UM","2017/11/02 18:39:19","新北市淡水區中正東路二段143巷2弄1號","121.460651666667","25.1473216666667","6501000","淡水區"
"251002","012-UM","2017/11/02 18:39:04","新北市淡水區中正東路8-8號","121.447911666667","25.1667333333333","6501000","淡水區"
"251008","181-VK","2017/11/02 18:39:04","新北市淡水區北投子81號","121.462238333333","25.17872","6501000","淡水區"
"251014","182-VK","2017/11/02 18:39:08","新北市淡水區崙頂12-8號","121.495548333333","25.2172516666667","6501000","淡水區"
"251010","413-VK","2017/11/02 18:39:21","新北市淡水區沙崙路141-1號","121.423273333333","25.182995","6501000","淡水區"
"251012","441-VK","2017/11/02 18:39:06","新北市淡水區北新路121號","121.448936666667","25.1787066666667","6501000","淡水區"
"251016","442-VK","2017/11/02 18:39:03","新北市淡水區下圭柔山102號","121.440986666667","25.20872","6501000","淡水區"
"251001","559-UM","2017/11/02 18:39:18","新北市淡水區自強路419號","121.465665","25.134345","6501000","淡水區"
"251006","561-UM","2017/11/02 18:39:14","新北市淡水區中山北路二段227號","121.444308333333","25.1859633333333","6501000","淡水區"
"251011","650-BX","2017/11/02 18:39:22","新北市淡水區鄧公路278巷1號","121.461021666667","25.1689383333333","6501000","淡水區"
"251003","766-UM","2017/11/02 18:39:14","新北市淡水區北新路69巷26號","121.44663","25.180095","6501000","淡水區"
"207003","550-UM","2017/11/02 18:39:03","新北市萬里區野柳里八斗60-1號","121.676595","25.20063","6502800","萬里區"
"207004","225-TW","2017/11/02 18:39:23","新北市萬里區萬里里獅頭路7號","121.69198","25.178245","6502800","萬里區"
"252002","178-VK","2017/11/02 18:39:20","新北市三芝區民生街64巷6號","121.50358","25.2553","6502100","三芝區"
"252003","249-BX","2017/11/02 18:39:12","新北市三芝區後厝里土地公坑54-5號","121.466875","25.2499466666667","6502100","三芝區"
"252001","292-VK","2017/11/02 18:39:18","新北市三芝區中興街二段42巷2號","121.499768333333","25.255095","6502100","三芝區"
"237004","078-UY","2017/11/02 18:39:11","新北市三峽區插角6號","121.39926","24.8735716666667","6500900","三峽區"
"237007","153-BY","2017/11/02 18:39:05","新北市三峽區柑樹路9號","121.362383333333","24.9059316666667","6500900","三峽區"
"237009","210-TH","2017/11/02 18:39:17","新北市三峽區大同路238號","121.366105","24.9258533333333","6500900","三峽區"
"237013","252-BX","2017/11/02 18:39:09","新北市三峽區光明路69巷25號","121.376695","24.9292466666667","6500900","三峽區"
"237012","275-BY","2017/11/02 18:39:23","新北市三峽區三樹路328號","121.381701666667","24.9441183333333","6500900","三峽區"
"237008","302-VK","2017/11/02 18:39:05","新北市三峽區白雞115-8號","121.400731666667","24.9066233333333","6500900","三峽區"
"237014","433-BY","2017/11/02 18:39:06","新北市三峽區和平街58號","121.370291666667","24.937815","6500900","三峽區"
"237006","5529-G3","2017/11/02 18:39:15","新北市三峽區溪東路315巷64號","121.411956666667","24.9312383333333","6500900","三峽區"
"237011","572-TV","2017/11/02 18:07:17","新北市三峽區橫溪路1號","121.39604","24.93621","6500900","三峽區"
"237016","649-BX","2017/11/02 18:39:12","新北市三峽區竹崙路43號","121.429856666667","24.9225416666667","6500900","三峽區"
"237010","706-TV","2017/11/02 18:39:10","新北市三峽區復興路449號","121.362625","24.93849","6500900","三峽區"
"237014","756-BX","2017/11/02 15:08:36","新北市三峽區中山路459巷163-3號","121.34895","24.9331766666667","6500900","三峽區"
"237005","AKY-6261","2017/11/02 18:39:19","新北市三峽區民生街249號","121.370708333333","24.9348233333333","6500900","三峽區"
"236071","105-UM","2017/11/02 18:39:20","新北市土城區永豐路157巷29弄6-1號","121.468313333333","24.9814716666667","6501300","土城區"
"236042","107-UM","2017/11/02 18:39:12","新北市土城區裕民路55巷17號","121.449385","24.9888533333333","6501300","土城區"
"236078","166-UM","2017/11/02 18:39:09","新北市土城區中央路四段47號","121.42238","24.9615533333333","6501300","土城區"
"236030","253-BX","2017/11/02 18:39:15","新北市土城區福仁街58號","121.439498333333","24.9746816666667","6501300","土城區"
"236026","269-VK","2017/11/02 18:39:07","新北市土城區千歲路13號","121.44087","24.969515","6501300","土城區"
"236014","270-VK","2017/11/02 18:39:10","新北市土城區清水路207巷25號","121.459823333333","24.9826116666667","6501300","土城區"
"236037","271-VK","2017/11/02 18:39:16","新北市土城區青山路3巷2號","121.461205","24.97684","6501300","土城區"
"236021","401-BY","2017/11/02 18:39:19","新北市土城區永豐路12號","121.465785","24.9845583333333","6501300","土城區"
"236051","752-BX","2017/11/02 18:39:17","新北市土城區明德路一段141號","121.465143333333","24.9803116666667","6501300","土城區"
"236058","912-UM","2017/11/02 18:39:06","新北市土城區中央路四段71號","121.41714","24.9582333333333","6501300","土城區"
"236062","915-UM","2017/11/02 18:39:20","新北市土城區延和路125巷75號","121.469243333333","24.991265","6501300","土城區"
"236053","AAC-216","2017/11/02 18:39:01","新北市土城區中華路一段93號","121.444773333333","24.9872733333333","6501300","土城區"
"242002","441-UM","2017/11/02 18:39:22","新北市新莊區碧江街33號","121.451998333333","25.03299","6500500","新莊區"
"242061","362-BY","2017/11/02 18:39:13","新北市新莊區新樹路222號","121.433643333333","25.0203566666667","6500500","新莊區"
"242058","353-BY","2017/11/02 18:39:08","新北市新莊區中正路879-5號","121.41775","25.026205","6500500","新莊區"
"242046","172-VK","2017/11/02 18:39:05","新北市泰山區中山路二段269號","121.434386666667","25.046405","6500500","新莊區"
"242002","176-VK","2017/11/02 18:39:06","新北市新莊區新莊路751巷114號","121.442501666667","25.0300766666667","6500500","新莊區"
"242001","233-RS","2017/11/02 09:08:59","新北市新莊區環河路48-7號","121.436921666667","25.009825","6500500","新莊區"
"238015","755-BX","2017/11/02 18:39:03","新北市樹林區文化街79巷1號","121.416841666667","24.98911","6500700","樹林區"
"238023","601-UM","2017/11/02 18:39:23","新北市樹林區三福街114號","121.406418333333","25.01639","6500700","樹林區"
"238019","599-UM","2017/11/02 18:39:11","新北市樹林區中華路190號","121.412015","24.9805733333333","6500700","樹林區"
"238018","571-TV","2017/11/02 18:39:01","新北市樹林區樹新路76號","121.42923","24.9972716666667","6500700","樹林區"
"238024","5061-A6","2017/11/02 18:39:12","新北市樹林區太順街79巷2號","121.416575","24.9782716666667","6500700","樹林區"
"238016","308-TH","2017/11/02 18:39:14","新北市樹林區文化街23號","121.419343333333","24.9876366666667","6500700","樹林區"
"238025","303-VK","2017/11/02 18:39:08","新北市樹林區中山路三段22號","121.39565","24.9729533333333","6500700","樹林區"
"238020","268-VK","2017/11/02 18:39:20","新北市樹林區俊安街22號","121.419223333333","25.01387","6500700","樹林區"
"238026","172-UY","2017/11/02 18:39:17","新北市樹林區信和街2巷1號","121.389693333333","24.970955","6500700","樹林區"
"239007","AAC-297","2017/11/02 18:39:09","新北市鶯歌區中正一路建德二巷2號","121.363878333333","24.9565516666667","6500800","鶯歌區"
"239008","527-UM","2017/11/02 18:39:11","新北市鶯歌區國際一路179號","121.33619","24.976485","6500800","鶯歌區"
"239005","526-UM","2017/11/02 18:39:23","新北市鶯歌區鳳吉一街156號","121.328626666667","24.9753333333333","6500800","鶯歌區"
"239001","417-VK","2017/11/02 18:39:09","新北市鶯歌區中正二路183號","121.341801666667","24.94815","6500800","鶯歌區"
"239003","360-BY","2017/11/02 18:39:19","新北市鶯歌區永和街181號","121.3359","24.9704216666667","6500800","鶯歌區"
"239004","193-VK","2017/11/02 18:39:06","新北市鶯歌區中正三路149號","121.336846666667","24.9401683333333","6500800","鶯歌區"
"221008","489-VK","2017/11/02 18:29:58","新北市汐止區康寧街901號","121.651353333333","25.075035","6501100","汐止區"
"221036","130-UY","2017/11/02 18:39:20","新北市汐止區大同路三段41號","121.666886666667","25.0765583333333","6501100","汐止區"
"221015","131-UY","2017/11/02 18:39:18","新北市汐止區鄉長路一段273號","121.668208333333","25.07857","6501100","汐止區"
"221010","269-BY","2017/11/02 18:39:21","新北市汐止區汐萬路三段268號","121.642855","25.10608","6501100","汐止區"
"221012","276-VK","2017/11/02 13:14:44","新北市汐止區汐萬路一段256巷3號","121.653451666667","25.074595","6501100","汐止區"
"221023","279-VK","2017/11/02 18:39:11","新北市汐止區明峰街10號","121.635196666667","25.0714066666667","6501100","汐止區"
"221032","280-BY","2017/11/02 18:39:06","新北市汐止區福山街60巷14號","121.618198333333","25.0462316666667","6501100","汐止區"
"221027","281-BY","2017/11/02 18:39:08","新北市汐止區汐萬路一段125號","121.653981666667","25.0712416666667","6501100","汐止區"
"221029","298-VK","2017/11/02 18:39:22","新北市汐止區樟樹一路144號","121.642426666667","25.065025","6501100","汐止區"
"221021","299-VK","2017/11/02 18:39:13","新北市汐止區復興路55號","121.657011666667","25.0624233333333","6501100","汐止區"
"221031","353-TW","2017/11/02 18:39:18","新北市汐止區光復街8巷21號","121.638236666667","25.0574966666667","6501100","汐止區"
"221002","358-BY","2017/11/02 18:39:23","新北市汐止區中興路25號","121.636886666667","25.05968","6501100","汐止區"
"221035","622-UM","2017/11/02 18:39:06","新北市汐止區大同路二段276號","121.654798333333","25.0662066666667","6501100","汐止區"
"221025","623-UM","2017/11/02 18:39:16","新北市汐止區仁愛路119巷4號","121.66259","25.0639083333333","6501100","汐止區"
"221038","646-BX","2017/11/02 18:39:22","新北市汐止區汐萬路一段256巷3號","121.653325","25.0746583333333","6501100","汐止區"
"221033","647-BX","2017/11/02 18:39:11","新北市汐止區東勢街20號","121.624726666667","25.0383316666667","6501100","汐止區"
"221018","753-BX","2017/11/02 18:39:14","新北市汐止區茄苳路250巷26號","121.671743333333","25.067655","6501100","汐止區"
"220079","145-BY","2017/11/02 18:39:03","新北市板橋區華東街328號","121.452843333333","25.0034283333333","6500100","板橋區"
"220080","200-UY","2017/11/02 18:39:14","新北市板橋區大觀路二段435-1號","121.44608","24.994445","6500100","板橋區"
"220082","610-BX","2017/11/02 18:39:10","新北市板橋區四川路二段橋頭1號","121.446446666667","24.9941866666667","6500100","板橋區"
"220056","276-BY","2017/11/02 18:39:15","新北市板橋區華東街1號","121.448381666667","24.994165","6500100","板橋區"
"220072","277-BY","2017/11/02 18:39:03","新北市板橋區四川路二段橋頭1巷1號","121.446903333333","24.9941033333333","6500100","板橋區"
"220071","283-VK","2017/11/02 18:39:05","新北市板橋區華東街1-9號","121.448041666667","24.9949333333333","6500100","板橋區"
"220094","285-UM","2017/11/02 18:39:06","新北市板橋區民生路二段161巷1號","121.470101666667","25.019875","6500100","板橋區"
"220053","285-VK","2017/11/02 18:39:06","新北市板橋區民生路二段120號","121.470356666667","25.01976","6500100","板橋區"
"220081","287-VK","2017/11/02 18:39:02","新北市板橋區板城路421號","121.44803","24.9956266666667","6500100","板橋區"
"220061","295-UM","2017/11/02 18:39:14","新北市板橋區民生路二段120號","121.470386666667","25.019645","6500100","板橋區"
"220084","296-UM","2017/11/02 18:39:13","新北市板橋區板城路421號","121.448225","24.9958166666667","6500100","板橋區"
"220075","297-UM","2017/11/02 18:39:09","新北市板橋區大觀路二段266號","121.44892","24.9963433333333","6500100","板橋區"
"220062","303-R5","2017/11/02 18:39:07","新北市板橋區民生路二段120號","121.470456666667","25.0196583333333","6500100","板橋區"
"220098","317-R6","2017/11/02 18:39:06","新北市板橋區民生路二段120號","121.470323333333","25.019805","6500100","板橋區"
"220064","486-VK","2017/11/02 18:39:14","新北市板橋區縣民大道二段68-1號","121.463348333333","25.0129616666667","6500100","板橋區"
"220089","487-VK","2017/11/02 16:50:39","新北市板橋區民生路二段188號","121.47006","25.0202433333333","6500100","板橋區"
"220035","560-BX","2017/11/02 18:39:15","新北市板橋區南雅西路二段145巷6號","121.451636666667","25.01183","6500100","板橋區"
"220057","686-BX","2017/11/02 18:39:11","新北市板橋區華東街1-9號","121.448166666667","24.9948933333333","6500100","板橋區"
"220077","687-BX","2017/11/02 18:39:06","新北市板橋區四川路二段橋頭1號","121.446575","24.9941516666667","6500100","板橋區"
"220054","741-BX","2017/11/02 18:39:21","新北市板橋區華東街1-9號","121.44812","24.994935","6500100","板橋區"
"220055","827-TW","2017/11/02 18:39:15","新北市板橋區華東街1-9號","121.448171666667","24.9949433333333","6500100","板橋區"
"220067","829-TW","2017/11/02 18:39:16","新北市板橋區民生路二段161巷3號","121.470286666667","25.0198116666667","6500100","板橋區"
"220102","830-TW","2017/11/02 16:37:21","新北市板橋區民生路二段89-6號","121.470423333333","25.0191616666667","6500100","板橋區"
"220074","895-R6","2017/11/02 18:39:11","新北市板橋區四川路二段130巷77-1號","121.449948333333","24.9949816666667","6500100","板橋區"
"220073","985-R7","2017/11/02 18:39:21","新北市板橋區南雅南路二段144巷10號","121.45108","24.9959016666667","6500100","板橋區"
"220097","AAC-210","2017/11/02 18:39:17","新北市板橋區民生路二段120號","121.470301666667","25.0197883333333","6500100","板橋區"
"220070","AAC-253","2017/11/02 18:39:15","新北市板橋區華東街1-9號","121.448198333333","24.9949616666667","6500100","板橋區"
