"lineid","car","time","location","longitude","latitude","cityid","cityname"
"234046","148-BY","2017/11/02 19:39:12","新北市永和區永元路95巷1號","121.522493333333","25.001985","6500400","永和區"
"234013","149-BY","2017/11/02 19:39:13","新北市永和區永平路203巷5弄1號","121.5091","25.0096333333333","6500400","永和區"
"234007","207-UY","2017/11/02 19:39:09","新北市中和區中和路402-3號","121.511383333333","25.0028183333333","6500400","永和區"
"234081","298-R6","2017/11/02 19:39:19","新北市永和區林森路20巷7號","121.525848333333","25.0057466666667","6500400","永和區"
"234038","336-UY","2017/11/02 19:39:16","新北市永和區成功路二段3號","121.52682","25.00146","6500400","永和區"
"234064","337-UY","2017/11/02 19:39:11","新北市永和區秀朗路一段192巷6弄14號","121.519111666667","25.002285","6500400","永和區"
"234086","338-UY","2017/11/02 19:39:17","新北市永和區林森路41巷1號","121.525161666667","25.0046","6500400","永和區"
"234070","552-UM","2017/11/02 19:39:07","新北市永和區永和路二段234號","121.515813333333","25.0146083333333","6500400","永和區"
"234054","553-UM","2017/11/02 19:39:22","新北市永和區竹林路37號","121.517845","25.01419","6500400","永和區"
"234017","745-BX","2017/11/02 19:39:04","新北市永和區文化路90巷32弄7號","121.513318333333","25.0169233333333","6500400","永和區"
"234030","746-BX","2017/11/02 19:39:17","新北市永和區四維街103巷5號","121.523966666667","24.997895","6500400","永和區"
"234061","AAD-866","2017/11/02 19:39:05","新北市永和區永貞路164號","121.517048333333","25.0044116666667","6500400","永和區"
"234042","862-TW","2017/11/02 19:39:15","新北市永和區中和路305巷2弄1號","121.506678333333","25.0000683333333","6500400","永和區"
"234050","863-TW","2017/11/02 19:39:17","新北市永和區保安路132號","121.508911666667","25.0153433333333","6500400","永和區"
"234026","9371-KE","2017/11/02 19:39:16","新北市永和區中和路497號","121.510471666667","25.0024633333333","6500400","永和區"
"249004","303-UY","2017/11/02 19:39:14","新北市八里區博物館路10-1號","121.41524","25.1640616666667","6502300","八里區"
"249002","305-UY","2017/11/02 19:39:08","新北市八里區頂寮二街38號","121.450498333333","25.1253133333333","6502300","八里區"
"249003","593-UM","2017/11/02 19:39:10","新北市八里區華峰三街33巷2號","121.399476666667","25.1458083333333","6502300","八里區"
"248016","026-BX","2017/11/02 19:39:08","新北市五股區成泰路三段476號","121.451803333333","25.1014133333333","6501500","五股區"
"248008","095-VK","2017/11/02 19:39:04","新北市五股區四維路116-7號","121.468431666667","25.0743883333333","6501500","五股區"
"248012","247-BX","2017/11/02 19:39:21","新北市五股區民義路一段48號","121.436896666667","25.08481","6501500","五股區"
"248014","261-SL","2017/11/02 19:39:17","新北市五股區民義路一段157-10號","121.432168333333","25.0872033333333","6501500","五股區"
"248010","272-BY","2017/11/02 19:39:05","新北市五股區水碓一路23號","121.430663333333","25.0713","6501500","五股區"
"248004","677-BX","2017/11/02 19:39:08","新北市五股區成泰路二段186號","121.438608333333","25.0845733333333","6501500","五股區"
"248002","678-BX","2017/11/02 19:39:12","新北市五股區成泰路三段577巷60號","121.450453333333","25.1033116666667","6501500","五股區"
"234077","969-R7","2017/11/02 19:39:22","新北市永和區民權路1巷18號","121.521201666667","24.9981816666667","6500400","永和區"
"234074","AAC-211","2017/11/02 19:39:13","新北市永和區竹林路225巷66號","121.523323333333","25.0089533333333","6500400","永和區"
"234067","AAC-212","2017/11/02 19:39:19","新北市永和區永貞路404號","121.509088333333","25.0076583333333","6500400","永和區"
"234003","AAC-295","2017/11/02 19:39:12","新北市永和區永和路一段42號","121.513085","25.0055583333333","6500400","永和區"
"243013","AAD-798","2017/11/02 19:39:02","新北市泰山區應化街7號","121.423861666667","25.0437283333333","6501600","泰山區"
"243009","297-R6","2017/11/02 19:39:20","新北市泰山區美寧街76號","121.43148","25.0646616666667","6501600","泰山區"
"243015","380-SR","2017/11/02 19:38:48","新北市泰山區民權街98號","121.428385","25.04983","6501600","泰山區"
"243014","421-VK","2017/11/02 19:39:05","新北市泰山區泰林路二段33-7號","121.435256666667","25.0564316666667","6501600","泰山區"
"243010","KEA-2215","2017/11/02 19:39:21","新北市泰山區民生路33號","121.430616666667","25.05213","6501600","泰山區"
"243011","KEA-2216","2017/11/02 19:39:18","新北市泰山區中山路二段567號","121.429643333333","25.0399716666667","6501600","泰山區"
"243012","646-TV","2017/11/02 19:39:08","新北市泰山區中港西路388號","121.434916666667","25.0547316666667","6501600","泰山區"
"243016","680-BX","2017/11/02 19:39:08","新北市泰山區新北大道七段26號","121.4201","25.0323133333333","6501600","泰山區"
"222003","436-BY","2017/11/02 19:32:43","新北市深坑區深南路51-1號","121.62111","25.0100483333333","6501800","深坑區"
"222002","659-BX","2017/11/02 19:39:05","新北市深坑區北深路一段177號","121.632575","25.0109166666667","6501800","深坑區"
"231041","002-UM","2017/11/02 19:39:03","新北市新店區中正路487號","121.53386","24.98206","6500600","新店區"
"231059","046-UY","2017/11/02 19:39:13","新北市新店區安和路二段207號","121.517843333333","24.97537","6500600","新店區"
"231061","047-UY","2017/11/02 19:39:09","新北市新店區安民街175號","121.516761666667","24.970385","6500600","新店區"
"231060","106-UY","2017/11/02 19:39:15","新北市新店區安康路二段161號","121.510293333333","24.9593883333333","6500600","新店區"
"231047","108-UY","2017/11/02 19:39:16","新北市新店區五峰路63巷36號","121.54676","24.9697083333333","6500600","新店區"
"231052","187-VK","2017/11/02 19:39:09","新北市新店區新烏路二段426號","121.551945","24.9088683333333","6500600","新店區"
"231007","189-VK","2017/11/02 11:55:47","新北市新店區安華路28-1號","121.519576666667","24.961315","6500600","新店區"
"231050","KEA-2219","2017/11/02 19:39:07","新北市新店區郵政路91號","121.554773333333","24.9514583333333","6500600","新店區"
"231057","256-BX","2017/11/02 19:39:21","新北市新店區橘園一路11號","121.547953333333","24.9340316666667","6500600","新店區"
"231046","278-BY","2017/11/02 19:39:12","新北市新店區中正路329巷3弄2號","121.535396666667","24.97461","6500600","新店區"
"231058","3712-VJ","2017/11/02 19:39:16","新北市新店區中正路76巷11弄22號","121.543708333333","24.971745","6500600","新店區"
"231067","4772-VM","2017/11/02 19:39:05","新北市新店區精忠路10-1號","121.532665","24.95909","6500600","新店區"
"231065","512-UM","2017/11/02 19:39:22","新北市新店區安祥路109巷85弄17號","121.478225","24.960145","6500600","新店區"
"231054","513-UM","2017/11/02 19:39:09","新北市新店區北宜路一段41號","121.538373333333","24.9573466666667","6500600","新店區"
"231064","515-UM","2017/11/02 19:39:18","新北市新店區安康路二段68號","121.514633333333","24.963575","6500600","新店區"
"231040","619-UM","2017/11/02 19:39:20","新北市新店區中正路75巷71號","121.54307","24.9688666666667","6500600","新店區"
"231042","641-BX","2017/11/02 19:39:20","新北市新店區中興路一段216號","121.543918333333","24.9657666666667","6500600","新店區"
"231063","645-TV","2017/11/02 19:39:20","新北市新店區達觀路43號","121.503071666667","24.9380766666667","6500600","新店區"
"231049","719-UM","2017/11/02 19:39:09","新北市新店區大豐路65號","121.539513333333","24.9795883333333","6500600","新店區"
"231051","719-UY","2017/11/02 19:39:02","新北市新店區中央四街50號","121.527763333333","24.9749633333333","6500600","新店區"
"231062","720-UM","2017/11/02 19:39:14","新北市新店區碧潭路64號","121.534826666667","24.9569333333333","6500600","新店區"
"231044","897-TW","2017/11/02 19:39:09","新北市新店區北新路三段1號","121.54221","24.9790883333333","6500600","新店區"
"231045","898-TW","2017/11/02 19:39:06","新北市新店區北宜路二段419-2號","121.560301666667","24.954555","6500600","新店區"
"231043","899-TW","2017/11/02 19:39:09","新北市新店區北新路二段94號","121.542986666667","24.9730683333333","6500600","新店區"
"241011","013-R5","2017/11/02 19:39:05","新北市三重區秀江街207號","121.497585","25.0716616666667","6500200","三重區"
"241028","022-UY","2017/11/02 19:39:05","新北市三重區中正南路147號","121.49394","25.056615","6500200","三重區"
"241031","061-VK","2017/11/02 19:39:09","新北市三重區重新路四段248號","121.48607","25.053445","6500200","三重區"
"241017","063-VK","2017/11/02 19:39:22","新北市三重區重陽路三段5巷30號","121.491353333333","25.0654116666667","6500200","三重區"
"241026","066-VK","2017/11/02 19:39:06","新北市三重區文化南路65巷47號","121.498758333333","25.06069","6500200","三重區"
"241008","156-TC","2017/11/02 19:39:10","新北市三重區永福街123號","121.479076666667","25.07702","6500200","三重區"
"241015","265-UM","2017/11/02 19:39:24","新北市三重區福德北路46號","121.502028333333","25.0653816666667","6500200","三重區"
"241022","267-UM","2017/11/02 19:39:08","新北市三重區中正北路154號","121.484823333333","25.0658733333333","6500200","三重區"
"241032","269-UM","2017/11/02 19:39:17","新北市三重區重陽路一段60巷76號","121.484268333333","25.05819","6500200","三重區"
"241013","270-UM","2017/11/02 19:39:11","新北市三重區仁愛街129巷4號","121.495803333333","25.0751216666667","6500200","三重區"
"241025","271-UM","2017/11/02 19:39:16","新北市三重區頂崁街189號","121.477511666667","25.0664016666667","6500200","三重區"
"241007","398-BY","2017/11/02 19:39:06","新北市三重區三和路四段125巷78號","121.487366666667","25.0786216666667","6500200","三重區"
"241009","KEA-2210","2017/11/02 19:39:09","新北市三重區三和路四段420號","121.4807","25.0800366666667","6500200","三重區"
"241020","413-TH","2017/11/02 19:39:16","新北市三重區三和路四段20巷91號","121.48855","25.073305","6500200","三重區"
"241019","478-VK","2017/11/02 19:39:21","新北市三重區六張街194巷1弄1號","121.48852","25.0682533333333","6500200","三重區"
"241030","480-VK","2017/11/02 19:39:15","新北市三重區新興路28巷14號","121.491751666667","25.0528816666667","6500200","三重區"
"241014","543-UM","2017/11/02 19:39:04","新北市三重區長壽街196號","121.504223333333","25.069015","6500200","三重區"
"241023","545-UM","2017/11/02 19:39:09","新北市三重區忠孝路三段99巷21號","121.479446666667","25.064375","6500200","三重區"
"241001","547-UM","2017/11/02 19:39:06","新北市三重區仁愛街315巷17號","121.493465","25.0796883333333","6500200","三重區"
"241006","AAD-863","2017/11/02 19:39:11","新北市三重區聯華街121號","121.484936666667","25.075095","6500200","三重區"
"241035","743-BX","2017/11/02 19:39:17","新北市三重區信義西街48號","121.498171666667","25.0647066666667","6500200","三重區"
"241012","941-UM","2017/11/02 19:39:19","新北市三重區河邊北街256巷19號","121.500958333333","25.0761266666667","6500200","三重區"
"235066","003-UY","2017/11/02 19:39:11","新北市中和區南工路26號","121.505708333333","25.0008883333333","6500300","中和區"
"235064","005-UY","2017/11/02 19:39:17","新北市中和區南山路125號","121.502496666667","24.9972","6500300","中和區"
"235063","006-UY","2017/11/02 19:39:05","新北市中和區安邦街1號","121.495811666667","24.998405","6500300","中和區"
"235056","096-UM","2017/11/02 19:39:09","新北市中和區員山路581巷31弄3號","121.477198333333","25.01022","6500300","中和區"
"235039","097-UM","2017/11/02 19:39:18","新北市中和區秀峰街119巷8弄9號","121.519006666667","24.9899333333333","6500300","中和區"
"235065","098-UM","2017/11/02 19:39:04","新北市中和區永和路52號","121.499096666667","25.0042183333333","6500300","中和區"
"235040","150-BY","2017/11/02 19:39:19","新北市中和區宜安路65號","121.51126","24.9970433333333","6500300","中和區"
"235058","151-BY","2017/11/02 19:39:21","新北市中和區員山路124巷2號","121.481486666667","24.9958833333333","6500300","中和區"
"235055","183-VK","2017/11/02 19:39:14","新北市中和區中山路三段177號","121.472811666667","25.00616","6500300","中和區"
"235038","185-VK","2017/11/02 19:39:21","新北市中和區立人街41號","121.520736666667","24.9941916666667","6500300","中和區"
"235049","186-VK","2017/11/02 19:39:05","新北市中和區安平路13號","121.50918","24.9941116666667","6500300","中和區"
"235067","255-BX","2017/11/02 19:39:15","新北市中和區新生街184號","121.483668333333","24.9997066666667","6500300","中和區"
"235044","293-VK","2017/11/02 19:39:15","新北市中和區興南路一段137號","121.50881","24.987485","6500300","中和區"
"235072","301-VK","2017/11/02 19:39:21","新北市中和區連城路265巷6弄1號","121.491506666667","24.9958066666667","6500300","中和區"
"235043","352-BY","2017/11/02 19:39:22","新北市中和區興南路一段61號","121.510535","24.98971","6500300","中和區"
"235068","377-QA","2017/11/02 19:39:19","新北市中和區泰和街1號","121.49991","25.0008733333333","6500300","中和區"
"235061","378-QA","2017/11/02 19:39:19","新北市中和區員山路226巷13弄1號","121.482153333333","25.0000466666667","6500300","中和區"
"235071","269-TV","2017/11/02 19:39:15","新北市中和區新生街163號","121.483691666667","25.0011916666667","6500300","中和區"
"235050","4979-A6","2017/11/02 19:39:17","新北市中和區錦和路350-1號","121.490526666667","24.9935766666667","6500300","中和區"
"235069","4980-A6","2017/11/02 19:39:15","新北市中和區中正路472號","121.489811666667","24.9942383333333","6500300","中和區"
"235042","551-UM","2017/11/02 19:39:20","新北市中和區中和路262巷43弄2號","121.5099","24.99976","6500300","中和區"
"235070","558-UM","2017/11/02 19:39:20","新北市中和區中和路44號","121.50036","25.000955","6500300","中和區"
"235045","565-BX","2017/11/02 19:39:11","新北市中和區景新街383巷68號","121.514776666667","24.9902283333333","6500300","中和區"
"235054","640-BX","2017/11/02 19:39:21","新北市中和區國光街102巷3號","121.470493333333","25.0006316666667","6500300","中和區"
"235047","732-UM","2017/11/02 19:39:15","新北市中和區景平路373號","121.50418","24.9932616666667","6500300","中和區"
"235046","733-UM","2017/11/02 19:39:10","新北市中和區忠孝街94號","121.51173","24.98453","6500300","中和區"
"235062","800-TS","2017/11/02 19:39:03","新北市新店區安豐路45號","121.500213333333","24.9552316666667","6500300","中和區"
"235057","801-TS","2017/11/02 19:39:16","新北市中和區員山路437號","121.480808333333","25.0039033333333","6500300","中和區"
"235041","802-TS","2017/11/02 19:39:07","新北市中和區中和路416號","121.511666666667","25.00323","6500300","中和區"
"235052","805-TS","2017/11/02 19:39:17","新北市中和區華新街143巷58號","121.506198333333","24.9795366666667","6500300","中和區"
"235048","896-TW","2017/11/02 19:39:05","新北市中和區忠孝街1巷2-1號","121.509081666667","24.983025","6500300","中和區"
"235053","900-TW","2017/11/02 19:39:21","新北市中和區民德路173號","121.468586666667","24.999565","6500300","中和區"
"235060","911-UM","2017/11/02 19:39:21","新北市中和區中山路二段523巷2號","121.481651666667","25.0050083333333","6500300","中和區"
"235037","157-BY","2017/11/02 19:39:13","新北市中和區景新街99號","121.505455","24.9980083333333","6500300","中和區"
"235037","AAC-213","2017/11/02 19:39:09","新北市中和區秀朗路三段10巷29弄5號","121.525046666667","24.996015","6500300","中和區"
"235059","AAC-215","2017/11/02 19:39:03","新北市中和區圓通路309號","121.493233333333","24.9908883333333","6500300","中和區"
"220068","013-TV","2017/11/02 19:39:16","新北市板橋區中山路二段418號","121.482978333333","25.0210666666667","6500100","板橋區"
"220065","072-UY","2017/11/02 19:39:12","新北市板橋區國泰街30巷1號","121.468265","25.006835","6500100","板橋區"
"220086","073-UY","2017/11/02 19:39:12","新北市板橋區中正路149號","121.45662","25.0157933333333","6500100","板橋區"
"220106","075-UY","2017/11/02 19:39:20","新北市板橋區雙十路三段10巷1弄31號","121.471305","25.03176","6500100","板橋區"
"220069","AAD-861","2017/11/02 19:39:21","新北市板橋區稚暉街18號","121.455876666667","25.0045033333333","6500100","板橋區"
"247004","336-TH","2017/11/02 19:38:53","新北市蘆洲區長安街98巷16號","121.462813333333","25.0816416666667","6501400","蘆洲區"
"247008","053-VK","2017/11/02 19:39:18","新北市蘆洲區中山二路45巷30號","121.474295","25.0812683333333","6501400","蘆洲區"
"226004","312-R5","2017/11/02 19:39:10","新北市平溪區十分里十分街210號","121.779088333333","25.0443766666667","6502400","平溪區"
"223003","205-TH","2017/11/02 09:54:57","新北市石碇區小粗坑(潭邊里)9-1號","121.677778333333","24.98478","6501900","石碇區"
"228003","097-TW","2017/11/02 19:39:21","新北市貢寮區真理里美艷山街31號","121.92326","25.069035","6502600","貢寮區"
"228001","212-TW","2017/11/02 19:39:10","新北市貢寮區真理里延平街61號","121.924545","25.055645","6502600","貢寮區"
"224010","AGQ-8101","2017/11/02 19:39:12","新北市瑞芳區基山街32-1號","121.844963333333","25.10851","6501200","瑞芳區"
"224002","639-TC","2017/11/02 19:39:12","新北市瑞芳區民享新村19號","121.816708333333","25.1057616666667","6501200","瑞芳區"
"227010","642-TC","2017/11/02 19:39:17","新北市雙溪區新基里新基北街20號","121.867216666667","25.0388833333333","6502500","雙溪區"
"227004","400-TW","2017/11/02 19:39:24","新北市雙溪區雙溪里太平路56號","121.864821666667","25.0355966666667","6502500","雙溪區"
"222001","KEA-2212","2017/11/02 19:39:22","新北市深坑區深坑街142號","121.613035","25.0015233333333","6501800","深坑區"
"208002","742-BX","2017/11/02 19:39:23","新北市金山區三民街16號","121.634743333333","25.222615","6502700","金山區"
"208003","665-BX","2017/11/02 19:39:08","新北市金山區仁愛路37-13號","121.635828333333","25.2202416666667","6502700","金山區"
"208001","761-BX","2017/11/02 19:39:05","新北市金山區六股里下六股39號","121.619508333333","25.2216016666667","6502700","金山區"
"251009","008-UM","2017/11/02 19:39:20","新北市淡水區中山北路一段198巷15號","121.445418333333","25.1792533333333","6501000","淡水區"
"251004","009-UM","2017/11/02 19:39:20","新北市淡水區中正東路二段153號","121.459836666667","25.146435","6501000","淡水區"
"251007","179-VK","2017/11/02 19:39:09","新北市淡水區中正東路一段111巷28號","121.4555","25.1608766666667","6501000","淡水區"
"251008","181-VK","2017/11/02 19:39:04","新北市淡水區中正路32巷8號","121.430418333333","25.17584","6501000","淡水區"
"251014","182-VK","2017/11/02 19:39:08","新北市淡水區桂竹圍4-3號","121.475723333333","25.2321416666667","6501000","淡水區"
"251010","413-VK","2017/11/02 19:39:21","新北市淡水區新市五路二段75號","121.431746666667","25.1992016666667","6501000","淡水區"
"251012","441-VK","2017/11/02 19:39:06","新北市淡水區中山北路三段164號","121.445608333333","25.1966733333333","6501000","淡水區"
"251016","442-VK","2017/11/02 19:39:03","新北市淡水區下圭柔山119-51號","121.450736666667","25.208455","6501000","淡水區"
"251005","443-VK","2017/11/02 19:39:04","新北市淡水區水源街一段47巷20號","121.443943333333","25.172985","6501000","淡水區"
"251001","559-UM","2017/11/02 19:39:18","新北市淡水區民權路51號","121.459693333333","25.139045","6501000","淡水區"
"251006","561-UM","2017/11/02 19:39:13","新北市淡水區中山北路一段247巷70號","121.442933333333","25.17947","6501000","淡水區"
"251011","650-BX","2017/11/02 19:39:15","新北市淡水區八勢一街48號","121.461168333333","25.1547866666667","6501000","淡水區"
"251003","766-UM","2017/11/02 19:39:14","新北市淡水區中山北路三段79號","121.444495","25.1924533333333","6501000","淡水區"
"207003","550-UM","2017/11/02 19:39:03","新北市萬里區大鵬里下社27號","121.648981666667","25.2172016666667","6502800","萬里區"
"207004","225-TW","2017/11/02 19:39:06","新北市萬里區萬里里瑪鋉路21號","121.687271666667","25.1754","6502800","萬里區"
"252002","178-VK","2017/11/02 19:39:20","新北市三芝區中正路一段36巷23號","121.504085","25.2587266666667","6502100","三芝區"
"252001","292-VK","2017/11/02 19:39:18","新北市三芝區公正街66號","121.499778333333","25.25748","6502100","三芝區"
"237004","078-UY","2017/11/02 19:39:11","新北市三峽區金敏189號","121.39307","24.8736583333333","6500900","三峽區"
"237007","153-BY","2017/11/02 19:39:05","新北市三峽區二鬮路178號","121.359091666667","24.9068566666667","6500900","三峽區"
"237009","210-TH","2017/11/02 19:39:17","新北市三峽區中園街69號","121.368086666667","24.9255383333333","6500900","三峽區"
"237013","252-BX","2017/11/02 19:39:09","新北市三峽區介壽路一段376號","121.38289","24.9306533333333","6500900","三峽區"
"237012","275-BY","2017/11/02 19:39:18","新北市三峽區民生街1號","121.374601666667","24.9353283333333","6500900","三峽區"
"237008","302-VK","2017/11/02 19:39:05","新北市三峽區光明路48號","121.374733333333","24.929645","6500900","三峽區"
"237014","433-BY","2017/11/02 19:39:06","新北市三峽區嘉添87號","121.368781666667","24.9098883333333","6500900","三峽區"
"237006","5529-G3","2017/11/02 19:39:15","新北市三峽區中正路一段336巷15弄2號","121.369945","24.9249483333333","6500900","三峽區"
"237016","649-BX","2017/11/02 19:39:12","新北市三峽區成福路136號","121.42185","24.929865","6500900","三峽區"
"237010","706-TV","2017/11/02 19:17:30","新北市三峽區民生街66號","121.374863333333","24.936055","6500900","三峽區"
"237014","756-BX","2017/11/02 15:08:36","新北市三峽區中山路459巷163-3號","121.34895","24.9331766666667","6500900","三峽區"
"237005","AKY-6261","2017/11/02 19:39:19","新北市三峽區中山路231巷1弄6號","121.3632","24.936665","6500900","三峽區"
"236071","105-UM","2017/11/02 19:39:20","新北市土城區金城路二段23-1號","121.448121666667","24.9766133333333","6501300","土城區"
"236042","107-UM","2017/11/02 19:39:08","新北市土城區學士路11號","121.45371","24.982895","6501300","土城區"
"236078","166-UM","2017/11/02 19:39:09","新北市土城區中州路27巷81號","121.412653333333","24.9564","6501300","土城區"
"236030","253-BX","2017/11/02 19:39:15","新北市土城區福祥街65號","121.44109","24.9805783333333","6501300","土城區"
"236026","269-VK","2017/11/02 19:39:07","新北市土城區中央路二段61巷20號","121.443128333333","24.9787983333333","6501300","土城區"
"236037","271-VK","2017/11/02 19:39:20","新北市土城區清水路98巷3弄29號","121.458266666667","24.9808966666667","6501300","土城區"
"236021","401-BY","2017/11/02 19:39:19","新北市土城區峰廷街3號","121.46911","24.9873633333333","6501300","土城區"
"236051","752-BX","2017/11/02 19:39:17","新北市土城區明德路一段68號","121.46553","24.9832483333333","6501300","土城區"
"236062","915-UM","2017/11/02 19:39:08","新北市土城區延平街19號","121.468208333333","24.9911983333333","6501300","土城區"
"236053","AAC-216","2017/11/02 19:39:01","新北市土城區裕民路174號","121.45251","24.98536","6501300","土城區"
"242031","AAC-296","2017/11/02 19:39:19","新北市新莊區新泰路213巷54號","121.444966666667","25.0384433333333","6500500","新莊區"
"242027","612-BX","2017/11/02 19:39:15","新北市新莊區新泰路357巷3弄57號","121.442041666667","25.0390816666667","6500500","新莊區"
"242048","442-UM","2017/11/02 19:39:08","新北市新莊區民安路39號","121.423675","25.0266","6500500","新莊區"
"242004","413-TV","2017/11/02 19:39:15","新北市新莊區化成路11巷45號","121.463315","25.0434566666667","6500500","新莊區"
"242009","173-VK","2017/11/02 19:39:16","新北市新莊區三和路12-21號","121.441851666667","25.0387216666667","6500500","新莊區"
"242002","176-VK","2017/11/02 19:39:17","新北市新莊區新泰路368號","121.44432","25.0428316666667","6500500","新莊區"
"242001","233-RS","2017/11/02 09:08:59","新北市新莊區環河路48-7號","121.436921666667","25.009825","6500500","新莊區"
"242013","347-TH","2017/11/02 19:39:23","新北市新莊區中誠街132號","121.449033333333","25.0475466666667","6500500","新莊區"
"238015","755-BX","2017/11/02 19:39:23","新北市樹林區育英街62號","121.421111666667","24.9894233333333","6500700","樹林區"
"238023","601-UM","2017/11/02 19:39:03","新北市樹林區三福街114號","121.406451666667","25.0163233333333","6500700","樹林區"
"238018","571-TV","2017/11/02 19:39:21","新北市樹林區環河路600-1號","121.404068333333","24.969315","6500700","樹林區"
"238024","5061-A6","2017/11/02 19:39:12","新北市樹林區佳園路一段72巷13-2號","121.39202","24.969695","6500700","樹林區"
"238021","KEA-2217","2017/11/02 19:39:20","新北市樹林區大有路124號","121.383668333333","24.949645","6500700","樹林區"
"238022","KEA-2213","2017/11/02 19:39:16","新北市樹林區名園街61號","121.420056666667","24.978015","6500700","樹林區"
"238016","308-TH","2017/11/02 19:39:14","新北市樹林區東和街26號","121.403033333333","24.98133","6500700","樹林區"
"238025","303-VK","2017/11/02 19:39:08","新北市樹林區中山路一段308號","121.420098333333","24.9863383333333","6500700","樹林區"
"238017","283-BY","2017/11/02 19:39:06","新北市樹林區保安街二段107巷1弄5號","121.415063333333","25.0008266666667","6500700","樹林區"
"238014","282-BY","2017/11/02 19:39:20","新北市樹林區千歲街39號","121.425225","24.99605","6500700","樹林區"
"238020","268-VK","2017/11/02 19:39:20","新北市樹林區俊英街111巷10-1號","121.423861666667","25.0095016666667","6500700","樹林區"
"238026","172-UY","2017/11/02 19:39:17","新北市樹林區佳園路二段15巷9弄6號","121.394196666667","24.963435","6500700","樹林區"
"239007","AAC-297","2017/11/02 19:39:09","新北市鶯歌區大湖路326巷55號","121.346073333333","24.9695933333333","6500800","鶯歌區"
"239006","891-R6","2017/11/02 19:39:03","新北市鶯歌區永昌街92號","121.341446666667","24.9497616666667","6500800","鶯歌區"
"239004","193-VK","2017/11/02 19:39:06","新北市鶯歌區二甲路85-8號","121.339791666667","24.9324833333333","6500800","鶯歌區"
"221008","489-VK","2017/11/02 19:39:13","新北市汐止區康寧街61巷49號","121.61974","25.06764","6501100","汐止區"
"221036","130-UY","2017/11/02 19:39:10","新北市汐止區康寧街901號","121.651691666667","25.0749683333333","6501100","汐止區"
"221015","131-UY","2017/11/02 19:39:18","新北市汐止區汐萬路一段119號","121.654136666667","25.0710333333333","6501100","汐止區"
"221010","269-BY","2017/11/02 19:39:01","新北市汐止區汐萬路一段417號","121.649163333333","25.0795383333333","6501100","汐止區"
"221012","276-VK","2017/11/02 13:14:44","新北市汐止區汐萬路一段256巷3號","121.653451666667","25.074595","6501100","汐止區"
"221012","278-VK","2017/11/02 19:39:17","新北市汐止區大同路三段529號","121.680945","25.07136","6501100","汐止區"
"221023","279-VK","2017/11/02 19:39:23","新北市汐止區中興路272號","121.628808333333","25.0689666666667","6501100","汐止區"
"221032","280-BY","2017/11/02 19:39:06","新北市汐止區大同路二段273號","121.652436666667","25.067905","6501100","汐止區"
"221027","281-BY","2017/11/02 19:39:08","新北市汐止區忠孝東路9號","121.658345","25.0659683333333","6501100","汐止區"
"221029","298-VK","2017/11/02 19:39:22","新北市汐止區康寧街901號","121.651406666667","25.074965","6501100","汐止區"
"221021","299-VK","2017/11/02 19:39:13","新北市汐止區南興路6巷1號","121.651761666667","25.0633366666667","6501100","汐止區"
"221031","353-TW","2017/11/02 19:39:18","新北市汐止區福德二路54巷2弄13號","121.63429","25.0678466666667","6501100","汐止區"
"221002","358-BY","2017/11/02 19:39:23","新北市汐止區大同路一段219巷27號","121.633218333333","25.05843","6501100","汐止區"
"221025","623-UM","2017/11/02 19:39:16","新北市汐止區福安街20巷1號","121.662583333333","25.0649433333333","6501100","汐止區"
"221038","646-BX","2017/11/02 19:39:22","新北市汐止區忠孝東路222號","121.662193333333","25.0667033333333","6501100","汐止區"
"221033","647-BX","2017/11/02 19:39:11","新北市汐止區南勢街1巷1號","121.627058333333","25.0374116666667","6501100","汐止區"
"221018","753-BX","2017/11/02 19:39:14","新北市汐止區康寧街901號","121.651373333333","25.0750366666667","6501100","汐止區"
"220079","145-BY","2017/11/02 19:39:03","新北市板橋區復興街92號","121.4596","25.0177166666667","6500100","板橋區"
"220080","200-UY","2017/11/02 19:39:14","新北市板橋區大觀路二段37巷236號","121.449611666667","25.0014316666667","6500100","板橋區"
"220082","610-BX","2017/11/02 19:39:10","新北市板橋區金門街46號","121.433213333333","24.9932016666667","6500100","板橋區"
"220101","245-BX","2017/11/02 19:39:21","新北市板橋區八德路三段33巷17-1號","121.47385","25.0214266666667","6500100","板橋區"
"220056","276-BY","2017/11/02 19:39:15","新北市板橋區四川路二段47巷3弄2號","121.45421","24.9946583333333","6500100","板橋區"
"220072","277-BY","2017/11/02 19:39:12","新北市板橋區金門街253巷17弄6號","121.433155","24.98853","6500100","板橋區"
"220071","283-VK","2017/11/02 19:39:05","新北市板橋區信義路16-3號","121.456973333333","24.9958316666667","6500100","板橋區"
"220094","285-UM","2017/11/02 19:39:06","新北市板橋區銘傳街78號","121.469121666667","25.03135","6500100","板橋區"
"220053","285-VK","2017/11/02 19:39:06","新北市板橋區中山路二段148巷30號","121.47715","25.0160733333333","6500100","板橋區"
"220083","286-VK","2017/11/02 19:39:08","新北市板橋區龍興街71巷22號","121.442866666667","25.002255","6500100","板橋區"
"220081","287-VK","2017/11/02 19:39:18","新北市板橋區大觀路一段29巷137弄1號","121.450218333333","25.005455","6500100","板橋區"
"220090","288-VK","2017/11/02 19:39:20","新北市板橋區長江路一段48巷17號","121.459368333333","25.0281633333333","6500100","板橋區"
"220061","295-UM","2017/11/02 19:39:14","新北市板橋區中山路一段265巷16號","121.468683333333","25.0146833333333","6500100","板橋區"
"220084","296-UM","2017/11/02 19:39:13","新北市板橋區滿平二街30巷3號","121.425465","24.9875233333333","6500100","板橋區"
"220075","297-UM","2017/11/02 19:39:09","新北市板橋區大勇街4巷2號","121.455026666667","25.017465","6500100","板橋區"
"220062","303-R5","2017/11/02 19:39:16","新北市板橋區三民路二段81巷17號","121.480183333333","25.016715","6500100","板橋區"
"220092","307-R5","2017/11/02 19:39:11","新北市板橋區陽明街29號","121.46533","25.02188","6500100","板橋區"
"220098","317-R6","2017/11/02 19:39:20","新北市板橋區四維路279巷63號","121.460625","25.027425","6500100","板橋區"
"220064","486-VK","2017/11/02 19:39:21","新北市板橋區民權路45號","121.46211","25.0113866666667","6500100","板橋區"
"220089","487-VK","2017/11/02 19:39:12","新北市板橋區新海路150號","121.460663333333","25.0238966666667","6500100","板橋區"
"242019","280-VK","2017/11/02 19:39:09","新北市新莊區三和路12-10號","121.442246666667","25.0367333333333","6500500","新莊區"
"220088","491-VK","2017/11/02 19:39:12","新北市板橋區文化路二段554號","121.476221666667","25.0341416666667","6500100","板橋區"
"220035","560-BX","2017/11/02 19:39:15","新北市板橋區金華街85巷42號","121.459146666667","25.0213516666667","6500100","板橋區"
"220103","561-BX","2017/11/02 19:39:05","新北市板橋區文化路一段280-3號","121.46727","25.0214383333333","6500100","板橋區"
"220063","609-BX","2017/11/02 19:39:15","新北市板橋區中山路二段553巷4弄6號","121.483555","25.0226283333333","6500100","板橋區"
"220091","637-BX","2017/11/02 19:39:04","新北市板橋區懷德街139巷20弄1號","121.480075","25.03073","6500100","板橋區"
"220057","686-BX","2017/11/02 19:39:11","新北市板橋區和平路16號","121.45986","24.9944733333333","6500100","板橋區"
"220077","687-BX","2017/11/02 19:39:06","新北市板橋區僑中一街96號","121.446875","25.0117666666667","6500100","板橋區"
"220093","689-BX","2017/11/02 19:39:22","新北市板橋區新海路466號","121.45757","25.0283633333333","6500100","板橋區"
"220054","741-BX","2017/11/02 19:39:21","新北市中和區德光路112號","121.46817","25.003745","6500100","板橋區"
"220055","827-TW","2017/11/02 19:39:15","新北市板橋區國慶路149巷7-3號","121.4612","24.9969466666667","6500100","板橋區"
"220067","829-TW","2017/11/02 19:39:16","新北市板橋區長安街138巷1弄5號","121.473071666667","25.009695","6500100","板橋區"
"220102","830-TW","2017/11/02 19:39:09","新北市板橋區雙十路二段46巷37號","121.47603","25.02901","6500100","板橋區"
"220096","831-TW","2017/11/02 19:39:18","新北市板橋區民生路二段226巷10弄2號","121.470576666667","25.0218516666667","6500100","板橋區"
"220074","895-R6","2017/11/02 19:39:11","新北市板橋區福德街2巷17號","121.455596666667","25.00906","6500100","板橋區"
"220073","985-R7","2017/11/02 19:39:21","新北市板橋區國光路49巷9號","121.458486666667","25.0186066666667","6500100","板橋區"
"220097","AAC-210","2017/11/02 19:39:17","新北市板橋區幸福路32巷2弄4號","121.461756666667","25.02073","6500100","板橋區"
"220070","AAC-253","2017/11/02 19:39:15","新北市板橋區民族路310號","121.470795","25.0066716666667","6500100","板橋區"
