"lineid","car","time","location","longitude","latitude","cityid","cityname"
"234013","149-BY","2017/11/02 20:29:13","新北市中和區環河西路三段123號","121.489001666667","25.0109366666667","6500400","永和區"
"234081","298-R6","2017/11/02 20:29:19","新北市永和區永貞路54號","121.520865","25.0058066666667","6500400","永和區"
"234038","336-UY","2017/11/02 20:29:16","新北市永和區成功路一段43巷16號","121.528135","25.0042916666667","6500400","永和區"
"234064","337-UY","2017/11/02 20:29:11","新北市永和區中正路417-1號","121.517198333333","25.0049916666667","6500400","永和區"
"234086","338-UY","2017/11/02 20:29:17","新北市永和區光復街11號","121.516411666667","25.0170333333333","6500400","永和區"
"234070","552-UM","2017/11/02 20:29:07","新北市永和區永亨路51號","121.520263333333","25.006325","6500400","永和區"
"234054","553-UM","2017/11/02 20:29:17","新北市永和區博愛街45巷25弄1號","121.519035","25.0169533333333","6500400","永和區"
"234030","746-BX","2017/11/02 20:29:13","新北市永和區民族街81巷62號","121.52025","24.9965666666667","6500400","永和區"
"234061","AAD-866","2017/11/02 20:29:05","新北市永和區安樂路194巷17弄10號","121.516158333333","25.0013666666667","6500400","永和區"
"234042","862-TW","2017/11/02 20:29:15","新北市永和區安樂路250號","121.514631666667","25.0035566666667","6500400","永和區"
"234050","863-TW","2017/11/02 20:29:17","新北市永和區環河西路二段29號","121.507495","25.0157166666667","6500400","永和區"
"249005","172-UM","2017/11/02 20:29:03","新北市八里區中山路三段299號","121.379445","25.138315","6502300","八里區"
"249004","303-UY","2017/11/02 20:29:14","新北市八里區中山路一段129巷20號","121.41379","25.1586083333333","6502300","八里區"
"249002","305-UY","2017/11/02 20:29:08","新北市八里區龍米路二段125巷5號","121.446616666667","25.1446983333333","6502300","八里區"
"249003","593-UM","2017/11/02 20:29:10","新北市八里區華峰一街27號","121.399043333333","25.146535","6502300","八里區"
"249001","759-BX","2017/11/02 20:29:04","新北市八里區下罟子5-11號","121.386853333333","25.1423116666667","6502300","八里區"
"248010","272-BY","2017/11/02 20:29:05","新北市五股區新五路二段2巷26-1號","121.439855","25.0679183333333","6501500","五股區"
"248002","678-BX","2017/11/02 20:29:11","新北市五股區新五路二段367號","121.44411","25.0882066666667","6501500","五股區"
"234023","9380-KE","2017/11/02 20:29:08","新北市永和區光復街2巷16弄40號","121.518315","25.0162516666667","6500400","永和區"
"234077","969-R7","2017/11/02 20:26:53","新北市板橋區文化路二段656號","121.481098333333","25.0399583333333","6500400","永和區"
"234074","AAC-211","2017/11/02 20:29:12","新北市永和區豫溪街193-3號","121.522853333333","25.010065","6500400","永和區"
"234067","AAC-212","2017/11/02 20:29:19","新北市永和區保平路292巷13弄2號","121.507405","25.00541","6500400","永和區"
"243009","297-R6","2017/11/02 20:29:19","新北市泰山區忠孝街40巷3號","121.428456666667","25.06535","6501600","泰山區"
"243014","421-VK","2017/11/02 20:29:05","新北市泰山區泰林路二段2-10號","121.419893333333","25.065","6501600","泰山區"
"243010","KEA-2215","2017/11/02 20:29:21","新北市泰山區明志路二段273巷16弄4號","121.4279","25.0471216666667","6501600","泰山區"
"243011","KEA-2216","2017/11/02 20:29:18","新北市泰山區新北大道六段291巷2號","121.424436666667","25.0340016666667","6501600","泰山區"
"243012","646-TV","2017/11/02 20:29:08","新北市泰山區忠孝街17巷2號","121.427553333333","25.0654216666667","6501600","泰山區"
"243016","680-BX","2017/11/02 20:29:11","新北市泰山區新生路21號","121.427175","25.04559","6501600","泰山區"
"222003","436-BY","2017/11/02 20:29:05","新北市深坑區深坑街32號","121.615163333333","25.0017666666667","6501800","深坑區"
"222002","659-BX","2017/11/02 20:29:05","新北市深坑區萬福路16巷16號","121.606538333333","25.0077383333333","6501800","深坑區"
"231041","002-UM","2017/11/02 20:29:03","新北市新店區中正路520號","121.533746666667","24.9837316666667","6500600","新店區"
"231059","046-UY","2017/11/02 20:29:13","新北市新店區安豐路49號","121.499978333333","24.9548983333333","6500600","新店區"
"231061","047-UY","2017/11/02 20:29:09","新北市新店區新和街34號","121.519171666667","24.9847616666667","6500600","新店區"
"231060","106-UY","2017/11/02 20:29:15","新北市新店區錦秀路11巷96弄21號","121.478841666667","24.9416366666667","6500600","新店區"
"231047","108-UY","2017/11/02 20:29:16","新北市新店區寶慶街58巷21-1號","121.541971666667","24.9872466666667","6500600","新店區"
"231052","187-VK","2017/11/02 20:29:09","新北市新店區松林路38號","121.546233333333","24.91026","6500600","新店區"
"231007","189-VK","2017/11/02 11:55:47","新北市新店區安華路28-1號","121.519576666667","24.961315","6500600","新店區"
"231050","KEA-2219","2017/11/02 20:29:07","新北市新店區博愛街27巷1號","121.541528333333","24.974045","6500600","新店區"
"231057","256-BX","2017/11/02 20:29:21","新北市新店區花園五路二段3號","121.553568333333","24.9342383333333","6500600","新店區"
"231058","3712-VJ","2017/11/02 20:29:16","新北市新店區中正路385號","121.534621666667","24.9770533333333","6500600","新店區"
"231055","3713-VJ","2017/11/02 20:29:09","新北市新店區車子路115-11號","121.5077","24.9546583333333","6500600","新店區"
"231056","4716-K9","2017/11/02 20:29:05","新北市新店區建安街33巷28號","121.538291666667","24.9753566666667","6500600","新店區"
"231067","4772-VM","2017/11/02 20:29:05","新北市新店區安康路一段355-3號","121.519816666667","24.9623766666667","6500600","新店區"
"231065","512-UM","2017/11/02 20:29:22","新北市新店區安祥路102巷46弄87號","121.487275","24.9632133333333","6500600","新店區"
"231054","513-UM","2017/11/02 20:29:07","新北市新店區檳榔路109號","121.544496666667","24.9616166666667","6500600","新店區"
"231064","515-UM","2017/11/02 20:29:18","新北市新店區新和街59巷2號","121.520008333333","24.9856283333333","6500600","新店區"
"231040","619-UM","2017/11/02 20:29:20","新北市新店區中正路352號","121.535953333333","24.975525","6500600","新店區"
"231042","641-BX","2017/11/02 20:29:20","新北市新店區寶橋路220號","121.551126666667","24.9787183333333","6500600","新店區"
"231063","645-TV","2017/11/02 20:29:20","新北市新店區玫瑰路4-1號","121.49347","24.951455","6500600","新店區"
"231068","718-UY","2017/11/02 20:29:16","新北市新店區寶元路一段65號","121.54218","24.9858016666667","6500600","新店區"
"231049","719-UM","2017/11/02 20:29:09","新北市新店區永業路81巷12號","121.531358333333","24.9484016666667","6500600","新店區"
"231051","719-UY","2017/11/02 20:29:02","新北市新店區中央七街125號","121.525043333333","24.9781516666667","6500600","新店區"
"231062","720-UM","2017/11/02 20:29:13","新北市新店區安泰路60巷134弄8號","121.484176666667","24.9441416666667","6500600","新店區"
"231044","897-TW","2017/11/02 20:29:11","新北市新店區建國路133號","121.53944","24.9782533333333","6500600","新店區"
"231045","898-TW","2017/11/02 20:29:06","新北市新店區新坡一街32號","121.549158333333","24.9622466666667","6500600","新店區"
"231043","899-TW","2017/11/02 20:29:09","新北市新店區民族路47號","121.540355","24.97867","6500600","新店區"
"231066","AKT-0513","2017/11/02 20:29:22","新北市新店區安興路105-1號","121.514586666667","24.97772","6500600","新店區"
"241011","013-R5","2017/11/02 20:29:05","新北市三重區龍門路40號","121.495966666667","25.0723983333333","6500200","三重區"
"241028","022-UY","2017/11/02 20:29:05","新北市三重區正義南路69-1號","121.49821","25.0601316666667","6500200","三重區"
"241029","059-VK","2017/11/02 20:29:11","新北市三重區集美街223號","121.491971666667","25.05502","6500200","三重區"
"241031","061-VK","2017/11/02 20:29:09","新北市三重區三寧街22號","121.489483333333","25.0599583333333","6500200","三重區"
"241017","063-VK","2017/11/02 20:29:22","新北市三重區自強路一段201號","121.491628333333","25.0683433333333","6500200","三重區"
"241024","065-VK","2017/11/02 20:29:09","新北市三重區三民街222號","121.480168333333","25.067275","6500200","三重區"
"241026","066-VK","2017/11/02 20:29:06","新北市三重區福德南路24巷2號","121.50315","25.0632166666667","6500200","三重區"
"241003","091-VK","2017/11/02 20:29:13","新北市三重區富華街119號","121.492441666667","25.0843783333333","6500200","三重區"
"241008","156-TC","2017/11/02 20:29:10","新北市三重區永福街256號","121.484315","25.0748816666667","6500200","三重區"
"241005","262-UM","2017/11/02 20:29:08","新北市三重區碧華街209號","121.488396666667","25.0828966666667","6500200","三重區"
"241015","265-UM","2017/11/02 20:29:04","新北市三重區文化北路41號","121.498928333333","25.0652","6500200","三重區"
"241016","266-UM","2017/11/02 20:29:12","新北市三重區正義北路190巷1號","121.496133333333","25.0668366666667","6500200","三重區"
"241022","267-UM","2017/11/02 20:29:08","新北市三重區重陽路二段19巷6號","121.487498333333","25.06249","6500200","三重區"
"241018","268-UM","2017/11/02 20:29:18","新北市三重區正義北路210號","121.496046666667","25.0675116666667","6500200","三重區"
"241032","269-UM","2017/11/02 20:29:16","新北市三重區興華街13號","121.486046666667","25.05982","6500200","三重區"
"241013","270-UM","2017/11/02 20:29:17","新北市三重區溪尾街8號","121.491483333333","25.0744566666667","6500200","三重區"
"241025","271-UM","2017/11/02 20:29:16","新北市三重區頂崁街210巷27號","121.475741666667","25.06812","6500200","三重區"
"241007","398-BY","2017/11/02 20:29:06","新北市三重區福隆路2號","121.489458333333","25.0774616666667","6500200","三重區"
"241009","KEA-2210","2017/11/02 20:29:09","新北市三重區永福街12號","121.482941666667","25.0782266666667","6500200","三重區"
"241020","413-TH","2017/11/02 20:29:16","新北市三重區三和路三段170巷8弄22號","121.492576666667","25.07241","6500200","三重區"
"241004","475-VK","2017/11/02 20:26:39","新北市三重區溪尾街165巷43號","121.490378333333","25.0805233333333","6500200","三重區"
"241019","478-VK","2017/11/02 20:29:21","新北市三重區重陽路四段124號","121.492448333333","25.0710833333333","6500200","三重區"
"241030","480-VK","2017/11/02 20:29:15","新北市三重區成功路62號","121.488571666667","25.0509683333333","6500200","三重區"
"241014","543-UM","2017/11/02 20:29:04","新北市三重區龍濱路277號","121.501258333333","25.0732416666667","6500200","三重區"
"241023","545-UM","2017/11/02 20:29:09","新北市三重區自由街19號","121.47974","25.0666416666667","6500200","三重區"
"241001","547-UM","2017/11/02 20:29:06","新北市三重區福隆路2號","121.489475","25.0773833333333","6500200","三重區"
"241035","743-BX","2017/11/02 20:29:17","新北市三重區正義北路68號","121.497191666667","25.0644016666667","6500200","三重區"
"241002","887-TS","2017/11/02 20:29:11","新北市三重區五華街21巷31號","121.496068333333","25.0812433333333","6500200","三重區"
"241012","941-UM","2017/11/02 20:29:18","新北市三重區龍濱路285號","121.500996666667","25.0734283333333","6500200","三重區"
"241033","AAC-255","2017/11/02 20:29:21","新北市三重區五谷王北街80巷59號","121.47462","25.05313","6500200","三重區"
"235039","097-UM","2017/11/02 20:29:18","新北市中和區大勇街27巷22號","121.516416666667","24.9940916666667","6500300","中和區"
"235050","4979-A6","2017/11/02 20:29:17","新北市中和區景平路385巷11號","121.502418333333","24.9942183333333","6500300","中和區"
"235069","4980-A6","2017/11/02 20:29:15","新北市中和區員山路359巷1弄1號","121.481048333333","25.0015916666667","6500300","中和區"
"235026","800-TS","2017/11/02 20:00:27","新北市中和區員山路36巷16-3號","121.484995","24.9916","6500300","中和區"
"235037","AAC-213","2017/11/02 20:29:09","新北市新莊區化成路579巷1號","121.464808333333","25.0661","6500300","中和區"
"247022","893-R6","2017/11/02 20:29:11","新北市蘆洲區中正路325號","121.46604","25.088915","6501400","蘆洲區"
"247012","546-UM","2017/11/02 20:29:15","新北市蘆洲區民族路208號","121.47977","25.0875283333333","6501400","蘆洲區"
"247020","500-BY","2017/11/02 20:29:12","新北市蘆洲區民族路331號","121.473846666667","25.0917266666667","6501400","蘆洲區"
"247010","339-TH","2017/11/02 20:29:19","新北市蘆洲區信義路218號","121.47905","25.0852133333333","6501400","蘆洲區"
"247002","337-TH","2017/11/02 20:29:08","新北市蘆洲區長安街361巷36號","121.455678333333","25.0875383333333","6501400","蘆洲區"
"247004","336-TH","2017/11/02 20:29:13","新北市蘆洲區永康街45號","121.457071666667","25.0853166666667","6501400","蘆洲區"
"247016","057-VK","2017/11/02 20:29:11","新北市蘆洲區光華路53號","121.46852","25.0828483333333","6501400","蘆洲區"
"247006","056-VK","2017/11/02 20:29:11","新北市蘆洲區和平路121巷14弄29號","121.46613","25.0800366666667","6501400","蘆洲區"
"247008","053-VK","2017/11/02 20:29:18","新北市蘆洲區重陽街112號","121.482605","25.0854033333333","6501400","蘆洲區"
"247014","007-UY","2017/11/02 20:29:22","新北市蘆洲區中山二路114號","121.472148333333","25.0817333333333","6501400","蘆洲區"
"247024","002-UY","2017/11/02 20:29:19","新北市蘆洲區光復路70巷19號","121.464641666667","25.085185","6501400","蘆洲區"
"247018","001-UY","2017/11/02 20:29:03","新北市蘆洲區民族路327巷54號","121.474581666667","25.0907","6501400","蘆洲區"
"223003","205-TH","2017/11/02 09:54:57","新北市石碇區小粗坑(潭邊里)9-1號","121.677778333333","24.98478","6501900","石碇區"
"222001","KEA-2212","2017/11/02 20:29:02","新北市深坑區北深路三段329號","121.597191666667","25.0049966666667","6501800","深坑區"
"251002","012-UM","2017/11/02 20:29:04","新北市淡水區中正路17號","121.442656666667","25.169625","6501000","淡水區"
"251008","181-VK","2017/11/02 20:29:24","新北市淡水區淡海路204號","121.420333333333","25.1856183333333","6501000","淡水區"
"251014","182-VK","2017/11/02 20:29:08","新北市淡水區石頭厝9-3號","121.458201666667","25.2366066666667","6501000","淡水區"
"251010","413-VK","2017/11/02 20:29:21","新北市淡水區沙崙路181巷15號","121.423988333333","25.1843433333333","6501000","淡水區"
"251012","441-VK","2017/11/02 20:29:09","新北市淡水區頂田寮路109號","121.458095","25.2161016666667","6501000","淡水區"
"251016","442-VK","2017/11/02 20:29:03","新北市淡水區淡金路四段507號","121.451475","25.2283016666667","6501000","淡水區"
"251006","561-UM","2017/11/02 20:29:13","新北市淡水區商工路302號","121.461833333333","25.1861233333333","6501000","淡水區"
"251011","650-BX","2017/11/02 20:29:15","新北市淡水區崁頂115號","121.432685","25.204525","6501000","淡水區"
"251003","766-UM","2017/11/02 20:29:14","新北市淡水區新生街108巷1-2號","121.44027","25.1747566666667","6501000","淡水區"
"207004","225-TW","2017/11/02 20:29:06","新北市萬里區北基里忠三街18號","121.684725","25.1756983333333","6502800","萬里區"
"252002","178-VK","2017/11/02 20:29:20","新北市三芝區中正路一段16-1號","121.502895","25.2586866666667","6502100","三芝區"
"252001","292-VK","2017/11/02 20:29:18","新北市三芝區中山路一段31號","121.500596666667","25.25801","6502100","三芝區"
"237014","756-BX","2017/11/02 15:08:36","新北市三峽區中山路459巷163-3號","121.34895","24.9331766666667","6500900","三峽區"
"236030","253-BX","2017/11/02 20:29:15","新北市土城區城林路6巷80號","121.438593333333","24.9800016666667","6501300","土城區"
"236014","270-VK","2017/11/02 20:29:02","新北市土城區廣明街65號","121.455023333333","24.99369","6501300","土城區"
"236021","401-BY","2017/11/02 20:29:21","新北市土城區延吉街29號","121.472385","24.98822","6501300","土城區"
"242031","AAC-296","2017/11/02 20:29:19","新北市新莊區三和路60-23號","121.43733","25.038945","6500500","新莊區"
"242029","986-R7","2017/11/02 20:29:09","新北市新莊區中華路二段203號","121.452311666667","25.0527383333333","6500500","新莊區"
"242023","613-BX","2017/11/02 20:29:18","新北市新莊區化成路547號","121.465086666667","25.0647533333333","6500500","新莊區"
"242027","612-BX","2017/11/02 20:28:21","新北市新莊區幸福路20號","121.458901666667","25.0495016666667","6500500","新莊區"
"242039","566-BX","2017/11/02 20:29:12","新北市新莊區成功街41號","121.425315","25.0209566666667","6500500","新莊區"
"242044","497-BY","2017/11/02 20:29:18","新北市新莊區龍安路22號","121.41447","25.0223383333333","6500500","新莊區"
"242048","442-UM","2017/11/02 20:29:11","新北市新莊區成功街206號","121.421325","25.0179483333333","6500500","新莊區"
"242053","440-UM","2017/11/02 20:29:22","新北市新莊區民安西路229巷8弄9號","121.426653333333","25.0137916666667","6500500","新莊區"
"242034","415-TV","2017/11/02 20:29:17","新北市新莊區中正路289號","121.448645","25.0352916666667","6500500","新莊區"
"242004","413-TV","2017/11/02 20:29:09","新北市新莊區化成路746巷41號","121.466745","25.058205","6500500","新莊區"
"242042","400-BY","2017/11/02 20:29:07","新北市新莊區中正路694巷3弄6號","121.418185","25.0281466666667","6500500","新莊區"
"242061","362-BY","2017/11/02 20:29:16","新北市新莊區新樹路244巷57號","121.43118","25.0194166666667","6500500","新莊區"
"242058","353-BY","2017/11/02 20:29:17","新北市新莊區四維路149號","121.422641666667","25.0221016666667","6500500","新莊區"
"242007","132-UY","2017/11/02 20:29:15","新北市新莊區思源路287巷2弄12號","121.459356666667","25.048585","6500500","新莊區"
"242036","133-UY","2017/11/02 20:29:08","新北市新莊區後港一路76巷10弄2號","121.42713","25.0260783333333","6500500","新莊區"
"242021","135-UY","2017/11/02 20:29:06","新北市新莊區公園路24號","121.448435","25.0391133333333","6500500","新莊區"
"242046","172-VK","2017/11/02 20:29:04","新北市新莊區裕民街54巷25號","121.41762","25.0246183333333","6500500","新莊區"
"242009","173-VK","2017/11/02 20:29:16","新北市新莊區昌盛街65巷2弄11號","121.455443333333","25.050185","6500500","新莊區"
"242015","175-VK","2017/11/02 20:29:09","新北市新莊區中平路36巷17號","121.445543333333","25.0436016666667","6500500","新莊區"
"242002","176-VK","2017/11/02 20:29:17","新北市新莊區新莊路2號","121.459293333333","25.0383083333333","6500500","新莊區"
"242001","233-RS","2017/11/02 09:08:59","新北市新莊區環河路48-7號","121.436921666667","25.009825","6500500","新莊區"
"242013","347-TH","2017/11/02 20:29:18","新北市新莊區中和街191巷71號","121.446636666667","25.05141","6500500","新莊區"
"242056","349-TH","2017/11/02 20:29:18","新北市新莊區瓊泰路181號","121.443036666667","25.03158","6500500","新莊區"
"242017","350-TH","2017/11/02 20:29:22","新北市新莊區中港二街120號","121.44865","25.045675","6500500","新莊區"
"242011","351-TH","2017/11/02 20:29:11","新北市新莊區中信街66-1號","121.448631666667","25.051235","6500500","新莊區"
"221008","489-VK","2017/11/02 20:29:13","新北市汐止區康寧街706-1號","121.63837","25.0729216666667","6501100","汐止區"
"221036","130-UY","2017/11/02 20:29:10","新北市汐止區仁愛路151巷28號","121.663223333333","25.0654966666667","6501100","汐止區"
"221015","131-UY","2017/11/02 20:29:18","新北市汐止區建成路142巷19弄9號","121.662005","25.0737233333333","6501100","汐止區"
"221010","269-BY","2017/11/02 20:29:01","新北市汐止區八連路二段636-3號","121.625331666667","25.110235","6501100","汐止區"
"221012","276-VK","2017/11/02 13:14:44","新北市汐止區汐萬路一段256巷3號","121.653451666667","25.074595","6501100","汐止區"
"221012","278-VK","2017/11/02 20:29:06","新北市汐止區大同路三段279號","121.674225","25.0749516666667","6501100","汐止區"
"221023","279-VK","2017/11/02 20:29:11","新北市汐止區湖東街5巷23號","121.634506666667","25.07329","6501100","汐止區"
"221032","280-BY","2017/11/02 20:29:06","新北市汐止區弘道街53巷12號","121.618743333333","25.0488933333333","6501100","汐止區"
"221027","281-BY","2017/11/02 20:29:18","新北市汐止區中正路226號","121.658068333333","25.06885","6501100","汐止區"
"221029","298-VK","2017/11/02 20:29:02","新北市汐止區樟樹一路129巷32號","121.640523333333","25.0650866666667","6501100","汐止區"
"221021","299-VK","2017/11/02 20:29:13","新北市汐止區水源路一段284號","121.654143333333","25.058285","6501100","汐止區"
"221031","353-TW","2017/11/02 20:29:18","新北市汐止區中興路142號","121.632768333333","25.06439","6501100","汐止區"
"221002","358-BY","2017/11/02 20:29:23","新北市汐止區福德一路10號","121.638921666667","25.069695","6501100","汐止區"
"221035","622-UM","2017/11/02 20:29:06","新北市汐止區長江街101-5號","121.658721666667","25.073175","6501100","汐止區"
"221025","623-UM","2017/11/02 20:29:16","新北市汐止區水源路二段88巷1弄9號","121.656576666667","25.05541","6501100","汐止區"
"221038","646-BX","2017/11/02 20:29:22","新北市汐止區忠孝東路236號","121.662485","25.0669866666667","6501100","汐止區"
"221033","647-BX","2017/11/02 20:29:11","新北市汐止區林森街73巷5號","121.623528333333","25.0409533333333","6501100","汐止區"
"221018","753-BX","2017/11/02 20:29:14","新北市汐止區茄苳路225巷11弄1號","121.671413333333","25.0692316666667","6501100","汐止區"
"220083","286-VK","2017/11/02 20:29:08","新北市板橋區僑中二街104巷38號","121.444628333333","25.0081633333333","6500100","板橋區"
"220084","296-UM","2017/11/02 20:29:13","新北市五股區新城三路61號","121.44948","25.09446","6500100","板橋區"
"220062","303-R5","2017/11/02 20:29:07","新北市林口區太平里180號","121.368225","25.1345216666667","6500100","板橋區"
"220098","317-R6","2017/11/02 20:29:05","新北市五股區中直路3-19號","121.427945","25.109195","6500100","板橋區"
"220089","487-VK","2017/11/02 20:29:12","新北市板橋區陽明街297號","121.46175","25.0267033333333","6500100","板橋區"
"242019","280-VK","2017/11/02 20:29:17","新北市新莊區民樂街83號","121.45796","25.0431333333333","6500500","新莊區"
"220088","491-VK","2017/11/02 20:29:12","新北市八里區荖阡坑路41-3號","121.399933333333","25.1323883333333","6500100","板橋區"
"220103","561-BX","2017/11/02 20:29:06","新北市板橋區漢生東路23巷38號","121.465776666667","25.0178583333333","6500100","板橋區"
"220070","AAC-253","2017/11/02 20:29:15","新北市泰山區新五路一段131號","121.440018333333","25.062495","6500100","板橋區"
