"lineid","car","time","location","longitude","latitude","cityid","cityname"
"234064","337-UY","2017/11/02 20:39:11","新北市永和區環河西路二段179號","121.504233333333","25.01287","6500400","永和區"
"234061","AAD-866","2017/11/02 20:39:05","新北市永和區中正路381號","121.517135","25.003665","6500400","永和區"
"234042","862-TW","2017/11/02 20:39:15","新北市永和區永和路一段222號","121.514406666667","25.0096916666667","6500400","永和區"
"249004","303-UY","2017/11/02 20:39:14","新北市八里區中山路一段157巷39號","121.412886666667","25.158055","6502300","八里區"
"249001","759-BX","2017/11/02 20:39:24","新北市八里區中山路三段333號","121.377473333333","25.13879","6502300","八里區"
"234023","9380-KE","2017/11/02 20:39:08","新北市永和區竹林路25巷21號","121.51814","25.01499","6500400","永和區"
"234077","969-R7","2017/11/02 20:39:13","新北市八里區商港路96號","121.394426666667","25.14775","6500400","永和區"
"234074","AAC-211","2017/11/02 20:39:12","新北市永和區竹林路119巷22弄3號","121.521525","25.0115966666667","6500400","永和區"
"243010","KEA-2215","2017/11/02 20:39:21","新北市泰山區泰林路二段603號","121.421376666667","25.063685","6501600","泰山區"
"243011","KEA-2216","2017/11/02 20:39:18","新北市泰山區文程路1號","121.42754","25.049735","6501600","泰山區"
"243016","680-BX","2017/11/02 20:39:21","新北市泰山區文程路7號","121.427901666667","25.0495966666667","6501600","泰山區"
"222003","436-BY","2017/11/02 20:39:12","新北市深坑區阿柔洋17-1號","121.61282","24.9993133333333","6501800","深坑區"
"222002","659-BX","2017/11/02 20:39:05","新北市深坑區萬福路43號","121.59941","25.0068616666667","6501800","深坑區"
"231041","002-UM","2017/11/02 20:39:03","新北市新店區中正路543-4號","121.53365","24.9874466666667","6500600","新店區"
"231059","046-UY","2017/11/02 20:39:20","新北市新店區僑愛二路1號","121.499831666667","24.9451483333333","6500600","新店區"
"231061","047-UY","2017/11/02 20:39:09","新北市新店區新和街38號","121.519335","24.98494","6500600","新店區"
"231060","106-UY","2017/11/02 20:39:15","新北市新店區安康路三段567-1號","121.475548333333","24.9436466666667","6500600","新店區"
"231047","108-UY","2017/11/02 20:39:16","新北市新店區寶慶街12-1號","121.543326666667","24.986895","6500600","新店區"
"231052","187-VK","2017/11/02 20:39:10","新北市新店區廣興路7-10號","121.545816666667","24.9116866666667","6500600","新店區"
"231007","189-VK","2017/11/02 11:55:47","新北市新店區安華路28-1號","121.519576666667","24.961315","6500600","新店區"
"231050","KEA-2219","2017/11/02 20:39:06","新北市新店區建興街5號","121.54009","24.9764083333333","6500600","新店區"
"231057","256-BX","2017/11/02 20:39:21","新北市新店區花園六路二段1-8號","121.55413","24.933155","6500600","新店區"
"231058","3712-VJ","2017/11/02 20:39:15","新北市新店區中正路307巷2號","121.536466666667","24.97453","6500600","新店區"
"231056","4716-K9","2017/11/02 20:39:05","新北市新店區中正路457號","121.533633333333","24.9802","6500600","新店區"
"231065","512-UM","2017/11/02 20:39:23","新北市新店區安祥路102巷87號","121.487055","24.9634933333333","6500600","新店區"
"231054","513-UM","2017/11/02 20:39:11","新北市新店區行政街12巷2號","121.542858333333","24.966485","6500600","新店區"
"231064","515-UM","2017/11/02 20:39:18","新北市新店區安和路三段112號","121.517116666667","24.98536","6500600","新店區"
"231040","619-UM","2017/11/02 20:39:20","新北市新店區中正路272號","121.538908333333","24.973575","6500600","新店區"
"231042","641-BX","2017/11/02 20:39:00","新北市新店區寶高路120巷1-1號","121.554643333333","24.97593","6500600","新店區"
"231063","645-TV","2017/11/02 20:39:19","新北市新店區玫瑰路4-1號","121.493613333333","24.9513916666667","6500600","新店區"
"231068","718-UY","2017/11/02 20:39:16","新北市新店區寶慶街35巷1弄2號","121.543148333333","24.9862916666667","6500600","新店區"
"231049","719-UM","2017/11/02 20:39:09","新北市新店區永業路81巷5弄32號","121.531058333333","24.94974","6500600","新店區"
"231051","719-UY","2017/11/02 20:39:02","新北市新店區中央七街7號","121.530498333333","24.97489","6500600","新店區"
"231062","720-UM","2017/11/02 20:39:13","新北市新店區雙城路4巷1號","121.4913","24.9508316666667","6500600","新店區"
"231044","897-TW","2017/11/02 20:39:09","新北市新店區建國路293巷1號","121.536668333333","24.9861833333333","6500600","新店區"
"231045","898-TW","2017/11/02 20:39:06","新北市新店區長春路120號","121.555971666667","24.9618333333333","6500600","新店區"
"231043","899-TW","2017/11/02 20:39:11","新北市新店區博愛街13巷27號","121.540361666667","24.9742816666667","6500600","新店區"
"231066","AKT-0513","2017/11/02 20:39:02","新北市新店區安興路112號","121.514586666667","24.977635","6500600","新店區"
"241011","013-R5","2017/11/02 20:39:05","新北市三重區龍濱路231號","121.501655","25.0720133333333","6500200","三重區"
"241028","022-UY","2017/11/02 20:39:05","新北市三重區光興街89號","121.497465","25.0599783333333","6500200","三重區"
"241029","059-VK","2017/11/02 20:39:11","新北市三重區集美街126巷27號","121.490193333333","25.05379","6500200","三重區"
"241031","061-VK","2017/11/02 20:39:09","新北市三重區重陽路一段113巷1弄49號","121.488113333333","25.0585783333333","6500200","三重區"
"241017","063-VK","2017/11/02 20:39:02","新北市三重區大同北路269號","121.49083","25.0673233333333","6500200","三重區"
"241024","065-VK","2017/11/02 20:39:09","新北市三重區忠孝路三段32號","121.481343333333","25.066775","6500200","三重區"
"241026","066-VK","2017/11/02 20:39:06","新北市三重區和平街1號","121.500085","25.0623066666667","6500200","三重區"
"241008","156-TC","2017/11/02 20:39:10","新北市三重區下竹圍街91號","121.481111666667","25.0748633333333","6500200","三重區"
"241005","262-UM","2017/11/02 20:39:08","新北市三重區碧華街337號","121.491751666667","25.08478","6500200","三重區"
"241015","265-UM","2017/11/02 20:39:04","新北市三重區雙園街1號","121.497835","25.0683766666667","6500200","三重區"
"241016","266-UM","2017/11/02 20:39:12","新北市三重區自強路一段141號","121.494728333333","25.0668183333333","6500200","三重區"
"241022","267-UM","2017/11/02 20:39:08","新北市三重區民生街61巷6弄3號","121.488636666667","25.0620466666667","6500200","三重區"
"241018","268-UM","2017/11/02 20:39:18","新北市三重區重陽路四段18號","121.490868333333","25.0689966666667","6500200","三重區"
"241032","269-UM","2017/11/02 20:39:16","新北市三重區重陽路一段120巷35號","121.485266666667","25.060195","6500200","三重區"
"241013","270-UM","2017/11/02 20:38:51","新北市三重區仁賢街6號","121.495651666667","25.074805","6500200","三重區"
"241025","271-UM","2017/11/02 20:39:16","新北市三重區頂崁街206巷40號","121.475751666667","25.0660483333333","6500200","三重區"
"241007","398-BY","2017/11/02 20:39:06","新北市三重區自強路四段12號","121.48843","25.0761866666667","6500200","三重區"
"241009","KEA-2210","2017/11/02 20:39:09","新北市三重區三和路四段382巷153號","121.478961666667","25.078095","6500200","三重區"
"241020","413-TH","2017/11/02 20:39:16","新北市三重區忠孝路一段61號","121.490863333333","25.0719733333333","6500200","三重區"
"241004","475-VK","2017/11/02 20:36:39","新北市三重區仁愛街508號","121.487898333333","25.0822083333333","6500200","三重區"
"241019","478-VK","2017/11/02 20:39:01","新北市三重區重陽路四段124號","121.492418333333","25.0711116666667","6500200","三重區"
"241030","480-VK","2017/11/02 20:39:15","新北市三重區成功路73巷11號","121.489501666667","25.0518733333333","6500200","三重區"
"241014","543-UM","2017/11/02 20:39:03","新北市三重區長興街14號","121.500101666667","25.0687516666667","6500200","三重區"
"241023","545-UM","2017/11/02 20:39:09","新北市三重區自由街25號","121.479448333333","25.0667083333333","6500200","三重區"
"241001","547-UM","2017/11/02 20:39:13","新北市三重區聯華街114號","121.485228333333","25.07484","6500200","三重區"
"241035","743-BX","2017/11/02 20:39:17","新北市三重區正義北路276號","121.495718333333","25.069065","6500200","三重區"
"241002","887-TS","2017/11/02 20:39:11","新北市三重區仁義街167巷38弄2號","121.498746666667","25.0827433333333","6500200","三重區"
"241012","941-UM","2017/11/02 20:39:18","新北市三重區河邊北街176巷2號","121.502846666667","25.0736516666667","6500200","三重區"
"241033","AAC-255","2017/11/02 20:39:01","新北市三重區光復路二段1號","121.472316666667","25.053325","6500200","三重區"
"235069","4980-A6","2017/11/02 20:39:15","新北市中和區連城路467-4號","121.483673333333","24.9961633333333","6500300","中和區"
"235026","800-TS","2017/11/02 20:00:27","新北市中和區員山路36巷16-3號","121.484995","24.9916","6500300","中和區"
"235037","AAC-213","2017/11/02 20:39:09","新北市八里區商港路88-1號","121.39319","25.1496116666667","6500300","中和區"
"247022","893-R6","2017/11/02 20:39:11","新北市蘆洲區中正路243巷7弄2號","121.467261666667","25.0860533333333","6501400","蘆洲區"
"247012","546-UM","2017/11/02 20:39:15","新北市蘆洲區民族路236巷52號","121.48163","25.088935","6501400","蘆洲區"
"247020","500-BY","2017/11/02 20:39:12","新北市蘆洲區民族路424號","121.473893333333","25.0918116666667","6501400","蘆洲區"
"247010","339-TH","2017/11/02 20:39:19","新北市蘆洲區集賢路406號","121.480141666667","25.0817566666667","6501400","蘆洲區"
"247002","337-TH","2017/11/02 20:39:08","新北市蘆洲區長安街375巷36號","121.455913333333","25.088055","6501400","蘆洲區"
"247004","336-TH","2017/11/02 20:39:13","新北市蘆洲區長安街222號","121.458223333333","25.0849866666667","6501400","蘆洲區"
"247016","057-VK","2017/11/02 20:39:11","新北市蘆洲區中山二路309號","121.469145","25.07705","6501400","蘆洲區"
"247006","056-VK","2017/11/02 20:39:11","新北市蘆洲區和平路138-1號","121.46694","25.080835","6501400","蘆洲區"
"247008","053-VK","2017/11/02 20:39:18","新北市蘆洲區重陽街16號","121.48065","25.0815233333333","6501400","蘆洲區"
"247014","007-UY","2017/11/02 20:39:22","新北市蘆洲區中山一路214號","121.47307","25.080785","6501400","蘆洲區"
"247024","002-UY","2017/11/02 20:39:19","新北市蘆洲區長樂路30號","121.463581666667","25.08537","6501400","蘆洲區"
"223003","205-TH","2017/11/02 09:54:57","新北市石碇區小粗坑(潭邊里)9-1號","121.677778333333","24.98478","6501900","石碇區"
"222001","KEA-2212","2017/11/02 20:39:03","新北市深坑區北深路三段230號","121.600723333333","25.00405","6501800","深坑區"
"251002","012-UM","2017/11/02 20:39:04","新北市淡水區中正路38-1號","121.44377","25.169285","6501000","淡水區"
"251014","182-VK","2017/11/02 20:39:08","新北市淡水區公埔子25號","121.46975","25.23188","6501000","淡水區"
"251010","413-VK","2017/11/02 20:39:21","新北市淡水區沙崙路181巷15號","121.423955","25.184335","6501000","淡水區"
"251012","441-VK","2017/11/02 20:39:06","新北市淡水區興仁路107號","121.451556666667","25.2181633333333","6501000","淡水區"
"251016","442-VK","2017/11/02 20:39:23","新北市淡水區後洲子8-2號","121.449613333333","25.22403","6501000","淡水區"
"251001","559-UM","2017/11/02 20:39:18","新北市淡水區淡金路145號","121.458121666667","25.1652516666667","6501000","淡水區"
"251006","561-UM","2017/11/02 20:39:13","新北市淡水區商工路186巷29號","121.450898333333","25.1866933333333","6501000","淡水區"
"251011","650-BX","2017/11/02 20:39:15","新北市淡水區新市一路一段361號","121.43617","25.1862083333333","6501000","淡水區"
"251003","766-UM","2017/11/02 20:39:14","新北市淡水區新民街120巷17號","121.438193333333","25.1780583333333","6501000","淡水區"
"252002","178-VK","2017/11/02 20:39:20","新北市三芝區淡金路二段47-2號","121.503708333333","25.260565","6502100","三芝區"
"252001","292-VK","2017/11/02 20:39:18","新北市三芝區長安街36號","121.501488333333","25.2562183333333","6502100","三芝區"
"237014","756-BX","2017/11/02 15:08:36","新北市三峽區中山路459巷163-3號","121.34895","24.9331766666667","6500900","三峽區"
"242031","AAC-296","2017/11/02 20:39:19","新北市新莊區三泰路56-18號","121.43444","25.0372966666667","6500500","新莊區"
"242029","986-R7","2017/11/02 20:39:09","新北市新莊區昌平街19號","121.45434","25.0513433333333","6500500","新莊區"
"242023","613-BX","2017/11/02 20:39:18","新北市新莊區化成路37號","121.464908333333","25.044585","6500500","新莊區"
"242027","612-BX","2017/11/02 20:39:20","新北市新莊區思源路77號","121.459793333333","25.040995","6500500","新莊區"
"242039","566-BX","2017/11/02 20:39:12","新北市新莊區民安路316號","121.428568333333","25.0220666666667","6500500","新莊區"
"242044","497-BY","2017/11/02 20:39:18","新北市新莊區龍安路108號","121.418368333333","25.0204383333333","6500500","新莊區"
"242048","442-UM","2017/11/02 20:39:06","新北市新莊區中正路863-2號","121.418795","25.0276283333333","6500500","新莊區"
"242053","440-UM","2017/11/02 20:39:22","新北市新莊區西盛街323巷24號","121.42902","25.0146883333333","6500500","新莊區"
"242034","415-TV","2017/11/02 20:39:17","新北市新莊區中正路403號","121.445128333333","25.0346266666667","6500500","新莊區"
"242004","413-TV","2017/11/02 20:39:09","新北市新莊區中原東路42巷16號","121.46371","25.0549683333333","6500500","新莊區"
"242042","400-BY","2017/11/02 20:39:07","新北市新莊區天祥街47巷2弄2號","121.41654","25.0287","6500500","新莊區"
"242061","362-BY","2017/11/02 20:39:08","新北市新莊區新樹路262號","121.432636666667","25.01479","6500500","新莊區"
"242058","353-BY","2017/11/02 20:39:17","新北市新莊區民安路138號","121.424193333333","25.0253516666667","6500500","新莊區"
"242007","132-UY","2017/11/02 20:39:15","新北市新莊區思源路147號","121.459706666667","25.0441483333333","6500500","新莊區"
"242036","133-UY","2017/11/02 20:39:08","新北市新莊區建安街10-1號","121.428533333333","25.0264433333333","6500500","新莊區"
"242021","135-UY","2017/11/02 20:39:06","新北市新莊區中華路一段73號","121.45221","25.0402683333333","6500500","新莊區"
"242046","172-VK","2017/11/02 20:39:25","新北市新莊區裕民街83號","121.418543333333","25.0238383333333","6500500","新莊區"
"242009","173-VK","2017/11/02 20:39:16","新北市新莊區昌隆街104號","121.456715","25.0509683333333","6500500","新莊區"
"242015","175-VK","2017/11/02 20:39:09","新北市新莊區中港一街153號","121.44758","25.045015","6500500","新莊區"
"242002","176-VK","2017/11/02 20:39:24","新北市新莊區中港路20號","121.455028333333","25.0371883333333","6500500","新莊區"
"242001","233-RS","2017/11/02 09:08:59","新北市新莊區環河路48-7號","121.436921666667","25.009825","6500500","新莊區"
"242013","347-TH","2017/11/02 20:39:18","新北市新莊區幸福路914號","121.442618333333","25.04897","6500500","新莊區"
"242056","349-TH","2017/11/02 20:39:18","新北市新莊區瓊泰路31號","121.443958333333","25.02858","6500500","新莊區"
"242017","350-TH","2017/11/02 20:39:22","新北市新莊區中港三街26號","121.450431666667","25.0464083333333","6500500","新莊區"
"242011","351-TH","2017/11/02 20:39:11","新北市新莊區中榮街124號","121.44658","25.05276","6500500","新莊區"
"221008","489-VK","2017/11/02 20:39:13","新北市汐止區康寧街861巷5號","121.645315","25.0761266666667","6501100","汐止區"
"221036","130-UY","2017/11/02 20:39:10","新北市汐止區新昌路12號","121.662158333333","25.0672333333333","6501100","汐止區"
"221015","131-UY","2017/11/02 20:39:23","新北市汐止區建成路48號","121.663851666667","25.072875","6501100","汐止區"
"221012","276-VK","2017/11/02 13:14:44","新北市汐止區汐萬路一段256巷3號","121.653451666667","25.074595","6501100","汐止區"
"221012","278-VK","2017/11/02 20:39:06","新北市汐止區汐萬路一段39號","121.65498","25.0690416666667","6501100","汐止區"
"221023","279-VK","2017/11/02 20:39:11","新北市汐止區民族二街30巷16號","121.634278333333","25.0717866666667","6501100","汐止區"
"221032","280-BY","2017/11/02 20:39:06","新北市汐止區橫科路52巷9弄7號","121.619238333333","25.050135","6501100","汐止區"
"221027","281-BY","2017/11/02 20:39:08","新北市汐止區大同路二段559號","121.662588333333","25.06976","6501100","汐止區"
"221029","298-VK","2017/11/02 20:39:22","新北市汐止區大同路一段513號","121.645465","25.06242","6501100","汐止區"
"221021","299-VK","2017/11/02 20:39:13","新北市汐止區水源路一段284號","121.654146666667","25.0582783333333","6501100","汐止區"
"221031","353-TW","2017/11/02 20:39:18","新北市汐止區中興路102號","121.633998333333","25.06288","6501100","汐止區"
"221002","358-BY","2017/11/02 20:39:22","新北市汐止區福德二路132巷2號","121.631126666667","25.065275","6501100","汐止區"
"221035","622-UM","2017/11/02 20:39:05","新北市汐止區長江街101-5號","121.65871","25.0731833333333","6501100","汐止區"
"221025","623-UM","2017/11/02 20:39:16","新北市汐止區水源路二段271-1號","121.659083333333","25.050555","6501100","汐止區"
"221038","646-BX","2017/11/02 20:39:02","新北市汐止區大同路二段184巷6號","121.653145","25.0638566666667","6501100","汐止區"
"221033","647-BX","2017/11/02 20:39:11","台北市南港區合順街8巷7弄38號","121.620216666667","25.04192","6501100","汐止區"
"221018","753-BX","2017/11/02 20:39:14","新北市汐止區中華街131巷5號","121.669736666667","25.070285","6501100","汐止區"
"220083","286-VK","2017/11/02 20:39:08","新北市板橋區僑中二街108巷17號","121.445041666667","25.0073066666667","6500100","板橋區"
"220084","296-UM","2017/11/02 20:39:13","新北市八里區下罟子5-11號","121.385971666667","25.1455216666667","6500100","板橋區"
"220062","303-R5","2017/11/02 20:39:07","新北市八里區荖阡坑路22-6號","121.39894","25.134295","6500100","板橋區"
"220098","317-R6","2017/11/02 20:39:05","新北市八里區中山路三段382號","121.368525","25.1359316666667","6500100","板橋區"
"242019","280-VK","2017/11/02 20:39:11","新北市新莊區銘德街117號","121.455366666667","25.0432033333333","6500500","新莊區"
"220088","491-VK","2017/11/02 20:39:12","新北市林口區汕頭32號","121.366373333333","25.1346716666667","6500100","板橋區"
"220103","561-BX","2017/11/02 20:39:05","新北市板橋區漢生東路73巷26號","121.467196666667","25.016995","6500100","板橋區"
"220070","AAC-253","2017/11/02 20:39:15","新北市五股區凌雲路三段17-2號","121.429746666667","25.1085916666667","6500100","板橋區"
