"lineid","car","time","location","longitude","latitude","cityid","cityname"
"249004","303-UY","2017/11/02 20:59:14","新北市八里區廈竹圍20號","121.397936666667","25.15313","6502300","八里區"
"234077","969-R7","2017/11/02 20:59:13","新北市林口區太平里180號","121.368526666667","25.1342716666667","6500400","永和區"
"231059","046-UY","2017/11/02 20:59:13","新北市新店區僑信路106號","121.500125","24.947095","6500600","新店區"
"231061","047-UY","2017/11/02 20:59:09","新北市新店區永安街60號","121.518875","24.9869","6500600","新店區"
"231060","106-UY","2017/11/02 20:59:15","新北市新店區安康路三段525巷50號","121.48222","24.9458633333333","6500600","新店區"
"231047","108-UY","2017/11/02 20:59:16","新北市新店區寶元路二段1巷1-2號","121.54744","24.9831083333333","6500600","新店區"
"231007","189-VK","2017/11/02 11:55:47","新北市新店區安華路28-1號","121.519576666667","24.961315","6500600","新店區"
"231050","KEA-2219","2017/11/02 20:59:07","新北市新店區三民路117巷4弄1號","121.534386666667","24.971555","6500600","新店區"
"231057","256-BX","2017/11/02 20:59:21","新北市新店區光明街22號","121.538063333333","24.9586416666667","6500600","新店區"
"231067","4772-VM","2017/11/02 20:59:05","新北市新店區安忠路205巷8號","121.50968","24.9550933333333","6500600","新店區"
"231065","512-UM","2017/11/02 20:59:19","新北市新店區安祥路67巷26號","121.484416666667","24.9597933333333","6500600","新店區"
"231054","513-UM","2017/11/02 20:59:07","新北市新店區中正路75巷61號","121.54336","24.9693866666667","6500600","新店區"
"231064","515-UM","2017/11/02 20:59:18","新北市新店區安和路二段207號","121.517735","24.9752266666667","6500600","新店區"
"231040","619-UM","2017/11/02 20:59:20","新北市新店區北新路一段100號","121.542063333333","24.9694133333333","6500600","新店區"
"231042","641-BX","2017/11/02 20:59:00","新北市新店區寶橋路98號","121.547125","24.9759883333333","6500600","新店區"
"231063","645-TV","2017/11/02 20:59:19","新北市新店區富貴街12巷2號","121.494051666667","24.94941","6500600","新店區"
"231068","718-UY","2017/11/02 20:59:16","新北市新店區寶中路71號","121.547455","24.9805483333333","6500600","新店區"
"231051","719-UY","2017/11/02 20:59:02","新北市新店區民生路156巷76號","121.527538333333","24.981885","6500600","新店區"
"231062","720-UM","2017/11/02 20:59:13","新北市新店區雙城路65號","121.49312","24.9483533333333","6500600","新店區"
"231043","899-TW","2017/11/02 20:59:13","新北市新店區民族路207號","121.536943333333","24.9760566666667","6500600","新店區"
"231066","AKT-0513","2017/11/02 20:59:22","新北市新店區吉安街14號","121.51671","24.9657866666667","6500600","新店區"
"241011","013-R5","2017/11/02 20:59:05","新北市三重區秀江街119號","121.499706666667","25.0722366666667","6500200","三重區"
"241028","022-UY","2017/11/02 20:59:05","新北市三重區新北大道一段7號","121.489873333333","25.0614033333333","6500200","三重區"
"241029","059-VK","2017/11/02 20:59:11","新北市三重區電信街48-1號","121.496723333333","25.05837","6500200","三重區"
"241031","061-VK","2017/11/02 20:59:09","新北市三重區重陽路一段113巷2弄2號","121.487496666667","25.0598966666667","6500200","三重區"
"241017","063-VK","2017/11/02 20:59:22","新北市三重區自強路一段175號","121.49297","25.0674416666667","6500200","三重區"
"241024","065-VK","2017/11/02 20:59:09","新北市三重區國道路一段58巷15號","121.481385","25.072115","6500200","三重區"
"241026","066-VK","2017/11/02 20:59:06","新北市三重區文化南路45號","121.500225","25.061395","6500200","三重區"
"241008","156-TC","2017/11/02 20:59:10","新北市三重區力行路二段136巷23弄26號","121.481163333333","25.0762983333333","6500200","三重區"
"241005","262-UM","2017/11/02 20:59:08","新北市三重區五華街141巷22號","121.491823333333","25.0853266666667","6500200","三重區"
"241015","265-UM","2017/11/02 20:59:24","新北市三重區福德北路46號","121.501976666667","25.0655466666667","6500200","三重區"
"241016","266-UM","2017/11/02 20:59:12","新北市三重區自強路一段95號","121.495826666667","25.0664266666667","6500200","三重區"
"241022","267-UM","2017/11/02 20:59:08","新北市三重區過圳街27-5號","121.487951666667","25.0623683333333","6500200","三重區"
"241018","268-UM","2017/11/02 20:59:18","新北市三重區自強路一段157號","121.493391666667","25.0670933333333","6500200","三重區"
"241032","269-UM","2017/11/02 20:59:19","新北市三重區三陽路135號","121.483103333333","25.0589133333333","6500200","三重區"
"241013","270-UM","2017/11/02 20:59:11","新北市三重區仁賢街6號","121.495671666667","25.07479","6500200","三重區"
"241025","271-UM","2017/11/02 20:59:16","新北市三重區貴陽街18號","121.484","25.0618866666667","6500200","三重區"
"241007","398-BY","2017/11/02 20:59:06","新北市三重區慈愛街1號","121.484595","25.0783716666667","6500200","三重區"
"241009","KEA-2210","2017/11/02 20:59:09","新北市三重區三和路四段197號","121.482186666667","25.079255","6500200","三重區"
"241020","413-TH","2017/11/02 20:59:16","新北市三重區忠孝路二段35號","121.485898333333","25.0710466666667","6500200","三重區"
"241004","475-VK","2017/11/02 20:59:19","新北市三重區溪尾街244號","121.487571666667","25.0819783333333","6500200","三重區"
"241019","478-VK","2017/11/02 20:59:21","新北市三重區自強路二段74巷21號","121.48793","25.0698983333333","6500200","三重區"
"241030","480-VK","2017/11/02 20:59:15","新北市三重區環河南路220-8號","121.4934","25.0527066666667","6500200","三重區"
"241014","543-UM","2017/11/02 20:59:23","新北市三重區長榮路75號","121.502598333333","25.06908","6500200","三重區"
"241023","545-UM","2017/11/02 20:59:09","新北市三重區忠孝路三段50巷41弄64號","121.482401666667","25.0637433333333","6500200","三重區"
"241001","547-UM","2017/11/02 20:59:06","新北市三重區三和路四段118巷16號","121.487966666667","25.0745116666667","6500200","三重區"
"241006","AAD-863","2017/11/02 20:59:11","新北市三重區永福街46-3號","121.481955","25.0780983333333","6500200","三重區"
"241002","887-TS","2017/11/02 20:59:11","新北市三重區仁義街157巷46號","121.498165","25.0815116666667","6500200","三重區"
"241012","941-UM","2017/11/02 20:59:18","新北市三重區龍門路274巷45號","121.501178333333","25.0755633333333","6500200","三重區"
"241033","AAC-255","2017/11/02 20:59:21","新北市三重區光復路二段56號","121.472005","25.0556633333333","6500200","三重區"
"235026","800-TS","2017/11/02 20:00:27","新北市中和區員山路36巷16-3號","121.484995","24.9916","6500300","中和區"
"247022","893-R6","2017/11/02 20:59:11","新北市蘆洲區中正路198號","121.466783333333","25.0883033333333","6501400","蘆洲區"
"247012","546-UM","2017/11/02 20:59:15","新北市蘆洲區民族路31號","121.4775","25.0849433333333","6501400","蘆洲區"
"247020","500-BY","2017/11/02 20:59:12","新北市蘆洲區民族路371號","121.471046666667","25.09124","6501400","蘆洲區"
"247010","339-TH","2017/11/02 20:59:19","新北市蘆洲區鷺江街72號","121.47708","25.08376","6501400","蘆洲區"
"247002","337-TH","2017/11/02 20:59:08","新北市蘆洲區永樂街38巷30號","121.45834","25.0895216666667","6501400","蘆洲區"
"247004","336-TH","2017/11/02 20:59:13","新北市蘆洲區永安南路二段268號","121.458621666667","25.080735","6501400","蘆洲區"
"247016","057-VK","2017/11/02 20:59:11","新北市蘆洲區正和街66號","121.46877","25.08122","6501400","蘆洲區"
"247006","056-VK","2017/11/02 20:59:11","新北市蘆洲區九芎街15巷12號","121.467868333333","25.07791","6501400","蘆洲區"
"247008","053-VK","2017/11/02 20:59:18","新北市蘆洲區民生街74號","121.472796666667","25.07912","6501400","蘆洲區"
"247014","007-UY","2017/11/02 20:59:02","新北市蘆洲區中山二路46巷25弄1號","121.474873333333","25.0823783333333","6501400","蘆洲區"
"247024","002-UY","2017/11/02 20:59:19","新北市蘆洲區光明路20號","121.461091666667","25.0864583333333","6501400","蘆洲區"
"247018","001-UY","2017/11/02 20:59:03","新北市蘆洲區民權路138-2號","121.473066666667","25.0889333333333","6501400","蘆洲區"
"223003","205-TH","2017/11/02 09:54:57","新北市石碇區小粗坑(潭邊里)9-1號","121.677778333333","24.98478","6501900","石碇區"
"251002","012-UM","2017/11/02 20:59:11","新北市淡水區水源街一段100號","121.446208333333","25.1721616666667","6501000","淡水區"
"251007","179-VK","2017/11/02 20:59:09","新北市淡水區仁愛街2巷31-3號","121.446476666667","25.171175","6501000","淡水區"
"251014","182-VK","2017/11/02 20:59:08","新北市淡水區淡金路五段72號","121.454973333333","25.233535","6501000","淡水區"
"251010","413-VK","2017/11/02 20:59:21","新北市淡水區淡海路27號","121.423685","25.1791133333333","6501000","淡水區"
"251012","441-VK","2017/11/02 20:59:06","新北市淡水區淡金路四段604號","121.45161","25.228965","6501000","淡水區"
"251016","442-VK","2017/11/02 20:59:23","新北市淡水區牛埔子41-1號","121.448255","25.2190683333333","6501000","淡水區"
"251001","559-UM","2017/11/02 20:59:18","新北市淡水區淡金路二段38號","121.451588333333","25.1817566666667","6501000","淡水區"
"251011","650-BX","2017/11/02 20:59:15","新北市淡水區新民街322巷2號","121.435343333333","25.18367","6501000","淡水區"
"251003","766-UM","2017/11/02 20:59:14","新北市淡水區新春街146號","121.442203333333","25.1815283333333","6501000","淡水區"
"237006","5529-G3","2017/11/02 20:52:55","新北市三峽區中山路459巷137號","121.350001666667","24.9340266666667","6500900","三峽區"
"237014","756-BX","2017/11/02 15:08:36","新北市三峽區中山路459巷163-3號","121.34895","24.9331766666667","6500900","三峽區"
"242046","172-VK","2017/11/02 20:59:04","新北市樹林區八德街630號","121.397256666667","24.9692266666667","6500500","新莊區"
"242001","233-RS","2017/11/02 09:08:59","新北市新莊區環河路48-7號","121.436921666667","25.009825","6500500","新莊區"
"221012","276-VK","2017/11/02 13:14:44","新北市汐止區汐萬路一段256巷3號","121.653451666667","25.074595","6501100","汐止區"
"221027","281-BY","2017/11/02 20:59:08","新北市汐止區康寧街901號","121.651735","25.0749216666667","6501100","汐止區"
"221029","298-VK","2017/11/02 20:59:02","新北市汐止區康寧街901號","121.65161","25.0749083333333","6501100","汐止區"
"221031","353-TW","2017/11/02 20:59:18","新北市汐止區汐萬路一段256巷1號","121.651713333333","25.07489","6501100","汐止區"
"221018","753-BX","2017/11/02 20:59:14","新北市汐止區康寧街901號","121.650846666667","25.07529","6501100","汐止區"
"220084","296-UM","2017/11/02 20:59:13","新北市八里區中山路三段369號","121.373218333333","25.1378183333333","6500100","板橋區"
"220062","303-R5","2017/11/02 20:59:06","新北市板橋區民生路二段120號","121.470468333333","25.0196833333333","6500100","板橋區"
"220098","317-R6","2017/11/02 20:59:05","新北市八里區中華路三段7巷5號","121.397241666667","25.1440483333333","6500100","板橋區"
"220088","491-VK","2017/11/02 20:59:12","新北市五股區成泰路三段590-3號","121.452706666667","25.106015","6500100","板橋區"
"220070","AAC-253","2017/11/02 20:59:15","新北市八里區中山路三段409號","121.368366666667","25.134935","6500100","板橋區"
