"lineid","car","time","location","longitude","latitude","cityid","cityname"
"234077","969-R7","2017/11/02 21:19:13","新北市三重區五谷王北街161-1號","121.4778","25.05413","6500400","永和區"
"231059","046-UY","2017/11/02 21:19:13","新北市新店區薏仁坑路自強巷1號","121.496828333333","24.9581016666667","6500600","新店區"
"231061","047-UY","2017/11/02 21:19:09","新北市新店區柴埕路52巷1-1號","121.511573333333","24.9642966666667","6500600","新店區"
"231047","108-UY","2017/11/02 21:19:16","新北市新店區中央路200號","121.530528333333","24.974155","6500600","新店區"
"231007","189-VK","2017/11/02 11:55:47","新北市新店區安華路28-1號","121.519576666667","24.961315","6500600","新店區"
"231050","KEA-2219","2017/11/02 21:19:07","新北市新店區中華路83巷4弄20號","121.538303333333","24.9689216666667","6500600","新店區"
"231065","512-UM","2017/11/02 21:19:22","新北市新店區安康路二段458號","121.494098333333","24.954195","6500600","新店區"
"231040","619-UM","2017/11/02 21:19:20","新北市新店區北新路一段4號","121.540635","24.9652866666667","6500600","新店區"
"231063","645-TV","2017/11/02 21:19:19","新北市新店區玫瑰路57巷24號","121.496536666667","24.9462683333333","6500600","新店區"
"231051","719-UY","2017/11/02 21:19:22","新北市新店區中正路680巷51弄9號","121.535183333333","24.9893716666667","6500600","新店區"
"241011","013-R5","2017/11/02 21:19:07","新北市三重區龍濱路191號","121.50191","25.071195","6500200","三重區"
"241028","022-UY","2017/11/02 21:19:05","新北市三重區同安東街82號","121.498993333333","25.0575366666667","6500200","三重區"
"241031","061-VK","2017/11/02 21:19:09","新北市三重區重新路五段408巷19號","121.475743333333","25.0455583333333","6500200","三重區"
"241017","063-VK","2017/11/02 21:19:22","新北市三重區中正北路25巷25弄3號","121.493255","25.062665","6500200","三重區"
"241024","065-VK","2017/11/02 21:19:09","新北市三重區中正北路145巷8弄2號","121.484093333333","25.0677833333333","6500200","三重區"
"241026","066-VK","2017/11/02 21:19:06","新北市三重區大同南路220號","121.496795","25.0562083333333","6500200","三重區"
"241003","091-VK","2017/11/02 21:19:13","新北市三重區仁義街335號","121.495161666667","25.0847733333333","6500200","三重區"
"241008","156-TC","2017/11/02 21:19:10","新北市三重區自強路一段62號","121.497311666667","25.0666183333333","6500200","三重區"
"241005","262-UM","2017/11/02 21:19:08","新北市三重區三信路61號","121.487441666667","25.0855583333333","6500200","三重區"
"241015","265-UM","2017/11/02 21:19:04","新北市三重區三和路一段39巷11號","121.504101666667","25.065315","6500200","三重區"
"241016","266-UM","2017/11/02 21:19:12","新北市三重區自強路一段91號","121.495956666667","25.066405","6500200","三重區"
"241018","268-UM","2017/11/02 21:19:18","新北市三重區忠孝路二段99號","121.484133333333","25.0699883333333","6500200","三重區"
"241032","269-UM","2017/11/02 21:19:16","新北市三重區光華路16號","121.469428333333","25.05982","6500200","三重區"
"241013","270-UM","2017/11/02 21:19:11","新北市三重區仁和街1號","121.496076666667","25.07335","6500200","三重區"
"241025","271-UM","2017/11/02 21:19:16","新北市三重區中正北路208巷8號","121.48231","25.06698","6500200","三重區"
"241007","398-BY","2017/11/02 21:19:06","新北市三重區忠孝路一段107號","121.489216666667","25.0720566666667","6500200","三重區"
"241009","KEA-2210","2017/11/02 21:19:09","新北市三重區洛陽街43號","121.482126666667","25.06331","6500200","三重區"
"241004","475-VK","2017/11/02 21:19:19","新北市三重區仁愛街420號","121.490415","25.0814266666667","6500200","三重區"
"241019","478-VK","2017/11/02 21:19:21","新北市三重區重陽路四段4號","121.490515","25.0688666666667","6500200","三重區"
"241030","480-VK","2017/11/02 21:19:15","新北市三重區五谷王北街161-1號","121.47712","25.0542566666667","6500200","三重區"
"241014","543-UM","2017/11/02 21:19:03","新北市三重區介壽路39巷46號","121.499853333333","25.0703816666667","6500200","三重區"
"241023","545-UM","2017/11/02 21:19:09","新北市三重區中正北路176巷27號","121.482618333333","25.0659633333333","6500200","三重區"
"241006","AAD-863","2017/11/02 21:19:11","新北市三重區重陽路二段67號","121.487738333333","25.0638566666667","6500200","三重區"
"241002","887-TS","2017/11/02 21:19:11","新北市三重區五華街14號","121.494916666667","25.0802683333333","6500200","三重區"
"241012","941-UM","2017/11/02 21:19:18","新北市三重區龍門路245號","121.502138333333","25.0740966666667","6500200","三重區"
"241033","AAC-255","2017/11/02 21:19:21","新北市三重區中興北街219號","121.469151666667","25.058465","6500200","三重區"
"235026","800-TS","2017/11/02 20:00:27","新北市中和區員山路36巷16-3號","121.484995","24.9916","6500300","中和區"
"247022","893-R6","2017/11/02 21:19:11","新北市蘆洲區三民路224號","121.468626666667","25.0893416666667","6501400","蘆洲區"
"247012","546-UM","2017/11/02 21:19:15","新北市蘆洲區民族路236巷8號","121.480281666667","25.0884966666667","6501400","蘆洲區"
"247020","500-BY","2017/11/02 21:19:11","新北市蘆洲區民族路422巷116號","121.47269","25.094225","6501400","蘆洲區"
"247010","339-TH","2017/11/02 21:19:19","新北市蘆洲區鷺江街23號","121.478903333333","25.0824516666667","6501400","蘆洲區"
"247002","337-TH","2017/11/02 21:19:08","新北市蘆洲區永樂街39號","121.457816666667","25.0882716666667","6501400","蘆洲區"
"247004","336-TH","2017/11/02 21:19:13","新北市蘆洲區永安南路二段324號","121.456953333333","25.08275","6501400","蘆洲區"
"247006","056-VK","2017/11/02 21:19:11","新北市蘆洲區長安街41號","121.463533333333","25.0793966666667","6501400","蘆洲區"
"247008","053-VK","2017/11/02 21:19:18","新北市蘆洲區中山一路97巷24號","121.475925","25.0809016666667","6501400","蘆洲區"
"247014","007-UY","2017/11/02 21:19:02","新北市蘆洲區保和街50-6號","121.469863333333","25.0863283333333","6501400","蘆洲區"
"247024","002-UY","2017/11/02 21:19:19","新北市蘆洲區光明路98號","121.463153333333","25.0879466666667","6501400","蘆洲區"
"247018","001-UY","2017/11/02 21:19:03","新北市蘆洲區復興路105巷7號","121.4764","25.0882133333333","6501400","蘆洲區"
"223003","205-TH","2017/11/02 09:54:57","新北市石碇區小粗坑(潭邊里)9-1號","121.677778333333","24.98478","6501900","石碇區"
"251009","008-UM","2017/11/02 21:19:20","新北市淡水區民族路112巷1號","121.462716666667","25.135205","6501000","淡水區"
"251002","012-UM","2017/11/02 21:19:04","新北市淡水區學府路172巷21號","121.448331666667","25.1748766666667","6501000","淡水區"
"251008","181-VK","2017/11/02 21:19:24","新北市淡水區水源街二段236號","121.460983333333","25.1763516666667","6501000","淡水區"
"251014","182-VK","2017/11/02 21:19:08","新北市淡水區六塊厝2-1號","121.450081666667","25.2403566666667","6501000","淡水區"
"251010","413-VK","2017/11/02 21:19:20","新北市淡水區中正路一段156巷12號","121.421808333333","25.1808216666667","6501000","淡水區"
"251012","441-VK","2017/11/02 21:19:06","新北市淡水區石頭埔8號","121.45261","25.2345733333333","6501000","淡水區"
"251016","442-VK","2017/11/02 21:19:03","新北市淡水區牛埔子10-1號","121.449896666667","25.2184416666667","6501000","淡水區"
"251005","443-VK","2017/11/02 21:19:04","新北市淡水區仁愛街15-4號","121.446458333333","25.17046","6501000","淡水區"
"251001","559-UM","2017/11/02 21:19:18","新北市淡水區中山北路二段185號","121.444036666667","25.1851766666667","6501000","淡水區"
"251006","561-UM","2017/11/02 21:19:13","新北市淡水區沙崙路1號","121.420348333333","25.180755","6501000","淡水區"
"251011","650-BX","2017/11/02 21:19:15","新北市淡水區新民街120巷29號","121.43886","25.1788483333333","6501000","淡水區"
"251003","766-UM","2017/11/02 21:19:14","新北市淡水區新春街85巷27號","121.438533333333","25.1836716666667","6501000","淡水區"
"237006","5529-G3","2017/11/02 20:52:55","新北市三峽區中山路459巷137號","121.350001666667","24.9340266666667","6500900","三峽區"
"237014","756-BX","2017/11/02 15:08:36","新北市三峽區中山路459巷163-3號","121.34895","24.9331766666667","6500900","三峽區"
"242046","172-VK","2017/11/02 21:19:03","新北市新莊區瓊林南路301巷13號","121.436073333333","25.0059433333333","6500500","新莊區"
"242001","233-RS","2017/11/02 09:08:59","新北市新莊區環河路48-7號","121.436921666667","25.009825","6500500","新莊區"
"221012","276-VK","2017/11/02 13:14:44","新北市汐止區汐萬路一段256巷3號","121.653451666667","25.074595","6501100","汐止區"
"220084","296-UM","2017/11/02 21:19:13","新北市新莊區新泰路401巷29-1號","121.442118333333","25.0436716666667","6500100","板橋區"
"220088","491-VK","2017/11/02 21:19:12","新北市板橋區民生路二段161巷1號","121.469985","25.02011","6500100","板橋區"
"220070","AAC-253","2017/11/02 21:19:15","新北市五股區新五路三段13號","121.445141666667","25.088805","6500100","板橋區"
