"lineid","car","time","location","longitude","latitude","cityid","cityname"
"231007","189-VK","2017/11/02 11:55:47","新北市新店區安華路28-1號","121.519576666667","24.961315","6500600","新店區"
"241005","262-UM","2017/11/02 21:49:09","新北市三重區集賢路87-1號","121.49372","25.0868833333333","6500200","三重區"
"235026","800-TS","2017/11/02 20:00:27","新北市中和區員山路36巷16-3號","121.484995","24.9916","6500300","中和區"
"247010","339-TH","2017/11/02 21:49:19","新北市八里區下罟子17號","121.379698333333","25.14307","6501400","蘆洲區"
"247008","053-VK","2017/11/02 21:49:18","新北市林口區汕頭32號","121.366478333333","25.135025","6501400","蘆洲區"
"223003","205-TH","2017/11/02 09:54:57","新北市石碇區小粗坑(潭邊里)9-1號","121.677778333333","24.98478","6501900","石碇區"
"251009","008-UM","2017/11/02 21:49:20","新北市淡水區民族路35巷32號","121.4647","25.1364816666667","6501000","淡水區"
"251004","009-UM","2017/11/02 21:49:14","新北市淡水區民權路92巷35-1號","121.462113333333","25.12676","6501000","淡水區"
"251002","012-UM","2017/11/02 21:49:04","新北市淡水區大忠街157號","121.448198333333","25.17659","6501000","淡水區"
"251007","179-VK","2017/11/02 21:49:09","新北市淡水區水源街二段177巷41弄3號","121.453056666667","25.176805","6501000","淡水區"
"251008","181-VK","2017/11/02 21:49:24","新北市淡水區學府路104號","121.449828333333","25.17175","6501000","淡水區"
"251014","182-VK","2017/11/02 21:49:08","新北市淡水區淡金路三段431-5號","121.449476666667","25.2101283333333","6501000","淡水區"
"251012","441-VK","2017/11/02 21:49:06","新北市淡水區埤島28號","121.447508333333","25.1984933333333","6501000","淡水區"
"251016","442-VK","2017/11/02 21:49:22","新北市淡水區濱海路一段53號","121.443975","25.1890833333333","6501000","淡水區"
"251005","443-VK","2017/11/02 21:49:04","新北市淡水區鄧公路30巷8號","121.452936666667","25.169665","6501000","淡水區"
"251001","559-UM","2017/11/02 21:49:18","新北市淡水區後洲路一段157號","121.427761666667","25.19864","6501000","淡水區"
"251011","650-BX","2017/11/02 21:49:15","新北市淡水區新民街322巷5弄1號","121.436186666667","25.1830316666667","6501000","淡水區"
"251003","766-UM","2017/11/02 21:49:17","新北市淡水區新春街8號","121.43651","25.1811033333333","6501000","淡水區"
"237006","5529-G3","2017/11/02 20:52:55","新北市三峽區中山路459巷137號","121.350001666667","24.9340266666667","6500900","三峽區"
"237014","756-BX","2017/11/02 15:08:36","新北市三峽區中山路459巷163-3號","121.34895","24.9331766666667","6500900","三峽區"
"242001","233-RS","2017/11/02 09:08:59","新北市新莊區環河路48-7號","121.436921666667","25.009825","6500500","新莊區"
"221012","276-VK","2017/11/02 13:14:44","新北市汐止區汐萬路一段256巷3號","121.653451666667","25.074595","6501100","汐止區"
"220080","200-UY","2017/11/02 21:32:33","新北市板橋區華東街1-10號","121.448406666667","24.9949333333333","6500100","板橋區"
"220070","AAC-253","2017/11/02 21:49:15","新北市板橋區華東街1-9號","121.448241666667","24.9948616666667","6500100","板橋區"
