"lineid","car","time","location","longitude","latitude","cityid","cityname"
"232003","290-BY","2017/11/03 04:24:32","新北市坪林區北宜路八段558號","121.718125","24.9091083333333","6502000","坪林區"
"232015","291-BY","2017/11/03 06:49:13","新北市坪林區北宜路八段298號","121.710101666667","24.9352266666667","6502000","坪林區"
"232019","705-BZ","2017/11/03 06:49:20","新北市坪林區鶯子瀨12-1號","121.711586666667","24.9148566666667","6502000","坪林區"
"232008","758-BX","2017/11/03 06:49:13","新北市坪林區鶯子瀨1-4號","121.707421666667","24.91759","6502000","坪林區"
"244004","657-BX","2017/11/03 06:49:11","新北市林口區粉寮路二段160巷28號","121.405135","25.0907633333333","6501700","林口區"
"223006","022-BY","2017/11/03 06:49:13","新北市石碇區石崁1號","121.651846666667","25.001315","6501900","石碇區"
"223002","198-BX","2017/11/03 06:49:20","新北市石碇區烏塗窟48號","121.652986666667","24.9698683333333","6501900","石碇區"
"223003","205-TH","2017/11/03 06:49:15","新北市石碇區湳窟42號","121.66356","24.9958983333333","6501900","石碇區"
"223008","406-TH","2017/11/03 06:49:16","新北市石碇區碇坪路一段49號","121.659251666667","24.9914183333333","6501900","石碇區"
"223004","437-BY","2017/11/03 06:49:12","新北市石碇區碇坪路一段111號","121.664156666667","24.98825","6501900","石碇區"
"223001","592-UM","2017/11/03 06:49:18","新北市石碇區湳窟41號","121.663263333333","24.996005","6501900","石碇區"
"223007","661-BX","2017/11/03 06:49:11","新北市石碇區雙溪36號","121.650268333333","25.00888","6501900","石碇區"
"227005","282-VK","2017/11/03 06:49:19","新北市雙溪區新基里自強路5-1號","121.866386666667","25.039105","6502500","雙溪區"
"236001","138-TH","2017/11/03 06:49:07","新北市土城區中央路四段2-3號","121.426276666667","24.9633483333333","6501300","土城區"
"236010","165-UM","2017/11/03 06:49:20","新北市土城區永平街51號","121.42795","24.959135","6501300","土城區"
"242001","233-RS","2017/11/03 06:49:05","新北市新莊區中港路290號","121.452951666667","25.0445783333333","6500500","新莊區"
"220080","461-BY","2017/11/03 06:48:07","新北市板橋區國光路49巷15號","121.458861666667","25.0187033333333","6500100","板橋區"
