"lineid","car","time","location","longitude","latitude","cityid","cityname"
"248005","653-BX","2017/11/16 09:29:41","新北市五股區登林路貿商巷2弄2號","121.430553333333","25.0695816666667","6501500","五股區"
"244012","069-UM","2017/11/16 09:29:50","","121.376913333333","25.0703466666667","6501700","林口區"
"244018","403-UM","2017/11/16 09:29:40","新北市林口區忠孝路606號","121.376483333333","25.0682683333333","6501700","林口區"
"244024","742-UY","2017/11/16 09:29:52","新北市林口區自強三街3號","121.397136666667","25.0778883333333","6501700","林口區"
"244008","410-SL","2017/11/16 09:29:49","新北市林口區竹林路366巷14號","121.392676666667","25.0846733333333","6501700","林口區"
"244022","483-VK","2017/11/16 09:29:36","新北市林口區文化二路二段110巷19號","121.380471666667","25.0812333333333","6501700","林口區"
"244006","656-BX","2017/11/16 09:29:30","新北市林口區後湖19-1號","121.387866666667","25.0985316666667","6501700","林口區"
"244003","657-BX","2017/11/16 09:29:37","新北市林口區文化二路一段380號","121.374298333333","25.076495","6501700","林口區"
"244010","701-TV","2017/11/16 09:29:44","新北市林口區仁愛路一段282號","121.393168333333","25.07612","6501700","林口區"
"222006","289-BY","2017/11/16 09:29:45","新北市深坑區昇高坑路26號","121.626126666667","25.0003116666667","6501800","深坑區"
"231069","188-VK","2017/11/16 09:29:36","新北市新店區新潭路三段215巷25號","121.50808","24.904125","6500600","新店區"
"231008","192-VK","2017/11/16 09:29:48","新北市新店區平廣路一段30號","121.535395","24.903385","6500600","新店區"
"223001","205-TH","2017/11/16 09:29:41","新北市石碇區北宜路四段30號","121.623493333333","24.95692","6501900","石碇區"
"223008","406-TH","2017/11/16 09:29:33","新北市石碇區頭8-1號","121.707331666667","24.9986733333333","6501900","石碇區"
"223007","437-BY","2017/11/16 09:29:37","新北市石碇區頭7-1號","121.707525","24.9977783333333","6501900","石碇區"
"223001","592-UM","2017/11/16 09:29:47","新北市石碇區北宜路四段2號","121.610378333333","24.9573533333333","6501900","石碇區"
"223005","677-TV","2017/11/16 09:29:47","新北市石碇區碇坪路一段186號","121.667731666667","24.98433","6501900","石碇區"
"253003","6232-TK","2017/11/16 09:29:40","新北市石門區內石門65號","121.579361666667","25.2619066666667","6502200","石門區"
"253001","6251-TK","2017/11/16 09:29:50","新北市石門區崁子腳84號","121.533743333333","25.2771066666667","6502200","石門區"
"253002","637-UY","2017/11/16 09:29:44","新北市三芝區橫山里橫山39-3號","121.545801666667","25.2540816666667","6502200","石門區"
"253004","8270-PC","2017/11/16 09:29:17","新北市石門區小坑41號","121.597291666667","25.2628783333333","6502200","石門區"
"252004","249-BX","2017/11/16 09:29:46","新北市三芝區店子里店子32號","121.505755","25.2086383333333","6502100","三芝區"
"252007","AAC-283","2017/11/16 09:29:50","新北市三芝區光復街1號","121.518643333333","25.2635866666667","6502100","三芝區"
"237001","159-BY","2017/11/16 09:29:31","新北市三峽區中山路60號","121.368211666667","24.9345283333333","6500900","三峽區"
"236009","165-UM","2017/11/16 09:29:37","新北市土城區中央路四段46巷28號","121.421473333333","24.96187","6501300","土城區"
"236003","339-SR","2017/11/16 09:29:39","新北市土城區中央路二段93號","121.4422","24.978185","6501300","土城區"
"236005","498-BY","2017/11/16 09:29:39","新北市土城區承天路62巷3號","121.440105","24.96111","6501300","土城區"
"242030","AAC-296","2017/11/16 09:29:38","新北市新莊區中正路455-2號","121.442483333333","25.03411","6500500","新莊區"
"242028","986-R7","2017/11/16 09:29:37","新北市新莊區昌隆街3巷1弄2號","121.454216666667","25.0513883333333","6500500","新莊區"
"242049","751-BX","2017/11/16 09:29:48","新北市新莊區民安西路48號","121.427381666667","25.02077","6500500","新莊區"
"242022","613-BX","2017/11/16 09:29:50","新北市新莊區思源路33號","121.460041666667","25.0395883333333","6500500","新莊區"
"242038","566-BX","2017/11/16 09:29:47","新北市新莊區民安路411號","121.433156666667","25.022785","6500500","新莊區"
"242043","497-BY","2017/11/16 09:29:49","新北市新莊區中正路新建巷41號","121.414485","25.0217733333333","6500500","新莊區"
"242047","441-UM","2017/11/16 09:29:46","新北市新莊區中正路588號","121.427096666667","25.0302466666667","6500500","新莊區"
"242052","440-UM","2017/11/16 09:29:46","新北市新莊區西盛街324巷29號","121.426913333333","25.01469","6500500","新莊區"
"242033","415-TV","2017/11/16 09:29:39","新北市新莊區建中街112號","121.445986666667","25.0365383333333","6500500","新莊區"
"242003","413-TV","2017/11/16 09:29:47","新北市新莊區頭前路36號","121.467418333333","25.0524783333333","6500500","新莊區"
"242059","362-BY","2017/11/16 09:29:47","新北市新莊區民安東路139巷21號","121.43105","25.0219033333333","6500500","新莊區"
"242057","353-BY","2017/11/16 09:29:46","新北市新莊區四維路215號","121.421613333333","25.0200016666667","6500500","新莊區"
"242006","132-UY","2017/11/16 09:29:43","新北市新莊區環河路508-1號","121.438573333333","25.0156666666667","6500500","新莊區"
"242035","133-UY","2017/11/16 09:29:51","新北市新莊區後港一路28巷3弄17號","121.426248333333","25.0257283333333","6500500","新莊區"
"242001","176-VK","2017/11/16 09:29:49","新北市新莊區中正路80號","121.457895","25.0374866666667","6500500","新莊區"
"242001","233-RS","2017/11/16 09:11:13","新北市新莊區環河路48-7號","121.436891666667","25.0097866666667","6500500","新莊區"
"242055","349-TH","2017/11/16 09:29:48","新北市新莊區新莊路751巷85號","121.442798333333","25.0307633333333","6500500","新莊區"
"242010","351-TH","2017/11/16 09:29:46","新北市新莊區中榮街95號","121.44508","25.0527516666667","6500500","新莊區"
"220089","146-RM","2017/11/16 08:59:37","新北市板橋區民生路二段36-1號","121.472453333333","25.01668","6500100","板橋區"
