"lineid","car","time","location","longitude","latitude","cityid","cityname"
"248005","653-BX","2017/11/16 09:39:40","新北市五股區成泰路一段7巷38號","121.432618333333","25.0669983333333","6501500","五股區"
"244012","069-UM","2017/11/16 09:39:30","新北市林口區麗園一街4巷1號","121.376495","25.0713533333333","6501700","林口區"
"244018","403-UM","2017/11/16 09:39:40","新北市林口區忠孝路646巷39號","121.379546666667","25.0670566666667","6501700","林口區"
"244024","742-UY","2017/11/16 09:35:43","新北市林口區粉寮路二段98號","121.404535","25.0891566666667","6501700","林口區"
"244008","410-SL","2017/11/16 09:39:49","新北市林口區竹林路361號","121.387666666667","25.0847016666667","6501700","林口區"
"244022","483-VK","2017/11/16 09:39:36","新北市林口區民權路10-6號","121.37194","25.07964","6501700","林口區"
"244003","657-BX","2017/11/16 09:39:37","新北市林口區粉寮路二段14號","121.401385","25.0851133333333","6501700","林口區"
"244010","701-TV","2017/11/16 09:39:44","新北市林口區竹林路48號","121.387153333333","25.0777116666667","6501700","林口區"
"222006","289-BY","2017/11/16 09:39:45","新北市深坑區昇高坑路51-1號","121.629545","24.9944866666667","6501800","深坑區"
"231069","188-VK","2017/11/16 09:39:36","新北市新店區新潭路三段215巷25號","121.508086666667","24.9041216666667","6500600","新店區"
"231008","192-VK","2017/11/16 09:39:48","新北市新店區平廣路一段170巷1號","121.51922","24.8895116666667","6500600","新店區"
"223001","205-TH","2017/11/16 09:39:41","新北市石碇區北宜路五段58號","121.634038333333","24.953255","6501900","石碇區"
"223008","406-TH","2017/11/16 09:34:33","新北市石碇區南勢坑2-3號","121.699421666667","24.99044","6501900","石碇區"
"223007","437-BY","2017/11/16 09:39:37","新北市石碇區南勢坑4-1號","121.69742","24.9834083333333","6501900","石碇區"
"223001","592-UM","2017/11/16 09:39:37","新北市新店區玉山路22號","121.567886666667","24.955405","6501900","石碇區"
"223005","677-TV","2017/11/16 09:39:29","新北市石碇區雙溪46號","121.651766666667","25.0070183333333","6501900","石碇區"
"253003","6232-TK","2017/11/16 09:35:40","新北市石門區內石門73號","121.582863333333","25.2594483333333","6502200","石門區"
"253001","6251-TK","2017/11/16 09:39:50","新北市石門區崁子腳35-3號","121.536381666667","25.2764633333333","6502200","石門區"
"253002","637-UY","2017/11/16 09:29:44","新北市三芝區橫山里橫山39-3號","121.545801666667","25.2540816666667","6502200","石門區"
"253004","8270-PC","2017/11/16 09:39:37","新北市石門區坪林21號","121.593166666667","25.2686733333333","6502200","石門區"
"252004","249-BX","2017/11/16 09:39:46","新北市三芝區福德里大水堀32-1號","121.510111666667","25.217355","6502100","三芝區"
"252007","AAC-283","2017/11/16 09:39:49","新北市三芝區新庄里新庄子95-3號","121.513491666667","25.2740933333333","6502100","三芝區"
"237001","159-BY","2017/11/16 09:39:51","新北市三峽區中山路459巷163-3號","121.34889","24.9331466666667","6500900","三峽區"
"236009","165-UM","2017/11/16 09:39:37","新北市土城區中央路四段323號","121.410371666667","24.9509716666667","6501300","土城區"
"236005","498-BY","2017/11/16 09:39:40","新北市土城區忠義路76巷11-1號","121.440521666667","24.9647316666667","6501300","土城區"
"242030","AAC-296","2017/11/16 09:39:44","新北市新莊區三和路17-4號","121.438798333333","25.037735","6500500","新莊區"
"242028","986-R7","2017/11/16 09:39:37","新北市新莊區中華路二段26-1號","121.453575","25.0451233333333","6500500","新莊區"
"242022","613-BX","2017/11/16 09:39:30","新北市新莊區中正路455-2號","121.442528333333","25.0340516666667","6500500","新莊區"
"242038","566-BX","2017/11/16 09:39:47","新北市新莊區瓊林北路6號","121.44089","25.0229816666667","6500500","新莊區"
"242043","497-BY","2017/11/16 09:39:49","新北市新莊區龍安路60號","121.415015","25.02162","6500500","新莊區"
"242047","441-UM","2017/11/16 09:39:46","新北市新莊區瓊林路59-66號","121.441106666667","25.022735","6500500","新莊區"
"242033","415-TV","2017/11/16 09:39:39","新北市新莊區環漢路三段1號","121.442373333333","25.0242733333333","6500500","新莊區"
"242003","413-TV","2017/11/16 09:39:52","新北市新莊區化成路389巷34號","121.464021666667","25.05838","6500500","新莊區"
"242059","362-BY","2017/11/16 09:39:47","新北市新莊區新樹路258巷1-1號","121.432236666667","25.0155516666667","6500500","新莊區"
"242057","353-BY","2017/11/16 09:39:46","新北市新莊區四維路149號","121.42263","25.0221166666667","6500500","新莊區"
"242035","133-UY","2017/11/16 09:39:46","新北市新莊區中正路591號","121.433125","25.0322133333333","6500500","新莊區"
"242001","233-RS","2017/11/16 09:11:13","新北市新莊區環河路48-7號","121.436891666667","25.0097866666667","6500500","新莊區"
"242055","349-TH","2017/11/16 09:39:48","新北市新莊區瓊泰路94巷4號","121.443476666667","25.029355","6500500","新莊區"
"220089","146-RM","2017/11/16 08:59:37","新北市板橋區民生路二段36-1號","121.472453333333","25.01668","6500100","板橋區"
