"lineid","car","time","location","longitude","latitude","cityid","cityname"
"244025","742-UY","2017/11/16 10:00:45","新北市林口區粉寮路二段160巷28號","121.405141666667","25.090815","6501700","林口區"
"222006","289-BY","2017/11/16 10:59:45","新北市深坑區昇高坑路51-1號","121.629588333333","24.9950483333333","6501800","深坑區"
"231069","188-VK","2017/11/16 10:59:36","新北市新店區新潭路二段62巷22號","121.520096666667","24.927615","6500600","新店區"
"231008","192-VK","2017/11/16 10:59:46","新北市新店區松林路16巷41號","121.54705","24.9078833333333","6500600","新店區"
"223007","437-BY","2017/11/16 09:54:37","新北市石碇區小粗坑(潭邊里)9-2號","121.678605","24.985775","6501900","石碇區"
"237001","159-BY","2017/11/16 10:59:51","新北市三峽區中山路459巷163-3號","121.348796666667","24.9327583333333","6500900","三峽區"
"242001","233-RS","2017/11/16 09:11:13","新北市新莊區環河路48-7號","121.436891666667","25.0097866666667","6500500","新莊區"
"220089","146-RM","2017/11/16 08:59:37","新北市板橋區民生路二段36-1號","121.472453333333","25.01668","6500100","板橋區"
