"lineid","car","time","location","longitude","latitude","cityid","cityname"
"244025","742-UY","2017/11/16 10:00:45","新北市林口區粉寮路二段160巷28號","121.405141666667","25.090815","6501700","林口區"
"231069","188-VK","2017/11/16 11:19:40","新北市新店區新潭路一段71號","121.524235","24.9404533333333","6500600","新店區"
"231008","192-VK","2017/11/16 11:16:46","新北市新店區成功路126號","121.534148333333","24.8943783333333","6500600","新店區"
"223007","437-BY","2017/11/16 09:54:37","新北市石碇區小粗坑(潭邊里)9-2號","121.678605","24.985775","6501900","石碇區"
"237001","159-BY","2017/11/16 10:59:51","新北市三峽區中山路459巷163-3號","121.348796666667","24.9327583333333","6500900","三峽區"
"242001","233-RS","2017/11/16 09:11:13","新北市新莊區環河路48-7號","121.436891666667","25.0097866666667","6500500","新莊區"
"220089","146-RM","2017/11/16 08:59:37","新北市板橋區民生路二段36-1號","121.472453333333","25.01668","6500100","板橋區"
