"lineid","car","time","location","longitude","latitude","cityid","cityname"
"234044","148-BY","2017/11/16 14:11:32","新北市永和區得和路275號","121.522241666667","24.9997216666667","6500400","永和區"
"234012","149-BY","2017/11/16 14:11:24","新北市永和區永貞路387號","121.50802","25.008775","6500400","永和區"
"234005","207-UY","2017/11/16 14:11:27","新北市中和區中和路236號","121.507041666667","24.999575","6500400","永和區"
"234078","298-R6","2017/11/16 14:11:40","新北市永和區國中路104巷6號","121.524613333333","25.0070016666667","6500400","永和區"
"234036","336-UY","2017/11/16 14:11:40","新北市永和區成功路一段47巷28號","121.527681666667","25.003845","6500400","永和區"
"234062","337-UY","2017/11/16 14:11:35","新北市永和區永利路150號","121.522368333333","25.0026983333333","6500400","永和區"
"234084","338-UY","2017/11/16 14:11:35","新北市永和區福和路219號","121.51897","25.0074733333333","6500400","永和區"
"234068","552-UM","2017/11/16 14:11:24","新北市永和區永亨路59號","121.520916666667","25.0062183333333","6500400","永和區"
"234052","553-UM","2017/11/16 14:11:43","新北市永和區博愛街47巷1號","121.51935","25.016035","6500400","永和區"
"234015","745-BX","2017/11/16 14:11:40","新北市永和區仁愛路50號","121.513875","25.0133866666667","6500400","永和區"
"234028","746-BX","2017/11/16 14:11:32","新北市永和區民權路49巷6號","121.520563333333","24.9970116666667","6500400","永和區"
"234060","AAD-866","2017/11/16 14:11:39","新北市中和區安平路222號","121.514013333333","25.0001266666667","6500400","永和區"
"234040","862-TW","2017/11/16 14:11:25","新北市永和區雙和街30號","121.5089","25.002735","6500400","永和區"
"234048","863-TW","2017/11/16 14:11:40","新北市永和區環河西路二段147號","121.50561","25.0142233333333","6500400","永和區"
"234025","9381-KE","2017/11/16 14:11:37","新北市永和區安樂路198巷1弄3號","121.51542","25.0019283333333","6500400","永和區"
"234010","9373-KE","2017/11/16 14:11:33","新北市永和區仁愛路352巷122弄11號","121.500718333333","25.0088133333333","6500400","永和區"
"248015","026-BX","2017/11/16 14:11:39","新北市五股區成洲五路12號","121.452398333333","25.1015466666667","6501500","五股區"
"248007","095-VK","2017/11/16 14:11:39","新北市五股區中興路一段118巷17號","121.46593","25.0743533333333","6501500","五股區"
"248017","225-UY","2017/11/16 14:11:39","新北市五股區民義路一段312-7號","121.423351666667","25.0947583333333","6501500","五股區"
"248011","247-BX","2017/11/16 14:11:38","新北市五股區成泰路二段101號","121.438371666667","25.0843216666667","6501500","五股區"
"248009","272-BY","2017/11/16 14:11:40","新北市五股區自強路90巷72號","121.430715","25.0712916666667","6501500","五股區"
"248004","677-BX","2017/11/16 14:11:39","新北市五股區六合街3號","121.431983333333","25.0886583333333","6501500","五股區"
"248001","678-BX","2017/11/16 14:11:36","新北市五股區成泰路三段577巷52號","121.450791666667","25.10323","6501500","五股區"
"234022","9380-KE","2017/11/16 14:11:32","新北市永和區博愛街32巷18號","121.518806666667","25.015145","6500400","永和區"
"234076","969-R7","2017/11/16 14:11:27","新北市永和區民有街75巷10弄61號","121.519736666667","24.9960766666667","6500400","永和區"
"234072","AAC-211","2017/11/16 14:11:23","新北市永和區竹林路201巷25號","121.521896666667","25.009335","6500400","永和區"
"234066","AAC-212","2017/11/16 14:11:37","新北市永和區保平路232號","121.509218333333","25.0056633333333","6500400","永和區"
"234001","AAC-295","2017/11/16 14:11:35","新北市永和區中正路666巷2號","121.516856666667","25.0089266666667","6500400","永和區"
"244025","742-UY","2017/11/16 10:00:45","新北市林口區粉寮路二段160巷28號","121.405141666667","25.090815","6501700","林口區"
"244003","657-BX","2017/11/16 14:11:35","新北市林口區嘉溪雅坑11號","121.341941666667","25.1051966666667","6501700","林口區"
"243004","AAD-798","2017/11/16 14:11:43","新北市泰山區明志路一段412號","121.430801666667","25.056835","6501600","泰山區"
"243001","297-R6","2017/11/16 14:11:38","新北市泰山區文化街3號","121.433886666667","25.0638116666667","6501600","泰山區"
"243007","380-SR","2017/11/16 14:11:33","新北市泰山區明志路一段517號","121.430416666667","25.05418","6501600","泰山區"
"243006","421-VK","2017/11/16 14:11:43","新北市泰山區泰林路二段409號","121.426793333333","25.0642316666667","6501600","泰山區"
"243002","KEA-2215","2017/11/16 14:11:33","新北市泰山區明志路一段458巷2弄2號","121.430391666667","25.055735","6501600","泰山區"
"243003","KEA-2216","2017/11/16 14:11:24","新北市泰山區明志路二段368號","121.425526666667","25.04487","6501600","泰山區"
"243005","646-TV","2017/11/16 14:11:40","新北市泰山區明志路三段231巷4弄2號","121.424095","25.0375516666667","6501600","泰山區"
"243008","680-BX","2017/11/16 14:11:32","新北市泰山區明志路二段353號","121.425428333333","25.0443883333333","6501600","泰山區"
"231002","002-UM","2017/11/16 14:11:28","新北市新店區中正路510號","121.533736666667","24.9830916666667","6500600","新店區"
"231028","046-UY","2017/11/16 14:11:26","新北市新店區安和路二段213號","121.517701666667","24.9755066666667","6500600","新店區"
"231030","047-UY","2017/11/16 14:11:26","新北市新店區安民街65巷21-2號","121.51521","24.9674916666667","6500600","新店區"
"231029","106-UY","2017/11/16 14:11:24","新北市新店區安康路二段157號","121.510375","24.9594516666667","6500600","新店區"
"231011","108-UY","2017/11/16 14:11:33","新北市新店區五峰路63巷16號","121.546758333333","24.96874","6500600","新店區"
"231021","187-VK","2017/11/16 14:11:41","新北市新店區新烏路二段198巷2弄6號","121.547918333333","24.9175433333333","6500600","新店區"
"231017","KEA-2219","2017/11/16 14:11:42","新北市新店區北宜路二段457號","121.561605","24.9541533333333","6500600","新店區"
"231023","AAD-862","2017/11/16 14:11:39","新北市新店區中興路一段26號","121.538961666667","24.9580483333333","6500600","新店區"
"231027","3712-VJ","2017/11/16 14:11:40","新北市新店區光明街168巷16號","121.540396666667","24.9617433333333","6500600","新店區"
"231025","3713-VJ","2017/11/16 14:11:26","新北市新店區中正路302巷5弄1號","121.538231666667","24.975395","6500600","新店區"
"231024","4716-K9","2017/11/16 14:11:26","新北市新店區中央二街68號","121.526296666667","24.97452","6500600","新店區"
"231038","4715-K9","2017/11/16 14:11:33","新北市新店區溪洲路121號","121.531421666667","24.962625","6500600","新店區"
"231036","512-UM","2017/11/16 14:11:35","新北市新店區安祥路109巷51號","121.476905","24.9597116666667","6500600","新店區"
"231035","515-UM","2017/11/16 14:11:39","新北市新店區安和路一段51號","121.517506666667","24.9659233333333","6500600","新店區"
"231003","616-UM","2017/11/16 14:11:31","新北市新店區中興路一段168號","121.54288","24.96437","6500600","新店區"
"231001","619-UM","2017/11/16 14:11:31","新北市新店區中華路52號","121.539598333333","24.9685566666667","6500600","新店區"
"231034","645-TV","2017/11/16 14:11:35","新北市新店區黎明路52巷7號","121.502103333333","24.948695","6500600","新店區"
"231013","719-UM","2017/11/16 14:11:36","新北市新店區北新路三段98-1號","121.541791666667","24.9810016666667","6500600","新店區"
"231018","719-UY","2017/11/16 14:11:40","新北市新店區中央五街46號","121.528063333333","24.975125","6500600","新店區"
"231031","720-UM","2017/11/16 14:11:40","新北市新店區永業路43號","121.532368333333","24.9551916666667","6500600","新店區"
"231005","897-TW","2017/11/16 14:11:40","新北市新店區寶慶街71號","121.542001666667","24.9866","6500600","新店區"
"231006","898-TW","2017/11/16 14:11:36","新北市新店區北宜路二段126號","121.556966666667","24.9538366666667","6500600","新店區"
"231004","899-TW","2017/11/16 14:11:32","新北市新店區北新路二段156-1號","121.542981666667","24.9755416666667","6500600","新店區"
"231037","AKT-0513","2017/11/16 14:11:26","新北市新店區安康路二段341巷38號","121.496645","24.9543533333333","6500600","新店區"
"235030","003-UY","2017/11/16 14:11:37","新北市中和區廣福路32號","121.504583333333","25.0023116666667","6500300","中和區"
"235028","005-UY","2017/11/16 14:11:38","新北市中和區連城路18號","121.498768333333","25.0021433333333","6500300","中和區"
"235027","006-UY","2017/11/16 14:11:39","新北市中和區連城路249巷21弄2號","121.49406","24.9959383333333","6500300","中和區"
"235020","096-UM","2017/11/16 14:11:31","新北市中和區員山路494號","121.479725","25.007015","6500300","中和區"
"235003","097-UM","2017/11/16 14:11:30","新北市中和區秀峰街76號","121.520276666667","24.9906716666667","6500300","中和區"
"235029","098-UM","2017/11/16 14:11:24","新北市中和區中山路二段64巷9號","121.50322","25.0047616666667","6500300","中和區"
"235004","150-BY","2017/11/16 14:11:32","新北市中和區宜安路62號","121.51156","24.9970366666667","6500300","中和區"
"235022","151-BY","2017/11/16 14:11:35","新北市中和區員山路125號","121.481016666667","24.995545","6500300","中和區"
"235019","183-VK","2017/11/16 14:11:33","新北市中和區德光路18號","121.471078333333","25.004425","6500300","中和區"
"235002","185-VK","2017/11/16 14:11:31","新北市中和區大仁街10巷27弄1號","121.519081666667","24.992515","6500300","中和區"
"235013","186-VK","2017/11/16 14:11:32","新北市中和區景新街149號","121.50624","24.9964233333333","6500300","中和區"
"235031","255-BX","2017/11/16 14:11:33","新北市中和區新生街168號","121.483713333333","25.0002233333333","6500300","中和區"
"235008","293-VK","2017/11/16 14:11:44","新北市中和區中興街263-1號","121.499988333333","24.9887583333333","6500300","中和區"
"235036","301-VK","2017/11/16 14:11:39","新北市中和區中山路二段258號","121.497616666667","25.0025483333333","6500300","中和區"
"235007","352-BY","2017/11/16 14:11:38","新北市中和區景平路82號","121.521716666667","24.9907633333333","6500300","中和區"
"235032","377-QA","2017/11/16 14:11:38","新北市中和區安邦街83號","121.49683","24.9966416666667","6500300","中和區"
"235025","378-QA","2017/11/16 14:11:41","新北市中和區民有街60號","121.476008333333","25.00448","6500300","中和區"
"235035","269-TV","2017/11/16 14:11:26","新北市中和區立德街98巷99號","121.48878","25.008595","6500300","中和區"
"235014","4979-A6","2017/11/16 14:11:40","新北市中和區復興路263巷9弄11-4號","121.503403333333","24.98977","6500300","中和區"
"235033","4980-A6","2017/11/16 14:11:43","新北市中和區中山路二段191號","121.500148333333","25.00261","6500300","中和區"
"235006","551-UM","2017/11/16 14:11:42","新北市中和區自立路16巷2號","121.521736666667","24.99366","6500300","中和區"
"235034","558-UM","2017/11/16 14:10:54","新北市中和區中和路275號","121.505701666667","24.9998166666667","6500300","中和區"
"235009","565-BX","2017/11/16 14:11:38","新北市中和區景新街467巷38弄6-6號","121.514975","24.98868","6500300","中和區"
"235018","640-BX","2017/11/16 14:11:39","新北市中和區國光街107巷2弄32號","121.469298333333","24.9989983333333","6500300","中和區"
"235024","647-TV","2017/11/16 14:11:22","新北市中和區民享街91-11號","121.47471","25.0007883333333","6500300","中和區"
"235011","732-UM","2017/11/16 14:11:23","新北市中和區和平街38巷3號","121.509141666667","24.9907666666667","6500300","中和區"
"235010","733-UM","2017/11/16 14:11:37","新北市中和區華新街136號","121.508101666667","24.9826083333333","6500300","中和區"
"235026","800-TS","2017/11/16 14:11:39","新北市中和區中山路二段366巷36號","121.491715","25.0050483333333","6500300","中和區"
"235021","801-TS","2017/11/16 14:11:34","新北市中和區民利街58巷5弄11號","121.4782","24.9991133333333","6500300","中和區"
"235005","802-TS","2017/11/16 14:11:25","新北市中和區中安街132號","121.510996666667","25.00038","6500300","中和區"
"235016","805-TS","2017/11/16 14:11:27","新北市中和區興南路二段114巷21弄1號","121.503683333333","24.98441","6500300","中和區"
"235012","896-TW","2017/11/16 14:11:37","新北市中和區華新街109巷22號","121.508266666667","24.9803533333333","6500300","中和區"
"235017","900-TW","2017/11/16 14:11:37","新北市中和區華福街79號","121.467423333333","24.996545","6500300","中和區"
"235001","AAC-213","2017/11/16 14:11:30","新北市中和區秀朗路三段58-3號","121.52589","24.99509","6500300","中和區"
"235023","AAC-215","2017/11/16 14:11:38","新北市中和區圓通路403-2號","121.488936666667","24.9893266666667","6500300","中和區"
"220016","013-TV","2017/11/16 14:11:23","新北市板橋區縣民大道三段396號","121.481168333333","25.0254833333333","6500100","板橋區"
"220013","072-UY","2017/11/16 14:11:32","新北市板橋區民族路219巷40號","121.469485","25.0088383333333","6500100","板橋區"
"220034","073-UY","2017/11/16 14:11:40","新北市板橋區中正路236巷93號","121.459491666667","25.0196916666667","6500100","板橋區"
"220105","075-UY","2017/11/16 14:11:43","新北市板橋區雙十路三段10巷10號","121.472081666667","25.0306666666667","6500100","板橋區"
"220017","AAD-861","2017/11/16 14:11:27","新北市板橋區貴興路7號","121.457746666667","25.0043483333333","6500100","板橋區"
"220039","120-SR","2017/11/16 14:11:33","新北市板橋區裕民街47號","121.4614","25.0286133333333","6500100","板橋區"
"247021","893-R6","2017/11/16 14:11:36","新北市蘆洲區三民路226號","121.468601666667","25.089455","6501400","蘆洲區"
"247011","546-UM","2017/11/16 14:11:38","新北市蘆洲區信義路345號","121.47779","25.0871433333333","6501400","蘆洲區"
"247019","500-BY","2017/11/16 14:11:44","新北市蘆洲區仁愛街66號","121.4717","25.0940316666667","6501400","蘆洲區"
"247009","339-TH","2017/11/16 14:11:13","新北市蘆洲區信義路178號","121.47921","25.084035","6501400","蘆洲區"
"247001","337-TH","2017/11/16 14:11:38","新北市蘆洲區永平街62號","121.457196666667","25.091735","6501400","蘆洲區"
"247003","335-TH","2017/11/16 14:11:38","新北市蘆洲區長安街223號","121.459613333333","25.082465","6501400","蘆洲區"
"247015","057-VK","2017/11/16 14:11:35","新北市蘆洲區光華路46巷27號","121.468051666667","25.0838","6501400","蘆洲區"
"247005","056-VK","2017/11/16 14:11:28","新北市蘆洲區永安南路二段16巷17弄17號","121.46755","25.0779016666667","6501400","蘆洲區"
"247007","053-VK","2017/11/16 14:11:24","新北市蘆洲區中山一路285號","121.47192","25.07959","6501400","蘆洲區"
"247013","007-UY","2017/11/16 14:11:26","新北市蘆洲區忠孝路45號","121.471278333333","25.0860866666667","6501400","蘆洲區"
"247023","002-UY","2017/11/16 14:11:26","新北市蘆洲區光明路130號","121.463796666667","25.0883416666667","6501400","蘆洲區"
"247017","001-UY","2017/11/16 14:11:40","新北市蘆洲區民族路203-1號","121.478096666667","25.0891816666667","6501400","蘆洲區"
"228005","097-TW","2017/11/16 14:11:27","新北市貢寮區美豐里土地公嶺21-2號","121.889235","25.0623233333333","6502600","貢寮區"
"228004","212-TW","2017/11/16 14:11:27","新北市貢寮區雙玉里下雙溪街8號","121.916283333333","25.0138616666667","6502600","貢寮區"
"207002","749-BX","2017/11/16 14:11:32","新北市萬里區溪底里瑞泉路13-1號","121.604825","25.1451","6502800","萬里區"
"252005","073-UM","2017/11/16 14:11:46","新北市三芝區橫山里橫山31-1號","121.54432","25.2578966666667","6502100","三芝區"
"207001","662-BX","2017/11/16 14:11:28","新北市萬里區磺潭里清水18號","121.637765","25.1976716666667","6502800","萬里區"
"208004","170-UY","2017/11/16 14:11:29","新北市金山區重和里六股林口75號","121.601325","25.21685","6502700","金山區"
"237001","159-BY","2017/11/16 14:11:29","新北市三峽區三樹路98巷93號","121.382096666667","24.9394633333333","6500900","三峽區"
"236066","105-UM","2017/11/16 14:11:38","新北市土城區明德路一段385-1號","121.452381666667","24.9795916666667","6501300","土城區"
"236040","107-UM","2017/11/16 14:11:36","新北市土城區裕生路61號","121.447628333333","24.986165","6501300","土城區"
"236076","166-UM","2017/11/16 13:59:50","新北市土城區永寧路32巷10弄18-2號","121.429103333333","24.9609133333333","6501300","土城區"
"236028","253-BX","2017/11/16 14:11:32","新北市土城區城林路6巷80號","121.43848","24.979845","6501300","土城區"
"236024","269-VK","2017/11/16 14:11:29","新北市土城區承天路35號","121.437351666667","24.9648466666667","6501300","土城區"
"236012","270-VK","2017/11/16 14:11:40","新北市土城區學府路一段8號","121.459513333333","24.9884216666667","6501300","土城區"
"236033","271-VK","2017/11/16 14:11:35","新北市土城區青雲路449號","121.458831666667","24.9749","6501300","土城區"
"236018","401-BY","2017/11/16 14:11:37","新北市土城區中華路二段2號","121.439141666667","24.9796966666667","6501300","土城區"
"236005","498-BY","2017/11/16 14:11:41","新北市土城區裕民路6號","121.44677","24.9891616666667","6501300","土城區"
"236056","912-UM","2017/11/16 14:11:28","新北市土城區中央路四段96號","121.418398333333","24.9591616666667","6501300","土城區"
"236047","913-UM","2017/11/16 14:11:42","新北市土城區明德路一段365-1號","121.453521666667","24.97906","6501300","土城區"
"236060","915-UM","2017/11/16 14:11:27","新北市土城區中正路51號","121.444143333333","24.97547","6501300","土城區"
"236052","AAC-216","2017/11/16 14:11:39","新北市土城區城林路6巷80號","121.43842","24.9798183333333","6501300","土城區"
"242045","172-VK","2017/11/16 14:11:41","新北市樹林區中山路三段210-2號","121.380771666667","24.9663116666667","6500500","新莊區"
"242001","233-RS","2017/11/16 09:11:13","新北市新莊區環河路48-7號","121.436891666667","25.0097866666667","6500500","新莊區"
"221012","276-VK","2017/11/16 13:19:54","新北市汐止區汐萬路一段256巷3號","121.65344","25.0746016666667","6501100","汐止區"
"221025","623-UM","2017/11/16 14:11:26","新北市汐止區樟樹二路101-1號","121.639778333333","25.0628233333333","6501100","汐止區"
"220027","145-BY","2017/11/16 14:11:35","新北市板橋區公館街31號","121.4614","25.015545","6500100","板橋區"
"220089","146-RM","2017/11/16 08:59:37","新北市板橋區民生路二段36-1號","121.472453333333","25.01668","6500100","板橋區"
"220028","200-UY","2017/11/16 14:11:43","新北市板橋區大觀路二段7巷17號","121.447651666667","25.003475","6500100","板橋區"
"220030","610-BX","2017/11/16 14:11:38","新北市板橋區溪崑二街59號","121.42813","24.9905516666667","6500100","板橋區"
"220051","255-TC","2017/11/16 14:11:32","新北市板橋區田單街49巷1弄17-3號","121.482575","25.02888","6500100","板橋區"
"220040","267-BY","2017/11/16 14:11:33","新北市板橋區萬板路558-1號","121.480885","25.0265183333333","6500100","板橋區"
"220004","276-BY","2017/11/16 14:11:29","新北市板橋區信義路74巷1弄15號","121.457601666667","24.99272","6500100","板橋區"
"220020","277-BY","2017/11/16 14:11:23","新北市板橋區大觀路三段59巷17弄5-1號","121.435186666667","24.9953466666667","6500100","板橋區"
"220050","280-UM","2017/11/16 14:11:44","新北市板橋區莊敬路152號","121.471311666667","25.0229366666667","6500100","板橋區"
"220043","283-UM","2017/11/16 14:11:35","新北市板橋區光武街169號","121.465161666667","25.030025","6500100","板橋區"
"220019","283-VK","2017/11/16 14:11:39","新北市板橋區重慶路269巷31-3號","121.464283333333","24.9992766666667","6500100","板橋區"
"220001","285-VK","2017/11/16 14:11:34","新北市板橋區懷仁街14巷27號","121.475473333333","25.0194283333333","6500100","板橋區"
"220029","287-VK","2017/11/16 14:11:43","新北市板橋區南雅西路二段156巷1號","121.452005","25.0133983333333","6500100","板橋區"
"220009","295-UM","2017/11/16 14:11:36","新北市板橋區中山路二段318巷20弄37號","121.481091666667","25.0188983333333","6500100","板橋區"
"220032","296-UM","2017/11/16 14:11:26","新北市板橋區篤行路二段90巷10號","121.431091666667","24.99185","6500100","板橋區"
"220023","297-UM","2017/11/16 14:11:42","新北市板橋區中正路95號","121.456488333333","25.014545","6500100","板橋區"
"220041","299-UM","2017/11/16 00:32:03","新北市板橋區民生路二段120號","121.470335","25.0197583333333","6500100","板橋區"
"220010","305-R5","2017/11/16 14:11:41","新北市板橋區三民路二段245巷69弄2號","121.48112","25.01289","6500100","板橋區"
"220047","317-R6","2017/11/16 14:11:35","新北市板橋區四維路100號","121.465726666667","25.0244033333333","6500100","板橋區"
"220012","486-VK","2017/11/16 14:11:42","新北市板橋區板新路83號","121.473356666667","25.0138216666667","6500100","板橋區"
"220037","491-VK","2017/11/16 14:11:36","新北市板橋區文化路二段182巷7弄7號","121.472066666667","25.02727","6500100","板橋區"
"220104","560-BX","2017/11/16 14:11:42","新北市板橋區瑞安街31巷8-1號","121.455881666667","25.0227166666667","6500100","板橋區"
"220052","561-BX","2017/11/16 14:11:40","新北市板橋區文化路一段188巷9弄88號","121.46906","25.0188866666667","6500100","板橋區"
"220031","568-UM","2017/11/16 14:11:44","新北市板橋區大觀路二段174巷165弄6號","121.441618333333","25.0034366666667","6500100","板橋區"
"220011","609-BX","2017/11/16 14:11:40","新北市板橋區三民路二段140號","121.479135","25.01587","6500100","板橋區"
"220005","686-BX","2017/11/16 14:11:44","新北市板橋區重慶路206號","121.462655","25.0026","6500100","板橋區"
"220025","687-BX","2017/11/16 14:11:42","新北市板橋區龍興街69號","121.443671666667","25.00161","6500100","板橋區"
"220042","689-BX","2017/11/16 14:11:31","新北市板橋區民生路三段177號","121.465501666667","25.0272183333333","6500100","板橋區"
"220002","741-BX","2017/11/16 14:11:29","新北市板橋區重慶路93巷2號","121.462295","25.0057433333333","6500100","板橋區"
"220003","827-TW","2017/11/16 14:11:34","新北市板橋區中山路一段130號","121.463428333333","25.010825","6500100","板橋區"
"220014","829-TW","2017/11/16 14:11:28","新北市板橋區民享街116巷2弄7號","121.47759","25.0155983333333","6500100","板橋區"
"220045","831-TW","2017/11/16 14:11:44","新北市板橋區大同街7號","121.476981666667","25.0268183333333","6500100","板橋區"
"220038","833-TW","2017/11/16 14:11:30","新北市板橋區文化路二段331號","121.472413333333","25.0303816666667","6500100","板橋區"
"220022","895-R6","2017/11/16 14:11:37","新北市板橋區林園街59號","121.453648333333","25.010325","6500100","板橋區"
"220021","985-R7","2017/11/16 14:11:26","新北市板橋區民權路216-1號","121.458785","25.014145","6500100","板橋區"
"220046","AAC-210","2017/11/16 14:11:40","新北市板橋區新海路135巷4號","121.459768333333","25.0229166666667","6500100","板橋區"
"220018","AAC-253","2017/11/16 14:11:41","新北市板橋區忠孝路41-1號","121.461251666667","25.0020866666667","6500100","板橋區"
