"lineid","car","time","location","longitude","latitude","cityid","cityname"
"249005","172-UM","2017/11/16 16:49:24","新北市八里區大堀湖1-5號","121.423218333333","25.153715","6502300","八里區"
"249001","173-UM","2017/11/16 16:49:33","新北市八里區博物館路15號","121.415245","25.1639","6502300","八里區"
"249004","303-UY","2017/11/16 16:48:58","新北市八里區博物館路65號","121.412061666667","25.161575","6502300","八里區"
"249002","305-UY","2017/11/16 16:49:20","新北市八里區牛寮埔31號","121.42986","25.145765","6502300","八里區"
"249003","593-UM","2017/11/16 16:49:33","新北市八里區中山路二段275號","121.401921666667","25.1487683333333","6502300","八里區"
"244007","080-UY","2017/11/16 16:49:37","新北市林口區粉寮路一段135號","121.39895","25.081095","6501700","林口區"
"244019","403-UM","2017/11/16 16:49:28","新北市林口區粉寮69號","121.40507","25.09081","6501700","林口區"
"244025","742-UY","2017/11/16 10:00:45","新北市林口區粉寮路二段160巷28號","121.405141666667","25.090815","6501700","林口區"
"244011","701-TV","2017/11/16 16:46:48","新北市林口區粉寮路二段160巷28號","121.405175","25.09076","6501700","林口區"
"243009","297-R6","2017/11/16 16:02:51","新北市泰山區黎明路25號","121.421986666667","25.0609783333333","6501600","泰山區"
"243006","421-VK","2017/11/16 15:13:03","新北市泰山區泰林路三段745巷145號","121.406215","25.0693833333333","6501600","泰山區"
"231046","278-BY","2017/11/16 16:49:34","新北市新店區灣潭路15-8號","121.541468333333","24.9395233333333","6500600","新店區"
"241011","013-R5","2017/11/16 16:49:27","新北市三重區仁愛街53巷116號","121.498846666667","25.072495","6500200","三重區"
"241028","022-UY","2017/11/16 16:49:36","新北市三重區光興街89號","121.497461666667","25.0600133333333","6500200","三重區"
"241008","059-VK","2017/11/16 16:49:29","新北市三重區永福街179巷28號","121.47801","25.074855","6500200","三重區"
"241009","060-VK","2017/11/16 16:49:33","新北市三重區三和路四段203巷242號","121.487076666667","25.0809166666667","6500200","三重區"
"241031","061-VK","2017/11/16 16:49:30","新北市三重區過圳街42-1號","121.488098333333","25.0598166666667","6500200","三重區"
"241015","062-VK","2017/11/16 16:49:35","新北市三重區文化北路43巷10號","121.499246666667","25.06555","6500200","三重區"
"241017","063-VK","2017/11/16 16:49:19","新北市三重區國隆路8巷27號","121.492788333333","25.06357","6500200","三重區"
"241024","065-VK","2017/11/16 16:49:33","新北市三重區中正北路317巷34號","121.476083333333","25.0731566666667","6500200","三重區"
"241026","066-VK","2017/11/16 16:49:21","新北市三重區和平街6號","121.500508333333","25.0625666666667","6500200","三重區"
"241002","090-VK","2017/11/16 16:49:27","新北市三重區仁義街223號","121.496571666667","25.0821083333333","6500200","三重區"
"241003","091-VK","2017/11/16 16:49:20","新北市三重區五華街110號","121.492321666667","25.0828166666667","6500200","三重區"
"241005","262-UM","2017/11/16 16:49:32","新北市三重區仁安街51號","121.484243333333","25.0839416666667","6500200","三重區"
"241016","266-UM","2017/11/16 16:49:28","新北市三重區大同北路117號","121.494141666667","25.0643","6500200","三重區"
"241022","267-UM","2017/11/16 16:49:28","新北市三重區中華路109號","121.48361","25.063485","6500200","三重區"
"241018","268-UM","2017/11/16 16:49:26","新北市三重區安慶街149巷11號","121.494501666667","25.0692783333333","6500200","三重區"
"241032","269-UM","2017/11/16 16:49:22","新北市三重區重陽路一段120巷25號","121.485773333333","25.0601733333333","6500200","三重區"
"241013","270-UM","2017/11/16 16:49:16","新北市三重區仁壽街72號","121.49815","25.0738433333333","6500200","三重區"
"241025","271-UM","2017/11/16 16:49:32","新北市三重區中正北路530巷21號","121.471956666667","25.0703366666667","6500200","三重區"
"241007","398-BY","2017/11/16 16:49:21","新北市三重區三和路四段181巷140號","121.485555","25.0799183333333","6500200","三重區"
"241020","413-TH","2017/11/16 16:49:25","新北市三重區忠孝路二段35號","121.48589","25.0710633333333","6500200","三重區"
"241004","475-VK","2017/11/16 16:49:19","新北市三重區仁愛街416號","121.490595","25.0812966666667","6500200","三重區"
"241019","478-VK","2017/11/16 16:49:39","新北市三重區力行路一段181號","121.484393333333","25.0697216666667","6500200","三重區"
"241030","480-VK","2017/11/16 16:49:28","新北市三重區中正南路263號","121.492873333333","25.0528466666667","6500200","三重區"
"241014","543-UM","2017/11/16 16:49:20","新北市三重區長榮路75號","121.502566666667","25.06908","6500200","三重區"
"241023","545-UM","2017/11/16 16:49:20","新北市三重區中山路201巷2號","121.482435","25.0619366666667","6500200","三重區"
"241001","547-UM","2017/11/16 16:49:24","新北市三重區仁政街53號","121.492961666667","25.07713","6500200","三重區"
"241006","AAD-863","2017/11/16 16:49:19","新北市三重區力行路二段158號","121.482736666667","25.0763516666667","6500200","三重區"
"241012","941-UM","2017/11/16 16:49:16","新北市三重區仁興街11巷28號","121.500511666667","25.0743366666667","6500200","三重區"
"241029","942-UM","2017/11/16 16:49:27","新北市三重區集美街207巷8號","121.492093333333","25.054345","6500200","三重區"
"241033","AAC-255","2017/11/16 16:49:37","新北市新莊區新北大道二段143號","121.465841666667","25.0611566666667","6500200","三重區"
"220017","AAD-861","2017/11/16 16:49:27","新北市板橋區板城路421號","121.447831666667","24.9963983333333","6500100","板橋區"
"247004","335-TH","2017/11/16 16:49:30","新北市蘆洲區長榮路106號","121.461805","25.0839883333333","6501400","蘆洲區"
"247016","057-VK","2017/11/16 16:49:36","新北市蘆洲區正和街16巷6號","121.470185","25.0829566666667","6501400","蘆洲區"
"247006","056-VK","2017/11/16 16:49:35","新北市蘆洲區永安南路二段166號","121.461288333333","25.0790166666667","6501400","蘆洲區"
"247008","053-VK","2017/11/16 16:49:28","新北市蘆洲區中山二路45巷30號","121.474243333333","25.0812416666667","6501400","蘆洲區"
"247014","007-UY","2017/11/16 16:49:23","新北市蘆洲區三民路91-1號","121.47368","25.0844616666667","6501400","蘆洲區"
"247018","001-UY","2017/11/16 16:49:22","新北市蘆洲區民族路422巷82弄34號","121.474268333333","25.0967283333333","6501400","蘆洲區"
"228003","097-TW","2017/11/16 16:49:31","新北市貢寮區貢寮里朝陽街1-2號","121.912331666667","25.0212216666667","6502600","貢寮區"
"228002","585-TW","2017/11/16 16:49:27","新北市貢寮區貢寮里朝陽街140巷5號","121.907225","25.0225666666667","6502600","貢寮區"
"224006","676-BX","2017/11/16 16:49:22","新北市瑞芳區大寮路356-1號","121.784805","25.1032483333333","6501200","瑞芳區"
"224009","285-BY","2017/11/16 16:49:34","新北市瑞芳區中山路213號","121.80111","25.1067233333333","6501200","瑞芳區"
"224008","275-VK","2017/11/16 16:49:33","新北市瑞芳區民權街3-1號","121.809405","25.108345","6501200","瑞芳區"
"224007","273-VK","2017/11/16 16:49:27","新北市瑞芳區中央路48巷吉祥園8號","121.759585","25.1037683333333","6501200","瑞芳區"
"224005","271-BY","2017/11/16 16:49:19","新北市瑞芳區明里路122號","121.86388","25.1223566666667","6501200","瑞芳區"
"227010","642-TC","2017/11/16 16:49:31","新北市雙溪區牡丹里五分2號","121.866801666667","25.0470566666667","6502500","雙溪區"
"227004","400-TW","2017/11/16 16:49:26","新北市雙溪區外柑里外柑腳71號","121.807145","25.0176083333333","6502500","雙溪區"
"251007","179-VK","2017/11/16 16:49:19","新北市淡水區中正路二段31號","121.419431666667","25.1817","6501000","淡水區"
"251008","181-VK","2017/11/16 16:49:31","新北市淡水區樹梅坑45號","121.474711666667","25.1445483333333","6501000","淡水區"
"251014","182-VK","2017/11/16 16:49:18","新北市淡水區興仁路160號","121.45161","25.2205033333333","6501000","淡水區"
"251012","441-VK","2017/11/16 16:49:32","新北市淡水區中正路二段31號","121.419701666667","25.18148","6501000","淡水區"
"251016","442-VK","2017/11/16 16:49:30","新北市淡水區水頭42號","121.478193333333","25.1849983333333","6501000","淡水區"
"251011","650-BX","2017/11/16 16:49:19","新北市淡水區中正路二段31號","121.419351666667","25.1816083333333","6501000","淡水區"
"252002","178-VK","2017/11/16 16:49:27","新北市三芝區忠孝街69號","121.50593","25.256445","6502100","三芝區"
"252001","292-VK","2017/11/16 16:49:19","新北市三芝區埔坪里埔頭坑107號","121.50468","25.26173","6502100","三芝區"
"237001","159-BY","2017/11/16 15:21:08","新北市三峽區中山路459巷163-3號","121.348848333333","24.93296","6500900","三峽區"
"242039","566-BX","2017/11/16 16:49:33","新北市新莊區新泰路357巷3弄57號","121.442133333333","25.0392683333333","6500500","新莊區"
"242061","362-BY","2017/11/16 16:49:22","新北市新莊區新泰路255巷83號","121.442388333333","25.0389816666667","6500500","新莊區"
"242001","233-RS","2017/11/16 09:11:13","新北市新莊區環河路48-7號","121.436891666667","25.0097866666667","6500500","新莊區"
"242013","346-TH","2017/11/16 16:49:26","新北市新莊區三和路12-15號","121.441945","25.0372933333333","6500500","新莊區"
"238019","599-UM","2017/11/16 16:49:33","新北市樹林區育德街78-1號","121.387768333333","24.9681066666667","6500700","樹林區"
"238009","KEA-2213","2017/11/16 16:49:32","新北市樹林區八德街263-1號","121.419245","24.9737666666667","6500700","樹林區"
"238025","303-VK","2017/11/16 16:49:25","新北市樹林區中正路22-1號","121.427846666667","24.9993083333333","6500700","樹林區"
"238004","283-BY","2017/11/16 16:49:21","新北市樹林區光武街7-3號","121.415711666667","25.0053616666667","6500700","樹林區"
"238001","282-BY","2017/11/16 16:49:14","新北市樹林區大慶街99-1號","121.42781","24.9998133333333","6500700","樹林區"
"239007","AAC-297","2017/11/16 16:49:28","新北市鶯歌區二甲路13-16號","121.34487","24.93525","6500800","鶯歌區"
"239005","526-UM","2017/11/16 03:10:29","新北市鶯歌區二甲路13號","121.344683333333","24.9349533333333","6500800","鶯歌區"
"239002","359-BY","2017/11/14 20:15:39","新北市鶯歌區環河路91號","121.350516666667","24.9389766666667","6500800","鶯歌區"
"221012","276-VK","2017/11/16 13:19:54","新北市汐止區汐萬路一段256巷3號","121.65344","25.0746016666667","6501100","汐止區"
"220089","146-RM","2017/11/16 08:59:37","新北市板橋區民生路二段36-1號","121.472453333333","25.01668","6500100","板橋區"
"220010","305-R5","2017/11/16 16:44:17","新北市板橋區民生路二段161巷9號","121.470286666667","25.0195983333333","6500100","板橋區"
