"lineid","car","time","location","longitude","latitude","cityid","cityname"
"249005","172-UM","2017/11/16 17:19:24","新北市八里區荖阡坑路46號","121.410013333333","25.1216716666667","6502300","八里區"
"249001","173-UM","2017/11/16 17:19:33","新北市八里區中華路二段165巷3號","121.407643333333","25.15087","6502300","八里區"
"249004","303-UY","2017/11/16 17:19:19","新北市八里區文化街78號","121.421241666667","25.1601283333333","6502300","八里區"
"249002","305-UY","2017/11/16 17:19:20","新北市八里區龍米路二段117巷39-1號","121.443273333333","25.1419133333333","6502300","八里區"
"249003","593-UM","2017/11/16 17:19:33","新北市八里區中山路二段439號","121.396643333333","25.1458183333333","6502300","八里區"
"244013","069-UM","2017/11/16 17:19:16","新北市林口區粉寮69號","121.404998333333","25.090855","6501700","林口區"
"244007","080-UY","2017/11/16 17:19:17","新北市林口區菁埔20號","121.377811666667","25.0965583333333","6501700","林口區"
"244019","403-UM","2017/11/16 17:19:28","新北市林口區公園路223巷1號","121.373916666667","25.07482","6501700","林口區"
"244025","742-UY","2017/11/16 17:19:24","新北市林口區中山路256-1號","121.38542","25.0796616666667","6501700","林口區"
"244009","410-SL","2017/11/16 17:19:23","新北市林口區松柏路35-2號","121.379755","25.0910866666667","6501700","林口區"
"244023","483-VK","2017/11/16 17:19:23","新北市林口區仁愛路一段246號","121.395881666667","25.0758066666667","6501700","林口區"
"244011","701-TV","2017/11/16 17:19:28","新北市林口區粉寮路二段157號","121.404243333333","25.0881416666667","6501700","林口區"
"244021","838-TS","2017/11/16 17:19:29","新北市林口區粉寮62號","121.40693","25.0894933333333","6501700","林口區"
"243009","297-R6","2017/11/16 16:02:51","新北市泰山區黎明路25號","121.421986666667","25.0609783333333","6501600","泰山區"
"243006","421-VK","2017/11/16 15:13:03","新北市泰山區泰林路三段745巷145號","121.406215","25.0693833333333","6501600","泰山區"
"231046","278-BY","2017/11/16 17:19:34","新北市新店區直潭路92號","121.530913333333","24.93763","6500600","新店區"
"241011","013-R5","2017/11/16 17:19:27","新北市三重區河邊北街100巷9號","121.5035","25.0703783333333","6500200","三重區"
"241028","022-UY","2017/11/16 17:19:16","新北市三重區仁化商場4號","121.493518333333","25.0594883333333","6500200","三重區"
"241008","059-VK","2017/11/16 17:19:29","新北市三重區下竹圍街22號","121.48099","25.0755983333333","6500200","三重區"
"241009","060-VK","2017/11/16 17:19:33","新北市三重區仁愛街654號","121.482738333333","25.0804066666667","6500200","三重區"
"241015","062-VK","2017/11/16 17:19:35","新北市三重區長元街82-1號","121.501868333333","25.0663066666667","6500200","三重區"
"241017","063-VK","2017/11/16 17:19:19","新北市三重區大同北路44巷1號","121.495021666667","25.06305","6500200","三重區"
"241024","065-VK","2017/11/16 17:19:33","新北市三重區中正北路193巷21弄32號","121.47816","25.0708583333333","6500200","三重區"
"241026","066-VK","2017/11/16 17:19:21","新北市三重區福德南路26號","121.502803333333","25.0630583333333","6500200","三重區"
"241002","090-VK","2017/11/16 17:19:27","新北市三重區自強路五段16號","121.492455","25.08054","6500200","三重區"
"241003","091-VK","2017/11/16 17:19:20","新北市三重區富福街63號","121.492146666667","25.084565","6500200","三重區"
"241005","262-UM","2017/11/16 17:19:32","新北市三重區永安北路二段25巷9號","121.482453333333","25.0816666666667","6500200","三重區"
"241016","266-UM","2017/11/16 17:19:28","新北市三重區大同北路56-1號","121.494215","25.063735","6500200","三重區"
"241022","267-UM","2017/11/16 17:19:28","新北市三重區重陽路二段34巷44號","121.485651666667","25.0637566666667","6500200","三重區"
"241018","268-UM","2017/11/16 17:19:26","新北市三重區安慶街123號","121.49482","25.0689183333333","6500200","三重區"
"241032","269-UM","2017/11/16 17:19:22","新北市三重區中華路16號","121.483275","25.060445","6500200","三重區"
"241013","270-UM","2017/11/16 17:19:16","新北市三重區仁福街24號","121.496606666667","25.07452","6500200","三重區"
"241025","271-UM","2017/11/16 17:19:12","新北市三重區中正北路279號","121.47485","25.0710616666667","6500200","三重區"
"241007","398-BY","2017/11/16 17:19:21","新北市三重區慈愛街8號","121.484501666667","25.0783866666667","6500200","三重區"
"241020","413-TH","2017/11/16 17:19:25","新北市三重區自強路三段15-1號","121.486986666667","25.07225","6500200","三重區"
"241004","475-VK","2017/11/16 17:19:18","新北市三重區五華街110巷17弄10號","121.490756666667","25.082355","6500200","三重區"
"241019","478-VK","2017/11/16 17:19:19","新北市三重區忠孝路二段80號","121.484146666667","25.0696866666667","6500200","三重區"
"241030","480-VK","2017/11/16 17:19:28","新北市三重區成功路73巷18號","121.489435","25.051955","6500200","三重區"
"241014","543-UM","2017/11/16 17:19:26","新北市三重區長榮路25號","121.5008","25.0686516666667","6500200","三重區"
"241023","545-UM","2017/11/16 17:19:20","新北市三重區三民街188號","121.481591666667","25.06591","6500200","三重區"
"241001","547-UM","2017/11/16 17:19:24","新北市三重區仁愛街269巷7號","121.493328333333","25.0788916666667","6500200","三重區"
"241006","AAD-863","2017/11/16 17:19:19","新北市三重區三和路四段250號","121.48617","25.0768066666667","6500200","三重區"
"241012","941-UM","2017/11/16 17:19:16","新北市三重區河邊北街256巷5號","121.501461666667","25.07616","6500200","三重區"
"241029","942-UM","2017/11/16 17:19:27","新北市三重區重新路三段150號","121.490821666667","25.0592516666667","6500200","三重區"
"241033","AAC-255","2017/11/16 17:19:17","新北市三重區中興北街191號","121.469055","25.0565066666667","6500200","三重區"
"247022","893-R6","2017/11/16 17:19:29","新北市蘆洲區民義街9巷2號","121.471308333333","25.088605","6501400","蘆洲區"
"247012","546-UM","2017/11/16 17:19:26","新北市蘆洲區信義路319巷6號","121.477968333333","25.08628","6501400","蘆洲區"
"247020","500-BY","2017/11/16 17:19:32","新北市蘆洲區民族路424-1號","121.473938333333","25.09191","6501400","蘆洲區"
"247010","339-TH","2017/11/16 17:19:33","新北市蘆洲區中山一路120巷7弄24號","121.477301666667","25.08207","6501400","蘆洲區"
"247002","337-TH","2017/11/16 17:19:29","新北市蘆洲區永樂街38巷37號","121.458268333333","25.0895066666667","6501400","蘆洲區"
"247004","335-TH","2017/11/16 17:19:30","新北市蘆洲區中原路32號","121.460031666667","25.0827766666667","6501400","蘆洲區"
"247016","057-VK","2017/11/16 17:19:16","新北市蘆洲區正和街97號","121.467925","25.0805916666667","6501400","蘆洲區"
"247006","056-VK","2017/11/16 17:19:15","新北市蘆洲區永安南路二段156號","121.461836666667","25.0791516666667","6501400","蘆洲區"
"247008","053-VK","2017/11/16 17:19:28","新北市三重區永福街135巷32弄21號","121.476691666667","25.0766466666667","6501400","蘆洲區"
"247014","007-UY","2017/11/16 17:19:23","新北市蘆洲區得勝街100號","121.471305","25.08298","6501400","蘆洲區"
"247024","002-UY","2017/11/16 17:19:17","新北市蘆洲區長榮路207號","121.460855","25.08484","6501400","蘆洲區"
"247018","001-UY","2017/11/16 17:19:22","新北市蘆洲區民權路76號","121.474821666667","25.0874283333333","6501400","蘆洲區"
"228003","097-TW","2017/11/16 17:19:31","新北市貢寮區福隆里興隆街16號","121.945023333333","25.0168233333333","6502600","貢寮區"
"228001","212-TW","2017/11/16 17:19:15","新北市貢寮區仁理村尖山腳街18-3號","121.925508333333","25.0483333333333","6502600","貢寮區"
"228002","585-TW","2017/11/16 17:19:27","新北市貢寮區雙玉里下雙溪街26號","121.92449","25.01096","6502600","貢寮區"
"224010","AGQ-8101","2017/11/16 09:11:26","新北市瑞芳區民權街3-1號","121.809438333333","25.1083166666667","6501200","瑞芳區"
"224006","676-BX","2017/11/16 17:19:22","新北市瑞芳區大寮路63巷1-1號","121.781913333333","25.0970566666667","6501200","瑞芳區"
"224009","285-BY","2017/11/16 17:19:34","新北市瑞芳區汽車路145號","121.838566666667","25.1098833333333","6501200","瑞芳區"
"224008","275-VK","2017/11/16 17:19:37","新北市瑞芳區侯硐路53號","121.830361666667","25.08904","6501200","瑞芳區"
"224005","271-BY","2017/11/16 17:19:19","新北市瑞芳區鼻頭路97號","121.915998333333","25.1239733333333","6501200","瑞芳區"
"227010","642-TC","2017/11/16 17:19:31","新北市雙溪區三貂里十三層5-3號","121.853015","25.0774016666667","6502500","雙溪區"
"227004","400-TW","2017/11/16 17:19:26","新北市雙溪區上林里內平林90號","121.827968333333","25.0276633333333","6502500","雙溪區"
"251009","008-UM","2017/11/16 17:19:29","新北市淡水區三民街20號","121.43908","25.1716966666667","6501000","淡水區"
"251004","009-UM","2017/11/16 17:19:27","新北市淡水區中正東路二段88巷15號","121.459078333333","25.1504033333333","6501000","淡水區"
"251005","010-UM","2017/11/16 17:19:21","新北市淡水區鄧公路19-1號","121.450695","25.1700916666667","6501000","淡水區"
"251007","179-VK","2017/11/16 17:19:19","新北市淡水區民生路60號","121.462108333333","25.1379683333333","6501000","淡水區"
"251008","181-VK","2017/11/16 17:19:31","新北市淡水區大同路273號","121.467435","25.1422483333333","6501000","淡水區"
"251014","182-VK","2017/11/16 17:19:18","新北市淡水區公埔子45號","121.463921666667","25.23009","6501000","淡水區"
"251010","413-VK","2017/11/16 17:19:31","新北市淡水區新民街一段117號","121.428228333333","25.187805","6501000","淡水區"
"251012","441-VK","2017/11/16 17:19:32","新北市淡水區北新路48號","121.445755","25.178095","6501000","淡水區"
"251016","442-VK","2017/11/16 17:19:30","新北市淡水區埤島63號","121.461571666667","25.1904616666667","6501000","淡水區"
"251006","561-UM","2017/11/16 17:19:23","新北市淡水區大智街48號","121.442943333333","25.1742033333333","6501000","淡水區"
"251011","650-BX","2017/11/16 17:19:19","新北市淡水區坪頂路128號","121.465096666667","25.161135","6501000","淡水區"
"251002","672-BX","2017/11/16 17:19:21","新北市淡水區中正路二段31號","121.419315","25.1815966666667","6501000","淡水區"
"251003","766-UM","2017/11/16 17:19:29","新北市淡水區中正路259號","121.432961666667","25.1745366666667","6501000","淡水區"
"207003","550-UM","2017/11/16 17:19:29","新北市萬里區龜吼里美崙路33號","121.686663333333","25.1844583333333","6502800","萬里區"
"252002","178-VK","2017/11/16 17:19:27","新北市三芝區忠孝街1-14號","121.505468333333","25.253895","6502100","三芝區"
"252001","292-VK","2017/11/16 17:19:19","新北市三芝區長安街119號","121.498015","25.2596566666667","6502100","三芝區"
"237012","275-BY","2017/11/16 17:19:33","新北市三峽區中山路459巷137號","121.349991666667","24.9339283333333","6500900","三峽區"
"237001","159-BY","2017/11/16 15:21:08","新北市三峽區中山路459巷163-3號","121.348848333333","24.93296","6500900","三峽區"
"237010","706-TV","2017/11/16 17:18:33","新北市三峽區中山路459巷163-3號","121.348648333333","24.932755","6500900","三峽區"
"242031","AAC-296","2017/11/16 17:19:18","新北市新莊區中環路二段392-1號","121.44249","25.04542","6500500","新莊區"
"242029","986-R7","2017/11/16 17:19:28","新北市新莊區三和路12-11號","121.442311666667","25.0368383333333","6500500","新莊區"
"242051","751-BX","2017/11/16 17:19:21","新北市新莊區瓊林路59-88號","121.439521666667","25.0210366666667","6500500","新莊區"
"242027","705-TV","2017/11/16 17:19:25","新北市新莊區中和街2號","121.44848","25.04286","6500500","新莊區"
"242025","615-BX","2017/11/16 17:19:15","新北市新莊區新泰路486號","121.44249","25.045705","6500500","新莊區"
"242023","613-BX","2017/11/16 17:19:29","新北市新莊區中平路82巷36-2號","121.446435","25.0449383333333","6500500","新莊區"
"242039","566-BX","2017/11/16 17:19:33","新北市新莊區新樹路132號","121.435755","25.0238133333333","6500500","新莊區"
"242044","497-BY","2017/11/16 17:19:28","新北市新莊區福營路371號","121.423616666667","25.0276116666667","6500500","新莊區"
"242048","441-UM","2017/11/16 17:19:24","新北市新莊區龍安路253號","121.419665","25.0200933333333","6500500","新莊區"
"242053","440-UM","2017/11/16 17:19:30","新北市新莊區環漢路三段1號","121.44215","25.024195","6500500","新莊區"
"242034","415-TV","2017/11/16 17:19:17","新北市新莊區新莊路771巷10號","121.442103333333","25.03188","6500500","新莊區"
"242004","413-TV","2017/11/16 17:19:21","新北市新莊區新泰路369巷24號","121.442316666667","25.0433433333333","6500500","新莊區"
"242042","400-BY","2017/11/16 17:19:34","新北市新莊區新樹路44號","121.437661666667","25.0277533333333","6500500","新莊區"
"242061","362-BY","2017/11/16 17:19:22","新北市新莊區三和路12-21號","121.44191","25.0388583333333","6500500","新莊區"
"242058","353-BY","2017/11/16 17:19:23","新北市新莊區新泰路357巷3弄45號","121.441983333333","25.0401783333333","6500500","新莊區"
"242007","132-UY","2017/11/16 17:19:28","新北市新莊區中港一街142號","121.446528333333","25.0450466666667","6500500","新莊區"
"242036","133-UY","2017/11/16 17:19:33","新北市新莊區新樹路44號","121.437665","25.02766","6500500","新莊區"
"242021","135-UY","2017/11/16 17:19:35","新北市新莊區中港路306號","121.45257","25.0449933333333","6500500","新莊區"
"242046","172-VK","2017/11/16 17:19:19","新北市新莊區新樹路65-8號","121.439211666667","25.0304783333333","6500500","新莊區"
"242009","173-VK","2017/11/16 10:59:48","新北市新莊區新泰路255巷83號","121.442058333333","25.038835","6500500","新莊區"
"242015","175-VK","2017/11/16 17:19:17","新北市新莊區新泰路500號","121.442425","25.0459033333333","6500500","新莊區"
"242002","176-VK","2017/11/16 17:19:17","新北市新莊區瓊林路21-1號","121.445833333333","25.0287333333333","6500500","新莊區"
"242001","233-RS","2017/11/16 09:11:13","新北市新莊區環河路48-7號","121.436891666667","25.0097866666667","6500500","新莊區"
"242013","346-TH","2017/11/16 17:19:26","新北市新莊區中和街59巷20號","121.446548333333","25.0468683333333","6500500","新莊區"
"242017","347-TH","2017/11/16 17:19:24","新北市新莊區中華路一段103號","121.452671666667","25.043925","6500500","新莊區"
"242019","348-TH","2017/11/16 17:19:15","新北市新莊區中安街5巷23號","121.452283333333","25.0459016666667","6500500","新莊區"
"242056","349-TH","2017/11/16 17:19:28","新北市新莊區新泰路369巷24號","121.442333333333","25.0432366666667","6500500","新莊區"
"242011","351-TH","2017/11/16 17:19:28","新北市新莊區中平路82巷29號","121.446151666667","25.0449116666667","6500500","新莊區"
"238015","755-BX","2017/11/16 17:19:25","新北市樹林區中山路二段89號","121.411513333333","24.98297","6500700","樹林區"
"238023","601-UM","2017/11/16 17:19:30","新北市樹林區中正路433號","121.41489","25.008545","6500700","樹林區"
"238019","599-UM","2017/11/16 17:19:33","新北市樹林區國凱街47巷10號","121.421198333333","24.9796","6500700","樹林區"
"238018","571-TV","2017/11/16 17:19:26","新北市樹林區博愛街215號","121.42399","24.9868533333333","6500700","樹林區"
"238024","5061-A6","2017/11/16 17:19:22","新北市樹林區鎮前街6號","121.426386666667","24.9935233333333","6500700","樹林區"
"238021","KEA-2217","2017/11/16 17:19:28","新北市樹林區西圳街一段165巷20弄11號","121.395588333333","24.960275","6500700","樹林區"
"238022","KEA-2213","2017/11/16 17:19:31","新北市樹林區忠孝街31號","121.42369","24.9822133333333","6500700","樹林區"
"238025","303-VK","2017/11/16 17:19:25","新北市樹林區保安二街77號","121.42439","24.9951366666667","6500700","樹林區"
"238017","283-BY","2017/11/16 17:19:21","新北市樹林區光武街7-3號","121.415776666667","25.0053233333333","6500700","樹林區"
"238001","282-BY","2017/11/16 17:19:34","新北市樹林區大慶街99-1號","121.427708333333","24.999655","6500700","樹林區"
"238020","268-VK","2017/11/16 17:19:19","新北市樹林區大安路47-1號","121.42422","24.9996166666667","6500700","樹林區"
"238026","172-UY","2017/11/16 17:19:23","新北市樹林區東大街146號","121.409861666667","24.9762383333333","6500700","樹林區"
"238016","169-UY","2017/11/16 17:19:18","新北市樹林區八德街1號","121.417528333333","24.9849833333333","6500700","樹林區"
"239007","AAC-297","2017/11/16 17:19:28","新北市鶯歌區國慶街115巷21號","121.351255","24.9545766666667","6500800","鶯歌區"
"239006","891-R6","2017/11/16 17:19:27","新北市鶯歌區福昌街2號","121.333418333333","24.9607633333333","6500800","鶯歌區"
"239008","527-UM","2017/11/16 17:19:20","新北市鶯歌區西湖街289巷10號","121.340853333333","24.9690333333333","6500800","鶯歌區"
"239005","526-UM","2017/11/16 17:19:30","新北市鶯歌區鶯桃路551號","121.330215","24.9679216666667","6500800","鶯歌區"
"239001","417-VK","2017/11/16 17:19:21","新北市鶯歌區尖山路246號","121.342568333333","24.946375","6500800","鶯歌區"
"239003","360-BY","2017/11/16 17:19:31","新北市鶯歌區德昌街112號","121.331955","24.9604683333333","6500800","鶯歌區"
"239002","359-BY","2017/11/16 17:19:25","新北市鶯歌區南昌街17號","121.349556666667","24.9541466666667","6500800","鶯歌區"
"239004","193-VK","2017/11/16 17:19:19","新北市鶯歌區文化路501-16號","121.353636666667","24.9486316666667","6500800","鶯歌區"
"221008","489-VK","2017/11/16 17:19:30","新北市汐止區康寧街901號","121.651403333333","25.0750333333333","6501100","汐止區"
"221012","276-VK","2017/11/16 13:19:54","新北市汐止區汐萬路一段256巷3號","121.65344","25.0746016666667","6501100","汐止區"
"220089","146-RM","2017/11/16 08:59:37","新北市板橋區民生路二段36-1號","121.472453333333","25.01668","6500100","板橋區"
"220010","305-R5","2017/11/16 16:44:17","新北市板橋區民生路二段161巷9號","121.470286666667","25.0195983333333","6500100","板橋區"
