"lineid","car","time","location","longitude","latitude","cityid","cityname"
"234026","9381-KE","2017/11/16 17:59:20","新北市永和區永和路一段45-1號","121.512851666667","25.0062966666667","6500400","永和區"
"234011","9373-KE","2017/11/16 17:42:54","新北市永和區福和路8巷3號","121.525028333333","25.0092533333333","6500400","永和區"
"249005","172-UM","2017/11/16 17:59:24","新北市八里區荖阡坑路18號","121.39785","25.13827","6502300","八里區"
"249001","173-UM","2017/11/16 17:59:33","新北市八里區龍米路二段37號","121.44834","25.140005","6502300","八里區"
"249004","303-UY","2017/11/16 17:59:21","新北市八里區中山路一段1號","121.42317","25.15894","6502300","八里區"
"249002","305-UY","2017/11/16 17:59:20","新北市八里區龍米路一段259號","121.450865","25.133715","6502300","八里區"
"249003","593-UM","2017/11/16 17:59:33","新北市八里區中山路二段76號","121.408491666667","25.1559116666667","6502300","八里區"
"248014","025-BX","2017/11/16 17:59:22","新北市五股區中興路二段182巷2號","121.457396666667","25.0781316666667","6501500","五股區"
"248016","026-BX","2017/11/16 17:59:16","新北市五股區中興路二段83巷26-6號","121.460038333333","25.0753233333333","6501500","五股區"
"248006","077-UY","2017/11/16 17:59:27","新北市五股區中興路二段37巷28號","121.46017","25.075035","6501500","五股區"
"248008","095-VK","2017/11/16 17:59:28","新北市五股區更洲路10號","121.45833","25.0788266666667","6501500","五股區"
"248018","225-UY","2017/11/16 17:59:31","新北市五股區中興路二段83巷26-6號","121.460081666667","25.0752","6501500","五股區"
"248012","247-BX","2017/11/16 17:59:27","新北市五股區中興路二段83巷26-6號","121.46","25.075075","6501500","五股區"
"248010","272-BY","2017/11/16 15:55:15","新北市五股區中興路二段83巷26-6號","121.460028333333","25.0750033333333","6501500","五股區"
"248002","678-BX","2017/11/16 17:59:34","新北市五股區中興路二段37巷28號","121.460168333333","25.0750316666667","6501500","五股區"
"232011","375-UM","2017/11/16 17:59:18","新北市坪林區北宜路八段227號","121.70894","24.9350083333333","6502000","坪林區"
"244013","069-UM","2017/11/16 17:59:16","新北市林口區中山路150-1號","121.391103333333","25.0786833333333","6501700","林口區"
"244007","080-UY","2017/11/16 17:59:17","新北市林口區竹林路155號","121.388746666667","25.079815","6501700","林口區"
"244019","403-UM","2017/11/16 17:59:28","新北市林口區忠孝路559號","121.372766666667","25.0682816666667","6501700","林口區"
"244025","742-UY","2017/11/16 17:59:24","新北市林口區文化三路一段39巷126號","121.359468333333","25.0683833333333","6501700","林口區"
"244009","410-SL","2017/11/16 17:59:23","新北市林口區林口路241號","121.386545","25.0838133333333","6501700","林口區"
"244023","483-VK","2017/11/16 17:59:23","新北市林口區東湖路98號","121.385436666667","25.0736833333333","6501700","林口區"
"244017","485-VK","2017/11/16 17:59:15","新北市林口區文化二路一段230巷17號","121.370956666667","25.0722116666667","6501700","林口區"
"244011","701-TV","2017/11/16 17:59:28","新北市林口區中正路283號","121.389836666667","25.0777","6501700","林口區"
"244021","838-TS","2017/11/16 17:59:28","新北市林口區新寮38號","121.401085","25.0658116666667","6501700","林口區"
"243009","297-R6","2017/11/16 16:02:51","新北市泰山區黎明路25號","121.421986666667","25.0609783333333","6501600","泰山區"
"222003","436-BY","2017/11/16 17:59:25","新北市深坑區炮子崙9號","121.60425","24.98602","6501800","深坑區"
"222002","659-BX","2017/11/16 17:59:16","新北市深坑區深坑街3巷22號","121.616831666667","25.0018216666667","6501800","深坑區"
"231046","278-BY","2017/11/16 17:59:34","新北市新店區康雅崙路1號","121.540401666667","24.9260566666667","6500600","新店區"
"241016","266-UM","2017/11/16 17:59:28","新北市三重區忠孝路三段125號","121.478986666667","25.0616283333333","6500200","三重區"
"241024","462-BY","2017/11/16 17:59:27","新北市三重區中正北路193巷35弄35號","121.47748","25.0711383333333","6500200","三重區"
"241033","AAC-255","2017/11/16 17:59:17","新北市三重區重新路五段625號","121.467823333333","25.044115","6500200","三重區"
"235063","006-UY","2017/11/16 17:59:28","新北市中和區員山路36巷16-3號","121.484843333333","24.991345","6500300","中和區"
"235065","098-UM","2017/11/16 17:59:26","新北市中和區連城路467-6號","121.48352","24.9959816666667","6500300","中和區"
"235038","185-VK","2017/11/16 17:59:19","新北市中和區錦和路350-1號","121.490451666667","24.993575","6500300","中和區"
"235042","551-UM","2017/11/16 17:59:22","新北市中和區和城路一段271巷1號","121.485696666667","24.9915516666667","6500300","中和區"
"235062","800-TS","2017/11/16 17:59:15","新北市中和區連城路469巷20號","121.483495","24.9951516666667","6500300","中和區"
"235041","802-TS","2017/11/16 17:59:26","新北市中和區員山路36巷16-2號","121.48513","24.991775","6500300","中和區"
"235053","900-TW","2017/11/16 17:59:28","新北市中和區員山路36巷16-2號","121.485258333333","24.9914383333333","6500300","中和區"
"235064","911-UM","2017/11/16 17:42:35","新北市中和區員山路36巷16-3號","121.48499","24.9913833333333","6500300","中和區"
"235037","AAC-213","2017/11/16 17:59:22","新北市中和區中正路637巷52弄1號","121.485401666667","24.9934883333333","6500300","中和區"
"235059","AAC-215","2017/11/16 17:12:22","新北市中和區員山路36巷16-3號","121.485018333333","24.99125","6500300","中和區"
"247012","546-UM","2017/11/16 17:59:26","新北市蘆洲區民族路171號","121.479206666667","25.0884266666667","6501400","蘆洲區"
"247020","500-BY","2017/11/16 17:59:32","新北市蘆洲區民義街35巷7號","121.471575","25.0895916666667","6501400","蘆洲區"
"247010","339-TH","2017/11/16 17:59:19","新北市蘆洲區三民路26巷75號","121.47897","25.08328","6501400","蘆洲區"
"247002","337-TH","2017/11/16 17:59:23","新北市蘆洲區永平街32巷57弄21號","121.459066666667","25.0931366666667","6501400","蘆洲區"
"247016","057-VK","2017/11/16 17:59:16","新北市蘆洲區中正路185巷78弄4號","121.466026666667","25.084525","6501400","蘆洲區"
"247006","056-VK","2017/11/16 17:59:35","新北市蘆洲區中華街6號","121.4634","25.081565","6501400","蘆洲區"
"247008","053-VK","2017/11/16 17:59:27","新北市五股區四維路185巷33號","121.464778333333","25.0777316666667","6501400","蘆洲區"
"247014","007-UY","2017/11/16 17:59:23","新北市蘆洲區忠孝路53號","121.471356666667","25.0866016666667","6501400","蘆洲區"
"247024","002-UY","2017/11/16 17:59:27","新北市蘆洲區光復路28號","121.463206666667","25.0846233333333","6501400","蘆洲區"
"247018","001-UY","2017/11/16 17:59:22","新北市蘆洲區復興路300號","121.481246666667","25.0900016666667","6501400","蘆洲區"
"226004","205-ST","2017/11/16 17:59:16","新北市平溪區石底里公園街18-3號","121.733236666667","25.02586","6502400","平溪區"
"228003","097-TW","2017/11/16 17:59:31","新北市貢寮區真理里美艷山街6-2號","121.928875","25.0607416666667","6502600","貢寮區"
"228001","212-TW","2017/11/16 17:59:34","新北市貢寮區真理里新港街26巷50號","121.927791666667","25.0532416666667","6502600","貢寮區"
"228002","585-TW","2017/11/16 17:59:27","新北市貢寮區福連里香蘭街3號","121.971733333333","25.0244633333333","6502600","貢寮區"
"224006","676-BX","2017/11/16 17:59:22","新北市瑞芳區瑞興新村12巷1號","121.78842","25.1083366666667","6501200","瑞芳區"
"224002","639-TC","2017/11/16 17:59:24","新北市瑞芳區三爪子坑路32巷4號","121.810271666667","25.1061366666667","6501200","瑞芳區"
"224009","285-BY","2017/11/16 17:59:14","新北市瑞芳區山尖路2號","121.854331666667","25.1165783333333","6501200","瑞芳區"
"224008","275-VK","2017/11/16 17:59:13","新北市瑞芳區員山子路3-7號","121.820055","25.1048766666667","6501200","瑞芳區"
"224007","273-VK","2017/11/16 17:59:27","新北市瑞芳區大寮路84號","121.780426666667","25.1013066666667","6501200","瑞芳區"
"224005","271-BY","2017/11/16 17:59:19","新北市瑞芳區建基路一段50巷51號","121.817965","25.1280666666667","6501200","瑞芳區"
"253005","032-BX","2017/11/16 17:59:24","新北市石門區中山路64-1號","121.567436666667","25.29052","6502200","石門區"
"253006","295-VK","2017/11/16 17:59:32","新北市石門區大丘田45-2號","121.549798333333","25.2748566666667","6502200","石門區"
"222001","KEA-2212","2017/11/16 17:59:30","新北市深坑區北深路二段187號","121.612255","25.0010133333333","6501800","深坑區"
"208002","742-BX","2017/11/16 17:59:31","新北市金山區三界壇路91-1號","121.62485","25.2286283333333","6502700","金山區"
"208003","665-BX","2017/11/16 17:59:23","新北市金山區磺港里磺港路304號","121.643823333333","25.2269283333333","6502700","金山區"
"208001","761-BX","2017/11/16 17:59:29","新北市金山區磺港里磺港路169號","121.643376666667","25.2248366666667","6502700","金山區"
"251009","008-UM","2017/11/16 17:59:29","新北市淡水區大智街27號","121.442336666667","25.1746033333333","6501000","淡水區"
"251004","009-UM","2017/11/16 17:59:27","新北市淡水區民權路82號","121.459071666667","25.1336466666667","6501000","淡水區"
"251005","010-UM","2017/11/16 17:59:21","新北市淡水區英專路127號","121.446298333333","25.1727016666667","6501000","淡水區"
"251001","011-UM","2017/11/16 17:59:25","新北市淡水區民權路94巷1號","121.463118333333","25.1247916666667","6501000","淡水區"
"251008","181-VK","2017/11/16 17:59:31","新北市淡水區八勢一街51號","121.461908333333","25.1557133333333","6501000","淡水區"
"251014","182-VK","2017/11/16 17:59:18","新北市淡水區公埔子16-6號","121.481026666667","25.224595","6501000","淡水區"
"251010","413-VK","2017/11/16 17:59:31","新北市淡水區中正路一段87巷1號","121.42178","25.17917","6501000","淡水區"
"251012","441-VK","2017/11/16 17:59:32","新北市淡水區北新路三段16-7號","121.483538333333","25.1860033333333","6501000","淡水區"
"251016","442-VK","2017/11/16 17:59:30","新北市淡水區埤島30-14號","121.448163333333","25.198095","6501000","淡水區"
"251006","561-UM","2017/11/16 17:59:23","新北市淡水區新生街30巷2號","121.438981666667","25.1734966666667","6501000","淡水區"
"251011","650-BX","2017/11/16 17:59:18","新北市淡水區坪頂路500號","121.476968333333","25.1607583333333","6501000","淡水區"
"251002","672-BX","2017/11/16 17:59:21","新北市淡水區鼻頭街18-1號","121.446805","25.1666983333333","6501000","淡水區"
"251003","766-UM","2017/11/16 17:59:29","新北市淡水區大忠街81號","121.446001666667","25.177385","6501000","淡水區"
"207003","550-UM","2017/11/16 17:59:29","新北市萬里區港東路野柳風景區攤販66號","121.691308333333","25.20583","6502800","萬里區"
"207004","225-TW","2017/11/16 17:59:19","新北市萬里區中幅里中福路48號","121.683281666667","25.1740766666667","6502800","萬里區"
"252002","178-VK","2017/11/16 17:59:27","新北市三芝區中山路二段47巷11號","121.502625","25.2550833333333","6502100","三芝區"
"252001","292-VK","2017/11/16 17:59:19","新北市三芝區中興街一段43號","121.49782","25.2574733333333","6502100","三芝區"
"208004","170-UY","2017/11/16 17:59:24","新北市萬里區龜吼里美崙路93號","121.685403333333","25.1849183333333","6502700","金山區"
"237004","078-UY","2017/11/16 17:59:34","新北市三峽區中正路二段338號","121.365916666667","24.9104283333333","6500900","三峽區"
"237007","153-BY","2017/11/16 17:59:12","新北市三峽區中園街167號","121.367108333333","24.921915","6500900","三峽區"
"237013","252-BX","2017/11/16 17:59:24","新北市三峽區介壽路一段176號","121.377205","24.931035","6500900","三峽區"
"237012","275-BY","2017/11/16 17:59:13","新北市三峽區民生街27巷1號","121.376161666667","24.9363166666667","6500900","三峽區"
"237008","302-VK","2017/11/16 17:59:34","新北市三峽區白雞28號","121.369001666667","24.912425","6500900","三峽區"
"237001","159-BY","2017/11/16 15:21:08","新北市三峽區中山路459巷163-3號","121.348848333333","24.93296","6500900","三峽區"
"237014","433-BY","2017/11/16 17:59:17","新北市三峽區復興路101巷1弄28號","121.371078333333","24.9378333333333","6500900","三峽區"
"237006","5529-G3","2017/11/16 17:59:24","新北市三峽區介壽路二段136巷106弄3號","121.392138333333","24.9331433333333","6500900","三峽區"
"237011","572-TV","2017/11/16 17:59:13","新北市三峽區大同路17號","121.377173333333","24.9286683333333","6500900","三峽區"
"237016","649-BX","2017/11/16 17:59:27","新北市三峽區紫微路109號","121.407928333333","24.911425","6500900","三峽區"
"237010","706-TV","2017/11/16 17:59:13","新北市三峽區中山路47號","121.368013333333","24.9345116666667","6500900","三峽區"
"237005","AKY-6261","2017/11/16 17:59:30","新北市三峽區復興路239-2號","121.368156666667","24.9384883333333","6500900","三峽區"
"236071","105-UM","2017/11/16 17:59:31","新北市土城區青雲路472號","121.462558333333","24.96656","6501300","土城區"
"236042","107-UM","2017/11/16 17:59:25","新北市土城區裕生路84巷1號","121.447283333333","24.9853383333333","6501300","土城區"
"236078","166-UM","2017/11/16 17:59:22","新北市土城區永寧路109-4號","121.430331666667","24.9543783333333","6501300","土城區"
"236030","253-BX","2017/11/16 17:59:15","新北市土城區城林路6巷80號","121.438491666667","24.9797733333333","6501300","土城區"
"236026","269-VK","2017/11/16 17:59:21","新北市土城區城林路6巷80號","121.438348333333","24.9795283333333","6501300","土城區"
"236014","270-VK","2017/11/16 17:59:24","新北市土城區城林路6巷80號","121.43857","24.97962","6501300","土城區"
"236037","271-VK","2017/11/16 17:59:32","新北市土城區城林路6巷80號","121.43844","24.9797166666667","6501300","土城區"
"236021","401-BY","2017/11/16 17:59:17","新北市土城區城林路6巷80號","121.438733333333","24.979675","6501300","土城區"
"236058","912-UM","2017/11/16 17:59:29","新北市土城區中央路三段168號","121.430935","24.9651883333333","6501300","土城區"
"236051","913-UM","2017/11/16 17:59:31","新北市土城區中華路一段301號","121.439733333333","24.9794516666667","6501300","土城區"
"236062","915-UM","2017/11/16 17:59:27","新北市土城區城林路6巷80號","121.438453333333","24.9796333333333","6501300","土城區"
"236053","AAC-216","2017/11/16 17:59:15","新北市土城區中央路二段280號","121.440653333333","24.97403","6501300","土城區"
"242031","AAC-296","2017/11/16 17:59:18","新北市新莊區新泰路305巷15號","121.444651666667","25.0408466666667","6500500","新莊區"
"242029","986-R7","2017/11/16 17:59:28","新北市新莊區復興路一段29號","121.446343333333","25.0418666666667","6500500","新莊區"
"242051","751-BX","2017/11/16 17:59:21","新北市新莊區民安西路141號","121.426583333333","25.0170733333333","6500500","新莊區"
"242027","705-TV","2017/11/16 17:59:05","新北市新莊區思源路389號","121.459766666667","25.0515683333333","6500500","新莊區"
"242025","615-BX","2017/11/16 17:59:35","新北市新莊區化成路531巷50號","121.462","25.063295","6500500","新莊區"
"242023","613-BX","2017/11/16 17:59:29","新北市新莊區福壽街67號","121.458185","25.04943","6500500","新莊區"
"242039","566-BX","2017/11/16 17:59:33","新北市新莊區民安西路22號","121.426693333333","25.0213316666667","6500500","新莊區"
"242044","497-BY","2017/11/16 17:59:28","新北市新莊區雙鳳路137號","121.41297","25.0272333333333","6500500","新莊區"
"242048","441-UM","2017/11/16 17:59:32","新北市新莊區後港二路14號","121.422728333333","25.02391","6500500","新莊區"
"242053","440-UM","2017/11/16 17:59:30","新北市新莊區民安西路327巷4弄19號","121.42872","25.0112483333333","6500500","新莊區"
"242034","415-TV","2017/11/16 17:59:17","新北市新莊區中正路421巷7號","121.444708333333","25.03389","6500500","新莊區"
"242004","413-TV","2017/11/16 17:59:33","新北市新莊區福樂街72巷16號","121.458788333333","25.0466383333333","6500500","新莊區"
"242042","400-BY","2017/11/16 17:59:34","新北市新莊區中正路857號","121.419506666667","25.0280883333333","6500500","新莊區"
"242061","362-BY","2017/11/16 17:59:22","新北市新莊區新樹路399號","121.432818333333","25.0161116666667","6500500","新莊區"
"242058","353-BY","2017/11/16 17:59:23","新北市新莊區雙鳳路134巷8號","121.412768333333","25.0281166666667","6500500","新莊區"
"242007","132-UY","2017/11/16 17:59:28","新北市新莊區自信街65巷14號","121.455551666667","25.0487833333333","6500500","新莊區"
"242036","133-UY","2017/11/16 17:59:33","新北市新莊區福營路250號","121.426008333333","25.02946","6500500","新莊區"
"242021","135-UY","2017/11/16 17:59:35","新北市新莊區建興街6號","121.450181666667","25.0365116666667","6500500","新莊區"
"242046","172-VK","2017/11/16 17:59:19","新北市新莊區福營路167號","121.431815","25.0311683333333","6500500","新莊區"
"242009","173-VK","2017/11/16 17:59:05","新北市新莊區中華路二段294號","121.452425","25.05388","6500500","新莊區"
"242015","175-VK","2017/11/16 17:59:34","新北市新莊區中平路87巷3號","121.444473333333","25.0458316666667","6500500","新莊區"
"242002","176-VK","2017/11/16 17:59:17","新北市新莊區中正路161-1號","121.455376666667","25.0366366666667","6500500","新莊區"
"242001","233-RS","2017/11/16 09:11:13","新北市新莊區環河路48-7號","121.436891666667","25.0097866666667","6500500","新莊區"
"242017","347-TH","2017/11/16 17:59:24","新北市新莊區中港一街99號","121.449148333333","25.0450816666667","6500500","新莊區"
"242019","348-TH","2017/11/16 17:59:35","新北市新莊區明中街45-2號","121.457441666667","25.0392533333333","6500500","新莊區"
"242056","349-TH","2017/11/16 17:59:28","新北市新莊區豐年街124巷22號","121.445478333333","25.029935","6500500","新莊區"
"242011","351-TH","2017/11/16 17:59:28","新北市新莊區中榮街56巷12號","121.449196666667","25.0536516666667","6500500","新莊區"
"238015","755-BX","2017/11/16 17:59:31","新北市樹林區大安路307巷1弄7號","121.418318333333","24.9922533333333","6500700","樹林區"
"238023","601-UM","2017/11/16 17:59:30","新北市樹林區龍興街31巷6號","121.403376666667","25.01598","6500700","樹林區"
"238019","599-UM","2017/11/16 17:59:33","新北市樹林區水源街15號","121.425055","24.9831333333333","6500700","樹林區"
"238018","571-TV","2017/11/16 17:59:26","新北市樹林區中正路7-1號","121.43025","24.9976133333333","6500700","樹林區"
"238021","KEA-2217","2017/11/16 17:59:27","新北市樹林區柑園街一段31號","121.403973333333","24.960145","6500700","樹林區"
"238022","KEA-2213","2017/11/16 17:59:31","新北市樹林區太順街41號","121.418235","24.9792883333333","6500700","樹林區"
"238025","303-VK","2017/11/16 17:59:25","新北市樹林區三俊街119號","121.417575","25.0156116666667","6500700","樹林區"
"238017","283-BY","2017/11/16 17:59:21","新北市樹林區三俊街2號","121.410803333333","25.0150866666667","6500700","樹林區"
"238014","282-BY","2017/11/16 17:59:34","新北市樹林區保安街一段291號","121.418008333333","24.9972166666667","6500700","樹林區"
"238020","268-VK","2017/11/16 17:59:19","新北市樹林區三俊街201號","121.420155","25.015535","6500700","樹林區"
"238026","172-UY","2017/11/16 17:59:22","新北市樹林區佳園路一段46號","121.39295","24.970855","6500700","樹林區"
"238016","169-UY","2017/11/16 17:59:18","新北市樹林區啟智街151巷5號","121.416583333333","24.987715","6500700","樹林區"
"239007","AAC-297","2017/11/16 17:59:28","新北市鶯歌區永樂街11號","121.341878333333","24.953205","6500800","鶯歌區"
"239006","891-R6","2017/11/16 17:59:29","新北市鶯歌區鶯桃路455巷10弄2號","121.33153","24.9641283333333","6500800","鶯歌區"
"239008","527-UM","2017/11/16 17:59:20","新北市鶯歌區朝陽街46巷1號","121.337141666667","24.9774666666667","6500800","鶯歌區"
"239005","526-UM","2017/11/16 17:59:30","新北市鶯歌區鶯桃路二段9號","121.326063333333","24.971995","6500800","鶯歌區"
"239001","417-VK","2017/11/16 17:59:21","新北市鶯歌區中正二路192-2號","121.33964","24.9433466666667","6500800","鶯歌區"
"239003","360-BY","2017/11/16 17:59:31","新北市鶯歌區鶯桃路348號","121.333873333333","24.9625116666667","6500800","鶯歌區"
"239002","359-BY","2017/11/16 17:59:25","新北市鶯歌區光明街48巷2號","121.348053333333","24.9562166666667","6500800","鶯歌區"
"221008","489-VK","2017/11/16 17:59:30","新北市汐止區明峰街17號","121.634681666667","25.0713666666667","6501100","汐止區"
"221036","130-UY","2017/11/16 17:59:31","新北市汐止區忠孝東路473巷24-1號","121.665066666667","25.07363","6501100","汐止區"
"221015","131-UY","2017/11/16 17:59:29","新北市汐止區長江街333號","121.666836666667","25.0818466666667","6501100","汐止區"
"221010","269-BY","2017/11/16 17:59:22","新北市汐止區汐萬路二段247號","121.646456666667","25.088265","6501100","汐止區"
"221012","276-VK","2017/11/16 13:19:54","新北市汐止區汐萬路一段256巷3號","121.65344","25.0746016666667","6501100","汐止區"
"221012","278-VK","2017/11/16 17:59:17","新北市汐止區長興街二段24號","121.673031666667","25.0812833333333","6501100","汐止區"
"221023","279-VK","2017/11/16 17:59:17","新北市汐止區明峰街143號","121.629585","25.0706466666667","6501100","汐止區"
"221032","280-BY","2017/11/16 17:59:27","新北市汐止區橫科路73巷20弄22號","121.619825","25.0516516666667","6501100","汐止區"
"221027","281-BY","2017/11/16 17:59:28","新北市汐止區汐萬路一段81號","121.654636666667","25.0701166666667","6501100","汐止區"
"221029","298-VK","2017/11/16 17:59:24","新北市汐止區樟樹二路329號","121.641413333333","25.0703833333333","6501100","汐止區"
"221021","299-VK","2017/11/16 17:59:26","新北市汐止區新興路16號","121.656343333333","25.0646533333333","6501100","汐止區"
"221031","353-TW","2017/11/16 17:59:35","新北市汐止區中興路101號","121.632315","25.0646516666667","6501100","汐止區"
"221035","622-UM","2017/11/16 17:59:32","新北市汐止區汐萬路一段115巷30號","121.653595","25.0704583333333","6501100","汐止區"
"221025","623-UM","2017/11/16 17:59:26","新北市汐止區仁愛路20號","121.659718333333","25.0630616666667","6501100","汐止區"
"221038","646-BX","2017/11/16 17:59:17","新北市汐止區大同路二段184巷13號","121.65367","25.063385","6501100","汐止區"
"221033","647-BX","2017/11/16 17:59:16","新北市汐止區合順街29號","121.620341666667","25.0432116666667","6501100","汐止區"
"221002","707-TV","2017/11/16 17:59:28","新北市汐止區工建路212號","121.636128333333","25.06206","6501100","汐止區"
"221018","753-BX","2017/11/16 17:59:30","新北市汐止區招商街16號","121.666626666667","25.0684416666667","6501100","汐止區"
"220089","146-RM","2017/11/16 08:59:37","新北市板橋區民生路二段36-1號","121.472453333333","25.01668","6500100","板橋區"
"220010","305-R5","2017/11/16 17:59:29","新北市板橋區民生路二段120號","121.470341666667","25.0197266666667","6500100","板橋區"
