"lineid","car","time","location","longitude","latitude","cityid","cityname"
"234046","148-BY","2017/11/16 18:39:21","新北市永和區永元路68號","121.52259","25.001495","6500400","永和區"
"234007","207-UY","2017/11/16 18:39:25","新北市永和區文化路123號","121.512131666667","25.0153416666667","6500400","永和區"
"234081","298-R6","2017/11/16 18:39:21","新北市永和區林森路75號","121.524028333333","25.00393","6500400","永和區"
"234038","336-UY","2017/11/16 18:39:25","新北市永和區福和路1號","121.526418333333","25.01005","6500400","永和區"
"234064","337-UY","2017/11/16 18:39:20","新北市永和區福和路1號","121.526375","25.0099016666667","6500400","永和區"
"234086","338-UY","2017/11/16 18:39:16","新北市永和區永貞路101號","121.517995","25.0043416666667","6500400","永和區"
"234017","745-BX","2017/11/16 18:39:16","新北市永和區福和路1號","121.526535","25.0097583333333","6500400","永和區"
"234030","746-BX","2017/11/16 18:39:20","新北市永和區成功路一段89號","121.526891666667","25.0028416666667","6500400","永和區"
"234061","AAD-866","2017/11/16 18:39:19","新北市永和區福和路1號","121.526133333333","25.0096116666667","6500400","永和區"
"234042","862-TW","2017/11/16 18:39:16","新北市永和區永貞路306號","121.511896666667","25.00481","6500400","永和區"
"234050","863-TW","2017/11/16 18:39:23","新北市永和區環河東路二段52號","121.523288333333","25.01181","6500400","永和區"
"234026","9381-KE","2017/11/16 18:39:20","新北市永和區仁愛路295號","121.504798333333","25.0092783333333","6500400","永和區"
"234011","9373-KE","2017/11/16 18:39:21","新北市永和區文化路113巷21弄26號","121.513766666667","25.013955","6500400","永和區"
"249005","172-UM","2017/11/16 18:39:24","新北市八里區中華路三段196號","121.388175","25.1255666666667","6502300","八里區"
"249001","173-UM","2017/11/16 18:39:13","新北市八里區龍米路一段352號","121.451563333333","25.1312166666667","6502300","八里區"
"249004","303-UY","2017/11/16 18:39:19","新北市八里區龍米路三段58-8號","121.424191666667","25.1589866666667","6502300","八里區"
"248014","025-BX","2017/11/16 18:39:22","新北市五股區蓬萊路24號","121.433995","25.0798516666667","6501500","五股區"
"248016","026-BX","2017/11/16 18:39:16","新北市五股區凌雲路一段149巷13-1號","121.44857","25.10088","6501500","五股區"
"248008","095-VK","2017/11/16 18:39:32","新北市五股區中興路一段148號","121.464626666667","25.0740433333333","6501500","五股區"
"248018","225-UY","2017/11/16 18:39:11","新北市五股區孝義路108-1號","121.442563333333","25.1198033333333","6501500","五股區"
"248012","247-BX","2017/11/16 18:39:27","新北市五股區御成路2號","121.442093333333","25.0908216666667","6501500","五股區"
"248010","272-BY","2017/11/16 18:39:13","新北市五股區明德路27號","121.434525","25.07127","6501500","五股區"
"248004","677-BX","2017/11/16 18:39:17","新北市五股區民義路一段236-6號","121.427465","25.091245","6501500","五股區"
"248002","678-BX","2017/11/16 18:39:15","新北市五股區西雲路220號","121.448186666667","25.0960516666667","6501500","五股區"
"234023","9380-KE","2017/11/16 18:39:34","新北市永和區福和路8巷1號","121.524868333333","25.008895","6500400","永和區"
"234077","969-R7","2017/11/16 18:39:20","新北市永和區中正路293號","121.51756","25.0014816666667","6500400","永和區"
"234074","AAC-211","2017/11/16 18:39:28","新北市永和區福和路1號","121.526271666667","25.009435","6500400","永和區"
"234067","AAC-212","2017/11/16 18:39:34","新北市永和區福和路143號","121.520858333333","25.00773","6500400","永和區"
"234003","AAC-295","2017/11/16 18:39:26","新北市永和區福和路1號","121.52657","25.01004","6500400","永和區"
"232011","375-UM","2017/11/16 18:17:55","新北市坪林區坪雙路一段25號","121.711715","24.9423783333333","6502000","坪林區"
"244013","069-UM","2017/11/16 18:39:21","新北市林口區中山路267號","121.385318333333","25.0795333333333","6501700","林口區"
"244007","080-UY","2017/11/16 18:39:17","新北市林口區湖北里56號","121.384363333333","25.1066816666667","6501700","林口區"
"244019","403-UM","2017/11/16 18:39:28","新北市林口區忠孝路577號","121.375085","25.068205","6501700","林口區"
"244025","742-UY","2017/11/16 18:39:24","新北市林口區南勢街280號","121.357618333333","25.076515","6501700","林口區"
"244009","410-SL","2017/11/16 18:39:23","新北市林口區文化二路二段369號","121.381268333333","25.08655","6501700","林口區"
"244023","483-VK","2017/11/16 18:39:23","新北市林口區文化二路二段72號","121.378645","25.0802683333333","6501700","林口區"
"244017","485-VK","2017/11/16 18:39:15","新北市林口區文化二路一段166號","121.368731666667","25.0717566666667","6501700","林口區"
"244011","701-TV","2017/11/16 18:39:28","新北市林口區興林路17巷5弄6號","121.390576666667","25.077185","6501700","林口區"
"244021","838-TS","2017/11/16 18:39:28","新北市林口區自強六街10號","121.39984","25.0766466666667","6501700","林口區"
"243012","AAD-798","2017/11/16 18:39:15","新北市泰山區福興三街13號","121.434415","25.0578083333333","6501600","泰山區"
"243009","297-R6","2017/11/16 16:02:51","新北市泰山區黎明路25號","121.421986666667","25.0609783333333","6501600","泰山區"
"243015","380-SR","2017/11/16 15:41:21","新北市泰山區犁頭窠3-1號","121.422348333333","25.0603383333333","6501600","泰山區"
"243013","646-TV","2017/11/16 18:39:15","新北市泰山區明志路三段206巷3號","121.423298333333","25.0379216666667","6501600","泰山區"
"222003","436-BY","2017/11/16 18:39:25","新北市深坑區翠谷街33號","121.626498333333","25.009265","6501800","深坑區"
"222002","659-BX","2017/11/16 18:39:16","新北市深坑區雲鄉路2號","121.620911666667","24.9997133333333","6501800","深坑區"
"231041","002-UM","2017/11/16 18:39:25","新北市新店區安華路28-1號","121.519646666667","24.9607283333333","6500600","新店區"
"231059","046-UY","2017/11/16 18:39:17","新北市新店區安華路28-1號","121.519538333333","24.960835","6500600","新店區"
"231061","047-UY","2017/11/16 18:39:11","新北市新店區安華路28-1號","121.5193","24.9609916666667","6500600","新店區"
"231060","106-UY","2017/11/16 18:39:22","新北市新店區安華路28-1號","121.519838333333","24.9608483333333","6500600","新店區"
"231047","108-UY","2017/11/16 18:39:25","新北市新店區安康路一段123號","121.528251666667","24.9618116666667","6500600","新店區"
"231052","187-VK","2017/11/16 18:39:27","新北市新店區新烏路一段73號","121.546185","24.943005","6500600","新店區"
"231050","KEA-2219","2017/11/16 18:39:31","新北市新店區安華路28-1號","121.51995","24.9612766666667","6500600","新店區"
"231057","256-BX","2017/11/16 18:39:26","新北市新店區新烏路一段205-1號","121.547343333333","24.932825","6500600","新店區"
"231046","278-BY","2017/11/16 18:39:14","新北市新店區直潭二街1號","121.535556666667","24.943185","6500600","新店區"
"231054","AAD-862","2017/11/16 18:39:26","新北市新店區安華路28-1號","121.519841666667","24.961225","6500600","新店區"
"231058","3712-VJ","2017/11/16 18:39:27","新北市新店區新店路29號","121.539871666667","24.952735","6500600","新店區"
"231056","3713-VJ","2017/11/16 18:39:20","新北市新店區自立街62號","121.53774","24.9794033333333","6500600","新店區"
"231055","4716-K9","2017/11/16 18:39:25","新北市新店區華興街40號","121.537023333333","24.9690683333333","6500600","新店區"
"231067","4772-VM","2017/11/16 18:39:25","新北市新店區安華路28-1號","121.519293333333","24.960635","6500600","新店區"
"231065","512-UM","2017/11/16 18:39:21","新北市新店區安華路28-1號","121.519505","24.961125","6500600","新店區"
"231064","515-UM","2017/11/16 18:39:12","新北市新店區安康路一段355-3號","121.519401666667","24.9615133333333","6500600","新店區"
"231042","616-UM","2017/11/16 18:39:26","新北市新店區安華路28-1號","121.519468333333","24.960635","6500600","新店區"
"231040","619-UM","2017/11/16 18:39:21","新北市新店區安華路28-1號","121.519376666667","24.96088","6500600","新店區"
"231063","645-TV","2017/11/16 18:39:16","新北市新店區安華路28-1號","121.519211666667","24.960615","6500600","新店區"
"231049","719-UM","2017/11/16 18:39:16","新北市新店區安康路一段75號","121.53016","24.9610716666667","6500600","新店區"
"231051","719-UY","2017/11/16 18:39:27","新北市新店區安華路28-1號","121.519691666667","24.960685","6500600","新店區"
"231062","720-UM","2017/11/16 18:39:32","新北市新店區安華路28-1號","121.519233333333","24.9612483333333","6500600","新店區"
"231044","897-TW","2017/11/16 18:39:31","新北市新店區光明街141號","121.539405","24.962125","6500600","新店區"
"231045","898-TW","2017/11/16 18:39:23","新北市新店區安華路28-1號","121.519216666667","24.9610116666667","6500600","新店區"
"231043","899-TW","2017/11/16 18:39:15","新北市新店區安華路28-1號","121.519195","24.96091","6500600","新店區"
"231066","AKT-0513","2017/11/16 18:39:31","新北市新店區安華路1-1號","121.519453333333","24.96044","6500600","新店區"
"235066","003-UY","2017/11/16 18:39:33","新北市中和區水源路39號","121.504651666667","25.0035716666667","6500300","中和區"
"235063","006-UY","2017/11/16 18:39:28","新北市中和區連城路347巷2弄1號","121.488158333333","24.9957533333333","6500300","中和區"
"235056","096-UM","2017/11/16 18:39:25","新北市中和區員山路611巷1號","121.477901666667","25.0111933333333","6500300","中和區"
"235039","097-UM","2017/11/16 18:39:22","新北市中和區安平路192號","121.513263333333","24.9992233333333","6500300","中和區"
"235065","098-UM","2017/11/16 18:39:25","新北市中和區莊敬路49巷20弄4號","121.50184","25.0059433333333","6500300","中和區"
"235040","150-BY","2017/11/16 18:39:22","新北市中和區宜安路56號","121.511833333333","24.9969283333333","6500300","中和區"
"235058","151-BY","2017/11/16 18:39:26","新北市中和區圓通路435巷1號","121.486271666667","24.9875883333333","6500300","中和區"
"235055","183-VK","2017/11/16 18:39:22","新北市中和區民生街93-2號","121.46856","25.0047633333333","6500300","中和區"
"235038","185-VK","2017/11/16 18:39:19","新北市中和區立人街14巷33號","121.519466666667","24.9954483333333","6500300","中和區"
"235049","186-VK","2017/11/16 18:39:18","新北市中和區景安路173號","121.50522","24.994415","6500300","中和區"
"235067","255-BX","2017/11/16 18:39:15","新北市中和區新生街26號","121.483195","25.0039816666667","6500300","中和區"
"235044","293-VK","2017/11/16 18:39:22","新北市中和區復興路280巷5號","121.502238333333","24.9910283333333","6500300","中和區"
"235072","301-VK","2017/11/16 18:39:35","新北市中和區連城路2號","121.499346666667","25.0024133333333","6500300","中和區"
"235043","352-BY","2017/11/16 18:39:17","新北市中和區景平路155號","121.513273333333","24.992245","6500300","中和區"
"235068","377-QA","2017/11/16 18:39:20","新北市中和區中正路192號","121.497641666667","24.9937433333333","6500300","中和區"
"235061","378-QA","2017/11/16 18:39:29","新北市中和區民享街97巷14號","121.475201666667","24.99971","6500300","中和區"
"235050","4979-A6","2017/11/16 18:39:14","新北市中和區景新街418巷39號","121.512426666667","24.98818","6500300","中和區"
"235069","4980-A6","2017/11/16 18:39:21","新北市中和區連城路65巷2號","121.497716666667","25.00118","6500300","中和區"
"235042","551-UM","2017/11/16 18:39:22","新北市中和區成功路127巷16號","121.527196666667","24.9908633333333","6500300","中和區"
"235070","558-UM","2017/11/16 18:39:21","新北市中和區景新街133號","121.505981666667","24.9971766666667","6500300","中和區"
"235045","565-BX","2017/11/16 18:39:25","新北市中和區南山路236巷1號","121.506105","24.9891966666667","6500300","中和區"
"235054","640-BX","2017/11/16 18:39:15","新北市中和區民享街86巷18號","121.473676666667","25.0007383333333","6500300","中和區"
"235060","647-TV","2017/11/16 18:39:18","新北市中和區中山路二段648號","121.480738333333","25.0056983333333","6500300","中和區"
"235047","732-UM","2017/11/16 18:39:31","新北市中和區南山路318號","121.507941666667","24.9866733333333","6500300","中和區"
"235046","733-UM","2017/11/16 18:39:23","新北市中和區仁愛街70號","121.511333333333","24.9877016666667","6500300","中和區"
"235062","800-TS","2017/11/16 18:39:15","新北市中和區中山路二段312巷37號","121.495181666667","25.0039316666667","6500300","中和區"
"235057","801-TS","2017/11/16 18:39:33","新北市中和區民安街42巷36號","121.478998333333","25.00112","6500300","中和區"
"235041","802-TS","2017/11/16 18:39:26","新北市中和區中安街178巷13弄3號","121.510293333333","24.9986633333333","6500300","中和區"
"235052","805-TS","2017/11/16 18:39:14","新北市中和區興南路三段52巷2-5號","121.49436","24.9757333333333","6500300","中和區"
"235048","896-TW","2017/11/16 18:39:19","新北市中和區南山路323號","121.50508","24.9913283333333","6500300","中和區"
"235053","900-TW","2017/11/16 18:39:28","新北市中和區民德路264號","121.467958333333","24.9966683333333","6500300","中和區"
"235064","911-UM","2017/11/16 18:39:28","新北市中和區連城路139巷66號","121.496805","24.9968283333333","6500300","中和區"
"235037","157-BY","2017/11/16 18:39:24","新北市中和區華新街232巷23號","121.505718333333","24.9821783333333","6500300","中和區"
"235037","AAC-213","2017/11/16 18:39:22","新北市中和區景平路111巷57號","121.515308333333","24.99036","6500300","中和區"
"235059","AAC-215","2017/11/16 18:39:29","新北市中和區錦和路350-1號","121.490515","24.9935166666667","6500300","中和區"
"220068","013-TV","2017/11/16 18:39:33","新北市板橋區民生路二段161巷5號","121.470278333333","25.0197816666667","6500100","板橋區"
"220065","072-UY","2017/11/16 18:39:23","新北市板橋區區運路60號","121.46601","25.010145","6500100","板橋區"
"220086","073-UY","2017/11/16 18:39:28","新北市板橋區南雅西路二段192巷4-2號","121.451998333333","25.014385","6500100","板橋區"
"220069","AAD-861","2017/11/16 18:39:24","新北市板橋區華東街1-10號","121.448438333333","24.995155","6500100","板橋區"
"226004","205-ST","2017/11/16 18:39:16","新北市平溪區平溪里三坑路32號","121.736675","25.0299466666667","6502400","平溪區"
"228003","097-TW","2017/11/16 18:39:31","新北市貢寮區和美里龍洞街40號","121.914165","25.1121233333333","6502600","貢寮區"
"228001","212-TW","2017/11/16 18:39:34","新北市貢寮區仁理村研海街12-1號","121.923751666667","25.05168","6502600","貢寮區"
"228002","585-TW","2017/11/16 18:39:27","新北市貢寮區福隆里東興街6-11號","121.950765","25.0210566666667","6502600","貢寮區"
"224010","AGQ-8101","2017/11/16 18:37:36","新北市瑞芳區烏勢巷108號","121.846158333333","25.10886","6501200","瑞芳區"
"224006","676-BX","2017/11/16 18:39:22","新北市瑞芳區明燈路三段84號","121.805746666667","25.1082766666667","6501200","瑞芳區"
"224002","639-TC","2017/11/16 18:39:23","新北市瑞芳區中山路307-2號","121.79403","25.10964","6501200","瑞芳區"
"224009","285-BY","2017/11/16 18:39:14","新北市瑞芳區五號路308號","121.856853333333","25.11146","6501200","瑞芳區"
"224008","275-VK","2017/11/16 18:39:33","新北市瑞芳區瑞芳街87號","121.806075","25.1095833333333","6501200","瑞芳區"
"224007","273-VK","2017/11/16 18:39:27","新北市瑞芳區大埔路117號","121.76359","25.1010333333333","6501200","瑞芳區"
"224005","271-BY","2017/11/16 18:39:19","新北市瑞芳區瑞濱路149號","121.818738333333","25.1186316666667","6501200","瑞芳區"
"227010","642-TC","2017/11/16 18:39:29","新北市雙溪區牡丹里下坑11號","121.85099","25.05616","6502500","雙溪區"
"227004","400-TW","2017/11/16 18:39:19","新北市雙溪區魚行里坤溪3-5號","121.876213333333","25.02077","6502500","雙溪區"
"253005","032-BX","2017/11/16 18:39:24","新北市石門區石門街47號","121.566476666667","25.2903833333333","6502200","石門區"
"253006","295-VK","2017/11/16 18:39:32","新北市石門區楓林37-6號","121.541395","25.289495","6502200","石門區"
"222001","KEA-2212","2017/11/16 18:39:30","新北市深坑區北深路一段84號","121.636233333333","25.0106566666667","6501800","深坑區"
"208002","742-BX","2017/11/16 18:39:30","新北市金山區忠孝一路20巷2號","121.63849","25.2194466666667","6502700","金山區"
"208003","665-BX","2017/11/16 18:39:23","新北市金山區中山路220號","121.63731","25.2219283333333","6502700","金山區"
"208001","761-BX","2017/11/16 18:39:31","新北市金山區文化一路3巷8號","121.635988333333","25.2243133333333","6502700","金山區"
"251004","009-UM","2017/11/16 18:39:27","新北市淡水區中正東路二段143巷6弄1號","121.461096666667","25.1473333333333","6501000","淡水區"
"251001","011-UM","2017/11/16 18:39:25","新北市淡水區自強路415巷2號","121.46549","25.1342066666667","6501000","淡水區"
"251008","181-VK","2017/11/16 18:39:31","新北市淡水區北新路一段22號","121.454848333333","25.1811016666667","6501000","淡水區"
"251014","182-VK","2017/11/16 18:39:18","新北市淡水區崙頂12-8號","121.495545","25.217215","6501000","淡水區"
"251010","413-VK","2017/11/16 18:39:11","新北市淡水區沙崙路126號","121.423478333333","25.1828533333333","6501000","淡水區"
"251012","441-VK","2017/11/16 18:39:13","新北市淡水區北新路213號","121.45159","25.1800466666667","6501000","淡水區"
"251016","442-VK","2017/11/16 18:39:30","新北市淡水區下圭柔山70-14號","121.445295","25.2065666666667","6501000","淡水區"
"251006","561-UM","2017/11/16 18:39:23","新北市淡水區中山北路二段200號","121.44424","25.1868266666667","6501000","淡水區"
"251011","650-BX","2017/11/16 18:39:18","新北市淡水區鄧公路30巷2弄42號","121.454316666667","25.1690666666667","6501000","淡水區"
"251002","672-BX","2017/11/16 18:39:21","新北市淡水區中正東路75號","121.447468333333","25.1674183333333","6501000","淡水區"
"251003","766-UM","2017/11/16 18:39:29","新北市淡水區中山北路一段212巷36號","121.446113333333","25.17911","6501000","淡水區"
"207003","550-UM","2017/11/16 18:39:29","新北市萬里區野柳里港西路48號","121.68161","25.2035733333333","6502800","萬里區"
"207004","225-TW","2017/11/16 18:39:26","新北市萬里區萬里里獅頭路7號","121.692001666667","25.1782583333333","6502800","萬里區"
"252002","178-VK","2017/11/16 18:39:27","新北市三芝區民生街62號","121.503441666667","25.2555133333333","6502100","三芝區"
"252003","249-BX","2017/11/16 18:39:31","新北市三芝區後厝里土地公坑54-16號","121.46602","25.2495883333333","6502100","三芝區"
"252001","292-VK","2017/11/16 18:39:19","新北市三芝區中興街二段76號","121.499915","25.25471","6502100","三芝區"
"208004","170-UY","2017/11/16 18:39:04","台北市南港區研究院路四段21巷4號","121.601543333333","25.0234366666667","6502700","金山區"
"237004","078-UY","2017/11/16 18:39:14","新北市三峽區金敏189號","121.392866666667","24.8736333333333","6500900","三峽區"
"237007","153-BY","2017/11/16 18:39:32","新北市三峽區柑樹路6巷10號","121.361215","24.9034216666667","6500900","三峽區"
"237013","252-BX","2017/11/16 18:39:24","新北市三峽區光明路69巷25號","121.3766","24.92922","6500900","三峽區"
"237012","275-BY","2017/11/16 18:39:13","新北市三峽區三樹路212-1號","121.379335","24.942215","6500900","三峽區"
"237008","302-VK","2017/11/16 18:39:14","新北市三峽區白雞115-17號","121.401628333333","24.90684","6500900","三峽區"
"237001","159-BY","2017/11/16 15:21:08","新北市三峽區中山路459巷163-3號","121.348848333333","24.93296","6500900","三峽區"
"237014","433-BY","2017/11/16 18:39:17","新北市三峽區和平街65號","121.370086666667","24.9366333333333","6500900","三峽區"
"237006","5529-G3","2017/11/16 18:39:24","新北市三峽區溪東路315巷37號","121.411966666667","24.9309166666667","6500900","三峽區"
"237011","572-TV","2017/11/16 18:09:19","新北市三峽區橫溪路1號","121.39607","24.9361433333333","6500900","三峽區"
"237016","649-BX","2017/11/16 18:39:27","新北市三峽區竹崙路68號","121.432163333333","24.9191816666667","6500900","三峽區"
"237010","706-TV","2017/11/16 18:39:13","新北市三峽區復興路357號","121.363833333333","24.9386433333333","6500900","三峽區"
"237005","AKY-6261","2017/11/16 18:39:30","新北市三峽區民生街104巷15號","121.373575","24.9360516666667","6500900","三峽區"
"236071","105-UM","2017/11/16 18:39:31","新北市土城區永豐路157巷29弄6-1號","121.468405","24.9814633333333","6501300","土城區"
"236042","107-UM","2017/11/16 18:39:25","新北市土城區學成路104號","121.45003","24.9892266666667","6501300","土城區"
"236078","166-UM","2017/11/16 18:39:28","新北市土城區中央路四段54巷5號","121.419631666667","24.9606533333333","6501300","土城區"
"236030","253-BX","2017/11/16 18:39:15","新北市土城區福仁街65號","121.439536666667","24.97465","6501300","土城區"
"236026","269-VK","2017/11/16 18:39:21","新北市土城區忠義路53號","121.44048","24.9688333333333","6501300","土城區"
"236014","270-VK","2017/11/16 18:39:32","新北市土城區清水路207巷25號","121.459723333333","24.9826416666667","6501300","土城區"
"236037","271-VK","2017/11/16 18:39:33","新北市土城區青山路3巷2號","121.46123","24.9767966666667","6501300","土城區"
"236021","401-BY","2017/11/16 18:39:17","新北市土城區明德路一段67號","121.465478333333","24.9842666666667","6501300","土城區"
"236058","912-UM","2017/11/16 18:39:29","新北市土城區中央路四段57號","121.41749","24.95844","6501300","土城區"
"236051","913-UM","2017/11/16 18:39:27","新北市土城區明德路一段67號","121.465373333333","24.9842366666667","6501300","土城區"
"236062","915-UM","2017/11/16 18:39:27","新北市土城區延壽路55巷7弄4號","121.469626666667","24.9916533333333","6501300","土城區"
"236053","AAC-216","2017/11/16 18:39:15","新北市土城區中華路一段49號","121.445755","24.9882466666667","6501300","土城區"
"242044","497-BY","2017/11/16 18:39:28","新北市泰山區民生路130-16號","121.43686","25.044215","6500500","新莊區"
"242048","441-UM","2017/11/16 18:38:03","新北市樹林區中山路三段214號","121.380078333333","24.9678716666667","6500500","新莊區"
"242061","362-BY","2017/11/16 18:39:22","新北市新莊區新樹路243號","121.435006666667","25.0222366666667","6500500","新莊區"
"242058","353-BY","2017/11/16 18:39:23","新北市新莊區中正路887號","121.416953333333","25.02472","6500500","新莊區"
"242001","233-RS","2017/11/16 09:11:13","新北市新莊區環河路48-7號","121.436891666667","25.0097866666667","6500500","新莊區"
"242056","349-TH","2017/11/16 18:39:28","新北市新莊區環河路636-7號","121.437468333333","25.01167","6500500","新莊區"
"238015","755-BX","2017/11/16 18:39:25","新北市樹林區備內街79號","121.409118333333","24.9895516666667","6500700","樹林區"
"238023","601-UM","2017/11/16 18:39:30","新北市樹林區三福街114號","121.406461666667","25.0163233333333","6500700","樹林區"
"238019","599-UM","2017/11/16 18:39:33","新北市樹林區中華路190號","121.4119","24.98045","6500700","樹林區"
"238018","571-TV","2017/11/16 18:39:26","新北市樹林區樹新路86號","121.429428333333","24.997445","6500700","樹林區"
"238024","5061-A6","2017/11/16 18:39:22","新北市樹林區太順街79巷17號","121.417081666667","24.9780683333333","6500700","樹林區"
"238022","KEA-2213","2017/11/16 18:39:31","新北市樹林區中山路三段125-1號","121.397143333333","24.9734616666667","6500700","樹林區"
"238025","303-VK","2017/11/16 18:39:25","新北市樹林區中山路三段210-2號","121.380708333333","24.9673666666667","6500700","樹林區"
"238020","268-VK","2017/11/16 18:39:28","新北市樹林區俊安街56號","121.419063333333","25.01314","6500700","樹林區"
"238026","172-UY","2017/11/16 18:39:21","新北市樹林區信和街3號","121.389653333333","24.9713083333333","6500700","樹林區"
"238016","169-UY","2017/11/16 18:39:18","新北市樹林區文化街23號","121.419283333333","24.987665","6500700","樹林區"
"239007","AAC-297","2017/11/16 18:39:27","新北市鶯歌區中正一路461-2號","121.363166666667","24.9567433333333","6500800","鶯歌區"
"239008","527-UM","2017/11/16 18:39:20","新北市鶯歌區國際一路14號","121.336171666667","24.9765283333333","6500800","鶯歌區"
"239005","526-UM","2017/11/16 18:39:30","新北市鶯歌區鳳吉三街31巷1號","121.327405","24.9739466666667","6500800","鶯歌區"
"239001","417-VK","2017/11/16 18:39:21","新北市鶯歌區中正二路184號","121.340923333333","24.947735","6500800","鶯歌區"
"239003","360-BY","2017/11/16 18:39:11","新北市鶯歌區永和街181號","121.33584","24.9702733333333","6500800","鶯歌區"
"239004","193-VK","2017/11/16 18:39:19","新北市鶯歌區尖山路271號","121.341165","24.9436733333333","6500800","鶯歌區"
"221008","489-VK","2017/11/16 18:35:08","新北市汐止區康寧街901號","121.651405","25.0749883333333","6501100","汐止區"
"221036","130-UY","2017/11/16 18:39:31","新北市汐止區大同路三段109號","121.66848","25.0776","6501100","汐止區"
"221015","131-UY","2017/11/16 18:39:27","新北市汐止區鄉長路二段10-2號","121.668741666667","25.080965","6501100","汐止區"
"221010","269-BY","2017/11/16 18:39:23","新北市汐止區汐萬路三段235號","121.643696666667","25.105175","6501100","汐止區"
"221012","276-VK","2017/11/16 13:19:54","新北市汐止區汐萬路一段256巷3號","121.65344","25.0746016666667","6501100","汐止區"
"221012","278-VK","2017/11/16 18:39:17","新北市汐止區長安路77巷22弄12號","121.66953","25.0790683333333","6501100","汐止區"
"221023","279-VK","2017/11/16 18:39:17","新北市汐止區民族二街86號","121.633311666667","25.0698666666667","6501100","汐止區"
"221032","280-BY","2017/11/16 18:39:27","新北市汐止區民權街二段131號","121.618045","25.04562","6501100","汐止區"
"221027","281-BY","2017/11/16 18:39:29","新北市汐止區和平街67號","121.661573333333","25.0707583333333","6501100","汐止區"
"221029","298-VK","2017/11/16 18:39:24","新北市汐止區樟樹一路131號","121.642125","25.0649166666667","6501100","汐止區"
"221021","299-VK","2017/11/16 18:39:26","新北市汐止區復興路74號","121.657186666667","25.062045","6501100","汐止區"
"221031","353-TW","2017/11/16 18:39:12","新北市汐止區大同路一段312號","121.63713","25.058685","6501100","汐止區"
"221035","622-UM","2017/11/16 18:39:12","新北市汐止區大同路二段276號","121.654753333333","25.06623","6501100","汐止區"
"221025","623-UM","2017/11/16 18:39:26","新北市汐止區仁愛路121巷1號","121.662866666667","25.0639233333333","6501100","汐止區"
"221038","646-BX","2017/11/16 18:39:17","新北市汐止區大同路二段430號","121.65916","25.06723","6501100","汐止區"
"221033","647-BX","2017/11/16 18:39:29","新北市汐止區南勢街3號","121.627068333333","25.037325","6501100","汐止區"
"221002","707-TV","2017/11/16 18:39:28","新北市汐止區中興路81號","121.632821666667","25.0641566666667","6501100","汐止區"
"221018","753-BX","2017/11/16 18:39:30","新北市汐止區茄苳路250巷25號","121.671916666667","25.0676633333333","6501100","汐止區"
"220079","145-BY","2017/11/16 18:39:32","新北市板橋區大觀路一段35巷1號","121.449645","25.0084566666667","6500100","板橋區"
"220089","146-RM","2017/11/16 08:59:37","新北市板橋區民生路二段36-1號","121.472453333333","25.01668","6500100","板橋區"
"220080","200-UY","2017/11/16 18:39:28","新北市板橋區大觀路二段435-10號","121.445668333333","24.9945433333333","6500100","板橋區"
"220082","610-BX","2017/11/16 18:39:21","新北市板橋區四川路二段橋頭1巷1號","121.44695","24.9940433333333","6500100","板橋區"
"220056","276-BY","2017/11/16 18:39:22","新北市板橋區四川路二段橋頭6號","121.44835","24.9940483333333","6500100","板橋區"
"220072","277-BY","2017/11/16 18:39:27","新北市板橋區四川路二段橋頭1巷1號","121.446831666667","24.994125","6500100","板橋區"
"220094","283-UM","2017/11/16 18:39:25","新北市板橋區民生路二段161巷3號","121.470038333333","25.01976","6500100","板橋區"
"220071","283-VK","2017/11/16 18:39:23","新北市板橋區華東街1-9號","121.448075","24.9949066666667","6500100","板橋區"
"220061","295-UM","2017/11/16 16:51:30","新北市板橋區民生路二段120號","121.470375","25.0197583333333","6500100","板橋區"
"220084","296-UM","2017/11/16 18:39:13","新北市板橋區板城路421號","121.448125","24.9962866666667","6500100","板橋區"
"220075","297-UM","2017/11/16 18:39:20","新北市板橋區華東街11號","121.450636666667","24.99775","6500100","板橋區"
"220010","305-R5","2017/11/16 18:39:25","新北市板橋區民生路二段120號","121.470413333333","25.0197116666667","6500100","板橋區"
"220064","486-VK","2017/11/16 18:39:21","新北市板橋區民生路二段36-1號","121.472048333333","25.0167416666667","6500100","板橋區"
"220035","560-BX","2017/11/16 18:39:23","新北市板橋區南雅西路二段145巷6號","121.451636666667","25.0117516666667","6500100","板橋區"
"220083","568-UM","2017/11/16 18:39:16","新北市板橋區華東街1-8號","121.447786666667","24.9947883333333","6500100","板橋區"
"220063","609-BX","2017/11/16 17:01:36","新北市板橋區民生路二段161巷1號","121.469956666667","25.0200733333333","6500100","板橋區"
"220057","686-BX","2017/11/16 18:39:15","新北市板橋區華東街1-9號","121.44819","24.994895","6500100","板橋區"
"220077","687-BX","2017/11/16 18:39:20","新北市板橋區四川路二段橋頭1號","121.446465","24.994145","6500100","板橋區"
"220054","741-BX","2017/11/16 18:39:20","新北市板橋區華東街1-9號","121.448065","24.9949016666667","6500100","板橋區"
"220055","827-TW","2017/11/16 18:39:23","新北市板橋區華東街1-9號","121.448166666667","24.9948816666667","6500100","板橋區"
"220067","829-TW","2017/11/16 18:39:32","新北市板橋區民生路二段161巷5號","121.470203333333","25.0197366666667","6500100","板橋區"
"220074","895-R6","2017/11/16 18:39:34","新北市板橋區南雅南路二段144巷19號","121.451033333333","24.9957316666667","6500100","板橋區"
"220073","985-R7","2017/11/16 18:39:20","新北市板橋區南雅南路二段144巷21號","121.45083","24.99558","6500100","板橋區"
"220070","AAC-253","2017/11/16 18:39:16","新北市板橋區華東街1-9號","121.448236666667","24.9948616666667","6500100","板橋區"
