"lineid","car","time","location","longitude","latitude","cityid","cityname"
"234046","148-BY","2017/11/16 19:29:21","新北市永和區成功路二段4號","121.526578333333","25.0011683333333","6500400","永和區"
"234013","149-BY","2017/11/16 19:29:22","新北市永和區永和路二段55號","121.514611666667","25.01086","6500400","永和區"
"234007","207-UY","2017/11/16 19:29:25","新北市永和區永和路二段35號","121.514531666667","25.01037","6500400","永和區"
"234081","298-R6","2017/11/16 19:29:20","新北市永和區福和路7巷15弄20號","121.526131666667","25.0074433333333","6500400","永和區"
"234038","336-UY","2017/11/16 19:29:25","新北市永和區成功路二段65號","121.527443333333","25.0000516666667","6500400","永和區"
"234064","337-UY","2017/11/16 19:29:20","新北市永和區得和路243巷28弄1號","121.520886666667","25.0013333333333","6500400","永和區"
"234086","338-UY","2017/11/16 19:29:16","新北市永和區林森路80號","121.523458333333","25.003745","6500400","永和區"
"234070","552-UM","2017/11/16 19:29:19","新北市永和區警光街5-1號","121.51974","25.0094833333333","6500400","永和區"
"234054","553-UM","2017/11/16 19:29:19","新北市永和區復興街28號","121.516076666667","25.01297","6500400","永和區"
"234017","745-BX","2017/11/16 19:29:20","新北市永和區環河西路一段87-1號","121.512518333333","25.01799","6500400","永和區"
"234030","746-BX","2017/11/16 19:29:20","新北市永和區民生路69號","121.522676666667","24.9972033333333","6500400","永和區"
"234061","AAD-866","2017/11/16 19:29:19","新北市永和區中正路566號","121.517103333333","25.0061316666667","6500400","永和區"
"234042","862-TW","2017/11/16 19:29:16","新北市永和區中和路603號","121.512388333333","25.004385","6500400","永和區"
"234050","863-TW","2017/11/16 19:29:23","新北市永和區仁愛路137號","121.511611666667","25.0129483333333","6500400","永和區"
"234026","9381-KE","2017/11/16 19:29:20","新北市中和區中和路390號","121.511165","25.00252","6500400","永和區"
"234011","9373-KE","2017/11/16 19:29:21","新北市永和區仁愛路167號","121.510851666667","25.012775","6500400","永和區"
"249002","305-UY","2017/11/16 19:29:20","新北市八里區龍形一街16號","121.449791666667","25.1305033333333","6502300","八里區"
"249003","593-UM","2017/11/16 19:29:22","新北市八里區中山路二段500巷30號","121.397118333333","25.1478","6502300","八里區"
"248014","025-BX","2017/11/16 19:29:23","新北市五股區民義路一段185-19號","121.431251666667","25.0874616666667","6501500","五股區"
"248016","026-BX","2017/11/16 19:29:16","新北市五股區成洲五路12號","121.452393333333","25.1015216666667","6501500","五股區"
"248008","095-VK","2017/11/16 19:29:28","新北市五股區中興路一段95巷15號","121.466556666667","25.0722866666667","6501500","五股區"
"248018","225-UY","2017/11/16 19:29:23","新北市五股區凌雲路三段100-1號","121.427021666667","25.1224333333333","6501500","五股區"
"248012","247-BX","2017/11/16 19:29:27","新北市五股區中興路四段48巷16號","121.438593333333","25.0834366666667","6501500","五股區"
"248010","272-BY","2017/11/16 19:29:13","新北市五股區水碓一路23號","121.430595","25.0712083333333","6501500","五股區"
"248004","677-BX","2017/11/16 19:29:17","新北市五股區五福路39號","121.433416666667","25.0895266666667","6501500","五股區"
"248002","678-BX","2017/11/16 19:29:14","新北市五股區凌雲路一段158巷14-1號","121.447891666667","25.10342","6501500","五股區"
"234023","9380-KE","2017/11/16 19:29:14","新北市永和區竹林路91巷21弄9號","121.520753333333","25.01254","6500400","永和區"
"234077","969-R7","2017/11/16 19:29:32","新北市永和區民權路58巷5號","121.51936","24.9983366666667","6500400","永和區"
"234074","AAC-211","2017/11/16 19:29:28","新北市永和區環河東路一段122號","121.520586666667","25.0156516666667","6500400","永和區"
"234067","AAC-212","2017/11/16 19:29:14","新北市永和區保平路174巷1號","121.510416666667","25.007125","6500400","永和區"
"234003","AAC-295","2017/11/16 19:29:26","新北市永和區永和路一段118號","121.514003333333","25.0077466666667","6500400","永和區"
"244019","403-UM","2017/11/16 19:29:28","新北市林口區麗園二街10-6號","121.378271666667","25.069365","6501700","林口區"
"244023","483-VK","2017/11/16 19:29:23","新北市林口區文化三路二段10號","121.37308","25.0785983333333","6501700","林口區"
"243012","AAD-798","2017/11/16 19:29:35","新北市泰山區仁愛路132號","121.434326666667","25.0558516666667","6501600","泰山區"
"243009","297-R6","2017/11/16 19:29:31","新北市五股區成泰路一段7巷16號","121.433156666667","25.0668016666667","6501600","泰山區"
"243015","380-SR","2017/11/16 19:29:22","新北市泰山區明志路二段134號","121.42745","25.0511916666667","6501600","泰山區"
"243014","421-VK","2017/11/16 19:29:32","新北市泰山區仁愛路58號","121.431881666667","25.0548166666667","6501600","泰山區"
"243010","KEA-2215","2017/11/16 19:29:26","新北市泰山區民生路17巷7號","121.429875","25.0521816666667","6501600","泰山區"
"243011","KEA-2216","2017/11/16 19:29:22","新北市泰山區貴子路67巷10號","121.430975","25.04073","6501600","泰山區"
"243013","646-TV","2017/11/16 19:29:32","新北市泰山區明志路三段145巷5弄10號","121.425536666667","25.040225","6501600","泰山區"
"243016","680-BX","2017/11/16 19:29:26","新北市泰山區明志路三段196巷21弄33號","121.422305","25.03787","6501600","泰山區"
"222003","436-BY","2017/11/16 19:29:25","新北市深坑區深南路88巷1號","121.621103333333","25.01041","6501800","深坑區"
"222002","659-BX","2017/11/16 19:29:16","新北市深坑區北深路一段177號","121.632523333333","25.0108733333333","6501800","深坑區"
"231041","002-UM","2017/11/16 19:29:26","新北市新店區中正路543-4號","121.53368","24.9874716666667","6500600","新店區"
"231059","046-UY","2017/11/16 19:29:18","新北市新店區安和路三段112號","121.517233333333","24.98532","6500600","新店區"
"231061","047-UY","2017/11/16 19:29:31","新北市新店區安民街14號","121.515393333333","24.9644716666667","6500600","新店區"
"231060","106-UY","2017/11/16 19:29:22","新北市新店區安忠路2號","121.514425","24.9634733333333","6500600","新店區"
"231047","108-UY","2017/11/16 19:29:25","新北市新店區中興路一段283號","121.545426666667","24.9684483333333","6500600","新店區"
"231052","187-VK","2017/11/16 19:29:27","新北市新店區屈尺路60號","121.547336666667","24.9226583333333","6500600","新店區"
"231050","KEA-2219","2017/11/16 19:28:51","新北市新店區秀水路7號","121.554803333333","24.9544983333333","6500600","新店區"
"231057","256-BX","2017/11/16 19:29:31","新北市新店區花園一路二段15號","121.550826666667","24.9333633333333","6500600","新店區"
"231046","278-BY","2017/11/16 19:29:34","新北市新店區光明街157號","121.53946","24.96246","6500600","新店區"
"231054","AAD-862","2017/11/16 19:29:26","新北市新店區文中路40號","121.539755","24.9565766666667","6500600","新店區"
"231058","3712-VJ","2017/11/16 19:29:26","新北市新店區北新路二段228巷2號","121.543228333333","24.9771166666667","6500600","新店區"
"231055","4716-K9","2017/11/16 19:29:25","新北市新店區安康路二段414巷2號","121.49581","24.9578233333333","6500600","新店區"
"231067","4772-VM","2017/11/16 19:29:25","新北市新店區安德街60巷19號","121.510405","24.9631666666667","6500600","新店區"
"231065","512-UM","2017/11/16 19:29:21","新北市新店區安祥路109巷1弄93號","121.478875","24.960285","6500600","新店區"
"231064","515-UM","2017/11/16 19:29:12","新北市新店區安康路二段85巷17號","121.5144","24.9615366666667","6500600","新店區"
"231042","616-UM","2017/11/16 19:29:26","新北市新店區中興路一段164號","121.542841666667","24.9641016666667","6500600","新店區"
"231040","619-UM","2017/11/16 19:29:00","新北市新店區中華路12-1號","121.540818333333","24.9674983333333","6500600","新店區"
"231063","645-TV","2017/11/16 19:29:16","新北市新店區達觀路16號","121.502923333333","24.9410816666667","6500600","新店區"
"231049","719-UM","2017/11/16 19:29:16","新北市新店區二十張路1巷5號","121.540586666667","24.9820283333333","6500600","新店區"
"231051","719-UY","2017/11/16 19:29:27","新北市新店區中央五街22-1號","121.529253333333","24.9745116666667","6500600","新店區"
"231062","720-UM","2017/11/16 19:29:32","新北市新店區安康路一段35號","121.53165","24.9607216666667","6500600","新店區"
"231044","897-TW","2017/11/16 19:29:31","新北市新店區中興路三段173號","121.544206666667","24.980605","6500600","新店區"
"231045","898-TW","2017/11/16 19:29:24","新北市新店區北宜路二段209號","121.553148333333","24.9534216666667","6500600","新店區"
"231043","899-TW","2017/11/16 19:29:15","新北市新店區北新路二段226號","121.542863333333","24.977255","6500600","新店區"
"231066","AKT-0513","2017/11/16 19:29:31","新北市新店區安康路三段165巷2弄14號","121.488976666667","24.9513316666667","6500600","新店區"
"241028","022-UY","2017/11/16 19:29:31","新北市三重區中寮街59號","121.493178333333","25.058035","6500200","三重區"
"241008","059-VK","2017/11/16 19:29:27","新北市三重區永福街135巷31號","121.477575","25.0771566666667","6500200","三重區"
"241009","060-VK","2017/11/16 19:29:33","新北市三重區溪尾街242巷64號","121.486223333333","25.081455","6500200","三重區"
"241031","061-VK","2017/11/16 19:29:30","新北市三重區集美街100號","121.48853","25.0541333333333","6500200","三重區"
"241017","063-VK","2017/11/16 19:29:19","新北市三重區中正北路25巷25弄2號","121.49322","25.0626116666667","6500200","三重區"
"241026","066-VK","2017/11/16 19:29:21","新北市三重區文化南路47巷4號","121.499758333333","25.0612383333333","6500200","三重區"
"241032","269-UM","2017/11/16 19:29:21","新北市三重區三陽路58號","121.484215","25.0587683333333","6500200","三重區"
"241013","270-UM","2017/11/16 19:29:16","新北市三重區仁愛街96號","121.495411666667","25.0740416666667","6500200","三重區"
"241025","271-UM","2017/11/16 19:29:14","新北市三重區頂崁街210巷36號","121.475743333333","25.0678783333333","6500200","三重區"
"241007","398-BY","2017/11/16 19:29:20","新北市三重區溪尾街124-2號","121.489291666667","25.0793883333333","6500200","三重區"
"241020","413-TH","2017/11/16 19:29:25","新北市三重區三和路四段42號","121.490348333333","25.0743466666667","6500200","三重區"
"241030","480-VK","2017/11/16 19:29:28","新北市三重區成功路41巷3號","121.490251666667","25.0514583333333","6500200","三重區"
"241006","AAD-863","2017/11/16 19:29:18","新北市三重區三和路四段95號","121.487963333333","25.0759533333333","6500200","三重區"
"241035","743-BX","2017/11/16 19:29:32","新北市三重區信義西街1巷11號","121.498038333333","25.0650916666667","6500200","三重區"
"241029","942-UM","2017/11/16 19:29:27","新北市三重區中正南路260-1號","121.493193333333","25.0530366666667","6500200","三重區"
"235066","003-UY","2017/11/16 19:29:13","新北市中和區中和路102號","121.502711666667","24.99977","6500300","中和區"
"235063","006-UY","2017/11/16 19:29:28","新北市中和區連城路221號","121.494208333333","24.9976283333333","6500300","中和區"
"235056","096-UM","2017/11/16 19:29:25","新北市中和區中山路三段33號","121.478941666667","25.0059083333333","6500300","中和區"
"235039","097-UM","2017/11/16 19:29:22","新北市中和區秀峰街91號","121.521096666667","24.990285","6500300","中和區"
"235065","098-UM","2017/11/16 19:29:25","新北市中和區中山路二段64巷16弄16號","121.503781666667","25.00619","6500300","中和區"
"235040","150-BY","2017/11/16 19:29:22","新北市中和區保健路46巷16號","121.509155","24.9964283333333","6500300","中和區"
"235058","151-BY","2017/11/16 19:29:26","新北市中和區和城路一段271巷1號","121.485416666667","24.9918516666667","6500300","中和區"
"235055","183-VK","2017/11/16 19:29:22","新北市中和區莒光路120巷56號","121.471666666667","25.00092","6500300","中和區"
"235038","185-VK","2017/11/16 19:29:19","新北市中和區景平路126巷2弄13號","121.519661666667","24.9923416666667","6500300","中和區"
"235049","186-VK","2017/11/16 19:29:17","新北市中和區景新街285巷4號","121.510035","24.9934733333333","6500300","中和區"
"235067","255-BX","2017/11/16 19:29:15","新北市中和區民樂路78號","121.484563333333","25.0012216666667","6500300","中和區"
"235044","293-VK","2017/11/16 19:29:22","新北市中和區景安路213號","121.50444","24.991645","6500300","中和區"
"235072","301-VK","2017/11/16 19:29:14","新北市中和區連城路263巷4弄4號","121.491573333333","24.99583","6500300","中和區"
"235043","352-BY","2017/11/16 19:29:17","新北市中和區景安路85號","121.506395","24.9968433333333","6500300","中和區"
"235068","377-QA","2017/11/16 19:29:20","新北市中和區圓通路158巷15號","121.497523333333","24.9960683333333","6500300","中和區"
"235061","378-QA","2017/11/16 19:29:28","新北市中和區員山路370-2號","121.481086666667","25.0041083333333","6500300","中和區"
"235071","269-TV","2017/11/16 19:29:17","新北市中和區連城路308號","121.483625","24.9962383333333","6500300","中和區"
"235050","4979-A6","2017/11/16 19:29:14","新北市中和區中正路161巷6號","121.498706666667","24.9935333333333","6500300","中和區"
"235069","4980-A6","2017/11/16 19:29:21","新北市中和區中山路二段454號","121.488755","25.0050916666667","6500300","中和區"
"235042","551-UM","2017/11/16 19:29:22","新北市中和區安樂路217巷48號","121.512996666667","24.99791","6500300","中和區"
"235070","558-UM","2017/11/16 19:29:01","新北市中和區中山路二段232號","121.498466666667","25.002755","6500300","中和區"
"235045","565-BX","2017/11/16 19:29:25","新北市中和區景新街423巷27號","121.513606666667","24.9895016666667","6500300","中和區"
"235054","640-BX","2017/11/16 19:29:15","新北市中和區國光街110號","121.469943333333","25.0006666666667","6500300","中和區"
"235060","647-TV","2017/11/16 19:29:18","新北市中和區員山路268巷5弄8號","121.481935","25.00236","6500300","中和區"
"235047","732-UM","2017/11/16 19:29:11","新北市中和區景平路259巷32號","121.507051666667","24.9928033333333","6500300","中和區"
"235046","733-UM","2017/11/16 19:29:23","新北市中和區忠孝街37巷47號","121.510793333333","24.984225","6500300","中和區"
"235062","800-TS","2017/11/16 19:29:15","新北市林口區汕頭32號","121.366328333333","25.134805","6500300","中和區"
"235057","801-TS","2017/11/16 19:29:13","新北市中和區員山路423巷7號","121.480536666667","25.0032316666667","6500300","中和區"
"235041","802-TS","2017/11/16 19:29:25","新北市中和區中和路400巷21號","121.511705","25.00227","6500300","中和區"
"235052","805-TS","2017/11/16 19:29:14","新北市中和區華新街143巷65弄2號","121.506626666667","24.9789533333333","6500300","中和區"
"235048","896-TW","2017/11/16 19:29:19","新北市中和區忠孝街113巷2號","121.512483333333","24.98745","6500300","中和區"
"235053","900-TW","2017/11/16 19:29:28","新北市中和區華順街32號","121.466835","24.9986116666667","6500300","中和區"
"235064","911-UM","2017/11/16 19:29:15","新北市中和區連城路8號","121.499048333333","25.00239","6500300","中和區"
"235037","157-BY","2017/11/16 19:29:24","新北市中和區景新街168-1號","121.50581","24.996925","6500300","中和區"
"235037","AAC-213","2017/11/16 19:29:22","新北市中和區秀朗路三段10巷14弄74號","121.523828333333","24.9965766666667","6500300","中和區"
"235059","AAC-215","2017/11/16 19:29:29","新北市中和區圓通路252巷29弄8號","121.492701666667","24.9917216666667","6500300","中和區"
"220068","013-TV","2017/11/16 19:29:33","新北市板橋區萬安街108號","121.483771666667","25.0244066666667","6500100","板橋區"
"220065","072-UY","2017/11/16 19:29:23","新北市板橋區國泰街75巷28弄64號","121.46734","25.0045083333333","6500100","板橋區"
"220086","073-UY","2017/11/16 19:29:28","新北市板橋區中正路216巷4號","121.456151666667","25.0183716666667","6500100","板橋區"
"220106","075-UY","2017/11/16 19:29:19","新北市板橋區長江路三段62號","121.47363","25.03382","6500100","板橋區"
"220069","AAD-861","2017/11/16 19:29:24","新北市板橋區貴興路57號","121.457336666667","25.0031516666667","6500100","板橋區"
"220090","120-SR","2017/11/16 19:29:27","新北市板橋區長江路一段106巷18弄7號","121.460003333333","25.028475","6500100","板橋區"
"247004","335-TH","2017/11/16 19:29:29","新北市蘆洲區長安街257號","121.458831666667","25.0835766666667","6501400","蘆洲區"
"226004","205-ST","2017/11/16 19:29:16","新北市平溪區南山里乾坑11號","121.782725","25.04862","6502400","平溪區"
"228003","097-TW","2017/11/16 19:29:11","新北市貢寮區和美里和美街19-2號","121.912811666667","25.0825233333333","6502600","貢寮區"
"228001","212-TW","2017/11/16 19:29:14","新北市貢寮區真理里延平街68號","121.925376666667","25.0574233333333","6502600","貢寮區"
"228002","585-TW","2017/11/16 19:29:28","新北市貢寮區龍門里龍門街78號","121.931091666667","25.0268333333333","6502600","貢寮區"
"224006","676-BX","2017/11/16 19:29:21","新北市瑞芳區三爪子坑路110號","121.807348333333","25.1051483333333","6501200","瑞芳區"
"224002","639-TC","2017/11/16 19:29:23","新北市瑞芳區三爪子坑路13巷5號","121.814011666667","25.1072433333333","6501200","瑞芳區"
"227010","642-TC","2017/11/16 19:29:29","新北市雙溪區新基里新基北街43號","121.868176666667","25.0396916666667","6502500","雙溪區"
"227004","400-TW","2017/11/16 19:29:19","新北市雙溪區雙溪里光復街14號","121.86509","25.0353783333333","6502500","雙溪區"
"253005","032-BX","2017/11/16 19:29:24","新北市石門區小坑9號","121.594496666667","25.2872516666667","6502200","石門區"
"253006","295-VK","2017/11/16 19:29:32","新北市石門區海園路37號","121.557288333333","25.2911916666667","6502200","石門區"
"222001","KEA-2212","2017/11/16 19:29:30","新北市深坑區北深路二段134號","121.615833333333","25.0028783333333","6501800","深坑區"
"208002","742-BX","2017/11/16 19:29:30","新北市金山區仁愛路87巷1號","121.634571666667","25.2215433333333","6502700","金山區"
"208003","665-BX","2017/11/16 19:29:27","新北市金山區忠孝一路80號","121.636845","25.22093","6502700","金山區"
"208001","761-BX","2017/11/16 19:29:26","新北市金山區金包里街49號","121.639083333333","25.221295","6502700","金山區"
"251009","008-UM","2017/11/16 19:29:29","新北市淡水區大忠街5巷8號","121.443345","25.1765083333333","6501000","淡水區"
"251005","010-UM","2017/11/16 19:29:21","新北市淡水區水源街一段71巷18號","121.444356666667","25.1729233333333","6501000","淡水區"
"251001","011-UM","2017/11/16 19:29:24","新北市淡水區民權路177號","121.459835","25.1355216666667","6501000","淡水區"
"251007","179-VK","2017/11/16 19:29:18","新北市淡水區坪頂路49號","121.457748333333","25.1625433333333","6501000","淡水區"
"251014","182-VK","2017/11/16 19:29:17","新北市淡水區小中寮19-7號","121.484721666667","25.229555","6501000","淡水區"
"251010","413-VK","2017/11/16 19:29:31","新北市淡水區中正路二段150-3號","121.423156666667","25.1877566666667","6501000","淡水區"
"251016","442-VK","2017/11/16 19:29:29","新北市淡水區下圭柔山119-51號","121.450725","25.2084266666667","6501000","淡水區"
"251006","561-UM","2017/11/16 19:29:30","新北市淡水區大義街36號","121.44225","25.1783866666667","6501000","淡水區"
"251011","650-BX","2017/11/16 19:29:15","新北市淡水區中正東路二段143巷2弄1號","121.460625","25.1473033333333","6501000","淡水區"
"251003","766-UM","2017/11/16 19:29:29","新北市淡水區中山北路二段6號","121.444526666667","25.1832066666667","6501000","淡水區"
"207003","550-UM","2017/11/16 19:29:29","新北市萬里區大鵬里萬里加投154號","121.643963333333","25.2150466666667","6502800","萬里區"
"207004","225-TW","2017/11/16 19:29:19","新北市萬里區萬里里瑪鋉路12-4號","121.68769","25.175555","6502800","萬里區"
"252002","178-VK","2017/11/16 19:29:27","新北市三芝區淡金路二段18-1號","121.502658333333","25.2595533333333","6502100","三芝區"
"252001","292-VK","2017/11/16 19:29:22","新北市三芝區長勤街39號","121.500748333333","25.255435","6502100","三芝區"
"208004","170-UY","2017/11/16 19:29:24","台北市南港區研究院路二段223巷8號","121.61767","25.03372","6502700","金山區"
"237004","078-UY","2017/11/16 19:29:13","新北市三峽區有木205號","121.439035","24.8517983333333","6500900","三峽區"
"237007","153-BY","2017/11/16 19:29:32","新北市三峽區二鬮路178號","121.359048333333","24.90683","6500900","三峽區"
"237009","210-TH","2017/11/16 19:29:13","新北市三峽區民權街73號","121.369521666667","24.9330133333333","6500900","三峽區"
"237013","252-BX","2017/11/16 19:29:23","新北市三峽區介壽路一段288號","121.379641666667","24.9293333333333","6500900","三峽區"
"237012","275-BY","2017/11/16 19:29:13","新北市三峽區三樹路98巷175號","121.384516666667","24.9398933333333","6500900","三峽區"
"237008","302-VK","2017/11/16 19:29:14","新北市三峽區大同路154號","121.373116666667","24.9267316666667","6500900","三峽區"
"237001","159-BY","2017/11/16 15:21:08","新北市三峽區中山路459巷163-3號","121.348848333333","24.93296","6500900","三峽區"
"237014","433-BY","2017/11/16 19:29:17","新北市三峽區中山路299巷19號","121.361251666667","24.9366183333333","6500900","三峽區"
"237006","5529-G3","2017/11/16 19:29:23","新北市三峽區中正路一段336巷15弄2號","121.369955","24.9249266666667","6500900","三峽區"
"237011","572-TV","2017/11/16 19:16:10","新北市三峽區中正路一段104號","121.374255","24.9296133333333","6500900","三峽區"
"237016","649-BX","2017/11/16 19:29:27","新北市三峽區建安25-3號","121.445393333333","24.927355","6500900","三峽區"
"237010","706-TV","2017/11/16 19:14:13","新北市三峽區民生街72號","121.374548333333","24.9359","6500900","三峽區"
"237005","AKY-6261","2017/11/16 19:29:29","新北市三峽區復興路367巷1弄14號","121.364015","24.9376266666667","6500900","三峽區"
"236071","105-UM","2017/11/16 19:29:11","新北市土城區學府路一段155巷8號","121.453498333333","24.9855116666667","6501300","土城區"
"236042","107-UM","2017/11/16 19:29:25","新北市土城區學府路一段276號","121.450156666667","24.9830566666667","6501300","土城區"
"236078","166-UM","2017/11/16 19:29:21","新北市土城區中州路3巷11弄13號","121.414001666667","24.956815","6501300","土城區"
"236026","269-VK","2017/11/16 19:29:21","新北市土城區中央路二段61巷26號","121.443276666667","24.9787766666667","6501300","土城區"
"236021","401-BY","2017/11/16 19:29:17","新北市土城區峰廷街10號","121.468726666667","24.9876866666667","6501300","土城區"
"236058","912-UM","2017/11/16 19:29:29","新北市土城區中央路二段252號","121.441875","24.97466","6501300","土城區"
"236051","913-UM","2017/11/16 19:29:11","新北市土城區清水路214號","121.460713333333","24.9820183333333","6501300","土城區"
"242031","AAC-296","2017/11/16 19:29:32","新北市新莊區新泰路225巷24號","121.445185","25.0390683333333","6500500","新莊區"
"242009","173-VK","2017/11/16 19:29:24","新北市新莊區三和路12-21號","121.44202","25.0386383333333","6500500","新莊區"
"242001","233-RS","2017/11/16 09:11:13","新北市新莊區環河路48-7號","121.436891666667","25.0097866666667","6500500","新莊區"
"242056","349-TH","2017/11/16 19:29:28","新北市新莊區瓊林南路77-41號","121.43774","25.0127083333333","6500500","新莊區"
"238015","755-BX","2017/11/16 19:29:27","新北市樹林區復興路231-1號","121.419851666667","24.9906216666667","6500700","樹林區"
"238023","601-UM","2017/11/16 19:29:30","新北市樹林區中正路865號","121.408805","25.0181516666667","6500700","樹林區"
"238019","599-UM","2017/11/16 19:29:33","新北市樹林區大同街3號","121.418703333333","24.9828133333333","6500700","樹林區"
"238018","571-TV","2017/11/16 19:29:26","新北市樹林區中華路19號","121.424196666667","24.9837633333333","6500700","樹林區"
"238024","5061-A6","2017/11/16 19:29:22","新北市樹林區中山路三段155巷21號","121.396075","24.9726183333333","6500700","樹林區"
"238021","KEA-2217","2017/11/16 19:29:27","新北市樹林區柑園街二段303巷18-1號","121.37226","24.9495116666667","6500700","樹林區"
"238022","KEA-2213","2017/11/16 19:29:31","新北市樹林區國凱街37號","121.42021","24.97889","6500700","樹林區"
"238025","303-VK","2017/11/16 19:29:25","新北市樹林區中山路一段37號","121.42413","24.992645","6500700","樹林區"
"238017","283-BY","2017/11/16 19:29:26","新北市樹林區光興街18號","121.41237","25.002915","6500700","樹林區"
"238014","282-BY","2017/11/16 19:29:14","新北市樹林區保安二街40巷28號","121.425841666667","24.9950883333333","6500700","樹林區"
"238020","268-VK","2017/11/16 19:29:18","新北市樹林區俊英街133巷25號","121.42312","25.01072","6500700","樹林區"
"238026","172-UY","2017/11/16 19:29:21","新北市樹林區佳園路三段95號","121.387605","24.9522983333333","6500700","樹林區"
"238016","169-UY","2017/11/16 19:29:18","新北市樹林區復興路446巷2弄2號","121.413428333333","24.9842816666667","6500700","樹林區"
"239007","AAC-297","2017/11/16 19:29:27","新北市鶯歌區大湖路85巷1號","121.342006666667","24.9625833333333","6500800","鶯歌區"
"239006","891-R6","2017/11/16 19:29:27","新北市鶯歌區建國路512巷33號","121.339623333333","24.9512","6500800","鶯歌區"
"239005","526-UM","2017/11/16 19:29:30","新北市鶯歌區東湖路19-1號","121.358068333333","24.973795","6500800","鶯歌區"
"239001","417-VK","2017/11/16 19:29:21","新北市鶯歌區尖山埔路146號","121.343378333333","24.9495566666667","6500800","鶯歌區"
"239004","193-VK","2017/11/16 19:29:19","新北市鶯歌區二甲路33-28號","121.340256666667","24.9375216666667","6500800","鶯歌區"
"221008","489-VK","2017/11/16 19:29:34","新北市汐止區康寧街145號","121.622093333333","25.0667266666667","6501100","汐止區"
"221036","130-UY","2017/11/16 19:29:31","新北市汐止區汐萬路一段256巷3號","121.652568333333","25.0744916666667","6501100","汐止區"
"221010","269-BY","2017/11/16 19:29:22","新北市汐止區康寧街901號","121.650755","25.07532","6501100","汐止區"
"221012","276-VK","2017/11/16 13:19:54","新北市汐止區汐萬路一段256巷3號","121.65344","25.0746016666667","6501100","汐止區"
"221015","277-VK","2017/11/16 19:29:22","新北市汐止區康寧街901號","121.65162","25.07493","6501100","汐止區"
"221012","278-VK","2017/11/16 19:29:17","新北市汐止區大同路三段271號","121.674088333333","25.0756733333333","6501100","汐止區"
"221023","279-VK","2017/11/16 19:29:17","新北市汐止區康寧街815巷11號","121.640648333333","25.0748366666667","6501100","汐止區"
"221027","281-BY","2017/11/16 19:29:28","新北市汐止區大同路二段357號","121.657105","25.0672216666667","6501100","汐止區"
"221029","298-VK","2017/11/16 19:29:23","新北市汐止區康寧街901號","121.651626666667","25.074965","6501100","汐止區"
"221021","299-VK","2017/11/16 19:29:26","新北市汐止區康寧街901號","121.65155","25.07497","6501100","汐止區"
"221031","353-TW","2017/11/16 19:29:32","新北市汐止區汐萬路一段301號","121.649546666667","25.0758333333333","6501100","汐止區"
"221025","623-UM","2017/11/16 19:29:26","新北市汐止區新台五路二段36號","121.660871666667","25.06534","6501100","汐止區"
"221038","646-BX","2017/11/16 19:29:17","新北市汐止區汐萬路一段312號","121.650336666667","25.074915","6501100","汐止區"
"221033","647-BX","2017/11/16 19:29:15","新北市汐止區南勢街1巷1號","121.627096666667","25.0374733333333","6501100","汐止區"
"221002","707-TV","2017/11/16 19:29:28","新北市汐止區大同路一段337巷17弄1號","121.637413333333","25.0599333333333","6501100","汐止區"
"221018","753-BX","2017/11/16 19:29:30","新北市汐止區康寧街901號","121.651418333333","25.0749866666667","6501100","汐止區"
"220079","145-BY","2017/11/16 19:29:12","新北市板橋區民權路202巷15弄19號","121.45983","25.01616","6500100","板橋區"
"220089","146-RM","2017/11/16 08:59:37","新北市板橋區民生路二段36-1號","121.472453333333","25.01668","6500100","板橋區"
"220080","200-UY","2017/11/16 19:29:28","新北市板橋區大觀路二段3巷87號","121.450113333333","25.0032766666667","6500100","板橋區"
"220082","610-BX","2017/11/16 19:29:26","新北市板橋區金門街298號","121.429071666667","24.9855466666667","6500100","板橋區"
"220102","255-TC","2017/11/16 19:29:21","新北市板橋區松柏街19號","121.474586666667","25.0299","6500100","板橋區"
"220091","267-BY","2017/11/16 19:29:23","新北市板橋區文聖街149巷23弄1號","121.479258333333","25.028455","6500100","板橋區"
"220056","276-BY","2017/11/16 19:29:22","新北市板橋區信義路1巷26弄31號","121.458708333333","24.9967","6500100","板橋區"
"220072","277-BY","2017/11/16 19:29:27","新北市板橋區篤行路二段150號","121.429563333333","24.9881433333333","6500100","板橋區"
"220101","280-UM","2017/11/16 19:29:28","新北市板橋區縣民大道三段127巷24號","121.476875","25.023695","6500100","板橋區"
"220094","283-UM","2017/11/16 19:29:25","新北市板橋區吳鳳路50號","121.467913333333","25.03044","6500100","板橋區"
"220071","283-VK","2017/11/16 19:29:23","新北市板橋區忠孝路48巷64號","121.461168333333","25.0000416666667","6500100","板橋區"
"220053","285-VK","2017/11/16 19:29:16","新北市板橋區富山街53巷1弄54號","121.477983333333","25.0204883333333","6500100","板橋區"
"220081","287-VK","2017/11/16 19:29:31","新北市板橋區大觀路一段75巷25號","121.448335","25.0044016666667","6500100","板橋區"
"220061","295-UM","2017/11/16 19:29:26","新北市板橋區中山路二段181號","121.476046666667","25.0171133333333","6500100","板橋區"
"220084","296-UM","2017/11/16 19:29:13","新北市板橋區滿平街138號","121.428876666667","24.98817","6500100","板橋區"
"220075","297-UM","2017/11/16 19:29:20","新北市板橋區中正路253巷58號","121.453475","25.0174766666667","6500100","板橋區"
"220092","299-UM","2017/11/16 19:29:31","新北市板橋區光武街4巷25號","121.468178333333","25.02598","6500100","板橋區"
"220062","305-R5","2017/11/16 19:29:24","新北市板橋區三民路二段153巷4弄2號","121.479603333333","25.0146083333333","6500100","板橋區"
"220098","317-R6","2017/11/16 19:29:17","新北市板橋區四維路266巷5弄17號","121.46351","25.0289533333333","6500100","板橋區"
"220064","486-VK","2017/11/16 19:29:21","新北市板橋區中山路一段24號","121.460356666667","25.0082283333333","6500100","板橋區"
"220088","491-VK","2017/11/16 19:29:29","新北市板橋區雙十路二段151號","121.474488333333","25.0281983333333","6500100","板橋區"
"220035","560-BX","2017/11/16 19:29:24","新北市板橋區中正路401號","121.454093333333","25.0221916666667","6500100","板橋區"
"220103","561-BX","2017/11/16 19:29:27","新北市板橋區文化路一段280-1號","121.46712","25.0210433333333","6500100","板橋區"
"220083","568-UM","2017/11/16 19:29:16","新北市板橋區大觀路二段174巷163弄10號","121.441161666667","25.0033433333333","6500100","板橋區"
"220063","609-BX","2017/11/16 19:29:17","新北市板橋區三民路一段31巷87弄5號","121.481396666667","25.0232833333333","6500100","板橋區"
"220057","686-BX","2017/11/16 19:29:15","新北市中和區壽德街20-1號","121.466243333333","24.994825","6500100","板橋區"
"220077","687-BX","2017/11/16 19:29:20","新北市板橋區僑中二街114巷1號","121.445673333333","25.00663","6500100","板橋區"
"220093","689-BX","2017/11/16 19:29:27","新北市板橋區新海路138號","121.460805","25.0233566666667","6500100","板橋區"
"220054","741-BX","2017/11/16 19:29:20","新北市板橋區光明街100號","121.462188333333","25.0028433333333","6500100","板橋區"
"220055","827-TW","2017/11/16 19:29:23","新北市板橋區實踐路132號","121.4645","25.0026433333333","6500100","板橋區"
"220067","829-TW","2017/11/16 19:29:32","新北市板橋區長安街138巷5弄2號","121.473055","25.0086133333333","6500100","板橋區"
"220096","831-TW","2017/11/16 19:29:21","新北市板橋區雙十路二段6-8號","121.476658333333","25.0263083333333","6500100","板橋區"
"220089","833-TW","2017/11/16 19:29:20","新北市板橋區文化路一段31號","121.460248333333","25.0129083333333","6500100","板橋區"
"220074","895-R6","2017/11/16 19:29:14","新北市板橋區中正路1巷14號","121.455315","25.011575","6500100","板橋區"
"220073","985-R7","2017/11/16 19:29:20","新北市板橋區瑞安街26號","121.455183333333","25.0230016666667","6500100","板橋區"
"220097","AAC-210","2017/11/16 19:29:18","新北市板橋區漢生西路163號","121.463163333333","25.0231266666667","6500100","板橋區"
"220070","AAC-253","2017/11/16 19:29:16","新北市板橋區四川路一段154號","121.460021666667","25.00339","6500100","板橋區"
