"lineid","car","time","location","longitude","latitude","cityid","cityname"
"231050","KEA-2219","2017/11/16 21:29:11","新北市新店區中正路232號","121.539893333333","24.9729083333333","6500600","新店區"
"231063","645-TV","2017/11/16 21:29:16","新北市新店區吉祥街7巷1號","121.497321666667","24.9475566666667","6500600","新店區"
"241017","063-VK","2017/11/16 21:29:19","新北市三重區中正北路25巷2號","121.493226666667","25.0626616666667","6500200","三重區"
"241024","065-VK","2017/11/16 21:29:12","新北市三重區中正北路139號","121.48283","25.0672883333333","6500200","三重區"
"241003","091-VK","2017/11/16 21:29:18","新北市三重區進安街190號","121.494063333333","25.0865183333333","6500200","三重區"
"241005","262-UM","2017/11/16 21:29:12","新北市三重區仁華街80巷1號","121.484941666667","25.083015","6500200","三重區"
"241016","266-UM","2017/11/16 21:29:27","新北市三重區正義北路113號","121.496946666667","25.0657316666667","6500200","三重區"
"241007","398-BY","2017/11/16 21:29:20","新北市三重區正義北路113號","121.496946666667","25.0656316666667","6500200","三重區"
"241001","547-UM","2017/11/16 21:29:19","新北市蘆洲區中正路520巷26號","121.467371666667","25.0990383333333","6500200","三重區"
"235060","647-TV","2017/11/16 21:29:18","新北市中和區員山路36巷16-3號","121.484925","24.9916483333333","6500300","中和區"
"235026","800-TS","2017/11/16 20:27:16","新北市中和區員山路36巷16-3號","121.484921666667","24.991725","6500300","中和區"
"235028","911-UM","2017/11/16 20:47:58","新北市中和區員山路36巷16-3號","121.48484","24.9917983333333","6500300","中和區"
"247020","500-BY","2017/11/16 21:29:21","新北市蘆洲區環堤大道212號","121.457468333333","25.0920483333333","6501400","蘆洲區"
"247010","339-TH","2017/11/16 21:29:12","新北市蘆洲區三民路21號","121.475631666667","25.082425","6501400","蘆洲區"
"247008","053-VK","2017/11/16 21:29:15","新北市五股區四維路185巷52號","121.46313","25.0777216666667","6501400","蘆洲區"
"247014","007-UY","2017/11/16 21:29:24","新北市蘆洲區環堤大道92號","121.455681666667","25.08523","6501400","蘆洲區"
"247024","002-UY","2017/11/16 21:29:29","新北市五股區芳洲八路98號","121.447811666667","25.0869066666667","6501400","蘆洲區"
"251009","008-UM","2017/11/16 21:29:29","新北市淡水區民族路33巷16-3號","121.463451666667","25.136","6501000","淡水區"
"251004","009-UM","2017/11/16 21:29:22","新北市淡水區民族路2號","121.460345","25.1368633333333","6501000","淡水區"
"251005","010-UM","2017/11/16 21:29:21","新北市淡水區水源街一段34巷9號","121.443215","25.1718266666667","6501000","淡水區"
"251001","011-UM","2017/11/16 21:29:24","新北市淡水區濱海路一段221號","121.437933333333","25.1898583333333","6501000","淡水區"
"251008","181-VK","2017/11/16 21:29:11","新北市淡水區水源街二段126號","121.453183333333","25.1746733333333","6501000","淡水區"
"251014","182-VK","2017/11/16 21:29:17","新北市淡水區溪口28號","121.45545","25.2361433333333","6501000","淡水區"
"251010","413-VK","2017/11/16 21:29:31","新北市淡水區沙崙路25巷21號","121.420608333333","25.1823633333333","6501000","淡水區"
"251012","441-VK","2017/11/16 21:29:32","新北市淡水區石頭埔8號","121.452658333333","25.234525","6501000","淡水區"
"251016","442-VK","2017/11/16 21:29:29","新北市淡水區淡金路二段507-6號","121.446013333333","25.1891783333333","6501000","淡水區"
"251006","561-UM","2017/11/16 21:29:26","新北市淡水區公明街55號","121.443476666667","25.168695","6501000","淡水區"
"251002","672-BX","2017/11/16 21:29:21","新北市淡水區英專路151號","121.44841","25.1748666666667","6501000","淡水區"
"251003","766-UM","2017/11/16 21:29:29","新北市淡水區崁頂15-5號","121.438988333333","25.1858933333333","6501000","淡水區"
"237001","159-BY","2017/11/16 15:21:08","新北市三峽區中山路459巷163-3號","121.348848333333","24.93296","6500900","三峽區"
"242001","233-RS","2017/11/16 09:11:13","新北市新莊區環河路48-7號","121.436891666667","25.0097866666667","6500500","新莊區"
"221012","276-VK","2017/11/16 13:19:54","新北市汐止區汐萬路一段256巷3號","121.65344","25.0746016666667","6501100","汐止區"
"221012","277-VK","2017/11/16 21:17:34","新北市汐止區汐萬路一段256巷3號","121.652523333333","25.0746566666667","6501100","汐止區"
"220089","146-RM","2017/11/16 08:59:37","新北市板橋區民生路二段36-1號","121.472453333333","25.01668","6500100","板橋區"
"220067","829-TW","2017/11/16 21:26:42","新北市板橋區民生路二段161巷5號","121.470211666667","25.0197516666667","6500100","板橋區"
"220070","AAC-253","2017/11/16 21:27:56","新北市八里區荖阡坑路34號","121.402195","25.12882","6500100","板橋區"
