"lineid","car","time","location","longitude","latitude","cityid","cityname"
"244012","069-UM","2017/07/06 09:09:22","新北市林口區文化一路二段186號","121.382563333333","25.0799183333333","6501700","林口區"
"244006","080-UY","2017/07/06 09:09:27","新北市林口區林口路110號","121.388673333333","25.0813083333333","6501700","林口區"
"244018","403-UM","2017/07/06 09:09:18","新北市林口區文化一路一段84-1號","121.372546666667","25.0697466666667","6501700","林口區"
"244022","483-VK","2017/07/06 09:09:18","新北市林口區仁愛路二段18號","121.38557","25.0761883333333","6501700","林口區"
"244016","485-VK","2017/07/06 09:09:13","新北市林口區文化二路一段20巷25弄61號","121.366186666667","25.06758","6501700","林口區"
"244008","656-BX","2017/07/06 09:09:16","新北市林口區佳林路56巷6弄24號","121.384976666667","25.0824716666667","6501700","林口區"
"244010","701-TV","2017/07/06 09:09:26","新北市林口區仁愛路一段272巷17號","121.392186666667","25.0766583333333","6501700","林口區"
"244024","837-TS","2017/07/06 09:09:16","新北市林口區仁愛路二段201-1號","121.3774","25.0747483333333","6501700","林口區"
"222006","289-BY","2017/07/06 09:09:18","新北市深坑區土庫尖路45號","121.634788333333","25.0173433333333","6501800","深坑區"
"231008","188-VK","2017/07/06 09:09:16","新北市新店區廣興路66巷3號","121.53884","24.9137083333333","6500600","新店區"
"231069","189-VK","2017/07/06 08:59:36","新北市新店區新潭路三段275-1號","121.501818333333","24.9024916666667","6500600","新店區"
"235026","911-UM","2017/07/06 09:09:16","新北市中和區連城路162巷3弄2號","121.493248333333","24.99885","6500300","中和區"
"247002","402-BY","2017/07/06 09:09:12","新北市蘆洲區民族路371號","121.471308333333","25.0913433333333","6501400","蘆洲區"
"226005","5620-A6","2017/07/06 09:09:12","新北市平溪區靜安路二段557號","121.749658333333","25.0251833333333","6502400","平溪區"
"226002","7418-A5","2017/07/06 09:09:15","新北市平溪區東勢里芊蓁坑30號","121.727526666667","24.9789683333333","6502400","平溪區"
"223002","198-BX","2017/07/06 09:07:00","新北市石碇區半路店3號","121.648578333333","24.9647466666667","6501900","石碇區"
"223003","205-TH","2017/07/06 09:09:20","新北市石碇區北宜路五段78號","121.645753333333","24.95205","6501900","石碇區"
"223008","406-TH","2017/07/06 09:09:17","新北市石碇區碇南路二段松柏崎巷45號","121.678088333333","25.025385","6501900","石碇區"
"223001","592-UM","2017/07/06 09:09:09","新北市石碇區北宜路五段77號","121.645666666667","24.9520816666667","6501900","石碇區"
"223004","660-BX","2017/07/06 09:09:25","新北市石碇區碇坪路二段22號","121.687025","24.9741033333333","6501900","石碇區"
"223007","661-BX","2017/07/06 09:09:15","新北市石碇區碇南路二段5-1號","121.67182","25.0268983333333","6501900","石碇區"
"223005","677-TV","2017/07/06 09:09:28","新北市石碇區大崙19號","121.686501666667","24.9798816666667","6501900","石碇區"
"253003","6232-TK","2017/07/06 09:09:13","新北市石門區尖子鹿11號","121.575661666667","25.2801133333333","6502200","石門區"
"253001","6251-TK","2017/07/06 09:09:20","新北市石門區八甲43號","121.531825","25.2678833333333","6502200","石門區"
"253002","637-UY","2017/07/06 09:09:13","新北市石門區豬槽潭13-1號","121.553283333333","25.2607483333333","6502200","石門區"
"253004","8270-PC","2017/07/06 09:05:20","新北市石門區草埔尾31-1號","121.603258333333","25.2650733333333","6502200","石門區"
"252004","249-BX","2017/07/06 09:09:23","新北市三芝區興華里車埕69-8號","121.493373333333","25.1939933333333","6502100","三芝區"
"252007","AAC-283","2017/07/06 00:11:21","新北市三芝區埔坪里埔頭坑41號","121.504521666667","25.2645116666667","6502100","三芝區"
"237001","159-UY","2017/07/06 09:09:22","新北市三峽區學府路100號","121.373906666667","24.948525","6500900","三峽區"
"236009","165-UM","2017/07/06 09:09:14","新北市土城區金城路二段46巷5-12號","121.453463333333","24.9739316666667","6501300","土城區"
"236003","339-SR","2017/07/06 09:09:16","新北市土城區慶安街65號","121.440843333333","24.9728166666667","6501300","土城區"
"236005","498-BY","2017/07/06 09:09:19","新北市土城區中央路三段99-6號","121.436436666667","24.9669366666667","6501300","土城區"
"242020","AAC-296","2017/07/06 09:09:31","新北市新莊區建中街32巷11號","121.448785","25.0378783333333","6500500","新莊區"
"242028","986-R7","2017/07/06 09:09:21","新北市新莊區中原路193-3號","121.451475","25.0542766666667","6500500","新莊區"
"242024","615-BX","2017/07/06 09:09:21","新北市新莊區五工一路80巷8號","121.46142","25.06704","6500500","新莊區"
"242022","613-BX","2017/07/06 09:09:18","新北市新莊區化成路850號","121.464776666667","25.0605166666667","6500500","新莊區"
"242026","612-BX","2017/07/06 09:09:22","新北市新莊區幸福路556號","121.454721666667","25.0494016666667","6500500","新莊區"
"242035","566-BX","2017/07/06 09:09:24","新北市新莊區建安街21號","121.428943333333","25.0261083333333","6500500","新莊區"
"242040","497-BY","2017/07/06 09:09:27","新北市新莊區天祥街54巷2弄1號","121.41664","25.0291966666667","6500500","新莊區"
"242003","442-UM","2017/07/06 09:09:20","新北市新莊區化成路316號","121.465668333333","25.04838","6500500","新莊區"
"242045","441-UM","2017/07/06 09:09:29","新北市新莊區裕民街117號","121.418225","25.02271","6500500","新莊區"
"242049","440-UM","2017/07/06 09:09:21","新北市新莊區民安西路171號","121.426126666667","25.016015","6500500","新莊區"
"242030","415-TV","2017/07/06 09:09:29","新北市新莊區中正路352號","121.443968333333","25.0343783333333","6500500","新莊區"
"242001","413-TV","2017/07/06 09:09:20","新北市新莊區化成路5-7號","121.464463333333","25.04204","6500500","新莊區"
"242038","400-BY","2017/07/06 09:09:22","新北市新莊區成功街52號","121.424638333333","25.0202733333333","6500500","新莊區"
"242059","362-BY","2017/07/06 09:09:15","新北市新莊區瓊泰路30號","121.444233333333","25.0286766666667","6500500","新莊區"
"242057","353-BY","2017/07/06 09:09:11","新北市新莊區八德街115號","121.424118333333","25.02077","6500500","新莊區"
"242010","132-UY","2017/07/06 09:09:23","新北市新莊區中和街204巷7弄1號","121.448251666667","25.0505183333333","6500500","新莊區"
"242033","133-UY","2017/07/06 09:09:30","新北市新莊區建中街127號","121.445431666667","25.0364966666667","6500500","新莊區"
"242018","135-UY","2017/07/06 09:09:28","新北市新莊區復興路二段190號","121.459155","25.0443966666667","6500500","新莊區"
"242043","172-VK","2017/07/06 09:09:26","新北市新莊區中正路746巷25號","121.410675","25.02416","6500500","新莊區"
"242006","173-VK","2017/07/06 09:09:11","新北市新莊區思源路337號","121.459861666667","25.0498383333333","6500500","新莊區"
"242012","175-VK","2017/07/06 09:09:15","新北市新莊區中平路288-3號","121.44532","25.0510216666667","6500500","新莊區"
"242055","176-VK","2017/07/06 09:09:25","新北市新莊區豐年街23號","121.446338333333","25.0324766666667","6500500","新莊區"
"242003","233-RS","2017/07/06 08:29:03","新北市新莊區環河路48-7號","121.436943333333","25.0097833333333","6500500","新莊區"
"242047","347-TH","2017/07/06 09:09:29","新北市新莊區四維路186巷9號","121.42153","25.0211516666667","6500500","新莊區"
"242016","348-TH","2017/07/06 09:09:19","新北市新莊區中港三街80號","121.449473333333","25.0462433333333","6500500","新莊區"
"242052","349-TH","2017/07/06 09:09:23","新北市新莊區西盛街433號","121.427141666667","25.0119583333333","6500500","新莊區"
"242014","350-TH","2017/07/06 09:09:12","新北市新莊區中平路36巷20號","121.445613333333","25.043555","6500500","新莊區"
"242008","351-TH","2017/07/06 09:08:37","新北市新莊區福壽街84巷24號","121.459163333333","25.0498333333333","6500500","新莊區"
"220043","283-UM","2017/07/06 09:09:10","新北市鶯歌區文化路8號","121.35706","24.9554533333333","6500100","板橋區"
