"lineid","car","time","location","longitude","latitude","cityid","cityname"
"244012","069-UM","2017/07/06 09:19:27","新北市林口區中正路494號","121.38243","25.0773383333333","6501700","林口區"
"244006","080-UY","2017/07/06 09:19:21","新北市林口區後湖13號","121.387908333333","25.0980383333333","6501700","林口區"
"244018","403-UM","2017/07/06 09:19:21","新北市林口區忠孝路580巷16號","121.375216666667","25.0669466666667","6501700","林口區"
"244022","483-VK","2017/07/06 09:19:18","新北市林口區四維路156-2號","121.381065","25.0756166666667","6501700","林口區"
"244016","485-VK","2017/07/06 09:19:13","新北市林口區公園路129號","121.369296666667","25.0703033333333","6501700","林口區"
"244008","656-BX","2017/07/06 09:19:23","新北市林口區民生路131巷2-2號","121.378025","25.089215","6501700","林口區"
"244010","701-TV","2017/07/06 09:19:26","新北市林口區粉寮路一段35號","121.396486666667","25.0770566666667","6501700","林口區"
"244024","837-TS","2017/07/06 09:16:56","新北市林口區粉寮路一段55號","121.396946666667","25.0778516666667","6501700","林口區"
"222006","289-BY","2017/07/06 09:19:18","新北市深坑區北深路一段177號","121.632455","25.0108216666667","6501800","深坑區"
"231008","188-VK","2017/07/06 09:19:25","新北市新店區廣興路96號","121.537733333333","24.9129116666667","6500600","新店區"
"231069","189-VK","2017/07/06 08:59:36","新北市新店區新潭路三段275-1號","121.501818333333","24.9024916666667","6500600","新店區"
"247002","402-BY","2017/07/06 09:19:12","新北市蘆洲區民族路344號","121.476813333333","25.0905183333333","6501400","蘆洲區"
"223002","198-BX","2017/07/06 09:07:00","新北市石碇區半路店3號","121.648578333333","24.9647466666667","6501900","石碇區"
"223003","205-TH","2017/07/06 09:19:20","新北市石碇區北宜路五段十股寮巷4號","121.64094","24.95208","6501900","石碇區"
"223008","406-TH","2017/07/06 09:19:17","新北市石碇區光明路13號","121.679628333333","25.0337483333333","6501900","石碇區"
"223001","592-UM","2017/07/06 09:19:09","新北市石碇區北宜路五段73號","121.63951","24.95201","6501900","石碇區"
"223004","660-BX","2017/07/06 09:19:25","新北市石碇區碇坪路二段22號","121.687013333333","24.9741416666667","6501900","石碇區"
"223007","661-BX","2017/07/06 09:19:15","新北市石碇區碇南路二段鹿窟巷2號","121.673963333333","25.03061","6501900","石碇區"
"223005","677-TV","2017/07/06 09:19:28","新北市石碇區碇坪路二段35號","121.685015","24.9766933333333","6501900","石碇區"
"253003","6232-TK","2017/07/06 09:19:13","新北市石門區尖子鹿54號","121.58269","25.2734983333333","6502200","石門區"
"253001","6251-TK","2017/07/06 09:19:20","新北市石門區八甲27-1號","121.528291666667","25.2779566666667","6502200","石門區"
"253002","637-UY","2017/07/06 09:19:13","新北市石門區大溪墘3號","121.551696666667","25.2816316666667","6502200","石門區"
"253004","8270-PC","2017/07/06 09:19:00","新北市石門區小坑41號","121.596383333333","25.2635616666667","6502200","石門區"
"252004","249-BX","2017/07/06 09:19:23","新北市三芝區興華里田心子7-2號","121.499161666667","25.2039333333333","6502100","三芝區"
"252007","AAC-283","2017/07/06 00:11:21","新北市三芝區埔坪里埔頭坑41號","121.504521666667","25.2645116666667","6502100","三芝區"
"236009","165-UM","2017/07/06 09:19:14","新北市土城區金城路二段48號","121.451573333333","24.9789883333333","6501300","土城區"
"236003","339-SR","2017/07/06 09:19:12","新北市土城區中正路65號","121.444528333333","24.9756666666667","6501300","土城區"
"236005","498-BY","2017/07/06 09:19:19","新北市土城區中央路三段126巷23號","121.434263333333","24.9678383333333","6501300","土城區"
"242020","AAC-296","2017/07/06 09:19:31","新北市新莊區復興路一段12號","121.445768333333","25.0414916666667","6500500","新莊區"
"242028","986-R7","2017/07/06 09:19:21","新北市新莊區昌隆街3巷1弄2號","121.45412","25.0514833333333","6500500","新莊區"
"242024","615-BX","2017/07/06 09:19:24","新北市新莊區化成路585號","121.463533333333","25.0663766666667","6500500","新莊區"
"242022","613-BX","2017/07/06 09:19:11","新北市新莊區化成路461號","121.464536666667","25.0618283333333","6500500","新莊區"
"242026","612-BX","2017/07/06 09:19:22","新北市新莊區思源路70號","121.459973333333","25.0445833333333","6500500","新莊區"
"242035","566-BX","2017/07/06 09:19:24","新北市新莊區建安街28號","121.428265","25.0252883333333","6500500","新莊區"
"242040","497-BY","2017/07/06 09:19:26","新北市新莊區天祥街15巷12號","121.416403333333","25.0277066666667","6500500","新莊區"
"242003","442-UM","2017/07/06 09:19:20","新北市新莊區頭興街3巷1號","121.46339","25.053595","6500500","新莊區"
"242045","441-UM","2017/07/06 09:19:22","新北市新莊區裕民街82號","121.418471666667","25.02375","6500500","新莊區"
"242049","440-UM","2017/07/06 09:19:21","新北市新莊區民安東路49號","121.429456666667","25.0208816666667","6500500","新莊區"
"242030","415-TV","2017/07/06 09:19:09","新北市新莊區公園一路39號","121.443285","25.03558","6500500","新莊區"
"242001","413-TV","2017/07/06 09:19:20","新北市新莊區明中街43巷29號","121.457073333333","25.038515","6500500","新莊區"
"242038","400-BY","2017/07/06 09:19:22","新北市新莊區民安路292號","121.428053333333","25.02174","6500500","新莊區"
"242059","362-BY","2017/07/06 09:19:24","新北市新莊區瓊林路59-88號","121.439531666667","25.0210583333333","6500500","新莊區"
"242057","353-BY","2017/07/06 09:19:31","新北市新莊區龍安路331號","121.422388333333","25.0192433333333","6500500","新莊區"
"242010","132-UY","2017/07/06 09:19:23","新北市新莊區中信街33號","121.45048","25.0508","6500500","新莊區"
"242033","133-UY","2017/07/06 09:19:13","新北市新莊區新泰路183號","121.44749","25.0375983333333","6500500","新莊區"
"242018","135-UY","2017/07/06 09:19:10","新北市新莊區銘德街48號","121.457196666667","25.0437116666667","6500500","新莊區"
"242043","172-VK","2017/07/06 09:19:13","新北市新莊區中正路895-49號","121.412081666667","25.0216533333333","6500500","新莊區"
"242006","173-VK","2017/07/06 09:19:11","新北市新莊區思源路287巷2弄1號","121.459275","25.048285","6500500","新莊區"
"242012","175-VK","2017/07/06 09:19:15","新北市新莊區中和街175巷10號","121.447246666667","25.0506983333333","6500500","新莊區"
"242055","176-VK","2017/07/06 09:19:25","新北市新莊區豐年街28巷18號","121.44551","25.03242","6500500","新莊區"
"242003","233-RS","2017/07/06 08:29:03","新北市新莊區環河路48-7號","121.436943333333","25.0097833333333","6500500","新莊區"
"242047","347-TH","2017/07/06 09:19:09","新北市新莊區成功街196號","121.422073333333","25.0173533333333","6500500","新莊區"
"242052","349-TH","2017/07/06 09:19:23","新北市新莊區民安西路229巷26弄14號","121.427158333333","25.0138116666667","6500500","新莊區"
"242014","350-TH","2017/07/06 09:19:30","新北市新莊區中和街2號","121.448461666667","25.04291","6500500","新莊區"
"220043","283-UM","2017/07/06 09:19:10","新北市鶯歌區鶯桃路38-1號","121.3418","24.9527533333333","6500100","板橋區"
