"lineid","car","time","location","longitude","latitude","cityid","cityname"
"248015","026-BX","2017/07/06 10:55:33","新北市五股區中興路二段83巷26-3號","121.460083333333","25.075645","6501500","五股區"
"222006","289-BY","2017/07/06 11:09:18","新北市深坑區平埔街22巷17弄1號","121.614815","25.000915","6501800","深坑區"
"231008","188-VK","2017/07/06 11:09:16","新北市新店區新烏路二段300號","121.548478333333","24.9129866666667","6500600","新店區"
"231069","189-VK","2017/07/06 11:09:16","新北市新店區新潭路一段160巷17號","121.529625","24.9319483333333","6500600","新店區"
"247002","402-BY","2017/07/06 10:33:34","新北市五股區中興路三段3-6號","121.449756666667","25.0787166666667","6501400","蘆洲區"
"236005","498-BY","2017/07/06 11:09:19","新北市土城區中央路三段108號","121.435481666667","24.9663633333333","6501300","土城區"
"242003","233-RS","2017/07/06 08:29:03","新北市新莊區環河路48-7號","121.436943333333","25.0097833333333","6500500","新莊區"
