"lineid","car","time","location","longitude","latitude","cityid","cityname"
"248015","026-BX","2017/07/06 10:55:33","新北市五股區中興路二段83巷26-3號","121.460083333333","25.075645","6501500","五股區"
"231008","188-VK","2017/07/06 11:25:16","新北市新店區成功路126號","121.53365","24.894585","6500600","新店區"
"231069","189-VK","2017/07/06 11:29:16","新北市新店區新潭路一段37號","121.523531666667","24.9417666666667","6500600","新店區"
"247002","402-BY","2017/07/06 10:33:34","新北市五股區中興路三段3-6號","121.449756666667","25.0787166666667","6501400","蘆洲區"
"242003","233-RS","2017/07/06 08:29:03","新北市新莊區環河路48-7號","121.436943333333","25.0097833333333","6500500","新莊區"
