"lineid","car","time","location","longitude","latitude","cityid","cityname"
"234044","148-BY","2017/07/06 12:39:05","新北市永和區林森路74號","121.523608333333","25.0038316666667","6500400","永和區"
"234012","149-BY","2017/07/06 12:39:20","新北市永和區保福路二段109巷16弄1號","121.509698333333","25.0132266666667","6500400","永和區"
"234078","298-R6","2017/07/06 12:39:20","新北市永和區林森路85號","121.523811666667","25.003815","6500400","永和區"
"234036","336-UY","2017/07/06 12:39:23","新北市永和區福和路1號","121.526591666667","25.0099733333333","6500400","永和區"
"234084","338-UY","2017/07/06 12:39:19","新北市中和區安樂路75號","121.512678333333","24.9941","6500400","永和區"
"234068","552-UM","2017/07/06 12:39:16","新北市永和區福和路1號","121.525553333333","25.0093616666667","6500400","永和區"
"234015","745-BX","2017/07/06 12:39:25","新北市永和區福和路1號","121.526025","25.009625","6500400","永和區"
"234028","746-BX","2017/07/06 12:39:10","新北市永和區環河東路二段102號","121.524186666667","25.01027","6500400","永和區"
"234060","AAD-866","2017/07/06 12:39:28","新北市永和區福和路8巷1號","121.524851666667","25.008785","6500400","永和區"
"234040","862-TW","2017/07/06 12:39:20","新北市永和區永貞路306號","121.511911666667","25.00487","6500400","永和區"
"234048","863-TW","2017/07/06 12:39:20","新北市永和區環河西路一段73號","121.513226666667","25.0182016666667","6500400","永和區"
"234025","9371-KE","2017/07/06 12:39:06","新北市永和區福和路1號","121.52558","25.0093366666667","6500400","永和區"
"234010","9373-KE","2017/07/06 12:39:17","新北市永和區環河東路二段54號","121.523386666667","25.011715","6500400","永和區"
"248015","026-BX","2017/07/06 10:55:33","新北市五股區中興路二段83巷26-3號","121.460083333333","25.075645","6501500","五股區"
"248005","077-UY","2017/07/06 10:14:10","新北市五股區中興路二段83巷26-6號","121.460041666667","25.0749766666667","6501500","五股區"
"234022","9380-KE","2017/07/06 12:39:26","新北市永和區竹林路119巷22弄32號","121.522658333333","25.0111816666667","6500400","永和區"
"234076","969-R7","2017/07/06 12:39:18","新北市中和區安樂路101-3號","121.513458333333","24.9951283333333","6500400","永和區"
"234072","AAC-211","2017/07/06 12:39:09","新北市永和區福和路1號","121.526381666667","25.009825","6500400","永和區"
"234066","AAC-212","2017/07/06 12:39:16","新北市永和區自由街70-8號","121.513443333333","25.0054266666667","6500400","永和區"
"243007","380-SR","2017/07/06 12:08:23","新北市泰山區黎明路25號","121.422335","25.0615316666667","6501600","泰山區"
"231010","278-BY","2017/07/06 12:39:15","新北市新店區安華路28-1號","121.519298333333","24.9611266666667","6500600","新店區"
"231023","513-UM","2017/07/06 12:39:25","新北市新店區安華路28-1號","121.519655","24.9611816666667","6500600","新店區"
"231035","515-UM","2017/07/06 12:39:16","新北市新店區安華路28-1號","121.519635","24.9611866666667","6500600","新店區"
"231006","617-UM","2017/07/06 12:39:10","新北市新店區安華路28-1號","121.51934","24.9608283333333","6500600","新店區"
"231001","619-UM","2017/07/06 12:39:19","新北市新店區安華路28-1號","121.519615","24.9610833333333","6500600","新店區"
"231013","719-UM","2017/07/06 12:39:09","新北市新店區安華路28-1號","121.519421666667","24.9613683333333","6500600","新店區"
"235031","255-BX","2017/07/06 12:39:22","新北市中和區新生街210號","121.483798333333","24.9988683333333","6500300","中和區"
"235025","378-QA","2017/07/06 12:21:06","新北市中和區員山路36巷16-2號","121.485295","24.9916133333333","6500300","中和區"
"247002","402-BY","2017/07/06 10:33:34","新北市五股區中興路三段3-6號","121.449756666667","25.0787166666667","6501400","蘆洲區"
"228005","097-TW","2017/07/06 12:39:26","新北市貢寮區福連里蓬萊街15號","121.991255","24.9997083333333","6502600","貢寮區"
"228004","212-TW","2017/07/06 12:38:55","新北市貢寮區吉林里枋腳街7-1號","121.889006666667","25.0084616666667","6502600","貢寮區"
"207002","749-BX","2017/07/06 12:39:24","新北市萬里區雙興里太和路7-2號","121.658511666667","25.174095","6502800","萬里區"
"242003","233-RS","2017/07/06 08:29:03","新北市新莊區環河路48-7號","121.436943333333","25.0097833333333","6500500","新莊區"
"221010","276-VK","2017/07/06 12:39:29","新北市汐止區中正路191號","121.65878","25.0690283333333","6501100","汐止區"
"221032","280-BY","2017/07/06 12:39:20","新北市汐止區汐萬路一段81號","121.65468","25.069895","6501100","汐止區"
