"lineid","car","time","location","longitude","latitude","cityid","cityname"
"234044","148-BY","2017/07/06 13:09:25","新北市永和區永元路18巷1號","121.522458333333","25.0003833333333","6500400","永和區"
"234012","149-BY","2017/07/06 13:09:27","新北市永和區保福路二段30號","121.511051666667","25.0117666666667","6500400","永和區"
"234005","207-UY","2017/07/06 13:09:18","新北市永和區永貞路418-2號","121.50885","25.0082566666667","6500400","永和區"
"234078","298-R6","2017/07/06 13:09:20","新北市永和區永亨路59號","121.521035","25.0061083333333","6500400","永和區"
"234036","336-UY","2017/07/06 13:09:23","新北市永和區民樂街59巷24號","121.528308333333","24.998245","6500400","永和區"
"234062","337-UY","2017/07/06 13:09:11","新北市永和區秀朗路二段33號","121.521263333333","25.00243","6500400","永和區"
"234084","338-UY","2017/07/06 13:09:15","新北市永和區永貞路132號","121.518366666667","25.0044816666667","6500400","永和區"
"234068","552-UM","2017/07/06 13:09:16","新北市永和區豫溪街57巷10弄6號","121.517521666667","25.010665","6500400","永和區"
"234052","553-UM","2017/07/06 13:09:22","新北市永和區中興街133巷8號","121.51866","25.0127133333333","6500400","永和區"
"234015","745-BX","2017/07/06 13:09:06","新北市永和區忠孝街27號","121.513948333333","25.0155966666667","6500400","永和區"
"234028","746-BX","2017/07/06 13:09:24","新北市永和區厚德街87號","121.524038333333","24.9987916666667","6500400","永和區"
"234060","AAD-866","2017/07/06 13:09:13","新北市永和區安樂路304巷14號","121.514823333333","25.0051866666667","6500400","永和區"
"234040","862-TW","2017/07/06 13:09:26","新北市永和區保平路109號","121.511103333333","25.0065383333333","6500400","永和區"
"234048","863-TW","2017/07/06 13:09:20","新北市永和區仁愛路104巷7弄58號","121.510961666667","25.0141816666667","6500400","永和區"
"234025","9371-KE","2017/07/06 13:09:06","新北市永和區秀朗路一段10巷19號","121.513463333333","25.0061383333333","6500400","永和區"
"234010","9373-KE","2017/07/06 13:09:17","新北市永和區文化路124號","121.513056666667","25.0153533333333","6500400","永和區"
"248015","026-BX","2017/07/06 13:09:18","新北市五股區新五路三段38號","121.44431","25.087885","6501500","五股區"
"248005","077-UY","2017/07/06 13:09:08","新北市五股區中興路二段82號","121.460866666667","25.0772233333333","6501500","五股區"
"248007","095-VK","2017/07/06 13:09:24","新北市五股區更洲路32巷8弄13號","121.459698333333","25.0797633333333","6501500","五股區"
"248017","225-UY","2017/07/06 13:09:22","新北市五股區成泰路三段101-1號","121.444205","25.0902433333333","6501500","五股區"
"248011","247-BX","2017/07/06 13:09:16","新北市五股區工商路8號","121.440638333333","25.0824916666667","6501500","五股區"
"248013","261-SL","2017/07/06 13:09:12","新北市五股區成泰路一段189巷29號","121.433591666667","25.0763566666667","6501500","五股區"
"248009","272-BY","2017/07/06 13:09:12","新北市五股區成泰路一段219-5號","121.435256666667","25.0775483333333","6501500","五股區"
"248003","677-BX","2017/07/06 13:09:14","新北市五股區中興路四段42號","121.438245","25.08291","6501500","五股區"
"248001","678-BX","2017/07/06 13:09:12","新北市五股區中興路三段160號","121.445725","25.0808716666667","6501500","五股區"
"234022","9380-KE","2017/07/06 13:09:26","新北市永和區中興街10巷30號","121.51565","25.01116","6500400","永和區"
"234076","969-R7","2017/07/06 13:09:18","新北市永和區智光街115號","121.515568333333","24.9961216666667","6500400","永和區"
"234072","AAC-211","2017/07/06 13:09:09","新北市永和區竹林路198號","121.520451666667","25.0096616666667","6500400","永和區"
"234066","AAC-212","2017/07/06 13:09:16","新北市永和區永和路一段69號","121.513173333333","25.007075","6500400","永和區"
"234001","AAC-295","2017/07/06 13:06:41","新北市永和區永平路179號","121.510396666667","25.0091266666667","6500400","永和區"
"244003","248-BX","2017/07/06 13:09:15","新北市林口區湖南里70-9號","121.376041666667","25.08982","6501700","林口區"
"243005","AAD-798","2017/07/06 13:09:09","新北市泰山區犁頭窠6號","121.421748333333","25.0588483333333","6501600","泰山區"
"243007","380-SR","2017/07/06 12:08:23","新北市泰山區黎明路25號","121.422335","25.0615316666667","6501600","泰山區"
"231002","002-UM","2017/07/06 13:09:21","新北市新店區安華路28-1號","121.519735","24.9608766666667","6500600","新店區"
"231025","0291-UT","2017/07/06 13:09:16","新北市新店區安華路28-1號","121.519546666667","24.9607133333333","6500600","新店區"
"231028","046-UY","2017/07/06 13:09:24","新北市新店區安華路28-1號","121.519528333333","24.9607633333333","6500600","新店區"
"231029","106-UY","2017/07/06 13:09:19","新北市新店區安華路28-1號","121.51959","24.9607333333333","6500600","新店區"
"231018","107-UY","2017/07/06 13:09:06","新北市新店區安華路28-1號","121.51946","24.9610583333333","6500600","新店區"
"231011","108-UY","2017/07/06 13:09:27","新北市新店區安華路28-1號","121.519615","24.9613716666667","6500600","新店區"
"231021","187-VK","2017/07/06 13:09:09","新北市新店區安華路28-1號","121.519376666667","24.9612516666667","6500600","新店區"
"231026","256-BX","2017/07/06 13:09:20","新北市新店區安華路28-1號","121.519645","24.961085","6500600","新店區"
"231010","278-BY","2017/07/06 13:09:15","新北市新店區安康路一段359-27號","121.51873","24.9613033333333","6500600","新店區"
"231017","AAD-862","2017/07/06 13:09:11","新北市新店區安華路28-1號","121.519751666667","24.9613483333333","6500600","新店區"
"231027","3712-VJ","2017/07/06 13:09:26","新北市新店區安華路28-1號","121.519095","24.960605","6500600","新店區"
"231024","3713-VJ","2017/07/06 13:09:06","新北市新店區安華路28-1號","121.519091666667","24.9606133333333","6500600","新店區"
"231038","4715-K9","2017/07/06 13:09:09","新北市新店區安華路1-1號","121.519416666667","24.9603883333333","6500600","新店區"
"231036","512-UM","2017/07/06 13:09:26","新北市新店區安華路30巷3號","121.518955","24.9588216666667","6500600","新店區"
"231023","513-UM","2017/07/06 13:09:05","新北市新店區安華路28-1號","121.519786666667","24.96106","6500600","新店區"
"231035","515-UM","2017/07/06 13:09:16","新北市新店區安華路28-1號","121.519696666667","24.9612166666667","6500600","新店區"
"231003","616-UM","2017/07/06 13:09:27","新北市新店區安華路1-1號","121.519473333333","24.9604083333333","6500600","新店區"
"231006","617-UM","2017/07/06 13:09:10","新北市新店區安華路28-1號","121.519391666667","24.960865","6500600","新店區"
"231030","618-UM","2017/07/06 03:13:52","新北市新店區安華路1-1號","121.519421666667","24.9602716666667","6500600","新店區"
"231001","619-UM","2017/07/06 13:09:19","新北市新店區安華路28-1號","121.519608333333","24.9611383333333","6500600","新店區"
"231034","645-TV","2017/07/06 13:09:07","新北市新店區安華路1-1號","121.51925","24.9605666666667","6500600","新店區"
"231013","719-UM","2017/07/06 13:09:09","新北市新店區安華路28-1號","121.519426666667","24.96131","6500600","新店區"
"231031","720-UM","2017/07/06 13:09:09","新北市新店區安華路28-1號","121.519111666667","24.9612033333333","6500600","新店區"
"231005","897-TW","2017/07/06 13:09:20","新北市新店區安華路28-1號","121.51973","24.9607566666667","6500600","新店區"
"231004","899-TW","2017/07/06 13:09:11","新北市新店區安康路一段359-27號","121.518753333333","24.9609983333333","6500600","新店區"
"231037","AKT-0513","2017/07/06 13:09:12","新北市新店區安華路1-1號","121.519438333333","24.9604883333333","6500600","新店區"
"235030","003-UY","2017/07/06 13:09:09","新北市中和區廣福路89號","121.502008333333","25.0009283333333","6500300","中和區"
"235028","005-UY","2017/07/06 13:09:15","新北市中和區中正路395號","121.489805","24.994035","6500300","中和區"
"235029","098-UM","2017/07/06 13:09:06","新北市中和區中山路二段311-3號","121.494668333333","25.0020016666667","6500300","中和區"
"235004","150-BY","2017/07/06 13:09:25","新北市中和區和城路一段271巷1號","121.485411666667","24.9917","6500300","中和區"
"235022","151-BY","2017/07/06 13:09:15","新北市中和區圓通路367巷33弄4號","121.493905","24.985485","6500300","中和區"
"235019","183-VK","2017/07/06 13:09:16","新北市中和區員山路36巷16-2號","121.485225","24.991435","6500300","中和區"
"235002","185-VK","2017/07/06 13:09:28","新北市中和區大智街55巷30弄54號","121.521885","24.9933466666667","6500300","中和區"
"235031","255-BX","2017/07/06 13:09:22","新北市中和區新生街13巷5號","121.483511666667","25.0043083333333","6500300","中和區"
"235036","301-VK","2017/07/06 13:09:24","新北市中和區員山路36巷12號","121.483975","24.9909916666667","6500300","中和區"
"235015","376-QA","2017/07/06 13:09:13","新北市中和區中正路273-2號","121.495686666667","24.99355","6500300","中和區"
"235032","377-QA","2017/07/06 02:22:18","新北市中和區員山路36巷16-3號","121.485078333333","24.99127","6500300","中和區"
"235025","378-QA","2017/07/06 13:09:15","新北市中和區中正路637巷60弄61號","121.485463333333","24.9932416666667","6500300","中和區"
"235014","4979-A6","2017/07/06 13:09:23","新北市中和區錦和路350-1號","121.490446666667","24.993555","6500300","中和區"
"235033","4980-A6","2017/07/06 13:09:24","新北市中和區和城路一段271巷1號","121.485666666667","24.9917866666667","6500300","中和區"
"235006","551-UM","2017/07/06 13:09:25","新北市中和區景平路159巷23弄3號","121.512815","24.9915266666667","6500300","中和區"
"235034","558-UM","2017/07/06 03:45:03","新北市中和區員山路36巷16-2號","121.485385","24.9914733333333","6500300","中和區"
"235018","640-BX","2017/07/06 13:09:17","新北市中和區員山路82巷10弄8號","121.481455","24.9935966666667","6500300","中和區"
"235035","783-BX","2017/07/06 13:09:18","新北市中和區橋和路12號","121.488951666667","25.0051016666667","6500300","中和區"
"235026","800-TS","2017/07/06 13:09:17","新北市中和區建一路92-1號","121.488086666667","25.000595","6500300","中和區"
"235005","802-TS","2017/07/06 13:09:15","新北市中和區中正路571巷2弄1號","121.48652","24.9935433333333","6500300","中和區"
"235016","805-TS","2017/07/06 13:09:15","新北市中和區中正路275號","121.495515","24.99367","6500300","中和區"
"235017","900-TW","2017/07/06 13:09:09","新北市中和區員山路36巷16-2號","121.485226666667","24.9914516666667","6500300","中和區"
"235027","911-UM","2017/07/06 13:09:19","新北市中和區員山路36巷16-3號","121.48508","24.9913466666667","6500300","中和區"
"235001","AAC-213","2017/07/06 13:09:08","新北市中和區中正路571巷2弄7號","121.486263333333","24.9935533333333","6500300","中和區"
"235023","AAC-215","2017/07/06 13:09:13","新北市中和區員山路36巷16-3號","121.485075","24.9913316666667","6500300","中和區"
"220013","072-UY","2017/07/06 13:09:11","新北市板橋區民生路二段30號","121.472603333333","25.0170083333333","6500100","板橋區"
"247002","402-BY","2017/07/06 13:09:11","新北市蘆洲區環堤大道66號","121.455656666667","25.08435","6501400","蘆洲區"
"228005","097-TW","2017/07/06 13:09:26","新北市貢寮區仁理村研海街42號","121.926268333333","25.0411566666667","6502600","貢寮區"
"228004","212-TW","2017/07/06 13:09:15","新北市貢寮區吉林里內寮街75號","121.8911","24.9719416666667","6502600","貢寮區"
"208004","AAC-292","2017/07/06 13:09:18","新北市金山區中山路192號","121.637796666667","25.22153","6502700","金山區"
"207002","749-BX","2017/07/06 13:06:24","新北市萬里區溪底里香員林路7號","121.632681666667","25.1647966666667","6502800","萬里區"
"207001","463-BY","2017/07/06 13:09:18","新北市萬里區萬里里瑪鋉路24號","121.688943333333","25.17712","6502800","萬里區"
"252005","AAC-283","2017/07/06 00:11:21","新北市三芝區埔坪里埔頭坑41號","121.504521666667","25.2645116666667","6502100","三芝區"
"236005","498-BY","2017/07/06 13:09:20","新北市土城區亞洲路60號","121.435348333333","24.9734883333333","6501300","土城區"
"242003","233-RS","2017/07/06 08:29:03","新北市新莊區環河路48-7號","121.436943333333","25.0097833333333","6500500","新莊區"
"238021","311-TH","2017/07/06 13:06:44","新北市樹林區八德街455-1號","121.404348333333","24.970005","6500700","樹林區"
"221010","276-VK","2017/07/06 13:09:09","新北市汐止區汐萬路一段256巷3號","121.653358333333","25.0746583333333","6501100","汐止區"
"221032","280-BY","2017/07/06 13:09:20","新北市汐止區大同路二段184巷3號","121.653918333333","25.063915","6501100","汐止區"
"220011","609-BX","2017/07/06 13:08:28","新北市板橋區民生路二段22號","121.472881666667","25.01657","6500100","板橋區"
