"lineid","car","time","location","longitude","latitude","cityid","cityname"
"234012","149-BY","2017/07/06 15:19:00","新北市八里區中華路三段19號","121.396678333333","25.14326","6500400","永和區"
"234028","746-BX","2017/07/06 15:18:50","新北市板橋區萬安街20巷2弄13號","121.485265","25.02281","6500400","永和區"
"234025","9371-KE","2017/07/06 15:19:06","新北市永和區中山路一段83號","121.512133333333","25.01078","6500400","永和區"
"248011","247-BX","2017/07/06 15:18:16","新北市五股區中興路二段37巷24號","121.460731666667","25.0749816666667","6501500","五股區"
"248003","677-BX","2017/07/06 15:18:53","新北市五股區中興路四段56號","121.437816666667","25.0830733333333","6501500","五股區"
"243001","297-R6","2017/07/06 15:18:51","新北市泰山區泰林路二段542巷1弄4號","121.422841666667","25.0640983333333","6501600","泰山區"
"243003","549-UM","2017/07/06 15:18:58","新北市泰山區公園路65號","121.426013333333","25.0545533333333","6501600","泰山區"
"243008","680-BX","2017/07/06 15:19:03","新北市泰山區明志路二段191號","121.427595","25.0493366666667","6501600","泰山區"
"231002","002-UM","2017/07/06 15:19:01","新北市新店區中正路700巷1號","121.533881666667","24.99124","6500600","新店區"
"231025","0291-UT","2017/07/06 15:18:56","新北市新店區中央路200號","121.530543333333","24.9742633333333","6500600","新店區"
"231028","046-UY","2017/07/06 15:19:04","新北市新店區僑信路74巷58號","121.49841","24.947655","6500600","新店區"
"231029","106-UY","2017/07/06 15:18:59","新北市新店區安康路三段740號","121.473796666667","24.9419866666667","6500600","新店區"
"231018","107-UY","2017/07/06 15:19:06","新北市新店區中央七街26號","121.52956","24.9752683333333","6500600","新店區"
"231011","108-UY","2017/07/06 15:19:07","新北市新店區復興路1巷1號","121.540503333333","24.9865333333333","6500600","新店區"
"231039","110-UY","2017/07/06 15:19:04","新北市新店區中興路三段313號","121.54191","24.9860733333333","6500600","新店區"
"231021","187-VK","2017/07/06 15:18:49","新北市新店區新烏路一段85巷1號","121.547085","24.9424233333333","6500600","新店區"
"231026","256-BX","2017/07/06 15:19:06","新北市新店區中正路265巷21號","121.537758333333","24.9731666666667","6500600","新店區"
"231017","AAD-862","2017/07/06 15:18:51","新北市新店區明山路45號","121.563846666667","24.95586","6500600","新店區"
"231024","3713-VJ","2017/07/06 15:19:06","新北市新店區新明街26巷12號","121.541405","24.9689333333333","6500600","新店區"
"231036","512-UM","2017/07/06 15:19:02","新北市新店區安祥路69巷17號","121.48188","24.9613966666667","6500600","新店區"
"231023","513-UM","2017/07/06 15:19:05","新北市新店區行政街17巷2號","121.542728333333","24.9667083333333","6500600","新店區"
"231035","515-UM","2017/07/06 15:18:59","新北市新店區永平街23巷1號","121.51679","24.9832016666667","6500600","新店區"
"231003","616-UM","2017/07/06 15:19:07","新北市新店區寶高路9號","121.551885","24.977635","6500600","新店區"
"231006","617-UM","2017/07/06 15:18:50","新北市新店區新坡一街88號","121.548441666667","24.962025","6500600","新店區"
"231030","618-UM","2017/07/06 15:19:02","新北市新店區安德街60巷5號","121.510031666667","24.962925","6500600","新店區"
"231001","619-UM","2017/07/06 15:18:59","新北市新店區北新路一段331號","121.541808333333","24.9685166666667","6500600","新店區"
"231034","645-TV","2017/07/06 15:18:47","新北市新店區玫瑰路34號","121.495631666667","24.9500133333333","6500600","新店區"
"231031","720-UM","2017/07/06 15:18:49","新北市新店區裕合街27號","121.489165","24.949955","6500600","新店區"
"231005","897-TW","2017/07/06 15:19:00","新北市新店區民族路12號","121.541643333333","24.9788766666667","6500600","新店區"
"231004","899-TW","2017/07/06 15:18:51","新北市新店區建國路29號","121.540226666667","24.97409","6500600","新店區"
"231037","AKT-0513","2017/07/06 15:18:52","新北市新店區安民街341-1號","121.51658","24.97496","6500600","新店區"
"235030","003-UY","2017/07/06 15:18:49","新北市中和區廣福路2號","121.506003333333","25.0034216666667","6500300","中和區"
"235029","098-UM","2017/07/06 15:19:06","新北市中和區永和路69-2號","121.496256666667","25.0057","6500300","中和區"
"235022","151-BY","2017/07/06 15:18:55","新北市板橋區民生路一段26-1號","121.477345","25.01186","6500300","中和區"
"235036","301-VK","2017/07/06 15:19:03","新北市新店區薏仁坑路自強巷1號","121.497191666667","24.9576966666667","6500300","中和區"
"235007","352-BY","2017/07/06 15:18:50","新北市中和區興南路二段159巷4號","121.505066666667","24.9833716666667","6500300","中和區"
"235014","4979-A6","2017/07/06 15:19:03","新北市中和區景平路464巷2弄2號","121.50576","24.9939116666667","6500300","中和區"
"235033","4980-A6","2017/07/06 15:19:03","新北市中和區圓通路198巷2弄2號","121.496235","24.99472","6500300","中和區"
"235034","558-UM","2017/07/06 15:19:02","新北市中和區圓通路117號","121.499466666667","24.9963216666667","6500300","中和區"
"235035","783-BX","2017/07/06 15:18:58","新北市中和區永和路341巷12號","121.483118333333","25.0106116666667","6500300","中和區"
"235012","896-TW","2017/07/06 15:19:06","新北市中和區景新街367號","121.512148333333","24.990645","6500300","中和區"
"235001","AAC-213","2017/07/06 15:19:08","新北市中和區自立路36-8號","121.522583333333","24.9927183333333","6500300","中和區"
"235023","AAC-215","2017/07/06 15:19:04","新北市中和區圓通路316號","121.486543333333","24.987645","6500300","中和區"
"220013","072-UY","2017/07/06 15:18:51","新北市三重區後埔街61-1號","121.479478333333","25.047235","6500100","板橋區"
"220017","AAD-861","2017/07/06 15:18:59","新北市板橋區貴興路73號","121.456998333333","25.00296","6500100","板橋區"
"247002","402-BY","2017/07/06 15:18:53","新北市蘆洲區光榮路85號","121.462055","25.0885683333333","6501400","蘆洲區"
"247005","341-TH","2017/07/06 15:18:19","新北市林口區太平里180號","121.366553333333","25.1341616666667","6501400","蘆洲區"
"247007","339-TH","2017/07/06 15:18:52","新北市八里區中山路三段363號","121.374915","25.13885","6501400","蘆洲區"
"247013","057-VK","2017/07/06 15:18:49","新北市八里區中山路三段386號","121.368405","25.1360483333333","6501400","蘆洲區"
"226002","7418-A5","2017/07/06 15:07:01","新北市平溪區石底里公園街18-3號","121.733408333333","25.0257333333333","6502400","平溪區"
"208004","AAC-292","2017/07/06 15:18:57","新北市金山區六股里下六股35號","121.620773333333","25.2216583333333","6502700","金山區"
"207001","463-BY","2017/07/06 15:18:57","新北市萬里區大鵬里萬里加投9號","121.652228333333","25.2086983333333","6502800","萬里區"
"252005","AAC-283","2017/07/06 00:11:21","新北市三芝區埔坪里埔頭坑41號","121.504521666667","25.2645116666667","6502100","三芝區"
"236066","105-UM","2017/07/06 15:18:56","新北市土城區學府路一段129巷24號","121.454425","24.98582","6501300","土城區"
"236040","107-UM","2017/07/06 15:18:46","新北市土城區金城路二段239號","121.455715","24.9825816666667","6501300","土城區"
"236076","166-UM","2017/07/06 15:18:51","新北市土城區中州路27巷32號","121.413108333333","24.957175","6501300","土城區"
"236028","253-BX","2017/07/06 15:18:59","新北市土城區中央路一段290號","121.443366666667","24.9824433333333","6501300","土城區"
"236024","269-VK","2017/07/06 15:18:58","新北市土城區中央路二段149巷4號","121.442341666667","24.9765833333333","6501300","土城區"
"236012","270-VK","2017/07/06 15:19:02","新北市土城區學府路一段23巷27號","121.457658333333","24.98698","6501300","土城區"
"236033","271-VK","2017/07/06 15:18:51","新北市土城區國際路158巷48號","121.46809","24.9751883333333","6501300","土城區"
"236018","401-BY","2017/07/06 15:18:51","新北市土城區峰廷街3號","121.469143333333","24.9874433333333","6501300","土城區"
"236056","912-UM","2017/07/06 15:18:59","新北市土城區金城路一段72號","121.44376","24.9726033333333","6501300","土城區"
"236047","913-UM","2017/07/06 15:18:54","新北市土城區清水路328號","121.463988333333","24.9854466666667","6501300","土城區"
"236060","915-UM","2017/07/06 15:18:49","新北市土城區延平街66號","121.467811666667","24.9928583333333","6501300","土城區"
"236052","AAC-216","2017/07/06 15:18:59","新北市土城區學府路一段276號","121.449915","24.9830533333333","6501300","土城區"
"242003","233-RS","2017/07/06 08:29:03","新北市新莊區環河路48-7號","121.436943333333","25.0097833333333","6500500","新莊區"
"238002","755-BX","2017/07/06 15:18:49","新北市樹林區復興路281號","121.418863333333","24.989245","6500700","樹林區"
"238010","601-UM","2017/07/06 15:19:06","新北市樹林區大安路202號","121.420571666667","24.995725","6500700","樹林區"
"238006","599-UM","2017/07/06 15:18:50","新北市樹林區八德街251巷9號","121.422285","24.978675","6500700","樹林區"
"238005","571-TV","2017/07/06 15:18:59","新北市樹林區中正路7-1號","121.430248333333","24.99756","6500700","樹林區"
"238011","5061-A6","2017/07/06 15:18:51","新北市樹林區鎮前街72號","121.425586666667","24.992245","6500700","樹林區"
"238009","312-TH","2017/07/06 15:18:53","新北市樹林區忠孝街31號","121.423686666667","24.98223","6500700","樹林區"
"238008","311-TH","2017/07/06 15:18:49","新北市樹林區西圳街165巷20弄26號","121.395556666667","24.9601516666667","6500700","樹林區"
"238012","303-VK","2017/07/06 15:18:49","新北市樹林區中山路一段249號","121.420425","24.986475","6500700","樹林區"
"238004","283-BY","2017/07/06 15:18:55","新北市樹林區中華路211號","121.419918333333","24.98142","6500700","樹林區"
"238001","282-BY","2017/07/06 15:17:12","新北市樹林區啟智街156巷9號","121.414951666667","24.9876866666667","6500700","樹林區"
"238007","268-VK","2017/07/06 15:18:53","新北市板橋區大觀路三段50巷79號","121.431715","24.99641","6500700","樹林區"
"238013","172-UY","2017/07/06 15:18:58","新北市樹林區東順街82號","121.40919","24.976385","6500700","樹林區"
"238003","169-UY","2017/07/06 15:18:53","新北市樹林區中山路二段34號","121.417438333333","24.9850483333333","6500700","樹林區"
"221010","276-VK","2017/07/06 13:16:58","新北市汐止區汐萬路一段256巷3號","121.653446666667","25.0745783333333","6501100","汐止區"
"220052","257-TC","2017/07/06 15:19:09","新北市板橋區新海路198號","121.460978333333","25.0235216666667","6500100","板橋區"
"220050","285-UM","2017/07/06 15:19:02","新北市板橋區莊敬路75巷35號","121.47398","25.0262033333333","6500100","板橋區"
"220031","286-VK","2017/07/06 15:19:06","新北市板橋區僑中二街104巷48號","121.444138333333","25.0082733333333","6500100","板橋區"
"220029","287-VK","2017/07/06 15:18:48","新北市板橋區僑中一街102巷7弄19號","121.446091666667","25.0129483333333","6500100","板橋區"
"220009","293-UM","2017/07/06 15:18:50","新北市板橋區四川路一段288號","121.458543333333","25.0008383333333","6500100","板橋區"
"220041","299-UM","2017/07/06 15:18:46","新北市板橋區民權路170巷12號","121.460266666667","25.0133733333333","6500100","板橋區"
"220038","487-VK","2017/07/06 15:18:56","新北市板橋區互助街45號","121.461105","25.0265916666667","6500100","板橋區"
"220037","491-VK","2017/07/06 15:18:35","新北市板橋區民治街59號","121.479478333333","25.0332766666667","6500100","板橋區"
"220011","609-BX","2017/07/06 15:19:02","新北市板橋區三民路一段94號","121.479378333333","25.02153","6500100","板橋區"
"220025","687-BX","2017/07/06 15:19:02","新北市板橋區大觀路一段26號","121.449971666667","25.0086566666667","6500100","板橋區"
"220042","689-BX","2017/07/06 15:18:53","新北市板橋區長江路二段83號","121.465218333333","25.031545","6500100","板橋區"
"220051","830-TW","2017/07/06 15:19:02","新北市板橋區文化路一段90號","121.464376666667","25.0177333333333","6500100","板橋區"
"220046","AAC-210","2017/07/06 15:19:07","新北市板橋區公館街31號","121.461323333333","25.0155183333333","6500100","板橋區"
"220018","AAC-253","2017/07/06 15:18:50","新北市板橋區四川路一段336號","121.456975","24.9971333333333","6500100","板橋區"
