"lineid","car","time","location","longitude","latitude","cityid","cityname"
"234012","149-BY","2017/07/06 16:00:04","新北市永和區永亨路70號","121.520896666667","25.005865","6500400","永和區"
"231018","107-UY","2017/07/06 16:00:06","新北市新店區中正路663巷7弄15號","121.53294","24.99012","6500600","新店區"
"231011","108-UY","2017/07/06 16:00:07","新北市新店區中央路125號","121.530583333333","24.97415","6500600","新店區"
"231026","256-BX","2017/07/06 16:00:06","新北市新店區民生路23號","121.532725","24.98646","6500600","新店區"
"231046","278-BY","2017/07/06 16:00:07","新北市新店區安華路28-1號","121.51972","24.9615","6500600","新店區"
"231017","AAD-862","2017/07/06 15:59:51","新北市新店區中正路284巷2號","121.538308333333","24.97465","6500600","新店區"
"231038","4715-K9","2017/07/06 16:00:09","新北市新店區安康路二段183巷9號","121.50968","24.958725","6500600","新店區"
"231035","515-UM","2017/07/06 15:59:59","新北市新店區安和路二段175號","121.518446666667","24.9745866666667","6500600","新店區"
"231030","618-UM","2017/07/06 16:00:01","新北市新店區安業街1號","121.516741666667","24.9789483333333","6500600","新店區"
"231034","645-TV","2017/07/06 16:00:07","新北市新店區吉祥街2巷2號","121.497295","24.9475766666667","6500600","新店區"
"231013","719-UM","2017/07/06 15:59:53","新北市新店區華潭街52號","121.52881","24.9550283333333","6500600","新店區"
"231037","AKT-0513","2017/07/06 15:59:52","新北市新店區吉安街33號","121.515873333333","24.9660483333333","6500600","新店區"
"241011","013-R5","2017/07/06 15:59:53","新北市三重區雙園街1巷1號","121.49697","25.0680766666667","6500200","三重區"
"241028","022-UY","2017/07/06 15:59:55","新北市三重區電信街103號","121.495251666667","25.058195","6500200","三重區"
"241008","059-VK","2017/07/06 15:59:51","新北市三重區重新路四段121號","121.484321666667","25.0521833333333","6500200","三重區"
"241015","062-VK","2017/07/06 16:00:03","新北市三重區重新路四段121號","121.485165","25.051955","6500200","三重區"
"241017","063-VK","2017/07/06 16:00:05","新北市三重區大仁街48巷27號","121.491155","25.0644983333333","6500200","三重區"
"241024","065-VK","2017/07/06 16:00:08","新北市三重區中正北路145巷14號","121.484128333333","25.0677333333333","6500200","三重區"
"241026","066-VK","2017/07/06 15:59:51","新北市三重區光興街115號","121.496886666667","25.0599066666667","6500200","三重區"
"241003","091-VK","2017/07/06 15:59:47","新北市三重區仁義街157巷96號","121.499143333333","25.0823233333333","6500200","三重區"
"241002","156-TC","2017/07/06 16:00:03","新北市三重區長元街105號","121.504543333333","25.066775","6500200","三重區"
"241005","262-UM","2017/07/06 16:00:02","新北市三重區集賢路89號","121.491236666667","25.0889466666667","6500200","三重區"
"241032","265-UM","2017/07/06 16:00:04","新北市三重區三陽路100巷3弄13號","121.482988333333","25.0579633333333","6500200","三重區"
"241016","266-UM","2017/07/06 16:00:05","新北市三重區重新路四段121號","121.4845","25.0521266666667","6500200","三重區"
"241022","267-UM","2017/07/06 16:00:05","新北市三重區三民街175巷2號","121.483313333333","25.0654316666667","6500200","三重區"
"241018","268-UM","2017/07/06 16:00:01","新北市三重區中正北路35號","121.491518333333","25.0624083333333","6500200","三重區"
"241013","270-UM","2017/07/06 15:59:50","新北市三重區三和路三段16巷22號","121.496255","25.0699816666667","6500200","三重區"
"241025","271-UM","2017/07/06 15:59:58","新北市三重區三民街188號","121.481785","25.0659233333333","6500200","三重區"
"241007","398-BY","2017/07/06 16:00:06","新北市三重區忠孝路二段102號","121.483428333333","25.0692366666667","6500200","三重區"
"241020","413-TH","2017/07/06 16:00:02","新北市三重區忠孝路二段35號","121.4859","25.0710816666667","6500200","三重區"
"241014","543-UM","2017/07/06 15:59:56","新北市三重區重新路四段121號","121.48503","25.0519666666667","6500200","三重區"
"241023","545-UM","2017/07/06 16:00:03","新北市三重區中正北路174-6號","121.483571666667","25.06677","6500200","三重區"
"241001","547-UM","2017/07/06 16:00:07","新北市三重區忠孝路三段2號","121.481936666667","25.0676466666667","6500200","三重區"
"241006","AAD-863","2017/07/06 15:59:51","新北市三重區過圳街5號","121.489091666667","25.0586983333333","6500200","三重區"
"241012","941-UM","2017/07/06 15:59:58","新北市三重區正義北路107巷5號","121.497338333333","25.065725","6500200","三重區"
"241029","942-UM","2017/07/06 16:00:05","新北市三重區大同南路218號","121.496805","25.056265","6500200","三重區"
"241033","AAC-255","2017/07/06 16:00:04","新北市三重區重新路五段440號","121.474851666667","25.0474216666667","6500200","三重區"
"235026","800-TS","2017/07/06 15:59:57","新北市中和區永和路191巷6-1號","121.491316666667","25.007","6500300","中和區"
"247002","402-BY","2017/07/06 15:59:53","新北市八里區下罟子30-35號","121.36771","25.13521","6501400","蘆洲區"
"247007","339-TH","2017/07/06 15:59:52","新北市五股區中興路三段163號","121.449258333333","25.0807216666667","6501400","蘆洲區"
"226002","7418-A5","2017/07/06 15:39:01","新北市平溪區石底里公園街18-3號","121.733465","25.0256366666667","6502400","平溪區"
"224007","272-VK","2017/07/06 15:59:50","新北市瑞芳區大埔路52號","121.769095","25.1041816666667","6501200","瑞芳區"
"227010","642-TC","2017/07/06 16:00:04","新北市雙溪區三港里雙澳路40號","121.8734","25.0516666666667","6502500","雙溪區"
"227004","400-TW","2017/07/06 15:59:50","新北市雙溪區平林里外平林55-1號","121.847536666667","25.0350683333333","6502500","雙溪區"
"251016","442-VK","2017/07/06 15:59:52","新北市淡水區中正路二段22巷3號","121.42033","25.1818566666667","6501000","淡水區"
"252005","AAC-283","2017/07/06 00:11:21","新北市三芝區埔坪里埔頭坑41號","121.504521666667","25.2645116666667","6502100","三芝區"
"236066","105-UM","2017/07/06 15:59:56","新北市土城區福安街102巷5弄1號","121.417316666667","24.9644616666667","6501300","土城區"
"236076","166-UM","2017/07/06 15:59:51","新北市土城區中山路45號","121.420331666667","24.9627483333333","6501300","土城區"
"236018","401-BY","2017/07/06 15:59:56","新北市土城區和城路二段253號","121.473081666667","24.9874416666667","6501300","土城區"
"236056","912-UM","2017/07/06 15:59:59","新北市土城區中央路二段49號","121.442763333333","24.9797316666667","6501300","土城區"
"236052","AAC-216","2017/07/06 15:59:59","新北市土城區中華路二段62號","121.438945","24.9770233333333","6501300","土城區"
"242003","233-RS","2017/07/06 08:29:03","新北市新莊區環河路48-7號","121.436943333333","25.0097833333333","6500500","新莊區"
"238002","755-BX","2017/07/06 15:59:49","新北市樹林區文德街2巷17號","121.41969","24.9917716666667","6500700","樹林區"
"238010","601-UM","2017/07/06 16:00:06","新北市樹林區龍興街30號","121.402941666667","25.015925","6500700","樹林區"
"238006","599-UM","2017/07/06 16:00:04","新北市樹林區忠孝街113巷2號","121.424781666667","24.9803683333333","6500700","樹林區"
"238005","571-TV","2017/07/06 15:59:59","新北市樹林區博愛街194號","121.424825","24.9894883333333","6500700","樹林區"
"238011","5061-A6","2017/07/06 15:59:51","新北市樹林區山佳街57號","121.392885","24.9725633333333","6500700","樹林區"
"238009","312-TH","2017/07/06 15:59:53","新北市樹林區太順街86-2號","121.417175","24.9787266666667","6500700","樹林區"
"238008","311-TH","2017/07/06 15:26:09","新北市樹林區西圳街一段165巷20弄16號","121.395451666667","24.9604233333333","6500700","樹林區"
"238012","303-VK","2017/07/06 15:59:49","新北市樹林區保安街一段53號","121.423666666667","24.994815","6500700","樹林區"
"238004","283-BY","2017/07/06 15:59:55","新北市樹林區中正路433-2號","121.414845","25.0081966666667","6500700","樹林區"
"238001","282-BY","2017/07/06 15:59:53","新北市樹林區千歲街17號","121.424936666667","24.9955816666667","6500700","樹林區"
"238007","268-VK","2017/07/06 15:59:53","新北市樹林區三俊街199巷37號","121.420791666667","25.018455","6500700","樹林區"
"238013","172-UY","2017/07/06 15:59:58","新北市樹林區佳園路一段22-6號","121.392721666667","24.97122","6500700","樹林區"
"238003","169-UY","2017/07/06 15:59:52","新北市樹林區啟智街137巷10弄2號","121.417128333333","24.9882416666667","6500700","樹林區"
"221010","276-VK","2017/07/06 13:16:58","新北市汐止區汐萬路一段256巷3號","121.653446666667","25.0745783333333","6501100","汐止區"
"220018","AAC-253","2017/07/06 15:58:50","新北市樹林區中山路三段210-2號","121.380561666667","24.9678233333333","6500100","板橋區"
