"lineid","car","time","location","longitude","latitude","cityid","cityname"
"249005","172-UM","2017/07/06 16:49:49","新北市八里區大堀湖2-3號","121.422468333333","25.1537816666667","6502300","八里區"
"249001","173-UM","2017/07/06 16:50:02","新北市八里區挖子尾街6號","121.415521666667","25.1643033333333","6502300","八里區"
"249004","303-UY","2017/07/06 16:50:00","新北市八里區博物館路29號","121.414196666667","25.1628816666667","6502300","八里區"
"249002","305-UY","2017/07/06 16:50:06","新北市八里區牛寮埔33號","121.429945","25.1456716666667","6502300","八里區"
"249003","593-UM","2017/07/06 16:49:39","新北市八里區博物館路29號","121.414398333333","25.1631083333333","6502300","八里區"
"244009","656-BX","2017/07/06 16:50:06","新北市林口區粉寮路二段160巷28號","121.405195","25.0907983333333","6501700","林口區"
"244011","701-TV","2017/07/06 16:49:45","新北市林口區粉寮路二段160巷28號","121.405216666667","25.0907783333333","6501700","林口區"
"243009","297-R6","2017/07/06 16:19:26","新北市泰山區黎明路25號","121.422055","25.0609583333333","6501600","泰山區"
"231046","278-BY","2017/07/06 16:49:47","新北市新店區灣潭路15-5號","121.541793333333","24.9398316666667","6500600","新店區"
"241011","013-R5","2017/07/06 16:49:53","新北市三重區仁愛街53巷117號","121.498991666667","25.0724633333333","6500200","三重區"
"241028","022-UY","2017/07/06 16:49:55","新北市三重區光興街91號","121.497383333333","25.0599266666667","6500200","三重區"
"241008","059-VK","2017/07/06 16:49:51","新北市三重區永福街179巷28號","121.478003333333","25.0748033333333","6500200","三重區"
"241009","060-VK","2017/07/06 16:49:48","新北市三重區三和路四段203巷228號","121.486798333333","25.0808083333333","6500200","三重區"
"241031","061-VK","2017/07/06 16:49:57","新北市三重區三陽路1號","121.486548333333","25.0588783333333","6500200","三重區"
"241015","062-VK","2017/07/06 16:50:03","新北市三重區文化北路90號","121.498705","25.0657366666667","6500200","三重區"
"241017","063-VK","2017/07/06 16:50:05","新北市三重區大同北路60巷6號","121.493981666667","25.0638266666667","6500200","三重區"
"241024","065-VK","2017/07/06 16:50:03","新北市三重區中正北路317巷36號","121.47624","25.0731516666667","6500200","三重區"
"241026","066-VK","2017/07/06 16:49:51","新北市三重區文化南路8-3號","121.500375","25.0621583333333","6500200","三重區"
"241003","091-VK","2017/07/06 16:50:07","新北市三重區五華街87巷13號","121.492633333333","25.08364","6500200","三重區"
"241002","156-TC","2017/07/06 16:50:03","新北市三重區仁義街241巷46號","121.497351666667","25.0832133333333","6500200","三重區"
"241005","262-UM","2017/07/06 16:50:02","新北市三重區仁華街80巷18號","121.484383333333","25.0835516666667","6500200","三重區"
"241032","265-UM","2017/07/06 16:50:04","新北市三重區三光街30巷1號","121.484758333333","25.0604383333333","6500200","三重區"
"241016","266-UM","2017/07/06 16:50:05","新北市三重區大同北路74號","121.493988333333","25.0641833333333","6500200","三重區"
"241022","267-UM","2017/07/06 16:50:05","新北市三重區中華路111巷18號","121.484271666667","25.0634583333333","6500200","三重區"
"241018","268-UM","2017/07/06 16:50:01","新北市三重區安慶街149巷11號","121.494538333333","25.0692866666667","6500200","三重區"
"241013","270-UM","2017/07/06 16:49:50","新北市三重區仁壽街74號","121.498151666667","25.07393","6500200","三重區"
"241025","271-UM","2017/07/06 16:49:58","新北市三重區中正北路530巷23號","121.471963333333","25.0703166666667","6500200","三重區"
"241007","398-BY","2017/07/06 16:50:06","新北市三重區三和路四段181巷66號","121.484103333333","25.0794333333333","6500200","三重區"
"241020","413-TH","2017/07/06 16:50:02","新北市三重區忠孝路二段34號","121.485793333333","25.0709233333333","6500200","三重區"
"241004","475-VK","2017/07/06 16:49:50","新北市三重區仁愛街420號","121.490315","25.0813383333333","6500200","三重區"
"241019","478-VK","2017/07/06 16:50:03","新北市三重區力行路一段62號","121.484511666667","25.0692466666667","6500200","三重區"
"241030","480-VK","2017/07/06 16:49:50","新北市三重區中正南路271號","121.492696666667","25.0526433333333","6500200","三重區"
"241014","543-UM","2017/07/06 16:49:56","新北市三重區長榮路75號","121.502583333333","25.0690866666667","6500200","三重區"
"241023","545-UM","2017/07/06 16:50:02","新北市三重區中華路76巷37號","121.482111666667","25.0626583333333","6500200","三重區"
"241001","547-UM","2017/07/06 16:50:07","新北市三重區仁政街86巷17號","121.49173","25.0774283333333","6500200","三重區"
"241006","AAD-863","2017/07/06 16:49:51","新北市三重區力行路二段93號","121.482701666667","25.07578","6500200","三重區"
"241012","941-UM","2017/07/06 16:49:58","新北市三重區仁興街11巷17號","121.500336666667","25.074165","6500200","三重區"
"241029","942-UM","2017/07/06 16:50:04","新北市三重區集美街207巷12號","121.492235","25.0543833333333","6500200","三重區"
"241033","AAC-255","2017/07/06 16:50:03","新北市三重區新北大道二段139巷10號","121.466076666667","25.0607483333333","6500200","三重區"
"235026","800-TS","2017/07/06 16:49:57","新北市中和區員山路36巷16-8號","121.485436666667","24.992265","6500300","中和區"
"247006","341-TH","2017/07/06 16:49:55","新北市蘆洲區永安南路二段166號","121.4613","25.079075","6501400","蘆洲區"
"247008","339-TH","2017/07/06 16:49:52","新北市蘆洲區中山二路45巷30號","121.474281666667","25.08114","6501400","蘆洲區"
"247024","337-TH","2017/07/06 16:50:08","新北市蘆洲區長興路202號","121.46057","25.0874883333333","6501400","蘆洲區"
"247002","336-TH","2017/07/06 16:50:07","新北市五股區成泰路三段544-1號","121.456468333333","25.099335","6501400","蘆洲區"
"247014","057-VK","2017/07/06 16:49:49","新北市蘆洲區三民路89號","121.47433","25.0847133333333","6501400","蘆洲區"
"247004","056-VK","2017/07/06 16:50:03","新北市蘆洲區長榮路151號","121.461786666667","25.0839916666667","6501400","蘆洲區"
"247016","001-UY","2017/07/06 16:49:51","新北市蘆洲區正和街10號","121.470241666667","25.0828033333333","6501400","蘆洲區"
"226002","7418-A5","2017/07/06 15:39:01","新北市平溪區石底里公園街18-3號","121.733465","25.0256366666667","6502400","平溪區"
"228003","097-TW","2017/07/06 16:49:48","新北市貢寮區貢寮里朝陽街1-2號","121.912361666667","25.0212883333333","6502600","貢寮區"
"228001","212-TW","2017/07/06 16:50:06","新北市貢寮區貢寮里朝陽街1-2號","121.912221666667","25.02129","6502600","貢寮區"
"228002","585-TW","2017/07/06 16:49:49","新北市貢寮區貢寮里朝陽街142號","121.906635","25.0228366666667","6502600","貢寮區"
"224010","AGQ-8101","2017/07/06 09:12:34","新北市瑞芳區明燈路二段44-1號","121.809588333333","25.108235","6501200","瑞芳區"
"224006","676-BX","2017/07/06 16:49:54","新北市瑞芳區大寮路356-1號","121.784846666667","25.10319","6501200","瑞芳區"
"224008","275-VK","2017/07/06 16:49:49","新北市瑞芳區逢甲路13號","121.809845","25.1084016666667","6501200","瑞芳區"
"224007","272-VK","2017/07/06 16:49:50","新北市瑞芳區中央路48巷24號","121.761446666667","25.10298","6501200","瑞芳區"
"224005","271-BY","2017/07/06 16:49:52","新北市瑞芳區洞頂路8-1號","121.863065","25.1211883333333","6501200","瑞芳區"
"227010","642-TC","2017/07/06 16:50:04","新北市雙溪區牡丹里五分2號","121.866785","25.0470566666667","6502500","雙溪區"
"227004","400-TW","2017/07/06 16:49:50","新北市雙溪區外柑里外柑腳94號","121.806618333333","25.0180116666667","6502500","雙溪區"
"251008","181-VK","2017/07/06 16:49:52","新北市淡水區樹梅坑9號","121.472755","25.14268","6501000","淡水區"
"251014","182-VK","2017/07/06 16:49:47","新北市淡水區興仁路157號","121.451498333333","25.2195366666667","6501000","淡水區"
"251016","442-VK","2017/07/06 16:49:53","新北市淡水區北新路一段49號","121.455293333333","25.1814716666667","6501000","淡水區"
"251011","650-BX","2017/07/06 16:50:04","新北市淡水區中正路二段31號","121.419426666667","25.1817233333333","6501000","淡水區"
"252002","178-VK","2017/07/06 16:49:55","新北市三芝區忠孝街140-1號","121.506126666667","25.2581883333333","6502100","三芝區"
"252001","702-TV","2017/07/06 16:49:57","新北市三芝區埔坪里埔頭坑61-1號","121.506523333333","25.2638566666667","6502100","三芝區"
"252005","AAC-283","2017/07/06 16:14:18","新北市三芝區埔坪里埔頭坑41號","121.504431666667","25.2644783333333","6502100","三芝區"
"242027","612-BX","2017/07/06 16:50:04","新北市新莊區新泰路357巷3弄57號","121.44221","25.039295","6500500","新莊區"
"242036","566-BX","2017/07/06 16:50:02","新北市新莊區新泰路357巷3弄57號","121.442091666667","25.0390816666667","6500500","新莊區"
"242060","362-BY","2017/07/06 16:49:47","新北市新莊區三和路12-21號","121.442103333333","25.0387033333333","6500500","新莊區"
"242003","233-RS","2017/07/06 08:29:03","新北市新莊區環河路48-7號","121.436943333333","25.0097833333333","6500500","新莊區"
"242013","346-TH","2017/07/06 16:49:55","新北市新莊區三和路12-18號","121.441973333333","25.037595","6500500","新莊區"
"242009","351-TH","2017/07/06 10:14:15","新北市新莊區新泰路357巷3弄57號","121.441983333333","25.0394466666667","6500500","新莊區"
"238010","601-UM","2017/07/06 16:50:06","新北市樹林區中山路二段209號","121.403288333333","24.9767316666667","6500700","樹林區"
"238006","599-UM","2017/07/06 16:49:50","新北市樹林區育德街68號","121.389531666667","24.9683183333333","6500700","樹林區"
"238012","303-VK","2017/07/06 16:49:49","新北市樹林區中正路22-1號","121.427813333333","24.9993716666667","6500700","樹林區"
"238004","283-BY","2017/07/06 16:49:55","新北市樹林區中正路433-1號","121.414723333333","25.0080916666667","6500700","樹林區"
"238001","282-BY","2017/07/06 16:49:53","新北市樹林區中正路22-1號","121.427713333333","24.999625","6500700","樹林區"
"239007","AAC-297","2017/07/06 16:49:56","新北市鶯歌區二甲路175號","121.345288333333","24.9359816666667","6500800","鶯歌區"
"239008","527-UM","2017/07/06 16:50:03","新北市鶯歌區環河路177-19號","121.345673333333","24.93603","6500800","鶯歌區"
"239005","526-UM","2017/07/06 16:49:51","新北市鶯歌區環河路177-23號","121.345086666667","24.9356033333333","6500800","鶯歌區"
"239001","417-VK","2017/07/06 16:50:03","新北市鶯歌區二甲路12-2號","121.345468333333","24.9350666666667","6500800","鶯歌區"
"239002","359-BY","2017/07/04 20:40:44","新北市鶯歌區二甲路13號","121.34425","24.9353733333333","6500800","鶯歌區"
"221010","276-VK","2017/07/06 13:16:58","新北市汐止區汐萬路一段256巷3號","121.653446666667","25.0745783333333","6501100","汐止區"
