"lineid","car","time","location","longitude","latitude","cityid","cityname"
"234013","149-BY","2017/07/06 18:18:08","新北市永和區福和路1號","121.526276666667","25.00955","6500400","永和區"
"234042","862-TW","2017/07/06 18:17:50","新北市永和區福和路1號","121.526538333333","25.0095933333333","6500400","永和區"
"234026","9372-KE","2017/07/06 18:17:57","新北市永和區豫溪街36號","121.515361666667","25.009765","6500400","永和區"
"234011","9373-KE","2017/07/06 18:18:07","新北市永和區環河東路二段92號","121.524383333333","25.0106083333333","6500400","永和區"
"249005","172-UM","2017/07/06 18:17:48","新北市八里區荖阡坑路15號","121.401738333333","25.1399033333333","6502300","八里區"
"249001","173-UM","2017/07/06 18:18:01","新北市八里區龍米路一段191-1號","121.451411666667","25.13077","6502300","八里區"
"249004","303-UY","2017/07/06 18:18:00","新北市八里區龍米路二段206巷2-1號","121.4334","25.158835","6502300","八里區"
"249002","305-UY","2017/07/06 18:18:05","新北市八里區龍形二街52號","121.450203333333","25.13293","6502300","八里區"
"249003","593-UM","2017/07/06 18:18:00","新北市八里區松子腳3-2號","121.402961666667","25.1443316666667","6502300","八里區"
"248016","026-BX","2017/07/06 18:17:55","新北市五股區成泰路三段477巷9號","121.449906666667","25.0988866666667","6501500","五股區"
"248006","077-UY","2017/07/06 18:18:02","新北市五股區中興路一段187號","121.46414","25.0738883333333","6501500","五股區"
"248008","095-VK","2017/07/06 18:18:01","新北市五股區更洲路32巷8弄14號","121.459246666667","25.0796083333333","6501500","五股區"
"248020","225-UY","2017/07/06 18:18:00","新北市五股區孝義路47巷11號","121.45338","25.1100016666667","6501500","五股區"
"248012","247-BX","2017/07/06 15:18:16","新北市五股區中興路二段37巷24號","121.460731666667","25.0749816666667","6501500","五股區"
"248014","261-SL","2017/07/06 18:18:00","新北市五股區自強路19巷11號","121.434661666667","25.0736833333333","6501500","五股區"
"248010","272-BY","2017/07/06 18:17:51","新北市五股區成泰路一段189巷5號","121.434556666667","25.0765733333333","6501500","五股區"
"248004","677-BX","2017/07/06 18:18:01","新北市五股區成泰路二段101號","121.438335","25.08431","6501500","五股區"
"248002","678-BX","2017/07/06 18:17:59","新北市五股區西雲路50號","121.443505","25.0909933333333","6501500","五股區"
"232011","375-UM","2017/07/06 18:17:50","新北市坪林區坪雙路一段31號","121.711721666667","24.9423916666667","6502000","坪林區"
"244013","069-UM","2017/07/06 18:17:51","新北市林口區中山路148-1號","121.391223333333","25.078725","6501700","林口區"
"244007","080-UY","2017/07/06 18:18:07","新北市林口區林口路124巷10弄3號","121.389105","25.0817","6501700","林口區"
"244019","403-UM","2017/07/06 18:18:06","新北市林口區文化一路一段100巷12號","121.373961666667","25.070705","6501700","林口區"
"244023","483-VK","2017/07/06 18:17:59","新北市林口區東湖路153巷125號","121.382281666667","25.0733283333333","6501700","林口區"
"244017","485-VK","2017/07/06 18:17:59","新北市林口區八德路36號","121.36753","25.0665233333333","6501700","林口區"
"244009","656-BX","2017/07/06 18:18:06","新北市林口區中山路255號","121.385375","25.0794916666667","6501700","林口區"
"244011","701-TV","2017/07/06 18:18:05","新北市林口區中正路70號","121.394713333333","25.0773833333333","6501700","林口區"
"244025","837-TS","2017/07/06 18:17:55","新北市林口區文化北路一段289號","121.359795","25.0724683333333","6501700","林口區"
"244021","838-TS","2017/07/06 18:17:52","新北市林口區自強一街48號","121.39934","25.0774883333333","6501700","林口區"
"243013","AAD-798","2017/07/06 18:18:06","新北市泰山區南林路93號","121.415521666667","25.0511533333333","6501600","泰山區"
"243009","297-R6","2017/07/06 16:19:26","新北市泰山區黎明路25號","121.422055","25.0609583333333","6501600","泰山區"
"243016","680-BX","2017/07/06 17:51:23","新北市泰山區黎明路25號","121.42224","25.060785","6501600","泰山區"
"222003","436-BY","2017/07/06 18:17:51","新北市深坑區文山路二段31號","121.61662","24.9988083333333","6501800","深坑區"
"222002","659-BX","2017/07/06 18:18:01","新北市深坑區文化街17巷3弄3號","121.620321666667","25.0011616666667","6501800","深坑區"
"222001","696-SL","2017/07/06 18:17:47","新北市深坑區北深路二段51號","121.619011666667","25.0039366666667","6501800","深坑區"
"231061","001-UM","2017/07/06 18:17:51","新北市新店區安華路28-1號","121.519471666667","24.9608733333333","6500600","新店區"
"231056","0291-UT","2017/07/06 18:18:02","新北市新店區安康路一段107-2號","121.528645","24.9616466666667","6500600","新店區"
"231059","046-UY","2017/07/06 18:17:53","新北市新店區安華路28-1號","121.5196","24.9608666666667","6500600","新店區"
"231060","106-UY","2017/07/06 18:18:07","新北市新店區安華路28-1號","121.519695","24.9606533333333","6500600","新店區"
"231051","107-UY","2017/07/06 18:18:04","新北市新店區安華路28-1號","121.519333333333","24.9612683333333","6500600","新店區"
"231047","108-UY","2017/07/06 16:32:54","新北市新店區安華路28-1號","121.519291666667","24.9610266666667","6500600","新店區"
"231052","187-VK","2017/07/06 18:17:54","新北市新店區安康路一段283號","121.523546666667","24.9635283333333","6500600","新店區"
"231057","256-BX","2017/07/06 18:17:56","新北市新店區安華路28-1號","121.51978","24.961085","6500600","新店區"
"231063","268-BY","2017/07/06 18:18:05","新北市新店區安華路1-1號","121.519415","24.9604466666667","6500600","新店區"
"231046","278-BY","2017/07/06 18:18:07","新北市新店區直潭七街60號","121.532253333333","24.9398083333333","6500600","新店區"
"231050","AAD-862","2017/07/06 18:18:01","新北市新店區安華路28-1號","121.51986","24.9610083333333","6500600","新店區"
"231058","3712-VJ","2017/07/06 18:18:02","新北市新店區環河路27號","121.537303333333","24.9612816666667","6500600","新店區"
"231055","3713-VJ","2017/07/06 18:18:00","新北市新店區安康路一段355-3號","121.519748333333","24.9616483333333","6500600","新店區"
"231067","4772-VM","2017/07/06 18:17:58","新北市新店區安華路28-1號","121.51915","24.96069","6500600","新店區"
"231065","512-UM","2017/07/06 16:02:59","新北市新店區安華路28-1號","121.519255","24.9609633333333","6500600","新店區"
"231054","513-UM","2017/07/06 18:17:55","新北市新店區安華路28-1號","121.519636666667","24.96108","6500600","新店區"
"231064","515-UM","2017/07/06 18:18:02","新北市新店區安華路28-1號","121.519686666667","24.9611016666667","6500600","新店區"
"231042","616-UM","2017/07/06 18:18:01","新北市新店區安華路1-1號","121.51945","24.9604883333333","6500600","新店區"
"231045","617-UM","2017/07/06 18:17:49","新北市新店區安華路28-1號","121.519401666667","24.9607083333333","6500600","新店區"
"231040","619-UM","2017/07/06 18:17:59","新北市新店區安華路28-1號","121.519591666667","24.96069","6500600","新店區"
"231049","719-UM","2017/07/06 18:18:00","新北市新店區安華路28-1號","121.519455","24.9613433333333","6500600","新店區"
"231062","720-UM","2017/07/06 18:18:04","新北市新店區安華路28-1號","121.519051666667","24.9611366666667","6500600","新店區"
"231044","897-TW","2017/07/06 18:18:06","新北市新店區安華路1-1號","121.519475","24.9602633333333","6500600","新店區"
"241033","AAC-255","2017/07/06 18:18:03","新北市三重區中興北街42巷56號","121.467668333333","25.0492233333333","6500200","三重區"
"235066","003-UY","2017/07/06 18:18:04","新北市中和區中山路二段197號","121.499868333333","25.0026133333333","6500300","中和區"
"235056","096-UM","2017/07/06 18:17:58","新北市中和區員山路514號","121.479133333333","25.0089583333333","6500300","中和區"
"235039","097-UM","2017/07/06 18:17:51","新北市中和區中正路305號","121.492385","24.9937083333333","6500300","中和區"
"235065","098-UM","2017/07/06 18:17:51","新北市中和區中山路二段2巷45弄1號","121.502323333333","25.006845","6500300","中和區"
"235040","150-BY","2017/07/06 18:17:54","新北市中和區中正路305號","121.492348333333","24.9937083333333","6500300","中和區"
"235058","151-BY","2017/07/06 18:17:51","新北市中和區圓通路367巷57弄6號","121.49298","24.983755","6500300","中和區"
"235038","185-VK","2017/07/06 18:18:02","新北市中和區景平路112號","121.519708333333","24.9918683333333","6500300","中和區"
"235067","255-BX","2017/07/06 18:18:05","新北市中和區和城路一段271巷1號","121.485403333333","24.9918366666667","6500300","中和區"
"235072","301-VK","2017/07/06 18:17:51","新北市中和區員山路36巷12號","121.48401","24.9907116666667","6500300","中和區"
"235043","352-BY","2017/07/06 18:17:55","新北市中和區中正路281-1號","121.494898333333","24.9937316666667","6500300","中和區"
"235051","376-QA","2017/07/06 18:17:58","新北市中和區捷運路129號","121.507076666667","24.9908466666667","6500300","中和區"
"235068","377-QA","2017/07/06 18:17:15","新北市中和區員山路36巷16-2號","121.485271666667","24.9911616666667","6500300","中和區"
"235061","378-QA","2017/07/06 18:17:59","新北市土城區延壽路20號","121.471301666667","24.99074","6500300","中和區"
"235050","4979-A6","2017/07/06 18:18:07","新北市中和區捷運路61巷9號","121.509241666667","24.9893466666667","6500300","中和區"
"235069","4980-A6","2017/07/06 18:17:56","新北市中和區安邦街43號","121.496276666667","24.997625","6500300","中和區"
"235042","551-UM","2017/07/06 18:17:59","新北市中和區大仁街20巷25弄12號","121.518913333333","24.9935383333333","6500300","中和區"
"235070","558-UM","2017/07/06 18:17:59","新北市中和區中正路450號","121.490796666667","24.99384","6500300","中和區"
"235045","565-BX","2017/07/06 18:18:01","新北市中和區中正路59號","121.501553333333","24.99335","6500300","中和區"
"235054","640-BX","2017/07/06 18:18:01","新北市中和區莒光路207號","121.469925","24.99576","6500300","中和區"
"235071","783-BX","2017/07/06 18:17:55","新北市中和區員山路36巷16-2號","121.485386666667","24.991145","6500300","中和區"
"235062","800-TS","2017/07/06 18:18:04","新北市中和區景平路999巷1號","121.495435","25.006005","6500300","中和區"
"235052","805-TS","2017/07/06 18:18:03","新北市中和區中正路59號","121.501528333333","24.9933916666667","6500300","中和區"
"235053","900-TW","2017/07/06 18:18:00","新北市中和區員山路36巷16-2號","121.485301666667","24.9914366666667","6500300","中和區"
"235063","911-UM","2017/07/06 16:43:06","新北市中和區員山路36巷16-3號","121.485036666667","24.99118","6500300","中和區"
"235037","157-BY","2017/07/06 18:17:57","新北市中和區中正路305號","121.492135","24.9936733333333","6500300","中和區"
"235059","AAC-215","2017/07/06 18:17:54","新北市中和區員山路36巷16-3號","121.485051666667","24.99128","6500300","中和區"
"247006","341-TH","2017/07/06 18:17:54","新北市八里區商港路88-1號","121.39316","25.1496566666667","6501400","蘆洲區"
"247014","057-VK","2017/07/06 18:17:49","新北市八里區中山路三段380號","121.369675","25.1363466666667","6501400","蘆洲區"
"247022","002-UY","2017/07/06 18:17:24","新北市林口區太平里180號","121.36702","25.1337066666667","6501400","蘆洲區"
"226004","205-ST","2017/07/06 18:17:51","新北市平溪區薯榔里薯榔寮31號","121.71018","25.0193683333333","6502400","平溪區"
"226002","7418-A5","2017/07/06 15:39:01","新北市平溪區石底里公園街18-3號","121.733465","25.0256366666667","6502400","平溪區"
"228003","097-TW","2017/07/06 18:17:48","新北市貢寮區真理里美艷山街27號","121.923408333333","25.0689183333333","6502600","貢寮區"
"228001","212-TW","2017/07/06 18:18:06","新北市貢寮區真理里新港街26巷55弄2-1號","121.927373333333","25.0528116666667","6502600","貢寮區"
"228002","585-TW","2017/07/06 18:17:49","新北市貢寮區福連里馬崗街1號","121.998726666667","25.01656","6502600","貢寮區"
"224006","676-BX","2017/07/06 18:17:54","新北市瑞芳區民權街3-2號","121.808091666667","25.1074366666667","6501200","瑞芳區"
"224002","639-TC","2017/07/06 18:17:59","新北市瑞芳區三爪子坑路149巷7號","121.810863333333","25.1064216666667","6501200","瑞芳區"
"224011","420-VK","2017/07/06 18:17:56","新北市瑞芳區崙頂路1-6號","121.847011666667","25.1047383333333","6501200","瑞芳區"
"224009","285-BY","2017/07/06 18:18:04","新北市瑞芳區金光路117號","121.853581666667","25.1062233333333","6501200","瑞芳區"
"224008","275-VK","2017/07/06 18:17:49","新北市瑞芳區逢甲路20-2號","121.809433333333","25.1087583333333","6501200","瑞芳區"
"224007","272-VK","2017/07/06 18:17:50","新北市瑞芳區四腳亭坑路2-4號","121.775171666667","25.1093233333333","6501200","瑞芳區"
"224005","271-BY","2017/07/06 18:18:05","新北市瑞芳區建基路二段110-1號","121.812","25.1326","6501200","瑞芳區"
"227010","642-TC","2017/07/06 18:18:04","新北市雙溪區牡丹里牡丹73號","121.85173","25.0593216666667","6502500","雙溪區"
"227004","400-TW","2017/07/06 18:18:03","新北市雙溪區共和里泰和街1號","121.863638333333","25.033905","6502500","雙溪區"
"253006","032-BX","2017/07/06 18:17:55","新北市石門區老梅路56號","121.546498333333","25.2891266666667","6502200","石門區"
"253005","295-VK","2017/07/06 18:17:52","新北市石門區中央路37-1號","121.56807","25.2949633333333","6502200","石門區"
"208003","665-BX","2017/07/06 18:18:06","新北市金山區民生路192號","121.646551666667","25.2225633333333","6502700","金山區"
"208001","761-BX","2017/07/06 18:18:02","新北市金山區中山路16號","121.64168","25.2179216666667","6502700","金山區"
"251004","009-UM","2017/07/06 18:17:52","新北市淡水區民族路53號","121.463018333333","25.1352266666667","6501000","淡水區"
"251008","181-VK","2017/07/06 18:17:52","新北市淡水區淡金路12號","121.458066666667","25.1600783333333","6501000","淡水區"
"251014","182-VK","2017/07/06 18:18:08","新北市淡水區崙頂16-1號","121.48829","25.2216933333333","6501000","淡水區"
"251010","413-VK","2017/07/06 18:17:57","新北市淡水區淡海路202號","121.420281666667","25.1855066666667","6501000","淡水區"
"251012","441-VK","2017/07/06 18:17:52","新北市淡水區北新路二段77-13號","121.480971666667","25.1855066666667","6501000","淡水區"
"251016","442-VK","2017/07/06 18:17:53","新北市淡水區淡金路三段70巷1號","121.448281666667","25.200425","6501000","淡水區"
"251005","443-VK","2017/07/06 18:17:59","新北市淡水區學府路51巷6弄3號","121.44734","25.1697583333333","6501000","淡水區"
"251001","559-UM","2017/07/06 18:18:09","新北市淡水區自立路1巷33號","121.46234","25.1294583333333","6501000","淡水區"
"251006","561-UM","2017/07/06 18:17:56","新北市淡水區新民街76巷34弄2號","121.439231666667","25.1776133333333","6501000","淡水區"
"251011","650-BX","2017/07/06 18:18:04","新北市淡水區坪頂路82號","121.461183333333","25.163625","6501000","淡水區"
"251002","672-BX","2017/07/06 18:17:53","新北市淡水區中正東路一段129號","121.455753333333","25.1593933333333","6501000","淡水區"
"251003","766-UM","2017/07/06 18:18:01","新北市淡水區北新路180號","121.449511666667","25.1787233333333","6501000","淡水區"
"207003","550-UM","2017/07/06 18:18:07","新北市萬里區野柳里港東新村1-6號","121.68557","25.20312","6502800","萬里區"
"207004","225-TW","2017/07/06 18:17:51","新北市萬里區中幅里中福路131-4號","121.674525","25.1653183333333","6502800","萬里區"
"252002","178-VK","2017/07/06 18:17:55","新北市三芝區中山路二段40號","121.50301","25.255065","6502100","三芝區"
"252003","249-BX","2017/07/06 18:17:52","新北市三芝區錫板里南勢崗2號","121.481235","25.26348","6502100","三芝區"
"252001","702-TV","2017/07/06 18:17:57","新北市三芝區中興街二段2號","121.498325","25.2566083333333","6502100","三芝區"
"252005","AAC-283","2017/07/06 16:14:18","新北市三芝區埔坪里埔頭坑41號","121.504431666667","25.2644783333333","6502100","三芝區"
"208002","170-UY","2017/07/06 18:17:52","新北市金山區清泉里清水路60巷14號","121.6334","25.2342333333333","6502700","金山區"
"237004","078-UY","2017/07/06 18:17:50","新北市三峽區圳頭32號","121.375991666667","24.88799","6500900","三峽區"
"237007","153-BY","2017/07/06 18:18:05","新北市三峽區中正路二段534號","121.360701666667","24.90649","6500900","三峽區"
"237009","210-TH","2017/07/06 18:17:56","新北市三峽區復興路367巷1弄33號","121.364625","24.9381933333333","6500900","三峽區"
"237013","252-BX","2017/07/06 18:17:53","新北市三峽區長泰街76號","121.37676","24.9333483333333","6500900","三峽區"
"237012","275-BY","2017/07/06 18:18:08","新北市三峽區民生街1巷5-81號","121.378206666667","24.9346133333333","6500900","三峽區"
"237008","302-VK","2017/07/06 18:18:00","新北市三峽區白雞64-1號","121.385655","24.9126883333333","6500900","三峽區"
"237014","433-BY","2017/07/06 18:17:52","新北市三峽區國光街81巷3-1號","121.37379","24.938225","6500900","三峽區"
"237006","5529-G3","2017/07/06 18:18:04","新北市三峽區溪東路235號","121.406496666667","24.9326","6500900","三峽區"
"237011","572-TV","2017/07/06 18:18:07","新北市三峽區溪東路182號","121.406673333333","24.9325666666667","6500900","三峽區"
"237016","649-BX","2017/07/06 18:18:05","新北市三峽區紫微路42-1號","121.422253333333","24.9198166666667","6500900","三峽區"
"237010","706-TV","2017/07/06 18:17:59","新北市三峽區民族街3號","121.369161666667","24.9311983333333","6500900","三峽區"
"237005","AKY-6261","2017/07/06 18:17:50","新北市三峽區忠孝街29-3號","121.371218333333","24.9341333333333","6500900","三峽區"
"236071","105-UM","2017/07/06 18:18:02","新北市土城區明德路一段128巷1號","121.463435","24.97913","6501300","土城區"
"236042","107-UM","2017/07/06 18:18:05","新北市土城區裕生路21巷6弄25號","121.448686666667","24.986765","6501300","土城區"
"236078","166-UM","2017/07/06 18:16:53","新北市土城區永安街117號","121.429416666667","24.9642316666667","6501300","土城區"
"236030","253-BX","2017/07/06 18:18:02","新北市土城區中央路二段180巷6-1號","121.441343333333","24.9763833333333","6501300","土城區"
"236026","269-VK","2017/07/06 18:17:55","新北市土城區承天路18號","121.439485","24.963395","6501300","土城區"
"236014","270-VK","2017/07/06 18:18:09","新北市土城區立清街69號","121.460288333333","24.9873083333333","6501300","土城區"
"236037","271-VK","2017/07/06 18:17:58","新北市土城區青雲路483巷2號","121.459211666667","24.9737066666667","6501300","土城區"
"236021","401-BY","2017/07/06 18:18:06","新北市土城區金城路二段23-1號","121.448626666667","24.9768683333333","6501300","土城區"
"236058","912-UM","2017/07/06 18:17:50","新北市土城區中央路四段207號","121.414065","24.9560766666667","6501300","土城區"
"236051","913-UM","2017/07/06 18:18:01","新北市土城區明德路一段398-1號","121.453746666667","24.97888","6501300","土城區"
"236062","915-UM","2017/07/06 18:18:08","新北市土城區金城路三段202-3號","121.469508333333","24.9885216666667","6501300","土城區"
"236053","AAC-216","2017/07/06 18:18:03","新北市土城區中華路二段104號","121.43809","24.9742533333333","6501300","土城區"
"242021","AAC-296","2017/07/06 18:17:54","新北市新莊區新興街38巷2號","121.450738333333","25.037195","6500500","新莊區"
"242029","986-R7","2017/07/06 18:17:58","新北市新莊區中平路202-1號","121.44471","25.0488016666667","6500500","新莊區"
"242025","615-BX","2017/07/06 18:17:59","新北市新莊區五權一路12巷9弄17號","121.457895","25.0652216666667","6500500","新莊區"
"242023","613-BX","2017/07/06 18:18:04","新北市新莊區幸福路904號","121.443105","25.0489266666667","6500500","新莊區"
"242042","497-BY","2017/07/06 18:18:00","新北市新莊區天祥街121巷15號","121.414228333333","25.0290866666667","6500500","新莊區"
"242046","441-UM","2017/07/06 18:17:59","新北市新莊區中正路829巷22弄2號","121.421473333333","25.0271766666667","6500500","新莊區"
"242051","440-UM","2017/07/06 18:17:49","新北市新莊區民本街7號","121.42772","25.0198966666667","6500500","新莊區"
"242031","415-TV","2017/07/06 18:18:06","新北市新莊區新泰路277巷57弄14號","121.442966666667","25.0397816666667","6500500","新莊區"
"242002","413-TV","2017/07/06 18:17:56","新北市新莊區碧江街18-7號","121.45544","25.0346183333333","6500500","新莊區"
"242061","362-BY","2017/07/06 18:18:06","新北市新莊區新樹路110巷2號","121.434995","25.0263816666667","6500500","新莊區"
"242058","353-BY","2017/07/06 18:18:00","新北市新莊區中正路742-2號","121.413511666667","25.0229","6500500","新莊區"
"242011","132-UY","2017/07/06 18:18:00","新北市新莊區中榮街49巷5號","121.449518333333","25.0522516666667","6500500","新莊區"
"242034","133-UY","2017/07/06 18:17:55","新北市新莊區環漢路三段1號","121.442223333333","25.0240216666667","6500500","新莊區"
"242019","135-UY","2017/07/06 18:17:48","新北市新莊區中港路132巷12號","121.455848333333","25.0406516666667","6500500","新莊區"
"242044","172-VK","2017/07/06 18:17:59","新北市新莊區中山路三段533巷1號","121.413061666667","25.02773","6500500","新莊區"
"242007","173-VK","2017/07/06 18:18:02","新北市新莊區自立街79巷16號","121.454531666667","25.0460033333333","6500500","新莊區"
"242056","176-VK","2017/07/06 18:17:49","新北市新莊區瓊林路42-1號","121.447526666667","25.0295716666667","6500500","新莊區"
"242003","233-RS","2017/07/06 08:29:03","新北市新莊區環河路48-7號","121.436943333333","25.0097833333333","6500500","新莊區"
"242017","348-TH","2017/07/06 18:17:52","新北市新莊區中華路一段182號","121.452706666667","25.0422016666667","6500500","新莊區"
"242053","349-TH","2017/07/06 18:17:52","新北市新莊區民安西路410巷1弄2號","121.428676666667","25.0096816666667","6500500","新莊區"
"238015","755-BX","2017/07/06 18:18:05","新北市樹林區大安路323巷10弄15號","121.417141666667","24.9908666666667","6500700","樹林區"
"238023","601-UM","2017/07/06 18:18:06","新北市樹林區三寶街7號","121.406608333333","25.0156","6500700","樹林區"
"238006","599-UM","2017/07/06 18:17:50","新北市樹林區八德街119號","121.421528333333","24.9799116666667","6500700","樹林區"
"238018","571-TV","2017/07/06 18:17:59","新北市樹林區博愛一街23號","121.425451666667","24.990985","6500700","樹林區"
"238024","5061-A6","2017/07/06 18:18:03","新北市樹林區文化街12號","121.420003333333","24.9872733333333","6500700","樹林區"
"238021","311-TH","2017/07/06 17:52:25","新北市樹林區柑園街一段253巷26號","121.39693","24.95348","6500700","樹林區"
"238025","303-VK","2017/07/06 18:18:09","新北市樹林區保安街二段53號","121.416186666667","25.0003183333333","6500700","樹林區"
"238017","283-BY","2017/07/06 18:17:55","新北市樹林區保安街二段333巷1號","121.411855","25.007335","6500700","樹林區"
"238014","282-BY","2017/07/06 18:17:53","新北市樹林區千歲街59號","121.424953333333","24.9985833333333","6500700","樹林區"
"238020","268-VK","2017/07/06 18:17:53","新北市樹林區三龍街80巷15號","121.41398","25.0180566666667","6500700","樹林區"
"238026","172-UY","2017/07/06 18:17:58","新北市樹林區佳園路一段41巷38-3號","121.395115","24.970515","6500700","樹林區"
"238016","169-UY","2017/07/06 18:17:52","新北市樹林區文化街31號","121.418686666667","24.9879583333333","6500700","樹林區"
"239007","AAC-297","2017/07/06 18:17:56","新北市鶯歌區育英街57號","121.347093333333","24.952575","6500800","鶯歌區"
"239006","891-R6","2017/07/06 18:17:50","新北市鶯歌區鶯桃路365巷8號","121.33323","24.9628416666667","6500800","鶯歌區"
"239008","527-UM","2017/07/06 18:18:03","新北市鶯歌區國際一路14號","121.336171666667","24.976525","6500800","鶯歌區"
"239005","526-UM","2017/07/06 18:17:51","新北市鶯歌區鶯桃路668巷73號","121.329908333333","24.97174","6500800","鶯歌區"
"239001","417-VK","2017/07/06 18:18:03","新北市鶯歌區國中街197號","121.338243333333","24.9391616666667","6500800","鶯歌區"
"239003","360-BY","2017/07/06 18:18:05","新北市鶯歌區福安街58號","121.335596666667","24.965155","6500800","鶯歌區"
"239002","359-BY","2017/07/06 18:18:05","新北市鶯歌區國慶街78號","121.350208333333","24.9547316666667","6500800","鶯歌區"
"221008","489-VK","2017/07/06 18:17:57","新北市汐止區康寧街604號","121.635895","25.0705933333333","6501100","汐止區"
"221036","130-UY","2017/07/06 18:17:57","新北市汐止區長安路11號","121.66756","25.077735","6501100","汐止區"
"221015","131-UY","2017/07/06 18:18:02","新北市汐止區鄉長路二段23巷19號","121.668045","25.0828116666667","6501100","汐止區"
"221010","269-BY","2017/07/06 18:18:04","新北市汐止區祥雲街2號","121.645695","25.0895333333333","6501100","汐止區"
"221010","276-VK","2017/07/06 13:16:58","新北市汐止區汐萬路一段256巷3號","121.653446666667","25.0745783333333","6501100","汐止區"
"221031","277-VK","2017/07/06 00:12:29","新北市汐止區汐萬路一段256巷3號","121.652538333333","25.0745033333333","6501100","汐止區"
"221012","278-VK","2017/07/06 18:17:53","新北市汐止區保長路35巷15弄5號","121.673046666667","25.0802766666667","6501100","汐止區"
"221023","279-VK","2017/07/06 18:17:50","新北市汐止區明峰街206號","121.627541666667","25.0694083333333","6501100","汐止區"
"221032","280-BY","2017/07/06 18:18:06","新北市汐止區橫科路61號","121.618678333333","25.0508483333333","6501100","汐止區"
"221027","281-BY","2017/07/06 18:18:02","新北市汐止區和平街3-1號","121.663421666667","25.0707283333333","6501100","汐止區"
"221038","297-VK","2017/07/06 18:18:03","新北市汐止區仁愛路202號","121.664841666667","25.0658316666667","6501100","汐止區"
"221029","298-VK","2017/07/06 18:17:55","新北市汐止區樟樹二路355號","121.644411666667","25.0744233333333","6501100","汐止區"
"221021","299-VK","2017/07/06 18:00:25","新北市汐止區連興街2號","121.65626","25.0639016666667","6501100","汐止區"
"221035","622-UM","2017/07/06 18:17:51","新北市汐止區大同路二段169巷40-1號","121.650295","25.0652033333333","6501100","汐止區"
"221025","623-UM","2017/07/06 18:18:00","新北市汐止區勤進路12巷29號","121.659223333333","25.0623783333333","6501100","汐止區"
"221033","647-BX","2017/07/06 18:18:04","新北市汐止區宜興街40巷2號","121.622075","25.0419116666667","6501100","汐止區"
"221002","707-TV","2017/07/06 18:17:58","新北市汐止區福德一路201巷32號","121.635868333333","25.064875","6501100","汐止區"
"221018","753-BX","2017/07/06 18:18:06","新北市汐止區茄苳路88巷6弄32號","121.66666","25.070025","6501100","汐止區"
