"lineid","car","time","location","longitude","latitude","cityid","cityname"
"234013","149-BY","2017/07/06 18:28:08","新北市永和區福和路1號","121.526221666667","25.0096133333333","6500400","永和區"
"234081","298-R6","2017/07/06 18:28:01","新北市永和區環河東路二段92號","121.524423333333","25.0106233333333","6500400","永和區"
"234042","862-TW","2017/07/06 18:27:50","新北市永和區福和路1號","121.526503333333","25.0096883333333","6500400","永和區"
"234026","9372-KE","2017/07/06 18:27:57","新北市永和區中山路一段211號","121.508735","25.008445","6500400","永和區"
"234011","9373-KE","2017/07/06 18:28:07","新北市永和區保福路二段158巷1號","121.509143333333","25.0150466666667","6500400","永和區"
"249005","172-UM","2017/07/06 18:28:08","新北市八里區中華路三段55號","121.3949","25.14129","6502300","八里區"
"249001","173-UM","2017/07/06 18:28:02","新北市八里區龍米路一段96號","121.453653333333","25.1241916666667","6502300","八里區"
"249004","303-UY","2017/07/06 18:28:00","新北市八里區文心街146號","121.42547","25.161245","6502300","八里區"
"249002","305-UY","2017/07/06 18:28:05","新北市八里區龍形三街26號","121.448135","25.1316483333333","6502300","八里區"
"248016","026-BX","2017/07/06 18:28:00","新北市五股區凌雲路一段83巷20號","121.450121666667","25.1006166666667","6501500","五股區"
"248006","077-UY","2017/07/06 18:28:02","新北市五股區四維路60號","121.467353333333","25.0722283333333","6501500","五股區"
"248008","095-VK","2017/07/06 18:28:01","新北市五股區中興路二段88號","121.461028333333","25.078705","6501500","五股區"
"248020","225-UY","2017/07/06 18:28:00","新北市五股區孝義路53號","121.45379","25.1120866666667","6501500","五股區"
"248012","247-BX","2017/07/06 15:18:16","新北市五股區中興路二段37巷24號","121.460731666667","25.0749816666667","6501500","五股區"
"248014","261-SL","2017/07/06 18:28:00","新北市五股區自強路142號","121.432251666667","25.07081","6501500","五股區"
"248010","272-BY","2017/07/06 18:27:51","新北市五股區水碓路11號","121.433606666667","25.0723866666667","6501500","五股區"
"248004","677-BX","2017/07/06 18:28:01","新北市五股區工商路146-5號","121.434373333333","25.0868816666667","6501500","五股區"
"248002","678-BX","2017/07/06 18:27:59","新北市五股區西雲路116-5號","121.444718333333","25.0935333333333","6501500","五股區"
"234077","969-R7","2017/07/06 18:28:04","新北市永和區福和路1號","121.526655","25.009715","6500400","永和區"
"244013","069-UM","2017/07/06 18:27:51","新北市林口區佳林路101巷36號","121.387041666667","25.0799883333333","6501700","林口區"
"244007","080-UY","2017/07/06 18:28:07","新北市林口區台電新村48號","121.386476666667","25.08666","6501700","林口區"
"244019","403-UM","2017/07/06 18:28:06","新北市林口區忠孝路569巷6號","121.373926666667","25.0686683333333","6501700","林口區"
"244023","483-VK","2017/07/06 18:27:59","新北市林口區仁愛路二段62巷10號","121.383638333333","25.0760416666667","6501700","林口區"
"244017","485-VK","2017/07/06 18:27:59","新北市林口區八德路48巷33號","121.367056666667","25.067525","6501700","林口區"
"244009","656-BX","2017/07/06 18:28:06","新北市林口區文林二街30號","121.376251666667","25.087955","6501700","林口區"
"244011","701-TV","2017/07/06 18:28:05","新北市林口區中原街13-1號","121.392793333333","25.077835","6501700","林口區"
"244025","837-TS","2017/07/06 18:27:55","新北市林口區南勢六街55號","121.355826666667","25.071575","6501700","林口區"
"244021","838-TS","2017/07/06 18:27:52","新北市林口區自強三街31號","121.398263333333","25.0772816666667","6501700","林口區"
"243013","AAD-798","2017/07/06 18:28:06","新北市泰山區工專路36號","121.423323333333","25.0399416666667","6501600","泰山區"
"243009","297-R6","2017/07/06 16:19:26","新北市泰山區黎明路25號","121.422055","25.0609583333333","6501600","泰山區"
"243016","680-BX","2017/07/06 17:51:23","新北市泰山區黎明路25號","121.42224","25.060785","6501600","泰山區"
"222003","436-BY","2017/07/06 18:27:51","新北市深坑區旺耽路39巷13號","121.628233333333","25.0035983333333","6501800","深坑區"
"222002","659-BX","2017/07/06 18:28:01","新北市深坑區雲鄉路167號","121.621766666667","24.9980533333333","6501800","深坑區"
"222001","696-SL","2017/07/06 18:28:07","新北市深坑區北深路一段199號","121.630385","25.00893","6501800","深坑區"
"231061","001-UM","2017/07/06 18:27:51","新北市新店區安華路28-1號","121.51944","24.9608783333333","6500600","新店區"
"231056","0291-UT","2017/07/06 18:28:02","新北市新店區中正路429-1號","121.534091666667","24.978265","6500600","新店區"
"231059","046-UY","2017/07/06 18:27:53","新北市新店區安華路28-1號","121.519531666667","24.96084","6500600","新店區"
"231060","106-UY","2017/07/06 18:28:07","新北市新店區安華路28-1號","121.51954","24.9606866666667","6500600","新店區"
"231051","107-UY","2017/07/06 18:28:04","新北市新店區安華路28-1號","121.5192","24.961305","6500600","新店區"
"231047","108-UY","2017/07/06 16:32:54","新北市新店區安華路28-1號","121.519291666667","24.9610266666667","6500600","新店區"
"231052","187-VK","2017/07/06 18:27:54","新北市新店區北宜路一段224號","121.544451666667","24.95311","6500600","新店區"
"231057","256-BX","2017/07/06 18:27:56","新北市新店區北新路一段89號","121.5388","24.9615816666667","6500600","新店區"
"231063","268-BY","2017/07/06 18:28:05","新北市新店區安華路1-1號","121.51935","24.9605466666667","6500600","新店區"
"231046","278-BY","2017/07/06 18:28:07","新北市新店區直潭七街60號","121.532256666667","24.9397966666667","6500600","新店區"
"231050","AAD-862","2017/07/06 18:28:01","新北市新店區安華路28-1號","121.52009","24.9611816666667","6500600","新店區"
"231058","3712-VJ","2017/07/06 18:28:02","新北市新店區新店後街114號","121.537653333333","24.9554816666667","6500600","新店區"
"231055","3713-VJ","2017/07/06 18:28:00","新北市新店區中正路128巷11號","121.542523333333","24.9720066666667","6500600","新店區"
"231067","4772-VM","2017/07/06 18:27:58","新北市新店區安華路28-1號","121.519151666667","24.9606666666667","6500600","新店區"
"231065","512-UM","2017/07/06 18:27:55","新北市新店區安康路一段355-3號","121.519761666667","24.9623483333333","6500600","新店區"
"231054","513-UM","2017/07/06 18:27:55","新北市新店區安華路28-1號","121.519611666667","24.9610766666667","6500600","新店區"
"231064","515-UM","2017/07/06 18:28:02","新北市新店區安華路28-1號","121.519623333333","24.9609633333333","6500600","新店區"
"231042","616-UM","2017/07/06 18:28:01","新北市新店區安康路一段355-10號","121.52065","24.9638133333333","6500600","新店區"
"231045","617-UM","2017/07/06 18:27:49","新北市新店區安華路28-1號","121.519415","24.960795","6500600","新店區"
"231040","619-UM","2017/07/06 18:27:59","新北市新店區安華路28-1號","121.519455","24.9606833333333","6500600","新店區"
"231049","719-UM","2017/07/06 18:28:00","新北市新店區安華路28-1號","121.519456666667","24.961265","6500600","新店區"
"231062","720-UM","2017/07/06 18:28:04","新北市新店區安華路28-1號","121.519128333333","24.9611783333333","6500600","新店區"
"231044","897-TW","2017/07/06 18:28:06","新北市新店區安華路1-1號","121.519398333333","24.9603316666667","6500600","新店區"
"231043","899-TW","2017/07/06 18:27:52","新北市新店區安華路28-1號","121.51938","24.9608283333333","6500600","新店區"
"231066","AKT-0513","2017/07/06 18:28:03","新北市新店區安華路1-1號","121.519308333333","24.9603083333333","6500600","新店區"
"235066","003-UY","2017/07/06 18:28:03","新北市中和區中山路二段122號","121.502541666667","25.003615","6500300","中和區"
"235056","096-UM","2017/07/06 18:27:58","新北市中和區員山路611巷1號","121.477965","25.0112966666667","6500300","中和區"
"235039","097-UM","2017/07/06 18:27:51","新北市中和區景新街145號","121.506445","24.9966333333333","6500300","中和區"
"235065","098-UM","2017/07/06 18:27:51","新北市中和區莊敬路49巷18號","121.501651666667","25.0061183333333","6500300","中和區"
"235040","150-BY","2017/07/06 18:27:54","新北市中和區安平路38號","121.50981","24.9949216666667","6500300","中和區"
"235058","151-BY","2017/07/06 18:27:51","新北市中和區圓通路369巷39-20號","121.490158333333","24.985105","6500300","中和區"
"235055","183-VK","2017/07/06 18:28:02","新北市中和區員山路419號","121.481026666667","25.00329","6500300","中和區"
"235038","185-VK","2017/07/06 18:28:02","新北市中和區大智街125號","121.524043333333","24.9926133333333","6500300","中和區"
"235049","186-VK","2017/07/06 18:28:03","新北市中和區景平路369號","121.504323333333","24.9933216666667","6500300","中和區"
"235067","255-BX","2017/07/06 18:28:05","新北市中和區和城路一段271巷1號","121.485416666667","24.9919616666667","6500300","中和區"
"235072","301-VK","2017/07/06 18:27:51","新北市中和區連城路301號","121.489878333333","24.9964033333333","6500300","中和區"
"235043","352-BY","2017/07/06 18:27:55","新北市中和區景平路349號","121.504978333333","24.9932966666667","6500300","中和區"
"235051","376-QA","2017/07/06 18:28:04","新北市中和區忠孝街17號","121.510158333333","24.9828233333333","6500300","中和區"
"235068","377-QA","2017/07/06 18:27:55","新北市中和區錦和路350-1號","121.490726666667","24.99353","6500300","中和區"
"235061","378-QA","2017/07/06 18:27:59","新北市中和區民享街116巷24號","121.47357","24.999065","6500300","中和區"
"235050","4979-A6","2017/07/06 18:28:07","新北市中和區景新街362巷3號","121.512025","24.99015","6500300","中和區"
"235069","4980-A6","2017/07/06 18:27:56","新北市中和區連城路103號","121.496421666667","24.9997233333333","6500300","中和區"
"235042","551-UM","2017/07/06 18:27:59","新北市中和區景平路64巷15號","121.522193333333","24.9913183333333","6500300","中和區"
"235070","558-UM","2017/07/06 18:27:59","新北市中和區圓通路165-1號","121.497835","24.9953183333333","6500300","中和區"
"235045","565-BX","2017/07/06 18:28:01","新北市中和區復興路51號","121.504616666667","24.9899116666667","6500300","中和區"
"235054","640-BX","2017/07/06 18:28:01","新北市中和區民享街119巷2號","121.474498333333","24.9987033333333","6500300","中和區"
"235060","647-TV","2017/07/06 18:27:49","新北市中和區員山路139號","121.481","24.9960083333333","6500300","中和區"
"235047","732-UM","2017/07/06 18:27:54","新北市中和區中興街139號","121.499953333333","24.9913416666667","6500300","中和區"
"235046","733-UM","2017/07/06 18:27:52","新北市中和區錦和路216號","121.490293333333","24.99428","6500300","中和區"
"235071","783-BX","2017/07/06 18:27:55","新北市中和區員山路36巷16-2號","121.485415","24.9911683333333","6500300","中和區"
"235062","800-TS","2017/07/06 18:28:04","新北市中和區景平路752號","121.4966","25.0045516666667","6500300","中和區"
"235057","801-TS","2017/07/06 18:27:53","新北市中和區民安街178號","121.476565","25.0000233333333","6500300","中和區"
"235041","802-TS","2017/07/06 18:28:04","新北市中和區員山路36巷16-2號","121.48522","24.9917966666667","6500300","中和區"
"235052","805-TS","2017/07/06 18:28:03","新北市中和區興南路二段94號","121.505251666667","24.9842283333333","6500300","中和區"
"235048","896-TW","2017/07/06 18:27:53","新北市中和區中正路291號","121.493571666667","24.9937233333333","6500300","中和區"
"235053","900-TW","2017/07/06 18:28:00","新北市中和區中正路637巷52弄1號","121.485383333333","24.993685","6500300","中和區"
"235063","911-UM","2017/07/06 18:28:06","新北市中和區中正路504號","121.48877","24.9943233333333","6500300","中和區"
"235037","157-BY","2017/07/06 18:27:56","新北市中和區景平路151巷5號","121.514041666667","24.9918083333333","6500300","中和區"
"235059","AAC-215","2017/07/06 18:27:54","新北市中和區員山路36巷16-3號","121.484951666667","24.991205","6500300","中和區"
"220086","073-UY","2017/07/06 18:28:03","新北市板橋區華東街1-10號","121.448266666667","24.99503","6500100","板橋區"
"247006","341-TH","2017/07/06 18:27:54","新北市八里區中山路三段409號","121.369258333333","25.1344683333333","6501400","蘆洲區"
"247014","057-VK","2017/07/06 18:27:49","新北市五股區凌雲路二段18巷64-3號","121.441515","25.1062266666667","6501400","蘆洲區"
"247022","002-UY","2017/07/06 18:28:04","新北市八里區中華路三段27號","121.396535","25.143075","6501400","蘆洲區"
"226004","205-ST","2017/07/06 18:27:51","新北市平溪區靜安路二段240號","121.724636666667","25.0219883333333","6502400","平溪區"
"226002","7418-A5","2017/07/06 15:39:01","新北市平溪區石底里公園街18-3號","121.733465","25.0256366666667","6502400","平溪區"
"228003","097-TW","2017/07/06 18:27:48","新北市貢寮區和美里和美街39號","121.912335","25.08935","6502600","貢寮區"
"228001","212-TW","2017/07/06 18:27:46","新北市貢寮區仁理村仁義街4號","121.923688333333","25.052095","6502600","貢寮區"
"228002","585-TW","2017/07/06 18:28:09","新北市貢寮區福連里福連街1號","121.988271666667","25.0156066666667","6502600","貢寮區"
"224006","676-BX","2017/07/06 18:27:54","新北市瑞芳區明燈路二段40-1號","121.810008333333","25.1076016666667","6501200","瑞芳區"
"224002","639-TC","2017/07/06 18:27:59","新北市瑞芳區正貿新村21號","121.813116666667","25.10581","6501200","瑞芳區"
"224011","420-VK","2017/07/06 18:27:56","新北市瑞芳區崙頂路1-6號","121.84706","25.1046983333333","6501200","瑞芳區"
"224009","285-BY","2017/07/06 18:28:04","新北市瑞芳區五號路4號","121.854791666667","25.1103683333333","6501200","瑞芳區"
"224008","275-VK","2017/07/06 18:28:09","新北市瑞芳區逢甲路242號","121.805431666667","25.11042","6501200","瑞芳區"
"224007","272-VK","2017/07/06 18:27:50","新北市瑞芳區大埔路吉慶公園城7號","121.76544","25.1002816666667","6501200","瑞芳區"
"224005","271-BY","2017/07/06 18:27:52","新北市瑞芳區建基新村7-4號","121.812565","25.1313716666667","6501200","瑞芳區"
"227010","642-TC","2017/07/06 18:28:04","新北市雙溪區牡丹里牡丹159號","121.851828333333","25.0588216666667","6502500","雙溪區"
"227004","400-TW","2017/07/06 18:27:59","新北市雙溪區魚行里新店45號","121.86952","25.03112","6502500","雙溪區"
"253006","032-BX","2017/07/06 18:27:55","新北市石門區公地20-1號","121.545803333333","25.290175","6502200","石門區"
"253005","295-VK","2017/07/06 18:27:52","新北市石門區中央路1-17號","121.560901666667","25.2908916666667","6502200","石門區"
"208003","665-BX","2017/07/06 18:27:58","新北市金山區中山路162號","121.638445","25.220995","6502700","金山區"
"208001","761-BX","2017/07/06 18:27:42","新北市金山區溫泉路21巷1號","121.637803333333","25.22284","6502700","金山區"
"251004","009-UM","2017/07/06 18:24:32","新北市淡水區民生路135巷10號","121.465853333333","25.1392116666667","6501000","淡水區"
"251008","181-VK","2017/07/06 18:27:52","新北市淡水區水源街二段346巷1弄1號","121.464371666667","25.17548","6501000","淡水區"
"251014","182-VK","2017/07/06 18:28:07","新北市淡水區南平20號","121.494365","25.2176883333333","6501000","淡水區"
"251010","413-VK","2017/07/06 18:27:57","新北市淡水區沙崙路181巷2-2號","121.424173333333","25.1841733333333","6501000","淡水區"
"251012","441-VK","2017/07/06 18:27:52","新北市淡水區北新路一段337號","121.466146666667","25.1822483333333","6501000","淡水區"
"251016","442-VK","2017/07/06 18:27:53","新北市淡水區下圭柔山70-10號","121.44697","25.2068683333333","6501000","淡水區"
"251001","559-UM","2017/07/06 18:28:03","新北市淡水區自強路118號","121.463813333333","25.1326316666667","6501000","淡水區"
"251006","561-UM","2017/07/06 18:27:56","新北市淡水區新生街51巷22號","121.440635","25.1755333333333","6501000","淡水區"
"251011","650-BX","2017/07/06 18:28:04","新北市淡水區中正東路38-1號","121.449331666667","25.1657033333333","6501000","淡水區"
"251002","672-BX","2017/07/06 18:27:53","新北市淡水區竿蓁二街52-1號","121.454508333333","25.1631133333333","6501000","淡水區"
"251003","766-UM","2017/07/06 18:28:01","新北市淡水區北新路69巷26號","121.446765","25.1801016666667","6501000","淡水區"
"207003","550-UM","2017/07/06 18:28:01","新北市萬里區野柳里港東路162-15號","121.690521666667","25.2040716666667","6502800","萬里區"
"207004","225-TW","2017/07/06 18:28:04","新北市萬里區萬里里瑪鋉路252號","121.689016666667","25.1806466666667","6502800","萬里區"
"252002","178-VK","2017/07/06 18:27:55","新北市三芝區中山路二段39號","121.502931666667","25.255115","6502100","三芝區"
"252003","249-BX","2017/07/06 18:27:51","新北市三芝區後厝里北勢子20-6號","121.473006666667","25.253485","6502100","三芝區"
"252001","702-TV","2017/07/06 18:27:57","新北市三芝區中興街二段2號","121.498298333333","25.256625","6502100","三芝區"
"252005","AAC-283","2017/07/06 16:14:18","新北市三芝區埔坪里埔頭坑41號","121.504431666667","25.2644783333333","6502100","三芝區"
"208002","170-UY","2017/07/06 18:27:52","新北市金山區磺清路135號","121.639423333333","25.2274583333333","6502700","金山區"
"237004","078-UY","2017/07/06 18:27:50","新北市三峽區五寮89-7號","121.359185","24.85612","6500900","三峽區"
"237007","153-BY","2017/07/06 18:28:05","新北市三峽區中正路三段118號","121.355166666667","24.9034633333333","6500900","三峽區"
"237009","210-TH","2017/07/06 18:27:56","新北市三峽區中山路154號","121.364983333333","24.9365116666667","6500900","三峽區"
"237013","252-BX","2017/07/06 18:27:53","新北市三峽區長泰街2號","121.378721666667","24.930725","6500900","三峽區"
"237012","275-BY","2017/07/06 18:28:08","新北市三峽區三樹路50號","121.377733333333","24.9378","6500900","三峽區"
"237008","302-VK","2017/07/06 18:28:00","新北市三峽區白雞68-285號","121.391565","24.9072116666667","6500900","三峽區"
"237014","433-BY","2017/07/06 18:27:52","新北市三峽區復興路80巷14弄2號","121.373536666667","24.9376466666667","6500900","三峽區"
"237006","5529-G3","2017/07/06 18:28:04","新北市三峽區溪東路473巷4號","121.413968333333","24.928215","6500900","三峽區"
"237011","572-TV","2017/07/06 18:28:07","新北市三峽區溪東路354號","121.413378333333","24.928035","6500900","三峽區"
"237016","649-BX","2017/07/06 18:28:05","新北市三峽區竹崙路152號","121.434686666667","24.9084133333333","6500900","三峽區"
"237010","706-TV","2017/07/06 18:28:08","新北市三峽區中山路276號","121.361325","24.93782","6500900","三峽區"
"237005","AKY-6261","2017/07/06 18:27:50","新北市三峽區民族街5巷18號","121.369786666667","24.93167","6500900","三峽區"
"236071","105-UM","2017/07/06 18:27:53","新北市土城區永豐路255巷21弄1號","121.475096666667","24.9739366666667","6501300","土城區"
"236042","107-UM","2017/07/06 18:28:05","新北市土城區學成路97巷20號","121.449888333333","24.987945","6501300","土城區"
"236078","166-UM","2017/07/06 18:27:53","新北市土城區中央路四段25-7號","121.42469","24.9623533333333","6501300","土城區"
"236030","253-BX","2017/07/06 18:28:06","新北市土城區水源街81巷13號","121.439298333333","24.9755816666667","6501300","土城區"
"236026","269-VK","2017/07/06 18:27:55","新北市土城區南天母路94號","121.44801","24.9517383333333","6501300","土城區"
"236014","270-VK","2017/07/06 18:28:09","新北市土城區立清街69號","121.460263333333","24.9873016666667","6501300","土城區"
"236037","271-VK","2017/07/06 18:27:50","新北市土城區青雲路483巷13弄25號","121.46026","24.97448","6501300","土城區"
"236021","401-BY","2017/07/06 18:28:06","新北市土城區永豐路202巷7號","121.466316666667","24.983225","6501300","土城區"
"236058","912-UM","2017/07/06 18:27:50","新北市土城區中央路四段466號","121.409981666667","24.9505316666667","6501300","土城區"
"236051","913-UM","2017/07/06 18:28:01","新北市土城區青雲路553號","121.458898333333","24.9723083333333","6501300","土城區"
"236062","915-UM","2017/07/06 18:28:08","新北市土城區延壽路109巷9號","121.46849","24.993225","6501300","土城區"
"236053","AAC-216","2017/07/06 18:27:51","新北市土城區中華路二段189號","121.438395","24.9745233333333","6501300","土城區"
"242029","986-R7","2017/07/06 18:27:58","新北市新莊區新泰路255巷83號","121.442121666667","25.03908","6500500","新莊區"
"242042","497-BY","2017/07/06 18:28:00","新北市新莊區天祥街81巷24號","121.415068333333","25.0285666666667","6500500","新莊區"
"242046","441-UM","2017/07/06 18:27:59","新北市新莊區中正路803巷47號","121.422231666667","25.027885","6500500","新莊區"
"242031","415-TV","2017/07/06 18:27:46","新北市新莊區新泰路357巷3弄1號","121.442405","25.0413716666667","6500500","新莊區"
"242002","413-TV","2017/07/06 18:27:56","新北市新莊區瓊林路13-3號","121.448891666667","25.03095","6500500","新莊區"
"242061","362-BY","2017/07/06 18:28:06","新北市新莊區四維路23號","121.42407","25.02381","6500500","新莊區"
"242058","353-BY","2017/07/06 18:28:00","新北市新莊區中正路895號","121.412365","25.0220433333333","6500500","新莊區"
"242011","132-UY","2017/07/06 18:28:00","新北市新莊區中榮街80號","121.448125","25.0527266666667","6500500","新莊區"
"242034","133-UY","2017/07/06 18:27:55","新北市板橋區金門街215巷57弄40-2號","121.43506","24.9903083333333","6500500","新莊區"
"242044","172-VK","2017/07/06 18:27:59","新北市新莊區中正路新旺巷28號","121.416111666667","25.0228933333333","6500500","新莊區"
"242003","233-RS","2017/07/06 08:29:03","新北市新莊區環河路48-7號","121.436943333333","25.0097833333333","6500500","新莊區"
"242053","349-TH","2017/07/06 18:27:52","新北市新莊區新樹路593號","121.432955","25.0064866666667","6500500","新莊區"
"238015","755-BX","2017/07/06 18:28:05","新北市樹林區啟智街157號","121.416075","24.9877566666667","6500700","樹林區"
"238023","601-UM","2017/07/06 18:28:06","新北市樹林區忠義街18號","121.409476666667","25.0142633333333","6500700","樹林區"
"238006","599-UM","2017/07/06 18:27:50","新北市樹林區中華路190-16號","121.411826666667","24.98059","6500700","樹林區"
"238018","571-TV","2017/07/06 18:27:59","新北市樹林區樹新路28巷12號","121.42749","24.9941633333333","6500700","樹林區"
"238024","5061-A6","2017/07/06 18:28:03","新北市樹林區中山路一段115-21號","121.423381666667","24.990215","6500700","樹林區"
"238021","311-TH","2017/07/06 17:52:25","新北市樹林區柑園街一段253巷26號","121.39693","24.95348","6500700","樹林區"
"238025","303-VK","2017/07/06 18:27:49","新北市樹林區保安二街37號","121.424798333333","24.9940866666667","6500700","樹林區"
"238020","268-VK","2017/07/06 18:27:52","新北市樹林區中正路642巷18號","121.411351666667","25.0174283333333","6500700","樹林區"
"238026","172-UY","2017/07/06 18:27:58","新北市樹林區八德街820號","121.394701666667","24.9687683333333","6500700","樹林區"
"238016","169-UY","2017/07/06 18:27:52","新北市樹林區日新街148巷35號","121.419511666667","24.9878166666667","6500700","樹林區"
"239007","AAC-297","2017/07/06 18:27:56","新北市鶯歌區重慶街84號","121.348611666667","24.9520116666667","6500800","鶯歌區"
"239006","891-R6","2017/07/06 18:27:50","新北市鶯歌區鶯桃路342號","121.333958333333","24.9623716666667","6500800","鶯歌區"
"239008","527-UM","2017/07/06 18:28:03","新北市鶯歌區國際一路179號","121.336215","24.97652","6500800","鶯歌區"
"239005","526-UM","2017/07/06 18:27:51","新北市鶯歌區鶯桃路668巷23號","121.329011666667","24.97028","6500800","鶯歌區"
"239001","417-VK","2017/07/06 18:28:03","新北市鶯歌區二甲路光照巷2號","121.338435","24.9403766666667","6500800","鶯歌區"
"239003","360-BY","2017/07/06 18:28:05","新北市鶯歌區福安街58號","121.335595","24.9651783333333","6500800","鶯歌區"
"239002","359-BY","2017/07/06 18:28:05","新北市鶯歌區中正一路127巷8號","121.352146666667","24.9555916666667","6500800","鶯歌區"
"239004","193-VK","2017/07/06 18:27:57","新北市鶯歌區中正二路161號","121.344835","24.949295","6500800","鶯歌區"
"221008","489-VK","2017/07/06 18:27:57","新北市汐止區康寧街901號","121.651395","25.075","6501100","汐止區"
"221036","130-UY","2017/07/06 18:27:57","新北市汐止區長興街一段35號","121.669718333333","25.0794416666667","6501100","汐止區"
"221015","131-UY","2017/07/06 18:28:02","新北市汐止區鄉友街50號","121.669245","25.0817116666667","6501100","汐止區"
"221010","269-BY","2017/07/06 18:28:04","新北市汐止區汐萬路三段252-1號","121.643151666667","25.1015516666667","6501100","汐止區"
"221010","276-VK","2017/07/06 13:16:58","新北市汐止區汐萬路一段256巷3號","121.653446666667","25.0745783333333","6501100","汐止區"
"221031","277-VK","2017/07/06 00:12:29","新北市汐止區汐萬路一段256巷3號","121.652538333333","25.0745033333333","6501100","汐止區"
"221012","278-VK","2017/07/06 18:28:04","新北市汐止區保長路51巷3號","121.673455","25.0788616666667","6501100","汐止區"
"221023","279-VK","2017/07/06 18:27:50","新北市汐止區康寧街398號","121.629713333333","25.06776","6501100","汐止區"
"221032","280-BY","2017/07/06 18:28:06","新北市汐止區福山街62巷12號","121.618361666667","25.0465016666667","6501100","汐止區"
"221027","281-BY","2017/07/06 18:28:02","新北市汐止區和平街34-2號","121.662673333333","25.0708283333333","6501100","汐止區"
"221038","297-VK","2017/07/06 18:28:03","新北市汐止區新昌路55號","121.663276666667","25.06873","6501100","汐止區"
"221029","298-VK","2017/07/06 18:27:55","新北市汐止區樟樹二路349號","121.642428333333","25.0735383333333","6501100","汐止區"
"221021","299-VK","2017/07/06 18:00:25","新北市汐止區連興街2號","121.65626","25.0639016666667","6501100","汐止區"
"221035","622-UM","2017/07/06 18:27:51","新北市汐止區大同路二段167-1號","121.651006666667","25.0641233333333","6501100","汐止區"
"221025","623-UM","2017/07/06 18:28:00","新北市汐止區仁愛路28號","121.660113333333","25.0628716666667","6501100","汐止區"
"221033","647-BX","2017/07/06 18:27:56","新北市汐止區宜興街59巷3號","121.622263333333","25.0427816666667","6501100","汐止區"
"221002","707-TV","2017/07/06 18:27:58","新北市汐止區福德一路213巷9號","121.635158333333","25.06506","6501100","汐止區"
"221018","753-BX","2017/07/06 18:27:46","新北市汐止區茄苳路120巷3弄1號","121.66776","25.0698533333333","6501100","汐止區"
"220082","610-BX","2017/07/06 18:27:48","新北市板橋區華東街1-10號","121.44827","24.9949166666667","6500100","板橋區"
"220056","276-BY","2017/07/06 18:28:08","新北市板橋區中山路二段37號","121.473016666667","25.0156933333333","6500100","板橋區"
"220035","560-BX","2017/07/06 18:27:54","新北市板橋區華東街1-10號","121.448328333333","24.994925","6500100","板橋區"
"220057","686-BX","2017/07/06 18:27:55","新北市板橋區民生路二段22號","121.472728333333","25.016575","6500100","板橋區"
