"lineid","car","time","location","longitude","latitude","cityid","cityname"
"234046","148-BY","2017/07/06 18:48:08","新北市永和區永元路52巷52號","121.524531666667","25.0006066666667","6500400","永和區"
"234013","149-BY","2017/07/06 18:47:49","新北市永和區仁愛路202巷24號","121.508935","25.0129083333333","6500400","永和區"
"234007","207-UY","2017/07/06 18:47:58","新北市永和區永和路二段234號","121.515903333333","25.0145533333333","6500400","永和區"
"234081","298-R6","2017/07/06 18:48:05","新北市永和區永利路146號","121.522146666667","25.0028966666667","6500400","永和區"
"234038","336-UY","2017/07/06 18:47:53","新北市永和區成功路二段79號","121.52682","24.99938","6500400","永和區"
"234064","337-UY","2017/07/06 18:47:51","新北市永和區福和路1號","121.525958333333","25.009485","6500400","永和區"
"234086","338-UY","2017/07/06 18:47:48","新北市永和區中正路64號","121.51345","24.9949066666667","6500400","永和區"
"234068","552-UM","2017/07/06 18:48:07","新北市永和區中興街102號","121.519036666667","25.0121816666667","6500400","永和區"
"234054","553-UM","2017/07/06 18:47:56","新北市永和區竹林路64號","121.518223333333","25.013515","6500400","永和區"
"234017","745-BX","2017/07/06 18:47:56","新北市永和區忠孝街26巷15號","121.515255","25.0166366666667","6500400","永和區"
"234030","746-BX","2017/07/06 18:47:58","新北市永和區得和路326號","121.523276666667","24.99957","6500400","永和區"
"234061","AAD-866","2017/07/06 18:47:52","新北市永和區福和路157號","121.520433333333","25.007625","6500400","永和區"
"234042","862-TW","2017/07/06 18:47:50","新北市永和區永貞路267號","121.511815","25.0047616666667","6500400","永和區"
"234050","863-TW","2017/07/06 18:47:52","新北市永和區保安路2號","121.510785","25.017475","6500400","永和區"
"234026","9372-KE","2017/07/06 18:47:57","新北市永和區自由街58號","121.51378","25.0059816666667","6500400","永和區"
"234011","9373-KE","2017/07/06 18:48:07","新北市永和區文化路128號","121.513016666667","25.0152866666667","6500400","永和區"
"249005","172-UM","2017/07/06 18:47:48","新北市八里區長道坑17號","121.396311666667","25.1156116666667","6502300","八里區"
"249001","173-UM","2017/07/06 18:48:02","新北市八里區龍米路二段16號","121.448965","25.1391183333333","6502300","八里區"
"249004","303-UY","2017/07/06 18:48:00","新北市八里區中山路一段95-1號","121.415345","25.1593533333333","6502300","八里區"
"248016","026-BX","2017/07/06 18:47:55","新北市五股區凌雲路一段149巷42號","121.448576666667","25.1008916666667","6501500","五股區"
"248006","077-UY","2017/07/06 18:48:02","新北市五股區中興路二段37巷28號","121.460386666667","25.0744783333333","6501500","五股區"
"248008","095-VK","2017/07/06 18:48:01","新北市五股區中興路一段151巷19號","121.465186666667","25.0724883333333","6501500","五股區"
"248020","225-UY","2017/07/06 18:48:00","新北市五股區凌雲路三段86號","121.430551666667","25.118305","6501500","五股區"
"248012","247-BX","2017/07/06 15:18:16","新北市五股區中興路二段37巷24號","121.460731666667","25.0749816666667","6501500","五股區"
"248010","272-BY","2017/07/06 18:47:51","新北市五股區水碓五路141號","121.430976666667","25.0727766666667","6501500","五股區"
"248004","677-BX","2017/07/06 18:48:01","新北市五股區民義路二段41號","121.413941666667","25.101415","6501500","五股區"
"248002","678-BX","2017/07/06 18:47:59","新北市五股區成泰路三段435巷16號","121.449491666667","25.0980316666667","6501500","五股區"
"234023","9380-KE","2017/07/06 18:47:49","新北市永和區竹林路119巷45號","121.521845","25.011855","6500400","永和區"
"234077","969-R7","2017/07/06 18:48:04","新北市永和區中正路42巷14號","121.513513333333","24.9940683333333","6500400","永和區"
"234074","AAC-211","2017/07/06 18:47:53","新北市永和區福和路1號","121.526453333333","25.00984","6500400","永和區"
"234067","AAC-212","2017/07/06 18:47:51","新北市中和區中和路480號","121.51279","25.0041766666667","6500400","永和區"
"234003","AAC-295","2017/07/06 18:46:13","新北市永和區中正路610號","121.517076666667","25.00721","6500400","永和區"
"244013","069-UM","2017/07/06 18:47:51","新北市林口區文化一路二段80號","121.381255","25.07833","6501700","林口區"
"244007","080-UY","2017/07/06 18:47:48","新北市林口區湖北里14鄰56號","121.384406666667","25.1015933333333","6501700","林口區"
"244019","403-UM","2017/07/06 18:47:46","新北市林口區忠孝路646巷2號","121.37904","25.0681183333333","6501700","林口區"
"244023","483-VK","2017/07/06 18:47:59","新北市林口區吉祥路176號","121.376406666667","25.0807733333333","6501700","林口區"
"244017","485-VK","2017/07/06 18:47:59","新北市林口區文化二路一段20巷25弄17號","121.36552","25.067355","6501700","林口區"
"244009","656-BX","2017/07/06 18:48:06","新北市林口區林口路199號","121.387486666667","25.0827816666667","6501700","林口區"
"244011","701-TV","2017/07/06 18:48:05","新北市林口區新寮1-61號","121.392823333333","25.0764816666667","6501700","林口區"
"244025","837-TS","2017/07/06 18:47:55","新北市林口區南勢街228號","121.359386666667","25.07515","6501700","林口區"
"243013","AAD-798","2017/07/06 18:48:06","新北市泰山區明志路三段206巷1號","121.423341666667","25.0378933333333","6501600","泰山區"
"243009","297-R6","2017/07/06 16:19:26","新北市泰山區黎明路25號","121.422055","25.0609583333333","6501600","泰山區"
"243015","380-SR","2017/07/06 18:48:01","新北市泰山區泰林路二段440號","121.426503333333","25.0643","6501600","泰山區"
"243010","548-UM","2017/07/06 18:48:05","新北市泰山區明志路一段452號","121.430716666667","25.05587","6501600","泰山區"
"243012","646-TV","2017/07/06 18:47:57","新北市泰山區福興三街13號","121.434456666667","25.0577866666667","6501600","泰山區"
"243016","680-BX","2017/07/06 18:47:49","新北市泰山區明志路一段289號","121.431933333333","25.0596283333333","6501600","泰山區"
"222003","436-BY","2017/07/06 18:47:51","新北市深坑區翠谷街17巷42弄2號","121.62535","25.0101166666667","6501800","深坑區"
"222002","659-BX","2017/07/06 18:48:01","新北市深坑區文山路一段62巷3號","121.622941666667","25.00086","6501800","深坑區"
"222001","696-SL","2017/07/06 18:48:07","新北市深坑區松柏街43巷2號","121.638771666667","25.0120616666667","6501800","深坑區"
"231061","001-UM","2017/07/06 18:47:51","新北市新店區安忠路57巷1-5號","121.513303333333","24.959595","6500600","新店區"
"231041","002-UM","2017/07/06 18:47:59","新北市新店區安華路28-1號","121.51965","24.9607616666667","6500600","新店區"
"231056","0291-UT","2017/07/06 18:48:02","新北市新店區大豐路68巷19號","121.538338333333","24.9803133333333","6500600","新店區"
"231059","046-UY","2017/07/06 18:47:53","新北市新店區安華路28-1號","121.519565","24.960855","6500600","新店區"
"231060","106-UY","2017/07/06 18:48:07","新北市新店區安華路28-1號","121.519563333333","24.96081","6500600","新店區"
"231051","107-UY","2017/07/06 18:48:04","新北市新店區中央路216-1號","121.52988","24.9731416666667","6500600","新店區"
"231047","108-UY","2017/07/06 18:48:01","新北市新店區德正街17巷2號","121.543673333333","24.9728083333333","6500600","新店區"
"231052","187-VK","2017/07/06 18:47:54","新北市新店區永興路41號","121.543626666667","24.9383433333333","6500600","新店區"
"231063","268-BY","2017/07/06 18:48:05","新北市新店區車子路115-11號","121.507778333333","24.954665","6500600","新店區"
"231046","278-BY","2017/07/06 18:47:47","新北市新店區直潭路25號","121.534566666667","24.94286","6500600","新店區"
"231050","AAD-862","2017/07/06 18:48:01","新北市新店區安康路一段355-10號","121.520363333333","24.9638","6500600","新店區"
"231058","3712-VJ","2017/07/06 18:48:02","新北市新店區北宜路一段109巷7弄3號","121.539848333333","24.9553216666667","6500600","新店區"
"231055","3713-VJ","2017/07/06 18:48:00","新北市新店區新生街20巷2號","121.539823333333","24.96644","6500600","新店區"
"231067","4772-VM","2017/07/06 18:47:58","新北市新店區安康路一段76巷8號","121.528678333333","24.9626366666667","6500600","新店區"
"231065","512-UM","2017/07/06 18:47:55","新北市新店區安忠路205巷8號","121.508516666667","24.9547483333333","6500600","新店區"
"231054","513-UM","2017/07/06 18:47:55","新北市新店區安康路一段355號","121.519828333333","24.9628883333333","6500600","新店區"
"231064","515-UM","2017/07/06 18:48:02","新北市新店區安華路28-1號","121.519441666667","24.960955","6500600","新店區"
"231042","616-UM","2017/07/06 18:48:01","新北市新店區中正路100號","121.543215","24.97035","6500600","新店區"
"231045","617-UM","2017/07/06 18:47:49","新北市新店區安華路28-1號","121.519323333333","24.96089","6500600","新店區"
"231040","619-UM","2017/07/06 18:47:59","新北市新店區環河路60號","121.537045","24.9625033333333","6500600","新店區"
"231049","719-UM","2017/07/06 18:48:00","新北市新店區中央路141號","121.53022","24.973545","6500600","新店區"
"231062","720-UM","2017/07/06 18:48:04","新北市新店區安華路30巷12-1號","121.517743333333","24.9580833333333","6500600","新店區"
"231044","897-TW","2017/07/06 18:47:53","新北市新店區寶中路72號","121.547885","24.9805983333333","6500600","新店區"
"231043","899-TW","2017/07/06 18:47:52","新北市新店區安康路一段223號","121.525765","24.9630833333333","6500600","新店區"
"231066","AKT-0513","2017/07/06 18:48:03","新北市新店區安豐路22巷3號","121.501488333333","24.9554116666667","6500600","新店區"
"235066","003-UY","2017/07/06 18:48:04","新北市中和區水源路34巷21弄1號","121.504728333333","25.0030183333333","6500300","中和區"
"235056","096-UM","2017/07/06 18:47:58","新北市中和區員山路611巷1號","121.477856666667","25.0112333333333","6500300","中和區"
"235039","097-UM","2017/07/06 18:47:51","新北市永和區中正路11號","121.513958333333","24.9958033333333","6500300","中和區"
"235065","098-UM","2017/07/06 18:47:51","新北市中和區莊敬路49巷27號","121.501471666667","25.0062","6500300","中和區"
"235040","150-BY","2017/07/06 18:47:54","新北市中和區安和路31號","121.510161666667","24.9945266666667","6500300","中和區"
"235058","151-BY","2017/07/06 18:47:51","新北市中和區連城路533號","121.480575","24.99493","6500300","中和區"
"235055","183-VK","2017/07/06 18:48:02","新北市中和區民生街37號","121.470253333333","25.00539","6500300","中和區"
"235038","185-VK","2017/07/06 18:48:02","新北市中和區大勇街60巷8號","121.518573333333","24.99466","6500300","中和區"
"235049","186-VK","2017/07/06 18:48:03","新北市中和區景安路169號","121.505291666667","24.9945","6500300","中和區"
"235067","255-BX","2017/07/06 18:48:05","新北市中和區中正路885號","121.484406666667","25.00432","6500300","中和區"
"235072","301-VK","2017/07/06 18:47:51","新北市中和區中山路二段181號","121.50107","25.0027366666667","6500300","中和區"
"235043","352-BY","2017/07/06 18:47:55","新北市中和區成功路139號","121.525883333333","24.9902266666667","6500300","中和區"
"235051","376-QA","2017/07/06 18:47:58","新北市中和區華新街143巷106弄25號","121.50671","24.9783633333333","6500300","中和區"
"235068","377-QA","2017/07/06 18:47:35","新北市中和區中正路211巷13弄1號","121.497081666667","24.99293","6500300","中和區"
"235061","378-QA","2017/07/06 18:47:59","新北市中和區民享街28號","121.473846666667","25.003535","6500300","中和區"
"235050","4979-A6","2017/07/06 18:48:07","新北市中和區忠孝街62巷9弄1號","121.513126666667","24.9839183333333","6500300","中和區"
"235069","4980-A6","2017/07/06 18:48:07","新北市中和區南山路52巷3號","121.501725","24.997325","6500300","中和區"
"235042","551-UM","2017/07/06 18:47:59","新北市中和區秀朗路三段153巷19號","121.525501666667","24.9915966666667","6500300","中和區"
"235070","558-UM","2017/07/06 18:47:59","新北市中和區南華路77號","121.505221666667","24.9973433333333","6500300","中和區"
"235045","565-BX","2017/07/06 18:48:01","新北市中和區南山路208巷1弄1號","121.50613","24.990215","6500300","中和區"
"235054","640-BX","2017/07/06 18:48:01","新北市中和區民享街51號","121.474078333333","25.002665","6500300","中和區"
"235060","647-TV","2017/07/06 18:47:49","新北市中和區中山路二段553號","121.481076666667","25.0055066666667","6500300","中和區"
"235047","732-UM","2017/07/06 18:47:54","新北市中和區興南路二段74巷8號","121.505236666667","24.9847066666667","6500300","中和區"
"235046","733-UM","2017/07/06 18:47:52","新北市中和區捷運路3號","121.50947","24.9894433333333","6500300","中和區"
"235071","783-BX","2017/07/06 18:47:55","新北市中和區員山路36巷16-2號","121.485413333333","24.99117","6500300","中和區"
"235062","800-TS","2017/07/06 18:48:04","新北市中和區景平路703巷6號","121.495976666667","25.0034983333333","6500300","中和區"
"235057","801-TS","2017/07/06 18:47:53","新北市中和區員山路327巷11號","121.480688333333","25.001465","6500300","中和區"
"235041","802-TS","2017/07/06 18:48:04","新北市中和區景安路51號","121.507371666667","24.9982416666667","6500300","中和區"
"235052","805-TS","2017/07/06 18:48:03","新北市中和區興南路二段399巷2-2號","121.49874","24.97936","6500300","中和區"
"235048","896-TW","2017/07/06 18:47:53","新北市中和區南山路260號","121.507836666667","24.9883666666667","6500300","中和區"
"235053","900-TW","2017/07/06 18:48:00","新北市中和區華順街103巷10號","121.465768333333","24.997295","6500300","中和區"
"235063","911-UM","2017/07/06 18:47:46","新北市中和區連城路347巷2弄27號","121.48715","24.9958383333333","6500300","中和區"
"235037","157-BY","2017/07/06 18:47:56","新北市中和區景平路111巷8號","121.516506666667","24.9911283333333","6500300","中和區"
"235059","AAC-215","2017/07/06 18:48:03","新北市中和區圓通路381號","121.490473333333","24.9893266666667","6500300","中和區"
"220068","013-TV","2017/07/06 18:48:02","新北市板橋區民生路二段48號","121.4722","25.0176933333333","6500100","板橋區"
"220065","072-UY","2017/07/06 18:48:04","新北市板橋區民生路二段36-1號","121.472538333333","25.0167883333333","6500100","板橋區"
"220086","073-UY","2017/07/06 18:48:03","新北市板橋區大智街71巷11號","121.452971666667","25.0143266666667","6500100","板橋區"
"220069","AAD-861","2017/07/06 18:47:49","新北市板橋區民生路二段17號","121.472593333333","25.01618","6500100","板橋區"
"220106","120-SR","2017/07/06 18:47:57","新北市板橋區民生路二段188號","121.470135","25.0203216666667","6500100","板橋區"
"247006","341-TH","2017/07/06 18:47:54","新北市五股區新城三路61號","121.449106666667","25.0939916666667","6501400","蘆洲區"
"247024","337-TH","2017/07/06 18:48:08","新北市五股區凌雲路三段24巷21-25號","121.433658333333","25.1075283333333","6501400","蘆洲區"
"247014","057-VK","2017/07/06 18:37:06","新北市五股區中興路三段163號","121.449225","25.0807166666667","6501400","蘆洲區"
"226004","205-ST","2017/07/06 18:47:51","新北市平溪區平溪里平溪街46號","121.738238333333","25.026845","6502400","平溪區"
"226002","7418-A5","2017/07/06 15:39:01","新北市平溪區石底里公園街18-3號","121.733465","25.0256366666667","6502400","平溪區"
"228003","097-TW","2017/07/06 18:47:48","新北市貢寮區和美里龍洞街42號","121.912716666667","25.1131566666667","6502600","貢寮區"
"228001","212-TW","2017/07/06 18:48:06","新北市貢寮區仁理村保健街71號","121.923678333333","25.0516366666667","6502600","貢寮區"
"228002","585-TW","2017/07/06 18:48:09","新北市貢寮區福隆里東興街6-11號","121.950761666667","25.0210566666667","6502600","貢寮區"
"224010","AGQ-8101","2017/07/06 18:45:36","新北市瑞芳區金光路334號","121.848575","25.11011","6501200","瑞芳區"
"224006","676-BX","2017/07/06 18:47:54","新北市瑞芳區中正路83號","121.805303333333","25.1076566666667","6501200","瑞芳區"
"224011","420-VK","2017/07/06 18:47:56","新北市瑞芳區崙頂路1-6號","121.847063333333","25.1046933333333","6501200","瑞芳區"
"224009","285-BY","2017/07/06 18:48:04","新北市瑞芳區祈堂路2號","121.859693333333","25.1116383333333","6501200","瑞芳區"
"224008","275-VK","2017/07/06 18:48:05","新北市瑞芳區逢甲路277號","121.801531666667","25.1119316666667","6501200","瑞芳區"
"224007","272-VK","2017/07/06 18:47:50","新北市瑞芳區大埔路211-1號","121.762638333333","25.1017716666667","6501200","瑞芳區"
"224005","271-BY","2017/07/06 18:47:52","新北市瑞芳區建基路一段5-1號","121.819601666667","25.1210616666667","6501200","瑞芳區"
"227010","642-TC","2017/07/06 18:48:04","新北市雙溪區牡丹里聖南34號","121.853488333333","25.0558466666667","6502500","雙溪區"
"227004","400-TW","2017/07/06 18:47:59","新北市雙溪區共和里中山路8號","121.864791666667","25.03323","6502500","雙溪區"
"253006","032-BX","2017/07/06 18:47:14","新北市石門區下員坑33-6號","121.517493333333","25.28296","6502200","石門區"
"253005","295-VK","2017/07/06 18:47:52","新北市石門區中山路28-15號","121.565621666667","25.2897583333333","6502200","石門區"
"208003","665-BX","2017/07/06 18:47:58","新北市金山區中山路393號","121.633471666667","25.2252616666667","6502700","金山區"
"208001","761-BX","2017/07/06 18:48:02","新北市金山區文化三路66巷2弄1號","121.634315","25.2256933333333","6502700","金山區"
"251014","182-VK","2017/07/06 18:48:07","新北市淡水區南平17-2號","121.489986666667","25.220445","6501000","淡水區"
"251010","413-VK","2017/07/06 18:47:57","新北市淡水區沙崙路24號","121.421323333333","25.18129","6501000","淡水區"
"251012","441-VK","2017/07/06 18:47:52","新北市淡水區北新路32號","121.44535","25.17774","6501000","淡水區"
"251016","442-VK","2017/07/06 18:47:53","新北市淡水區下圭柔山71-1號","121.446526666667","25.20596","6501000","淡水區"
"251001","559-UM","2017/07/06 18:48:03","新北市淡水區自強路341號","121.46378","25.132655","6501000","淡水區"
"251011","650-BX","2017/07/06 18:48:04","新北市淡水區學府路28號","121.447733333333","25.1683333333333","6501000","淡水區"
"251002","672-BX","2017/07/06 18:47:53","新北市淡水區學府路1號","121.447395","25.1678666666667","6501000","淡水區"
"251003","766-UM","2017/07/06 18:48:01","新北市淡水區中山北路一段149巷25號","121.442998333333","25.1777933333333","6501000","淡水區"
"207003","550-UM","2017/07/06 18:48:01","新北市萬里區大鵬里頂社2-1號","121.660346666667","25.2071966666667","6502800","萬里區"
"207004","225-TW","2017/07/06 18:47:51","新北市萬里區萬里里獅頭路23號","121.693215","25.17823","6502800","萬里區"
"252002","178-VK","2017/07/06 18:47:55","新北市三芝區智成街70號","121.504821666667","25.2561116666667","6502100","三芝區"
"252003","249-BX","2017/07/06 18:47:52","新北市三芝區後厝里大片頭105-5號","121.458193333333","25.2419466666667","6502100","三芝區"
"252001","702-TV","2017/07/06 18:47:57","新北市三芝區中正路三段9號","121.502898333333","25.2539916666667","6502100","三芝區"
"252005","AAC-283","2017/07/06 16:14:18","新北市三芝區埔坪里埔頭坑41號","121.504431666667","25.2644783333333","6502100","三芝區"
"208002","170-UY","2017/07/06 18:47:52","新北市金山區信義路33號","121.635603333333","25.2197816666667","6502700","金山區"
"237004","078-UY","2017/07/06 18:47:50","新北市三峽區插角134號","121.411586666667","24.870115","6500900","三峽區"
"237007","153-BY","2017/07/06 18:48:05","新北市三峽區中正路二段421號","121.363118333333","24.906885","6500900","三峽區"
"237013","252-BX","2017/07/06 18:47:53","新北市三峽區文化路242號","121.367491666667","24.9358483333333","6500900","三峽區"
"237012","275-BY","2017/07/06 18:47:48","新北市三峽區三樹路340號","121.383961666667","24.9433216666667","6500900","三峽區"
"237008","302-VK","2017/07/06 18:48:03","新北市三峽區白雞33-51號","121.370455","24.9130116666667","6500900","三峽區"
"237014","433-BY","2017/07/06 18:47:57","新北市三峽區復興路257號","121.366751666667","24.9389966666667","6500900","三峽區"
"237006","5529-G3","2017/07/06 18:48:04","新北市三峽區溪東路233巷2弄3號","121.407018333333","24.933525","6500900","三峽區"
"237011","572-TV","2017/07/06 18:48:07","新北市三峽區介壽路三段233號","121.405833333333","24.9467133333333","6500900","三峽區"
"237016","649-BX","2017/07/06 18:48:05","新北市三峽區建安25-3號","121.445888333333","24.9275216666667","6500900","三峽區"
"237010","706-TV","2017/07/06 18:47:59","新北市三峽區復興路174巷8-2號","121.370756666667","24.9391533333333","6500900","三峽區"
"237005","AKY-6261","2017/07/06 18:47:50","新北市三峽區文化路115號","121.370331666667","24.93606","6500900","三峽區"
"236071","105-UM","2017/07/06 18:47:53","新北市土城區金城路三段10號","121.464756666667","24.985965","6501300","土城區"
"236042","107-UM","2017/07/06 18:48:05","新北市土城區裕民路92巷25弄11號","121.450156666667","24.985635","6501300","土城區"
"236078","166-UM","2017/07/06 18:47:53","新北市土城區中央路四段185巷59號","121.416878333333","24.9560416666667","6501300","土城區"
"236030","253-BX","2017/07/06 18:48:02","新北市土城區忠義路26巷25號","121.439595","24.96957","6501300","土城區"
"236026","269-VK","2017/07/06 18:47:55","新北市土城區光明街45號","121.442175","24.9737183333333","6501300","土城區"
"236014","270-VK","2017/07/06 18:48:09","新北市土城區清水路235巷20號","121.4609","24.9838566666667","6501300","土城區"
"236037","271-VK","2017/07/06 18:47:58","新北市土城區明德路一段313巷3弄13號","121.46013","24.9765133333333","6501300","土城區"
"236021","401-BY","2017/07/06 18:48:06","新北市土城區延安街39巷1號","121.468301666667","24.98389","6501300","土城區"
"236058","912-UM","2017/07/06 18:47:50","新北市土城區中央路三段188號","121.430478333333","24.9648633333333","6501300","土城區"
"236051","913-UM","2017/07/06 18:48:01","新北市板橋區廣權路2號","121.460396666667","24.99042","6501300","土城區"
"236062","915-UM","2017/07/06 18:47:48","新北市土城區延和路191-1號","121.469456666667","24.9902483333333","6501300","土城區"
"236053","AAC-216","2017/07/06 18:48:03","新北市土城區樂利街37-1號","121.449686666667","24.98718","6501300","土城區"
"242002","413-TV","2017/07/06 18:47:56","新北市新莊區新泰路357巷3弄57號","121.442045","25.0394216666667","6500500","新莊區"
"242034","133-UY","2017/07/06 18:47:55","新北市樹林區八德街238號","121.41317","24.9706116666667","6500500","新莊區"
"242003","233-RS","2017/07/06 08:29:03","新北市新莊區環河路48-7號","121.436943333333","25.0097833333333","6500500","新莊區"
"238023","601-UM","2017/07/06 18:48:06","新北市樹林區三福街114號","121.406455","25.016355","6500700","樹林區"
"238006","599-UM","2017/07/06 18:47:50","新北市樹林區中山路二段91號","121.411153333333","24.981595","6500700","樹林區"
"238018","571-TV","2017/07/06 18:47:59","新北市樹林區鎮前街174號","121.424043333333","24.989485","6500700","樹林區"
"238024","5061-A6","2017/07/06 18:48:03","新北市樹林區太平路148號","121.418596666667","24.978135","6500700","樹林區"
"238022","312-TH","2017/07/06 18:47:53","新北市樹林區中華路379巷76號","121.413865","24.9774083333333","6500700","樹林區"
"238025","303-VK","2017/07/06 18:47:49","新北市樹林區中山路三段22號","121.395653333333","24.97307","6500700","樹林區"
"238020","268-VK","2017/07/06 18:47:52","新北市樹林區俊英街280號","121.42375","25.0132533333333","6500700","樹林區"
"238026","172-UY","2017/07/06 18:47:58","新北市樹林區信和街68號","121.389468333333","24.9732016666667","6500700","樹林區"
"238016","169-UY","2017/07/06 18:47:52","新北市樹林區文化街28號","121.419406666667","24.9877116666667","6500700","樹林區"
"239007","AAC-297","2017/07/06 18:47:56","新北市鶯歌區中正一路建德巷38號","121.364508333333","24.9578016666667","6500800","鶯歌區"
"239008","527-UM","2017/07/06 18:48:03","新北市鶯歌區國際一路14號","121.33617","24.97653","6500800","鶯歌區"
"239005","526-UM","2017/07/06 18:47:55","新北市鶯歌區鳳吉三街31巷1號","121.327411666667","24.9739416666667","6500800","鶯歌區"
"239001","417-VK","2017/07/06 18:48:03","新北市鶯歌區鶯桃路97-1號","121.338875","24.9541783333333","6500800","鶯歌區"
"239003","360-BY","2017/07/06 18:48:05","新北市鶯歌區永和街249號","121.337118333333","24.9720933333333","6500800","鶯歌區"
"239004","193-VK","2017/07/06 18:47:57","新北市鶯歌區中正三路福德巷1號","121.342155","24.9423466666667","6500800","鶯歌區"
"221008","489-VK","2017/07/06 18:47:57","新北市汐止區康寧街901號","121.651396666667","25.0750116666667","6501100","汐止區"
"221036","130-UY","2017/07/06 18:47:58","新北市汐止區忠孝東路339巷9號","121.664426666667","25.07021","6501100","汐止區"
"221015","131-UY","2017/07/06 18:48:02","新北市汐止區大同路三段47號","121.666343333333","25.0771633333333","6501100","汐止區"
"221010","269-BY","2017/07/06 18:48:04","新北市汐止區汐萬路一段312號","121.650153333333","25.0749666666667","6501100","汐止區"
"221010","276-VK","2017/07/06 13:16:58","新北市汐止區汐萬路一段256巷3號","121.653446666667","25.0745783333333","6501100","汐止區"
"221031","277-VK","2017/07/06 00:12:29","新北市汐止區汐萬路一段256巷3號","121.652538333333","25.0745033333333","6501100","汐止區"
"221012","278-VK","2017/07/06 18:47:53","新北市汐止區汐萬路一段256巷3號","121.65339","25.07453","6501100","汐止區"
"221023","279-VK","2017/07/06 18:47:50","新北市汐止區康寧街901號","121.65159","25.0749166666667","6501100","汐止區"
"221032","280-BY","2017/07/06 18:48:06","新北市汐止區橫科路322巷24弄6-1號","121.620541666667","25.0503283333333","6501100","汐止區"
"221027","281-BY","2017/07/06 18:48:02","新北市汐止區汐萬路一段191號","121.652498333333","25.0715866666667","6501100","汐止區"
"221038","297-VK","2017/07/06 18:48:03","新北市汐止區汐萬路一段256巷3號","121.652613333333","25.0745283333333","6501100","汐止區"
"221029","298-VK","2017/07/06 18:47:55","新北市汐止區樟樹一路101號","121.641976666667","25.063625","6501100","汐止區"
"221021","299-VK","2017/07/06 18:41:41","新北市汐止區復興路78號","121.65726","25.0619","6501100","汐止區"
"221035","622-UM","2017/07/06 18:48:05","新北市汐止區汐萬路一段292號","121.650673333333","25.07435","6501100","汐止區"
"221025","623-UM","2017/07/06 18:48:00","新北市汐止區仁愛路81號","121.661306666667","25.0629583333333","6501100","汐止區"
"221033","647-BX","2017/07/06 18:47:56","新北市汐止區南勢街1巷1號","121.627038333333","25.03738","6501100","汐止區"
"221002","707-TV","2017/07/06 18:47:58","新北市汐止區大同路一段231-1號","121.634326666667","25.057575","6501100","汐止區"
"221018","753-BX","2017/07/06 18:48:06","新北市汐止區茄苳路305號","121.67337","25.0669283333333","6501100","汐止區"
"220079","145-BY","2017/07/06 18:47:52","新北市板橋區民權路101巷2號","121.459063333333","25.013395","6500100","板橋區"
"220082","610-BX","2017/07/06 18:47:48","新北市板橋區篤行路一段29號","121.431968333333","24.9945183333333","6500100","板橋區"
"220103","257-TC","2017/07/06 18:47:54","新北市板橋區民生路二段120號","121.470323333333","25.0199033333333","6500100","板橋區"
"220091","267-BY","2017/07/06 18:47:51","新北市板橋區民生路二段188號","121.47004","25.0202716666667","6500100","板橋區"
"220056","276-BY","2017/07/06 18:48:04","新北市板橋區四川路二段89號","121.452851666667","24.9948366666667","6500100","板橋區"
"220072","277-BY","2017/07/06 18:47:56","新北市板橋區金門街31巷24號","121.43402","24.9938383333333","6500100","板橋區"
"220094","283-UM","2017/07/06 18:47:58","新北市板橋區民生路二段161巷3號","121.470273333333","25.019825","6500100","板橋區"
"220071","283-VK","2017/07/06 18:48:03","新北市板橋區觀光街1巷2號","121.47209","25.0155683333333","6500100","板橋區"
"220101","285-UM","2017/07/06 18:47:56","新北市板橋區民生路二段188號","121.47004","25.0204016666667","6500100","板橋區"
"220053","285-VK","2017/07/06 18:48:03","新北市板橋區民生路二段56-1號","121.472463333333","25.01709","6500100","板橋區"
"220083","286-VK","2017/07/06 18:48:00","新北市板橋區大觀路二段11-12號","121.448236666667","24.9967466666667","6500100","板橋區"
"220081","287-VK","2017/07/06 18:47:51","新北市板橋區大觀路一段28巷6弄55-3號","121.450923333333","25.0106866666667","6500100","板橋區"
"220090","288-VK","2017/07/06 18:47:53","新北市板橋區民生路二段161巷9號","121.470306666667","25.0196616666667","6500100","板橋區"
"220061","293-UM","2017/07/06 18:48:10","新北市板橋區民生路二段56號","121.472171666667","25.0178016666667","6500100","板橋區"
"220084","296-UM","2017/07/06 18:47:57","新北市板橋區大觀路二段148巷5號","121.441923333333","24.9997233333333","6500100","板橋區"
"220075","297-UM","2017/07/06 18:48:02","新北市板橋區南雅西路二段123巷1號","121.451761666667","25.0106016666667","6500100","板橋區"
"220092","299-UM","2017/07/06 18:47:50","新北市板橋區民生路二段120號","121.47041","25.0197833333333","6500100","板橋區"
"220062","305-R5","2017/07/06 18:47:59","新北市板橋區民生路二段15號","121.47246","25.0159933333333","6500100","板橋區"
"220098","317-R6","2017/07/06 18:48:02","新北市板橋區民生路二段161巷1號","121.47013","25.01988","6500100","板橋區"
"220080","461-BY","2017/07/06 18:47:51","新北市板橋區大觀路二段265巷128號","121.442251666667","24.9962666666667","6500100","板橋區"
"220064","486-VK","2017/07/06 16:49:10","新北市板橋區民生路二段22號","121.472701666667","25.0166416666667","6500100","板橋區"
"220089","487-VK","2017/07/06 18:47:54","新北市板橋區民生路二段120號","121.470375","25.0196916666667","6500100","板橋區"
"220088","491-VK","2017/07/06 18:47:34","新北市板橋區民生路二段161巷1號","121.470103333333","25.0201683333333","6500100","板橋區"
"220035","560-BX","2017/07/06 18:47:54","新北市板橋區中正路275巷79弄13號","121.452083333333","25.017465","6500100","板橋區"
"220063","609-BX","2017/07/06 18:48:09","新北市板橋區民生路二段56-2號","121.472126666667","25.0171033333333","6500100","板橋區"
"220057","686-BX","2017/07/06 18:47:55","新北市板橋區民生路二段36-1號","121.472483333333","25.0166116666667","6500100","板橋區"
"220077","687-BX","2017/07/06 18:48:04","新北市板橋區大觀路二段174巷166弄2號","121.441791666667","25.0031966666667","6500100","板橋區"
"220093","689-BX","2017/07/06 18:48:07","新北市板橋區民生路二段161巷1號","121.470228333333","25.0198666666667","6500100","板橋區"
"220054","741-BX","2017/07/06 18:47:54","新北市板橋區觀光街2-4號","121.472165","25.015525","6500100","板橋區"
"220055","827-TW","2017/07/06 18:48:06","新北市板橋區民生路二段36-1號","121.47264","25.0167283333333","6500100","板橋區"
"220102","830-TW","2017/07/06 16:42:42","新北市板橋區民生路二段161巷9號","121.470221666667","25.0195733333333","6500100","板橋區"
"220096","831-TW","2017/07/06 16:44:27","新北市板橋區民生路二段120號","121.47034","25.019805","6500100","板橋區"
"220074","895-R6","2017/07/06 18:47:59","新北市板橋區南雅南路一段29號","121.45622","25.0066766666667","6500100","板橋區"
"220073","985-R7","2017/07/06 18:47:47","新北市板橋區館前西路60號","121.458026666667","25.0069433333333","6500100","板橋區"
"220070","AAC-253","2017/07/06 18:47:57","新北市板橋區民生路二段36-1號","121.472486666667","25.016865","6500100","板橋區"
