"lineid","car","time","location","longitude","latitude","cityid","cityname"
"234046","148-BY","2017/07/06 19:29:48","新北市永和區秀朗路二段150號","121.525575","25.0015383333333","6500400","永和區"
"234013","149-BY","2017/07/06 19:29:48","新北市永和區信義路10-1號","121.514478333333","25.012","6500400","永和區"
"234007","207-UY","2017/07/06 19:29:58","新北市永和區永和路一段100號","121.513258333333","25.0069066666667","6500400","永和區"
"234081","298-R6","2017/07/06 19:30:01","新北市永和區環河東路三段54號","121.526823333333","25.0062183333333","6500400","永和區"
"234038","336-UY","2017/07/06 19:29:53","新北市永和區成功路一段123號","121.526965","25.0019133333333","6500400","永和區"
"234064","337-UY","2017/07/06 19:29:51","新北市永和區得和路243巷26號","121.520751666667","25.0011266666667","6500400","永和區"
"234086","338-UY","2017/07/06 19:30:08","新北市永和區林森路68號","121.523756666667","25.004025","6500400","永和區"
"234070","552-UM","2017/07/06 19:29:47","新北市永和區竹林路85號","121.519563333333","25.01233","6500400","永和區"
"234054","553-UM","2017/07/06 19:29:56","新北市永和區復興街19巷2號","121.516131666667","25.013105","6500400","永和區"
"234017","745-BX","2017/07/06 19:29:56","新北市永和區環河西路一段1號","121.51519","25.018035","6500400","永和區"
"234030","746-BX","2017/07/06 19:30:08","新北市永和區民生路2號","121.522525","24.9982066666667","6500400","永和區"
"234061","AAD-866","2017/07/06 19:29:52","新北市永和區中正路469號","121.517041666667","25.0061116666667","6500400","永和區"
"234042","862-TW","2017/07/06 19:29:50","新北市中和區中和路408號","121.511425","25.0029766666667","6500400","永和區"
"234050","863-TW","2017/07/06 19:29:55","新北市永和區保福路二段128號","121.509806666667","25.0140416666667","6500400","永和區"
"234026","9372-KE","2017/07/06 19:30:03","新北市永和區安樂路110號","121.514216666667","24.99979","6500400","永和區"
"234011","9373-KE","2017/07/06 19:30:07","新北市永和區保福路二段133巷1號","121.509578333333","25.0137916666667","6500400","永和區"
"249003","593-UM","2017/07/06 19:29:59","新北市八里區商港六路23號","121.396686666667","25.1485833333333","6502300","八里區"
"248016","026-BX","2017/07/06 19:29:55","新北市五股區成洲五路12號","121.452428333333","25.101485","6501500","五股區"
"248008","095-VK","2017/07/06 19:30:01","新北市五股區中興路一段95巷15號","121.46659","25.072275","6501500","五股區"
"248020","225-UY","2017/07/06 19:29:53","新北市五股區凌雲路三段41-2號","121.430386666667","25.117395","6501500","五股區"
"248012","247-BX","2017/07/06 15:18:16","新北市五股區中興路二段37巷24號","121.460731666667","25.0749816666667","6501500","五股區"
"248014","261-SL","2017/07/06 19:30:08","新北市五股區民義路一段183巷6-1號","121.430838333333","25.08715","6501500","五股區"
"248010","272-BY","2017/07/06 19:29:51","新北市五股區水碓一路23號","121.43064","25.0712916666667","6501500","五股區"
"248004","677-BX","2017/07/06 19:30:06","新北市五股區五福路62號","121.43323","25.0897516666667","6501500","五股區"
"248002","678-BX","2017/07/06 19:29:59","新北市五股區凌雲路一段158巷14號","121.447796666667","25.1034033333333","6501500","五股區"
"234023","9380-KE","2017/07/06 19:30:09","新北市永和區環河東路二段8-2號","121.521676666667","25.013185","6500400","永和區"
"234077","969-R7","2017/07/06 19:30:04","新北市永和區民族街45號","121.518488333333","24.998445","6500400","永和區"
"234074","AAC-211","2017/07/06 19:29:53","新北市永和區永和路二段314號","121.516186666667","25.016185","6500400","永和區"
"234067","AAC-212","2017/07/06 19:29:51","新北市永和區保平路115號","121.51086","25.0066083333333","6500400","永和區"
"234003","AAC-295","2017/07/06 19:28:33","新北市永和區永和路一段176-1號","121.514233333333","25.0088066666667","6500400","永和區"
"244019","403-UM","2017/07/06 19:30:06","新北市林口區四維路114號","121.377338333333","25.0782333333333","6501700","林口區"
"244023","483-VK","2017/07/06 19:29:59","新北市林口區文林三街139號","121.374601666667","25.08784","6501700","林口區"
"243013","AAD-798","2017/07/06 19:30:06","新北市泰山區明志路三段145巷5弄20號","121.42563","25.0404433333333","6501600","泰山區"
"243009","297-R6","2017/07/06 19:29:51","新北市五股區成泰路一段7巷1號","121.433603333333","25.0664666666667","6501600","泰山區"
"243015","380-SR","2017/07/06 19:30:01","新北市泰山區明志路二段81號","121.428908333333","25.0522683333333","6501600","泰山區"
"243014","421-VK","2017/07/06 19:29:58","新北市泰山區仁愛路66號","121.43233","25.05496","6501600","泰山區"
"243010","548-UM","2017/07/06 19:30:05","新北市泰山區民生路16號","121.430073333333","25.052535","6501600","泰山區"
"243011","549-UM","2017/07/06 19:29:53","新北市泰山區貴子路67巷16號","121.431011666667","25.040885","6501600","泰山區"
"243012","646-TV","2017/07/06 19:29:57","新北市泰山區仁愛路41號","121.432226666667","25.0550733333333","6501600","泰山區"
"243016","680-BX","2017/07/06 19:30:09","新北市泰山區明志路三段196巷21弄33號","121.422278333333","25.0379983333333","6501600","泰山區"
"222003","436-BY","2017/07/06 19:29:51","新北市深坑區深南路88巷1號","121.620998333333","25.0117383333333","6501800","深坑區"
"222002","659-BX","2017/07/06 19:30:01","新北市深坑區北深路一段177號","121.632485","25.010855","6501800","深坑區"
"222001","696-SL","2017/07/06 19:30:07","新北市深坑區北深路二段134號","121.615871666667","25.0029533333333","6501800","深坑區"
"231061","001-UM","2017/07/06 19:29:51","新北市新店區安民街48-1號","121.516046666667","24.9656683333333","6500600","新店區"
"231041","002-UM","2017/07/06 19:29:59","新北市新店區中正路558號","121.5336","24.9871466666667","6500600","新店區"
"231059","046-UY","2017/07/06 19:29:58","新北市新店區安和路三段119號","121.517585","24.985185","6500600","新店區"
"231060","106-UY","2017/07/06 19:30:07","新北市新店區安康路二段22號","121.515963333333","24.9637783333333","6500600","新店區"
"231051","107-UY","2017/07/06 19:30:04","新北市新店區中央五街22號","121.529316666667","24.9745166666667","6500600","新店區"
"231047","108-UY","2017/07/06 19:30:01","新北市新店區中興路一段252號","121.544438333333","24.96642","6500600","新店區"
"231052","187-VK","2017/07/06 19:29:54","新北市新店區新烏路二段212-1號","121.547576666667","24.9162916666667","6500600","新店區"
"231057","256-BX","2017/07/06 19:29:58","新北市新店區花園一路二段17號","121.550821666667","24.9332683333333","6500600","新店區"
"231063","268-BY","2017/07/06 19:30:05","新北市新店區達觀路16號","121.503176666667","24.9407966666667","6500600","新店區"
"231046","278-BY","2017/07/06 19:30:07","新北市新店區北新路一段89號","121.538525","24.9617066666667","6500600","新店區"
"231050","AAD-862","2017/07/06 19:30:01","新北市新店區秀水路19號","121.554903333333","24.9549133333333","6500600","新店區"
"231058","3712-VJ","2017/07/06 19:30:01","新北市新店區北新路二段228巷13號","121.543423333333","24.9771266666667","6500600","新店區"
"231067","4772-VM","2017/07/06 19:29:58","新北市新店區安康路二段414巷2號","121.495865","24.9578066666667","6500600","新店區"
"231065","512-UM","2017/07/06 19:29:55","新北市新店區安祥路109巷3弄6號","121.4754","24.959535","6500600","新店區"
"231054","513-UM","2017/07/06 19:29:55","新北市新店區文中路40-6號","121.539845","24.9565433333333","6500600","新店區"
"231064","515-UM","2017/07/06 19:30:02","新北市新店區安康路二段85巷6號","121.51352","24.9625883333333","6500600","新店區"
"231042","616-UM","2017/07/06 19:30:01","新北市新店區中興路一段167號","121.5427","24.9643333333333","6500600","新店區"
"231045","617-UM","2017/07/06 19:29:49","新北市新店區北宜路二段209號","121.553148333333","24.95345","6500600","新店區"
"231040","619-UM","2017/07/06 19:29:59","新北市新店區中華路12-1號","121.54077","24.9674866666667","6500600","新店區"
"231049","719-UM","2017/07/06 19:30:00","新北市新店區北新路三段105巷11號","121.5407","24.9818933333333","6500600","新店區"
"231062","720-UM","2017/07/06 19:30:04","新北市新店區精忠路2號","121.533033333333","24.9596916666667","6500600","新店區"
"231044","897-TW","2017/07/06 19:30:06","新北市新店區中興路三段173號","121.5441","24.9806566666667","6500600","新店區"
"231043","899-TW","2017/07/06 19:29:52","新北市新店區北新路二段228巷1號","121.542851666667","24.9776183333333","6500600","新店區"
"231066","AKT-0513","2017/07/06 19:30:03","新北市新店區安康路三段165巷2弄12號","121.489028333333","24.9513783333333","6500600","新店區"
"241011","013-R5","2017/07/06 19:29:58","新北市三重區龍濱路191號","121.502006666667","25.0711533333333","6500200","三重區"
"241008","059-VK","2017/07/06 19:29:51","新北市三重區永福街135巷30號","121.47754","25.0771033333333","6500200","三重區"
"241009","060-VK","2017/07/06 19:30:08","新北市三重區仁美街123號","121.485653333333","25.0813366666667","6500200","三重區"
"241031","061-VK","2017/07/06 19:29:57","新北市三重區集美街65-3號","121.488496666667","25.0541116666667","6500200","三重區"
"241026","066-VK","2017/07/06 19:29:51","新北市三重區文化南路47巷17號","121.499636666667","25.0612433333333","6500200","三重區"
"241032","265-UM","2017/07/06 19:30:04","新北市三重區三陽路28號","121.48548","25.058755","6500200","三重區"
"241022","267-UM","2017/07/06 19:30:06","新北市三重區三民街157巷2號","121.483715","25.06468","6500200","三重區"
"241013","270-UM","2017/07/06 19:30:10","新北市三重區仁愛街127號","121.495393333333","25.07469","6500200","三重區"
"241025","271-UM","2017/07/06 19:29:58","新北市三重區頂崁街210巷28弄11號","121.47578","25.0670933333333","6500200","三重區"
"241007","398-BY","2017/07/06 19:30:06","新北市三重區溪尾街146-1號","121.489058333333","25.0799","6500200","三重區"
"241020","413-TH","2017/07/06 19:30:02","新北市三重區三和路四段42號","121.4905","25.07455","6500200","三重區"
"241035","462-BY","2017/07/06 19:30:06","新北市三重區信義西街1巷21號","121.498015","25.0653166666667","6500200","三重區"
"241030","480-VK","2017/07/06 19:29:49","新北市三重區成功路41巷3號","121.49026","25.0514366666667","6500200","三重區"
"241023","545-UM","2017/07/06 19:30:02","新北市三重區頂崁街99號","121.477996666667","25.0637983333333","6500200","三重區"
"241006","AAD-863","2017/07/06 19:29:51","新北市三重區三和路四段113號","121.485616666667","25.0773533333333","6500200","三重區"
"241029","942-UM","2017/07/06 19:29:49","新北市三重區中正南路250巷5號","121.493316666667","25.05352","6500200","三重區"
"235066","003-UY","2017/07/06 19:30:03","新北市中和區中和路136號","121.503471666667","24.9993483333333","6500300","中和區"
"235056","096-UM","2017/07/06 19:29:58","新北市中和區中山路三段102號","121.476956666667","25.0059283333333","6500300","中和區"
"235039","097-UM","2017/07/06 19:29:51","新北市中和區景平路4號","121.524415","24.9903383333333","6500300","中和區"
"235065","098-UM","2017/07/06 19:29:52","新北市中和區中山路二段64巷16弄2號","121.503301666667","25.0059216666667","6500300","中和區"
"235040","150-BY","2017/07/06 19:29:54","新北市中和區保健路46巷20弄9號","121.508646666667","24.9962883333333","6500300","中和區"
"235058","151-BY","2017/07/06 19:29:50","新北市中和區中正路637巷60弄61號","121.48543","24.9926916666667","6500300","中和區"
"235055","183-VK","2017/07/06 19:30:02","新北市中和區莒光路120巷13弄1號","121.47165","25.0015966666667","6500300","中和區"
"235038","185-VK","2017/07/06 19:30:02","新北市中和區大仁街20巷50號","121.520138333333","24.9932883333333","6500300","中和區"
"235049","186-VK","2017/07/06 19:30:03","新北市中和區景新街285巷24號","121.510825","24.993695","6500300","中和區"
"235067","255-BX","2017/07/06 19:30:05","新北市中和區新生街174號","121.483655","24.99996","6500300","中和區"
"235072","301-VK","2017/07/06 19:29:51","新北市中和區連城路263巷4弄6號","121.491621666667","24.9956083333333","6500300","中和區"
"235043","352-BY","2017/07/06 19:29:55","新北市中和區南山路84號","121.5027","24.9951066666667","6500300","中和區"
"235051","376-QA","2017/07/06 19:29:58","新北市中和區景平路241巷9號","121.509466666667","24.99251","6500300","中和區"
"235068","377-QA","2017/07/06 19:29:55","新北市中和區連勝街57巷10號","121.497871666667","24.9969033333333","6500300","中和區"
"235061","378-QA","2017/07/06 19:29:59","新北市中和區員山路143巷40弄1號","121.479076666667","24.995555","6500300","中和區"
"235050","4979-A6","2017/07/06 19:30:06","新北市中和區員山路36巷16-6號","121.485335","24.9921383333333","6500300","中和區"
"235042","551-UM","2017/07/06 19:29:59","新北市中和區中和路378巷14弄2-8號","121.511243333333","25.0017933333333","6500300","中和區"
"235070","558-UM","2017/07/06 19:29:59","新北市中和區連城路9巷7號","121.499513333333","25.0018666666667","6500300","中和區"
"235045","565-BX","2017/07/06 19:30:01","新北市中和區景新街423巷33弄1號","121.51384","24.9897883333333","6500300","中和區"
"235054","640-BX","2017/07/06 19:30:01","新北市中和區國光街109巷7號","121.46984","25.0000933333333","6500300","中和區"
"235060","647-TV","2017/07/06 19:30:09","新北市中和區民有街3號","121.475586666667","25.00569","6500300","中和區"
"235047","732-UM","2017/07/06 19:29:54","新北市中和區景平路241巷64弄2號","121.507763333333","24.9923616666667","6500300","中和區"
"235046","733-UM","2017/07/06 19:29:51","新北市中和區忠孝街37巷22號","121.510838333333","24.9841966666667","6500300","中和區"
"235071","783-BX","2017/07/06 19:29:55","新北市中和區連城路469巷21弄22號","121.484241666667","24.9950483333333","6500300","中和區"
"235057","801-TS","2017/07/06 19:29:53","新北市中和區員山路423巷17號","121.480421666667","25.0027116666667","6500300","中和區"
"235041","802-TS","2017/07/06 19:30:04","新北市永和區中和路385號","121.508578333333","25.0000166666667","6500300","中和區"
"235052","805-TS","2017/07/06 19:30:03","新北市中和區華新街143巷102號","121.506753333333","24.9787683333333","6500300","中和區"
"235048","896-TW","2017/07/06 19:29:53","新北市中和區景新街473號","121.513503333333","24.9878866666667","6500300","中和區"
"235053","900-TW","2017/07/06 19:30:00","新北市中和區華安街19巷29弄4號","121.467866666667","24.99839","6500300","中和區"
"235063","911-UM","2017/07/06 19:30:06","新北市中和區連勝街121巷16號","121.495171666667","24.9944816666667","6500300","中和區"
"235037","157-BY","2017/07/06 19:29:56","新北市中和區秀朗路三段50巷4弄1號","121.525661666667","24.99537","6500300","中和區"
"235059","AAC-215","2017/07/06 19:29:54","新北市中和區圓通路252巷6-2號","121.49279","24.9919083333333","6500300","中和區"
"220068","013-TV","2017/07/06 19:30:02","新北市板橋區中山路二段505巷2號","121.482566666667","25.0213","6500100","板橋區"
"220065","072-UY","2017/07/06 19:30:04","新北市板橋區國泰街75巷45號","121.46834","25.0047683333333","6500100","板橋區"
"220086","073-UY","2017/07/06 19:30:03","新北市板橋區國光路31巷17號","121.456753333333","25.018465","6500100","板橋區"
"220069","AAD-861","2017/07/06 19:29:49","新北市板橋區貴興路37號","121.45757","25.0038033333333","6500100","板橋區"
"220106","120-SR","2017/07/06 19:29:57","新北市板橋區長江路三段68號","121.473873333333","25.0341","6500100","板橋區"
"247014","057-VK","2017/07/06 19:30:05","新北市蘆洲區忠孝路74號","121.471561666667","25.0854233333333","6501400","蘆洲區"
"247004","056-VK","2017/07/06 19:29:42","新北市蘆洲區長安街158號","121.459456666667","25.0828333333333","6501400","蘆洲區"
"226004","205-ST","2017/07/06 19:29:50","新北市平溪區十分里十分街192號","121.778851666667","25.044065","6502400","平溪區"
"226002","7418-A5","2017/07/06 15:39:01","新北市平溪區石底里公園街18-3號","121.733465","25.0256366666667","6502400","平溪區"
"228003","097-TW","2017/07/06 19:30:08","新北市貢寮區和美里和美街19-2號","121.912833333333","25.0825583333333","6502600","貢寮區"
"228001","212-TW","2017/07/06 19:30:06","新北市貢寮區真理里延平街68-1號","121.925376666667","25.0574566666667","6502600","貢寮區"
"228002","585-TW","2017/07/06 19:30:09","新北市貢寮區龍門里龍門街69號","121.930961666667","25.026465","6502600","貢寮區"
"224006","676-BX","2017/07/06 19:29:54","新北市瑞芳區三爪子坑路106巷1-11號","121.807793333333","25.10512","6501200","瑞芳區"
"224002","639-TC","2017/07/06 19:29:59","新北市瑞芳區三爪子坑路27號","121.813888333333","25.1074983333333","6501200","瑞芳區"
"224011","420-VK","2017/07/06 19:29:56","新北市瑞芳區崙頂路3-1號","121.847013333333","25.1046983333333","6501200","瑞芳區"
"227010","642-TC","2017/07/06 19:30:04","新北市雙溪區新基里新基北街43號","121.868163333333","25.0396833333333","6502500","雙溪區"
"227004","400-TW","2017/07/06 19:29:59","新北市雙溪區雙溪里光復街18號","121.865136666667","25.0354333333333","6502500","雙溪區"
"253006","032-BX","2017/07/06 19:29:55","新北市石門區老崩山7號","121.553338333333","25.2913566666667","6502200","石門區"
"253005","295-VK","2017/07/06 19:29:52","新北市石門區小坑9號","121.594138333333","25.2862283333333","6502200","石門區"
"208003","665-BX","2017/07/06 19:29:58","新北市金山區中山路263巷14號","121.636355","25.2215416666667","6502700","金山區"
"208001","761-BX","2017/07/06 19:30:02","新北市金山區南勢78號","121.626668333333","25.2204116666667","6502700","金山區"
"251009","008-UM","2017/07/06 19:12:02","新北市淡水區中正路55號","121.441736666667","25.1695183333333","6501000","淡水區"
"251007","179-VK","2017/07/06 19:29:53","新北市淡水區坪頂路11號","121.455621666667","25.1604183333333","6501000","淡水區"
"251008","181-VK","2017/07/06 19:29:52","新北市淡水區中正路一段80號","121.424751666667","25.17726","6501000","淡水區"
"251014","182-VK","2017/07/06 19:30:07","新北市淡水區小中寮19-7號","121.484755","25.2296116666667","6501000","淡水區"
"251010","413-VK","2017/07/06 19:29:57","新北市淡水區中正路二段151號","121.4228","25.1877066666667","6501000","淡水區"
"251016","442-VK","2017/07/06 19:29:53","新北市淡水區下圭柔山119-51號","121.450781666667","25.2084083333333","6501000","淡水區"
"251005","443-VK","2017/07/06 19:29:59","新北市淡水區水源街一段71巷18號","121.444378333333","25.1730283333333","6501000","淡水區"
"251001","559-UM","2017/07/06 19:30:03","新北市淡水區民權路159號","121.459998333333","25.13605","6501000","淡水區"
"251006","561-UM","2017/07/06 19:29:56","新北市淡水區大義街40號","121.441971666667","25.1783383333333","6501000","淡水區"
"251011","650-BX","2017/07/06 19:30:04","新北市淡水區中正東路二段143巷2弄1號","121.460691666667","25.1473533333333","6501000","淡水區"
"251003","766-UM","2017/07/06 19:30:01","新北市淡水區中山北路三段165-1號","121.444818333333","25.196975","6501000","淡水區"
"207003","550-UM","2017/07/06 19:30:01","新北市萬里區大鵬里萬里加投154號","121.644001666667","25.2149266666667","6502800","萬里區"
"207004","225-TW","2017/07/06 19:29:51","新北市萬里區萬里里瑪鋉路121號","121.689021666667","25.177975","6502800","萬里區"
"252002","178-VK","2017/07/06 19:29:55","新北市三芝區淡金路二段18-1號","121.50269","25.2595566666667","6502100","三芝區"
"252001","702-TV","2017/07/06 19:30:10","新北市三芝區長勤街63-3號","121.500161666667","25.255755","6502100","三芝區"
"252005","AAC-283","2017/07/06 16:14:18","新北市三芝區埔坪里埔頭坑41號","121.504431666667","25.2644783333333","6502100","三芝區"
"208002","170-UY","2017/07/06 19:29:52","新北市金山區仁愛路87巷1號","121.63455","25.221525","6502700","金山區"
"237004","078-UY","2017/07/06 19:29:50","新北市三峽區有木206號","121.439113333333","24.8516983333333","6500900","三峽區"
"237007","153-BY","2017/07/06 19:30:05","新北市三峽區二鬮路178號","121.359103333333","24.9068583333333","6500900","三峽區"
"237009","210-TH","2017/07/06 19:29:56","新北市三峽區仁愛街5號","121.368478333333","24.934085","6500900","三峽區"
"237013","252-BX","2017/07/06 19:29:53","新北市三峽區中山路93號","121.366308333333","24.9354516666667","6500900","三峽區"
"237012","275-BY","2017/07/06 19:29:49","新北市三峽區三樹路98巷189號","121.385141666667","24.941595","6500900","三峽區"
"237008","302-VK","2017/07/06 19:30:00","新北市三峽區大同路119巷2號","121.374238333333","24.9265933333333","6500900","三峽區"
"237014","433-BY","2017/07/06 19:29:52","新北市三峽區中山路186號","121.36386","24.9368916666667","6500900","三峽區"
"237006","5529-G3","2017/07/06 19:30:04","新北市三峽區中正路一段336巷15弄2號","121.369961666667","24.9249433333333","6500900","三峽區"
"237011","572-TV","2017/07/06 19:30:07","新北市三峽區中正路一段500號","121.370228333333","24.9205866666667","6500900","三峽區"
"237016","649-BX","2017/07/06 19:30:05","新北市三峽區建安34號","121.446693333333","24.927535","6500900","三峽區"
"237010","706-TV","2017/07/06 19:20:59","新北市三峽區復興路163號","121.370315","24.9384666666667","6500900","三峽區"
"237005","AKY-6261","2017/07/06 19:29:50","新北市三峽區復興路367巷1弄2號","121.363776666667","24.9381683333333","6500900","三峽區"
"236071","105-UM","2017/07/06 19:29:53","新北市土城區學府路一段143巷20弄2號","121.453733333333","24.98536","6501300","土城區"
"236042","107-UM","2017/07/06 19:30:05","新北市土城區學府路一段276號","121.449896666667","24.98298","6501300","土城區"
"236078","166-UM","2017/07/06 19:30:05","新北市土城區中州路3巷35號","121.413541666667","24.9565016666667","6501300","土城區"
"236030","253-BX","2017/07/06 19:30:02","新北市土城區中央路一段361號","121.443121666667","24.9810383333333","6501300","土城區"
"236026","269-VK","2017/07/06 19:29:55","新北市土城區中央路二段61巷28號","121.44346","24.97882","6501300","土城區"
"236021","401-BY","2017/07/06 19:30:06","新北市土城區峰廷街3號","121.469191666667","24.987435","6501300","土城區"
"236058","912-UM","2017/07/06 19:29:50","新北市土城區中央路二段187號","121.442105","24.9756316666667","6501300","土城區"
"236051","913-UM","2017/07/06 19:30:01","新北市土城區清水路184號","121.46017","24.9817383333333","6501300","土城區"
"242031","415-TV","2017/07/06 19:29:54","新北市新莊區新泰路225巷6號","121.445846666667","25.0392466666667","6500500","新莊區"
"242003","233-RS","2017/07/06 08:29:03","新北市新莊區環河路48-7號","121.436943333333","25.0097833333333","6500500","新莊區"
"238023","601-UM","2017/07/06 19:30:06","新北市樹林區三興路2-2號","121.398021666667","25.01563","6500700","樹林區"
"238006","599-UM","2017/07/06 19:29:50","新北市樹林區東榮街91巷2弄4號","121.41587","24.982365","6500700","樹林區"
"238018","571-TV","2017/07/06 19:29:59","新北市樹林區中華路115號","121.422203333333","24.9826366666667","6500700","樹林區"
"238024","5061-A6","2017/07/06 19:30:03","新北市樹林區福德街47號","121.39953","24.9747916666667","6500700","樹林區"
"238022","312-TH","2017/07/06 19:29:54","新北市樹林區國凱街31號","121.419895","24.97871","6500700","樹林區"
"238021","311-TH","2017/07/06 19:12:25","新北市樹林區柑園街二段310號","121.373431666667","24.951855","6500700","樹林區"
"238025","303-VK","2017/07/06 19:30:09","新北市樹林區中華路190-6號","121.410528333333","24.9806316666667","6500700","樹林區"
"238017","283-BY","2017/07/06 19:29:55","新北市樹林區光興街153-6號","121.408241666667","25.0031783333333","6500700","樹林區"
"238014","282-BY","2017/07/06 19:29:52","新北市樹林區保安二街40巷26號","121.425803333333","24.9950333333333","6500700","樹林區"
"238020","268-VK","2017/07/06 19:29:53","新北市樹林區俊英街155巷9弄2號","121.423993333333","25.0119833333333","6500700","樹林區"
"238026","172-UY","2017/07/06 19:29:58","新北市樹林區佳園路三段73號","121.38763","24.9527333333333","6500700","樹林區"
"238016","169-UY","2017/07/06 19:29:52","新北市樹林區大安路537巷5號","121.413355","24.9844416666667","6500700","樹林區"
"239007","AAC-297","2017/07/06 19:29:56","新北市鶯歌區大湖路余厝巷1-1號","121.342363333333","24.9612616666667","6500800","鶯歌區"
"239006","891-R6","2017/07/06 19:29:50","新北市鶯歌區鶯桃路91巷42弄2號","121.336876666667","24.95207","6500800","鶯歌區"
"239008","527-UM","2017/07/06 19:30:03","新北市鶯歌區大湖路460巷2弄2號","121.339938333333","24.9724133333333","6500800","鶯歌區"
"239005","526-UM","2017/07/06 19:29:51","新北市鶯歌區中湖街152巷3號","121.34978","24.9736183333333","6500800","鶯歌區"
"239001","417-VK","2017/07/06 19:30:03","新北市鶯歌區尖山埔路144號","121.343651666667","24.9497683333333","6500800","鶯歌區"
"239003","360-BY","2017/07/06 19:30:05","新北市鶯歌區國慶街155號","121.351066666667","24.95323","6500800","鶯歌區"
"239004","193-VK","2017/07/06 19:29:57","新北市鶯歌區鶯華新村1號","121.329956666667","24.9350666666667","6500800","鶯歌區"
"221008","489-VK","2017/07/06 19:29:57","新北市汐止區三民街1巷1號","121.624351666667","25.0669266666667","6501100","汐止區"
"221036","130-UY","2017/07/06 19:29:57","新北市汐止區汐萬路一段256巷1號","121.651953333333","25.074695","6501100","汐止區"
"221015","131-UY","2017/07/06 19:30:02","新北市汐止區汐萬路一段256巷1號","121.651758333333","25.0748883333333","6501100","汐止區"
"221010","269-BY","2017/07/06 19:30:04","新北市汐止區康寧街901號","121.651465","25.0750366666667","6501100","汐止區"
"221010","276-VK","2017/07/06 13:16:58","新北市汐止區汐萬路一段256巷3號","121.653446666667","25.0745783333333","6501100","汐止區"
"221031","277-VK","2017/07/06 00:12:29","新北市汐止區汐萬路一段256巷3號","121.652538333333","25.0745033333333","6501100","汐止區"
"221012","278-VK","2017/07/06 19:29:55","新北市汐止區大同路三段184號","121.674333333333","25.0746616666667","6501100","汐止區"
"221023","279-VK","2017/07/06 19:29:50","新北市汐止區康寧街482-7號","121.632891666667","25.0683183333333","6501100","汐止區"
"221027","281-BY","2017/07/06 19:29:59","新北市汐止區水源路一段56號","121.65754","25.0656066666667","6501100","汐止區"
"221038","297-VK","2017/07/06 19:30:03","新北市汐止區汐萬路一段306號","121.65041","25.0745866666667","6501100","汐止區"
"221029","298-VK","2017/07/06 19:29:55","新北市汐止區康寧街901號","121.651565","25.07494","6501100","汐止區"
"221021","299-VK","2017/07/06 19:16:41","新北市汐止區汐萬路一段256巷3號","121.65211","25.0744433333333","6501100","汐止區"
"221025","623-UM","2017/07/06 19:30:00","新北市汐止區新台五路二段10號","121.660303333333","25.06505","6501100","汐止區"
"221033","647-BX","2017/07/06 19:29:56","新北市汐止區南勢街1巷1號","121.627036666667","25.037415","6501100","汐止區"
"221002","707-TV","2017/07/06 19:29:58","新北市汐止區大同路一段337巷17弄1號","121.637383333333","25.0598233333333","6501100","汐止區"
"221018","753-BX","2017/07/06 19:30:06","新北市汐止區康寧街901號","121.651385","25.0749883333333","6501100","汐止區"
"220079","145-BY","2017/07/06 19:29:52","新北市板橋區民權路296號","121.457201666667","25.0159733333333","6500100","板橋區"
"220082","610-BX","2017/07/06 19:30:09","新北市板橋區金門街299號","121.430045","24.9865133333333","6500100","板橋區"
"220103","257-TC","2017/07/06 19:29:55","新北市板橋區文化路一段212巷2弄1號","121.466553333333","25.020035","6500100","板橋區"
"220091","267-BY","2017/07/06 19:29:51","新北市板橋區文聖街135巷25號","121.47896","25.0290616666667","6500100","板橋區"
"220056","276-BY","2017/07/06 19:29:48","新北市板橋區信義路217號","121.459508333333","24.99145","6500100","板橋區"
"220072","277-BY","2017/07/06 19:29:55","新北市板橋區金門街337巷14弄2號","121.43043","24.9845866666667","6500100","板橋區"
"220094","283-UM","2017/07/06 19:29:38","新北市板橋區吳鳳路50號","121.467915","25.0304416666667","6500100","板橋區"
"220071","283-VK","2017/07/06 19:30:04","新北市板橋區大豐街30號","121.461846666667","25.0013316666667","6500100","板橋區"
"220101","285-UM","2017/07/06 19:30:01","新北市板橋區縣民大道三段133巷1號","121.47753","25.02315","6500100","板橋區"
"220053","285-VK","2017/07/06 19:30:02","新北市板橋區富山街53巷1弄3號","121.477621666667","25.0207166666667","6500100","板橋區"
"220083","286-VK","2017/07/06 19:30:00","新北市板橋區大觀路二段174巷186弄16號","121.442935","25.003385","6500100","板橋區"
"220081","287-VK","2017/07/06 19:29:51","新北市板橋區南雅西路一段49號","121.453758333333","25.0048283333333","6500100","板橋區"
"220090","288-VK","2017/07/06 19:29:53","新北市板橋區長江路一段106巷20弄11號","121.460173333333","25.0282016666667","6500100","板橋區"
"220061","293-UM","2017/07/06 19:29:50","新北市板橋區中山路二段255巷1號","121.477095","25.0178166666667","6500100","板橋區"
"220084","296-UM","2017/07/06 19:29:57","新北市板橋區溪北路101號","121.428841666667","24.9892216666667","6500100","板橋區"
"220075","297-UM","2017/07/06 19:30:02","新北市板橋區中正路253巷15號","121.454981666667","25.0179466666667","6500100","板橋區"
"220092","299-UM","2017/07/06 19:29:50","新北市板橋區文化路二段125巷17號","121.469523333333","25.0272716666667","6500100","板橋區"
"220062","305-R5","2017/07/06 19:29:59","新北市板橋區三民路二段183號","121.479176666667","25.0143266666667","6500100","板橋區"
"220098","317-R6","2017/07/06 19:30:02","新北市板橋區四維路266巷2弄2-1號","121.46377","25.0285833333333","6500100","板橋區"
"220080","461-BY","2017/07/06 19:29:51","新北市板橋區大觀路二段3巷23號","121.44813","25.0036833333333","6500100","板橋區"
"220064","486-VK","2017/07/06 19:30:03","新北市板橋區中山路一段24號","121.460271666667","25.0082116666667","6500100","板橋區"
"220089","487-VK","2017/07/06 19:29:58","新北市板橋區文化路一段149號","121.462538333333","25.0157166666667","6500100","板橋區"
"220088","491-VK","2017/07/06 19:29:14","新北市板橋區雙十路二段143號","121.474923333333","25.0278933333333","6500100","板橋區"
"220035","560-BX","2017/07/06 19:29:54","新北市板橋區中正路399巷34號","121.45298","25.0229016666667","6500100","板橋區"
"220063","609-BX","2017/07/06 19:30:06","新北市板橋區萬安街53巷38號","121.482906666667","25.0236533333333","6500100","板橋區"
"220057","686-BX","2017/07/06 19:29:55","新北市板橋區五權街53號","121.464671666667","24.993605","6500100","板橋區"
"220077","687-BX","2017/07/06 19:30:04","新北市板橋區僑中二街112巷1號","121.445833333333","25.0070233333333","6500100","板橋區"
"220093","689-BX","2017/07/06 19:29:47","新北市板橋區新海路72巷5弄43號","121.461103333333","25.0234333333333","6500100","板橋區"
"220054","741-BX","2017/07/06 19:29:54","新北市板橋區光明街142號","121.463926666667","25.0030866666667","6500100","板橋區"
"220055","827-TW","2017/07/06 19:30:05","新北市板橋區實踐路132號","121.46448","25.00259","6500100","板橋區"
"220102","830-TW","2017/07/06 19:30:02","新北市板橋區雙十路二段98號","121.474753333333","25.02862","6500100","板橋區"
"220096","831-TW","2017/07/06 19:30:08","新北市板橋區大同街21巷22號","121.477","25.02779","6500100","板橋區"
"220074","895-R6","2017/07/06 19:29:59","新北市板橋區中正路自強新村68-1號","121.45476","25.013155","6500100","板橋區"
"220073","985-R7","2017/07/06 19:30:07","新北市板橋區瑞安街58號","121.455453333333","25.0216333333333","6500100","板橋區"
"220097","AAC-210","2017/07/06 19:30:00","新北市板橋區陽明街133號","121.463293333333","25.0239783333333","6500100","板橋區"
"220070","AAC-253","2017/07/06 19:30:04","新北市板橋區忠孝路170號","121.464416666667","25.0024733333333","6500100","板橋區"
