"lineid","car","time","location","longitude","latitude","cityid","cityname"
"234046","148-BY","2017/07/06 20:07:50","新北市永和區成功路一段119號","121.526885","25.0020316666667","6500400","永和區"
"234013","149-BY","2017/07/06 20:08:08","新北市永和區保生路55號","121.50474","25.0106066666667","6500400","永和區"
"234007","207-UY","2017/07/06 20:07:58","新北市永和區仁愛路295號","121.504871666667","25.0091316666667","6500400","永和區"
"234081","298-R6","2017/07/06 20:08:01","新北市永和區國中路12號","121.524401666667","25.0049966666667","6500400","永和區"
"234038","336-UY","2017/07/06 20:07:56","新北市永和區成功路一段47巷21弄2號","121.527938333333","25.0039533333333","6500400","永和區"
"234064","337-UY","2017/07/06 20:07:51","新北市永和區永利路96號","121.52093","25.0037","6500400","永和區"
"234086","338-UY","2017/07/06 20:07:52","新北市永和區福和路130號","121.521906666667","25.0078816666667","6500400","永和區"
"234070","552-UM","2017/07/06 20:08:07","新北市永和區永安街7巷3號","121.518611666667","25.0061416666667","6500400","永和區"
"234054","553-UM","2017/07/06 20:08:02","新北市永和區博愛街19巷1號","121.517426666667","25.0158416666667","6500400","永和區"
"234017","745-BX","2017/07/06 20:07:56","新北市永和區文化路9巷2號","121.515295","25.0149666666667","6500400","永和區"
"234030","746-BX","2017/07/06 20:08:05","新北市永和區民權路84號","121.51993","24.9969633333333","6500400","永和區"
"234061","AAD-866","2017/07/06 20:07:52","新北市永和區中正路283巷27號","121.516386666667","24.9998533333333","6500400","永和區"
"234042","862-TW","2017/07/06 20:07:55","新北市永和區雙和街64巷22弄8號","121.509681666667","25.0028566666667","6500400","永和區"
"234050","863-TW","2017/07/06 20:07:59","新北市永和區環河西路二段125號","121.506003333333","25.0145016666667","6500400","永和區"
"234026","9372-KE","2017/07/06 20:07:57","新北市永和區保生路55-1號","121.50451","25.0109233333333","6500400","永和區"
"234011","9373-KE","2017/07/06 20:08:07","新北市永和區仁愛路352巷112弄12號","121.501105","25.0085583333333","6500400","永和區"
"249005","172-UM","2017/07/06 20:08:08","新北市八里區下罟子47-6號","121.384245","25.1368766666667","6502300","八里區"
"249001","173-UM","2017/07/06 20:07:47","新北市八里區中華路二段312號","121.40377","25.1483616666667","6502300","八里區"
"249004","303-UY","2017/07/06 20:07:57","新北市八里區中山路一段452號","121.410455","25.1569816666667","6502300","八里區"
"249002","305-UY","2017/07/06 20:07:57","新北市五股區成泰路四段44號","121.455843333333","25.110315","6502300","八里區"
"249003","593-UM","2017/07/06 20:07:59","新北市八里區訊塘路78號","121.397666666667","25.1460883333333","6502300","八里區"
"248016","026-BX","2017/07/06 20:07:55","新北市五股區成泰路三段577巷80弄82號","121.44888","25.1047833333333","6501500","五股區"
"248008","095-VK","2017/07/06 20:08:07","新北市五股區中興路一段1巷11號","121.469461666667","25.0714866666667","6501500","五股區"
"248020","225-UY","2017/07/06 20:07:53","新北市五股區凌雲路三段20-7號","121.437695","25.1035533333333","6501500","五股區"
"248012","247-BX","2017/07/06 15:18:16","新北市五股區中興路二段37巷24號","121.460731666667","25.0749816666667","6501500","五股區"
"248014","261-SL","2017/07/06 20:08:01","新北市五股區五福路14巷27號","121.435331666667","25.0889183333333","6501500","五股區"
"248010","272-BY","2017/07/06 20:07:51","新北市五股區成泰路一段7巷66號","121.432633333333","25.0678166666667","6501500","五股區"
"248004","677-BX","2017/07/06 20:08:01","新北市五股區成泰路一段54號","121.435451666667","25.0693866666667","6501500","五股區"
"248002","678-BX","2017/07/06 20:08:01","新北市五股區成泰路三段369-1號","121.448836666667","25.0958216666667","6501500","五股區"
"234023","9380-KE","2017/07/06 20:07:49","新北市永和區永和路二段159號","121.515193333333","25.0129783333333","6500400","永和區"
"234077","969-R7","2017/07/06 20:08:04","新北市永和區民享街23巷11號","121.51629","24.9952483333333","6500400","永和區"
"234074","AAC-211","2017/07/06 20:07:53","新北市永和區豫溪街185號","121.522493333333","25.0103966666667","6500400","永和區"
"234067","AAC-212","2017/07/06 20:07:51","新北市永和區永貞路364-1號","121.510238333333","25.006805","6500400","永和區"
"234003","AAC-295","2017/07/06 20:05:53","新北市永和區中正路609巷3號","121.516113333333","25.0093","6500400","永和區"
"243013","AAD-798","2017/07/06 20:08:06","新北市泰山區明志路三段74巷23號","121.423901666667","25.0416866666667","6501600","泰山區"
"243009","297-R6","2017/07/06 20:07:55","新北市泰山區泰林路二段138號","121.434233333333","25.0598","6501600","泰山區"
"243015","380-SR","2017/07/06 20:08:01","新北市泰山區明志路一段384號","121.430731666667","25.05754","6501600","泰山區"
"243014","421-VK","2017/07/06 20:07:58","新北市泰山區明志路一段24號","121.433563333333","25.065455","6501600","泰山區"
"243010","548-UM","2017/07/06 20:08:05","新北市泰山區明志路二段136巷24號","121.426191666667","25.051915","6501600","泰山區"
"243011","549-UM","2017/07/06 20:07:53","新北市泰山區壽山路52號","121.420216666667","25.0291433333333","6501600","泰山區"
"243012","646-TV","2017/07/06 20:07:57","新北市泰山區楓江路48號","121.435181666667","25.0623283333333","6501600","泰山區"
"243016","680-BX","2017/07/06 20:07:49","新北市泰山區明志路三段257號","121.423343333333","25.037345","6501600","泰山區"
"222003","436-BY","2017/07/06 20:07:51","新北市深坑區埔新街67號","121.620081666667","25.002385","6501800","深坑區"
"222002","659-BX","2017/07/06 20:08:01","新北市深坑區北深路二段133號","121.615078333333","25.0025266666667","6501800","深坑區"
"222001","696-SL","2017/07/06 20:07:47","新北市深坑區北深路三段183號","121.601443333333","25.0036466666667","6501800","深坑區"
"231061","001-UM","2017/07/06 20:07:51","新北市新店區安興路61號","121.516126666667","24.9724866666667","6500600","新店區"
"231041","002-UM","2017/07/06 20:07:59","新北市新店區中正路460號","121.534025","24.9793916666667","6500600","新店區"
"231056","0291-UT","2017/07/06 20:08:02","新北市新店區北新路二段73號","121.542853333333","24.9736533333333","6500600","新店區"
"231059","046-UY","2017/07/06 20:07:54","新北市新店區安德街49號","121.511106666667","24.962165","6500600","新店區"
"231060","106-UY","2017/07/06 20:07:47","新北市新店區安康路三段90號","121.49183","24.9519483333333","6500600","新店區"
"231051","107-UY","2017/07/06 20:08:04","新北市新店區中央路226號","121.529483333333","24.9728616666667","6500600","新店區"
"231047","108-UY","2017/07/06 20:08:06","新北市新店區永華街61號","121.54474","24.9754716666667","6500600","新店區"
"231068","110-UY","2017/07/06 20:08:05","新北市新店區中正路111號","121.542496666667","24.9706683333333","6500600","新店區"
"231052","187-VK","2017/07/06 20:07:54","新北市新店區新烏路三段266號","121.550298333333","24.9001516666667","6500600","新店區"
"231057","256-BX","2017/07/06 20:07:57","新北市新店區花園一路一段2號","121.553141666667","24.93239","6500600","新店區"
"231063","268-BY","2017/07/06 20:08:05","新北市新店區黎明路56巷2號","121.502326666667","24.9478033333333","6500600","新店區"
"231050","AAD-862","2017/07/06 20:08:01","新北市新店區中生路61號","121.564743333333","24.952245","6500600","新店區"
"231055","3713-VJ","2017/07/06 20:08:05","新北市新店區中華路48巷38號","121.541118333333","24.9694283333333","6500600","新店區"
"231067","4772-VM","2017/07/06 20:07:58","新北市新店區秀山路64號","121.531723333333","24.9603583333333","6500600","新店區"
"231065","512-UM","2017/07/06 20:07:55","新北市新店區安祥路106巷311號","121.472365","24.9582116666667","6500600","新店區"
"231054","513-UM","2017/07/06 20:07:54","新北市新店區光明街284號","121.540401666667","24.964605","6500600","新店區"
"231064","515-UM","2017/07/06 20:08:02","新北市新店區安光路10-1號","121.513711666667","24.964155","6500600","新店區"
"231042","616-UM","2017/07/06 20:08:08","新北市新店區中興路二段200-1號","121.548286666667","24.9741116666667","6500600","新店區"
"231045","617-UM","2017/07/06 20:07:49","新北市新店區北宜路二段5號","121.547713333333","24.95194","6500600","新店區"
"231040","619-UM","2017/07/06 20:07:59","新北市新店區中正路86號","121.543536666667","24.9704433333333","6500600","新店區"
"231049","719-UM","2017/07/06 20:08:00","新北市新店區北新路二段171巷13號","121.54212","24.97633","6500600","新店區"
"231062","720-UM","2017/07/06 20:08:04","新北市新店區車子路10-4號","121.505021666667","24.9545766666667","6500600","新店區"
"231044","897-TW","2017/07/06 20:08:05","新北市新店區寶元路一段15巷20號","121.542031666667","24.987","6500600","新店區"
"231043","899-TW","2017/07/06 20:08:04","新北市新店區中正路324號","121.536968333333","24.97479","6500600","新店區"
"231066","AKT-0513","2017/07/06 20:08:03","新北市新店區柴埕路52巷1-1號","121.51126","24.9642466666667","6500600","新店區"
"241011","013-R5","2017/07/06 20:08:01","新北市三重區秀江街263號","121.495673333333","25.0715216666667","6500200","三重區"
"241028","022-UY","2017/07/06 20:07:54","新北市三重區仁化街131號","121.494583333333","25.0575216666667","6500200","三重區"
"241008","059-VK","2017/07/06 20:07:51","新北市三重區永福街197巷55號","121.477008333333","25.0741216666667","6500200","三重區"
"241009","060-VK","2017/07/06 20:08:08","新北市三重區永福街46巷15弄7號","121.481375","25.07795","6500200","三重區"
"241031","061-VK","2017/07/06 20:07:57","新北市三重區重新路四段6-1號","121.489163333333","25.0580933333333","6500200","三重區"
"241015","062-VK","2017/07/06 20:08:03","新北市三重區福德北路61號","121.502096666667","25.0654583333333","6500200","三重區"
"241017","063-VK","2017/07/06 20:08:05","新北市三重區自強路一段173號","121.493033333333","25.0674933333333","6500200","三重區"
"241024","065-VK","2017/07/06 20:08:03","新北市三重區中正北路300-1號","121.47978","25.06882","6500200","三重區"
"241026","066-VK","2017/07/06 20:07:51","新北市三重區福德南路65巷2號","121.502281666667","25.060495","6500200","三重區"
"241003","091-VK","2017/07/06 20:08:07","新北市三重區仁愛街445巷1號","121.489961666667","25.08234","6500200","三重區"
"241002","156-TC","2017/07/06 20:08:03","新北市三重區五華街35巷4號","121.494635","25.0812283333333","6500200","三重區"
"241005","262-UM","2017/07/06 20:08:02","新北市三重區五華街180巷29號","121.488076666667","25.0855133333333","6500200","三重區"
"241032","265-UM","2017/07/06 20:08:04","新北市三重區捷運路73號","121.483093333333","25.0555083333333","6500200","三重區"
"241016","266-UM","2017/07/06 20:08:04","新北市三重區正義北路48巷74號","121.495613333333","25.0633783333333","6500200","三重區"
"241022","267-UM","2017/07/06 20:07:46","新北市三重區新北大道一段11號","121.48862","25.0606116666667","6500200","三重區"
"241018","268-UM","2017/07/06 20:07:58","新北市三重區正義北路256巷48號","121.494866666667","25.0681966666667","6500200","三重區"
"241013","270-UM","2017/07/06 20:08:09","新北市三重區三和路三段139巷28號","121.493555","25.07395","6500200","三重區"
"241025","271-UM","2017/07/06 20:07:58","新北市三重區中正北路237號","121.475641666667","25.0705833333333","6500200","三重區"
"241007","398-BY","2017/07/06 20:07:46","新北市三重區溪尾街108巷46弄1-1號","121.487728333333","25.07783","6500200","三重區"
"241020","413-TH","2017/07/06 20:08:02","新北市三重區大智街165巷13號","121.490343333333","25.07256","6500200","三重區"
"241035","462-BY","2017/07/06 20:08:06","新北市三重區平安街11號","121.498688333333","25.0643316666667","6500200","三重區"
"241004","475-VK","2017/07/06 20:08:06","新北市三重區自強路四段112號","121.49172","25.0801033333333","6500200","三重區"
"241019","478-VK","2017/07/06 20:08:02","新北市三重區自強路二段24號","121.489546666667","25.0692733333333","6500200","三重區"
"241030","480-VK","2017/07/06 20:08:09","新北市三重區成功路145巷15號","121.487346666667","25.0527833333333","6500200","三重區"
"241014","543-UM","2017/07/06 20:07:55","新北市三重區長樂街55號","121.500486666667","25.06922","6500200","三重區"
"241023","545-UM","2017/07/06 20:08:02","新北市三重區頂崁街205號","121.47719","25.0675116666667","6500200","三重區"
"241001","547-UM","2017/07/06 20:08:01","新北市三重區溪尾街42-1號","121.490956666667","25.0769433333333","6500200","三重區"
"241006","AAD-863","2017/07/06 20:07:51","新北市三重區力行路二段123巷12號","121.483628333333","25.07637","6500200","三重區"
"241012","941-UM","2017/07/06 20:07:58","新北市三重區仁興街56巷39號","121.498116666667","25.07563","6500200","三重區"
"241029","942-UM","2017/07/06 20:07:49","新北市三重區重新路三段204號","121.490031666667","25.0585566666667","6500200","三重區"
"241033","AAC-255","2017/07/06 20:08:03","新北市三重區光復路一段68巷39號","121.469758333333","25.0492883333333","6500200","三重區"
"235066","003-UY","2017/07/06 20:08:03","新北市中和區中山路二段3巷32號","121.507188333333","25.0050383333333","6500300","中和區"
"235056","096-UM","2017/07/06 20:07:58","新北市中和區中山路三段163號","121.473301666667","25.00619","6500300","中和區"
"235039","097-UM","2017/07/06 20:07:51","新北市中和區大勇街25巷29弄2號","121.515293333333","24.9940816666667","6500300","中和區"
"235065","098-UM","2017/07/06 20:07:51","新北市中和區福祥路85巷2弄1號","121.498618333333","25.005725","6500300","中和區"
"235040","150-BY","2017/07/06 20:07:54","新北市中和區保健路26巷19號","121.508581666667","24.9972066666667","6500300","中和區"
"235058","151-BY","2017/07/06 20:08:05","新北市中和區連城路521號","121.481966666667","24.9953166666667","6500300","中和區"
"235055","183-VK","2017/07/06 20:08:02","新北市中和區民生街23巷3弄2號","121.47107","25.0050016666667","6500300","中和區"
"235038","185-VK","2017/07/06 20:08:01","新北市中和區自立路6號","121.522471666667","24.9965933333333","6500300","中和區"
"235067","255-BX","2017/07/06 20:08:04","新北市中和區新生街226號","121.483833333333","24.998275","6500300","中和區"
"235072","301-VK","2017/07/06 20:07:51","新北市新店區安康路二段382-2號","121.5004","24.9572733333333","6500300","中和區"
"235043","352-BY","2017/07/06 20:07:55","新北市中和區興南路二段159巷7號","121.505295","24.9830983333333","6500300","中和區"
"235051","376-QA","2017/07/06 20:07:37","新北市中和區景安路247巷7號","121.504326666667","24.990665","6500300","中和區"
"235068","377-QA","2017/07/06 20:07:55","新北市中和區福祥路83號","121.499138333333","25.0057433333333","6500300","中和區"
"235050","4979-A6","2017/07/06 20:07:46","新北市中和區景新街323-1號","121.511316666667","24.9920833333333","6500300","中和區"
"235069","4980-A6","2017/07/06 20:07:56","新北市中和區南山路127巷27弄28號","121.503351666667","24.99825","6500300","中和區"
"235070","558-UM","2017/07/06 20:07:59","新北市中和區景平路626巷5號","121.50046","24.997885","6500300","中和區"
"235054","640-BX","2017/07/06 20:08:01","新北市中和區莒光路65號","121.47229","25.0034816666667","6500300","中和區"
"235060","647-TV","2017/07/06 20:07:49","新北市中和區新生街35-1號","121.483278333333","25.0034716666667","6500300","中和區"
"235046","733-UM","2017/07/06 20:07:51","新北市中和區興南路一段105巷20弄16號","121.510396666667","24.9854733333333","6500300","中和區"
"235041","802-TS","2017/07/06 20:08:03","新北市中和區新興街17巷2號","121.512471666667","25.00245","6500300","中和區"
"235052","805-TS","2017/07/06 20:08:03","新北市中和區華新街30巷20弄1-2號","121.50651","24.9839383333333","6500300","中和區"
"235048","896-TW","2017/07/06 20:07:53","新北市中和區景新街467巷20弄118號","121.514801666667","24.986915","6500300","中和區"
"235053","900-TW","2017/07/06 20:07:59","新北市中和區國光街138號","121.468506666667","25.00136","6500300","中和區"
"235037","157-BY","2017/07/06 20:07:56","新北市中和區秀朗路三段36巷18號","121.52567","24.9958466666667","6500300","中和區"
"235059","AAC-215","2017/07/06 20:07:54","新北市中和區圓通路335巷7號","121.492981666667","24.9897116666667","6500300","中和區"
"220065","072-UY","2017/07/06 20:08:04","新北市板橋區長安街23號","121.46675","25.0087833333333","6500100","板橋區"
"220069","AAD-861","2017/07/06 20:08:09","新北市板橋區大明街15巷11號","121.458503333333","25.0021683333333","6500100","板橋區"
"220106","120-SR","2017/07/06 20:07:57","新北市板橋區文聖街11巷25號","121.475963333333","25.0329266666667","6500100","板橋區"
"247020","893-R6","2017/07/06 20:07:56","新北市蘆洲區民權路106巷5弄22號","121.474336666667","25.0892133333333","6501400","蘆洲區"
"247010","546-UM","2017/07/06 20:07:51","新北市蘆洲區信義路118號","121.479836666667","25.08219","6501400","蘆洲區"
"247018","500-BY","2017/07/06 20:07:56","新北市蘆洲區民族路314巷3弄9號","121.477045","25.0903266666667","6501400","蘆洲區"
"247008","339-TH","2017/07/06 20:07:57","新北市蘆洲區集賢路300號","121.48151","25.0850783333333","6501400","蘆洲區"
"247024","337-TH","2017/07/06 20:07:50","新北市蘆洲區光明路88巷19號","121.463326666667","25.0871283333333","6501400","蘆洲區"
"247014","057-VK","2017/07/06 20:07:05","新北市蘆洲區中山一路270號","121.471696666667","25.0794","6501400","蘆洲區"
"247004","056-VK","2017/07/06 20:07:58","新北市蘆洲區長安街267巷27號","121.457218333333","25.0830416666667","6501400","蘆洲區"
"247006","053-VK","2017/07/06 20:08:04","新北市蘆洲區中山二路309號","121.468853333333","25.0774933333333","6501400","蘆洲區"
"247012","007-UY","2017/07/06 20:07:57","新北市蘆洲區復興路258巷2弄9號","121.479648333333","25.0889966666667","6501400","蘆洲區"
"247022","002-UY","2017/07/06 20:07:51","新北市蘆洲區三民路158號","121.470296666667","25.088095","6501400","蘆洲區"
"247016","001-UY","2017/07/06 20:08:07","新北市蘆洲區光華路150巷18號","121.465278333333","25.0831066666667","6501400","蘆洲區"
"226004","205-ST","2017/07/06 20:07:50","新北市平溪區石底里公園街18-3號","121.734805","25.0249466666667","6502400","平溪區"
"226002","7418-A5","2017/07/06 15:39:01","新北市平溪區石底里公園街18-3號","121.733465","25.0256366666667","6502400","平溪區"
"224011","420-VK","2017/07/06 20:07:56","新北市瑞芳區崙頂路3-1號","121.84714","25.10447","6501200","瑞芳區"
"208003","665-BX","2017/07/06 20:07:58","新北市金山區海興路85號","121.632783333333","25.2401383333333","6502700","金山區"
"251009","008-UM","2017/07/06 20:08:02","新北市淡水區英專路2巷24號","121.44651","25.16924","6501000","淡水區"
"251004","009-UM","2017/07/06 20:07:52","新北市淡水區民族路31巷36號","121.462436666667","25.13657","6501000","淡水區"
"251008","181-VK","2017/07/06 20:07:56","新北市淡水區淡海路72巷30弄5號","121.424618333333","25.1825283333333","6501000","淡水區"
"251014","182-VK","2017/07/06 20:08:07","新北市淡水區石頭厝2-1號","121.458228333333","25.2355916666667","6501000","淡水區"
"251010","413-VK","2017/07/06 20:07:57","新北市淡水區崁頂五路303號","121.42478","25.1991816666667","6501000","淡水區"
"251012","441-VK","2017/07/06 20:07:51","新北市淡水區下圭柔山70-10號","121.447111666667","25.2065666666667","6501000","淡水區"
"251016","442-VK","2017/07/06 20:07:52","新北市淡水區番子田25-8號","121.45598","25.230435","6501000","淡水區"
"251005","443-VK","2017/07/06 20:07:59","新北市淡水區學府路110號","121.450068333333","25.1721966666667","6501000","淡水區"
"251001","559-UM","2017/07/06 20:08:03","新北市淡水區淡金路二段599號","121.446028333333","25.192485","6501000","淡水區"
"251006","561-UM","2017/07/06 20:07:56","新北市淡水區北新路141巷29號","121.448208333333","25.179635","6501000","淡水區"
"251011","650-BX","2017/07/06 20:08:04","新北市淡水區崁頂78-5號","121.429305","25.2073366666667","6501000","淡水區"
"251002","672-BX","2017/07/06 20:08:09","新北市淡水區中正路334號","121.435825","25.1731816666667","6501000","淡水區"
"251003","766-UM","2017/07/06 20:08:01","新北市淡水區新市一路二段257號","121.444005","25.18305","6501000","淡水區"
"207003","550-UM","2017/07/06 20:08:01","新北市萬里區大鵬里萬里加投68號","121.64247","25.2147733333333","6502800","萬里區"
"207004","225-TW","2017/07/06 20:07:51","新北市萬里區北基里愛一街1號","121.682565","25.1767716666667","6502800","萬里區"
"252002","178-VK","2017/07/06 20:07:55","新北市三芝區三民街39巷5號","121.505488333333","25.2576616666667","6502100","三芝區"
"252001","702-TV","2017/07/06 20:07:57","新北市三芝區公正街66號","121.499811666667","25.2575016666667","6502100","三芝區"
"252005","AAC-283","2017/07/06 16:14:18","新北市三芝區埔坪里埔頭坑41號","121.504431666667","25.2644783333333","6502100","三芝區"
"237007","153-BY","2017/07/06 20:08:05","新北市三峽區二鬮路136巷20弄13號","121.356618333333","24.9101416666667","6500900","三峽區"
"237009","210-TH","2017/07/06 20:07:56","新北市三峽區清水街426號","121.368725","24.9261366666667","6500900","三峽區"
"237013","252-BX","2017/07/06 19:39:08","新北市三峽區中山路459巷137號","121.350143333333","24.933975","6500900","三峽區"
"237012","275-BY","2017/07/06 20:08:08","新北市三峽區中華路96號","121.371056666667","24.9280816666667","6500900","三峽區"
"237008","302-VK","2017/07/06 20:07:59","新北市三峽區大同路196-2號","121.37097","24.9271366666667","6500900","三峽區"
"237014","433-BY","2017/07/06 20:07:52","新北市三峽區白雞11號","121.36883","24.9124733333333","6500900","三峽區"
"237006","5529-G3","2017/07/06 20:08:04","新北市三峽區嘉添181-3號","121.370188333333","24.9113983333333","6500900","三峽區"
"237016","649-BX","2017/07/06 20:08:05","新北市三峽區介壽路二段138巷1弄27號","121.397073333333","24.9332583333333","6500900","三峽區"
"237005","AKY-6261","2017/07/06 20:07:50","新北市三峽區三樹路44巷1號","121.378131666667","24.9376116666667","6500900","三峽區"
"236071","105-UM","2017/07/06 20:07:53","新北市土城區中央路三段143號","121.433026666667","24.9654583333333","6501300","土城區"
"236042","107-UM","2017/07/06 20:08:05","新北市土城區學成路22巷3號","121.45344","24.9874283333333","6501300","土城區"
"236078","166-UM","2017/07/06 20:07:53","新北市土城區中山路47號","121.420701666667","24.963035","6501300","土城區"
"236030","253-BX","2017/07/06 20:08:02","新北市土城區中央路一段118巷1弄19號","121.445651666667","24.987485","6501300","土城區"
"236026","269-VK","2017/07/06 20:07:55","新北市土城區裕生路71-1號","121.446965","24.9845916666667","6501300","土城區"
"236014","270-VK","2017/07/06 20:08:08","新北市土城區廣興街19號","121.45591","24.9916866666667","6501300","土城區"
"236037","271-VK","2017/07/06 20:07:50","新北市土城區明德路一段20巷1弄1號","121.464725","24.9848483333333","6501300","土城區"
"236021","401-BY","2017/07/06 20:07:46","新北市土城區延吉街95號","121.471685","24.98691","6501300","土城區"
"236058","912-UM","2017/07/06 20:07:50","新北市土城區中央路一段275號","121.444686666667","24.984785","6501300","土城區"
"236051","913-UM","2017/07/06 20:08:01","新北市土城區金城路三段177號","121.469408333333","24.9887133333333","6501300","土城區"
"236062","915-UM","2017/07/06 20:08:08","新北市土城區延和路12巷13號","121.46455","24.9874133333333","6501300","土城區"
"236053","AAC-216","2017/07/06 20:08:03","新北市土城區學府路一段12號","121.459258333333","24.988465","6501300","土城區"
"242021","AAC-296","2017/07/06 20:07:57","新北市新莊區建中街48巷6弄1號","121.448348333333","25.0378966666667","6500500","新莊區"
"242029","986-R7","2017/07/06 20:07:54","新北市新莊區中平路378號","121.444721666667","25.0534566666667","6500500","新莊區"
"242025","615-BX","2017/07/06 20:08:05","新北市新莊區五工三路78巷16號","121.459498333333","25.065555","6500500","新莊區"
"242023","613-BX","2017/07/06 20:08:07","新北市新莊區化成路474號","121.466036666667","25.05145","6500500","新莊區"
"242027","612-BX","2017/07/06 20:07:47","新北市新莊區立信三街12巷16號","121.444331666667","25.0512166666667","6500500","新莊區"
"242036","566-BX","2017/07/06 20:08:02","新北市新莊區後港一路130巷21號","121.429771666667","25.0264216666667","6500500","新莊區"
"242042","497-BY","2017/07/06 20:08:00","新北市新莊區青山路一段8-1號","121.411683333333","25.027525","6500500","新莊區"
"242004","442-UM","2017/07/06 20:07:49","新北市新莊區化成路494號","121.46617","25.05205","6500500","新莊區"
"242046","441-UM","2017/07/06 20:07:59","新北市新莊區裕民街85巷9號","121.419023333333","25.0234766666667","6500500","新莊區"
"242051","440-UM","2017/07/06 20:07:49","新北市新莊區民安西路172巷2弄2號","121.425856666667","25.0160366666667","6500500","新莊區"
"242031","415-TV","2017/07/06 20:07:54","新北市新莊區公園一路40號","121.44339","25.0355483333333","6500500","新莊區"
"242002","413-TV","2017/07/06 20:07:56","新北市新莊區中正路33號","121.463911666667","25.0409466666667","6500500","新莊區"
"242039","400-BY","2017/07/06 20:07:49","新北市新莊區民安西路109號","121.426813333333","25.0183533333333","6500500","新莊區"
"242061","362-BY","2017/07/06 20:07:51","新北市新莊區瓊林路瓊英巷4弄2號","121.443688333333","25.0273983333333","6500500","新莊區"
"242058","353-BY","2017/07/06 20:08:07","新北市新莊區八德街166號","121.42346","25.0195766666667","6500500","新莊區"
"242011","132-UY","2017/07/06 20:08:00","新北市新莊區中信街67巷7號","121.44871","25.0506716666667","6500500","新莊區"
"242034","133-UY","2017/07/06 20:07:55","新北市新莊區中正路318巷15號","121.446231666667","25.03583","6500500","新莊區"
"242019","135-UY","2017/07/06 20:08:04","新北市新莊區民樂街69號","121.457936666667","25.0419416666667","6500500","新莊區"
"242044","172-VK","2017/07/06 20:07:48","新北市新莊區中正路929巷7弄20號","121.411566666667","25.020065","6500500","新莊區"
"242007","173-VK","2017/07/06 20:08:02","新北市新莊區福壽街164巷17號","121.459111666667","25.05288","6500500","新莊區"
"242056","176-VK","2017/07/06 20:08:08","新北市新莊區新莊路649巷13弄14號","121.445616666667","25.0318616666667","6500500","新莊區"
"242003","233-RS","2017/07/06 08:29:03","新北市新莊區環河路48-7號","121.436943333333","25.0097833333333","6500500","新莊區"
"242013","346-TH","2017/07/06 20:07:55","新北市新莊區中港路430號","121.452026666667","25.0506733333333","6500500","新莊區"
"242017","348-TH","2017/07/06 20:08:03","新北市新莊區中安街12號","121.453123333333","25.0455816666667","6500500","新莊區"
"242053","349-TH","2017/07/06 20:07:51","新北市新莊區西盛街387巷11號","121.42847","25.01299","6500500","新莊區"
"242015","350-TH","2017/07/06 20:08:02","新北市新莊區中平路26巷13號","121.445461666667","25.0433183333333","6500500","新莊區"
"238023","601-UM","2017/07/06 20:08:06","新北市樹林區大安路380號","121.415885","24.9898316666667","6500700","樹林區"
"238021","311-TH","2017/07/06 19:12:25","新北市樹林區柑園街二段310號","121.373431666667","24.951855","6500700","樹林區"
"238025","303-VK","2017/07/06 20:07:29","新北市樹林區中山路三段210-2號","121.380728333333","24.9668333333333","6500700","樹林區"
"239006","891-R6","2017/07/06 20:07:50","新北市鶯歌區文化路68-1號","121.355603333333","24.9542733333333","6500800","鶯歌區"
"221008","489-VK","2017/07/06 20:07:57","新北市汐止區忠三街9巷32號","121.624523333333","25.0802633333333","6501100","汐止區"
"221036","130-UY","2017/07/06 20:07:57","新北市汐止區新台五路二段41巷1號","121.663023333333","25.0665766666667","6501100","汐止區"
"221015","131-UY","2017/07/06 20:08:02","新北市汐止區建成路13號","121.664538333333","25.0725633333333","6501100","汐止區"
"221010","269-BY","2017/07/06 20:08:04","新北市汐止區八連路一段111-1號","121.644206666667","25.0800616666667","6501100","汐止區"
"221010","276-VK","2017/07/06 13:16:58","新北市汐止區汐萬路一段256巷3號","121.653446666667","25.0745783333333","6501100","汐止區"
"221031","277-VK","2017/07/06 00:12:29","新北市汐止區汐萬路一段256巷3號","121.652538333333","25.0745033333333","6501100","汐止區"
"221012","278-VK","2017/07/06 20:07:53","新北市汐止區汐平路二段43號","121.696325","25.063635","6501100","汐止區"
"221023","279-VK","2017/07/06 20:07:50","新北市汐止區明峰街298巷2弄5號","121.625345","25.0682766666667","6501100","汐止區"
"221032","280-BY","2017/07/06 20:08:06","新北市汐止區弘道街8巷5弄7號","121.61737","25.047885","6501100","汐止區"
"221027","281-BY","2017/07/06 20:07:59","新北市汐止區中正路101號","121.66087","25.0694116666667","6501100","汐止區"
"221038","297-VK","2017/07/06 20:08:02","新北市汐止區忠孝東路512號","121.66689","25.0754816666667","6501100","汐止區"
"221029","298-VK","2017/07/06 20:07:55","新北市汐止區樟樹一路129巷18弄15號","121.641335","25.0653133333333","6501100","汐止區"
"221021","299-VK","2017/07/06 19:44:09","新北市汐止區莊敬街128-6號","121.654535","25.06119","6501100","汐止區"
"221035","622-UM","2017/07/06 20:07:51","新北市汐止區長江街57巷16號","121.656096666667","25.0721466666667","6501100","汐止區"
"221025","623-UM","2017/07/06 20:08:00","新北市汐止區秀峰路64-1號","121.65984","25.0645766666667","6501100","汐止區"
"221033","647-BX","2017/07/06 20:07:56","新北市汐止區東勢街201巷104號","121.633523333333","25.04287","6501100","汐止區"
"221018","753-BX","2017/07/06 20:07:48","新北市汐止區茄福街35巷39號","121.673466666667","25.066145","6501100","汐止區"
"220082","610-BX","2017/07/06 20:07:54","新北市板橋區大觀路三段201號","121.431735","24.993095","6500100","板橋區"
"220103","257-TC","2017/07/06 20:07:54","新北市板橋區文化路一段435巷31弄23號","121.466758333333","25.0225916666667","6500100","板橋區"
"220072","277-BY","2017/07/06 20:07:56","新北市板橋區金門街149號","121.432738333333","24.9906183333333","6500100","板橋區"
"220071","283-VK","2017/07/06 20:08:07","新北市板橋區和平路178號","121.463438333333","24.995395","6500100","板橋區"
"220101","285-UM","2017/07/06 20:07:56","新北市板橋區莒光路170號","121.474123333333","25.02308","6500100","板橋區"
"220053","285-VK","2017/07/06 20:08:03","新北市板橋區懷仁街52號","121.476823333333","25.0189366666667","6500100","板橋區"
"220083","286-VK","2017/07/06 20:08:00","新北市板橋區僑中二街10巷6號","121.446781666667","25.011115","6500100","板橋區"
"220081","287-VK","2017/07/06 20:07:51","新北市板橋區大觀路一段28巷101號","121.45007","25.011925","6500100","板橋區"
"220090","288-VK","2017/07/06 20:07:53","新北市板橋區幸福路32巷2弄21號","121.461083333333","25.0216183333333","6500100","板橋區"
"220061","293-UM","2017/07/06 20:07:49","新北市板橋區觀光街79巷2號","121.469236666667","25.017015","6500100","板橋區"
"220084","296-UM","2017/07/06 20:07:57","新北市板橋區溪崑二街112巷12號","121.426088333333","24.9890716666667","6500100","板橋區"
"220075","297-UM","2017/07/06 20:08:02","新北市板橋區金華街10巷23號","121.456663333333","25.020185","6500100","板橋區"
"220092","299-UM","2017/07/06 20:07:50","新北市板橋區幸福路61號","121.460693333333","25.019775","6500100","板橋區"
"220062","305-R5","2017/07/06 20:07:59","新北市板橋區中山路二段613號","121.485423333333","25.0225116666667","6500100","板橋區"
"220098","317-R6","2017/07/06 20:08:02","新北市板橋區新海路72巷7號","121.462206666667","25.022055","6500100","板橋區"
"220080","461-BY","2017/07/06 20:07:51","新北市板橋區大觀路二段153巷29號","121.4466","25.00039","6500100","板橋區"
"220089","487-VK","2017/07/06 20:07:53","新北市板橋區龍泉街58號","121.45706","25.0259866666667","6500100","板橋區"
"220088","491-VK","2017/07/06 20:06:53","新北市板橋區懷德街59號","121.47737","25.0325316666667","6500100","板橋區"
"220035","560-BX","2017/07/06 20:07:54","新北市板橋區新生街53巷3弄1號","121.457463333333","25.0214016666667","6500100","板橋區"
"220057","686-BX","2017/07/06 20:07:55","新北市板橋區四川路二段119號","121.451373333333","24.9943233333333","6500100","板橋區"
"220093","689-BX","2017/07/06 20:08:07","新北市板橋區長江路二段234號","121.468666666667","25.03251","6500100","板橋區"
"220054","741-BX","2017/07/06 20:07:54","新北市板橋區忠孝路忠義巷9弄18號","121.465455","25.0040616666667","6500100","板橋區"
"220055","827-TW","2017/07/06 20:08:05","新北市板橋區仁愛路62巷12號","121.459938333333","24.9986666666667","6500100","板橋區"
"220102","830-TW","2017/07/06 20:08:02","新北市板橋區民治街127號","121.478011666667","25.0309016666667","6500100","板橋區"
"220096","831-TW","2017/07/06 20:08:04","新北市板橋區文化路一段370號","121.469856666667","25.023435","6500100","板橋區"
"220074","895-R6","2017/07/06 20:07:59","新北市板橋區府中路15號","121.459451666667","25.009535","6500100","板橋區"
"220073","985-R7","2017/07/06 20:08:06","新北市板橋區南雅西路二段82號","121.452536666667","25.010865","6500100","板橋區"
"220097","AAC-210","2017/07/06 20:07:53","新北市板橋區文化路一段221巷10號","121.463196666667","25.0176683333333","6500100","板橋區"
"220070","AAC-253","2017/07/06 20:07:57","新北市板橋區成都街73-3號","121.462471666667","25.0050633333333","6500100","板橋區"
