"lineid","car","time","location","longitude","latitude","cityid","cityname"
"232008","290-BY","2017/07/07 07:36:42","新北市坪林區魚堀5-2號","121.713635","24.9037383333333","6502000","坪林區"
"232019","758-BX","2017/07/07 07:37:50","新北市坪林區乾溪1號","121.74231","24.9764416666667","6502000","坪林區"
"244004","248-BX","2017/07/07 07:38:05","新北市林口區頂福里73號","121.341968333333","25.0934083333333","6501700","林口區"
"222005","289-BY","2017/07/07 07:21:35","新北市深坑區萬福路52號","121.6054","25.0135183333333","6501800","深坑區"
"231007","189-VK","2017/07/07 07:38:01","新北市新店區安華路28-1號","121.51952","24.9612633333333","6500600","新店區"
"247002","402-BY","2017/07/07 07:37:55","新北市蘆洲區三民路98巷5號","121.47243","25.087015","6501400","蘆洲區"
"226005","5620-A6","2017/07/07 07:37:55","新北市平溪區嶺腳里嶺腳寮75號","121.747695","25.0330516666667","6502400","平溪區"
"226001","7418-A5","2017/07/07 07:38:02","新北市平溪區靜安路三段288號","121.776541666667","25.0407483333333","6502400","平溪區"
"226003","AGD-0702","2017/07/07 07:37:47","新北市平溪區嶺腳里嶺腳寮111號","121.747131666667","25.033305","6502400","平溪區"
"223006","022-BY","2017/07/07 07:37:54","新北市坪林區坪碇路121號","121.706498333333","24.944165","6501900","石碇區"
"223002","198-BX","2017/07/07 07:38:02","新北市石碇區北宜路六段獅子頭坑巷19號","121.63785","24.9304983333333","6501900","石碇區"
"223003","205-TH","2017/07/07 07:38:03","新北市石碇區四分子5號","121.664468333333","24.9628516666667","6501900","石碇區"
"223008","406-TH","2017/07/07 07:29:26","新北市石碇區靜安路一段337號","121.698838333333","25.01467","6501900","石碇區"
"223001","592-UM","2017/07/07 07:37:49","新北市石碇區四分子5號","121.664515","24.962825","6501900","石碇區"
"223004","660-BX","2017/07/07 07:37:57","新北市石碇區八分寮47號","121.64235","25.013925","6501900","石碇區"
"223007","661-BX","2017/07/07 07:37:49","新北市石碇區大溪墘17號","121.69227","25.00815","6501900","石碇區"
"223005","677-TV","2017/07/07 07:38:03","新北市石碇區八分寮47-1號","121.642493333333","25.01387","6501900","石碇區"
"227005","282-VK","2017/07/07 07:37:59","新北市雙溪區雙溪里太平路43號","121.864798333333","25.0356216666667","6502500","雙溪區"
"252003","249-BX","2017/07/07 07:38:05","新北市三芝區中山路二段53號","121.503066666667","25.2543783333333","6502100","三芝區"
"237001","159-UY","2017/07/07 07:37:47","新北市三峽區國慶路144號","121.375593333333","24.9398266666667","6500900","三峽區"
"236010","165-UM","2017/07/07 07:37:54","新北市土城區金城路三段41號","121.465886666667","24.9868","6501300","土城區"
"236004","339-SR","2017/07/07 07:35:57","新北市土城區龍泉路155號","121.449455","24.9446766666667","6501300","土城區"
"242003","233-RS","2017/07/07 07:37:52","新北市新莊區中港路301號","121.452915","25.0445033333333","6500500","新莊區"
"220021","282-UM","2017/07/07 07:23:39","新北市板橋區國光路51號","121.45809","25.017955","6500100","板橋區"
