"lineid","car","time","location","longitude","latitude","cityid","cityname"
"248005","653-BX","2017/06/15 08:59:12","新北市五股區明德路8號","121.433376666667","25.0716466666667","6501500","五股區"
"244012","069-UM","2017/06/15 08:58:51","新北市林口區林口路68巷18弄7號","121.391701666667","25.07978","6501700","林口區"
"244006","080-UY","2017/06/15 08:59:10","新北市林口區林口路124巷10弄1號","121.38901","25.08183","6501700","林口區"
"244003","248-BX","2017/06/15 08:58:13","新北市林口區嘉寶里42號","121.333506666667","25.122275","6501700","林口區"
"244018","403-UM","2017/06/15 08:58:51","新北市林口區忠孝路542巷5號","121.373118333333","25.0675683333333","6501700","林口區"
"244022","483-VK","2017/06/15 08:58:58","新北市林口區隆林街123巷5號","121.384575","25.0741633333333","6501700","林口區"
"244016","485-VK","2017/06/15 08:59:01","新北市林口區文化二路一段68巷2號","121.366101666667","25.0687983333333","6501700","林口區"
"244008","656-BX","2017/06/15 08:59:09","新北市林口區文化三路二段366號","121.378715","25.085745","6501700","林口區"
"244010","701-TV","2017/06/15 08:59:06","新北市林口區興林路17巷5弄6號","121.390626666667","25.0771633333333","6501700","林口區"
"244024","837-TS","2017/06/15 08:58:57","新北市林口區文化北路一段472號","121.365866666667","25.07752","6501700","林口區"
"244020","838-TS","2017/06/15 08:59:05","新北市林口區工六路94號","121.401003333333","25.076815","6501700","林口區"
"243002","548-UM","2017/06/15 08:59:02","新北市泰山區明志路一段95號","121.433583333333","25.0639533333333","6501600","泰山區"
"222006","289-BY","2017/06/15 08:59:11","新北市深坑區土庫尖路75-1號","121.631211666667","25.01825","6501800","深坑區"
"231008","192-VK","2017/06/15 08:59:05","新北市新店區新烏路三段290巷1號","121.549126666667","24.8977966666667","6500600","新店區"
"231054","260-TV","2017/06/15 08:59:12","新北市新店區雙峰路91號","121.589496666667","24.9372533333333","6500600","新店區"
"247002","402-BY","2017/06/15 08:59:06","新北市蘆洲區民族路408巷84號","121.47206","25.0951833333333","6501400","蘆洲區"
"226005","5620-A6","2017/06/15 08:58:57","新北市平溪區靜安路三段67號","121.766548333333","25.0328316666667","6502400","平溪區"
"226002","8452-VL","2017/06/15 08:59:11","新北市平溪區東勢里芊蓁坑30號","121.72756","24.97907","6502400","平溪區"
"226003","AGD-0702","2017/06/15 08:59:11","新北市平溪區十分里十分街238號","121.778083333333","25.04408","6502400","平溪區"
"223002","198-BX","2017/06/15 08:40:49","新北市石碇區烏塗窟16-2號","121.656288333333","24.9755866666667","6501900","石碇區"
"223003","205-TH","2017/06/15 07:50:53","新北市石碇區烏塗窟14-1號","121.65614","24.9755266666667","6501900","石碇區"
"223008","406-TH","2017/06/15 08:58:33","新北市石碇區光明路10-3號","121.680945","25.0289083333333","6501900","石碇區"
"223001","592-UM","2017/06/15 08:59:11","新北市石碇區北宜路五段76號","121.645428333333","24.952815","6501900","石碇區"
"223004","660-BX","2017/06/15 08:59:05","新北市石碇區磨石坑39-3號","121.688558333333","24.9655966666667","6501900","石碇區"
"223007","661-BX","2017/06/15 08:58:59","新北市石碇區碇南路二段5-1號","121.671613333333","25.0248433333333","6501900","石碇區"
"223005","677-TV","2017/06/15 08:59:02","新北市石碇區磨石坑39-3號","121.687913333333","24.96576","6501900","石碇區"
"253003","6232-TK","2017/06/15 08:58:56","新北市石門區尖子鹿16號","121.57653","25.2791483333333","6502200","石門區"
"253001","6251-TK","2017/06/15 08:59:05","新北市石門區八甲61號","121.527243333333","25.271545","6502200","石門區"
"253002","637-UY","2017/06/15 08:58:56","新北市石門區九芎林35-1號","121.56823","25.2559283333333","6502200","石門區"
"253004","8270-PC","2017/06/15 08:59:10","新北市石門區阿里荖48號","121.60712","25.2760133333333","6502200","石門區"
"252004","249-BX","2017/06/15 08:59:00","新北市三芝區興華里車埕70-1號","121.493313333333","25.19359","6502100","三芝區"
"252007","AAC-283","2017/06/15 01:01:14","新北市三芝區埔坪里埔頭坑41號","121.504496666667","25.264415","6502100","三芝區"
"237001","159-UY","2017/06/15 08:59:09","新北市三峽區大學路192號","121.372478333333","24.9468","6500900","三峽區"
"236009","165-UM","2017/06/15 08:59:03","新北市土城區金城路二段46巷3-10號","121.45553","24.975905","6501300","土城區"
"236003","339-SR","2017/06/15 08:59:09","新北市土城區中央路三段87號","121.437673333333","24.96784","6501300","土城區"
"236005","498-BY","2017/06/15 08:58:52","新北市土城區承天路31號","121.436926666667","24.9651466666667","6501300","土城區"
"242020","AAC-296","2017/06/15 08:59:03","新北市新莊區建中街16巷8號","121.44958","25.0380666666667","6500500","新莊區"
"242028","986-R7","2017/06/15 08:58:59","新北市新莊區中原路303號","121.447331666667","25.0543483333333","6500500","新莊區"
"242047","751-BX","2017/06/15 08:59:05","新北市新莊區後港二路10號","121.422946666667","25.0240416666667","6500500","新莊區"
"242024","615-BX","2017/06/15 08:59:06","新北市新莊區五工一路87巷7號","121.46107","25.067165","6500500","新莊區"
"242022","613-BX","2017/06/15 08:59:06","新北市新莊區化成路377號","121.465416666667","25.0579733333333","6500500","新莊區"
"242026","612-BX","2017/06/15 08:59:09","新北市新莊區幸福路898號","121.443285","25.049315","6500500","新莊區"
"242035","566-BX","2017/06/15 08:58:54","新北市新莊區建安街89號","121.427156666667","25.0245116666667","6500500","新莊區"
"242040","497-BY","2017/06/15 08:58:59","新北市新莊區青山路一段14號","121.411296666667","25.0275216666667","6500500","新莊區"
"242003","442-UM","2017/06/15 08:59:07","新北市新莊區化成路63巷6號","121.464906666667","25.045795","6500500","新莊區"
"242045","441-UM","2017/06/15 08:58:58","新北市新莊區民安路46號","121.42265","25.0274516666667","6500500","新莊區"
"242049","440-UM","2017/06/15 08:59:10","新北市新莊區民安西路252巷14號","121.425295","25.013685","6500500","新莊區"
"242030","415-TV","2017/06/15 08:59:13","新北市新莊區新泰路225巷42號","121.444158333333","25.0389316666667","6500500","新莊區"
"242001","413-TV","2017/06/15 08:59:07","新北市新莊區中正路141號","121.459836666667","25.0384883333333","6500500","新莊區"
"242038","400-BY","2017/06/15 08:59:03","新北市新莊區成功街54號","121.424613333333","25.0198366666667","6500500","新莊區"
"242059","362-BY","2017/06/15 08:59:02","新北市新莊區民安路459號","121.434591666667","25.0224616666667","6500500","新莊區"
"242057","353-BY","2017/06/15 08:58:57","新北市新莊區中正路879-3號","121.417816666667","25.0263266666667","6500500","新莊區"
"242010","132-UY","2017/06/15 08:58:54","新北市新莊區中港路531巷6號","121.451425","25.0516066666667","6500500","新莊區"
"242018","135-UY","2017/06/15 08:59:06","新北市新莊區長青街16號","121.456745","25.0422466666667","6500500","新莊區"
"242043","172-VK","2017/06/15 08:58:51","新北市新莊區中正路891-26號","121.415138333333","25.022885","6500500","新莊區"
"242006","173-VK","2017/06/15 08:59:02","新北市新莊區福壽街202巷21號","121.459051666667","25.05385","6500500","新莊區"
"242012","175-VK","2017/06/15 08:59:04","新北市新莊區幸福路710巷5弄22號","121.449066666667","25.0500866666667","6500500","新莊區"
"242055","176-VK","2017/06/15 08:58:50","新北市新莊區新豐街48號","121.447545","25.034055","6500500","新莊區"
"242033","347-TH","2017/06/15 08:59:04","新北市新莊區建中街116巷3弄1號","121.445713333333","25.036925","6500500","新莊區"
"242016","348-TH","2017/06/15 08:59:07","新北市新莊區中港二街120號","121.44865","25.0456983333333","6500500","新莊區"
"242052","349-TH","2017/06/15 08:59:03","新北市新莊區西盛街395巷53號","121.429248333333","25.0118366666667","6500500","新莊區"
"242014","350-TH","2017/06/15 08:58:56","新北市新莊區中平路26巷15號","121.445505","25.043325","6500500","新莊區"
"242008","351-TH","2017/06/15 08:59:00","新北市新莊區昌隆街65號","121.456903333333","25.051005","6500500","新莊區"
