"lineid","car","time","location","longitude","latitude","cityid","cityname"
"231008","192-VK","2017/06/15 11:49:05","新北市新店區松林路16巷41號","121.545593333333","24.906785","6500600","新店區"
"247002","402-BY","2017/06/15 10:35:18","新北市五股區中興路三段3-6號","121.449598333333","25.0788133333333","6501400","蘆洲區"
"223003","205-TH","2017/06/15 09:49:49","新北市石碇區烏塗窟14-1號","121.656138333333","24.9755133333333","6501900","石碇區"
"228004","670-TC","2017/06/15 11:48:48","新北市貢寮區貢寮里朝陽街1-2號","121.912296666667","25.0212616666667","6502600","貢寮區"
"224010","AGQ-8101","2017/06/15 08:58:11","新北市瑞芳區明燈路二段44-1號","121.809485","25.1082383333333","6501200","瑞芳區"
"236009","165-UM","2017/06/15 11:34:25","新北市土城區永平街51號","121.427941666667","24.959195","6501300","土城區"
"236003","339-SR","2017/06/15 10:57:12","新北市土城區永平街51號","121.427651666667","24.959195","6501300","土城區"
"236002","370-SL","2017/06/15 11:30:54","新北市土城區永平街51號","121.427603333333","24.9591866666667","6501300","土城區"
