"lineid","car","time","location","longitude","latitude","cityid","cityname"
"234044","148-BY","2017/06/15 13:59:38","新北市永和區永亨路203號","121.526158333333","25.00267","6500400","永和區"
"234012","149-BY","2017/06/15 13:59:49","新北市永和區保生路55號","121.504721666667","25.0106383333333","6500400","永和區"
"234005","207-UY","2017/06/15 13:59:47","新北市中和區中和路378巷6號","121.510891666667","25.0019616666667","6500400","永和區"
"234078","298-R6","2017/06/15 13:59:47","新北市永和區林森路107號","121.52301","25.00342","6500400","永和區"
"234036","336-UY","2017/06/15 13:59:44","新北市永和區成功路二段86號","121.526625","24.99862","6500400","永和區"
"234062","337-UY","2017/06/15 13:59:48","新北市永和區中正路412巷20弄7號","121.518615","25.001845","6500400","永和區"
"234084","338-UY","2017/06/15 13:59:45","新北市永和區福和路1號","121.526291666667","25.0097116666667","6500400","永和區"
"234068","552-UM","2017/06/15 13:59:22","新北市永和區中正路626號","121.516986666667","25.0079566666667","6500400","永和區"
"234052","553-UM","2017/06/15 13:59:38","新北市永和區竹林路73-1號","121.518703333333","25.0132166666667","6500400","永和區"
"234015","745-BX","2017/06/15 13:59:48","新北市永和區文化路122號","121.513151666667","25.0152616666667","6500400","永和區"
"234028","746-BX","2017/06/15 13:59:47","新北市永和區民權路49巷5弄17號","121.52082","24.9976166666667","6500400","永和區"
"234060","AAD-866","2017/06/15 13:59:46","新北市永和區中正路283巷27號","121.516393333333","24.9998733333333","6500400","永和區"
"234040","862-TW","2017/06/15 13:59:42","新北市永和區雙和街12號","121.50962","25.0019833333333","6500400","永和區"
"234048","863-TW","2017/06/15 13:59:40","新北市永和區保安路262巷2號","121.505935","25.0126","6500400","永和區"
"234025","9371-KE","2017/06/15 13:59:51","新北市永和區安樂路453號","121.514343333333","25.0050066666667","6500400","永和區"
"234010","9373-KE","2017/06/15 13:59:53","新北市永和區仁愛路352巷106號","121.500631666667","25.008045","6500400","永和區"
"248015","026-BX","2017/06/15 13:59:42","新北市五股區成泰路三段559巷14弄2號","121.451338333333","25.102405","6501500","五股區"
"248007","095-VK","2017/06/15 13:59:36","新北市五股區中興路一段128巷38號","121.465786666667","25.0753666666667","6501500","五股區"
"248017","225-UY","2017/06/15 13:59:52","新北市五股區民義路一段226號","121.428948333333","25.0905216666667","6501500","五股區"
"248011","247-BX","2017/06/15 13:59:44","新北市五股區成泰路二段195巷1號","121.440295","25.0873166666667","6501500","五股區"
"248009","272-BY","2017/06/15 13:59:56","新北市五股區水碓一路23號","121.4306","25.0713133333333","6501500","五股區"
"248003","677-BX","2017/06/15 13:59:40","新北市五股區民義路二段72號","121.405066666667","25.1092666666667","6501500","五股區"
"248001","678-BX","2017/06/15 13:59:40","新北市五股區凌雲路一段158巷6號","121.448138333333","25.102785","6501500","五股區"
"234022","9380-KE","2017/06/15 13:59:46","新北市永和區永和路二段276巷1號","121.516375","25.0153133333333","6500400","永和區"
"234076","969-R7","2017/06/15 13:59:45","新北市永和區民族街45-2號","121.518375","24.9983383333333","6500400","永和區"
"234072","AAC-211","2017/06/15 13:59:44","新北市永和區豫溪街165號","121.521791666667","25.0104133333333","6500400","永和區"
"234066","AAC-212","2017/06/15 13:59:50","新北市永和區保生路2號","121.507036666667","25.0071983333333","6500400","永和區"
"234001","AAC-295","2017/06/15 13:58:17","新北市永和區福和路326號","121.515621666667","25.007275","6500400","永和區"
"244003","248-BX","2017/06/15 13:59:38","新北市林口區後坑1-1號","121.357433333333","25.1324633333333","6501700","林口區"
"243005","AAD-798","2017/06/15 13:59:42","新北市泰山區明志路三段239號","121.42353","25.037755","6501600","泰山區"
"243001","297-R6","2017/06/15 13:59:48","新北市泰山區泰林路二段236號","121.432356666667","25.0621216666667","6501600","泰山區"
"243007","380-SR","2017/06/15 13:59:49","新北市泰山區美寧街6號","121.430148333333","25.0635033333333","6501600","泰山區"
"243006","421-VK","2017/06/15 13:59:44","新北市泰山區泰林路二段595號","121.42168","25.0635216666667","6501600","泰山區"
"243004","539-UM","2017/06/15 13:59:08","新北市泰山區全興路101號","121.433546666667","25.057385","6501600","泰山區"
"243002","548-UM","2017/06/15 13:59:53","新北市泰山區辭修路24號","121.429111666667","25.0583033333333","6501600","泰山區"
"243003","549-UM","2017/06/15 13:59:46","新北市泰山區明志路二段320巷6弄5號","121.425496666667","25.046605","6501600","泰山區"
"243008","680-BX","2017/06/15 13:59:49","新北市泰山區明志路二段211號","121.427425","25.048645","6501600","泰山區"
"231002","002-UM","2017/06/15 13:59:45","新北市新店區溪園路39號","121.53033","24.98816","6500600","新店區"
"231025","0291-UT","2017/06/15 13:59:49","新北市新店區中正路293號","121.537205","24.97458","6500600","新店區"
"231028","046-UY","2017/06/15 13:59:50","新北市新店區安和路三段33-1號","121.516833333333","24.9800466666667","6500600","新店區"
"231030","047-UY","2017/06/15 13:59:47","新北市新店區安興路7-1號","121.515085","24.9685383333333","6500600","新店區"
"231029","106-UY","2017/06/15 13:59:51","新北市新店區安康路二段74號","121.514426666667","24.9635583333333","6500600","新店區"
"231018","107-UY","2017/06/15 13:59:41","新北市新店區中央路116號","121.531118333333","24.97512","6500600","新店區"
"231011","108-UY","2017/06/15 13:59:40","新北市新店區中興路二段79巷8號","121.546476666667","24.9712816666667","6500600","新店區"
"231021","187-VK","2017/06/15 13:59:41","新北市新店區屈尺路83-2號","121.544465","24.9220533333333","6500600","新店區"
"231007","189-VK","2017/06/15 12:03:45","新北市新店區安華路28-1號","121.519671666667","24.9611566666667","6500600","新店區"
"231026","256-BX","2017/06/15 13:59:46","新北市新店區安康路一段20號","121.531076666667","24.9609783333333","6500600","新店區"
"231017","AAD-862","2017/06/15 13:59:44","新北市新店區郵政路1號","121.557623333333","24.9526016666667","6500600","新店區"
"231027","3712-VJ","2017/06/15 13:59:49","新北市新店區中興路一段24號","121.53863","24.958455","6500600","新店區"
"231024","3713-VJ","2017/06/15 13:59:51","新北市新店區新生街13巷13號","121.539475","24.9659066666667","6500600","新店區"
"231038","4715-K9","2017/06/15 13:59:36","新北市新店區溪洲路121號","121.53115","24.9629116666667","6500600","新店區"
"231036","512-UM","2017/06/15 13:59:48","新北市新店區安祥路109巷3弄28號","121.476256666667","24.960235","6500600","新店區"
"231023","513-UM","2017/06/15 13:59:54","新北市新店區文中路51號","121.539806666667","24.9566033333333","6500600","新店區"
"231035","515-UM","2017/06/15 13:59:41","新北市新店區安康路二段85巷11號","121.513723333333","24.9622733333333","6500600","新店區"
"231006","617-UM","2017/06/15 13:59:45","新北市新店區北宜路二段207號","121.553126666667","24.953345","6500600","新店區"
"231001","619-UM","2017/06/15 13:59:39","新北市新店區三民路43號","121.537166666667","24.9709366666667","6500600","新店區"
"231003","641-BX","2017/06/15 13:59:46","新北市新店區北宜路一段3號","121.538403333333","24.9583733333333","6500600","新店區"
"231034","645-TV","2017/06/15 13:59:37","新北市新店區達觀路6號","121.505578333333","24.94255","6500600","新店區"
"231013","719-UM","2017/06/15 13:59:36","新北市新店區明德路64號","121.541676666667","24.9795066666667","6500600","新店區"
"231031","720-UM","2017/06/15 13:59:33","新北市新店區太平路44號","121.533035","24.9592533333333","6500600","新店區"
"231005","897-TW","2017/06/15 13:59:52","新北市新店區寶中路45-2號","121.544903333333","24.9794516666667","6500600","新店區"
"231004","899-TW","2017/06/15 13:59:38","新北市新店區寶橋路6巷4號","121.543281666667","24.97344","6500600","新店區"
"231037","AKT-0513","2017/06/15 13:59:46","新北市新店區安康路三段207巷26弄1號","121.488271666667","24.95061","6500600","新店區"
"235030","003-UY","2017/06/15 13:59:36","新北市中和區廣福路84巷3弄2號","121.50285","25.0020166666667","6500300","中和區"
"235028","005-UY","2017/06/15 13:59:53","新北市中和區連城路75巷2-13號","121.497938333333","24.9991933333333","6500300","中和區"
"235027","006-UY","2017/06/15 13:59:38","新北市中和區中正路464號","121.49011","24.9942866666667","6500300","中和區"
"235020","096-UM","2017/06/15 13:59:52","新北市中和區中正路1208號","121.480085","25.0105833333333","6500300","中和區"
"235003","097-UM","2017/06/15 13:59:39","新北市中和區大智街57號","121.521126666667","24.9920733333333","6500300","中和區"
"235029","098-UM","2017/06/15 13:59:45","新北市中和區勝利路35巷3弄21號","121.499898333333","25.0074233333333","6500300","中和區"
"235004","150-BY","2017/06/15 13:59:55","新北市中和區保健路46巷25-1號","121.508923333333","24.9960266666667","6500300","中和區"
"235022","151-BY","2017/06/15 13:59:50","新北市中和區連城路631-1號","121.476483333333","24.9917","6500300","中和區"
"235019","183-VK","2017/06/15 13:59:43","新北市板橋區民族路276巷46號","121.469246666667","25.0055566666667","6500300","中和區"
"235002","185-VK","2017/06/15 13:59:47","新北市中和區大勇街45巷1號","121.518193333333","24.9948966666667","6500300","中和區"
"235013","186-VK","2017/06/15 13:59:36","新北市中和區景新街220號","121.507238333333","24.9951216666667","6500300","中和區"
"235031","255-BX","2017/06/15 13:59:51","新北市中和區新生街264號","121.483691666667","24.9972366666667","6500300","中和區"
"235008","293-VK","2017/06/15 13:59:54","新北市中和區中興街123號","121.499996666667","24.9918283333333","6500300","中和區"
"235036","301-VK","2017/06/15 13:59:47","新北市中和區中山路二段109號","121.503156666667","25.0039383333333","6500300","中和區"
"235007","352-BY","2017/06/15 13:59:33","新北市中和區秀朗路三段38號","121.526518333333","24.9958916666667","6500300","中和區"
"235005","375-QA","2017/06/15 13:59:47","新北市中和區永貞路239巷11號","121.51274","25.003225","6500300","中和區"
"235015","376-QA","2017/06/15 13:59:40","新北市中和區忠孝街106巷52-1號","121.513751666667","24.9841666666667","6500300","中和區"
"235032","377-QA","2017/06/15 13:59:40","新北市中和區圓通路265巷18號","121.49572","24.99271","6500300","中和區"
"235025","378-QA","2017/06/15 13:59:39","新北市中和區民有街1號","121.47559","25.0058783333333","6500300","中和區"
"235014","4979-A6","2017/06/15 13:59:50","新北市中和區華新街57號","121.507938333333","24.9842933333333","6500300","中和區"
"235033","4980-A6","2017/06/15 13:59:52","新北市中和區圓通路99號","121.4996","24.9967366666667","6500300","中和區"
"235006","551-UM","2017/06/15 13:59:43","新北市中和區秀朗路三段22巷10號","121.525831666667","24.9962966666667","6500300","中和區"
"235034","558-UM","2017/06/15 13:59:41","新北市中和區圓通路12號","121.501536666667","24.9980166666667","6500300","中和區"
"235009","565-BX","2017/06/15 13:59:48","新北市中和區景新街320號","121.51164","24.9913533333333","6500300","中和區"
"235018","640-BX","2017/06/15 13:59:36","新北市中和區民享街66號","121.474165","25.00201","6500300","中和區"
"235024","647-TV","2017/06/15 13:59:46","新北市中和區民治街7巷2號","121.47509","25.0046216666667","6500300","中和區"
"235011","732-UM","2017/06/15 13:59:55","新北市中和區興南路二段34巷4號","121.506921666667","24.9854966666667","6500300","中和區"
"235010","733-UM","2017/06/15 13:59:38","新北市中和區興南路二段11號","121.508173333333","24.9861766666667","6500300","中和區"
"235035","783-BX","2017/06/15 13:59:48","新北市中和區永和路205號","121.490768333333","25.0072733333333","6500300","中和區"
"235026","800-TS","2017/06/15 13:59:32","新北市中和區中山路二段340巷43號","121.493173333333","25.0040716666667","6500300","中和區"
"235021","801-TS","2017/06/15 13:59:44","新北市中和區民利街14巷3-3號","121.480648333333","24.9995416666667","6500300","中和區"
"235016","805-TS","2017/06/15 13:59:42","新北市中和區興南路二段186號","121.503515","24.9822616666667","6500300","中和區"
"235012","896-TW","2017/06/15 13:59:39","新北市中和區華新街45號","121.507776666667","24.9846666666667","6500300","中和區"
"235017","900-TW","2017/06/15 13:59:39","新北市中和區華福街45號","121.46642","24.9966783333333","6500300","中和區"
"235001","AAC-213","2017/06/15 13:59:49","新北市中和區自立路185號","121.52361","24.9917716666667","6500300","中和區"
"235023","AAC-215","2017/06/15 13:59:46","新北市中和區圓通路367巷40號","121.492001666667","24.9884883333333","6500300","中和區"
"220016","013-TV","2017/06/15 13:59:38","新北市板橋區中山路二段465巷37號","121.48118","25.0214316666667","6500100","板橋區"
"220013","072-UY","2017/06/15 13:59:37","新北市板橋區民族路247巷9弄8號","121.47114","25.0081366666667","6500100","板橋區"
"220034","073-UY","2017/06/15 13:59:47","新北市板橋區民權路209號","121.457881666667","25.0148966666667","6500100","板橋區"
"220105","075-UY","2017/06/15 13:59:45","新北市板橋區文化路二段124巷32號","121.47137","25.02559","6500100","板橋區"
"220017","AAD-861","2017/06/15 13:59:46","新北市板橋區大華街23號","121.459106666667","25.0059666666667","6500100","板橋區"
"247019","893-R6","2017/06/15 13:59:43","新北市蘆洲區民族路422巷29號","121.473496666667","25.09336","6501400","蘆洲區"
"247009","546-UM","2017/06/15 13:59:44","新北市蘆洲區集賢路228號","121.482365","25.086285","6501400","蘆洲區"
"247017","500-BY","2017/06/15 13:59:36","新北市蘆洲區民族路327巷112弄1號","121.475173333333","25.0898816666667","6501400","蘆洲區"
"247002","402-BY","2017/06/15 13:59:50","新北市蘆洲區民權路5號","121.476625","25.0857783333333","6501400","蘆洲區"
"247005","341-TH","2017/06/15 13:59:47","新北市蘆洲區永安南路二段42-1號","121.466605","25.0774083333333","6501400","蘆洲區"
"247007","339-TH","2017/06/15 13:59:38","新北市三重區三和路四段237號","121.481033333333","25.0803183333333","6501400","蘆洲區"
"247023","337-TH","2017/06/15 13:59:38","新北市蘆洲區光榮路120巷9號","121.465193333333","25.0888016666667","6501400","蘆洲區"
"247001","336-TH","2017/06/15 13:59:37","新北市蘆洲區永平街32巷70號","121.460478333333","25.093415","6501400","蘆洲區"
"247013","057-VK","2017/06/15 13:59:51","新北市蘆洲區保和街87號","121.469","25.0860133333333","6501400","蘆洲區"
"247003","056-VK","2017/06/15 13:59:51","新北市蘆洲區長榮路39號","121.463133333333","25.0826983333333","6501400","蘆洲區"
"247011","007-UY","2017/06/15 13:59:42","新北市蘆洲區民族路158號","121.479646666667","25.08621","6501400","蘆洲區"
"247021","002-UY","2017/06/15 13:59:35","新北市蘆洲區中正路263巷2號","121.46735","25.08751","6501400","蘆洲區"
"247015","001-UY","2017/06/15 13:59:44","新北市蘆洲區光華路44號","121.468786666667","25.0831083333333","6501400","蘆洲區"
"223003","205-TH","2017/06/15 13:46:30","新北市石碇區烏塗窟14-1號","121.65617","24.97547","6501900","石碇區"
"228005","097-TW","2017/06/15 13:59:55","新北市貢寮區美豐里雞母嶺街52-1號","121.888538333333","25.0685033333333","6502600","貢寮區"
"228004","670-TC","2017/06/15 13:59:52","新北市貢寮區龍崗里嵩陽街35-5號","121.90719","25.0176216666667","6502600","貢寮區"
"224010","AGQ-8101","2017/06/15 08:58:11","新北市瑞芳區明燈路二段44-1號","121.809485","25.1082383333333","6501200","瑞芳區"
"208004","AAC-292","2017/06/15 13:59:50","新北市金山區山城路29號","121.598315","25.201905","6502700","金山區"
"207002","749-BX","2017/06/15 13:55:12","新北市萬里區溪底里烏塗炭9號","121.638031666667","25.1512666666667","6502800","萬里區"
"207001","463-BY","2017/06/15 13:59:41","新北市萬里區磺潭里清水18號","121.63789","25.197665","6502800","萬里區"
"252005","073-UM","2017/06/15 13:56:50","新北市三芝區圓山里二坪頂46號","121.539813333333","25.2304383333333","6502100","三芝區"
"236066","105-UM","2017/06/15 13:59:41","新北市土城區城林路6巷80號","121.438535","24.97964","6501300","土城區"
"236040","107-UM","2017/06/15 13:59:49","新北市土城區裕生路64號","121.447558333333","24.9862733333333","6501300","土城區"
"236009","165-UM","2017/06/15 11:34:25","新北市土城區永平街51號","121.427941666667","24.959195","6501300","土城區"
"236076","166-UM","2017/06/15 13:59:50","新北市土城區永寧路32巷10弄27號","121.428731666667","24.961085","6501300","土城區"
"236028","253-BX","2017/06/15 13:59:49","新北市土城區城林路6巷80號","121.438533333333","24.9796733333333","6501300","土城區"
"236024","269-VK","2017/06/15 13:59:46","新北市土城區承天路67號","121.439681666667","24.9633916666667","6501300","土城區"
"236012","270-VK","2017/06/15 13:59:46","新北市土城區中央路二段280號","121.440838333333","24.9740516666667","6501300","土城區"
"236033","271-VK","2017/06/15 13:59:43","新北市土城區中華路一段301號","121.439796666667","24.9794666666667","6501300","土城區"
"236003","339-SR","2017/06/15 10:57:12","新北市土城區永平街51號","121.427651666667","24.959195","6501300","土城區"
"236002","370-SL","2017/06/15 13:59:42","新北市土城區永和街5號","121.434805","24.9646183333333","6501300","土城區"
"236018","401-BY","2017/06/15 13:59:41","新北市土城區中華路一段301號","121.439843333333","24.97942","6501300","土城區"
"236005","498-BY","2017/06/15 13:59:43","新北市土城區中央路一段342號","121.443088333333","24.98113","6501300","土城區"
"236056","912-UM","2017/06/15 13:59:42","新北市土城區永寧路1號","121.430541666667","24.964785","6501300","土城區"
"236047","913-UM","2017/06/15 13:59:37","新北市土城區學士路123號","121.446511666667","24.975865","6501300","土城區"
"236060","915-UM","2017/06/15 13:59:37","新北市土城區城林路6巷80號","121.438271666667","24.9798116666667","6501300","土城區"
"236052","AAC-216","2017/06/15 13:59:53","新北市土城區城林路6巷80號","121.438481666667","24.97975","6501300","土城區"
"221038","297-VK","2017/06/15 13:59:43","台北市南港區舊莊街一段199巷16弄10號","121.623641666667","25.0396216666667","6501100","汐止區"
"220027","145-BY","2017/06/15 13:59:55","新北市板橋區民權路202巷9弄62號","121.459008333333","25.0157966666667","6500100","板橋區"
"220042","146-RM","2017/06/15 13:59:42","新北市板橋區民生路三段20號","121.467615","25.02439","6500100","板橋區"
"220030","610-BX","2017/06/15 13:59:54","新北市板橋區篤行路三段95號","121.426426666667","24.984825","6500100","板橋區"
"220050","245-BX","2017/06/15 13:59:51","新北市板橋區文化路二段182巷3弄1號","121.471371666667","25.027215","6500100","板橋區"
"220043","267-BY","2017/06/15 13:59:34","新北市板橋區文化路二段45號","121.469051666667","25.025065","6500100","板橋區"
"220020","277-BY","2017/06/15 13:59:42","新北市樹林區樹新路96號","121.429776666667","24.997575","6500100","板橋區"
"220012","280-UM","2017/06/15 13:59:40","新北市板橋區漢生東路117號","121.467261666667","25.014815","6500100","板橋區"
"220019","283-VK","2017/06/15 13:59:50","新北市板橋區忠孝路176巷21號","121.465103333333","25.001755","6500100","板橋區"
"220001","285-VK","2017/06/15 13:59:41","新北市板橋區中山路二段98號","121.475458333333","25.01651","6500100","板橋區"
"220031","286-VK","2017/06/15 13:59:48","新北市板橋區大觀路一段38巷156弄71號","121.442745","25.0068516666667","6500100","板橋區"
"220029","287-VK","2017/06/15 13:59:38","新北市板橋區光華街18巷2號","121.454086666667","25.0117966666667","6500100","板橋區"
"220039","288-VK","2017/06/15 13:59:49","新北市板橋區四維路177巷1弄2號","121.464001666667","25.026155","6500100","板橋區"
"220009","293-UM","2017/06/15 13:59:53","新北市板橋區太和街6巷9號","121.47384","25.0203183333333","6500100","板橋區"
"220032","296-UM","2017/06/15 13:59:44","新北市板橋區大觀路二段174巷116弄49號","121.442408333333","25.00129","6500100","板橋區"
"220023","297-UM","2017/06/15 13:59:44","新北市板橋區南興路20號","121.454963333333","25.00789","6500100","板橋區"
"220046","299-UM","2017/06/15 13:59:39","新北市板橋區陽明街162號","121.463378333333","25.0243966666667","6500100","板橋區"
"220004","303-R5","2017/06/15 13:59:48","新北市板橋區信義路78號","121.45764","24.993315","6500100","板橋區"
"220010","305-R5","2017/06/15 13:59:53","新北市板橋區三民路二段245巷4弄8號","121.480975","25.0121433333333","6500100","板橋區"
"220041","307-R5","2017/06/15 13:59:48","新北市板橋區文化路一段106號","121.464875","25.018165","6500100","板橋區"
"220047","317-R6","2017/06/15 13:59:42","新北市板橋區民有街33號","121.465945","25.0254733333333","6500100","板橋區"
"220028","461-BY","2017/06/15 13:59:52","新北市板橋區大觀路二段265巷60弄32號","121.441281666667","24.9978216666667","6500100","板橋區"
"220038","487-VK","2017/06/15 13:59:51","新北市板橋區文化路二段317號","121.47227","25.029805","6500100","板橋區"
"220037","491-VK","2017/06/15 13:59:02","新北市板橋區民生路二段206號","121.469636666667","25.0211433333333","6500100","板橋區"
"220104","560-BX","2017/06/15 13:59:37","新北市板橋區中正路341巷33號","121.454256666667","25.01977","6500100","板橋區"
"220052","561-BX","2017/06/15 13:59:54","新北市板橋區介壽街81號","121.469578333333","25.0191383333333","6500100","板橋區"
"220011","609-BX","2017/06/15 13:59:46","新北市板橋區中山路二段87號","121.474133333333","25.0158466666667","6500100","板橋區"
"220040","637-BX","2017/06/15 13:59:46","新北市板橋區大同街55號","121.478735","25.0275016666667","6500100","板橋區"
"220005","686-BX","2017/06/15 13:59:46","新北市板橋區民權路45號","121.462018333333","25.011335","6500100","板橋區"
"220025","687-BX","2017/06/15 13:59:49","新北市板橋區大觀路二段174巷166弄2號","121.441806666667","25.0032483333333","6500100","板橋區"
"220002","741-BX","2017/06/15 13:59:44","新北市板橋區後埔街41號","121.460551666667","25.0060766666667","6500100","板橋區"
"220003","827-TW","2017/06/15 13:59:43","新北市板橋區民安街18號","121.466801666667","25.01155","6500100","板橋區"
"220014","829-TW","2017/06/15 13:59:36","新北市板橋區三民路二段正隆巷28號","121.477333333333","25.0134066666667","6500100","板橋區"
"220051","830-TW","2017/06/15 13:59:46","新北市板橋區懷德街235巷2-1號","121.481298333333","25.028425","6500100","板橋區"
"220045","831-TW","2017/06/15 13:59:26","新北市板橋區莒光路133巷7弄7號","121.472431666667","25.0242316666667","6500100","板橋區"
"220022","895-R6","2017/06/15 13:59:49","新北市板橋區西門街59號","121.454393333333","25.0091733333333","6500100","板橋區"
"220021","985-R7","2017/06/15 13:59:52","新北市板橋區南門街1號","121.457875","25.009465","6500100","板橋區"
"220018","AAC-253","2017/06/15 13:59:46","新北市板橋區中山路一段26號","121.460395","25.008455","6500100","板橋區"
