"lineid","car","time","location","longitude","latitude","cityid","cityname"
"234044","148-BY","2017/06/15 14:29:46","新北市永和區永元路34號","121.522211666667","25.000815","6500400","永和區"
"234005","207-UY","2017/06/15 14:29:47","新北市永和區中正路682號","121.516716666667","25.0093166666667","6500400","永和區"
"234078","298-R6","2017/06/15 14:29:47","新北市永和區永貞路25號","121.52106","25.00688","6500400","永和區"
"234036","336-UY","2017/06/15 14:29:44","新北市永和區環河東路四段38號","121.528726666667","24.9989233333333","6500400","永和區"
"234062","337-UY","2017/06/15 14:29:48","新北市永和區中正路433號","121.517095","25.0050733333333","6500400","永和區"
"234084","338-UY","2017/06/15 14:13:01","新北市永和區福和路1號","121.5263","25.0097633333333","6500400","永和區"
"234052","553-UM","2017/06/15 14:29:36","新北市永和區光復街2巷27號","121.517348333333","25.01668","6500400","永和區"
"234028","746-BX","2017/06/15 14:29:47","新北市永和區中正路109號","121.515638333333","24.99744","6500400","永和區"
"234084","840-RS","2017/06/15 14:29:34","新北市永和區永亨路90號","121.52251","25.0052766666667","6500400","永和區"
"234060","AAD-866","2017/06/15 14:29:46","新北市永和區安樂路194巷17弄12號","121.516308333333","25.0014283333333","6500400","永和區"
"234040","862-TW","2017/06/15 14:29:42","新北市永和區安樂路330號","121.51449","25.0058","6500400","永和區"
"234048","863-TW","2017/06/15 14:29:40","新北市永和區環河西路二段37號","121.50741","25.0156166666667","6500400","永和區"
"234025","9371-KE","2017/06/15 14:29:42","新北市中和區安平路222號","121.513928333333","25.0001066666667","6500400","永和區"
"248013","025-BX","2017/06/15 14:29:43","新北市五股區民義路一段157-3號","121.432353333333","25.08745","6501500","五股區"
"248015","026-BX","2017/06/15 14:29:42","新北市五股區成泰路3段651-1號","121.452876666667","25.1053533333333","6501500","五股區"
"248007","095-VK","2017/06/15 14:29:36","新北市五股區中興路二段37巷2-1號","121.461695","25.0748966666667","6501500","五股區"
"248017","225-UY","2017/06/15 14:20:12","新北市五股區壟路16號","121.415085","25.0853916666667","6501500","五股區"
"248011","247-BX","2017/06/15 14:29:45","新北市五股區蓬萊路54號","121.433896666667","25.0800783333333","6501500","五股區"
"248009","272-BY","2017/06/15 14:29:36","新北市五股區水碓一路23號","121.430591666667","25.0712866666667","6501500","五股區"
"248003","677-BX","2017/06/15 14:29:40","新北市五股區五福路7-1號","121.434268333333","25.0882","6501500","五股區"
"248001","678-BX","2017/06/15 14:29:40","新北市五股區成泰路三段436號","121.450855","25.0995233333333","6501500","五股區"
"234072","AAC-211","2017/06/15 14:29:44","新北市永和區環河東路一段126號","121.520691666667","25.0153616666667","6500400","永和區"
"234066","AAC-212","2017/06/15 14:29:30","新北市永和區保平路236巷1弄16號","121.508465","25.0054166666667","6500400","永和區"
"234001","AAC-295","2017/06/15 14:27:37","新北市永和區自強街32巷2號","121.515733333333","25.0079166666667","6500400","永和區"
"244003","248-BX","2017/06/15 14:29:38","新北市林口區竹林路265號","121.389615","25.0807333333333","6501700","林口區"
"243005","AAD-798","2017/06/15 14:29:42","新北市泰山區貴子路36巷3弄1號","121.425951666667","25.041365","6501600","泰山區"
"243001","297-R6","2017/06/15 14:29:48","新北市泰山區美寧街76號","121.431426666667","25.0645083333333","6501600","泰山區"
"243007","380-SR","2017/06/15 14:29:49","新北市泰山區民權街21號","121.42859","25.0507466666667","6501600","泰山區"
"243006","421-VK","2017/06/15 14:29:44","新北市泰山區中港西路452號","121.433401666667","25.0534733333333","6501600","泰山區"
"243004","539-UM","2017/06/15 14:28:28","新北市泰山區明志路一段398號","121.43073","25.0572433333333","6501600","泰山區"
"243002","548-UM","2017/06/15 14:29:30","新北市泰山區明志路二段47號","121.429513333333","25.0527616666667","6501600","泰山區"
"243003","549-UM","2017/06/15 14:29:50","新北市泰山區貴子路65號","121.430443333333","25.0396083333333","6501600","泰山區"
"243008","680-BX","2017/06/15 14:29:49","新北市泰山區新北大道七段26號","121.420093333333","25.0321966666667","6501600","泰山區"
"231002","002-UM","2017/06/15 14:29:45","新北市新店區中央四街5-1號","121.53021","24.973785","6500600","新店區"
"231025","0291-UT","2017/06/15 14:29:41","新北市新店區自立街32號","121.538481666667","24.9784716666667","6500600","新店區"
"231028","046-UY","2017/06/15 14:29:50","新北市新店區安康路二段147號","121.511303333333","24.9598683333333","6500600","新店區"
"231030","047-UY","2017/06/15 14:29:47","新北市新店區安民街67-3號","121.516245","24.96672","6500600","新店區"
"231029","106-UY","2017/06/15 14:29:51","新北市新店區安康路二段317-1號","121.499203333333","24.95642","6500600","新店區"
"231018","107-UY","2017/06/15 14:29:41","新北市新店區中央二街59號","121.526765","24.9746033333333","6500600","新店區"
"231011","108-UY","2017/06/15 14:29:41","新北市新店區寶興路47號","121.549163333333","24.973485","6500600","新店區"
"231021","187-VK","2017/06/15 14:29:41","新北市新店區新烏路三段65號","121.5543","24.9039433333333","6500600","新店區"
"231007","189-VK","2017/06/15 12:03:45","新北市新店區安華路28-1號","121.519671666667","24.9611566666667","6500600","新店區"
"231017","AAD-862","2017/06/15 14:29:44","新北市新店區北宜路三段62號","121.57496","24.9513116666667","6500600","新店區"
"231027","3712-VJ","2017/06/15 14:29:29","新北市新店區北新路二段228巷5號","121.543121666667","24.9773816666667","6500600","新店區"
"231038","4715-K9","2017/06/15 14:29:36","新北市新店區溪洲路8巷120-1號","121.532903333333","24.963205","6500600","新店區"
"231036","512-UM","2017/06/15 14:29:48","新北市新店區安祥路106巷88號","121.47452","24.95975","6500600","新店區"
"231023","513-UM","2017/06/15 14:29:45","新北市新店區光明街151號","121.539585","24.96225","6500600","新店區"
"231035","515-UM","2017/06/15 14:29:41","新北市新店區安民街3巷1號","121.514573333333","24.9642633333333","6500600","新店區"
"231006","617-UM","2017/06/15 14:29:45","新北市新店區北宜路二段360號","121.563398333333","24.9535766666667","6500600","新店區"
"231001","619-UM","2017/06/15 14:29:35","新北市新店區北新路一段96巷23號","121.542943333333","24.968885","6500600","新店區"
"231003","641-BX","2017/06/15 14:29:46","新北市新店區中興路一段271號","121.545091666667","24.968115","6500600","新店區"
"231034","645-TV","2017/06/15 14:29:41","新北市新店區黎明路53巷2號","121.50236","24.948455","6500600","新店區"
"231013","719-UM","2017/06/15 14:29:36","新北市新店區民權路100-1號","121.536305","24.9833583333333","6500600","新店區"
"231031","720-UM","2017/06/15 14:29:33","新北市新店區安業街67巷22號","121.519696666667","24.9756233333333","6500600","新店區"
"231005","897-TW","2017/06/15 14:29:32","新北市新店區中興路三段167號","121.54423","24.9805216666667","6500600","新店區"
"231004","899-TW","2017/06/15 14:29:38","新北市新店區中正路282號","121.538576666667","24.973815","6500600","新店區"
"231037","AKT-0513","2017/06/15 14:29:46","新北市新店區安康路二段341巷1號","121.496823333333","24.9551966666667","6500600","新店區"
"235030","003-UY","2017/06/15 14:29:36","新北市中和區中和路136號","121.503478333333","24.9994466666667","6500300","中和區"
"235028","005-UY","2017/06/15 14:29:33","新北市中和區中和路40巷4-3號","121.499666666667","25.00132","6500300","中和區"
"235027","006-UY","2017/06/15 14:29:38","新北市中和區連勝街136號","121.494203333333","24.9969316666667","6500300","中和區"
"235020","096-UM","2017/06/15 14:29:32","新北市中和區民富街70號","121.476531666667","25.00762","6500300","中和區"
"235003","097-UM","2017/06/15 14:29:39","新北市中和區秀峰街103巷5弄1號","121.520388333333","24.9898333333333","6500300","中和區"
"235029","098-UM","2017/06/15 14:29:45","新北市中和區福美路269號","121.498085","25.00505","6500300","中和區"
"235004","150-BY","2017/06/15 14:29:35","新北市中和區宜安路7號","121.513475","24.995495","6500300","中和區"
"235022","151-BY","2017/06/15 14:29:30","新北市中和區中正路637巷52弄1號","121.485433333333","24.99338","6500300","中和區"
"235019","183-VK","2017/06/15 14:29:43","新北市中和區中山路三段181巷18弄11號","121.472661666667","25.0047933333333","6500300","中和區"
"235002","185-VK","2017/06/15 14:29:47","新北市中和區大智街55巷33號","121.520506666667","24.992975","6500300","中和區"
"235013","186-VK","2017/06/15 14:29:37","新北市中和區景新街277號","121.509425","24.993575","6500300","中和區"
"235031","255-BX","2017/06/15 14:29:31","新北市中和區連城路286號","121.484241666667","24.9962566666667","6500300","中和區"
"235008","293-VK","2017/06/15 14:29:34","新北市中和區中興街263號","121.499985","24.98866","6500300","中和區"
"235036","301-VK","2017/06/15 14:29:47","新北市中和區中山路二段3巷22弄36號","121.505841666667","25.0042483333333","6500300","中和區"
"235007","352-BY","2017/06/15 14:29:33","新北市中和區景平路163號","121.512403333333","24.9923833333333","6500300","中和區"
"235005","375-QA","2017/06/15 14:29:47","新北市永和區中和路307號","121.506701666667","24.9996083333333","6500300","中和區"
"235015","376-QA","2017/06/15 14:29:40","新北市中和區和平街76巷9弄1號","121.507886666667","24.9916533333333","6500300","中和區"
"235032","377-QA","2017/06/15 14:29:40","新北市中和區景平路493巷12弄2號","121.499028333333","24.9971833333333","6500300","中和區"
"235025","378-QA","2017/06/15 14:29:39","新北市中和區民安街2巷10號","121.480308333333","25.0014783333333","6500300","中和區"
"235014","4979-A6","2017/06/15 14:29:29","新北市中和區員山路36巷16-3號","121.484725","24.99122","6500300","中和區"
"235033","4980-A6","2017/06/15 14:29:52","新北市中和區連城路134巷18號","121.495305","25.0000316666667","6500300","中和區"
"235006","551-UM","2017/06/15 14:29:44","新北市中和區中和路378巷14弄17號","121.511063333333","25.00136","6500300","中和區"
"235034","558-UM","2017/06/15 14:29:41","新北市中和區中和路8號","121.49958","25.0022466666667","6500300","中和區"
"235009","565-BX","2017/06/15 14:29:48","新北市中和區景新街423巷31號","121.513856666667","24.9895616666667","6500300","中和區"
"235018","640-BX","2017/06/15 14:29:36","新北市中和區國光街107巷2弄3號","121.470056666667","24.9999133333333","6500300","中和區"
"235024","647-TV","2017/06/15 14:29:46","新北市中和區員山路294巷19號","121.482323333333","25.0023933333333","6500300","中和區"
"235011","732-UM","2017/06/15 14:29:35","新北市中和區景平路259巷20號","121.507715","24.99273","6500300","中和區"
"235010","733-UM","2017/06/15 14:29:38","新北市中和區忠孝街37巷20號","121.510958333333","24.9839466666667","6500300","中和區"
"235035","783-BX","2017/06/15 14:29:48","新北市中和區連城路280號","121.48441","24.9963416666667","6500300","中和區"
"235026","800-TS","2017/06/15 14:29:32","新北市中和區中山路二段414號","121.489913333333","25.0039183333333","6500300","中和區"
"235021","801-TS","2017/06/15 14:29:38","新北市中和區員山路421號","121.480915","25.0033933333333","6500300","中和區"
"235016","805-TS","2017/06/15 14:29:42","新北市中和區華新街143巷51號","121.506353333333","24.9802","6500300","中和區"
"235012","896-TW","2017/06/15 14:29:39","新北市中和區忠孝街60巷7號","121.51167","24.9837883333333","6500300","中和區"
"235017","900-TW","2017/06/15 14:29:39","新北市中和區華安街21巷2號","121.4674","24.9974883333333","6500300","中和區"
"235001","AAC-213","2017/06/15 14:29:49","新北市中和區秀朗路三段60巷42號","121.524925","24.9949216666667","6500300","中和區"
"235023","AAC-215","2017/06/15 14:29:46","新北市中和區圓通路252巷8號","121.492721666667","24.9919283333333","6500300","中和區"
"220016","013-TV","2017/06/15 14:29:38","新北市板橋區萬安街108號","121.483743333333","25.024425","6500100","板橋區"
"220013","072-UY","2017/06/15 14:29:37","新北市板橋區國泰街39巷4弄31號","121.46779","25.0058483333333","6500100","板橋區"
"220034","073-UY","2017/06/15 14:29:47","新北市板橋區中正路250巷71號","121.45844","25.0198283333333","6500100","板橋區"
"220105","075-UY","2017/06/15 14:29:45","新北市板橋區長江路三段51號","121.473641666667","25.034015","6500100","板橋區"
"220017","AAD-861","2017/06/15 14:29:49","新北市板橋區大華街172號","121.459345","25.0035666666667","6500100","板橋區"
"247019","893-R6","2017/06/15 14:29:43","新北市蘆洲區仁愛街93巷8號","121.470795","25.0940283333333","6501400","蘆洲區"
"247009","546-UM","2017/06/15 14:29:44","新北市蘆洲區信義路267號","121.478961666667","25.0848366666667","6501400","蘆洲區"
"247017","500-BY","2017/06/15 14:29:36","新北市蘆洲區民族路336巷28號","121.47756","25.0911383333333","6501400","蘆洲區"
"247002","402-BY","2017/06/15 14:29:30","新北市蘆洲區中正路172號","121.468606666667","25.0861816666667","6501400","蘆洲區"
"247005","341-TH","2017/06/15 14:29:47","新北市蘆洲區中華街73號","121.462053333333","25.0804316666667","6501400","蘆洲區"
"247007","339-TH","2017/06/15 14:29:38","新北市蘆洲區信義路91-5號","121.477461666667","25.0798466666667","6501400","蘆洲區"
"247023","337-TH","2017/06/15 14:29:38","新北市蘆洲區中正路93號","121.469976666667","25.0839533333333","6501400","蘆洲區"
"247001","336-TH","2017/06/15 14:29:37","新北市蘆洲區環堤大道166號","121.456166666667","25.0895816666667","6501400","蘆洲區"
"247013","057-VK","2017/06/15 14:29:31","新北市蘆洲區中山二路150號","121.4711","25.0813116666667","6501400","蘆洲區"
"247003","056-VK","2017/06/15 14:29:31","新北市蘆洲區長安街194巷28號","121.460018333333","25.0845533333333","6501400","蘆洲區"
"247011","007-UY","2017/06/15 14:29:41","新北市蘆洲區復興路106號","121.47598","25.0871266666667","6501400","蘆洲區"
"247021","002-UY","2017/06/15 14:29:34","新北市蘆洲區水湳街36-1號","121.470798333333","25.0895483333333","6501400","蘆洲區"
"247015","001-UY","2017/06/15 14:29:44","新北市蘆洲區中正路185巷19號","121.467475","25.084775","6501400","蘆洲區"
"223003","205-TH","2017/06/15 13:46:30","新北市石碇區烏塗窟14-1號","121.65617","24.97547","6501900","石碇區"
"228005","097-TW","2017/06/15 14:29:35","新北市貢寮區美豐里巫里岸9-1號","121.901948333333","25.0700533333333","6502600","貢寮區"
"228004","670-TC","2017/06/15 14:29:28","新北市貢寮區雙玉里田寮洋街33-1號","121.932156666667","25.01357","6502600","貢寮區"
"224010","AGQ-8101","2017/06/15 08:58:11","新北市瑞芳區明燈路二段44-1號","121.809485","25.1082383333333","6501200","瑞芳區"
"227010","400-TW","2017/06/15 14:29:47","新北市雙溪區三貂里政光路3-1號","121.850965","25.0632183333333","6502500","雙溪區"
"208004","AAC-292","2017/06/15 14:29:30","新北市金山區重和里竹子山腳1號","121.598235","25.2198516666667","6502700","金山區"
"207002","749-BX","2017/06/15 14:24:32","新北市萬里區溪底里富士坪路24-2號","121.620486666667","25.1521366666667","6502800","萬里區"
"207001","463-BY","2017/06/15 14:29:41","新北市萬里區磺潭里清水4號","121.64133","25.2007483333333","6502800","萬里區"
"252005","073-UM","2017/06/15 14:29:30","新北市三芝區橫山里大坑23-1號","121.524925","25.2553266666667","6502100","三芝區"
"236066","105-UM","2017/06/15 14:29:41","新北市土城區永豐路205-5號","121.474715","24.9779483333333","6501300","土城區"
"236040","107-UM","2017/06/15 14:29:49","新北市土城區學成路97巷20號","121.449885","24.987915","6501300","土城區"
"236009","165-UM","2017/06/15 11:34:25","新北市土城區永平街51號","121.427941666667","24.959195","6501300","土城區"
"236076","166-UM","2017/06/15 14:29:50","新北市土城區大暖路51-1號","121.42262","24.9587933333333","6501300","土城區"
"236028","253-BX","2017/06/15 14:29:49","新北市土城區順風路5號","121.439825","24.9764416666667","6501300","土城區"
"236024","269-VK","2017/06/15 14:29:46","新北市土城區承天路18號","121.439326666667","24.9634233333333","6501300","土城區"
"236012","270-VK","2017/06/15 14:29:46","新北市土城區青雲路39巷7號","121.460328333333","24.9875883333333","6501300","土城區"
"236033","271-VK","2017/06/15 14:29:43","新北市土城區青雲路451巷11號","121.459431666667","24.9747083333333","6501300","土城區"
"236003","339-SR","2017/06/15 10:57:12","新北市土城區永平街51號","121.427651666667","24.959195","6501300","土城區"
"236002","370-SL","2017/06/15 14:20:43","新北市土城區永平街51號","121.427623333333","24.95919","6501300","土城區"
"236018","401-BY","2017/06/15 14:29:41","新北市土城區永豐路202巷7-1號","121.466236666667","24.983215","6501300","土城區"
"236005","498-BY","2017/06/15 14:29:43","新北市土城區中華路一段301號","121.439725","24.9797116666667","6501300","土城區"
"236056","912-UM","2017/06/15 14:29:42","新北市土城區中央路四段464號","121.409953333333","24.9505533333333","6501300","土城區"
"236047","913-UM","2017/06/15 14:29:37","新北市土城區青雲路370-1號","121.458665","24.9736216666667","6501300","土城區"
"236060","915-UM","2017/06/15 14:29:37","新北市土城區延壽路44巷2號","121.470921666667","24.9919133333333","6501300","土城區"
"236052","AAC-216","2017/06/15 14:29:33","新北市土城區中華路二段175號","121.438611666667","24.9749","6501300","土城區"
"238018","571-TV","2017/06/15 14:29:32","新北市樹林區中山路三段204號","121.38708","24.968225","6500700","樹林區"
"221038","297-VK","2017/06/15 14:29:43","新北市新店區薏仁坑路自強巷1號","121.4977","24.9577033333333","6501100","汐止區"
"220027","145-BY","2017/06/15 14:29:36","新北市板橋區民權路202巷13弄34號","121.458661666667","25.0162966666667","6500100","板橋區"
"220042","146-RM","2017/06/15 14:29:42","新北市板橋區新海路138號","121.460923333333","25.0232766666667","6500100","板橋區"
"220030","610-BX","2017/06/15 14:29:34","新北市板橋區溪城路121-10號","121.427593333333","24.98243","6500100","板橋區"
"220050","245-BX","2017/06/15 14:29:36","新北市板橋區萬板路192-2號","121.476598333333","25.0236466666667","6500100","板橋區"
"220043","267-BY","2017/06/15 14:29:34","新北市板橋區吳鳳路50巷21弄2號","121.468425","25.0304133333333","6500100","板橋區"
"220020","277-BY","2017/06/15 14:29:42","新北市板橋區篤行路二段141巷1號","121.430048333333","24.9881683333333","6500100","板橋區"
"220012","280-UM","2017/06/15 14:29:40","新北市板橋區中山路一段82號","121.461826666667","25.010085","6500100","板橋區"
"220019","283-VK","2017/06/15 14:29:49","新北市板橋區忠孝路48巷7弄4號","121.461235","25.0003816666667","6500100","板橋區"
"220001","285-VK","2017/06/15 14:29:41","新北市板橋區富山街87號","121.476711666667","25.02188","6500100","板橋區"
"220031","286-VK","2017/06/15 14:29:48","新北市板橋區龍興街73巷17號","121.443106666667","25.0024366666667","6500100","板橋區"
"220029","287-VK","2017/06/15 14:29:47","新北市板橋區南雅西路一段10巷7弄17號","121.453963333333","25.0043833333333","6500100","板橋區"
"220039","288-VK","2017/06/15 14:29:49","新北市板橋區長江路一段106巷18弄7號","121.460091666667","25.02843","6500100","板橋區"
"220009","293-UM","2017/06/15 14:29:33","新北市板橋區中山路二段133號","121.47533","25.016485","6500100","板橋區"
"220032","296-UM","2017/06/15 14:29:44","新北市板橋區滿平街136巷1弄1號","121.428621666667","24.9879716666667","6500100","板橋區"
"220023","297-UM","2017/06/15 14:29:44","新北市板橋區南雅西路一段8號","121.454615","25.004655","6500100","板橋區"
"220046","299-UM","2017/06/15 14:29:39","新北市板橋區新海路135巷5號","121.460513333333","25.0232883333333","6500100","板橋區"
"220004","303-R5","2017/06/15 14:29:48","新北市板橋區和平路4號","121.45814","24.9943283333333","6500100","板橋區"
"220010","305-R5","2017/06/15 14:29:33","新北市板橋區三民路二段181巷7號","121.479875","25.014405","6500100","板橋區"
"220041","307-R5","2017/06/15 14:29:35","新北市板橋區光武街2巷41號","121.46846","25.0259316666667","6500100","板橋區"
"220047","317-R6","2017/06/15 14:29:42","新北市板橋區民生路三段263巷2弄4號","121.463911666667","25.0294633333333","6500100","板橋區"
"220028","461-BY","2017/06/15 14:29:48","新北市板橋區大觀路二段19巷42號","121.447986666667","25.003065","6500100","板橋區"
"220038","487-VK","2017/06/15 14:29:31","新北市板橋區文化路一段201號","121.463245","25.0165033333333","6500100","板橋區"
"220037","491-VK","2017/06/15 14:28:07","新北市板橋區雙十路二段6-1號","121.476888333333","25.0259466666667","6500100","板橋區"
"220104","560-BX","2017/06/15 14:29:44","新北市板橋區中正路399巷6號","121.453831666667","25.0223516666667","6500100","板橋區"
"220052","561-BX","2017/06/15 14:29:34","新北市板橋區文化路一段188巷11號","121.466495","25.0194066666667","6500100","板橋區"
"220011","609-BX","2017/06/15 14:29:45","新北市板橋區三民路二段204號","121.478903333333","25.0121783333333","6500100","板橋區"
"220040","637-BX","2017/06/15 14:29:47","新北市板橋區文聖街135巷27號","121.479046666667","25.028965","6500100","板橋區"
"220005","686-BX","2017/06/15 14:29:46","新北市板橋區國慶路182巷18號","121.463065","24.9959616666667","6500100","板橋區"
"220025","687-BX","2017/06/15 14:29:39","新北市板橋區大觀路一段28巷78號","121.44977","25.0107916666667","6500100","板橋區"
"220002","741-BX","2017/06/15 14:29:44","新北市板橋區光明街77號","121.4621","25.0028816666667","6500100","板橋區"
"220003","827-TW","2017/06/15 14:29:43","新北市板橋區實踐路132號","121.464355","25.0025383333333","6500100","板橋區"
"220014","829-TW","2017/06/15 14:29:36","新北市板橋區漢生東路313巷9號","121.472235","25.0083633333333","6500100","板橋區"
"220051","830-TW","2017/06/15 14:29:46","新北市板橋區松柏街19號","121.474625","25.0299283333333","6500100","板橋區"
"220045","831-TW","2017/06/15 14:29:32","新北市板橋區大同街9號","121.477106666667","25.0269266666667","6500100","板橋區"
"220022","895-R6","2017/06/15 14:29:49","新北市板橋區倉後街1-8號","121.455533333333","25.009105","6500100","板橋區"
"220021","985-R7","2017/06/15 14:29:52","新北市板橋區中正路302號","121.45477","25.02067","6500100","板橋區"
"220018","AAC-253","2017/06/15 14:29:46","新北市板橋區忠孝路125號","121.462995","25.0023683333333","6500100","板橋區"
