"lineid","car","time","location","longitude","latitude","cityid","cityname"
"234036","336-UY","2017/06/15 15:29:24","新北市林口區太平里180號","121.36652","25.1346616666667","6500400","永和區"
"234084","338-UY","2017/06/15 15:29:31","新北市永和區福和路1號","121.526233333333","25.00995","6500400","永和區"
"234025","9371-KE","2017/06/15 15:29:31","新北市永和區永和路一段49巷2號","121.512495","25.0066933333333","6500400","永和區"
"243003","549-UM","2017/06/15 15:29:24","新北市泰山區犁頭窠18-3號","121.423368333333","25.0564766666667","6501600","泰山區"
"231002","002-UM","2017/06/15 15:29:26","新北市新店區溪園路255巷9弄9號","121.523068333333","24.98176","6500600","新店區"
"231025","0291-UT","2017/06/15 15:29:41","新北市新店區環河路105-3號","121.532281666667","24.9697083333333","6500600","新店區"
"231028","046-UY","2017/06/15 15:29:30","新北市新店區僑信路25號","121.499483333333","24.9512066666667","6500600","新店區"
"231030","047-UY","2017/06/15 15:29:27","新北市新店區新和街59巷2號","121.52013","24.9856933333333","6500600","新店區"
"231029","106-UY","2017/06/15 15:29:31","新北市新店區安康路三段578-1號","121.480995","24.9486316666667","6500600","新店區"
"231018","107-UY","2017/06/15 15:29:21","新北市新店區中央八街86號","121.526996666667","24.9773533333333","6500600","新店區"
"231011","108-UY","2017/06/15 15:29:40","新北市新店區寶元路一段109號","121.545758333333","24.98315","6500600","新店區"
"231021","187-VK","2017/06/15 15:29:41","新北市新店區新烏路一段245號","121.54779","24.9298066666667","6500600","新店區"
"231007","189-VK","2017/06/15 12:03:45","新北市新店區安華路28-1號","121.519671666667","24.9611566666667","6500600","新店區"
"231026","256-BX","2017/06/15 15:29:36","新北市新店區三民路75巷6-1號","121.535531666667","24.9708266666667","6500600","新店區"
"231017","AAD-862","2017/06/15 15:29:24","新北市新店區明山路45號","121.563775","24.95594","6500600","新店區"
"231038","4715-K9","2017/06/15 15:29:36","新北市新店區安華路28-1號","121.519446666667","24.960615","6500600","新店區"
"231036","512-UM","2017/06/15 15:29:36","新北市新店區安祥路69巷41弄25號","121.48221","24.9612866666667","6500600","新店區"
"231023","513-UM","2017/06/15 15:29:34","新北市新店區北新路一段96巷23號","121.54284","24.9686866666667","6500600","新店區"
"231035","515-UM","2017/06/15 15:29:41","新北市新店區安興路83號","121.515181666667","24.9752983333333","6500600","新店區"
"231001","619-UM","2017/06/15 15:29:35","新北市新店區北新路一段91號","121.538891666667","24.9617566666667","6500600","新店區"
"231003","641-BX","2017/06/15 15:29:26","新北市新店區寶高路116號","121.554543333333","24.976005","6500600","新店區"
"231034","645-TV","2017/06/15 15:29:39","新北市新店區富貴街12巷2號","121.494103333333","24.94936","6500600","新店區"
"231039","718-UY","2017/06/15 15:29:44","新北市新店區寶元路一段95-1號","121.543703333333","24.9848966666667","6500600","新店區"
"231031","720-UM","2017/06/15 15:29:33","新北市新店區雙城路22號","121.491686666667","24.9505016666667","6500600","新店區"
"231005","897-TW","2017/06/15 15:29:32","新北市新店區建國路293巷2號","121.53679","24.98626","6500600","新店區"
"231004","899-TW","2017/06/15 15:29:38","新北市新店區民族路164號","121.537478333333","24.9765416666667","6500600","新店區"
"231037","AKT-0513","2017/06/15 15:29:26","新北市新店區安興路105號","121.514828333333","24.9780333333333","6500600","新店區"
"241017","063-VK","2017/06/15 15:29:27","新北市三重區重新路四段121號","121.4848","25.051915","6500200","三重區"
"241020","412-TH","2017/06/15 15:29:31","新北市三重區忠孝路二段160號","121.482211666667","25.067825","6500200","三重區"
"235030","003-UY","2017/06/15 15:29:35","新北市中和區光華街69號","121.506658333333","25.0028533333333","6500300","中和區"
"235036","301-VK","2017/06/15 15:29:27","新北市八里區中山路三段409號","121.368625","25.1349483333333","6500300","中和區"
"235014","4979-A6","2017/06/15 15:29:29","新北市中和區景平路385巷42弄12號","121.501775","24.99486","6500300","中和區"
"235033","4980-A6","2017/06/15 15:29:32","新北市中和區連城路347巷16弄19號","121.487926666667","24.9948383333333","6500300","中和區"
"235034","558-UM","2017/06/15 15:29:41","新北市中和區中正路281號","121.494716666667","24.9937883333333","6500300","中和區"
"235018","640-BX","2017/06/15 15:29:36","新北市中和區中山路二段449號","121.483821666667","25.0049783333333","6500300","中和區"
"235035","783-BX","2017/06/15 15:29:28","新北市中和區橋和路81號","121.48944","25.00559","6500300","中和區"
"235012","896-TW","2017/06/15 15:29:38","新北市中和區景新街459號","121.513275","24.988335","6500300","中和區"
"235001","AAC-213","2017/06/15 15:29:29","新北市中和區自立路38-1號","121.522795","24.9925583333333","6500300","中和區"
"235023","AAC-215","2017/06/15 15:29:26","新北市中和區員山路30-11號","121.484158333333","24.98767","6500300","中和區"
"247002","402-BY","2017/06/15 15:29:32","新北市五股區孝義路9-17號","121.449041666667","25.1070383333333","6501400","蘆洲區"
"247013","057-VK","2017/06/15 15:29:31","新北市林口區太平里180號","121.36807","25.1343866666667","6501400","蘆洲區"
"223003","205-TH","2017/06/15 15:29:41","新北市中和區興南路三段35號","121.497055","24.97825","6501900","石碇區"
"224010","AGQ-8101","2017/06/15 08:58:11","新北市瑞芳區明燈路二段44-1號","121.809485","25.1082383333333","6501200","瑞芳區"
"227010","400-TW","2017/06/15 14:34:19","新北市雙溪區三貂里政光路3-1號","121.850948333333","25.063225","6502500","雙溪區"
"208004","AAC-292","2017/06/15 15:29:40","新北市金山區南勢21-3號","121.632623333333","25.216295","6502700","金山區"
"207001","463-BY","2017/06/15 15:28:20","新北市萬里區龜吼里玉田路4-3號","121.680256666667","25.1842366666667","6502800","萬里區"
"236066","105-UM","2017/06/15 15:29:41","新北市土城區學士路267號","121.446778333333","24.9772616666667","6501300","土城區"
"236040","107-UM","2017/06/15 15:29:29","新北市土城區學府路一段98巷15號","121.45574","24.9885316666667","6501300","土城區"
"236009","165-UM","2017/06/15 11:34:25","新北市土城區永平街51號","121.427941666667","24.959195","6501300","土城區"
"236076","166-UM","2017/06/15 15:29:42","新北市土城區溪頭路101號","121.410451666667","24.952115","6501300","土城區"
"236028","253-BX","2017/06/15 15:29:29","新北市土城區中央路一段254號","121.444216666667","24.98457","6501300","土城區"
"236024","269-VK","2017/06/15 15:29:26","新北市土城區員林街71巷12號","121.444881666667","24.9773483333333","6501300","土城區"
"236012","270-VK","2017/06/15 15:29:26","新北市土城區廣明街46號","121.455383333333","24.993125","6501300","土城區"
"236033","271-VK","2017/06/15 15:29:23","新北市土城區明德路一段103號","121.465566666667","24.9826483333333","6501300","土城區"
"236003","339-SR","2017/06/15 10:57:12","新北市土城區永平街51號","121.427651666667","24.959195","6501300","土城區"
"236002","370-SL","2017/06/15 14:20:43","新北市土城區永平街51號","121.427623333333","24.95919","6501300","土城區"
"236018","401-BY","2017/06/15 15:29:41","新北市土城區金城路三段192號","121.468453333333","24.9880283333333","6501300","土城區"
"236056","912-UM","2017/06/15 15:29:42","新北市土城區中央路二段235號","121.440271666667","24.9723266666667","6501300","土城區"
"236047","913-UM","2017/06/15 15:29:38","新北市土城區青雲路258號","121.458951666667","24.979535","6501300","土城區"
"236060","915-UM","2017/06/15 15:29:37","新北市土城區金城路三段149巷4弄12號","121.468621666667","24.98911","6501300","土城區"
"236052","AAC-216","2017/06/15 15:29:33","新北市土城區學府路一段24巷1號","121.458473333333","24.9885216666667","6501300","土城區"
"238002","755-BX","2017/06/15 15:29:37","新北市樹林區復興路196號","121.420015","24.99107","6500700","樹林區"
"238010","601-UM","2017/06/15 15:29:24","新北市樹林區中正路35-1號","121.414995","25.007015","6500700","樹林區"
"238006","599-UM","2017/06/15 15:29:25","新北市樹林區太平路1-4號","121.41856","24.9847066666667","6500700","樹林區"
"238018","571-TV","2017/06/15 15:29:31","新北市樹林區樹新路95號","121.427916666667","24.9954766666667","6500700","樹林區"
"238011","5061-A6","2017/06/15 15:29:34","新北市樹林區博愛一街29巷68號","121.425863333333","24.9915716666667","6500700","樹林區"
"238009","312-TH","2017/06/15 15:29:26","新北市樹林區和平街29號","121.422548333333","24.98161","6500700","樹林區"
"238008","311-TH","2017/06/15 15:29:41","新北市樹林區西圳街一段167號","121.395166666667","24.9624483333333","6500700","樹林區"
"238012","303-VK","2017/06/15 15:29:21","新北市樹林區中山路一段143-1號","121.422275","24.9895133333333","6500700","樹林區"
"238004","283-BY","2017/06/15 15:29:42","新北市樹林區保安街二段329號","121.412475","25.007355","6500700","樹林區"
"238001","282-BY","2017/06/15 15:29:35","新北市樹林區大安路5號","121.4251","25.0005866666667","6500700","樹林區"
"238007","268-VK","2017/06/15 15:29:39","新北市樹林區俊英街106號","121.427543333333","25.0052633333333","6500700","樹林區"
"238013","172-UY","2017/06/15 15:29:42","新北市樹林區新興街19巷13號","121.401053333333","24.973215","6500700","樹林區"
"238003","169-UY","2017/06/15 15:29:28","新北市樹林區日新街8號","121.423318333333","24.99336","6500700","樹林區"
"220050","245-BX","2017/06/15 15:29:36","新北市板橋區縣民大道三段35號","121.473986666667","25.02062","6500100","板橋區"
"220031","286-VK","2017/06/15 15:29:28","新北市板橋區僑中二街104巷47號","121.444208333333","25.0081783333333","6500100","板橋區"
"220029","287-VK","2017/06/15 15:29:35","新北市板橋區僑中二街52號","121.446635","25.0100183333333","6500100","板橋區"
"220038","487-VK","2017/06/15 15:29:31","新北市板橋區四維路163號","121.464785","25.0259066666667","6500100","板橋區"
"220052","561-BX","2017/06/15 15:29:34","新北市板橋區漢生東路33巷36號","121.466006666667","25.01764","6500100","板橋區"
"220051","830-TW","2017/06/15 15:29:26","新北市板橋區民生路二段207號","121.469241666667","25.0209116666667","6500100","板橋區"
"220022","895-R6","2017/06/15 15:29:29","新北市板橋區大觀路三段24號","121.434271666667","24.9956833333333","6500100","板橋區"
"220018","AAC-253","2017/06/15 15:29:26","新北市板橋區德興街21號","121.45344","24.9941633333333","6500100","板橋區"
