"lineid","car","time","location","longitude","latitude","cityid","cityname"
"234036","336-UY","2017/06/15 15:49:24","新北市五股區新五路三段256號","121.448355","25.09157","6500400","永和區"
"234084","338-UY","2017/06/15 15:49:31","新北市永和區福和路1號","121.526311666667","25.0100033333333","6500400","永和區"
"231030","047-UY","2017/06/15 15:49:27","新北市新店區永安街3號","121.516703333333","24.9861116666667","6500600","新店區"
"231018","107-UY","2017/06/15 15:49:21","新北市新店區中正路470-1號","121.533861666667","24.98136","6500600","新店區"
"231011","108-UY","2017/06/15 15:49:21","新北市新店區寶強路15號","121.543003333333","24.9792583333333","6500600","新店區"
"231021","187-VK","2017/06/15 15:49:21","新北市新店區北宜路一段170號","121.54066","24.9530533333333","6500600","新店區"
"231007","189-VK","2017/06/15 12:03:45","新北市新店區安華路28-1號","121.519671666667","24.9611566666667","6500600","新店區"
"231026","256-BX","2017/06/15 15:49:36","新北市新店區民生路45號","121.53227","24.9858883333333","6500600","新店區"
"231046","278-BY","2017/06/15 15:49:34","新北市新店區安華路28-1號","121.519686666667","24.9614683333333","6500600","新店區"
"231017","AAD-862","2017/06/15 15:49:24","新北市新店區中華路83巷2弄2號","121.538983333333","24.9685683333333","6500600","新店區"
"231038","4715-K9","2017/06/15 15:49:36","新北市新店區安康路二段167號","121.509936666667","24.9593183333333","6500600","新店區"
"231023","513-UM","2017/06/15 15:49:34","新北市新店區檳榔路4號","121.540955","24.9648233333333","6500600","新店區"
"231035","515-UM","2017/06/15 15:49:21","新北市新店區安民街389號","121.515875","24.976845","6500600","新店區"
"231003","641-BX","2017/06/15 15:49:26","新北市新店區寶興路60巷4號","121.549816666667","24.97186","6500600","新店區"
"231034","645-TV","2017/06/15 15:49:37","新北市新店區玫瑰路57巷25號","121.496631666667","24.946315","6500600","新店區"
"231039","718-UY","2017/06/15 15:49:24","新北市新店區寶興路61巷33號","121.551868333333","24.972695","6500600","新店區"
"231013","719-UM","2017/06/15 15:49:25","新北市新店區永業路81巷1弄4號","121.529871666667","24.94963","6500600","新店區"
"231037","AKT-0513","2017/06/15 15:49:26","新北市新店區安興路105號","121.514736666667","24.9778733333333","6500600","新店區"
"241011","013-R5","2017/06/15 15:49:36","新北市三重區三和路二段228號","121.497563333333","25.0696766666667","6500200","三重區"
"241028","022-UY","2017/06/15 15:49:23","新北市三重區中正南路40號","121.493748333333","25.0600383333333","6500200","三重區"
"241008","059-VK","2017/06/15 15:49:34","新北市三重區重新路四段121號","121.484943333333","25.051955","6500200","三重區"
"241015","062-VK","2017/06/15 15:49:25","新北市三重區重新路四段121號","121.48513","25.0520433333333","6500200","三重區"
"241017","063-VK","2017/06/15 15:49:27","新北市三重區大仁街5號","121.491641666667","25.063725","6500200","三重區"
"241024","065-VK","2017/06/15 15:49:38","新北市三重區新北大道一段250號","121.479895","25.06132","6500200","三重區"
"241003","091-VK","2017/06/15 15:49:38","新北市三重區環河南路261號","121.490455","25.0499016666667","6500200","三重區"
"241005","262-UM","2017/06/15 15:49:29","新北市三重區環河南路86-7號","121.502221666667","25.0592916666667","6500200","三重區"
"241013","265-UM","2017/06/15 15:49:37","新北市三重區六張街19號","121.495318333333","25.07067","6500200","三重區"
"241016","266-UM","2017/06/15 15:49:23","新北市三重區重新路四段121號","121.48518","25.0520566666667","6500200","三重區"
"241022","267-UM","2017/06/15 15:49:22","新北市三重區重新路四段121號","121.48477","25.0525083333333","6500200","三重區"
"241018","268-UM","2017/06/15 15:49:28","新北市三重區中正北路35號","121.491471666667","25.0626516666667","6500200","三重區"
"241007","398-BY","2017/06/15 15:49:25","新北市三重區重新路四段121號","121.485225","25.0520516666667","6500200","三重區"
"241020","412-TH","2017/06/15 15:49:31","新北市三重區忠孝路二段58號","121.485023333333","25.0702466666667","6500200","三重區"
"241019","478-VK","2017/06/15 15:49:40","新北市三重區重新路四段121號","121.485171666667","25.0518733333333","6500200","三重區"
"241014","543-UM","2017/06/15 15:49:21","新北市三重區重新路四段121號","121.485125","25.0520766666667","6500200","三重區"
"241023","545-UM","2017/06/15 15:49:21","新北市三重區新北大道一段250號","121.479973333333","25.061045","6500200","三重區"
"241001","547-UM","2017/06/15 15:49:37","新北市三重區重新路四段121號","121.48455","25.0523016666667","6500200","三重區"
"241006","AAD-863","2017/06/15 15:49:32","新北市三重區重新路四段121號","121.48467","25.0520616666667","6500200","三重區"
"241012","887-TS","2017/06/15 15:49:39","新北市三重區自強路一段62號","121.497275","25.0667666666667","6500200","三重區"
"241029","942-UM","2017/06/15 15:49:42","新北市三重區正義南路181巷1號","121.499091666667","25.0571166666667","6500200","三重區"
"241033","AAC-255","2017/06/15 15:49:29","新北市三重區光復路一段60號","121.471855","25.0487666666667","6500200","三重區"
"235036","301-VK","2017/06/15 15:48:27","新北市八里區荖阡坑路34號","121.401753333333","25.129355","6500300","中和區"
"235033","4980-A6","2017/06/15 15:49:32","新北市中和區員山路383-2號","121.480898333333","25.0024366666667","6500300","中和區"
"235018","640-BX","2017/06/15 15:49:36","新北市新店區薏仁坑路自強巷1號","121.49756","24.95775","6500300","中和區"
"235026","800-TS","2017/06/15 15:49:32","新北市中和區橋和路150號","121.493633333333","25.0062666666667","6500300","中和區"
"235001","AAC-213","2017/06/15 15:49:29","新北市中和區秀朗路三段97號","121.526568333333","24.9950083333333","6500300","中和區"
"235023","AAC-215","2017/06/15 15:49:13","新北市中和區員山路31-10號","121.481416666667","24.9883683333333","6500300","中和區"
"247002","402-BY","2017/06/15 15:49:32","新北市八里區中山路三段390號","121.368333333333","25.1350683333333","6501400","蘆洲區"
"223003","205-TH","2017/06/15 15:40:04","新北市中和區興南路三段35號","121.49687","24.9781366666667","6501900","石碇區"
"224010","AGQ-8101","2017/06/15 08:58:11","新北市瑞芳區明燈路二段44-1號","121.809485","25.1082383333333","6501200","瑞芳區"
"224007","273-VK","2017/06/15 15:49:36","新北市瑞芳區大寮路356-1號","121.784591666667","25.1034266666667","6501200","瑞芳區"
"227004","642-TC","2017/06/15 15:49:25","新北市雙溪區平林里外平林44號","121.852918333333","25.0363366666667","6502500","雙溪區"
"227010","400-TW","2017/06/15 15:49:25","新北市雙溪區牡丹里中正路54號","121.865371666667","25.0400166666667","6502500","雙溪區"
"236066","105-UM","2017/06/15 15:49:21","新北市土城區中山路38號","121.425275","24.9641516666667","6501300","土城區"
"236009","165-UM","2017/06/15 11:34:25","新北市土城區永平街51號","121.427941666667","24.959195","6501300","土城區"
"236076","166-UM","2017/06/15 15:49:30","新北市土城區中山路5號","121.41388","24.9614933333333","6501300","土城區"
"236024","269-VK","2017/06/15 15:49:26","新北市土城區裕生路100巷16號","121.446213333333","24.9852483333333","6501300","土城區"
"236012","270-VK","2017/06/15 15:49:26","新北市土城區廣明街76號","121.454956666667","24.99396","6501300","土城區"
"236003","339-SR","2017/06/15 10:57:12","新北市土城區永平街51號","121.427651666667","24.959195","6501300","土城區"
"236002","370-SL","2017/06/15 15:49:36","新北市土城區永平街51號","121.427636666667","24.9591683333333","6501300","土城區"
"236018","401-BY","2017/06/15 15:49:21","新北市土城區延吉街111巷12弄15-3號","121.471536666667","24.9849783333333","6501300","土城區"
"236056","912-UM","2017/06/15 15:49:42","新北市土城區中央路一段191號","121.446045","24.9870816666667","6501300","土城區"
"236047","913-UM","2017/06/15 15:49:37","新北市土城區金城路三段203號","121.470288333333","24.98929","6501300","土城區"
"236052","AAC-216","2017/06/15 15:49:33","新北市土城區學成路1號","121.453515","24.9863016666667","6501300","土城區"
"238002","755-BX","2017/06/15 15:49:37","新北市樹林區啟智街44巷1號","121.420446666667","24.9928283333333","6500700","樹林區"
"238010","601-UM","2017/06/15 15:49:24","新北市樹林區三福街60號","121.40526","25.0162616666667","6500700","樹林區"
"238006","599-UM","2017/06/15 15:49:22","新北市樹林區國凱街150號","121.42404","24.98069","6500700","樹林區"
"238018","571-TV","2017/06/15 15:49:31","新北市樹林區中華路116號","121.418053333333","24.980685","6500700","樹林區"
"238011","5061-A6","2017/06/15 15:49:34","新北市樹林區八德街212巷24號","121.415051666667","24.973625","6500700","樹林區"
"238009","312-TH","2017/06/15 15:49:25","新北市樹林區太順街60號","121.417978333333","24.9792983333333","6500700","樹林區"
"238008","311-TH","2017/06/15 15:49:16","新北市樹林區柑園街二段1號","121.388303333333","24.9556783333333","6500700","樹林區"
"238012","303-VK","2017/06/15 15:49:21","新北市樹林區中山路一段183-1號","121.421381666667","24.98813","6500700","樹林區"
"238004","283-BY","2017/06/15 15:49:22","新北市樹林區保安街二段167巷32號","121.413945","25.0030366666667","6500700","樹林區"
"238001","282-BY","2017/06/15 15:49:35","新北市樹林區保安二街12號","121.424895","24.993985","6500700","樹林區"
"238007","268-VK","2017/06/15 15:49:39","新北市樹林區俊英街210號","121.425186666667","25.00946","6500700","樹林區"
"238013","172-UY","2017/06/15 15:49:33","新北市樹林區中洲街30巷13弄35號","121.398235","24.97236","6500700","樹林區"
"238003","169-UY","2017/06/15 15:49:28","新北市樹林區復興路300號","121.417095","24.9872666666667","6500700","樹林區"
"220029","287-VK","2017/06/15 15:49:35","新北市板橋區金門街369巷83-1號","121.430463333333","24.9812216666667","6500100","板橋區"
"220038","487-VK","2017/06/15 15:49:31","新北市板橋區長江路一段373號","121.461818333333","25.0307616666667","6500100","板橋區"
"220022","895-R6","2017/06/15 15:45:49","新北市樹林區中山路三段214號","121.379953333333","24.967625","6500100","板橋區"
