"lineid","car","time","location","longitude","latitude","cityid","cityname"
"234038","336-UY","2017/06/15 18:09:24","新北市永和區福和路1號","121.526631666667","25.010105","6500400","永和區"
"234084","338-UY","2017/06/15 18:09:11","新北市永和區福和路1號","121.526233333333","25.0097233333333","6500400","永和區"
"234042","862-TW","2017/06/15 18:09:15","新北市永和區福和路1號","121.52641","25.009765","6500400","永和區"
"234026","9371-KE","2017/06/15 18:09:13","新北市永和區福和路362號","121.514696666667","25.0076683333333","6500400","永和區"
"234011","9373-KE","2017/06/15 18:09:16","新北市永和區福和路1號","121.525886666667","25.0091866666667","6500400","永和區"
"249005","172-UM","2017/06/15 18:09:20","新北市八里區荖阡坑路17-10號","121.40183","25.1387816666667","6502300","八里區"
"249001","173-UM","2017/06/15 18:09:21","新北市八里區龍米路二段28號","121.44875","25.1396283333333","6502300","八里區"
"249004","303-UY","2017/06/15 18:09:06","新北市八里區龍米路二段159巷2-10號","121.438883333333","25.15321","6502300","八里區"
"249002","305-UY","2017/06/15 18:09:19","新北市八里區龍米路一段386巷2號","121.451851666667","25.13194","6502300","八里區"
"249003","593-UM","2017/06/15 18:09:18","新北市八里區中華路二段165巷19弄22號","121.410348333333","25.1517416666667","6502300","八里區"
"248014","025-BX","2017/06/15 18:09:08","新北市五股區成泰路一段194-1號","121.435573333333","25.07774","6501500","五股區"
"248016","026-BX","2017/06/15 18:09:15","新北市五股區成泰路三段152號","121.444695","25.0911133333333","6501500","五股區"
"248006","077-UY","2017/06/15 18:09:15","新北市五股區中興路二段95號","121.460395","25.0774733333333","6501500","五股區"
"248008","095-VK","2017/06/15 18:09:11","新北市五股區中興路二段182巷15弄13號","121.457195","25.0816483333333","6501500","五股區"
"248020","225-UY","2017/06/15 18:09:05","新北市五股區成泰路三段436號","121.455305","25.09723","6501500","五股區"
"248012","247-BX","2017/06/15 14:42:44","新北市五股區民義路一段60號","121.436766666667","25.0844616666667","6501500","五股區"
"248010","272-BY","2017/06/15 18:09:03","新北市五股區成泰路一段235號","121.436201666667","25.0792133333333","6501500","五股區"
"248004","677-BX","2017/06/15 18:09:06","新北市五股區成泰路二段51-1號","121.437831666667","25.0832533333333","6501500","五股區"
"248002","678-BX","2017/06/15 18:09:21","新北市五股區中興路三段196號","121.44188","25.0818483333333","6501500","五股區"
"232011","375-UM","2017/06/15 18:09:13","新北市坪林區水柳腳10號","121.710985","24.9358633333333","6502000","坪林區"
"244013","069-UM","2017/06/15 18:09:07","新北市林口區中山路50號","121.395241666667","25.0783816666667","6501700","林口區"
"244007","080-UY","2017/06/15 18:09:04","新北市林口區林口路222號","121.386905","25.08375","6501700","林口區"
"244019","403-UM","2017/06/15 18:09:08","新北市林口區麗園路98號","121.371893333333","25.06795","6501700","林口區"
"244023","483-VK","2017/06/15 18:09:04","新北市林口區隆林街215巷26號","121.38364","25.0733033333333","6501700","林口區"
"244017","485-VK","2017/06/15 18:09:20","新北市林口區忠孝路482號","121.370263333333","25.07046","6501700","林口區"
"244009","656-BX","2017/06/15 18:09:10","新北市林口區佳林路56巷43號","121.385116666667","25.0807616666667","6501700","林口區"
"244011","701-TV","2017/06/15 18:09:18","新北市林口區中正路44號","121.395465","25.0774666666667","6501700","林口區"
"244025","837-TS","2017/06/15 18:09:15","新北市林口區文化北路一段301-1號","121.36045","25.07265","6501700","林口區"
"244021","838-TS","2017/06/15 18:09:11","新北市林口區自強五街1號","121.398608333333","25.0766416666667","6501700","林口區"
"243013","AAD-798","2017/06/15 18:09:18","新北市泰山區犁頭窠18號","121.422111666667","25.051845","6501600","泰山區"
"243009","297-R6","2017/06/15 15:59:44","新北市泰山區黎明路25號","121.422031666667","25.06089","6501600","泰山區"
"243015","380-SR","2017/06/15 17:43:42","新北市泰山區黎明路31號","121.421836666667","25.06054","6501600","泰山區"
"222003","436-BY","2017/06/15 18:09:17","新北市深坑區腳坑5號","121.609678333333","24.9946316666667","6501800","深坑區"
"222002","659-BX","2017/06/15 18:09:12","新北市深坑區文化街37號","121.619003333333","25.0014416666667","6501800","深坑區"
"222001","696-SL","2017/06/15 18:09:12","新北市深坑區北深路二段186號","121.614083333333","25.0022266666667","6501800","深坑區"
"231056","0291-UT","2017/06/15 18:09:20","新北市新店區安華路28-1號","121.51887","24.9608283333333","6500600","新店區"
"231059","046-UY","2017/06/15 18:09:23","新北市新店區安華路28-1號","121.519553333333","24.9607283333333","6500600","新店區"
"231061","047-UY","2017/06/15 18:09:03","新北市新店區安華路28-1號","121.519085","24.9610683333333","6500600","新店區"
"231060","106-UY","2017/06/15 18:09:14","新北市新店區安華路28-1號","121.519631666667","24.9607666666667","6500600","新店區"
"231007","189-VK","2017/06/15 12:03:45","新北市新店區安華路28-1號","121.519671666667","24.9611566666667","6500600","新店區"
"231046","278-BY","2017/06/15 18:09:09","新北市新店區下石厝路29-1號","121.534306666667","24.92911","6500600","新店區"
"231054","513-UM","2017/06/15 18:09:24","新北市新店區安華路28-1號","121.51966","24.9610616666667","6500600","新店區"
"231045","617-UM","2017/06/15 18:09:11","新北市新店區安華路28-1號","121.519406666667","24.960695","6500600","新店區"
"231049","719-UM","2017/06/15 18:09:15","新北市新店區安華路28-1號","121.519503333333","24.9609983333333","6500600","新店區"
"231062","720-UM","2017/06/15 18:09:04","新北市新店區安華路28-1號","121.519368333333","24.96132","6500600","新店區"
"241012","887-TS","2017/06/15 18:09:18","新北市三重區龍門路300號","121.502461666667","25.0745133333333","6500200","三重區"
"241033","AAC-255","2017/06/15 18:09:09","新北市三重區中興北街62號","121.468928333333","25.0515833333333","6500200","三重區"
"235064","005-UY","2017/06/15 18:09:05","新北市中和區中正路637巷52弄1號","121.485501666667","24.9937233333333","6500300","中和區"
"235063","006-UY","2017/06/15 18:09:20","新北市中和區員山路36巷16-3號","121.48504","24.9912816666667","6500300","中和區"
"235065","098-UM","2017/06/15 18:09:19","新北市中和區橋和路81號","121.489368333333","25.0051783333333","6500300","中和區"
"235040","150-BY","2017/06/15 18:09:06","新北市中和區和城路一段271巷1號","121.485441666667","24.991725","6500300","中和區"
"235058","151-BY","2017/06/15 18:09:12","新北市中和區圓通路367巷33弄33號","121.494696666667","24.9854333333333","6500300","中和區"
"235038","185-VK","2017/06/15 18:09:19","新北市中和區景平路127號","121.515313333333","24.9923183333333","6500300","中和區"
"235067","255-BX","2017/06/15 17:49:54","新北市中和區和城路一段271巷1號","121.48557","24.9919233333333","6500300","中和區"
"235051","376-QA","2017/06/15 18:09:24","新北市中和區錦和路350-1號","121.490128333333","24.9936466666667","6500300","中和區"
"235061","378-QA","2017/06/15 18:09:14","新北市中和區員山路61號","121.480711666667","24.9936466666667","6500300","中和區"
"235050","4979-A6","2017/06/15 15:46:20","新北市中和區員山路36巷13號","121.484361666667","24.9910983333333","6500300","中和區"
"235042","551-UM","2017/06/15 18:09:16","新北市中和區景平路159巷29弄3號","121.512955","24.9913366666667","6500300","中和區"
"235070","558-UM","2017/06/15 18:09:14","新北市中和區員山路36巷16-2號","121.485343333333","24.9914016666667","6500300","中和區"
"235045","565-BX","2017/06/15 18:09:04","新北市中和區員山路36巷13號","121.484293333333","24.99076","6500300","中和區"
"235054","640-BX","2017/06/15 18:09:14","新北市中和區員山路77巷11弄8號","121.480113333333","24.993575","6500300","中和區"
"235062","800-TS","2017/06/15 18:09:19","新北市中和區中山路二段435-1號","121.485066666667","25.004915","6500300","中和區"
"235057","801-TS","2017/06/15 18:09:23","新北市中和區員山路36巷16-3號","121.485105","24.9914033333333","6500300","中和區"
"235052","805-TS","2017/06/15 18:09:23","新北市中和區中正路273-1號","121.495645","24.9935983333333","6500300","中和區"
"235037","AAC-213","2017/06/15 18:09:17","新北市中和區錦和路350-1號","121.490213333333","24.9935833333333","6500300","中和區"
"247018","500-BY","2017/06/15 18:09:16","新北市蘆洲區民族路422巷82弄9-2號","121.474083333333","25.0949983333333","6501400","蘆洲區"
"247006","341-TH","2017/06/15 18:09:14","新北市五股區中興路二段182巷50號","121.453873333333","25.081065","6501400","蘆洲區"
"247002","336-TH","2017/06/15 18:09:17","新北市蘆洲區永平街32巷69弄19號","121.459245","25.093545","6501400","蘆洲區"
"247014","057-VK","2017/06/15 18:09:15","新北市八里區中山路三段390號","121.368338333333","25.1352533333333","6501400","蘆洲區"
"247012","007-UY","2017/06/15 18:09:18","新北市蘆洲區復興路323巷368號","121.474021666667","25.0942333333333","6501400","蘆洲區"
"226004","312-R5","2017/06/15 18:09:08","新北市平溪區白石里白石腳28號","121.719986666667","25.021545","6502400","平溪區"
"223003","205-TH","2017/06/15 17:17:35","新北市中和區興南路三段35號","121.497026666667","24.9781016666667","6501900","石碇區"
"228003","097-TW","2017/06/15 18:09:03","新北市貢寮區真理里美艷山街6-2號","121.928945","25.0607166666667","6502600","貢寮區"
"228002","585-TW","2017/06/15 18:09:06","新北市貢寮區福連里福連街36號","121.989508333333","25.0101433333333","6502600","貢寮區"
"228001","670-TC","2017/06/15 18:09:09","新北市貢寮區真理里新港街26巷55弄2-1號","121.92735","25.052845","6502600","貢寮區"
"224006","676-BX","2017/06/15 18:09:22","新北市瑞芳區中山路267號","121.797143333333","25.109875","6501200","瑞芳區"
"224002","639-TC","2017/06/15 18:09:05","新北市瑞芳區三爪子坑路32巷92號","121.809591666667","25.10654","6501200","瑞芳區"
"224009","285-BY","2017/06/15 18:09:19","新北市瑞芳區金光路117號","121.853521666667","25.1062183333333","6501200","瑞芳區"
"224008","275-VK","2017/06/15 18:09:08","新北市瑞芳區三爪子坑路335號","121.818785","25.105035","6501200","瑞芳區"
"224007","273-VK","2017/06/15 18:09:16","新北市瑞芳區頂坪路工業區11號","121.791428333333","25.1019","6501200","瑞芳區"
"224005","271-BY","2017/06/15 18:09:23","新北市瑞芳區深澳路14-2號","121.81898","25.1307466666667","6501200","瑞芳區"
"227004","642-TC","2017/06/15 18:09:12","新北市雙溪區雙溪里大同街11號","121.864536666667","25.0348783333333","6502500","雙溪區"
"253006","032-BX","2017/06/15 18:09:05","新北市石門區老梅路52巷25弄2-1號","121.546683333333","25.2874116666667","6502200","石門區"
"253005","295-VK","2017/06/15 18:09:18","新北市石門區福安街39號","121.56865","25.2920616666667","6502200","石門區"
"208001","742-BX","2017/06/15 18:09:24","新北市金山區磺港里磺港路114號","121.64615","25.2266266666667","6502700","金山區"
"208003","665-BX","2017/06/15 18:09:12","新北市金山區民生路31號","121.643453333333","25.2212616666667","6502700","金山區"
"251009","008-UM","2017/06/15 17:27:18","新北市淡水區重建街1巷7號","121.43968","25.173595","6501000","淡水區"
"251004","009-UM","2017/06/15 18:09:08","新北市淡水區民族路134號","121.46293","25.1345416666667","6501000","淡水區"
"251001","011-UM","2017/06/15 18:09:17","新北市淡水區自立路15巷1號","121.46281","25.1300366666667","6501000","淡水區"
"251008","181-VK","2017/06/15 18:09:17","新北市淡水區淡金路2號","121.457916666667","25.158725","6501000","淡水區"
"251014","182-VK","2017/06/15 18:09:19","新北市淡水區南平14-3號","121.48607","25.220725","6501000","淡水區"
"251010","413-VK","2017/06/15 18:09:23","新北市淡水區中正路二段50巷10號","121.419891666667","25.1833066666667","6501000","淡水區"
"251012","441-VK","2017/06/15 18:09:20","新北市淡水區北新路三段173號","121.492486666667","25.1922966666667","6501000","淡水區"
"251016","442-VK","2017/06/15 18:09:06","新北市淡水區淡金路三段46巷56號","121.450293333333","25.2001516666667","6501000","淡水區"
"251005","443-VK","2017/06/15 18:09:14","新北市淡水區水源街一段118號","121.447158333333","25.1718233333333","6501000","淡水區"
"251006","561-UM","2017/06/15 18:09:14","新北市淡水區新民街76巷36弄1號","121.439513333333","25.1780866666667","6501000","淡水區"
"251011","650-BX","2017/06/15 18:09:02","新北市淡水區三空泉9-2號","121.47418","25.1634533333333","6501000","淡水區"
"251002","672-BX","2017/06/15 18:09:19","新北市淡水區中正東路一段80號","121.453101666667","25.161035","6501000","淡水區"
"251003","766-UM","2017/06/15 18:09:19","新北市淡水區北新路184巷3-1號","121.449248333333","25.17836","6501000","淡水區"
"207003","550-UM","2017/06/15 18:09:15","新北市萬里區野柳里港西路10號","121.685031666667","25.2040683333333","6502800","萬里區"
"207004","225-TW","2017/06/15 18:09:16","新北市萬里區中幅里中福路115號","121.676265","25.1681366666667","6502800","萬里區"
"252002","178-VK","2017/06/15 18:09:15","新北市三芝區中山路二段41號","121.502946666667","25.25507","6502100","三芝區"
"252003","249-BX","2017/06/15 18:09:13","新北市三芝區埔頭里埔頭37號","121.498751666667","25.2605033333333","6502100","三芝區"
"252001","292-VK","2017/06/15 18:09:24","新北市三芝區中興街二段2號","121.498303333333","25.2566883333333","6502100","三芝區"
"208002","170-UY","2017/06/15 18:09:09","新北市金山區三界壇路66號","121.62005","25.230835","6502700","金山區"
"237004","078-UY","2017/06/15 18:09:06","新北市三峽區大埔路150-2號","121.364763333333","24.8982866666667","6500900","三峽區"
"237007","153-BY","2017/06/15 18:09:16","新北市三峽區中正路二段370巷77號","121.364151666667","24.9116216666667","6500900","三峽區"
"237009","210-TH","2017/06/15 18:09:03","新北市三峽區大仁路30號","121.366066666667","24.9376466666667","6500900","三峽區"
"237013","252-BX","2017/06/15 18:09:10","新北市三峽區長泰街70-2號","121.376726666667","24.9335766666667","6500900","三峽區"
"237012","275-BY","2017/06/15 18:09:23","新北市三峽區民生街19巷7弄32號","121.37722","24.9351216666667","6500900","三峽區"
"237008","302-VK","2017/06/15 18:09:02","新北市三峽區白雞44-12號","121.378426666667","24.909485","6500900","三峽區"
"237014","433-BY","2017/06/15 18:09:07","新北市三峽區和平街91號","121.3702","24.9377883333333","6500900","三峽區"
"237006","5529-G3","2017/06/15 18:09:20","新北市三峽區介壽路二段138巷6號","121.395446666667","24.9350366666667","6500900","三峽區"
"237011","572-TV","2017/06/15 18:09:23","新北市三峽區介壽路三段16號","121.395658333333","24.93624","6500900","三峽區"
"237016","649-BX","2017/06/15 18:09:07","新北市三峽區紫新路47號","121.42216","24.92181","6500900","三峽區"
"237010","706-TV","2017/06/15 18:09:10","新北市三峽區民權街193號","121.367885","24.9289966666667","6500900","三峽區"
"237005","AKY-6261","2017/06/15 18:09:11","新北市三峽區文化路71號","121.37187","24.9359233333333","6500900","三峽區"
"236071","105-UM","2017/06/15 18:09:21","新北市土城區石門路36號","121.457705","24.9644266666667","6501300","土城區"
"236042","107-UM","2017/06/15 18:09:10","新北市土城區裕生路82巷2號","121.447456666667","24.9857733333333","6501300","土城區"
"236009","165-UM","2017/06/15 11:34:25","新北市土城區永平街51號","121.427941666667","24.959195","6501300","土城區"
"236078","166-UM","2017/06/15 18:09:22","新北市土城區永寧路32巷18號","121.428713333333","24.9607983333333","6501300","土城區"
"236030","253-BX","2017/06/15 18:09:12","新北市土城區城林路6巷80號","121.438505","24.979795","6501300","土城區"
"236026","269-VK","2017/06/15 18:09:07","新北市土城區承天路18號","121.439356666667","24.9635833333333","6501300","土城區"
"236014","270-VK","2017/06/15 18:09:06","新北市土城區學府路二段3號","121.449478333333","24.9821266666667","6501300","土城區"
"236037","271-VK","2017/06/15 18:09:12","新北市土城區青雲路451巷5號","121.459233333333","24.9748233333333","6501300","土城區"
"236003","339-SR","2017/06/15 10:57:12","新北市土城區永平街51號","121.427651666667","24.959195","6501300","土城區"
"236002","370-SL","2017/06/15 15:49:36","新北市土城區永平街51號","121.427636666667","24.9591683333333","6501300","土城區"
"236021","401-BY","2017/06/15 18:09:17","新北市土城區中華路一段237號","121.441306666667","24.9824883333333","6501300","土城區"
"236058","912-UM","2017/06/15 18:09:16","新北市土城區中央路四段22號","121.420985","24.9607866666667","6501300","土城區"
"236051","913-UM","2017/06/15 18:09:19","新北市土城區金城路二段14號","121.449476666667","24.9774816666667","6501300","土城區"
"236062","915-UM","2017/06/15 18:09:17","新北市土城區學士路123號","121.446771666667","24.9758233333333","6501300","土城區"
"236053","AAC-216","2017/06/15 18:09:18","新北市土城區城林路6巷80號","121.438635","24.97975","6501300","土城區"
"242021","AAC-296","2017/06/15 18:09:20","新北市新莊區建興街77巷1號","121.44985","25.0383516666667","6500500","新莊區"
"242029","986-R7","2017/06/15 18:09:11","新北市新莊區中平路110巷36號","121.445853333333","25.045875","6500500","新莊區"
"242048","751-BX","2017/06/15 18:09:10","新北市新莊區後港一路1號","121.424056666667","25.0262316666667","6500500","新莊區"
"242025","615-BX","2017/06/15 18:09:19","新北市新莊區五權一路120號","121.46017","25.0683283333333","6500500","新莊區"
"242023","613-BX","2017/06/15 18:09:04","新北市新莊區中平路183號","121.44478","25.04931","6500500","新莊區"
"242027","612-BX","2017/06/15 18:09:10","新北市新莊區幸福路503號","121.456386666667","25.0491583333333","6500500","新莊區"
"242036","566-BX","2017/06/15 18:09:18","新北市新莊區建福路48巷13號","121.425606666667","25.0273883333333","6500500","新莊區"
"242042","497-BY","2017/06/15 18:09:04","新北市新莊區天祥街123號","121.414451666667","25.0296883333333","6500500","新莊區"
"242004","442-UM","2017/06/15 18:09:16","新北市新莊區自由街6號","121.455721666667","25.0478683333333","6500500","新莊區"
"242046","441-UM","2017/06/15 18:09:19","新北市新莊區福營路227巷13號","121.430095","25.0300566666667","6500500","新莊區"
"242051","440-UM","2017/06/15 18:09:18","新北市新莊區民本街11巷2弄27號","121.429083333333","25.0200233333333","6500500","新莊區"
"242031","415-TV","2017/06/15 18:09:13","新北市新莊區新泰路279號","121.445645","25.0404233333333","6500500","新莊區"
"242002","413-TV","2017/06/15 18:09:16","新北市新莊區新莊路34號","121.458375","25.0371316666667","6500500","新莊區"
"242039","400-BY","2017/06/15 18:09:16","新北市新莊區民安西路40號","121.42722","25.0210216666667","6500500","新莊區"
"242061","362-BY","2017/06/15 18:09:22","新北市新莊區新樹路233號","121.435106666667","25.0225583333333","6500500","新莊區"
"242058","353-BY","2017/06/15 18:09:09","新北市新莊區壽山路160巷21號","121.417435","25.031925","6500500","新莊區"
"242011","132-UY","2017/06/15 18:09:20","新北市新莊區中信街94巷11號","121.448508333333","25.0537216666667","6500500","新莊區"
"242019","135-UY","2017/06/15 18:09:07","新北市新莊區中港路132巷10號","121.45577","25.04061","6500500","新莊區"
"242044","172-VK","2017/06/15 18:09:22","新北市新莊區中正路730-2號","121.414875","25.0239","6500500","新莊區"
"242007","173-VK","2017/06/15 18:09:25","新北市新莊區自信街36號","121.454493333333","25.0481483333333","6500500","新莊區"
"242013","175-VK","2017/06/15 18:09:16","新北市新莊區幸福路870號","121.44332","25.0490233333333","6500500","新莊區"
"242056","176-VK","2017/06/15 18:09:24","新北市新莊區豐年街豐2巷25號","121.447515","25.0308616666667","6500500","新莊區"
"242034","347-TH","2017/06/15 18:09:19","新北市新莊區景德路301號","121.447341666667","25.0335766666667","6500500","新莊區"
"242017","348-TH","2017/06/15 18:09:23","新北市新莊區永樂街83號","121.450695","25.0448983333333","6500500","新莊區"
"242053","349-TH","2017/06/15 18:09:11","新北市新莊區民安西路317-1號","121.427511666667","25.011315","6500500","新莊區"
"242015","350-TH","2017/06/15 18:09:14","新北市新莊區中平路116號","121.444876666667","25.0463416666667","6500500","新莊區"
"242009","351-TH","2017/06/15 18:09:06","新北市新莊區昌盛街4號","121.453003333333","25.0499216666667","6500500","新莊區"
"238015","755-BX","2017/06/15 18:09:19","新北市樹林區大安路376號","121.416013333333","24.9900633333333","6500700","樹林區"
"238023","601-UM","2017/06/15 18:09:03","新北市樹林區龍興街46巷26號","121.402148333333","25.015205","6500700","樹林區"
"238019","599-UM","2017/06/15 18:09:02","新北市樹林區水源街32巷74號","121.424985","24.9802033333333","6500700","樹林區"
"238018","571-TV","2017/06/15 18:09:11","新北市樹林區樹新路227號","121.431165","25.0006483333333","6500700","樹林區"
"238022","312-TH","2017/06/15 18:09:25","新北市樹林區太平路150巷76號","121.416983333333","24.9772716666667","6500700","樹林區"
"238021","311-TH","2017/06/15 18:09:15","新北市樹林區柑園街一段57號","121.402901666667","24.9603033333333","6500700","樹林區"
"238025","303-VK","2017/06/15 18:09:15","新北市樹林區保安街二段191號","121.41444","25.003615","6500700","樹林區"
"238017","283-BY","2017/06/15 18:09:01","新北市樹林區中正路837號","121.409168333333","25.0176533333333","6500700","樹林區"
"238014","282-BY","2017/06/15 18:09:21","新北市樹林區大安路73號","121.423295","24.99863","6500700","樹林區"
"238020","268-VK","2017/06/15 18:09:19","新北市樹林區三俊街65巷40弄6號","121.413876666667","25.017775","6500700","樹林區"
"238026","172-UY","2017/06/15 18:09:11","新北市樹林區育德街28號","121.390365","24.96982","6500700","樹林區"
"238016","169-UY","2017/06/15 18:09:08","新北市樹林區日新街148巷21號","121.419783333333","24.9881833333333","6500700","樹林區"
"239007","AAC-297","2017/06/15 18:09:07","新北市鶯歌區育英街59號","121.34712","24.952545","6500800","鶯歌區"
"239006","891-R6","2017/06/15 18:09:18","新北市鶯歌區鶯桃路455巷2弄2號","121.331775","24.9654266666667","6500800","鶯歌區"
"239008","527-UM","2017/06/15 18:09:02","新北市鶯歌區朝陽街52巷1號","121.337763333333","24.9780366666667","6500800","鶯歌區"
"239005","526-UM","2017/06/15 18:09:08","新北市鶯歌區鶯桃路668巷73號","121.329873333333","24.9717383333333","6500800","鶯歌區"
"239001","417-VK","2017/06/15 18:09:17","新北市鶯歌區國中街109號","121.341366666667","24.9413866666667","6500800","鶯歌區"
"239003","360-BY","2017/06/15 18:09:09","新北市鶯歌區福安街32巷12號","121.334856666667","24.9637933333333","6500800","鶯歌區"
"239002","359-BY","2017/06/15 18:09:14","新北市鶯歌區中山路329巷6弄8號","121.34355","24.9560716666667","6500800","鶯歌區"
"221036","130-UY","2017/06/15 18:09:12","新北市汐止區大同路三段201號","121.671461666667","25.0772116666667","6501100","汐止區"
"221015","131-UY","2017/06/15 18:09:21","新北市汐止區鄉長路二段29號","121.668298333333","25.08292","6501100","汐止區"
"221010","269-BY","2017/06/15 18:09:08","新北市汐止區汐萬路二段273號","121.645915","25.0889416666667","6501100","汐止區"
"221012","278-VK","2017/06/15 18:09:13","新北市汐止區保一街51號","121.674468333333","25.0800966666667","6501100","汐止區"
"221023","279-VK","2017/06/15 02:24:04","新北市汐止區康寧街901號","121.651618333333","25.0748516666667","6501100","汐止區"
"221032","280-BY","2017/06/15 18:09:05","新北市汐止區力行街15號","121.617086666667","25.050835","6501100","汐止區"
"221027","281-BY","2017/06/15 18:09:19","新北市汐止區大同路二段509號","121.661385","25.0687916666667","6501100","汐止區"
"221038","297-VK","2017/06/15 18:09:03","新北市汐止區南興路87號","121.653113333333","25.0589266666667","6501100","汐止區"
"221029","298-VK","2017/06/15 18:09:05","新北市汐止區樟樹二路134號","121.639961666667","25.0657716666667","6501100","汐止區"
"221021","299-VK","2017/06/15 15:17:44","新北市汐止區康寧街901號","121.652095","25.07537","6501100","汐止區"
"221035","622-UM","2017/06/15 18:09:11","新北市汐止區大同路二段233號","121.653256666667","25.0651816666667","6501100","汐止區"
"221025","623-UM","2017/06/15 18:09:22","新北市汐止區秀峰路137巷6號","121.660705","25.06239","6501100","汐止區"
"221033","647-BX","2017/06/15 18:09:24","新北市汐止區林森街19號","121.621666666667","25.0404983333333","6501100","汐止區"
"221002","707-TV","2017/06/15 18:09:17","新北市汐止區福德一路214號","121.634426666667","25.06521","6501100","汐止區"
"221018","753-BX","2017/06/15 18:09:14","新北市汐止區忠孝東路382巷3弄1號","121.665656666667","25.069725","6501100","汐止區"
"220054","741-BX","2017/06/15 16:09:08","新北市板橋區民生路二段15-1號","121.472748333333","25.0164516666667","6500100","板橋區"
