"lineid","car","time","location","longitude","latitude","cityid","cityname"
"234046","148-BY","2017/06/15 18:39:10","新北市永和區永元路68號","121.522503333333","25.001625","6500400","永和區"
"234013","149-BY","2017/06/15 18:39:01","新北市永和區保福路二段109巷2號","121.510131666667","25.0133483333333","6500400","永和區"
"234007","207-UY","2017/06/15 18:39:19","新北市永和區環河西路二段29號","121.507471666667","25.0157716666667","6500400","永和區"
"234081","298-R6","2017/06/15 18:39:25","新北市永和區林森路81號","121.523886666667","25.003885","6500400","永和區"
"234038","336-UY","2017/06/15 18:39:04","新北市永和區福和路1號","121.526625","25.0099833333333","6500400","永和區"
"234064","337-UY","2017/06/15 18:39:20","新北市永和區福和路1號","121.52625","25.009365","6500400","永和區"
"234084","338-UY","2017/06/15 18:36:49","新北市永和區福和路1號","121.526168333333","25.009745","6500400","永和區"
"234017","745-BX","2017/06/15 18:39:08","新北市永和區福和路1號","121.526296666667","25.0096133333333","6500400","永和區"
"234086","840-RS","2017/06/15 18:39:06","新北市永和區環河東路二段92號","121.524363333333","25.0106083333333","6500400","永和區"
"234061","AAD-866","2017/06/15 18:39:14","新北市永和區福和路1號","121.52617","25.009525","6500400","永和區"
"234042","862-TW","2017/06/15 18:39:15","新北市永和區永和路一段22號","121.512928333333","25.004785","6500400","永和區"
"234050","863-TW","2017/06/15 18:37:54","新北市永和區福和路1號","121.526555","25.0099783333333","6500400","永和區"
"234026","9371-KE","2017/06/15 18:39:13","新北市永和區永和路一段72巷4號","121.513451666667","25.0060966666667","6500400","永和區"
"234011","9373-KE","2017/06/15 18:39:16","新北市永和區永和路二段231巷1-1號","121.514973333333","25.0140283333333","6500400","永和區"
"249005","172-UM","2017/06/15 18:39:19","新北市八里區中華路三段212號","121.38901","25.12519","6502300","八里區"
"249001","173-UM","2017/06/15 18:39:21","新北市八里區龍米路一段360號","121.451501666667","25.13134","6502300","八里區"
"249004","303-UY","2017/06/15 18:39:06","新北市八里區大崁腳48-53號","121.424785","25.1593816666667","6502300","八里區"
"249002","305-UY","2017/06/15 18:39:19","新北市八里區龍形一街29號","121.449625","25.13023","6502300","八里區"
"248014","025-BX","2017/06/15 18:39:08","新北市五股區成泰路二段82號","121.437458333333","25.0822933333333","6501500","五股區"
"248016","026-BX","2017/06/15 18:39:15","新北市五股區凌雲路一段149巷7號","121.44891","25.1016316666667","6501500","五股區"
"248008","095-VK","2017/06/15 18:39:11","新北市五股區中興路一段152號","121.464533333333","25.0738383333333","6501500","五股區"
"248020","225-UY","2017/06/15 18:38:45","新北市五股區孝義路73-1號","121.445526666667","25.1195116666667","6501500","五股區"
"248012","247-BX","2017/06/15 14:42:44","新北市五股區民義路一段60號","121.436766666667","25.0844616666667","6501500","五股區"
"248010","272-BY","2017/06/15 18:39:24","新北市五股區水碓五路172號","121.431466666667","25.0740433333333","6501500","五股區"
"248004","677-BX","2017/06/15 18:39:06","新北市五股區民義路一段310號","121.424553333333","25.0937566666667","6501500","五股區"
"248002","678-BX","2017/06/15 18:39:21","新北市五股區西雲路207號","121.448641666667","25.09662","6501500","五股區"
"234023","9380-KE","2017/06/15 18:39:12","新北市永和區福和路76巷5弄9號","121.522295","25.00828","6500400","永和區"
"234077","969-R7","2017/06/15 18:39:17","新北市永和區中正路293號","121.517536666667","25.0014683333333","6500400","永和區"
"234074","AAC-211","2017/06/15 18:39:09","新北市永和區福和路1號","121.526528333333","25.0099316666667","6500400","永和區"
"234003","AAC-295","2017/06/15 18:36:45","新北市永和區福和路1號","121.52587","25.0091516666667","6500400","永和區"
"232011","375-UM","2017/06/15 18:21:45","新北市坪林區坪雙路一段43號","121.711815","24.9424983333333","6502000","坪林區"
"244013","069-UM","2017/06/15 18:39:07","新北市林口區中山路299號","121.383693333333","25.0795333333333","6501700","林口區"
"244007","080-UY","2017/06/15 18:39:04","新北市林口區後湖40-2號","121.386628333333","25.0997983333333","6501700","林口區"
"244019","403-UM","2017/06/15 18:39:08","新北市林口區忠孝路577號","121.375093333333","25.0681916666667","6501700","林口區"
"244023","483-VK","2017/06/15 18:39:22","新北市林口區文化二路二段88巷29號","121.380383333333","25.080375","6501700","林口區"
"244017","485-VK","2017/06/15 18:39:20","新北市林口區文化二路一段22號","121.364755","25.0672916666667","6501700","林口區"
"244009","656-BX","2017/06/15 18:39:10","新北市林口區文林一街12巷1號","121.3775","25.0854716666667","6501700","林口區"
"244011","701-TV","2017/06/15 18:39:18","新北市林口區仁愛路一段348號","121.39062","25.076505","6501700","林口區"
"244025","837-TS","2017/06/15 18:39:15","新北市林口區南勢里53-6號","121.35506","25.0749016666667","6501700","林口區"
"244021","838-TS","2017/06/15 18:39:11","新北市林口區工六路42號","121.398918333333","25.0782883333333","6501700","林口區"
"243013","AAD-798","2017/06/15 18:39:18","新北市泰山區明志路三段206巷3號","121.423318333333","25.03795","6501600","泰山區"
"243009","297-R6","2017/06/15 15:59:44","新北市泰山區黎明路25號","121.422031666667","25.06089","6501600","泰山區"
"243015","380-SR","2017/06/15 17:43:42","新北市泰山區黎明路31號","121.421836666667","25.06054","6501600","泰山區"
"243014","421-VK","2017/06/15 15:36:39","新北市泰山區黎明路25號","121.422258333333","25.0606366666667","6501600","泰山區"
"243012","539-UM","2017/06/15 18:39:00","新北市泰山區泰林路二段67號","121.435215","25.0583066666667","6501600","泰山區"
"243010","548-UM","2017/06/15 18:39:11","新北市泰山區犁頭窠6號","121.420753333333","25.0595366666667","6501600","泰山區"
"222003","436-BY","2017/06/15 18:39:17","新北市深坑區翠谷街81巷6號","121.628055","25.009345","6501800","深坑區"
"222002","659-BX","2017/06/15 18:39:12","新北市深坑區雲鄉路11號","121.621465","24.9997816666667","6501800","深坑區"
"222001","696-SL","2017/06/15 18:39:12","新北市深坑區北深路一段82號","121.636306666667","25.0106766666667","6501800","深坑區"
"231041","002-UM","2017/06/15 18:39:12","新北市新店區安華路28-1號","121.51983","24.9607533333333","6500600","新店區"
"231056","0291-UT","2017/06/15 18:39:20","新北市新店區自立街45巷1號","121.537103333333","24.9798666666667","6500600","新店區"
"231059","046-UY","2017/06/15 18:39:23","新北市新店區安華路28-1號","121.519601666667","24.9607383333333","6500600","新店區"
"231061","047-UY","2017/06/15 18:39:03","新北市新店區安華路28-1號","121.51921","24.9609616666667","6500600","新店區"
"231060","106-UY","2017/06/15 18:39:13","新北市新店區安華路28-1號","121.519686666667","24.9607466666667","6500600","新店區"
"231051","107-UY","2017/06/15 18:39:06","新北市新店區安康路一段285號","121.523358333333","24.9635766666667","6500600","新店區"
"231047","108-UY","2017/06/15 18:39:07","新北市新店區環河路29巷1號","121.53672","24.9612883333333","6500600","新店區"
"231052","187-VK","2017/06/15 18:39:21","新北市新店區永興路12號","121.545238333333","24.9400016666667","6500600","新店區"
"231007","189-VK","2017/06/15 12:03:45","新北市新店區安華路28-1號","121.519671666667","24.9611566666667","6500600","新店區"
"231057","256-BX","2017/06/15 18:39:18","新北市新店區新烏路一段201號","121.547631666667","24.93222","6500600","新店區"
"231063","268-BY","2017/06/15 18:39:20","新北市新店區安華路28-1號","121.519378333333","24.96069","6500600","新店區"
"231046","278-BY","2017/06/15 18:39:09","新北市新店區直潭一街36號","121.535855","24.9415483333333","6500600","新店區"
"231050","AAD-862","2017/06/15 18:39:14","新北市新店區安華路28-1號","121.519835","24.9611316666667","6500600","新店區"
"231058","3712-VJ","2017/06/15 18:39:03","新北市新店區國校路76-1號","121.538576666667","24.95311","6500600","新店區"
"231055","3713-VJ","2017/06/15 18:39:05","新北市新店區華興街32號","121.537215","24.9688716666667","6500600","新店區"
"231067","4772-VM","2017/06/15 18:39:12","新北市新店區安華路28-1號","121.519231666667","24.9606183333333","6500600","新店區"
"231065","512-UM","2017/06/15 18:39:20","新北市新店區安華路28-1號","121.519091666667","24.9612583333333","6500600","新店區"
"231054","513-UM","2017/06/15 18:39:24","新北市新店區安華路28-1號","121.519771666667","24.96113","6500600","新店區"
"231064","515-UM","2017/06/15 18:39:21","新北市新店區安華路28-1號","121.51974","24.9611066666667","6500600","新店區"
"231045","617-UM","2017/06/15 18:39:11","新北市新店區安華路28-1號","121.519435","24.96091","6500600","新店區"
"231040","619-UM","2017/06/15 18:39:16","新北市新店區安華路28-1號","121.519613333333","24.9607633333333","6500600","新店區"
"231042","641-BX","2017/06/15 18:39:07","新北市新店區安康路一段355-3號","121.519743333333","24.961715","6500600","新店區"
"231049","719-UM","2017/06/15 18:39:15","新北市新店區環河路29巷1號","121.536855","24.96133","6500600","新店區"
"231062","720-UM","2017/06/15 18:39:04","新北市新店區安華路28-1號","121.51932","24.961225","6500600","新店區"
"231044","897-TW","2017/06/15 18:39:17","新北市新店區環河路17號","121.537486666667","24.9614033333333","6500600","新店區"
"231043","899-TW","2017/06/15 18:39:08","新北市新店區安華路28-1號","121.51915","24.960875","6500600","新店區"
"231066","AKT-0513","2017/06/15 18:39:19","新北市新店區安華路28-1號","121.51954","24.9605616666667","6500600","新店區"
"235066","003-UY","2017/06/15 18:39:18","新北市中和區水源路22號","121.504248333333","25.003505","6500300","中和區"
"235064","005-UY","2017/06/15 18:39:05","新北市中和區連城路139巷55號","121.496858333333","24.99735","6500300","中和區"
"235063","006-UY","2017/06/15 18:39:20","新北市中和區連城路405號","121.486045","24.9961233333333","6500300","中和區"
"235056","096-UM","2017/06/15 18:39:12","新北市中和區員山路611巷1號","121.477938333333","25.0113183333333","6500300","中和區"
"235039","097-UM","2017/06/15 18:39:20","新北市中和區安樂路199號","121.514515","24.9984666666667","6500300","中和區"
"235065","098-UM","2017/06/15 18:39:19","新北市中和區中山路二段64巷9號","121.503246666667","25.005045","6500300","中和區"
"235040","150-BY","2017/06/15 18:39:06","新北市中和區安平路38號","121.509981666667","24.9951883333333","6500300","中和區"
"235058","151-BY","2017/06/15 18:39:12","新北市中和區圓通路320號","121.487151666667","24.9881783333333","6500300","中和區"
"235055","183-VK","2017/06/15 18:39:23","新北市中和區民生街66號","121.468855","25.0049716666667","6500300","中和區"
"235038","185-VK","2017/06/15 18:39:19","新北市中和區立人街63號","121.520183333333","24.9943783333333","6500300","中和區"
"235049","186-VK","2017/06/15 18:39:04","新北市中和區景平路480號","121.505113333333","24.99362","6500300","中和區"
"235067","255-BX","2017/06/15 18:39:16","新北市中和區新生街44號","121.483158333333","25.0033266666667","6500300","中和區"
"235072","301-VK","2017/06/15 18:39:16","新北市中和區連城路110號","121.496375","24.999895","6500300","中和區"
"235043","352-BY","2017/06/15 18:39:20","新北市中和區景平路155號","121.513255","24.9925","6500300","中和區"
"235041","375-QA","2017/06/15 18:39:07","新北市中和區錦和路350-1號","121.490501666667","24.9935583333333","6500300","中和區"
"235051","376-QA","2017/06/15 18:31:44","新北市中和區興南路三段42-3號","121.495348333333","24.9771","6500300","中和區"
"235068","377-QA","2017/06/15 18:39:04","新北市中和區中正路209號","121.497301666667","24.9936383333333","6500300","中和區"
"235061","378-QA","2017/06/15 18:39:14","新北市中和區民享街93巷8號","121.475491666667","25.0006733333333","6500300","中和區"
"235050","4979-A6","2017/06/15 18:36:48","新北市中和區景新街418巷3號","121.512655","24.9887033333333","6500300","中和區"
"235069","4980-A6","2017/06/15 18:39:07","新北市中和區連城路65巷10號","121.49788","25.0008716666667","6500300","中和區"
"235042","551-UM","2017/06/15 18:39:16","新北市中和區成功路97巷7號","121.52651","24.9919116666667","6500300","中和區"
"235070","558-UM","2017/06/15 18:39:13","新北市中和區南華路60號","121.504546666667","24.997095","6500300","中和區"
"235045","565-BX","2017/06/15 18:39:04","新北市中和區復興路49巷4號","121.504556666667","24.9897583333333","6500300","中和區"
"235054","640-BX","2017/06/15 18:39:14","新北市中和區民享街93巷3號","121.475181666667","25.000615","6500300","中和區"
"235060","647-TV","2017/06/15 18:39:15","新北市中和區中山路二段543號","121.481136666667","25.0053783333333","6500300","中和區"
"235047","732-UM","2017/06/15 18:39:07","新北市中和區南山路481號","121.508083333333","24.9880966666667","6500300","中和區"
"235046","733-UM","2017/06/15 18:39:17","新北市中和區南山路277號","121.504073333333","24.9923533333333","6500300","中和區"
"235071","783-BX","2017/06/15 18:39:06","新北市中和區員山路36巷16-3號","121.485196666667","24.991215","6500300","中和區"
"235062","800-TS","2017/06/15 18:39:19","新北市中和區中山路二段312巷10弄2號","121.495618333333","25.0030216666667","6500300","中和區"
"235057","801-TS","2017/06/15 18:39:03","新北市中和區民安街43號","121.479885","25.0002883333333","6500300","中和區"
"235052","805-TS","2017/06/15 18:39:23","新北市中和區興南路三段20巷4號","121.497108333333","24.9794033333333","6500300","中和區"
"235048","896-TW","2017/06/15 18:39:04","新北市中和區南山路231號","121.503591666667","24.9933133333333","6500300","中和區"
"235053","900-TW","2017/06/15 18:39:12","新北市中和區民享街457號","121.470426666667","24.9931283333333","6500300","中和區"
"235037","AAC-213","2017/06/15 18:39:16","新北市中和區景平路151巷59號","121.514866666667","24.9899983333333","6500300","中和區"
"235059","AAC-215","2017/06/15 18:39:22","新北市中和區錦和路350-1號","121.49016","24.9935133333333","6500300","中和區"
"220068","013-TV","2017/06/15 18:39:06","新北市板橋區民生路二段36-1號","121.472658333333","25.0165933333333","6500100","板橋區"
"220086","073-UY","2017/06/15 18:39:17","新北市板橋區南雅南路二段120-2號","121.452346666667","24.9999466666667","6500100","板橋區"
"247006","341-TH","2017/06/15 18:39:14","新北市八里區中山路三段387號","121.371991666667","25.1374533333333","6501400","蘆洲區"
"247014","057-VK","2017/06/15 18:39:15","新北市五股區中興路三段163號","121.449053333333","25.08097","6501400","蘆洲區"
"247022","002-UY","2017/06/15 18:39:04","新北市五股區成泰路三段362號","121.451516666667","25.0987716666667","6501400","蘆洲區"
"226004","312-R5","2017/06/15 18:39:08","新北市平溪區平溪里三坑路35號","121.734855","25.032005","6502400","平溪區"
"223003","205-TH","2017/06/15 17:17:35","新北市中和區興南路三段35號","121.497026666667","24.9781016666667","6501900","石碇區"
"228003","097-TW","2017/06/15 18:39:19","新北市貢寮區和美里龍洞街40-1號","121.915456666667","25.1116483333333","6502600","貢寮區"
"228002","585-TW","2017/06/15 18:39:06","新北市貢寮區福隆里東興街6-12號","121.951731666667","25.0208766666667","6502600","貢寮區"
"228001","670-TC","2017/06/15 18:39:09","新北市貢寮區仁理村研海街12-1號","121.923761666667","25.0516916666667","6502600","貢寮區"
"224010","AGQ-8101","2017/06/15 18:35:27","新北市瑞芳區崙頂路111號","121.844628333333","25.106995","6501200","瑞芳區"
"224006","676-BX","2017/06/15 18:39:19","新北市瑞芳區明燈路三段84號","121.805776666667","25.10829","6501200","瑞芳區"
"224002","639-TC","2017/06/15 18:39:05","新北市瑞芳區中山路245號","121.79987","25.1072616666667","6501200","瑞芳區"
"224009","285-BY","2017/06/15 18:39:19","新北市瑞芳區五號路308號","121.856855","25.1113866666667","6501200","瑞芳區"
"224008","275-VK","2017/06/15 18:39:08","新北市瑞芳區岳王路37號","121.80793","25.1112883333333","6501200","瑞芳區"
"224007","273-VK","2017/06/15 18:39:16","新北市瑞芳區大埔路台北新城5號","121.764485","25.100415","6501200","瑞芳區"
"224005","271-BY","2017/06/15 18:39:21","新北市瑞芳區永龍新村46號","121.819013333333","25.118545","6501200","瑞芳區"
"227004","642-TC","2017/06/15 18:39:12","新北市雙溪區魚行里坤溪3-5號","121.876181666667","25.020725","6502500","雙溪區"
"227010","400-TW","2017/06/15 18:39:10","新北市雙溪區牡丹里下坑11號","121.850973333333","25.0561583333333","6502500","雙溪區"
"253006","032-BX","2017/06/15 18:39:05","新北市石門區楓林28-1號","121.542291666667","25.2894266666667","6502200","石門區"
"253005","295-VK","2017/06/15 18:39:18","新北市石門區中山路27號","121.56658","25.2904483333333","6502200","石門區"
"208001","742-BX","2017/06/15 18:39:19","新北市金山區文化三路7號","121.635103333333","25.224965","6502700","金山區"
"208003","665-BX","2017/06/15 18:39:06","新北市金山區中山路334號","121.63373","25.22515","6502700","金山區"
"251004","009-UM","2017/06/15 18:39:08","新北市淡水區中正東路二段143巷2弄1號","121.460818333333","25.14745","6501000","淡水區"
"251001","011-UM","2017/06/15 18:39:17","新北市淡水區自強路108-1號","121.461868333333","25.1301216666667","6501000","淡水區"
"251008","181-VK","2017/06/15 18:39:17","新北市淡水區北投子18號","121.453935","25.1839666666667","6501000","淡水區"
"251014","182-VK","2017/06/15 18:39:05","新北市淡水區崙頂12-8號","121.495546666667","25.2172266666667","6501000","淡水區"
"251010","413-VK","2017/06/15 18:39:03","新北市淡水區沙崙路128號","121.423441666667","25.1825633333333","6501000","淡水區"
"251012","441-VK","2017/06/15 18:39:08","新北市淡水區北新路180號","121.449078333333","25.178535","6501000","淡水區"
"251016","442-VK","2017/06/15 18:39:06","新北市淡水區下圭柔山102號","121.441668333333","25.208115","6501000","淡水區"
"251011","650-BX","2017/06/15 18:39:21","新北市淡水區鄧公路210巷6號","121.455268333333","25.169145","6501000","淡水區"
"251002","672-BX","2017/06/15 18:39:14","新北市淡水區中正東路79號","121.447665","25.1672566666667","6501000","淡水區"
"251003","766-UM","2017/06/15 18:39:19","新北市淡水區中山北路一段212巷38號","121.446096666667","25.179065","6501000","淡水區"
"207003","550-UM","2017/06/15 18:39:14","新北市萬里區野柳里八斗60號","121.670161666667","25.2024633333333","6502800","萬里區"
"207004","225-TW","2017/06/15 18:39:16","新北市萬里區萬里里獅頭路7號","121.692011666667","25.178345","6502800","萬里區"
"252002","178-VK","2017/06/15 18:39:15","新北市三芝區中正路二段33號","121.504088333333","25.2548616666667","6502100","三芝區"
"252003","249-BX","2017/06/15 18:39:13","新北市三芝區後厝里土地公坑55號","121.462305","25.2481883333333","6502100","三芝區"
"252001","292-VK","2017/06/15 18:39:24","新北市三芝區中興街二段54號","121.499625","25.2549866666667","6502100","三芝區"
"208002","170-UY","2017/06/15 18:39:09","新北市金山區忠孝一路19巷17號","121.637261666667","25.2175966666667","6502700","金山區"
"237004","078-UY","2017/06/15 18:39:06","新北市三峽區金敏5號","121.38637","24.87426","6500900","三峽區"
"237007","153-BY","2017/06/15 18:39:16","新北市三峽區柑樹路2巷3號","121.362266666667","24.9055766666667","6500900","三峽區"
"237009","210-TH","2017/06/15 18:39:03","新北市三峽區大同路240巷43號","121.365371666667","24.9256583333333","6500900","三峽區"
"237013","252-BX","2017/06/15 18:39:10","新北市三峽區光明路69巷25號","121.376601666667","24.9292416666667","6500900","三峽區"
"237012","275-BY","2017/06/15 18:39:03","新北市三峽區三樹路216號","121.379338333333","24.942265","6500900","三峽區"
"237008","302-VK","2017/06/15 18:39:02","新北市三峽區白雞127號","121.393711666667","24.9094733333333","6500900","三峽區"
"237014","433-BY","2017/06/15 18:39:12","新北市三峽區文化路152號","121.370316666667","24.936235","6500900","三峽區"
"237006","5529-G3","2017/06/15 18:39:20","新北市三峽區溪東路315巷76號","121.411641666667","24.93145","6500900","三峽區"
"237011","572-TV","2017/06/15 18:39:08","新北市三峽區溪東路201號","121.404375","24.933575","6500900","三峽區"
"237016","649-BX","2017/06/15 18:39:07","新北市三峽區成福路280號","121.428413333333","24.923425","6500900","三峽區"
"237010","706-TV","2017/06/15 18:39:10","新北市三峽區復興路355號","121.363861666667","24.9387","6500900","三峽區"
"237005","AKY-6261","2017/06/15 18:39:07","新北市三峽區民生街121號","121.373488333333","24.9352616666667","6500900","三峽區"
"236071","105-UM","2017/06/15 18:39:17","新北市土城區永豐路171號","121.469485","24.97905","6501300","土城區"
"236042","107-UM","2017/06/15 18:39:10","新北市土城區學成路106號","121.44996","24.9892616666667","6501300","土城區"
"236009","165-UM","2017/06/15 11:34:25","新北市土城區永平街51號","121.427941666667","24.959195","6501300","土城區"
"236078","166-UM","2017/06/15 18:39:22","新北市土城區中央路四段54巷21號","121.419226666667","24.96049","6501300","土城區"
"236030","253-BX","2017/06/15 18:39:12","新北市土城區中央路二段278巷9-2號","121.43995","24.9748733333333","6501300","土城區"
"236026","269-VK","2017/06/15 18:39:07","新北市土城區忠義路47-1號","121.440876666667","24.9694783333333","6501300","土城區"
"236014","270-VK","2017/06/15 18:39:15","新北市土城區清水路207巷25號","121.459585","24.98259","6501300","土城區"
"236037","271-VK","2017/06/15 18:39:18","新北市土城區明德路一段287巷12號","121.460955","24.9767733333333","6501300","土城區"
"236003","339-SR","2017/06/15 10:57:12","新北市土城區永平街51號","121.427651666667","24.959195","6501300","土城區"
"236002","370-SL","2017/06/15 15:49:36","新北市土城區永平街51號","121.427636666667","24.9591683333333","6501300","土城區"
"236021","401-BY","2017/06/15 18:39:17","新北市土城區延吉街327-1號","121.465553333333","24.98415","6501300","土城區"
"236058","912-UM","2017/06/15 18:39:16","新北市土城區中央路四段45-1號","121.422468333333","24.9617283333333","6501300","土城區"
"236051","913-UM","2017/06/15 18:39:19","新北市土城區明德路一段95號","121.465531666667","24.9830566666667","6501300","土城區"
"236062","915-UM","2017/06/15 18:39:17","新北市土城區延壽路55巷9弄2號","121.469435","24.9916433333333","6501300","土城區"
"236053","AAC-216","2017/06/15 18:39:18","新北市土城區中華路一段99號","121.444766666667","24.9871916666667","6501300","土城區"
"242002","413-TV","2017/06/15 18:39:16","新北市新莊區新泰路357巷3弄55號","121.442088333333","25.0397983333333","6500500","新莊區"
"242061","362-BY","2017/06/15 18:39:22","新北市新莊區建安街61號","121.428218333333","25.0251716666667","6500500","新莊區"
"242058","353-BY","2017/06/15 18:39:09","新北市新莊區中正路887-17號","121.416178333333","25.0242066666667","6500500","新莊區"
"242044","172-VK","2017/06/15 18:39:22","新北市新莊區新北大道七段36號","121.419538333333","25.0321033333333","6500500","新莊區"
"238015","755-BX","2017/06/15 18:39:19","新北市樹林區大安路530號","121.413858333333","24.986185","6500700","樹林區"
"238023","601-UM","2017/06/15 18:39:23","新北市樹林區三福街114號","121.40656","25.0163583333333","6500700","樹林區"
"238019","599-UM","2017/06/15 18:39:22","新北市樹林區中華路190號","121.41197","24.9805816666667","6500700","樹林區"
"238018","571-TV","2017/06/15 18:39:11","新北市樹林區樹新路86號","121.429335","24.9975016666667","6500700","樹林區"
"238025","303-VK","2017/06/15 18:39:15","新北市樹林區中山路三段22號","121.395563333333","24.972975","6500700","樹林區"
"238014","282-BY","2017/06/15 18:37:14","新北市樹林區中山路三段210-2號","121.380746666667","24.96681","6500700","樹林區"
"238020","268-VK","2017/06/15 18:39:19","新北市樹林區俊安街24巷10弄6號","121.419115","25.013795","6500700","樹林區"
"238026","172-UY","2017/06/15 18:39:11","新北市樹林區八德街1010號","121.3914","24.96845","6500700","樹林區"
"238016","169-UY","2017/06/15 18:39:08","新北市樹林區文化街27號","121.419196666667","24.987595","6500700","樹林區"
"239007","AAC-297","2017/06/15 18:39:07","新北市鶯歌區中正一路478號","121.365275","24.9566533333333","6500800","鶯歌區"
"239008","527-UM","2017/06/15 18:39:22","新北市鶯歌區朝陽街2號","121.336235","24.9765616666667","6500800","鶯歌區"
"239005","526-UM","2017/06/15 18:39:08","新北市鶯歌區鳳吉一街170號","121.329041666667","24.9755566666667","6500800","鶯歌區"
"239001","417-VK","2017/06/15 18:39:17","新北市鶯歌區二橋街53號","121.336978333333","24.938625","6500800","鶯歌區"
"239003","360-BY","2017/06/15 18:39:09","新北市鶯歌區鶯桃路390號","121.333776666667","24.9635816666667","6500800","鶯歌區"
"239004","193-VK","2017/06/15 18:39:15","新北市鶯歌區尖山路323號","121.341851666667","24.9444116666667","6500800","鶯歌區"
"221036","130-UY","2017/06/15 18:39:13","新北市汐止區南昌街35號","121.662851666667","25.068985","6501100","汐止區"
"221015","131-UY","2017/06/15 18:39:21","新北市汐止區鄉長路二段4號","121.668861666667","25.08073","6501100","汐止區"
"221010","269-BY","2017/06/15 18:39:08","新北市汐止區汐萬路三段282號","121.641041666667","25.108735","6501100","汐止區"
"221012","278-VK","2017/06/15 18:39:13","新北市汐止區保一街37號","121.674048333333","25.08018","6501100","汐止區"
"221023","279-VK","2017/06/15 02:24:04","新北市汐止區康寧街901號","121.651618333333","25.0748516666667","6501100","汐止區"
"221032","280-BY","2017/06/15 18:39:05","新北市汐止區民權街二段79號","121.619125","25.0480383333333","6501100","汐止區"
"221027","281-BY","2017/06/15 18:39:19","新北市汐止區大同路二段595號","121.663686666667","25.070485","6501100","汐止區"
"221038","297-VK","2017/06/15 18:39:23","新北市汐止區忠孝東路248號","121.662901666667","25.0673333333333","6501100","汐止區"
"221029","298-VK","2017/06/15 18:39:05","新北市汐止區樟樹一路140號","121.642335","25.0649466666667","6501100","汐止區"
"221021","299-VK","2017/06/15 15:17:44","新北市汐止區康寧街901號","121.652095","25.07537","6501100","汐止區"
"221035","622-UM","2017/06/15 18:39:11","新北市汐止區大同路二段264號","121.654613333333","25.06606","6501100","汐止區"
"221025","623-UM","2017/06/15 18:39:22","新北市汐止區仁愛路126號","121.662988333333","25.06395","6501100","汐止區"
"221033","647-BX","2017/06/15 18:39:24","新北市汐止區芳園街4號","121.624906666667","25.03786","6501100","汐止區"
"221002","707-TV","2017/06/15 18:39:06","新北市汐止區中興路25號","121.636873333333","25.0596633333333","6501100","汐止區"
"221018","753-BX","2017/06/15 18:39:14","新北市汐止區茄苳路250巷15號","121.671713333333","25.0679233333333","6501100","汐止區"
"220064","280-UM","2017/06/15 18:39:02","新北市板橋區民生路二段36-1號","121.472551666667","25.0165816666667","6500100","板橋區"
"220071","283-VK","2017/06/15 18:39:11","新北市板橋區民生路二段36-1號","121.472511666667","25.0167583333333","6500100","板橋區"
"220053","285-VK","2017/06/15 16:44:58","新北市板橋區民生路二段36-1號","121.472431666667","25.0168066666667","6500100","板橋區"
"220083","286-VK","2017/06/15 18:39:11","新北市板橋區華東街1-9號","121.448221666667","24.9948183333333","6500100","板橋區"
"220081","287-VK","2017/06/15 18:39:01","新北市板橋區華東街1-10號","121.448301666667","24.9949516666667","6500100","板橋區"
"220090","288-VK","2017/06/15 18:39:13","新北市板橋區民生路二段161巷7號","121.47023","25.0196966666667","6500100","板橋區"
"220061","293-UM","2017/06/15 18:39:14","新北市板橋區民生路二段36-1號","121.472635","25.016765","6500100","板橋區"
"220084","296-UM","2017/06/15 18:39:21","新北市板橋區華東街1-9號","121.448161666667","24.9949416666667","6500100","板橋區"
"220056","303-R5","2017/06/15 18:39:20","新北市板橋區中山路一段156號","121.46512","25.0118033333333","6500100","板橋區"
"220062","305-R5","2017/06/15 16:30:02","新北市板橋區民生路二段56-1號","121.472495","25.0169916666667","6500100","板橋區"
"220080","461-BY","2017/06/15 18:39:12","新北市板橋區華東街1-9號","121.448241666667","24.9948533333333","6500100","板橋區"
"220035","560-BX","2017/06/15 18:39:01","新北市板橋區南雅西路二段145巷10號","121.45161","25.011965","6500100","板橋區"
"220063","609-BX","2017/06/15 16:41:43","新北市板橋區民生路二段36-1號","121.472508333333","25.0165883333333","6500100","板橋區"
"220057","686-BX","2017/06/15 18:39:11","新北市板橋區民生路二段36-1號","121.472645","25.0165333333333","6500100","板橋區"
"220077","687-BX","2017/06/15 18:39:13","新北市板橋區華東街1-10號","121.44833","24.995075","6500100","板橋區"
"220054","741-BX","2017/06/15 18:39:24","新北市板橋區民生路二段22號","121.472781666667","25.01665","6500100","板橋區"
"220074","895-R6","2017/06/15 18:39:22","新北市板橋區華東街1-9號","121.44823","24.99496","6500100","板橋區"
"220070","AAC-253","2017/06/15 18:39:11","新北市板橋區民生路二段15-1號","121.47276","25.0163816666667","6500100","板橋區"
