"lineid","car","time","location","longitude","latitude","cityid","cityname"
"234046","148-BY","2017/06/15 18:59:10","新北市永和區秀朗路二段148巷7弄16號","121.525858333333","25.00032","6500400","永和區"
"234013","149-BY","2017/06/15 18:59:21","新北市永和區中山路一段60巷4號","121.513021666667","25.0109383333333","6500400","永和區"
"234007","207-UY","2017/06/15 18:59:19","新北市永和區中山路一段93號","121.51156","25.0106116666667","6500400","永和區"
"234081","298-R6","2017/06/15 18:59:05","新北市永和區國中路150號","121.5227","25.0068566666667","6500400","永和區"
"234038","336-UY","2017/06/15 18:59:10","新北市永和區民樂街75巷1號","121.527403333333","24.99705","6500400","永和區"
"234064","337-UY","2017/06/15 18:59:20","新北市永和區秀朗路一段156號","121.518328333333","25.0033466666667","6500400","永和區"
"234084","338-UY","2017/06/15 18:36:49","新北市永和區福和路1號","121.526168333333","25.009745","6500400","永和區"
"234070","552-UM","2017/06/15 18:59:10","新北市永和區豫溪街57巷10弄3號","121.517383333333","25.010655","6500400","永和區"
"234054","553-UM","2017/06/15 18:59:14","新北市永和區竹林路66巷5號","121.518228333333","25.0132916666667","6500400","永和區"
"234017","745-BX","2017/06/15 18:59:08","新北市永和區永和路二段314號","121.516211666667","25.0161883333333","6500400","永和區"
"234028","746-BX","2017/06/15 18:59:14","新北市永和區四維街75號","121.525248333333","24.998025","6500400","永和區"
"234086","840-RS","2017/06/15 18:59:06","新北市永和區中正路4號","121.512326666667","24.99357","6500400","永和區"
"234061","AAD-866","2017/06/15 18:59:14","新北市永和區福和路305號","121.516321666667","25.0071783333333","6500400","永和區"
"234042","862-TW","2017/06/15 18:59:15","新北市永和區永貞路308號","121.511885","25.0048833333333","6500400","永和區"
"234050","863-TW","2017/06/15 18:59:14","新北市永和區文化路208號","121.510358333333","25.0166133333333","6500400","永和區"
"234026","9371-KE","2017/06/15 18:59:13","新北市永和區中正路47號","121.5143","24.9963966666667","6500400","永和區"
"234011","9373-KE","2017/06/15 18:59:16","新北市永和區永和路二段405巷27號","121.514655","25.0170366666667","6500400","永和區"
"249005","172-UM","2017/06/15 18:59:19","新北市八里區長道坑6號","121.397911666667","25.1235966666667","6502300","八里區"
"249001","173-UM","2017/06/15 18:59:21","新北市八里區龍米路二段203-1號","121.432773333333","25.1583116666667","6502300","八里區"
"249004","303-UY","2017/06/15 18:59:03","新北市八里區博物館路9號","121.415411666667","25.1641116666667","6502300","八里區"
"248016","026-BX","2017/06/15 18:59:15","新北市五股區成泰路三段543巷11號","121.450773333333","25.1022666666667","6501500","五股區"
"248006","077-UY","2017/06/15 18:59:15","新北市五股區中興路一段24號","121.468758333333","25.0723616666667","6501500","五股區"
"248008","095-VK","2017/06/15 18:59:11","新北市五股區中興路一段118巷6弄7號","121.466305","25.07446","6501500","五股區"
"248020","225-UY","2017/06/15 18:59:05","新北市五股區凌雲路三段57號","121.425348333333","25.1250116666667","6501500","五股區"
"248012","247-BX","2017/06/15 14:42:44","新北市五股區民義路一段60號","121.436766666667","25.0844616666667","6501500","五股區"
"248010","272-BY","2017/06/15 18:59:24","新北市五股區水碓一路23號","121.43068","25.0712783333333","6501500","五股區"
"248004","677-BX","2017/06/15 18:59:06","新北市五股區民義路一段291號","121.425138333333","25.0932616666667","6501500","五股區"
"248002","678-BX","2017/06/15 18:59:21","新北市五股區天乙路1號","121.448421666667","25.1028683333333","6501500","五股區"
"234023","9380-KE","2017/06/15 18:59:12","新北市永和區竹林路75巷33弄1號","121.520636666667","25.0142483333333","6500400","永和區"
"234077","969-R7","2017/06/15 18:59:17","新北市永和區民治街89號","121.517391666667","24.9983","6500400","永和區"
"234074","AAC-211","2017/06/15 18:59:09","新北市永和區環河東路二段100號","121.52412","25.01031","6500400","永和區"
"234067","AAC-212","2017/06/15 18:59:13","新北市永和區中和路625號","121.512906666667","25.0048","6500400","永和區"
"234003","AAC-295","2017/06/15 18:57:45","新北市永和區和平街19號","121.513503333333","25.0099133333333","6500400","永和區"
"232011","375-UM","2017/06/15 18:59:14","新北市坪林區坪林街11號","121.711821666667","24.936095","6502000","坪林區"
"244013","069-UM","2017/06/15 18:59:07","新北市林口區麗園一街6巷8-3號","121.375076666667","25.0711283333333","6501700","林口區"
"244007","080-UY","2017/06/15 18:59:04","新北市林口區太平嶺26-2號","121.376353333333","25.1167883333333","6501700","林口區"
"244019","403-UM","2017/06/15 18:59:08","新北市林口區麗園二街38巷65號","121.38003","25.0680366666667","6501700","林口區"
"244023","483-VK","2017/06/15 18:59:04","新北市林口區文林六街62巷16號","121.372023333333","25.0816083333333","6501700","林口區"
"244017","485-VK","2017/06/15 18:59:20","新北市林口區文化二路一段20巷37號","121.365166666667","25.0668133333333","6501700","林口區"
"244009","656-BX","2017/06/15 18:59:10","新北市林口區竹林路330巷5號","121.39185","25.0831216666667","6501700","林口區"
"244011","701-TV","2017/06/15 18:59:18","新北市林口區仁愛路一段264號","121.394111666667","25.0759333333333","6501700","林口區"
"244025","837-TS","2017/06/15 18:59:15","新北市林口區文化三路一段447巷57-1號","121.36706","25.0747583333333","6501700","林口區"
"243013","AAD-798","2017/06/15 18:59:18","新北市泰山區明志路三段206巷3號","121.423308333333","25.037945","6501600","泰山區"
"243009","297-R6","2017/06/15 18:59:12","新北市泰山區泰林路二段357號","121.42806","25.06371","6501600","泰山區"
"243015","380-SR","2017/06/15 18:59:06","新北市泰山區泰林路二段256號","121.431906666667","25.06227","6501600","泰山區"
"243014","421-VK","2017/06/15 18:59:13","新北市泰山區黎明路17號","121.420841666667","25.0628883333333","6501600","泰山區"
"243012","539-UM","2017/06/15 18:58:40","新北市泰山區全興路184號","121.433405","25.0573616666667","6501600","泰山區"
"243010","548-UM","2017/06/15 18:59:11","新北市泰山區辭修路26巷5號","121.42913","25.0584283333333","6501600","泰山區"
"243011","549-UM","2017/06/15 18:59:04","新北市泰山區明志路二段320巷2弄7號","121.426101666667","25.046595","6501600","泰山區"
"243016","680-BX","2017/06/15 18:59:07","新北市泰山區明志路二段200號","121.42749","25.0493833333333","6501600","泰山區"
"222003","436-BY","2017/06/15 18:59:17","新北市深坑區深南路51-1號","121.621391666667","25.010145","6501800","深坑區"
"222002","659-BX","2017/06/15 18:59:11","新北市深坑區文山路一段31巷2號","121.629868333333","25.0033216666667","6501800","深坑區"
"222001","696-SL","2017/06/15 18:59:12","新北市深坑區北深路一段174號","121.633993333333","25.0106833333333","6501800","深坑區"
"231041","002-UM","2017/06/15 18:59:12","新北市新店區環河路29巷1號","121.536803333333","24.96137","6500600","新店區"
"231056","0291-UT","2017/06/15 18:59:20","新北市新店區大同街25號","121.538746666667","24.9806616666667","6500600","新店區"
"231059","046-UY","2017/06/15 18:59:23","新北市新店區安和路一段6號","121.517096666667","24.964775","6500600","新店區"
"231061","047-UY","2017/06/15 18:59:03","新北市新店區安康路一段299-3號","121.520871666667","24.96373","6500600","新店區"
"231060","106-UY","2017/06/15 18:59:13","新北市新店區車子路18-1號","121.505908333333","24.954625","6500600","新店區"
"231051","107-UY","2017/06/15 18:59:06","新北市新店區中正路366號","121.535255","24.9760983333333","6500600","新店區"
"231047","108-UY","2017/06/15 18:59:07","新北市新店區德正街27巷29弄20號","121.545871666667","24.97205","6500600","新店區"
"231052","187-VK","2017/06/15 18:59:15","新北市新店區屈尺路6號","121.549438333333","24.9228433333333","6500600","新店區"
"231007","189-VK","2017/06/15 12:03:45","新北市新店區安華路28-1號","121.519671666667","24.9611566666667","6500600","新店區"
"231063","268-BY","2017/06/15 18:59:20","新北市新店區車子路110號","121.505228333333","24.952085","6500600","新店區"
"231046","278-BY","2017/06/15 18:59:09","新北市新店區直潭五街49號","121.532931666667","24.9407833333333","6500600","新店區"
"231050","AAD-862","2017/06/15 18:59:14","新北市新店區新烏路一段11巷21號","121.547936666667","24.95083","6500600","新店區"
"231058","3712-VJ","2017/06/15 18:59:03","新北市新店區中興路一段183號","121.543088333333","24.96481","6500600","新店區"
"231055","3713-VJ","2017/06/15 18:59:21","新北市新店區新生街17號","121.539945","24.96623","6500600","新店區"
"231067","4772-VM","2017/06/15 18:59:12","新北市新店區安康路一段281巷11號","121.523723333333","24.9628933333333","6500600","新店區"
"231065","512-UM","2017/06/15 18:59:20","新北市新店區安祥路147巷27號","121.475898333333","24.95653","6500600","新店區"
"231054","513-UM","2017/06/15 18:59:04","新北市新店區新店路43號","121.539546666667","24.95265","6500600","新店區"
"231064","515-UM","2017/06/15 18:59:21","新北市新店區安康路二段3-7號","121.515501666667","24.9636916666667","6500600","新店區"
"231045","617-UM","2017/06/15 18:59:11","新北市新店區北新路一段2-19號","121.538601666667","24.9600133333333","6500600","新店區"
"231040","619-UM","2017/06/15 18:59:16","新北市新店區中正路366號","121.535291666667","24.9761683333333","6500600","新店區"
"231042","641-BX","2017/06/15 18:59:07","新北市新店區中興路一段282號","121.54584","24.968645","6500600","新店區"
"231049","719-UM","2017/06/15 18:59:15","新北市新店區中正路454-5號","121.53446","24.9790283333333","6500600","新店區"
"231062","720-UM","2017/06/15 18:59:24","新北市新店區安德街116巷36-1號","121.50838","24.96171","6500600","新店區"
"231044","897-TW","2017/06/15 18:59:17","新北市新店區寶中路137號","121.549883333333","24.9791483333333","6500600","新店區"
"231043","899-TW","2017/06/15 18:59:08","新北市新店區北新路二段1號","121.542693333333","24.971215","6500600","新店區"
"231066","AKT-0513","2017/06/15 18:59:19","新北市新店區安祥路30-1號","121.493255","24.9560483333333","6500600","新店區"
"241020","412-TH","2017/06/15 18:59:11","新北市三重區忠孝路二段34號","121.48576","25.0710383333333","6500200","三重區"
"235066","003-UY","2017/06/15 18:59:18","新北市中和區中山路二段131巷11號","121.502868333333","25.002335","6500300","中和區"
"235064","005-UY","2017/06/15 18:59:05","新北市中和區泰和街26號","121.499483333333","25.000525","6500300","中和區"
"235063","006-UY","2017/06/15 18:59:20","新北市中和區錦和路99號","121.490123333333","24.995515","6500300","中和區"
"235056","096-UM","2017/06/15 18:59:12","新北市中和區員山路466巷17弄37號","121.480455","25.0075083333333","6500300","中和區"
"235039","097-UM","2017/06/15 18:59:19","新北市中和區宜安路52巷18號","121.512465","24.99724","6500300","中和區"
"235065","098-UM","2017/06/15 18:59:19","新北市中和區中山路二段2巷45弄7號","121.502185","25.0067466666667","6500300","中和區"
"235040","150-BY","2017/06/15 18:59:06","新北市中和區安樂路51巷6號","121.511825","24.993765","6500300","中和區"
"235058","151-BY","2017/06/15 18:59:12","新北市中和區員山路75號","121.480686666667","24.9941333333333","6500300","中和區"
"235055","183-VK","2017/06/15 18:59:03","新北市中和區民生街85巷6弄1號","121.46923","25.0039366666667","6500300","中和區"
"235038","185-VK","2017/06/15 18:59:19","新北市中和區大勇街48號","121.517516666667","24.9939433333333","6500300","中和區"
"235049","186-VK","2017/06/15 18:59:05","新北市中和區景新街210巷23號","121.507176666667","24.9943216666667","6500300","中和區"
"235067","255-BX","2017/06/15 18:59:16","新北市中和區中正路839巷3號","121.484553333333","25.0023333333333","6500300","中和區"
"235044","293-VK","2017/06/15 18:59:19","新北市中和區中興街111號","121.499923333333","24.9921666666667","6500300","中和區"
"235072","301-VK","2017/06/15 18:59:16","新北市中和區中山路二段248號","121.497771666667","25.0024733333333","6500300","中和區"
"235043","352-BY","2017/06/15 18:59:20","新北市中和區秀朗路三段95號","121.526446666667","24.9951333333333","6500300","中和區"
"235041","375-QA","2017/06/15 18:59:07","新北市中和區中和路350巷12弄2號","121.510866666667","25.0001616666667","6500300","中和區"
"235051","376-QA","2017/06/15 18:59:04","新北市中和區忠孝街106巷43號","121.513601666667","24.984325","6500300","中和區"
"235068","377-QA","2017/06/15 18:59:04","新北市中和區圓通路265巷30號","121.495785","24.9925116666667","6500300","中和區"
"235061","378-QA","2017/06/15 18:59:14","新北市中和區民享街54巷16弄3號","121.473275","25.0026466666667","6500300","中和區"
"235050","4979-A6","2017/06/15 18:59:05","新北市中和區忠孝街29號","121.510448333333","24.9830133333333","6500300","中和區"
"235069","4980-A6","2017/06/15 18:59:07","新北市中和區圓通路98號","121.499638333333","24.99681","6500300","中和區"
"235042","551-UM","2017/06/15 18:59:16","新北市中和區秀朗路三段98號","121.525565","24.993435","6500300","中和區"
"235070","558-UM","2017/06/15 18:59:13","新北市中和區中和路116號","121.503003333333","24.9997566666667","6500300","中和區"
"235045","565-BX","2017/06/15 18:59:04","新北市中和區興南路一段14號","121.511423333333","24.9912433333333","6500300","中和區"
"235054","640-BX","2017/06/15 18:59:14","新北市中和區民治街28號","121.475231666667","25.0038316666667","6500300","中和區"
"235060","647-TV","2017/06/15 18:59:15","新北市中和區中山路三段214號","121.471403333333","25.0064116666667","6500300","中和區"
"235047","732-UM","2017/06/15 18:59:22","新北市中和區興南路二段34巷28弄2號","121.50503","24.9865166666667","6500300","中和區"
"235046","733-UM","2017/06/15 18:59:17","新北市中和區興南路一段85巷1號","121.510038333333","24.9888","6500300","中和區"
"235071","783-BX","2017/06/15 18:59:06","新北市中和區員山路36巷16-3號","121.485151666667","24.9912083333333","6500300","中和區"
"235062","800-TS","2017/06/15 18:59:19","新北市中和區中山路二段348巷8號","121.49301","25.0030866666667","6500300","中和區"
"235057","801-TS","2017/06/15 18:59:03","新北市中和區民安街25巷25號","121.480703333333","24.9997333333333","6500300","中和區"
"235052","805-TS","2017/06/15 18:59:23","新北市中和區興南路二段347號","121.500086666667","24.9800416666667","6500300","中和區"
"235048","896-TW","2017/06/15 18:59:24","新北市中和區華新街65號","121.508001666667","24.984095","6500300","中和區"
"235053","900-TW","2017/06/15 18:59:12","新北市中和區民德路290號","121.467545","24.9956916666667","6500300","中和區"
"235037","AAC-213","2017/06/15 18:59:17","新北市中和區自立路58巷2號","121.523608333333","24.9916516666667","6500300","中和區"
"235059","AAC-215","2017/06/15 18:59:22","新北市中和區圓通路367巷40號","121.491963333333","24.9885516666667","6500300","中和區"
"220068","013-TV","2017/06/15 18:59:06","新北市板橋區中山路二段443巷60號","121.481115","25.0217833333333","6500100","板橋區"
"220065","072-UY","2017/06/15 18:59:13","新北市板橋區板新路19號","121.474925","25.0127616666667","6500100","板橋區"
"220086","073-UY","2017/06/15 18:59:16","新北市板橋區大智街71巷8弄2號","121.453418333333","25.0152916666667","6500100","板橋區"
"220106","075-UY","2017/06/15 18:59:20","新北市板橋區文化路二段124巷16號","121.470908333333","25.0258683333333","6500100","板橋區"
"220069","AAD-861","2017/06/15 18:59:19","新北市板橋區中山路一段78號","121.461763333333","25.0100666666667","6500100","板橋區"
"247010","546-UM","2017/06/15 18:59:16","新北市五股區更洲路47-1號","121.453733333333","25.07849","6501400","蘆洲區"
"247006","341-TH","2017/06/15 18:59:14","新北市五股區中興路三段163號","121.449258333333","25.0808816666667","6501400","蘆洲區"
"247024","337-TH","2017/06/15 18:59:09","新北市五股區中興路三段163號","121.44905","25.0810283333333","6501400","蘆洲區"
"247014","057-VK","2017/06/15 18:41:26","新北市五股區中興路三段163號","121.449326666667","25.0807583333333","6501400","蘆洲區"
"226004","312-R5","2017/06/15 18:59:19","新北市平溪區靜安路二段548號","121.746501666667","25.02568","6502400","平溪區"
"223003","205-TH","2017/06/15 17:17:35","新北市中和區興南路三段35號","121.497026666667","24.9781016666667","6501900","石碇區"
"228003","097-TW","2017/06/15 18:59:03","新北市貢寮區和美里龍洞街33號","121.91663","25.11062","6502600","貢寮區"
"228002","585-TW","2017/06/15 18:59:06","新北市貢寮區福隆里東興街18-1號","121.950025","25.0181483333333","6502600","貢寮區"
"228001","670-TC","2017/06/15 18:59:09","新北市貢寮區仁理村研海街12-1號","121.923865","25.0516583333333","6502600","貢寮區"
"224010","AGQ-8101","2017/06/15 18:51:47","新北市瑞芳區汽車路7號","121.847133333333","25.11108","6501200","瑞芳區"
"224006","676-BX","2017/06/15 18:59:17","新北市瑞芳區民族街31號","121.80687","25.1069266666667","6501200","瑞芳區"
"224009","285-BY","2017/06/15 18:59:19","新北市瑞芳區祈堂路53-1號","121.859661666667","25.110785","6501200","瑞芳區"
"224008","275-VK","2017/06/15 18:59:07","新北市瑞芳區逢甲路412-2號","121.797921666667","25.1143816666667","6501200","瑞芳區"
"224007","273-VK","2017/06/15 18:59:16","新北市瑞芳區大埔路慶安新村44-1號","121.762806666667","25.1001633333333","6501200","瑞芳區"
"224005","271-BY","2017/06/15 18:59:15","新北市瑞芳區濱二路68號","121.830148333333","25.11991","6501200","瑞芳區"
"227004","642-TC","2017/06/15 18:59:12","新北市雙溪區平林里康福家園10號","121.8588","25.037345","6502500","雙溪區"
"227010","400-TW","2017/06/15 18:59:10","新北市雙溪區牡丹里中正路58巷23號","121.86642","25.0415533333333","6502500","雙溪區"
"253006","032-BX","2017/06/15 18:59:05","新北市石門區八甲6號","121.521493333333","25.2821666666667","6502200","石門區"
"253005","295-VK","2017/06/15 18:59:18","新北市石門區中央路14-2號","121.566795","25.2915783333333","6502200","石門區"
"208001","742-BX","2017/06/15 18:59:19","新北市金山區中山路90-1號","121.640458333333","25.2187133333333","6502700","金山區"
"208003","665-BX","2017/06/15 18:59:11","新北市金山區中正路26號","121.635805","25.222245","6502700","金山區"
"251009","008-UM","2017/06/15 18:59:18","新北市淡水區重建街36號","121.439926666667","25.1711933333333","6501000","淡水區"
"251001","011-UM","2017/06/15 18:59:16","新北市淡水區民權路94巷1號","121.462983333333","25.1254133333333","6501000","淡水區"
"251007","179-VK","2017/06/15 18:59:06","新北市淡水區民生路67號","121.4631","25.138285","6501000","淡水區"
"251014","182-VK","2017/06/15 18:59:05","新北市淡水區小中寮32-1號","121.491411666667","25.2261616666667","6501000","淡水區"
"251010","413-VK","2017/06/15 18:59:03","新北市淡水區中正路二段22巷43號","121.421391666667","25.18245","6501000","淡水區"
"251012","441-VK","2017/06/15 18:59:08","新北市淡水區新民街一段23號","121.432745","25.18478","6501000","淡水區"
"251016","442-VK","2017/06/15 18:59:06","新北市淡水區淡金路三段333號","121.44879","25.2063133333333","6501000","淡水區"
"251005","443-VK","2017/06/15 18:59:14","新北市淡水區崁頂115號","121.432371666667","25.2043616666667","6501000","淡水區"
"251006","561-UM","2017/06/15 18:59:14","新北市淡水區崁頂78-5號","121.42957","25.2068733333333","6501000","淡水區"
"251011","650-BX","2017/06/15 18:59:21","新北市淡水區中正東路二段143巷2弄1號","121.460778333333","25.1474083333333","6501000","淡水區"
"251002","672-BX","2017/06/15 18:59:15","新北市淡水區中正東路65號","121.447093333333","25.167595","6501000","淡水區"
"251003","766-UM","2017/06/15 18:59:19","新北市淡水區中山北路一段149巷24號","121.442865","25.1779833333333","6501000","淡水區"
"207003","550-UM","2017/06/15 18:59:14","新北市萬里區大鵬里頂社29號","121.65657","25.2107483333333","6502800","萬里區"
"207004","225-TW","2017/06/15 18:59:16","新北市萬里區萬里里獅頭路23號","121.693241666667","25.17826","6502800","萬里區"
"252002","178-VK","2017/06/15 18:59:15","新北市三芝區中正路一段82號","121.504091666667","25.2572733333333","6502100","三芝區"
"252003","249-BX","2017/06/15 18:59:13","新北市三芝區後厝里北勢子42-11號","121.4716","25.252075","6502100","三芝區"
"252001","292-VK","2017/06/15 18:59:04","新北市三芝區中興街二段260號","121.501716666667","25.253035","6502100","三芝區"
"208002","170-UY","2017/06/15 18:59:09","新北市金山區信義路72號","121.635185","25.2196516666667","6502700","金山區"
"237004","078-UY","2017/06/15 18:59:06","新北市三峽區有木145號","121.444606666667","24.84838","6500900","三峽區"
"237007","153-BY","2017/06/15 18:59:16","新北市三峽區大埔路23號","121.36598","24.90959","6500900","三峽區"
"237013","252-BX","2017/06/15 18:59:04","新北市三峽區光明路69巷25號","121.376631666667","24.92923","6500900","三峽區"
"237012","275-BY","2017/06/15 18:59:03","新北市三峽區三樹路222巷35號","121.38133","24.9423916666667","6500900","三峽區"
"237008","302-VK","2017/06/15 18:59:22","新北市三峽區白雞30號","121.36903","24.9123916666667","6500900","三峽區"
"237014","433-BY","2017/06/15 18:59:07","新北市三峽區隆恩街212號","121.359465","24.9418233333333","6500900","三峽區"
"237006","5529-G3","2017/06/15 18:59:20","新北市三峽區溪東路233巷1-1號","121.406773333333","24.93315","6500900","三峽區"
"237011","572-TV","2017/06/15 18:59:08","新北市三峽區介壽路三段197號","121.40203","24.9438933333333","6500900","三峽區"
"237016","649-BX","2017/06/15 18:59:07","新北市三峽區建安71號","121.448758333333","24.9261233333333","6500900","三峽區"
"237010","706-TV","2017/06/15 18:59:10","新北市三峽區國光街350巷23號","121.371631666667","24.9402183333333","6500900","三峽區"
"237005","AKY-6261","2017/06/15 18:59:07","新北市三峽區中山路459巷163-3號","121.349105","24.9333483333333","6500900","三峽區"
"236071","105-UM","2017/06/15 18:59:17","新北市土城區青雲路107-1號","121.45913","24.98544","6501300","土城區"
"236042","107-UM","2017/06/15 18:59:10","新北市土城區學府路一段256巷13弄1號","121.450841666667","24.984735","6501300","土城區"
"236009","165-UM","2017/06/15 11:34:25","新北市土城區永平街51號","121.427941666667","24.959195","6501300","土城區"
"236078","166-UM","2017/06/15 18:59:02","新北市土城區中央路四段125巷2弄18號","121.416308333333","24.9568466666667","6501300","土城區"
"236030","253-BX","2017/06/15 18:59:12","新北市土城區興城路49巷1號","121.440805","24.9712883333333","6501300","土城區"
"236026","269-VK","2017/06/15 18:59:09","新北市土城區中正路56巷12號","121.44398","24.9749816666667","6501300","土城區"
"236014","270-VK","2017/06/15 18:59:06","新北市土城區永豐路29巷10號","121.4634","24.9884433333333","6501300","土城區"
"236037","271-VK","2017/06/15 18:59:12","新北市土城區仁愛路54巷1-3號","121.462376666667","24.97853","6501300","土城區"
"236003","339-SR","2017/06/15 10:57:12","新北市土城區永平街51號","121.427651666667","24.959195","6501300","土城區"
"236002","370-SL","2017/06/15 15:49:36","新北市土城區永平街51號","121.427636666667","24.9591683333333","6501300","土城區"
"236021","401-BY","2017/06/15 18:59:17","新北市土城區明峰街50號","121.467766666667","24.9865066666667","6501300","土城區"
"236058","912-UM","2017/06/15 18:59:16","新北市土城區清水路3號","121.452998333333","24.9802966666667","6501300","土城區"
"236051","913-UM","2017/06/15 18:59:19","新北市土城區青雲路231號","121.459125","24.981675","6501300","土城區"
"236062","915-UM","2017/06/15 18:59:17","新北市土城區延和路41巷6弄15號","121.466551666667","24.990335","6501300","土城區"
"236053","AAC-216","2017/06/15 18:59:18","新北市土城區裕民路86號","121.450113333333","24.987175","6501300","土城區"
"238023","601-UM","2017/06/15 18:59:23","新北市樹林區工興街1號","121.399593333333","25.0158033333333","6500700","樹林區"
"238019","599-UM","2017/06/15 18:59:22","新北市樹林區東榮街91巷3弄1號","121.416351666667","24.9820516666667","6500700","樹林區"
"238018","571-TV","2017/06/15 18:59:11","新北市樹林區八德街35號","121.4185","24.9836216666667","6500700","樹林區"
"238022","312-TH","2017/06/15 18:59:05","新北市樹林區東興街43-1號","121.410891666667","24.9773366666667","6500700","樹林區"
"238021","311-TH","2017/06/15 18:49:35","新北市樹林區育德街113號","121.389535","24.9682033333333","6500700","樹林區"
"238025","303-VK","2017/06/15 18:59:15","新北市樹林區中山路三段182號","121.388185","24.96958","6500700","樹林區"
"238026","172-UY","2017/06/15 18:59:11","新北市樹林區德和街18號","121.391736666667","24.9741383333333","6500700","樹林區"
"238016","169-UY","2017/06/15 18:59:08","新北市樹林區文化街25巷3號","121.419123333333","24.9873683333333","6500700","樹林區"
"239007","AAC-297","2017/06/15 18:59:07","新北市鶯歌區中正一路235號","121.354236666667","24.9572666666667","6500800","鶯歌區"
"239008","527-UM","2017/06/15 18:59:22","新北市鶯歌區國際二路70巷22號","121.33592","24.975665","6500800","鶯歌區"
"239005","526-UM","2017/06/15 18:59:08","新北市鶯歌區大湖路361巷12號","121.330643333333","24.977885","6500800","鶯歌區"
"239001","417-VK","2017/06/15 18:59:17","新北市鶯歌區永明街60巷7號","121.340671666667","24.95544","6500800","鶯歌區"
"239003","360-BY","2017/06/15 18:59:09","新北市鶯歌區鶯桃路652號","121.329355","24.9691033333333","6500800","鶯歌區"
"239004","193-VK","2017/06/15 18:59:09","新北市鶯歌區中正三路247巷67弄8號","121.33419","24.936395","6500800","鶯歌區"
"221036","130-UY","2017/06/15 18:59:12","新北市汐止區水碓街9號","121.664093333333","25.0699","6501100","汐止區"
"221015","131-UY","2017/06/15 18:59:21","新北市汐止區鄉長路一段43號","121.665423333333","25.0749933333333","6501100","汐止區"
"221010","269-BY","2017/06/15 18:59:08","新北市汐止區康寧街901號","121.651396666667","25.075005","6501100","汐止區"
"221012","278-VK","2017/06/15 18:59:13","新北市汐止區康寧街901號","121.650865","25.0752633333333","6501100","汐止區"
"221023","279-VK","2017/06/15 02:24:04","新北市汐止區康寧街901號","121.651618333333","25.0748516666667","6501100","汐止區"
"221032","280-BY","2017/06/15 18:59:05","新北市汐止區橫科路407巷81弄1號","121.627598333333","25.0487933333333","6501100","汐止區"
"221027","281-BY","2017/06/15 18:54:37","新北市汐止區康寧街901號","121.650866666667","25.0752633333333","6501100","汐止區"
"221038","297-VK","2017/06/15 18:59:03","新北市汐止區汐萬路一段256巷3號","121.652553333333","25.0745716666667","6501100","汐止區"
"221029","298-VK","2017/06/15 18:59:05","新北市汐止區樟樹一路236號","121.642351666667","25.0668083333333","6501100","汐止區"
"221021","299-VK","2017/06/15 15:17:44","新北市汐止區康寧街901號","121.652095","25.07537","6501100","汐止區"
"221035","622-UM","2017/06/15 18:59:11","新北市汐止區汐萬路一段247-1號","121.651488333333","25.0730883333333","6501100","汐止區"
"221025","623-UM","2017/06/15 18:59:22","新北市汐止區汐萬路一段110號","121.65406","25.0712783333333","6501100","汐止區"
"221033","647-BX","2017/06/15 18:59:03","新北市汐止區南勢街3號","121.627273333333","25.0376816666667","6501100","汐止區"
"221002","707-TV","2017/06/15 18:59:05","新北市汐止區大同路一段2號","121.620946666667","25.05499","6501100","汐止區"
"221018","753-BX","2017/06/15 18:59:14","新北市汐止區茄苳路45號","121.665998333333","25.070825","6501100","汐止區"
"220079","145-BY","2017/06/15 18:59:06","新北市板橋區民權路202巷7弄2-1號","121.460101666667","25.0148133333333","6500100","板橋區"
"220093","146-RM","2017/06/15 18:59:17","新北市板橋區民生路二段216號","121.469268333333","25.0216233333333","6500100","板橋區"
"220101","245-BX","2017/06/15 18:59:23","新北市板橋區文化路二段182巷5弄1號","121.471666666667","25.027135","6500100","板橋區"
"220094","267-BY","2017/06/15 18:59:05","新北市板橋區莒光路18號","121.4698","25.0247333333333","6500100","板橋區"
"220072","277-BY","2017/06/15 18:59:18","新北市板橋區大觀路三段36巷54弄1號","121.434523333333","24.9973583333333","6500100","板橋區"
"220064","280-UM","2017/06/15 18:59:02","新北市板橋區中山路一段279號","121.469416666667","25.0137566666667","6500100","板橋區"
"220071","283-VK","2017/06/15 18:59:11","新北市板橋區區運路3號","121.46519","25.0094283333333","6500100","板橋區"
"220089","285-UM","2017/06/15 18:59:21","新北市板橋區民生路二段216號","121.46932","25.0216316666667","6500100","板橋區"
"220053","285-VK","2017/06/15 18:59:17","新北市板橋區中山路二段89巷48號","121.47376","25.0172533333333","6500100","板橋區"
"220083","286-VK","2017/06/15 18:59:11","新北市板橋區僑中一街70號","121.447461666667","25.01142","6500100","板橋區"
"220081","287-VK","2017/06/15 18:59:21","新北市板橋區光華街13巷11號","121.453636666667","25.011385","6500100","板橋區"
"220090","288-VK","2017/06/15 18:59:13","新北市板橋區四維路177巷2弄2號","121.46421","25.0263183333333","6500100","板橋區"
"220061","293-UM","2017/06/15 18:59:14","新北市板橋區富山街109巷28弄6號","121.475765","25.0215266666667","6500100","板橋區"
"220084","296-UM","2017/06/15 18:59:20","新北市板橋區大觀路二段156巷10號","121.441366666667","24.9994883333333","6500100","板橋區"
"220075","297-UM","2017/06/15 18:59:13","新北市板橋區館前西路156-1號","121.454983333333","25.0084416666667","6500100","板橋區"
"220097","299-UM","2017/06/15 18:59:16","新北市板橋區四維路137巷1弄1號","121.464816666667","25.02509","6500100","板橋區"
"220056","303-R5","2017/06/15 18:59:11","新北市板橋區四川路二段83號","121.453041666667","24.9949083333333","6500100","板橋區"
"220062","305-R5","2017/06/15 18:58:18","新北市板橋區中山路二段157號","121.475635","25.0167783333333","6500100","板橋區"
"220092","307-R5","2017/06/15 18:59:17","新北市板橋區漢生東路25號","121.46519","25.017125","6500100","板橋區"
"220098","317-R6","2017/06/15 18:59:11","新北市板橋區民有街18號","121.466223333333","25.0249983333333","6500100","板橋區"
"220080","461-BY","2017/06/15 18:59:15","新北市板橋區大觀路二段265巷3弄33號","121.444196666667","24.9978583333333","6500100","板橋區"
"220088","491-VK","2017/06/15 18:58:23","新北市板橋區民生路二段148號","121.471298333333","25.0198716666667","6500100","板橋區"
"220035","560-BX","2017/06/15 18:59:20","新北市板橋區中正路273-1號","121.455523333333","25.0189083333333","6500100","板橋區"
"220103","561-BX","2017/06/15 18:59:13","新北市板橋區介壽街84巷1號","121.470206666667","25.01852","6500100","板橋區"
"220063","609-BX","2017/06/15 18:59:11","新北市板橋區中山路二段145號","121.475416666667","25.01652","6500100","板橋區"
"220091","637-BX","2017/06/15 18:59:06","新北市板橋區莒光路167-4號","121.474145","25.02369","6500100","板橋區"
"220057","686-BX","2017/06/15 18:59:11","新北市板橋區中山路一段282-1號","121.468895","25.0134333333333","6500100","板橋區"
"220077","687-BX","2017/06/15 18:59:13","新北市板橋區龍興街71巷1號","121.443813333333","25.0018283333333","6500100","板橋區"
"220054","741-BX","2017/06/15 18:59:04","新北市板橋區中山路一段131號","121.462298333333","25.0104366666667","6500100","板橋區"
"220055","827-TW","2017/06/15 18:59:15","新北市板橋區中山路一段160-6號","121.466458333333","25.0123466666667","6500100","板橋區"
"220067","829-TW","2017/06/15 18:59:15","新北市板橋區三民路二段正隆巷12弄16-2號","121.477723333333","25.0135266666667","6500100","板橋區"
"220102","830-TW","2017/06/15 18:59:14","新北市板橋區萬板路710號","121.481865","25.0272533333333","6500100","板橋區"
"220096","831-TW","2017/06/15 18:59:16","新北市板橋區莒光路59號","121.471166666667","25.0242233333333","6500100","板橋區"
"220074","895-R6","2017/06/15 18:59:12","新北市板橋區南門街53號","121.4572","25.0083616666667","6500100","板橋區"
"220073","985-R7","2017/06/15 18:59:17","新北市板橋區中正路91號","121.456456666667","25.0143116666667","6500100","板橋區"
"220070","AAC-253","2017/06/15 18:59:11","新北市板橋區中山路一段161號","121.465493333333","25.0119716666667","6500100","板橋區"
