"lineid","car","time","location","longitude","latitude","cityid","cityname"
"234046","148-BY","2017/06/15 19:29:10","新北市永和區得和路326號","121.523261666667","24.9995016666667","6500400","永和區"
"234013","149-BY","2017/06/15 19:29:01","新北市永和區信義路14-1號","121.514365","25.01203","6500400","永和區"
"234007","207-UY","2017/06/15 19:29:19","新北市永和區永和路一段122號","121.513815","25.00766","6500400","永和區"
"234081","298-R6","2017/06/15 19:29:12","新北市永和區環河東路三段52巷8號","121.52632","25.0058866666667","6500400","永和區"
"234038","336-UY","2017/06/15 19:29:04","新北市永和區成功路二段1巷11號","121.527426666667","25.0015166666667","6500400","永和區"
"234064","337-UY","2017/06/15 19:29:20","新北市永和區秀朗路二段44號","121.521385","25.00223","6500400","永和區"
"234084","338-UY","2017/06/15 19:03:25","新北市永和區福和路1號","121.526158333333","25.0097666666667","6500400","永和區"
"234070","552-UM","2017/06/15 19:29:10","新北市永和區竹林路99號","121.519683333333","25.0120433333333","6500400","永和區"
"234054","553-UM","2017/06/15 19:29:14","新北市永和區復興街19巷4號","121.516208333333","25.0131433333333","6500400","永和區"
"234017","745-BX","2017/06/15 19:29:20","新北市永和區環河西路一段51巷1號","121.514311666667","25.0181283333333","6500400","永和區"
"234028","746-BX","2017/06/15 19:29:14","新北市永和區民權路1巷28號","121.521661666667","24.9982083333333","6500400","永和區"
"234086","840-RS","2017/06/15 19:29:22","新北市永和區永利路31號","121.51838","25.0058116666667","6500400","永和區"
"234061","AAD-866","2017/06/15 19:29:14","新北市永和區中正路524號","121.517326666667","25.0049583333333","6500400","永和區"
"234042","862-TW","2017/06/15 19:29:21","新北市永和區中和路597巷2號","121.512258333333","25.0044966666667","6500400","永和區"
"234050","863-TW","2017/06/15 19:29:14","新北市永和區仁愛路151號","121.511183333333","25.0129316666667","6500400","永和區"
"234026","9371-KE","2017/06/15 19:29:13","新北市永和區雙和街52巷2號","121.508951666667","25.0031116666667","6500400","永和區"
"234011","9373-KE","2017/06/15 19:29:16","新北市永和區保福路二段62-1號","121.510901666667","25.0124033333333","6500400","永和區"
"249002","305-UY","2017/06/15 19:29:19","新北市八里區頂寮二街138號","121.44935","25.1294533333333","6502300","八里區"
"249003","593-UM","2017/06/15 19:29:09","新北市八里區商港六路23號","121.396661666667","25.1485483333333","6502300","八里區"
"248014","025-BX","2017/06/15 19:29:02","新北市五股區民義路一段163-2號","121.432091666667","25.08785","6501500","五股區"
"248016","026-BX","2017/06/15 19:29:15","新北市五股區成洲五路12號","121.452326666667","25.1015466666667","6501500","五股區"
"248008","095-VK","2017/06/15 19:29:11","新北市五股區中興路一段95巷11號","121.46661","25.0723533333333","6501500","五股區"
"248020","225-UY","2017/06/15 19:29:05","新北市五股區凌雲路三段92-2號","121.428136666667","25.1197966666667","6501500","五股區"
"248012","247-BX","2017/06/15 14:42:44","新北市五股區民義路一段60號","121.436766666667","25.0844616666667","6501500","五股區"
"248010","272-BY","2017/06/15 19:29:03","新北市五股區自強路90巷72號","121.43069","25.0712766666667","6501500","五股區"
"248004","677-BX","2017/06/15 19:29:06","新北市五股區五福路45號","121.433018333333","25.08936","6501500","五股區"
"248002","678-BX","2017/06/15 19:29:01","新北市五股區凌雲路一段158巷6號","121.447798333333","25.1028883333333","6501500","五股區"
"234023","9380-KE","2017/06/15 19:29:12","新北市永和區竹林路91巷43弄2號","121.521251666667","25.0128616666667","6500400","永和區"
"234077","969-R7","2017/06/15 19:29:17","新北市永和區民治街29號","121.519598333333","24.997735","6500400","永和區"
"234074","AAC-211","2017/06/15 19:29:20","新北市永和區竹林路6號","121.516285","25.0148416666667","6500400","永和區"
"234067","AAC-212","2017/06/15 19:29:14","新北市永和區保平路174巷20號","121.510363333333","25.0072616666667","6500400","永和區"
"234003","AAC-295","2017/06/15 19:27:05","新北市永和區永和路一段216號","121.514456666667","25.009515","6500400","永和區"
"244013","069-UM","2017/06/15 19:29:07","新北市林口區麗園一街1號","121.37576","25.072435","6501700","林口區"
"244019","403-UM","2017/06/15 19:29:08","新北市林口區麗園一街13號","121.37705","25.0692783333333","6501700","林口區"
"244025","837-TS","2017/06/15 19:29:16","新北市林口區太平里180號","121.36743","25.13509","6501700","林口區"
"243013","AAD-798","2017/06/15 19:29:17","新北市泰山區明志路三段145巷56號","121.427103333333","25.039105","6501600","泰山區"
"243009","297-R6","2017/06/15 19:29:12","新北市五股區成泰路一段7巷7號","121.433183333333","25.0667583333333","6501600","泰山區"
"243015","380-SR","2017/06/15 19:29:16","新北市泰山區明志路二段125號","121.427908333333","25.0513166666667","6501600","泰山區"
"243014","421-VK","2017/06/15 19:28:34","新北市泰山區中港西路490號","121.432681666667","25.0525166666667","6501600","泰山區"
"243012","539-UM","2017/06/15 19:28:00","新北市泰山區明志路一段501巷19號","121.431318333333","25.0545816666667","6501600","泰山區"
"243010","548-UM","2017/06/15 19:29:11","新北市泰山區民生路17巷43號","121.429446666667","25.0514466666667","6501600","泰山區"
"243011","549-UM","2017/06/15 19:29:04","新北市泰山區貴子路120號","121.428103333333","25.04071","6501600","泰山區"
"243016","680-BX","2017/06/15 19:29:07","新北市泰山區明志路三段222號","121.421426666667","25.0359816666667","6501600","泰山區"
"222003","436-BY","2017/06/15 19:29:17","新北市深坑區深南路88巷1號","121.620985","25.0117516666667","6501800","深坑區"
"222002","659-BX","2017/06/15 19:29:11","新北市深坑區北深路一段177號","121.632495","25.0108866666667","6501800","深坑區"
"222001","696-SL","2017/06/15 19:29:12","新北市深坑區深坑街10號","121.615935","25.0028466666667","6501800","深坑區"
"231041","002-UM","2017/06/15 19:29:12","新北市新店區中正路630號","121.534006666667","24.9889716666667","6500600","新店區"
"231059","046-UY","2017/06/15 19:29:05","新北市新店區安和路三段89號","121.517905","24.9840116666667","6500600","新店區"
"231061","047-UY","2017/06/15 19:29:03","新北市新店區安民街84號","121.516666666667","24.96714","6500600","新店區"
"231060","106-UY","2017/06/15 19:29:13","新北市新店區安和路一段15號","121.516923333333","24.9640516666667","6500600","新店區"
"231051","107-UY","2017/06/15 19:29:05","新北市新店區中央路97號","121.531276666667","24.9749883333333","6500600","新店區"
"231047","108-UY","2017/06/15 19:29:07","新北市新店區五峰路60號","121.54579","24.9682883333333","6500600","新店區"
"231052","187-VK","2017/06/15 19:29:05","新北市新店區屈尺路8號","121.549006666667","24.922555","6500600","新店區"
"231007","189-VK","2017/06/15 12:03:45","新北市新店區安華路28-1號","121.519671666667","24.9611566666667","6500600","新店區"
"231057","256-BX","2017/06/15 19:29:14","新北市新店區花園一路三段28號","121.550663333333","24.9328283333333","6500600","新店區"
"231063","268-BY","2017/06/15 19:29:20","新北市新店區達觀路16號","121.503071666667","24.9408616666667","6500600","新店區"
"231046","278-BY","2017/06/15 19:29:09","新北市新店區安康路一段17號","121.533235","24.960395","6500600","新店區"
"231050","AAD-862","2017/06/15 19:28:54","新北市新店區秀水路3號","121.554913333333","24.9542516666667","6500600","新店區"
"231058","3712-VJ","2017/06/15 19:29:03","新北市新店區北新路二段228巷13號","121.543528333333","24.9771916666667","6500600","新店區"
"231067","4772-VM","2017/06/15 19:29:12","新北市新店區薏仁坑路自強巷6號","121.496658333333","24.9584983333333","6500600","新店區"
"231065","512-UM","2017/06/15 19:29:20","新北市新店區安祥路109巷1弄19號","121.476233333333","24.9598216666667","6500600","新店區"
"231054","513-UM","2017/06/15 19:29:03","新北市新店區文中路40號","121.53974","24.9565583333333","6500600","新店區"
"231064","515-UM","2017/06/15 19:29:21","新北市新店區安忠路57巷26弄1號","121.513185","24.9585533333333","6500600","新店區"
"231045","617-UM","2017/06/15 19:29:11","新北市新店區北宜路二段209號","121.553165","24.9533116666667","6500600","新店區"
"231040","619-UM","2017/06/15 19:29:16","新北市新店區中華路16號","121.540503333333","24.96759","6500600","新店區"
"231042","641-BX","2017/06/15 19:29:07","新北市新店區中興路一段92號","121.539998333333","24.960505","6500600","新店區"
"231049","719-UM","2017/06/15 19:29:15","新北市新店區北新路三段65巷12弄1號","121.540856666667","24.9812666666667","6500600","新店區"
"231062","720-UM","2017/06/15 19:29:04","新北市新店區安康路一段65號","121.530341666667","24.9610266666667","6500600","新店區"
"231044","897-TW","2017/06/15 19:29:17","新北市新店區中興路三段134號","121.5448","24.9798516666667","6500600","新店區"
"231043","899-TW","2017/06/15 19:29:08","新北市新店區北新路二段197號","121.542656666667","24.9781766666667","6500600","新店區"
"231066","AKT-0513","2017/06/15 19:29:19","新北市新店區安康路三段207巷19號","121.48842","24.95079","6500600","新店區"
"241028","022-UY","2017/06/15 19:29:10","新北市三重區中寮街50號","121.492826666667","25.0586333333333","6500200","三重區"
"241008","059-VK","2017/06/15 19:29:13","新北市三重區永福街135巷30號","121.477525","25.0770983333333","6500200","三重區"
"241009","060-VK","2017/06/15 19:29:21","新北市三重區溪尾街242巷80號","121.485905","25.081365","6500200","三重區"
"241031","061-VK","2017/06/15 19:29:06","新北市三重區集美街100號","121.488501666667","25.0541183333333","6500200","三重區"
"241017","063-VK","2017/06/15 19:29:07","新北市三重區大智街45號","121.493556666667","25.0663883333333","6500200","三重區"
"241026","066-VK","2017/06/15 19:29:17","新北市三重區文化南路47巷6號","121.499691666667","25.06119","6500200","三重區"
"241022","267-UM","2017/06/15 19:29:06","新北市三重區三民街141-1號","121.48461","25.0639783333333","6500200","三重區"
"241025","271-UM","2017/06/15 19:29:10","新北市三重區頂崁街210巷27號","121.475776666667","25.0681433333333","6500200","三重區"
"241007","398-BY","2017/06/15 19:29:06","新北市三重區溪尾街150號","121.488946666667","25.079915","6500200","三重區"
"241020","412-TH","2017/06/15 19:29:11","新北市三重區三和路四段44巷15號","121.489781666667","25.0741866666667","6500200","三重區"
"241030","480-VK","2017/06/15 19:29:06","新北市三重區成功路41巷22號","121.49045","25.0519183333333","6500200","三重區"
"241006","AAD-863","2017/06/15 19:29:14","新北市三重區聯華街140號","121.484463333333","25.07487","6500200","三重區"
"241035","743-BX","2017/06/15 19:29:12","新北市三重區大同北路83號","121.494893333333","25.0636733333333","6500200","三重區"
"241029","942-UM","2017/06/15 19:29:22","新北市三重區中正南路222號","121.493566666667","25.0548316666667","6500200","三重區"
"235066","003-UY","2017/06/15 19:29:18","新北市中和區中和路106號","121.502866666667","24.9996333333333","6500300","中和區"
"235064","005-UY","2017/06/15 19:29:05","新北市中和區南山路17號","121.502105","24.9991033333333","6500300","中和區"
"235063","006-UY","2017/06/15 19:29:00","新北市中和區連勝街121巷5號","121.49526","24.9946233333333","6500300","中和區"
"235056","096-UM","2017/06/15 19:29:15","新北市中和區中山路三段15號","121.47954","25.00601","6500300","中和區"
"235039","097-UM","2017/06/15 19:29:19","新北市中和區秀朗路三段177號","121.524411666667","24.99098","6500300","中和區"
"235065","098-UM","2017/06/15 19:28:59","新北市中和區中山路二段2巷3弄2號","121.504771666667","25.006225","6500300","中和區"
"235040","150-BY","2017/06/15 19:29:06","新北市中和區保健路46巷26弄24號","121.508023333333","24.9956016666667","6500300","中和區"
"235058","151-BY","2017/06/15 19:29:12","新北市中和區員山路36巷16-2號","121.485231666667","24.991605","6500300","中和區"
"235055","183-VK","2017/06/15 19:29:23","新北市中和區莒光路84巷12號","121.472005","25.0022","6500300","中和區"
"235038","185-VK","2017/06/15 19:29:19","新北市中和區大仁街16號","121.517761666667","24.9929533333333","6500300","中和區"
"235049","186-VK","2017/06/15 19:29:04","新北市中和區景平路396-1號","121.509836666667","24.9931366666667","6500300","中和區"
"235067","255-BX","2017/06/15 19:29:16","新北市中和區民樂路54號","121.483168333333","25.00129","6500300","中和區"
"235044","293-VK","2017/06/15 19:29:19","新北市中和區中興街252號","121.499261666667","24.9878583333333","6500300","中和區"
"235072","301-VK","2017/06/15 19:29:16","新北市中和區連城路265巷10弄1號","121.491686666667","24.9953133333333","6500300","中和區"
"235043","352-BY","2017/06/15 19:29:00","新北市中和區景平路450號","121.506116666667","24.9935283333333","6500300","中和區"
"235041","375-QA","2017/06/15 19:29:07","新北市永和區中和路325號","121.507223333333","24.999685","6500300","中和區"
"235051","376-QA","2017/06/15 19:29:04","新北市中和區景平路239巷33弄33號","121.50958","24.9914716666667","6500300","中和區"
"235068","377-QA","2017/06/15 19:29:04","新北市中和區圓通路158巷1弄9號","121.497306666667","24.995945","6500300","中和區"
"235061","378-QA","2017/06/15 19:29:14","新北市中和區中山路三段71號","121.476393333333","25.0057266666667","6500300","中和區"
"235050","4979-A6","2017/06/15 19:29:05","新北市中和區中興街126-1號","121.49952","24.992565","6500300","中和區"
"235042","551-UM","2017/06/15 19:29:16","新北市中和區安樂路217巷35弄10號","121.51398","24.9977383333333","6500300","中和區"
"235070","558-UM","2017/06/15 19:29:13","新北市中和區中山路二段232號","121.498583333333","25.0026966666667","6500300","中和區"
"235045","565-BX","2017/06/15 19:29:04","新北市中和區景新街423巷33弄45號","121.513648333333","24.99032","6500300","中和區"
"235054","640-BX","2017/06/15 19:29:14","新北市中和區國光街107巷2弄28號","121.469561666667","24.9992916666667","6500300","中和區"
"235060","647-TV","2017/06/15 19:29:14","新北市中和區中山路三段71號","121.47636","25.0057616666667","6500300","中和區"
"235047","732-UM","2017/06/15 19:29:07","新北市中和區和平街40號","121.509096666667","24.9905116666667","6500300","中和區"
"235046","733-UM","2017/06/15 19:29:17","新北市中和區忠孝街37巷20號","121.510961666667","24.9839033333333","6500300","中和區"
"235071","783-BX","2017/06/15 19:29:06","新北市中和區中正路637巷18弄4號","121.48446","24.99505","6500300","中和區"
"235057","801-TS","2017/06/15 19:29:22","新北市中和區員山路383號","121.481211666667","25.002505","6500300","中和區"
"235052","805-TS","2017/06/15 19:29:23","新北市中和區華新街143巷72號","121.506386666667","24.9791383333333","6500300","中和區"
"235048","896-TW","2017/06/15 19:29:04","新北市中和區四維街21號","121.513","24.987135","6500300","中和區"
"235053","900-TW","2017/06/15 19:29:12","新北市中和區民德路206號","121.468075","24.9984533333333","6500300","中和區"
"235037","AAC-213","2017/06/15 19:29:16","新北市中和區秀朗路三段60巷46號","121.524855","24.9949366666667","6500300","中和區"
"235059","AAC-215","2017/06/15 19:29:02","新北市中和區圓通路252巷6-2號","121.492748333333","24.9918733333333","6500300","中和區"
"220068","013-TV","2017/06/15 19:29:20","新北市板橋區翠華街6巷109號","121.481813333333","25.0252116666667","6500100","板橋區"
"220065","072-UY","2017/06/15 19:29:13","新北市板橋區國泰街76巷16號","121.467283333333","25.0068883333333","6500100","板橋區"
"220086","073-UY","2017/06/15 19:29:16","新北市板橋區中正路216巷74號","121.457923333333","25.0189016666667","6500100","板橋區"
"220106","075-UY","2017/06/15 19:29:19","新北市板橋區江寧路三段87巷2弄38號","121.473116666667","25.0332666666667","6500100","板橋區"
"220069","AAD-861","2017/06/15 19:29:19","新北市板橋區大華街65-1號","121.459681666667","25.0032983333333","6500100","板橋區"
"247010","546-UM","2017/06/15 19:01:39","新北市五股區中興路三段163號","121.44939","25.0805433333333","6501400","蘆洲區"
"247006","341-TH","2017/06/15 19:29:14","新北市五股區中興路三段163號","121.449308333333","25.0809083333333","6501400","蘆洲區"
"247008","339-TH","2017/06/15 19:29:11","新北市蘆洲區中山一路176號","121.474163333333","25.08108","6501400","蘆洲區"
"247014","057-VK","2017/06/15 19:29:21","新北市蘆洲區復興路4號","121.471768333333","25.0851033333333","6501400","蘆洲區"
"247004","056-VK","2017/06/15 19:29:23","新北市蘆洲區長安街164號","121.459365","25.0830833333333","6501400","蘆洲區"
"226004","312-R5","2017/06/15 19:29:08","新北市平溪區十分里十分街116號","121.776943333333","25.0430933333333","6502400","平溪區"
"223003","205-TH","2017/06/15 17:17:35","新北市中和區興南路三段35號","121.497026666667","24.9781016666667","6501900","石碇區"
"228003","097-TW","2017/06/15 19:29:04","新北市貢寮區和美里和美街22-1號","121.912798333333","25.0826333333333","6502600","貢寮區"
"228002","585-TW","2017/06/15 19:29:06","新北市貢寮區龍門里龍門街2-1號","121.93265","25.0253966666667","6502600","貢寮區"
"228001","670-TC","2017/06/15 19:29:09","新北市貢寮區真理里延平街68-1號","121.9254","25.0574333333333","6502600","貢寮區"
"224010","AGQ-8101","2017/06/15 19:28:47","新北市瑞芳區基山街143號","121.843886666667","25.10825","6501200","瑞芳區"
"224006","676-BX","2017/06/15 19:29:10","新北市瑞芳區三爪子坑路118-5號","121.806711666667","25.1051516666667","6501200","瑞芳區"
"224009","285-BY","2017/06/15 19:29:19","新北市瑞芳區瑞芳街32-10號","121.822198333333","25.1209766666667","6501200","瑞芳區"
"224008","275-VK","2017/06/15 19:29:07","新北市瑞芳區一坑路297號","121.80082","25.1084066666667","6501200","瑞芳區"
"224005","271-BY","2017/06/15 19:29:03","新北市瑞芳區蛇子形路6號","121.825973333333","25.1049866666667","6501200","瑞芳區"
"227004","642-TC","2017/06/15 19:29:12","新北市雙溪區雙溪里光復街20號","121.865153333333","25.0354633333333","6502500","雙溪區"
"227010","400-TW","2017/06/15 19:29:10","新北市雙溪區新基里新基北街43號","121.868195","25.03972","6502500","雙溪區"
"253006","032-BX","2017/06/15 19:29:05","新北市石門區老崩山10-3號","121.552786666667","25.2910783333333","6502200","石門區"
"253005","295-VK","2017/06/15 19:29:18","新北市石門區小坑9號","121.594358333333","25.2885716666667","6502200","石門區"
"208001","742-BX","2017/06/15 19:29:19","新北市金山區南勢46號","121.628293333333","25.22066","6502700","金山區"
"208003","665-BX","2017/06/15 19:29:18","新北市金山區忠孝一路80號","121.636956666667","25.2209666666667","6502700","金山區"
"251009","008-UM","2017/06/15 19:10:38","新北市淡水區中山路129巷23號","121.441596666667","25.1703966666667","6501000","淡水區"
"251001","011-UM","2017/06/15 19:29:16","新北市淡水區中正東路二段87-3號","121.459488333333","25.1528566666667","6501000","淡水區"
"251007","179-VK","2017/06/15 19:29:06","新北市淡水區淡金路38巷59弄9號","121.45846","25.1619966666667","6501000","淡水區"
"251008","181-VK","2017/06/15 19:29:17","新北市淡水區中正路一段80號","121.424766666667","25.1772866666667","6501000","淡水區"
"251014","182-VK","2017/06/15 19:29:05","新北市淡水區小中寮19-7號","121.484761666667","25.2296466666667","6501000","淡水區"
"251010","413-VK","2017/06/15 19:29:23","新北市淡水區中正路二段142-9號","121.422565","25.1876216666667","6501000","淡水區"
"251016","442-VK","2017/06/15 19:29:06","新北市淡水區下圭柔山119-51號","121.450765","25.2084133333333","6501000","淡水區"
"251005","443-VK","2017/06/15 19:29:14","新北市淡水區水源街一段71巷13號","121.444481666667","25.1730033333333","6501000","淡水區"
"251006","561-UM","2017/06/15 19:29:13","新北市淡水區大義街40號","121.442088333333","25.1783283333333","6501000","淡水區"
"251011","650-BX","2017/06/15 19:29:21","新北市淡水區中正東路二段143巷2弄1號","121.460666666667","25.1473366666667","6501000","淡水區"
"251003","766-UM","2017/06/15 19:29:19","新北市淡水區崁頂51-2號","121.441956666667","25.1974266666667","6501000","淡水區"
"207003","550-UM","2017/06/15 19:29:14","新北市萬里區大鵬里萬里加投193號","121.644296666667","25.2146233333333","6502800","萬里區"
"207004","225-TW","2017/06/15 19:29:16","新北市萬里區萬里里瑪鋉路135號","121.68892","25.1777283333333","6502800","萬里區"
"252002","178-VK","2017/06/15 19:29:15","新北市三芝區淡金路二段18-1號","121.502631666667","25.259505","6502100","三芝區"
"252001","292-VK","2017/06/15 19:29:04","新北市三芝區長勤街35號","121.500798333333","25.2554183333333","6502100","三芝區"
"208002","170-UY","2017/06/15 19:29:09","新北市金山區仁愛路87巷1號","121.634586666667","25.2215683333333","6502700","金山區"
"237004","078-UY","2017/06/15 19:29:05","新北市三峽區有木131-1號","121.436978333333","24.853285","6500900","三峽區"
"237007","153-BY","2017/06/15 19:29:16","新北市三峽區二鬮路178號","121.359086666667","24.90687","6500900","三峽區"
"237009","210-TH","2017/06/15 19:29:03","新北市三峽區民權街29號","121.370088333333","24.93418","6500900","三峽區"
"237013","252-BX","2017/06/15 19:29:04","新北市三峽區介壽路一段276巷88弄23號","121.3788","24.9284983333333","6500900","三峽區"
"237012","275-BY","2017/06/15 19:29:03","新北市三峽區三樹路222巷150-1號","121.386206666667","24.9428033333333","6500900","三峽區"
"237008","302-VK","2017/06/15 19:29:02","新北市三峽區光明路106巷43號","121.375473333333","24.9268883333333","6500900","三峽區"
"237014","433-BY","2017/06/15 19:29:07","新北市三峽區中山路63巷8號","121.366935","24.934315","6500900","三峽區"
"237006","5529-G3","2017/06/15 19:29:20","新北市三峽區中正路一段336巷15弄8號","121.370005","24.9244216666667","6500900","三峽區"
"237011","572-TV","2017/06/15 19:29:08","新北市三峽區中正路一段510號","121.369915","24.920275","6500900","三峽區"
"237016","649-BX","2017/06/15 19:29:07","新北市三峽區建安25-3號","121.445971666667","24.927575","6500900","三峽區"
"237010","706-TV","2017/06/15 19:29:10","新北市三峽區復興路73號","121.372781666667","24.937425","6500900","三峽區"
"237005","AKY-6261","2017/06/15 19:27:27","新北市三峽區中山路184巷19號","121.364393333333","24.9373633333333","6500900","三峽區"
"236071","105-UM","2017/06/15 19:29:17","新北市土城區學府路一段129巷4號","121.454261666667","24.9862133333333","6501300","土城區"
"236009","165-UM","2017/06/15 11:34:25","新北市土城區永平街51號","121.427941666667","24.959195","6501300","土城區"
"236078","166-UM","2017/06/15 19:29:22","新北市土城區中州路3巷43號","121.413421666667","24.9562233333333","6501300","土城區"
"236026","269-VK","2017/06/15 19:29:07","新北市土城區中央路二段61巷22號","121.443195","24.9787083333333","6501300","土城區"
"236003","339-SR","2017/06/15 10:57:12","新北市土城區永平街51號","121.427651666667","24.959195","6501300","土城區"
"236002","370-SL","2017/06/15 15:49:36","新北市土城區永平街51號","121.427636666667","24.9591683333333","6501300","土城區"
"236021","401-BY","2017/06/15 19:29:17","新北市土城區峰廷街3號","121.469216666667","24.9873316666667","6501300","土城區"
"236058","912-UM","2017/06/15 19:29:16","新北市土城區員林街1號","121.442228333333","24.9782683333333","6501300","土城區"
"236051","913-UM","2017/06/15 19:29:19","新北市土城區清水路193號","121.45977","24.9815566666667","6501300","土城區"
"236053","AAC-216","2017/06/15 19:29:18","新北市土城區學府路一段276號","121.450151666667","24.983075","6501300","土城區"
"238015","755-BX","2017/06/15 19:29:07","新北市樹林區大安路576號","121.411763333333","24.9836433333333","6500700","樹林區"
"238023","601-UM","2017/06/15 19:29:23","新北市樹林區三興路87巷2號","121.392978333333","25.0130133333333","6500700","樹林區"
"238019","599-UM","2017/06/15 19:29:02","新北市樹林區東榮街8號","121.418228333333","24.9836633333333","6500700","樹林區"
"238018","571-TV","2017/06/15 19:29:11","新北市樹林區中華路105號","121.422285","24.9826516666667","6500700","樹林區"
"238022","312-TH","2017/06/15 19:29:05","新北市樹林區國凱街52號","121.420375","24.9788633333333","6500700","樹林區"
"238021","311-TH","2017/06/15 19:29:15","新北市樹林區柑園街二段378巷10號","121.368583333333","24.9501366666667","6500700","樹林區"
"238025","303-VK","2017/06/15 19:29:15","新北市樹林區中山路一段228號","121.421291666667","24.9878266666667","6500700","樹林區"
"238017","283-BY","2017/06/15 19:29:01","新北市樹林區光興街313號","121.406318333333","25.0056433333333","6500700","樹林區"
"238014","282-BY","2017/06/15 19:29:14","新北市樹林區千歲街38號","121.425755","24.9967016666667","6500700","樹林區"
"238020","268-VK","2017/06/15 19:29:18","新北市樹林區中山路三段361號","121.38966","24.9702433333333","6500700","樹林區"
"238026","172-UY","2017/06/15 19:29:11","新北市樹林區佳園路三段81號","121.387603333333","24.952585","6500700","樹林區"
"238016","169-UY","2017/06/15 19:29:08","新北市樹林區中山路二段86號","121.414665","24.98357","6500700","樹林區"
"239007","AAC-297","2017/06/15 19:29:07","新北市鶯歌區大湖路185巷1號","121.344248333333","24.969455","6500800","鶯歌區"
"239006","891-R6","2017/06/15 19:29:18","新北市鶯歌區鶯桃路91巷12號","121.338911666667","24.953195","6500800","鶯歌區"
"239008","527-UM","2017/06/15 19:29:16","新北市鶯歌區大湖路466號","121.33965","24.9721966666667","6500800","鶯歌區"
"239005","526-UM","2017/06/15 19:29:08","新北市鶯歌區中湖街319號","121.348765","24.9755916666667","6500800","鶯歌區"
"239001","417-VK","2017/06/15 19:29:17","新北市鶯歌區建國路568號","121.338093333333","24.9511366666667","6500800","鶯歌區"
"239003","360-BY","2017/06/15 19:29:08","新北市鶯歌區建國路268號","121.347316666667","24.9534283333333","6500800","鶯歌區"
"239004","193-VK","2017/06/15 19:29:09","新北市鶯歌區鶯華新村25號","121.330348333333","24.93451","6500800","鶯歌區"
"221036","130-UY","2017/06/15 19:29:11","新北市汐止區汐萬路一段256巷1號","121.651873333333","25.0747516666667","6501100","汐止區"
"221015","131-UY","2017/06/15 19:29:01","新北市汐止區汐萬路一段256巷1號","121.65188","25.0748666666667","6501100","汐止區"
"221010","269-BY","2017/06/15 19:29:08","新北市汐止區康寧街901號","121.651341666667","25.0750633333333","6501100","汐止區"
"221012","278-VK","2017/06/15 19:29:13","新北市汐止區大同路三段273號","121.675313333333","25.0764533333333","6501100","汐止區"
"221023","279-VK","2017/06/15 19:28:29","新北市汐止區康寧街861巷1號","121.645488333333","25.07599","6501100","汐止區"
"221032","280-BY","2017/06/15 19:29:05","新北市汐止區汐萬路一段312號","121.650598333333","25.0753866666667","6501100","汐止區"
"221027","281-BY","2017/06/15 19:29:11","新北市汐止區大同路二段330號","121.656378333333","25.06691","6501100","汐止區"
"221038","297-VK","2017/06/15 19:29:03","新北市汐止區康寧街901號","121.651531666667","25.0750083333333","6501100","汐止區"
"221021","299-VK","2017/06/15 19:25:13","新北市汐止區康寧街901號","121.651568333333","25.075035","6501100","汐止區"
"221035","622-UM","2017/06/15 19:29:11","新北市汐止區康寧街901號","121.650955","25.07515","6501100","汐止區"
"221025","623-UM","2017/06/15 19:29:22","新北市汐止區秀峰路9號","121.659285","25.06596","6501100","汐止區"
"221033","647-BX","2017/06/15 19:29:03","新北市汐止區南勢街3號","121.627078333333","25.03739","6501100","汐止區"
"221002","707-TV","2017/06/15 19:29:05","新北市汐止區大同路一段349-1號","121.639335","25.05972","6501100","汐止區"
"220079","145-BY","2017/06/15 19:29:06","新北市板橋區民權路202巷17弄19號","121.459916666667","25.016585","6500100","板橋區"
"220093","146-RM","2017/06/15 19:29:17","新北市板橋區漢生西路79巷2號","121.46276","25.01932","6500100","板橋區"
"220101","245-BX","2017/06/15 19:29:17","新北市板橋區縣民大道三段121巷5號","121.476813333333","25.022925","6500100","板橋區"
"220094","267-BY","2017/06/15 19:29:04","新北市板橋區吳鳳路17巷1號","121.467626666667","25.0301616666667","6500100","板橋區"
"220072","277-BY","2017/06/15 19:29:18","新北市板橋區金門街333號","121.429338333333","24.9857783333333","6500100","板橋區"
"220064","280-UM","2017/06/15 19:29:17","新北市板橋區中山路一段66號","121.461401666667","25.0098433333333","6500100","板橋區"
"220071","283-VK","2017/06/15 19:29:11","新北市板橋區重慶路269巷43號","121.464568333333","24.99902","6500100","板橋區"
"220089","285-UM","2017/06/15 19:29:21","新北市板橋區文化路一段243號","121.464226666667","25.0178283333333","6500100","板橋區"
"220053","285-VK","2017/06/15 19:29:23","新北市板橋區永豐街106號","121.476035","25.0205816666667","6500100","板橋區"
"220083","286-VK","2017/06/15 19:29:11","新北市板橋區大觀路二段174巷193弄2號","121.442245","25.0040266666667","6500100","板橋區"
"220081","287-VK","2017/06/15 19:29:09","新北市板橋區南雅西路一段148號","121.45247","25.0073983333333","6500100","板橋區"
"220090","288-VK","2017/06/15 19:29:13","新北市板橋區長江路一段106巷18弄7號","121.459986666667","25.0284683333333","6500100","板橋區"
"220061","293-UM","2017/06/15 19:29:14","新北市板橋區中山路二段191號","121.476248333333","25.0172166666667","6500100","板橋區"
"220084","296-UM","2017/06/15 19:29:20","新北市板橋區溪北路73巷2號","121.42836","24.9897616666667","6500100","板橋區"
"220075","297-UM","2017/06/15 19:29:13","新北市板橋區中正路253巷5號","121.45539","25.0180966666667","6500100","板橋區"
"220097","299-UM","2017/06/15 19:29:16","新北市板橋區新海路135巷1號","121.460683333333","25.0234","6500100","板橋區"
"220056","303-R5","2017/06/15 19:29:20","新北市板橋區信義路150巷33-3號","121.458203333333","24.9917083333333","6500100","板橋區"
"220062","305-R5","2017/06/15 19:29:18","新北市板橋區三民路二段153巷12號","121.480041666667","25.0148816666667","6500100","板橋區"
"220092","307-R5","2017/06/15 19:29:17","新北市板橋區松江街5號","121.468961666667","25.02616","6500100","板橋區"
"220098","317-R6","2017/06/15 19:29:15","新北市板橋區民有街108號","121.464525","25.0282633333333","6500100","板橋區"
"220080","461-BY","2017/06/15 19:29:11","新北市板橋區大觀路二段3巷50號","121.44882","25.0034716666667","6500100","板橋區"
"220088","491-VK","2017/06/15 19:28:03","新北市板橋區雙十路二段39-1號","121.476716666667","25.0260516666667","6500100","板橋區"
"220035","560-BX","2017/06/15 19:29:20","新北市板橋區中正路413巷2弄37號","121.453066666667","25.023355","6500100","板橋區"
"220103","561-BX","2017/06/15 19:29:13","新北市板橋區介壽街1號","121.467088333333","25.0204083333333","6500100","板橋區"
"220063","609-BX","2017/06/15 19:29:07","新北市板橋區三民路一段1巷28號","121.480205","25.0244366666667","6500100","板橋區"
"220091","637-BX","2017/06/15 19:29:06","新北市板橋區松柏街50巷51號","121.47665","25.0299866666667","6500100","板橋區"
"220057","686-BX","2017/06/15 19:29:11","新北市板橋區重慶路293號","121.46344","24.999235","6500100","板橋區"
"220077","687-BX","2017/06/15 19:29:15","新北市板橋區僑中二街104巷1號","121.446033333333","25.00783","6500100","板橋區"
"220054","741-BX","2017/06/15 19:29:13","新北市板橋區校前街72號","121.461855","25.0033816666667","6500100","板橋區"
"220055","827-TW","2017/06/15 19:29:15","新北市板橋區實踐路195號","121.464448333333","25.0031383333333","6500100","板橋區"
"220067","829-TW","2017/06/15 19:29:20","新北市板橋區長安街138巷26號","121.472976666667","25.008925","6500100","板橋區"
"220102","830-TW","2017/06/15 19:29:14","新北市板橋區松柏街22巷37號","121.475116666667","25.02912","6500100","板橋區"
"220096","831-TW","2017/06/15 19:29:16","新北市板橋區大同街38號","121.478488333333","25.027475","6500100","板橋區"
"220074","895-R6","2017/06/15 19:29:22","新北市板橋區中正路自強新村62-1號","121.454753333333","25.0134016666667","6500100","板橋區"
"220073","985-R7","2017/06/15 19:29:17","新北市板橋區新生街20巷2號","121.455613333333","25.0209666666667","6500100","板橋區"
"220070","AAC-253","2017/06/15 19:29:11","新北市板橋區忠孝路56號","121.460996666667","25.0019666666667","6500100","板橋區"
