"lineid","car","time","location","longitude","latitude","cityid","cityname"
"234046","148-BY","2017/06/15 20:09:10","新北市永和區林森路62號","121.523953333333","25.00408","6500400","永和區"
"234013","149-BY","2017/06/15 20:09:21","新北市永和區保生路55號","121.504715","25.0105866666667","6500400","永和區"
"234007","207-UY","2017/06/15 20:09:19","新北市永和區保生路36號","121.506213333333","25.0078983333333","6500400","永和區"
"234081","298-R6","2017/06/15 20:09:05","新北市永和區永利路79號","121.52143","25.0036483333333","6500400","永和區"
"234038","336-UY","2017/06/15 20:09:04","新北市永和區成功路一段45號","121.52707","25.0040766666667","6500400","永和區"
"234064","337-UY","2017/06/15 20:09:20","新北市永和區秀朗路一段196巷11號","121.519845","25.0026866666667","6500400","永和區"
"234084","338-UY","2017/06/15 19:03:25","新北市永和區福和路1號","121.526158333333","25.0097666666667","6500400","永和區"
"234070","552-UM","2017/06/15 20:09:10","新北市永和區福和路263巷7弄1號","121.517955","25.0069383333333","6500400","永和區"
"234054","553-UM","2017/06/15 20:09:14","新北市永和區博愛街16-1號","121.517105","25.0157683333333","6500400","永和區"
"234017","745-BX","2017/06/15 20:09:08","新北市永和區永和路二段243號","121.515805","25.0146933333333","6500400","永和區"
"234028","746-BX","2017/06/15 20:09:14","新北市永和區民有街25巷10號","121.517388333333","24.9964633333333","6500400","永和區"
"234086","840-RS","2017/06/15 20:09:06","新北市永和區福和路278號","121.5179","25.0075816666667","6500400","永和區"
"234061","AAD-866","2017/06/15 20:09:13","新北市永和區得和路68號","121.516228333333","24.9998283333333","6500400","永和區"
"234042","862-TW","2017/06/15 20:09:15","新北市永和區雙和街16巷10號","121.50991","25.0024433333333","6500400","永和區"
"234050","863-TW","2017/06/15 20:09:14","新北市永和區環河西路二段107號","121.506353333333","25.014715","6500400","永和區"
"249005","172-UM","2017/06/15 20:09:19","新北市八里區福德新村9號","121.38621","25.13617","6502300","八里區"
"249001","173-UM","2017/06/15 20:09:15","新北市八里區中華路二段310號","121.40388","25.1483383333333","6502300","八里區"
"249004","303-UY","2017/06/15 20:09:01","新北市八里區中山路一段157巷67號","121.412321666667","25.1577766666667","6502300","八里區"
"249002","305-UY","2017/06/15 20:09:19","新北市八里區龍米路一段3-6號","121.457195","25.1175133333333","6502300","八里區"
"249003","593-UM","2017/06/15 20:09:09","新北市八里區中山路二段540巷26號","121.39721","25.1468766666667","6502300","八里區"
"248014","025-BX","2017/06/15 20:09:02","新北市五股區五福路14巷26號","121.435465","25.08892","6501500","五股區"
"248016","026-BX","2017/06/15 20:09:15","新北市五股區天乙路67號","121.448145","25.1046616666667","6501500","五股區"
"248008","095-VK","2017/06/15 20:09:11","新北市五股區中興路一段1巷12弄1號","121.469406666667","25.0714383333333","6501500","五股區"
"248020","225-UY","2017/06/15 20:09:05","新北市五股區凌雲路二段21號","121.443948333333","25.1024116666667","6501500","五股區"
"248012","247-BX","2017/06/15 14:42:44","新北市五股區民義路一段60號","121.436766666667","25.0844616666667","6501500","五股區"
"248010","272-BY","2017/06/15 20:09:03","新北市五股區成泰路一段7巷66號","121.432615","25.067865","6501500","五股區"
"248004","677-BX","2017/06/15 20:09:06","新北市五股區成泰路一段106-1號","121.435681666667","25.07199","6501500","五股區"
"248002","678-BX","2017/06/15 20:09:01","新北市五股區成泰路三段311-2號","121.448011666667","25.094865","6501500","五股區"
"234023","9380-KE","2017/06/15 20:09:12","新北市永和區中正路581-3號","121.516751666667","25.0090083333333","6500400","永和區"
"234077","969-R7","2017/06/15 20:09:17","新北市永和區智光街115號","121.515575","24.9961233333333","6500400","永和區"
"234074","AAC-211","2017/06/15 20:09:16","新北市永和區豫溪街147號","121.520873333333","25.01036","6500400","永和區"
"234067","AAC-212","2017/06/15 20:09:14","新北市永和區中山路一段277號","121.507101666667","25.0070433333333","6500400","永和區"
"234003","AAC-295","2017/06/15 20:07:05","新北市永和區中正路605號","121.516346666667","25.0096483333333","6500400","永和區"
"243013","AAD-798","2017/06/15 20:09:17","新北市泰山區明志路三段74巷23號","121.423908333333","25.0416416666667","6501600","泰山區"
"243009","297-R6","2017/06/15 20:09:12","新北市泰山區泰林路二段138號","121.434261666667","25.059835","6501600","泰山區"
"243015","380-SR","2017/06/15 20:09:08","新北市泰山區明志路一段384號","121.430711666667","25.0574833333333","6501600","泰山區"
"243014","421-VK","2017/06/15 20:09:03","新北市泰山區明志路一段78號","121.433583333333","25.0644583333333","6501600","泰山區"
"243012","539-UM","2017/06/15 20:08:00","新北市泰山區楓江路46巷17-3號","121.435768333333","25.0615883333333","6501600","泰山區"
"243010","548-UM","2017/06/15 20:09:11","新北市泰山區明志路二段136巷20弄5號","121.426481666667","25.0519066666667","6501600","泰山區"
"243011","549-UM","2017/06/15 20:09:04","新北市泰山區明志路三段317號","121.422413333333","25.0359366666667","6501600","泰山區"
"243016","680-BX","2017/06/15 20:09:10","新北市泰山區明志路三段334號","121.42212","25.0354883333333","6501600","泰山區"
"222003","436-BY","2017/06/15 20:09:17","新北市深坑區埔新街60號","121.620171666667","25.0024283333333","6501800","深坑區"
"222002","659-BX","2017/06/15 20:09:11","新北市深坑區北深路三段129號","121.604206666667","25.0024366666667","6501800","深坑區"
"222001","696-SL","2017/06/15 20:09:12","新北市深坑區北深路三段191號","121.601238333333","25.00368","6501800","深坑區"
"231041","002-UM","2017/06/15 20:09:12","新北市新店區中正路470號","121.533926666667","24.980715","6500600","新店區"
"231056","0291-UT","2017/06/15 20:09:20","新北市新店區民權路42巷37號","121.539055","24.9835166666667","6500600","新店區"
"231059","046-UY","2017/06/15 20:09:03","新北市新店區安德街46巷12號","121.511113333333","24.96314","6500600","新店區"
"231061","047-UY","2017/06/15 20:09:03","新北市新店區光華街38巷11號","121.515888333333","24.9703483333333","6500600","新店區"
"231060","106-UY","2017/06/15 20:09:13","新北市新店區安康路三段182號","121.48925","24.9517816666667","6500600","新店區"
"231051","107-UY","2017/06/15 20:09:05","新北市新店區中央路206號","121.530363333333","24.9739716666667","6500600","新店區"
"231047","108-UY","2017/06/15 20:09:16","新北市新店區寶橋路59-1號","121.545178333333","24.97498","6500600","新店區"
"231052","187-VK","2017/06/15 20:09:05","新北市新店區新烏路三段111號","121.552346666667","24.9030066666667","6500600","新店區"
"231007","189-VK","2017/06/15 12:03:45","新北市新店區安華路28-1號","121.519671666667","24.9611566666667","6500600","新店區"
"231057","256-BX","2017/06/15 20:09:14","新北市新店區花園一路一段2號","121.553128333333","24.9324233333333","6500600","新店區"
"231063","268-BY","2017/06/15 20:09:20","新北市新店區黎明路56巷2號","121.502361666667","24.9478966666667","6500600","新店區"
"231050","AAD-862","2017/06/15 20:09:14","新北市新店區中生路61號","121.56471","24.9523016666667","6500600","新店區"
"231055","3713-VJ","2017/06/15 20:09:01","新北市新店區中華路42巷27號","121.540975","24.9690316666667","6500600","新店區"
"231067","4772-VM","2017/06/15 20:09:12","新北市新店區秀山路72號","121.53119","24.9607316666667","6500600","新店區"
"231065","512-UM","2017/06/15 20:09:20","新北市新店區安祥路106巷114號","121.4739","24.958925","6500600","新店區"
"231054","513-UM","2017/06/15 20:09:04","新北市新店區檳榔路17-2號","121.541435","24.9640116666667","6500600","新店區"
"231064","515-UM","2017/06/15 20:09:01","新北市新店區安民街3巷5號","121.514466666667","24.9641616666667","6500600","新店區"
"231045","617-UM","2017/06/15 20:09:11","新北市新店區北宜路一段143號","121.54105","24.952945","6500600","新店區"
"231040","619-UM","2017/06/15 20:09:16","新北市新店區中正路106號","121.543243333333","24.9708283333333","6500600","新店區"
"231042","641-BX","2017/06/15 20:09:07","新北市新店區中興路二段222號","121.548031666667","24.9750816666667","6500600","新店區"
"231068","718-UY","2017/06/15 20:09:02","新北市新店區北新路二段190號","121.542945","24.97644","6500600","新店區"
"231049","719-UM","2017/06/15 20:09:15","新北市新店區明德路69巷1號","121.54153","24.977475","6500600","新店區"
"231062","720-UM","2017/06/15 20:09:04","新北市新店區安華路30巷12-1號","121.518528333333","24.9577483333333","6500600","新店區"
"231044","897-TW","2017/06/15 20:09:17","新北市新店區寶慶街58巷6號","121.542048333333","24.9870466666667","6500600","新店區"
"231043","899-TW","2017/06/15 20:09:08","新北市新店區中正路317號","121.536405","24.9750466666667","6500600","新店區"
"231066","AKT-0513","2017/06/15 20:09:19","新北市新店區柴埕路45號","121.513873333333","24.9654533333333","6500600","新店區"
"241011","013-R5","2017/06/15 20:09:16","新北市三重區三和路三段41號","121.495585","25.0712083333333","6500200","三重區"
"241028","022-UY","2017/06/15 20:09:10","新北市三重區仁化街107號","121.494513333333","25.0580283333333","6500200","三重區"
"241008","059-VK","2017/06/15 20:09:13","新北市三重區永福街197巷4號","121.479031666667","25.0744483333333","6500200","三重區"
"241009","060-VK","2017/06/15 20:09:01","新北市三重區永福街113號","121.479326666667","25.0771516666667","6500200","三重區"
"241031","061-VK","2017/06/15 20:09:06","新北市三重區過圳街9-1號","121.488838333333","25.0600683333333","6500200","三重區"
"241015","062-VK","2017/06/15 20:09:06","新北市三重區福德北路43號","121.502303333333","25.064925","6500200","三重區"
"241017","063-VK","2017/06/15 20:09:07","新北市三重區自強路一段248號","121.492785","25.0674316666667","6500200","三重區"
"241024","065-VK","2017/06/15 20:09:07","新北市三重區中正北路165巷2號","121.478783333333","25.0694366666667","6500200","三重區"
"241026","066-VK","2017/06/15 20:09:17","新北市三重區福德南路65巷1號","121.5024","25.06052","6500200","三重區"
"241002","090-VK","2017/06/15 20:09:03","新北市三重區仁忠街27號","121.49604","25.0821883333333","6500200","三重區"
"241003","091-VK","2017/06/15 20:09:12","新北市三重區仁愛街416號","121.490543333333","25.0814066666667","6500200","三重區"
"241005","262-UM","2017/06/15 20:09:09","新北市三重區溪尾街327號","121.488428333333","25.08481","6500200","三重區"
"241013","265-UM","2017/06/15 20:09:16","新北市三重區三和路三段139巷18號","121.493208333333","25.0739066666667","6500200","三重區"
"241016","266-UM","2017/06/15 20:09:03","新北市三重區大同北路63號","121.495111666667","25.0634533333333","6500200","三重區"
"241022","267-UM","2017/06/15 20:09:06","新北市三重區新北大道一段15巷2號","121.48798","25.0608083333333","6500200","三重區"
"241018","268-UM","2017/06/15 20:09:08","新北市三重區正義北路256巷33號","121.494918333333","25.0682966666667","6500200","三重區"
"241025","271-UM","2017/06/15 20:09:10","新北市三重區中正北路237號","121.475706666667","25.0708233333333","6500200","三重區"
"241007","398-BY","2017/06/15 20:09:06","新北市三重區仁美街48號","121.48724","25.0778216666667","6500200","三重區"
"241020","412-TH","2017/06/15 20:09:11","新北市三重區後竹圍街2巷2號","121.491886666667","25.07348","6500200","三重區"
"241004","475-VK","2017/06/15 20:09:16","新北市三重區仁愛街364號","121.49137","25.08045","6500200","三重區"
"241019","478-VK","2017/06/15 20:09:20","新北市三重區自強路二段33巷38號","121.490391666667","25.069825","6500200","三重區"
"241030","480-VK","2017/06/15 20:09:06","新北市三重區成功路145巷10號","121.48723","25.0526583333333","6500200","三重區"
"241014","543-UM","2017/06/15 20:09:15","新北市三重區安和路38號","121.500755","25.0693033333333","6500200","三重區"
"241023","545-UM","2017/06/15 20:09:20","新北市三重區頂崁街233號","121.477035","25.0685016666667","6500200","三重區"
"241001","547-UM","2017/06/15 20:09:06","新北市三重區三和路四段89巷28號","121.49027","25.0760633333333","6500200","三重區"
"241006","AAD-863","2017/06/15 20:09:13","新北市三重區力行路二段121號","121.483045","25.0764766666667","6500200","三重區"
"241035","743-BX","2017/06/15 20:09:12","新北市三重區正義北路33巷20號","121.498185","25.0639016666667","6500200","三重區"
"241012","887-TS","2017/06/15 20:09:06","新北市三重區仁興街56巷49號","121.497886666667","25.0755483333333","6500200","三重區"
"241029","942-UM","2017/06/15 20:09:02","新北市三重區光明路32巷16號","121.491725","25.05877","6500200","三重區"
"241033","AAC-255","2017/06/15 20:09:16","新北市三重區光復路一段68巷2號","121.471888333333","25.04928","6500200","三重區"
"235066","003-UY","2017/06/15 20:09:17","新北市中和區水源路127巷2弄2號","121.508075","25.0040833333333","6500300","中和區"
"235056","096-UM","2017/06/15 20:09:12","新北市中和區中山路三段170巷6弄1號","121.472611666667","25.00728","6500300","中和區"
"235039","097-UM","2017/06/15 20:09:19","新北市中和區大勇街25巷21號","121.515551666667","24.9938516666667","6500300","中和區"
"235065","098-UM","2017/06/15 20:09:19","新北市中和區福美路232號","121.49899","25.0052683333333","6500300","中和區"
"235040","150-BY","2017/06/15 20:09:06","新北市中和區保健路61巷5弄4號","121.509601666667","24.9976816666667","6500300","中和區"
"235058","151-BY","2017/06/15 20:09:12","新北市中和區員山路104號","121.48109","24.9954633333333","6500300","中和區"
"235055","183-VK","2017/06/15 20:09:03","新北市中和區民生街23巷3弄1號","121.471015","25.0050866666667","6500300","中和區"
"235038","185-VK","2017/06/15 20:09:18","新北市中和區自立路11號","121.522496666667","24.99643","6500300","中和區"
"235067","255-BX","2017/06/15 20:09:16","新北市中和區員山路148巷19號","121.48208","24.9971216666667","6500300","中和區"
"235044","293-VK","2017/06/15 20:09:18","新北市中和區南山路231號","121.503501666667","24.993405","6500300","中和區"
"235072","301-VK","2017/06/15 20:09:16","新北市八里區商港路50號","121.395753333333","25.1457333333333","6500300","中和區"
"235043","352-BY","2017/06/15 20:09:20","新北市中和區興南路二段159巷1號","121.505266666667","24.98326","6500300","中和區"
"235041","375-QA","2017/06/15 20:09:07","新北市永和區中和路483-3號","121.510465","25.0021033333333","6500300","中和區"
"235051","376-QA","2017/06/15 20:09:04","新北市中和區景安路247巷7號","121.50429","24.9906933333333","6500300","中和區"
"235068","377-QA","2017/06/15 20:09:04","新北市中和區中山路二段250巷18號","121.49739","25.003165","6500300","中和區"
"235061","378-QA","2017/06/15 20:09:18","新北市中和區員山路174巷11號","121.482116666667","25.00004","6500300","中和區"
"235050","4979-A6","2017/06/15 20:09:05","新北市中和區安樂路58號","121.512185","24.9931633333333","6500300","中和區"
"235069","4980-A6","2017/06/15 20:09:07","新北市中和區南山路37巷3弄4號","121.5028","24.99922","6500300","中和區"
"235070","558-UM","2017/06/15 20:09:13","新北市中和區圓通路147號","121.498506666667","24.9957516666667","6500300","中和區"
"235054","640-BX","2017/06/15 20:09:14","新北市中和區國光街1號","121.47259","25.0000316666667","6500300","中和區"
"235060","647-TV","2017/06/15 20:09:14","新北市中和區民樂路47號","121.483558333333","25.0014933333333","6500300","中和區"
"235047","732-UM","2017/06/15 20:09:07","新北市中和區和平街33號","121.506715","24.991535","6500300","中和區"
"235046","733-UM","2017/06/15 20:09:16","新北市中和區忠孝街31巷34號","121.509973333333","24.9846433333333","6500300","中和區"
"235052","805-TS","2017/06/15 20:09:03","新北市中和區華新街30巷12-3號","121.507056666667","24.98429","6500300","中和區"
"235048","896-TW","2017/06/15 20:09:04","新北市中和區景新街555號","121.515251666667","24.9865666666667","6500300","中和區"
"235053","900-TW","2017/06/15 20:09:18","新北市中和區民德路260號","121.467881666667","24.996815","6500300","中和區"
"235037","AAC-213","2017/06/15 20:09:16","新北市中和區秀朗路三段10巷29弄5號","121.52512","24.9960333333333","6500300","中和區"
"235059","AAC-215","2017/06/15 20:09:14","新北市中和區圓通路335巷37弄33號","121.49378","24.9888433333333","6500300","中和區"
"220068","013-TV","2017/06/15 20:09:10","新北市板橋區光復街28號","121.481638333333","25.0187116666667","6500100","板橋區"
"220065","072-UY","2017/06/15 20:09:13","新北市板橋區民族路69巷12號","121.46572","25.0095","6500100","板橋區"
"220106","075-UY","2017/06/15 20:09:19","新北市板橋區仁化街150-2號","121.477846666667","25.0331916666667","6500100","板橋區"
"220069","AAD-861","2017/06/15 20:08:59","新北市板橋區南雅南路二段5號","121.454501666667","25.002925","6500100","板橋區"
"247020","893-R6","2017/06/15 20:09:18","新北市蘆洲區民權路106巷5弄2-1號","121.474415","25.0890633333333","6501400","蘆洲區"
"247010","546-UM","2017/06/15 20:09:20","新北市蘆洲區信義路136號","121.479491666667","25.0830033333333","6501400","蘆洲區"
"247018","500-BY","2017/06/15 20:09:02","新北市蘆洲區民族路346號","121.476436666667","25.0906583333333","6501400","蘆洲區"
"247006","341-TH","2017/06/15 20:09:14","新北市蘆洲區中山二路288號","121.468993333333","25.0777583333333","6501400","蘆洲區"
"247008","339-TH","2017/06/15 20:09:11","新北市蘆洲區集賢路237號","121.481728333333","25.0852633333333","6501400","蘆洲區"
"247024","337-TH","2017/06/15 20:09:17","新北市蘆洲區光明路92號","121.463071666667","25.0878716666667","6501400","蘆洲區"
"247002","336-TH","2017/06/15 20:09:10","新北市蘆洲區長安街246巷37號","121.458741666667","25.0866333333333","6501400","蘆洲區"
"247014","057-VK","2017/06/15 20:09:12","新北市蘆洲區中山二路261號","121.469906666667","25.07973","6501400","蘆洲區"
"247004","056-VK","2017/06/15 20:09:22","新北市蘆洲區長安街267巷32號","121.457143333333","25.0832216666667","6501400","蘆洲區"
"247012","007-UY","2017/06/15 20:09:03","新北市蘆洲區民族路250巷1號","121.479201666667","25.0888083333333","6501400","蘆洲區"
"247022","002-UY","2017/06/15 20:09:19","新北市蘆洲區三民路175號","121.470896666667","25.0872116666667","6501400","蘆洲區"
"247016","001-UY","2017/06/15 20:09:16","新北市蘆洲區光華路160號","121.465458333333","25.08227","6501400","蘆洲區"
"223003","205-TH","2017/06/15 17:17:35","新北市中和區興南路三段35號","121.497026666667","24.9781016666667","6501900","石碇區"
"227004","642-TC","2017/06/15 20:09:12","新北市雙溪區魚行里新店62號","121.871601666667","25.03083","6502500","雙溪區"
"208003","665-BX","2017/06/15 20:09:14","新北市金山區海興路176號","121.632885","25.2402683333333","6502700","金山區"
"251009","008-UM","2017/06/15 20:05:02","新北市淡水區清水街1-5號","121.445346666667","25.1703416666667","6501000","淡水區"
"251004","009-UM","2017/06/15 20:01:10","新北市淡水區民族路31-13號","121.461448333333","25.1365233333333","6501000","淡水區"
"251001","011-UM","2017/06/15 20:09:16","新北市淡水區淡金路二段599號","121.445948333333","25.192485","6501000","淡水區"
"251008","181-VK","2017/06/15 20:09:17","新北市淡水區淡海路72巷30弄16號","121.424971666667","25.1825816666667","6501000","淡水區"
"251014","182-VK","2017/06/15 20:09:05","新北市淡水區石頭厝3號","121.458665","25.2355233333333","6501000","淡水區"
"251010","413-VK","2017/06/15 20:09:03","新北市淡水區崁頂五路303號","121.423886666667","25.1969116666667","6501000","淡水區"
"251012","441-VK","2017/06/15 20:09:08","新北市淡水區淡金路三段274號","121.448896666667","25.206775","6501000","淡水區"
"251016","442-VK","2017/06/15 20:09:16","新北市淡水區番子田18號","121.457358333333","25.2291033333333","6501000","淡水區"
"251005","443-VK","2017/06/15 20:09:14","新北市淡水區學府路136巷6號","121.450661666667","25.1729683333333","6501000","淡水區"
"251006","561-UM","2017/06/15 20:09:13","新北市淡水區北新路141巷29號","121.448066666667","25.1796383333333","6501000","淡水區"
"251002","672-BX","2017/06/15 20:09:11","新北市淡水區中正路354號","121.43435","25.1739916666667","6501000","淡水區"
"251003","766-UM","2017/06/15 20:09:19","新北市淡水區中山北路二段1號","121.444298333333","25.1830066666667","6501000","淡水區"
"207003","550-UM","2017/06/15 20:09:14","新北市萬里區大鵬里萬里加投186號","121.642823333333","25.2156233333333","6502800","萬里區"
"207004","225-TW","2017/06/15 20:09:16","新北市萬里區北基里愛二街2號","121.682425","25.1767333333333","6502800","萬里區"
"252002","178-VK","2017/06/15 20:09:15","新北市三芝區三民街39巷12號","121.50516","25.2579","6502100","三芝區"
"252001","292-VK","2017/06/15 20:09:04","新北市三芝區公正街66號","121.499805","25.2574466666667","6502100","三芝區"
"237007","153-BY","2017/06/15 20:09:16","新北市三峽區二鬮路136巷22弄47號","121.357528333333","24.9102483333333","6500900","三峽區"
"237012","275-BY","2017/06/15 20:09:03","新北市三峽區安溪路319號","121.370968333333","24.9285833333333","6500900","三峽區"
"237008","302-VK","2017/06/15 20:09:22","新北市三峽區中華路138號","121.370633333333","24.9270966666667","6500900","三峽區"
"237014","433-BY","2017/06/15 20:09:07","新北市三峽區介壽路一段1號","121.375153333333","24.9340433333333","6500900","三峽區"
"237006","5529-G3","2017/06/15 20:09:00","新北市三峽區中正路二段264號","121.365861666667","24.9125866666667","6500900","三峽區"
"237016","649-BX","2017/06/15 20:09:07","新北市三峽區介壽路二段138巷1號","121.396028333333","24.9342516666667","6500900","三峽區"
"237005","AKY-6261","2017/06/15 20:09:07","新北市三峽區三樹路44巷7號","121.378251666667","24.9376","6500900","三峽區"
"236071","105-UM","2017/06/15 20:09:17","新北市土城區中央路三段130-2號","121.434691666667","24.9658733333333","6501300","土城區"
"236042","107-UM","2017/06/15 20:09:10","新北市土城區學府路一段150號","121.454633333333","24.98694","6501300","土城區"
"236009","165-UM","2017/06/15 11:34:25","新北市土城區永平街51號","121.427941666667","24.959195","6501300","土城區"
"236078","166-UM","2017/06/15 20:09:02","新北市土城區中山路45-1號","121.420395","24.9627683333333","6501300","土城區"
"236030","253-BX","2017/06/15 20:09:12","新北市土城區中央路一段118巷1弄11號","121.445886666667","24.98785","6501300","土城區"
"236026","269-VK","2017/06/15 20:09:21","新北市土城區明德路二段108號","121.445108333333","24.984125","6501300","土城區"
"236014","270-VK","2017/06/15 20:09:06","新北市土城區廣興街39號","121.455026666667","24.9915416666667","6501300","土城區"
"236037","271-VK","2017/06/15 20:09:12","新北市土城區明德路一段20巷1弄2號","121.464565","24.9848083333333","6501300","土城區"
"236003","339-SR","2017/06/15 10:57:12","新北市土城區永平街51號","121.427651666667","24.959195","6501300","土城區"
"236002","370-SL","2017/06/15 15:49:36","新北市土城區永平街51號","121.427636666667","24.9591683333333","6501300","土城區"
"236021","401-BY","2017/06/15 20:09:17","新北市土城區延吉街30號","121.472051666667","24.9873316666667","6501300","土城區"
"236058","912-UM","2017/06/15 20:09:16","新北市土城區中央路一段258號","121.444291666667","24.9843333333333","6501300","土城區"
"236051","913-UM","2017/06/15 20:09:18","新北市土城區金城路三段153號","121.468683333333","24.988335","6501300","土城區"
"236062","915-UM","2017/06/15 20:09:17","新北市土城區延平街19號","121.46826","24.991195","6501300","土城區"
"236053","AAC-216","2017/06/15 20:09:18","新北市土城區學府路一段72號","121.456706666667","24.98826","6501300","土城區"
"242021","AAC-296","2017/06/15 20:09:20","新北市新莊區建中街48巷8弄1號","121.448166666667","25.0382216666667","6500500","新莊區"
"242029","986-R7","2017/06/15 20:09:01","新北市新莊區中原路512號","121.446971666667","25.054525","6500500","新莊區"
"242048","751-BX","2017/06/15 20:09:10","新北市新莊區四維路152巷47號","121.421848333333","25.022015","6500500","新莊區"
"242025","615-BX","2017/06/15 20:09:09","新北市新莊區五工三路78巷8號","121.459211666667","25.065305","6500500","新莊區"
"242023","613-BX","2017/06/15 20:09:17","新北市新莊區化成路526號","121.466278333333","25.052765","6500500","新莊區"
"242027","612-BX","2017/06/15 20:09:17","新北市新莊區中平路272號","121.444865","25.0503566666667","6500500","新莊區"
"242036","566-BX","2017/06/15 20:09:08","新北市新莊區建安街25巷16號","121.429825","25.02612","6500500","新莊區"
"242042","497-BY","2017/06/15 20:09:04","新北市新莊區青山路一段226-1號","121.398898333333","25.0309833333333","6500500","新莊區"
"242004","442-UM","2017/06/15 20:09:15","新北市新莊區化成路500號","121.466156666667","25.0522066666667","6500500","新莊區"
"242046","441-UM","2017/06/15 20:09:18","新北市新莊區裕民街55巷7號","121.41923","25.0238383333333","6500500","新莊區"
"242051","440-UM","2017/06/15 20:09:18","新北市新莊區民安西路170號","121.425891666667","25.01599","6500500","新莊區"
"242031","415-TV","2017/06/15 20:09:07","新北市新莊區中正路380號","121.443073333333","25.034195","6500500","新莊區"
"242002","413-TV","2017/06/15 20:09:16","新北市新莊區中正路55-1號","121.462161666667","25.039905","6500500","新莊區"
"242039","400-BY","2017/06/15 20:09:17","新北市新莊區民安西路115號","121.426703333333","25.0179816666667","6500500","新莊區"
"242061","362-BY","2017/06/15 20:09:14","新北市新莊區瓊林路瓊英巷4弄2號","121.443623333333","25.02738","6500500","新莊區"
"242058","353-BY","2017/06/15 20:09:10","新北市新莊區八德街137號","121.423723333333","25.0201066666667","6500500","新莊區"
"242011","132-UY","2017/06/15 20:08:59","新北市新莊區中信街67巷6號","121.4486","25.0508016666667","6500500","新莊區"
"242019","135-UY","2017/06/15 20:09:15","新北市新莊區復興路二段196巷5號","121.459456666667","25.0437716666667","6500500","新莊區"
"242044","172-VK","2017/06/15 20:09:11","新北市新莊區中正路929巷7弄10號","121.411375","25.0205516666667","6500500","新莊區"
"242007","173-VK","2017/06/15 20:09:20","新北市新莊區思源路423號","121.459525","25.052675","6500500","新莊區"
"242013","175-VK","2017/06/15 20:09:16","新北市新莊區幸福路678巷5號","121.450536666667","25.0496383333333","6500500","新莊區"
"242056","176-VK","2017/06/15 20:09:02","新北市新莊區新莊路649巷13弄15號","121.44558","25.0318716666667","6500500","新莊區"
"242034","347-TH","2017/06/15 20:09:00","新北市新莊區中正路318巷18號","121.446365","25.0359883333333","6500500","新莊區"
"242017","348-TH","2017/06/15 20:09:03","新北市新莊區中安街17號","121.452923333333","25.0460233333333","6500500","新莊區"
"242053","349-TH","2017/06/15 20:09:11","新北市新莊區西盛街380號","121.427923333333","25.0130483333333","6500500","新莊區"
"242015","350-TH","2017/06/15 20:09:12","新北市新莊區中平路28號","121.444885","25.043305","6500500","新莊區"
"242009","351-TH","2017/06/15 20:09:05","新北市新莊區昌平街35號","121.454745","25.0521033333333","6500500","新莊區"
"238015","755-BX","2017/06/15 20:09:07","新北市樹林區中山路三段88號","121.393325","24.972285","6500700","樹林區"
"238023","601-UM","2017/06/15 20:09:03","新北市樹林區中正路261號","121.421991666667","25.0045266666667","6500700","樹林區"
"238021","311-TH","2017/06/15 20:09:15","新北市樹林區佳園路三段181巷99號","121.391273333333","24.9483516666667","6500700","樹林區"
"238017","283-BY","2017/06/15 20:09:21","新北市樹林區保安街二段45巷40-5號","121.413851666667","25.000215","6500700","樹林區"
"238020","268-VK","2017/06/15 20:09:19","新北市樹林區俊英街121巷24號","121.423375","25.0101216666667","6500700","樹林區"
"239006","891-R6","2017/06/15 20:09:18","新北市鶯歌區文化路60號","121.356325","24.9546466666667","6500800","鶯歌區"
"221036","130-UY","2017/06/15 20:09:11","新北市汐止區新台五路二段27號","121.662771666667","25.066235","6501100","汐止區"
"221015","131-UY","2017/06/15 20:09:01","新北市汐止區建成路23巷45號","121.664335","25.07208","6501100","汐止區"
"221010","269-BY","2017/06/15 20:09:08","新北市汐止區八連路一段86巷1號","121.644428333333","25.080165","6501100","汐止區"
"221012","278-VK","2017/06/15 20:09:13","新北市汐止區汐平路二段15號","121.695855","25.0642366666667","6501100","汐止區"
"221023","279-VK","2017/06/15 19:38:09","新北市汐止區中興路270號","121.628881666667","25.0688333333333","6501100","汐止區"
"221032","280-BY","2017/06/15 20:09:05","新北市汐止區弘道街10號","121.616975","25.0485966666667","6501100","汐止區"
"221027","281-BY","2017/06/15 20:09:11","新北市汐止區中正路131號","121.660116666667","25.0693116666667","6501100","汐止區"
"221038","297-VK","2017/06/15 20:09:03","新北市汐止區忠孝東路428-3號","121.666088333333","25.072105","6501100","汐止區"
"221029","298-VK","2017/06/15 20:09:05","新北市汐止區樟樹一路119巷10弄1號","121.641243333333","25.0645633333333","6501100","汐止區"
"221021","299-VK","2017/06/15 19:44:13","新北市汐止區莊敬街131巷6號","121.654596666667","25.0604233333333","6501100","汐止區"
"221035","622-UM","2017/06/15 20:09:11","新北市汐止區長江街67巷2弄1號","121.656653333333","25.0722533333333","6501100","汐止區"
"221025","623-UM","2017/06/15 20:09:02","新北市汐止區秀峰路78號","121.659925","25.0642516666667","6501100","汐止區"
"221033","647-BX","2017/06/15 20:09:03","新北市汐止區東勢街201巷104號","121.633581666667","25.0429","6501100","汐止區"
"221002","707-TV","2017/06/15 20:09:05","新北市汐止區大同路一段219巷26號","121.633168333333","25.0584833333333","6501100","汐止區"
"221018","753-BX","2017/06/15 20:09:14","新北市汐止區茄苳路327號","121.673816666667","25.0663366666667","6501100","汐止區"
"220079","145-BY","2017/06/15 20:09:18","新北市板橋區南雅西路二段145巷6號","121.451743333333","25.0119116666667","6500100","板橋區"
"220093","146-RM","2017/06/15 20:09:17","新北市板橋區長江路二段295號","121.470546666667","25.0331566666667","6500100","板橋區"
"220101","245-BX","2017/06/15 20:09:03","新北市板橋區雙十路一段44巷36號","121.477246666667","25.0248016666667","6500100","板橋區"
"220072","277-BY","2017/06/15 20:09:18","新北市板橋區金門街127巷14號","121.433481666667","24.9911433333333","6500100","板橋區"
"220071","283-VK","2017/06/15 20:09:11","新北市板橋區五權街32巷2-1號","121.464783333333","24.9932066666667","6500100","板橋區"
"220089","285-UM","2017/06/15 20:09:21","新北市板橋區互助街106號","121.459765","25.0259783333333","6500100","板橋區"
"220083","286-VK","2017/06/15 20:09:11","新北市板橋區僑中二街8巷16號","121.44648","25.0113016666667","6500100","板橋區"
"220081","287-VK","2017/06/15 20:09:21","新北市板橋區僑中一街82號","121.447468333333","25.0116033333333","6500100","板橋區"
"220090","288-VK","2017/06/15 20:09:14","新北市板橋區幸福路32巷32號","121.460773333333","25.0215733333333","6500100","板橋區"
"220061","293-UM","2017/06/15 20:09:14","新北市板橋區中山路二段7號","121.471953333333","25.01488","6500100","板橋區"
"220084","296-UM","2017/06/15 20:09:14","新北市板橋區溪崑二街103巷9號","121.427058333333","24.9888","6500100","板橋區"
"220075","297-UM","2017/06/15 20:09:13","新北市板橋區金華街9巷7號","121.455153333333","25.0202183333333","6500100","板橋區"
"220097","299-UM","2017/06/15 20:09:16","新北市板橋區文化路一段221巷10號","121.463248333333","25.0177533333333","6500100","板橋區"
"220062","305-R5","2017/06/15 20:09:17","新北市板橋區萬安街142-2號","121.483946666667","25.0264733333333","6500100","板橋區"
"220092","307-R5","2017/06/15 20:09:17","新北市板橋區文化路一段141號","121.46189","25.0157516666667","6500100","板橋區"
"220098","317-R6","2017/06/15 20:09:15","新北市板橋區新海路72巷64號","121.461866666667","25.023485","6500100","板橋區"
"220080","461-BY","2017/06/15 20:09:11","新北市板橋區大觀路二段155號","121.445593333333","25.0007216666667","6500100","板橋區"
"220088","491-VK","2017/06/15 20:09:03","新北市板橋區民治街42巷1號","121.478995","25.0337183333333","6500100","板橋區"
"220103","561-BX","2017/06/15 20:09:13","新北市板橋區文化路一段435巷31弄21號","121.466808333333","25.0226083333333","6500100","板橋區"
"220091","637-BX","2017/06/15 20:09:06","新北市板橋區文聖街73號","121.477351666667","25.0306616666667","6500100","板橋區"
"220057","686-BX","2017/06/15 20:09:11","新北市板橋區廣和街83號","121.462791666667","24.9919083333333","6500100","板橋區"
"220054","741-BX","2017/06/15 20:09:18","新北市板橋區忠孝路201巷99號","121.464608333333","25.00506","6500100","板橋區"
"220055","827-TW","2017/06/15 20:09:15","新北市板橋區仁愛路74號","121.46053","24.9994316666667","6500100","板橋區"
"220067","829-TW","2017/06/15 20:09:15","新北市板橋區中山路一段279號","121.469755","25.0138716666667","6500100","板橋區"
"220102","830-TW","2017/06/15 20:09:14","新北市板橋區民治街135號","121.47774","25.0307183333333","6500100","板橋區"
"220096","831-TW","2017/06/15 20:09:16","新北市板橋區文化路一段370-1號","121.469828333333","25.0235433333333","6500100","板橋區"
"220074","895-R6","2017/06/15 20:09:02","新北市板橋區東門街1-1號","121.458008333333","25.0088983333333","6500100","板橋區"
"220073","985-R7","2017/06/15 20:09:17","新北市板橋區南雅西路二段108號","121.452231666667","25.0119766666667","6500100","板橋區"
"220070","AAC-253","2017/06/15 20:09:10","新北市板橋區成都街87號","121.462905","25.0052016666667","6500100","板橋區"
