"lineid","car","time","location","longitude","latitude","cityid","cityname"
"234081","298-R6","2017/06/15 20:39:05","新北市永和區福和路143號","121.520845","25.00753","6500400","永和區"
"234038","336-UY","2017/06/15 20:38:44","新北市中和區成功路97巷5弄2號","121.527615","24.9922966666667","6500400","永和區"
"234064","337-UY","2017/06/15 20:39:20","新北市永和區永利路80號","121.520521666667","25.0041","6500400","永和區"
"234084","338-UY","2017/06/15 19:03:25","新北市永和區福和路1號","121.526158333333","25.0097666666667","6500400","永和區"
"234028","746-BX","2017/06/15 20:39:14","新北市新店區安德街148巷37號","121.507196666667","24.9612316666667","6500400","永和區"
"234086","840-RS","2017/06/15 20:39:06","新北市永和區光復街26-1號","121.516541666667","25.01737","6500400","永和區"
"234061","AAD-866","2017/06/15 20:39:13","新北市永和區安樂路194巷37號","121.51649","25.0011833333333","6500400","永和區"
"249001","173-UM","2017/06/15 20:39:15","新北市八里區中山路三段382號","121.368608333333","25.1362166666667","6502300","八里區"
"249004","303-UY","2017/06/15 20:39:21","新北市八里區中山路一段159號","121.412551666667","25.1588516666667","6502300","八里區"
"249002","305-UY","2017/06/15 20:38:59","新北市八里區龍米路三段58-12號","121.424436666667","25.1592833333333","6502300","八里區"
"234023","9380-KE","2017/06/15 20:39:12","新北市永和區永和路二段254號","121.516105","25.014875","6500400","永和區"
"234074","AAC-211","2017/06/15 20:39:09","新北市永和區竹林路121號","121.520093333333","25.01137","6500400","永和區"
"234067","AAC-212","2017/06/15 20:39:13","新北市永和區保平路292巷46弄2號","121.507481666667","25.005365","6500400","永和區"
"243009","297-R6","2017/06/15 20:39:12","新北市泰山區泰林路二段538號","121.42347","25.0640233333333","6501600","泰山區"
"243014","421-VK","2017/06/15 20:39:03","新北市泰山區橫窠雅36號","121.403138333333","25.0715833333333","6501600","泰山區"
"243011","549-UM","2017/06/15 20:39:04","新北市泰山區明志路二段390號","121.425265","25.0444533333333","6501600","泰山區"
"222003","436-BY","2017/06/15 20:39:17","新北市深坑區阿柔洋25-1號","121.61317","24.9990266666667","6501800","深坑區"
"222002","659-BX","2017/06/15 20:39:14","新北市深坑區萬福路55號","121.599846666667","25.0070383333333","6501800","深坑區"
"222001","696-SL","2017/06/15 20:39:12","新北市深坑區北深路三段258號","121.59969","25.0044933333333","6501800","深坑區"
"231041","002-UM","2017/06/15 20:39:12","新北市新店區中正路543-4號","121.533723333333","24.98744","6500600","新店區"
"231056","0291-UT","2017/06/15 20:39:00","新北市新店區中正路312巷19號","121.53806","24.9752666666667","6500600","新店區"
"231059","046-UY","2017/06/15 20:39:21","新北市新店區吉祥街15巷60號","121.499816666667","24.9451466666667","6500600","新店區"
"231061","047-UY","2017/06/15 20:39:03","新北市新店區新和街81號","121.52073","24.9861783333333","6500600","新店區"
"231060","106-UY","2017/06/15 20:39:13","新北市新店區安康路三段628號","121.478643333333","24.9458716666667","6500600","新店區"
"231051","107-UY","2017/06/15 20:39:05","新北市新店區中央七街1號","121.530673333333","24.9747433333333","6500600","新店區"
"231047","108-UY","2017/06/15 20:39:07","新北市新店區寶慶街2號","121.544296666667","24.98677","6500600","新店區"
"231052","187-VK","2017/06/15 20:39:05","新北市新店區廣興路7-2號","121.546126666667","24.9121783333333","6500600","新店區"
"231007","189-VK","2017/06/15 12:03:45","新北市新店區安華路28-1號","121.519671666667","24.9611566666667","6500600","新店區"
"231057","256-BX","2017/06/15 20:39:14","新北市新店區花園六路二段1-7號","121.554081666667","24.9330433333333","6500600","新店區"
"231063","268-BY","2017/06/15 20:39:20","新北市新店區玫瑰路4-1號","121.493635","24.9513716666667","6500600","新店區"
"231050","AAD-862","2017/06/15 20:39:14","新北市新店區建興街5號","121.540118333333","24.9764533333333","6500600","新店區"
"231058","3712-VJ","2017/06/15 20:39:03","新北市新店區中正路329巷9弄8號","121.535233333333","24.9735683333333","6500600","新店區"
"231065","512-UM","2017/06/15 20:39:20","新北市新店區安祥路102巷121弄2號","121.486156666667","24.9645666666667","6500600","新店區"
"231054","513-UM","2017/06/15 20:39:03","新北市新店區北新路一段64巷39弄4號","121.542555","24.96582","6500600","新店區"
"231064","515-UM","2017/06/15 20:39:21","新北市新店區安和路三段175號","121.51568","24.9862983333333","6500600","新店區"
"231045","617-UM","2017/06/15 20:39:11","新北市新店區長春路142號","121.556995","24.9613716666667","6500600","新店區"
"231040","619-UM","2017/06/15 20:39:16","新北市新店區中正路263巷6號","121.538365","24.973345","6500600","新店區"
"231042","641-BX","2017/06/15 20:39:07","新北市新店區寶高路120巷1號","121.55461","24.975995","6500600","新店區"
"231068","718-UY","2017/06/15 20:39:22","新北市新店區寶元路一段85巷10號","121.54314","24.9860416666667","6500600","新店區"
"231049","719-UM","2017/06/15 20:39:15","新北市新店區永業路81巷34號","121.530143333333","24.948395","6500600","新店區"
"231062","720-UM","2017/06/15 20:39:04","新北市新店區安康路三段312號","121.487166666667","24.95177","6500600","新店區"
"231044","897-TW","2017/06/15 20:39:17","新北市新店區建國路293巷1號","121.536715","24.9861783333333","6500600","新店區"
"231043","899-TW","2017/06/15 20:39:08","新北市新店區建國路40號","121.540568333333","24.9748183333333","6500600","新店區"
"231066","AKT-0513","2017/06/15 20:39:19","新北市新店區安興路105號","121.514741666667","24.9777933333333","6500600","新店區"
"241011","013-R5","2017/06/15 20:39:16","新北市三重區龍門路116號","121.4978","25.0728883333333","6500200","三重區"
"241028","022-UY","2017/06/15 20:39:10","新北市三重區光興街103號","121.497106666667","25.059925","6500200","三重區"
"241008","059-VK","2017/06/15 20:39:13","新北市三重區下竹圍街42號","121.481023333333","25.074935","6500200","三重區"
"241009","060-VK","2017/06/15 20:39:21","新北市三重區仁愛街578號","121.484791666667","25.0812633333333","6500200","三重區"
"241031","061-VK","2017/06/15 20:39:06","新北市三重區重陽路一段43巷30號","121.488263333333","25.0586016666667","6500200","三重區"
"241015","062-VK","2017/06/15 20:39:06","新北市三重區三和路二段154巷27號","121.498036666667","25.0680633333333","6500200","三重區"
"241017","063-VK","2017/06/15 20:39:07","新北市三重區大同北路228號","121.490701666667","25.0674566666667","6500200","三重區"
"241024","065-VK","2017/06/15 20:39:06","新北市三重區忠孝路三段36號","121.481293333333","25.0665666666667","6500200","三重區"
"241026","066-VK","2017/06/15 20:39:17","新北市三重區和平街1號","121.500081666667","25.0623516666667","6500200","三重區"
"241002","090-VK","2017/06/15 20:39:03","新北市三重區仁義街167巷34號","121.498433333333","25.0823183333333","6500200","三重區"
"241003","091-VK","2017/06/15 20:39:12","新北市三重區五華街141巷58號","121.493558333333","25.0867933333333","6500200","三重區"
"241005","262-UM","2017/06/15 20:39:09","新北市三重區碧華街418號","121.492216666667","25.08525","6500200","三重區"
"241013","265-UM","2017/06/15 20:39:16","新北市三重區三和路四段23號","121.491063333333","25.074185","6500200","三重區"
"241016","266-UM","2017/06/15 20:39:03","新北市三重區長壽西街143-3號","121.494428333333","25.0668183333333","6500200","三重區"
"241022","267-UM","2017/06/15 20:39:06","新北市三重區民生街61巷6弄3號","121.488578333333","25.0619966666667","6500200","三重區"
"241018","268-UM","2017/06/15 20:39:08","新北市三重區重陽路四段57號","121.492023333333","25.0704516666667","6500200","三重區"
"241025","271-UM","2017/06/15 20:39:10","新北市三重區大有街1-32號","121.476821666667","25.0652716666667","6500200","三重區"
"241007","398-BY","2017/06/15 20:39:19","新北市三重區三和路四段95-6號","121.48784","25.0761383333333","6500200","三重區"
"241020","412-TH","2017/06/15 20:39:11","新北市三重區三和路三段140號","121.493408333333","25.0723133333333","6500200","三重區"
"241004","475-VK","2017/06/15 20:39:16","新北市三重區仁愛街418號","121.490513333333","25.0813883333333","6500200","三重區"
"241019","478-VK","2017/06/15 20:39:00","新北市三重區大智街129-1號","121.491178333333","25.070365","6500200","三重區"
"241030","480-VK","2017/06/15 20:39:06","新北市三重區成功路73巷20號","121.48946","25.05198","6500200","三重區"
"241014","543-UM","2017/06/15 20:39:14","新北市三重區三和路二段172號","121.499053333333","25.0687533333333","6500200","三重區"
"241023","545-UM","2017/06/15 20:39:00","新北市三重區頂崁街203巷29弄3號","121.478143333333","25.0667316666667","6500200","三重區"
"241001","547-UM","2017/06/15 20:39:06","新北市三重區自強路三段110巷3號","121.486605","25.07473","6500200","三重區"
"241006","AAD-863","2017/06/15 20:39:13","新北市三重區車路頭街139巷14號","121.48428","25.0761883333333","6500200","三重區"
"241035","743-BX","2017/06/15 20:39:12","新北市三重區三和路三段116號","121.493885","25.07232","6500200","三重區"
"241012","887-TS","2017/06/15 20:39:06","新北市三重區秀江街6號","121.502661666667","25.07304","6500200","三重區"
"241029","942-UM","2017/06/15 20:39:22","新北市三重區集美街126巷28號","121.490081666667","25.0539716666667","6500200","三重區"
"241033","AAC-255","2017/06/15 20:39:16","新北市三重區光復路二段1號","121.472255","25.05335","6500200","三重區"
"235039","097-UM","2017/06/15 20:38:59","新北市中和區大勇街27巷8號","121.517093333333","24.9938416666667","6500300","中和區"
"235072","301-VK","2017/06/15 20:39:16","新北市板橋區長江路二段311巷18-1號","121.468925","25.0356283333333","6500300","中和區"
"235050","4979-A6","2017/06/15 20:39:05","新北市中和區景平路385巷9弄3號","121.502478333333","24.9941016666667","6500300","中和區"
"235069","4980-A6","2017/06/15 20:39:07","新北市中和區中正路550號","121.487141666667","24.994705","6500300","中和區"
"235026","800-TS","2017/06/15 20:39:19","新北市中和區員山路36巷16-3號","121.484991666667","24.9914716666667","6500300","中和區"
"235037","AAC-213","2017/06/15 20:39:16","新北市中和區自立路141巷17號","121.523238333333","24.993785","6500300","中和區"
"247020","893-R6","2017/06/15 20:39:18","新北市蘆洲區仁愛街8號","121.472526666667","25.0924166666667","6501400","蘆洲區"
"247010","546-UM","2017/06/15 20:39:20","新北市蘆洲區集賢路400號","121.48019","25.0821333333333","6501400","蘆洲區"
"247006","341-TH","2017/06/15 20:39:14","新北市蘆洲區和平路146號","121.466811666667","25.0809016666667","6501400","蘆洲區"
"247008","339-TH","2017/06/15 20:39:11","新北市蘆洲區重陽街42-1號","121.481181666667","25.08245","6501400","蘆洲區"
"247024","337-TH","2017/06/15 20:39:09","新北市蘆洲區長樂路229號","121.46165","25.089385","6501400","蘆洲區"
"247002","336-TH","2017/06/15 20:39:10","新北市蘆洲區長安街375巷6號","121.456973333333","25.0878766666667","6501400","蘆洲區"
"247014","057-VK","2017/06/15 20:39:12","新北市蘆洲區成功路76號","121.47311","25.08134","6501400","蘆洲區"
"247004","056-VK","2017/06/15 20:39:01","新北市蘆洲區長安街297號","121.457996666667","25.0848216666667","6501400","蘆洲區"
"247012","007-UY","2017/06/15 20:39:03","新北市蘆洲區中興街81號","121.482215","25.0880533333333","6501400","蘆洲區"
"247022","002-UY","2017/06/15 20:39:19","新北市蘆洲區中正路243巷7弄7號","121.467461666667","25.08613","6501400","蘆洲區"
"247016","001-UY","2017/06/15 20:39:11","新北市蘆洲區中山二路288號","121.468846666667","25.077765","6501400","蘆洲區"
"223003","205-TH","2017/06/15 17:17:35","新北市中和區興南路三段35號","121.497026666667","24.9781016666667","6501900","石碇區"
"251001","011-UM","2017/06/15 20:39:16","新北市淡水區淡金路218號","121.46014","25.1668583333333","6501000","淡水區"
"251008","181-VK","2017/06/15 20:39:17","新北市淡水區新市二路二段6號","121.426338333333","25.1956166666667","6501000","淡水區"
"251014","182-VK","2017/06/15 20:39:22","新北市淡水區桂竹圍13號","121.472511666667","25.232465","6501000","淡水區"
"251010","413-VK","2017/06/15 20:39:03","新北市淡水區沙崙路181巷15號","121.423975","25.1843916666667","6501000","淡水區"
"251012","441-VK","2017/06/15 20:39:08","新北市淡水區興仁路108號","121.45169","25.21814","6501000","淡水區"
"251016","442-VK","2017/06/15 20:39:16","新北市淡水區後洲子8-2號","121.449518333333","25.2240266666667","6501000","淡水區"
"251006","561-UM","2017/06/15 20:39:13","新北市淡水區商工路196巷3號","121.450966666667","25.187165","6501000","淡水區"
"251002","672-BX","2017/06/15 20:39:02","新北市淡水區中正路32號","121.443895","25.16923","6501000","淡水區"
"251003","766-UM","2017/06/15 20:39:19","新北市淡水區新民街152巷6弄22號","121.438721666667","25.1785766666667","6501000","淡水區"
"252001","292-VK","2017/06/15 20:39:04","新北市三芝區中山路一段120號","121.502448333333","25.2560366666667","6502100","三芝區"
"236009","165-UM","2017/06/15 11:34:25","新北市土城區永平街51號","121.427941666667","24.959195","6501300","土城區"
"236003","339-SR","2017/06/15 10:57:12","新北市土城區永平街51號","121.427651666667","24.959195","6501300","土城區"
"236002","370-SL","2017/06/15 15:49:36","新北市土城區永平街51號","121.427636666667","24.9591683333333","6501300","土城區"
"236062","915-UM","2017/06/15 20:39:17","新北市土城區立德路135巷5弄1號","121.464926666667","24.9869566666667","6501300","土城區"
"242021","AAC-296","2017/06/15 20:39:19","新北市新莊區公園路116號","121.451346666667","25.039865","6500500","新莊區"
"242029","986-R7","2017/06/15 20:39:03","新北市新莊區中華路二段89號","121.452658333333","25.0493816666667","6500500","新莊區"
"242048","751-BX","2017/06/15 20:39:10","新北市新莊區中正路857-4號","121.419048333333","25.0277766666667","6500500","新莊區"
"242025","615-BX","2017/06/15 20:39:09","新北市新莊區化成路579巷1號","121.46434","25.0661266666667","6500500","新莊區"
"242023","613-BX","2017/06/15 20:39:19","新北市新莊區化成路610號","121.466148333333","25.0547533333333","6500500","新莊區"
"242027","612-BX","2017/06/15 20:39:17","新北市新莊區思源路153號","121.459928333333","25.0442966666667","6500500","新莊區"
"242036","566-BX","2017/06/15 20:39:08","新北市新莊區後港一路94巷1弄2號","121.42781","25.0264233333333","6500500","新莊區"
"242042","497-BY","2017/06/15 20:39:04","新北市新莊區天祥街21號","121.417441666667","25.0279333333333","6500500","新莊區"
"242004","442-UM","2017/06/15 20:39:15","新北市新莊區化成路385號","121.465388333333","25.05835","6500500","新莊區"
"242046","441-UM","2017/06/15 20:38:59","新北市新莊區中正路879-17號","121.418285","25.025725","6500500","新莊區"
"242051","440-UM","2017/06/15 20:39:18","新北市新莊區民安西路143號","121.426251666667","25.0168783333333","6500500","新莊區"
"242031","415-TV","2017/06/15 20:39:07","新北市新莊區中正路508巷5弄19號","121.435291666667","25.033615","6500500","新莊區"
"242002","413-TV","2017/06/15 20:39:16","新北市新莊區中正路153-3號","121.45588","25.0368383333333","6500500","新莊區"
"242039","400-BY","2017/06/15 20:39:17","新北市新莊區民安路383號","121.431925","25.0230716666667","6500500","新莊區"
"242061","362-BY","2017/06/15 20:39:14","新北市新莊區新樹路262號","121.43276","25.0148266666667","6500500","新莊區"
"242058","353-BY","2017/06/15 20:39:10","新北市新莊區四維路149號","121.42258","25.0220816666667","6500500","新莊區"
"242011","132-UY","2017/06/15 20:39:19","新北市新莊區中榮街104巷1號","121.447215","25.0529816666667","6500500","新莊區"
"242019","135-UY","2017/06/15 20:39:21","新北市新莊區銘德街112號","121.455425","25.0433016666667","6500500","新莊區"
"242044","172-VK","2017/06/15 20:39:13","新北市新莊區龍安路60號","121.41509","25.0217","6500500","新莊區"
"242007","173-VK","2017/06/15 20:39:05","新北市新莊區思源路287巷2弄13號","121.45918","25.0487683333333","6500500","新莊區"
"242013","175-VK","2017/06/15 20:39:16","新北市新莊區中平路330號","121.445321666667","25.052205","6500500","新莊區"
"242056","176-VK","2017/06/15 20:39:10","新北市新莊區瓊泰路94巷38號","121.444548333333","25.0294233333333","6500500","新莊區"
"242034","347-TH","2017/06/15 20:39:00","新北市新莊區中正路334巷16號","121.445696666667","25.03563","6500500","新莊區"
"242017","348-TH","2017/06/15 20:39:03","新北市新莊區中港三街25號","121.450401666667","25.0463066666667","6500500","新莊區"
"242053","349-TH","2017/06/15 20:39:11","新北市新莊區西盛街323巷9號","121.428826666667","25.014815","6500500","新莊區"
"242015","350-TH","2017/06/15 20:39:14","新北市新莊區中平路46巷16號","121.445481666667","25.0437333333333","6500500","新莊區"
"242009","351-TH","2017/06/15 20:39:05","新北市新莊區幸福路64巷3弄3號","121.45698","25.0498616666667","6500500","新莊區"
"238023","601-UM","2017/06/15 20:39:03","新北市樹林區中山路三段204號","121.387288333333","24.9682783333333","6500700","樹林區"
"221036","130-UY","2017/06/15 20:39:11","新北市汐止區新昌路1號","121.66222","25.0670233333333","6501100","汐止區"
"221015","131-UY","2017/06/15 20:39:21","新北市汐止區建成路56巷6號","121.66365","25.0730366666667","6501100","汐止區"
"221012","278-VK","2017/06/15 20:39:13","新北市汐止區汐萬路一段39號","121.65502","25.0691733333333","6501100","汐止區"
"221023","279-VK","2017/06/15 19:38:09","新北市汐止區中興路270號","121.628881666667","25.0688333333333","6501100","汐止區"
"221032","280-BY","2017/06/15 20:39:05","新北市汐止區橫科路221巷19-1號","121.62152","25.0495083333333","6501100","汐止區"
"221027","281-BY","2017/06/15 20:39:14","新北市汐止區大同路二段447號","121.65958","25.0675816666667","6501100","汐止區"
"221038","297-VK","2017/06/15 20:39:03","新北市汐止區忠孝東路468號","121.666158333333","25.0731233333333","6501100","汐止區"
"221029","298-VK","2017/06/15 20:39:05","新北市汐止區新台五路一段79-13號","121.645401666667","25.0620483333333","6501100","汐止區"
"221021","299-VK","2017/06/15 20:21:33","新北市汐止區南興路83巷15號","121.653893333333","25.05913","6501100","汐止區"
"221035","622-UM","2017/06/15 20:39:11","新北市汐止區長江街101-5號","121.65883","25.0731466666667","6501100","汐止區"
"221025","623-UM","2017/06/15 20:39:02","新北市汐止區水源路二段183號","121.65785","25.0536516666667","6501100","汐止區"
"221033","647-BX","2017/06/15 20:39:03","新北市汐止區合順街18巷8弄5號","121.620278333333","25.0418666666667","6501100","汐止區"
"221002","707-TV","2017/06/15 20:39:05","新北市汐止區福德二路121號","121.631323333333","25.065295","6501100","汐止區"
"221018","753-BX","2017/06/15 20:39:14","新北市汐止區茄苳路66號","121.666621666667","25.0706716666667","6501100","汐止區"
"220083","286-VK","2017/06/15 20:39:17","新北市板橋區僑中二街102巷17號","121.44536","25.0082016666667","6500100","板橋區"
"220081","287-VK","2017/06/15 20:39:21","新北市板橋區大觀路二段46號","121.445391666667","25.0007783333333","6500100","板橋區"
"220103","561-BX","2017/06/15 20:39:13","新北市板橋區漢生東路53巷28號","121.466758333333","25.0173166666667","6500100","板橋區"
"220102","830-TW","2017/06/15 20:39:14","新北市三重區重新路五段326巷25-1號","121.4792","25.04338","6500100","板橋區"
"220074","895-R6","2017/06/15 20:39:22","新北市板橋區華興街90號","121.456686666667","25.0054016666667","6500100","板橋區"
"220070","AAC-253","2017/06/15 20:39:10","新北市板橋區大觀路三段36巷5號","121.433606666667","24.9957633333333","6500100","板橋區"
