"lineid","car","time","location","longitude","latitude","cityid","cityname"
"248005","653-BX","2017/06/16 06:48:47","新北市五股區中興路二段83巷26-6號","121.459968333333","25.07526","6501500","五股區"
"232008","290-BY","2017/06/16 06:48:52","新北市坪林區鶯子瀨2-10號","121.707751666667","24.9131816666667","6502000","坪林區"
"232003","291-BY","2017/06/16 06:48:39","新北市坪林區國中路4號","121.713168333333","24.937795","6502000","坪林區"
"232015","705-BZ","2017/06/16 06:48:39","新北市坪林區北宜路八段145號","121.706885","24.9345883333333","6502000","坪林區"
"232019","758-BX","2017/06/16 06:48:47","新北市坪林區坪雙路一段68號","121.715465","24.94328","6502000","坪林區"
"244004","248-BX","2017/06/16 06:48:40","新北市林口區粉寮路二段160巷28號","121.405153333333","25.090755","6501700","林口區"
"235066","003-UY","2017/06/16 06:48:52","新北市中和區莊敬路31巷36-1號","121.499936666667","25.0059016666667","6500300","中和區"
"223006","022-BY","2017/06/16 06:48:48","新北市石碇區碇坪路一段10號","121.651638333333","25.005985","6501900","石碇區"
"223002","198-BX","2017/06/16 06:48:41","新北市石碇區烏塗窟36號","121.655113333333","24.9738466666667","6501900","石碇區"
"223008","406-TH","2017/06/16 06:48:46","新北市石碇區碇坪路一段98號","121.658096666667","24.9913283333333","6501900","石碇區"
"223001","592-UM","2017/06/16 06:48:54","新北市石碇區石崁31號","121.658678333333","24.9913766666667","6501900","石碇區"
"223004","660-BX","2017/06/16 06:48:43","新北市石碇區碇坪路一段49號","121.65912","24.9913616666667","6501900","石碇區"
"223007","661-BX","2017/06/16 06:48:56","新北市石碇區靜安路一段87號","121.652445","25.0072483333333","6501900","石碇區"
"223005","677-TV","2017/06/16 06:48:47","新北市石碇區碇坪路一段130號","121.659436666667","24.9914366666667","6501900","石碇區"
"227005","282-VK","2017/06/16 06:48:45","新北市雙溪區新基里自強路7號","121.866255","25.0390783333333","6502500","雙溪區"
"236071","105-UM","2017/06/16 06:43:39","新北市土城區城林路6巷80號","121.43834","24.9796566666667","6501300","土城區"
"236010","165-UM","2017/06/16 06:48:54","新北市土城區永平街51號","121.427951666667","24.959145","6501300","土城區"
"236078","166-UM","2017/06/16 06:46:50","新北市土城區城林路6巷80號","121.438328333333","24.9797733333333","6501300","土城區"
