"lineid","car","time","location","longitude","latitude","cityid","cityname"
"248005","653-BX","2017/06/16 07:18:48","新北市五股區明德路12巷1號","121.433258333333","25.071675","6501500","五股區"
"232008","290-BY","2017/06/16 07:18:52","新北市坪林區魚堀8-5號","121.708308333333","24.906095","6502000","坪林區"
"232003","291-BY","2017/06/16 07:16:39","新北市坪林區大粗坑27號","121.70868","24.962415","6502000","坪林區"
"232015","705-BZ","2017/06/16 07:18:39","新北市坪林區黃舉皮寮2-2號","121.687833333333","24.9412283333333","6502000","坪林區"
"232019","758-BX","2017/06/16 07:18:47","新北市坪林區樟空子9-1號","121.724383333333","24.9715366666667","6502000","坪林區"
"244004","248-BX","2017/06/16 07:18:40","新北市林口區頂福里71-28號","121.357308333333","25.0779466666667","6501700","林口區"
"243002","548-UM","2017/06/16 07:18:47","新北市泰山區明志路一段95號","121.433533333333","25.063965","6501600","泰山區"
"235066","003-UY","2017/06/16 07:18:52","新北市中和區廟美街11號","121.500871666667","25.0015433333333","6500300","中和區"
"247002","402-BY","2017/06/16 07:18:52","新北市蘆洲區長安街222號","121.458185","25.0853083333333","6501400","蘆洲區"
"226005","5620-A6","2017/06/16 07:18:55","新北市平溪區靜安路二段125號","121.722108333333","25.0234283333333","6502400","平溪區"
"226001","8452-VL","2017/06/16 07:18:57","新北市平溪區望古里灰3-1號","121.757146666667","25.02966","6502400","平溪區"
"226003","AGD-0702","2017/06/16 07:18:54","新北市平溪區靜安路二段294巷18號","121.735261666667","25.023755","6502400","平溪區"
"223006","022-BY","2017/06/16 07:18:48","新北市石碇區碇坪路二段86號","121.685545","24.9613983333333","6501900","石碇區"
"223002","198-BX","2017/06/16 07:18:40","新北市石碇區碇格路二段9號","121.643455","24.9562683333333","6501900","石碇區"
"223008","406-TH","2017/06/16 07:18:46","新北市石碇區靜安路一段276號","121.684563333333","25.00918","6501900","石碇區"
"223001","592-UM","2017/06/16 07:18:54","新北市石碇區烏塗窟11號","121.655461666667","24.9746683333333","6501900","石碇區"
"223004","660-BX","2017/06/16 07:18:43","新北市石碇區楓子林36-3號","121.642333333333","25.0095183333333","6501900","石碇區"
"223007","661-BX","2017/06/16 07:18:56","新北市石碇區番子坑14-3號","121.6794","25.000825","6501900","石碇區"
"223005","677-TV","2017/06/16 07:18:47","新北市石碇區楓子林43號","121.642191666667","25.010175","6501900","石碇區"
"227005","282-VK","2017/06/16 07:18:45","新北市雙溪區新基里自強路5號","121.866335","25.039075","6502500","雙溪區"
"236071","105-UM","2017/06/16 06:43:39","新北市土城區城林路6巷80號","121.43834","24.9796566666667","6501300","土城區"
"236042","107-UM","2017/06/16 06:55:04","新北市土城區城林路6巷80號","121.438391666667","24.9798066666667","6501300","土城區"
"236007","137-TH","2017/06/16 07:11:18","新北市土城區城林路6巷80號","121.438741666667","24.9796166666667","6501300","土城區"
"236010","165-UM","2017/06/16 07:18:54","新北市土城區學府路一段81號","121.456693333333","24.988135","6501300","土城區"
"236078","166-UM","2017/06/16 06:46:50","新北市土城區城林路6巷80號","121.438328333333","24.9797733333333","6501300","土城區"
"236004","339-SR","2017/06/16 07:18:57","新北市土城區南天母路139-1號","121.447658333333","24.953775","6501300","土城區"
"236051","913-UM","2017/06/16 06:52:03","新北市土城區城林路6巷80號","121.438331666667","24.9798466666667","6501300","土城區"
