"lineid","car","time","location","longitude","latitude","cityid","cityname"
"248005","653-BX","2017/06/16 07:48:48","新北市五股區明德路12巷1號","121.433343333333","25.071745","6501500","五股區"
"232008","290-BY","2017/06/16 07:44:12","新北市坪林區魚堀5號","121.712893333333","24.902545","6502000","坪林區"
"232015","705-BZ","2017/06/16 07:31:29","新北市坪林區北宜路七段338號","121.696956666667","24.9348716666667","6502000","坪林區"
"232019","758-BX","2017/06/16 07:48:47","新北市坪林區九芎坑13號","121.737101666667","24.9516033333333","6502000","坪林區"
"244004","248-BX","2017/06/16 07:48:40","新北市林口區下福里10-1號","121.31308","25.1119183333333","6501700","林口區"
"243002","548-UM","2017/06/16 07:48:47","新北市泰山區明志路一段95號","121.433576666667","25.063975","6501600","泰山區"
"222005","289-BY","2017/06/16 07:48:55","新北市深坑區文化街78號","121.61802","25.0019516666667","6501800","深坑區"
"235066","003-UY","2017/06/16 07:48:52","新北市中和區廟美街5號","121.500725","25.0014383333333","6500300","中和區"
"247002","402-BY","2017/06/16 07:48:52","新北市蘆洲區三民路155號","121.471536666667","25.0868883333333","6501400","蘆洲區"
"226005","5620-A6","2017/06/16 07:44:35","新北市平溪區嶺腳里嶺腳寮83-2號","121.749923333333","25.0353","6502400","平溪區"
"226001","8452-VL","2017/06/16 07:48:37","新北市平溪區平湖里大厝1號","121.780153333333","25.0388083333333","6502400","平溪區"
"226003","AGD-0702","2017/06/16 07:45:54","新北市平溪區嶺腳里嶺腳寮83-2號","121.750298333333","25.0349483333333","6502400","平溪區"
"223006","022-BY","2017/06/16 07:48:48","新北市坪林區北宜路八段558號","121.717176666667","24.9095333333333","6501900","石碇區"
"223002","198-BX","2017/06/16 07:48:41","新北市石碇區北宜路六段獅子頭坑巷18號","121.63915","24.9311633333333","6501900","石碇區"
"223008","406-TH","2017/06/16 07:48:46","新北市石碇區靜安路一段337號","121.699056666667","25.0145233333333","6501900","石碇區"
"223001","592-UM","2017/06/16 07:48:34","新北市石碇區月扇湖3-2號","121.657616666667","24.9560166666667","6501900","石碇區"
"223004","660-BX","2017/06/16 07:48:43","新北市石碇區新興坑3號","121.654485","25.01665","6501900","石碇區"
"223007","661-BX","2017/06/16 07:47:34","新北市石碇區靜安路一段337號","121.69891","25.0145866666667","6501900","石碇區"
"223005","677-TV","2017/06/16 07:48:47","新北市石碇區新興坑3號","121.654803333333","25.0165916666667","6501900","石碇區"
"227005","282-VK","2017/06/16 07:48:45","新北市雙溪區雙溪里太平路54號","121.864768333333","25.0354983333333","6502500","雙溪區"
"237001","159-UY","2017/06/16 07:48:47","新北市三峽區大學路75號","121.376158333333","24.941425","6500900","三峽區"
"236071","105-UM","2017/06/16 06:43:39","新北市土城區城林路6巷80號","121.43834","24.9796566666667","6501300","土城區"
"236042","107-UM","2017/06/16 06:55:04","新北市土城區城林路6巷80號","121.438391666667","24.9798066666667","6501300","土城區"
"236007","137-TH","2017/06/16 07:11:18","新北市土城區城林路6巷80號","121.438741666667","24.9796166666667","6501300","土城區"
"236010","165-UM","2017/06/16 07:48:54","新北市土城區永豐路143號","121.466555","24.9835216666667","6501300","土城區"
"236078","166-UM","2017/06/16 06:46:50","新北市土城區城林路6巷80號","121.438328333333","24.9797733333333","6501300","土城區"
"236004","339-SR","2017/06/16 07:48:37","新北市土城區龍泉路89-1號","121.4463","24.9422166666667","6501300","土城區"
"236051","913-UM","2017/06/16 06:52:03","新北市土城區城林路6巷80號","121.438331666667","24.9798466666667","6501300","土城區"
