"lineid","car","time","location","longitude","latitude","cityid","cityname"
"235026","800-TS","2017/06/07 14:53:55","新北市中和區員山路36巷16-3號","121.485018333333","24.9913533333333","6500300","中和區"
"224011","AGQ-8101","2017/06/07 19:09:40","新北市瑞芳區市下巷7號","121.844305","25.1089116666667","6501200","瑞芳區"
"253005","295-VK","2017/06/07 16:56:21","新北市石門區中山路64-1號","121.567655","25.2903166666667","6502200","石門區"
"251013","180-VK","2017/06/07 19:09:26","新北市淡水區安子內12號","121.481545","25.2190833333333","6501000","淡水區"
"251015","182-VK","2017/06/07 19:09:35","新北市淡水區南勢埔27-2號","121.483396666667","25.180585","6501000","淡水區"
