"lineid","car","time","location","longitude","latitude","cityid","cityname"
"235072","301-VK","2017/06/07 19:29:43","新北市中和區中正路460號","121.490226666667","24.99425","6500300","中和區"
"235026","800-TS","2017/06/07 14:53:55","新北市中和區員山路36巷16-3號","121.485018333333","24.9913533333333","6500300","中和區"
"224011","AGQ-8101","2017/06/07 19:25:40","新北市瑞芳區山尖路209號","121.849363333333","25.11153","6501200","瑞芳區"
"253005","295-VK","2017/06/07 16:56:21","新北市石門區中山路64-1號","121.567655","25.2903166666667","6502200","石門區"
"251013","180-VK","2017/06/07 19:29:46","新北市淡水區大牛稠4號","121.469501666667","25.2198283333333","6501000","淡水區"
"251015","182-VK","2017/06/07 19:29:35","新北市淡水區北新路三段38巷7號","121.484525","25.187005","6501000","淡水區"
