"lineid","car","time","location","longitude","latitude","cityid","cityname"
"235072","301-VK","2017/06/07 19:49:43","新北市中和區中正路432巷32號","121.490978333333","24.995805","6500300","中和區"
"235026","800-TS","2017/06/07 14:53:55","新北市中和區員山路36巷16-3號","121.485018333333","24.9913533333333","6500300","中和區"
"224011","AGQ-8101","2017/06/07 19:49:40","新北市瑞芳區輕便路282號","121.844","25.1092283333333","6501200","瑞芳區"
"253005","295-VK","2017/06/07 16:56:21","新北市石門區中山路64-1號","121.567655","25.2903166666667","6502200","石門區"
"251013","180-VK","2017/06/07 19:49:46","新北市淡水區頂田寮路109號","121.4586","25.2161933333333","6501000","淡水區"
"251015","182-VK","2017/06/07 19:49:35","新北市淡水區泉洲厝25-8號","121.484128333333","25.1898633333333","6501000","淡水區"
