"lineid","car","time","location","longitude","latitude","cityid","cityname"
"235072","301-VK","2017/06/07 20:19:43","新北市新店區安德街60巷35號","121.51103","24.9636833333333","6500300","中和區"
"235026","800-TS","2017/06/07 14:53:55","新北市中和區員山路36巷16-3號","121.485018333333","24.9913533333333","6500300","中和區"
"253005","295-VK","2017/06/07 16:56:21","新北市石門區中山路64-1號","121.567655","25.2903166666667","6502200","石門區"
"251013","180-VK","2017/06/07 20:18:46","新北市淡水區相公山1-3號","121.47406","25.206765","6501000","淡水區"
"251015","182-VK","2017/06/07 20:19:35","新北市淡水區淡金路三段170號","121.448688333333","25.2027383333333","6501000","淡水區"
