"lineid","car","time","location","longitude","latitude","cityid","cityname"
"248005","653-BX","2017/06/08 07:49:35","新北市五股區明德路12巷1號","121.433246666667","25.0716783333333","6501500","五股區"
"232007","290-BY","2017/06/08 07:49:30","新北市坪林區魚堀49號","121.70103","24.9301316666667","6502000","坪林區"
"232001","291-BY","2017/06/08 07:47:34","新北市坪林區坪雙路一段88號","121.7208","24.9452","6502000","坪林區"
"232010","375-UM","2017/06/08 07:49:30","新北市坪林區磨壁潭12-2號","121.726405","24.938795","6502000","坪林區"
"232014","705-BZ","2017/06/08 07:49:25","新北市坪林區金瓜寮24號","121.678635","24.9095083333333","6502000","坪林區"
"232018","758-BX","2017/06/08 07:48:32","新北市坪林區坪雙路一段115號","121.730196666667","24.9484733333333","6502000","坪林區"
"244003","248-BX","2017/06/08 07:49:33","新北市林口區頂福里54-2號","121.338935","25.09615","6501700","林口區"
"244018","403-UM","2017/06/08 07:49:08","新北市林口區粉寮69號","121.405045","25.0908633333333","6501700","林口區"
"222006","289-BY","2017/06/08 07:49:25","新北市深坑區文化街45號","121.616881666667","25.0017083333333","6501800","深坑區"
"231008","192-VK","2017/06/08 07:49:36","新北市新店區安華路28-1號","121.519866666667","24.9611833333333","6500600","新店區"
"235001","783-BX","2017/06/08 07:49:39","新北市中和區中正路570號","121.48642","24.994665","6500300","中和區"
"247002","402-BY","2017/06/08 07:49:31","新北市蘆洲區中山一路67號","121.478323333333","25.0811883333333","6501400","蘆洲區"
"226005","5620-A6","2017/06/08 07:49:28","新北市平溪區嶺腳里嶺腳寮74-1號","121.747685","25.0325066666667","6502400","平溪區"
"226002","7418-A5","2017/06/08 07:49:25","新北市平溪區平湖里大湖9號","121.781363333333","25.0263566666667","6502400","平溪區"
"226003","AGD-0702","2017/06/08 07:48:47","新北市平溪區嶺腳里嶺腳寮106-3號","121.74576","25.0387","6502400","平溪區"
"223006","022-BY","2017/06/08 07:49:32","新北市石碇區靜安路一段262號","121.681711666667","25.0103466666667","6501900","石碇區"
"223002","198-BX","2017/06/08 07:49:33","新北市石碇區北宜路五段濕水子巷18-2號","121.63719","24.939885","6501900","石碇區"
"223003","205-TH","2017/06/08 07:49:39","新北市石碇區樟空子10-3號","121.666728333333","24.963635","6501900","石碇區"
"223008","406-TH","2017/06/08 07:49:24","新北市石碇區靜安路一段337號","121.698908333333","25.0143433333333","6501900","石碇區"
"223001","437-BY","2017/06/08 07:49:32","新北市石碇區樟空子10-2號","121.666868333333","24.9623366666667","6501900","石碇區"
"223004","660-BX","2017/06/08 07:49:30","新北市石碇區新興坑1-1號","121.65338","25.01375","6501900","石碇區"
"223007","661-BX","2017/06/08 07:49:43","新北市石碇區大湖格21-2號","121.698136666667","25.017195","6501900","石碇區"
"223005","677-TV","2017/06/08 07:49:36","新北市石碇區新興坑1-1號","121.653266666667","25.013795","6501900","石碇區"
"227007","282-VK","2017/06/08 07:49:23","新北市雙溪區雙溪里太平路54號","121.864798333333","25.0354983333333","6502500","雙溪區"
"252004","249-BX","2017/06/08 07:49:28","新北市三芝區店子里店子72-3號","121.50828","25.203045","6502100","三芝區"
"252007","AAC-283","2017/06/08 00:22:10","新北市三芝區埔坪里埔頭坑41號","121.504455","25.26445","6502100","三芝區"
"237001","159-UY","2017/06/08 07:49:38","新北市三峽區國慶路301-1號","121.37392","24.9410366666667","6500900","三峽區"
"236009","165-UM","2017/06/08 07:49:25","新北市土城區永豐路143號","121.466608333333","24.9835333333333","6501300","土城區"
"236003","339-SR","2017/06/08 07:49:39","新北市土城區龍泉路89號","121.447383333333","24.9430933333333","6501300","土城區"
"242020","AAC-296","2017/06/08 07:49:40","新北市新莊區中港一街147號","121.447733333333","25.0450666666667","6500500","新莊區"
"242028","986-R7","2017/06/08 07:49:34","新北市新莊區幸福路651號","121.451178333333","25.04918","6500500","新莊區"
"242047","751-BX","2017/06/08 07:49:21","新北市新莊區裕民街85巷20號","121.419611666667","25.023185","6500500","新莊區"
"242057","705-TV","2017/06/08 07:49:26","新北市新莊區新泰路357巷3弄1號","121.442298333333","25.041345","6500500","新莊區"
"242024","615-BX","2017/06/08 07:49:25","新北市新莊區中港一街151號","121.447661666667","25.0450233333333","6500500","新莊區"
"242022","613-BX","2017/06/08 07:49:24","新北市新莊區新泰路502巷38號","121.44355","25.0464666666667","6500500","新莊區"
"242026","612-BX","2017/06/08 07:49:25","新北市新莊區中港路326號","121.452436666667","25.045615","6500500","新莊區"
"242035","566-BX","2017/06/08 07:49:36","新北市新莊區新樹路72-7號","121.436401666667","25.0249366666667","6500500","新莊區"
"242040","497-BY","2017/06/08 07:49:30","新北市新莊區新樹路113巷33號","121.439575","25.0264233333333","6500500","新莊區"
"242003","442-UM","2017/06/08 07:49:38","新北市新莊區中港一街159號","121.447433333333","25.0449833333333","6500500","新莊區"
"242045","441-UM","2017/06/08 07:49:34","新北市新莊區新樹路67巷18號","121.440098333333","25.0300416666667","6500500","新莊區"
"242030","415-TV","2017/06/08 07:49:23","新北市新莊區新泰路417-2號","121.443175","25.04474","6500500","新莊區"
"242001","413-TV","2017/06/08 07:49:21","新北市新莊區瓊林路118號","121.442135","25.0256883333333","6500500","新莊區"
"242038","400-BY","2017/06/08 07:49:21","新北市新莊區新樹路7號","121.440878333333","25.033105","6500500","新莊區"
"242059","362-BY","2017/06/08 07:49:32","新北市新莊區三和路12-8號","121.442038333333","25.0364083333333","6500500","新莊區"
"242010","132-UY","2017/06/08 07:49:24","新北市新莊區中誠街44號","121.451293333333","25.048035","6500500","新莊區"
"242033","133-UY","2017/06/08 07:49:28","新北市新莊區瓊林路118號","121.442445","25.0257233333333","6500500","新莊區"
"242018","135-UY","2017/06/08 07:49:31","新北市新莊區中港路286號","121.452955","25.0444133333333","6500500","新莊區"
"242043","172-VK","2017/06/08 07:49:24","新北市新莊區富國路100號","121.421456666667","25.025495","6500500","新莊區"
"242006","173-VK","2017/06/08 07:49:24","新北市新莊區新泰路368號","121.443973333333","25.0426283333333","6500500","新莊區"
"242012","175-VK","2017/06/08 07:49:35","新北市新莊區新泰路502巷30號","121.443305","25.0464516666667","6500500","新莊區"
"242055","176-VK","2017/06/08 07:49:39","新北市新莊區景德路407號","121.445335","25.0333466666667","6500500","新莊區"
"242049","346-TH","2017/06/08 07:49:25","新北市新莊區瓊林路182-5號","121.439928333333","25.0215133333333","6500500","新莊區"
"242016","348-TH","2017/06/08 07:49:43","新北市新莊區中港路310號","121.452535","25.0452","6500500","新莊區"
"242052","349-TH","2017/06/08 07:49:34","新北市新莊區中環路一段281號","121.442035","25.031605","6500500","新莊區"
"242014","350-TH","2017/06/08 07:49:32","新北市新莊區建中街152號","121.444865","25.0364716666667","6500500","新莊區"
"242008","351-TH","2017/06/08 07:49:31","新北市新莊區中平路441號","121.443856666667","25.0556566666667","6500500","新莊區"
