"lineid","car","time","location","longitude","latitude","cityid","cityname"
"251013","179-VK","2017/12/17 18:59:49","新北市淡水區小坑子頭3-1號","121.489471666667","25.2129366666667","6501000","淡水區"
"251014","180-VK","2017/12/17 18:59:55","新北市淡水區崙頂3號","121.490363333333","25.2240166666667","6501000","淡水區"
"251015","182-VK","2017/12/17 18:59:40","新北市淡水區糞箕湖127號","121.488088333333","25.1726633333333","6501000","淡水區"
"251016","442-VK","2017/12/17 18:59:47","新北市淡水區埤島26-2號","121.446253333333","25.19965","6501000","淡水區"
"236011","165-UM","2017/12/17 14:08:36","新北市土城區永平街51號","121.42795","24.9591633333333","6501300","土城區"
