"lineid","car","time","location","longitude","latitude","cityid","cityname"
"251013","179-VK","2017/12/17 19:39:49","新北市淡水區店子後10號","121.46023","25.2190266666667","6501000","淡水區"
"251014","180-VK","2017/12/17 19:39:55","新北市淡水區北勢子20號","121.476098333333","25.2313316666667","6501000","淡水區"
"251015","182-VK","2017/12/17 19:39:40","新北市淡水區大埤頭5-28號","121.488983333333","25.196625","6501000","淡水區"
"251016","442-VK","2017/12/17 19:39:37","新北市淡水區下圭柔山12-3號","121.451568333333","25.2078816666667","6501000","淡水區"
"236011","165-UM","2017/12/17 14:08:36","新北市土城區永平街51號","121.42795","24.9591633333333","6501300","土城區"
