"lineid","car","time","location","longitude","latitude","cityid","cityname"
"251013","179-VK","2017/12/17 20:49:49","新北市淡水區下圭柔山28巷17號","121.457903333333","25.20388","6501000","淡水區"
"251014","180-VK","2017/12/17 20:49:34","新北市淡水區公埔子32-8號","121.461765","25.2324","6501000","淡水區"
"251015","182-VK","2017/12/17 20:49:40","新北市淡水區淡金路四段542巷17號","121.452711666667","25.2271033333333","6501000","淡水區"
"251016","442-VK","2017/12/17 20:49:57","新北市淡水區淡金路四段197號","121.451676666667","25.2218666666667","6501000","淡水區"
"236011","165-UM","2017/12/17 14:08:36","新北市土城區永平街51號","121.42795","24.9591633333333","6501300","土城區"
