"lineid","car","time","location","longitude","latitude","cityid","cityname"
"251013","179-VK","2017/12/17 21:09:49","新北市淡水區水汴頭15-1號","121.470278333333","25.2020683333333","6501000","淡水區"
"251014","180-VK","2017/12/17 21:09:54","新北市淡水區六塊厝3-2號","121.45039","25.2407033333333","6501000","淡水區"
"251015","182-VK","2017/12/17 21:09:40","新北市淡水區淡金路四段542巷66號","121.455218333333","25.22639","6501000","淡水區"
"251016","442-VK","2017/12/17 21:09:57","新北市淡水區牛埔子7-18號","121.446348333333","25.21795","6501000","淡水區"
"236011","165-UM","2017/12/17 14:08:36","新北市土城區永平街51號","121.42795","24.9591633333333","6501300","土城區"
