"lineid","car","time","location","longitude","latitude","cityid","cityname"
"251013","179-VK","2017/12/17 21:19:49","新北市淡水區行忠路330號","121.460556666667","25.1997283333333","6501000","淡水區"
"251014","180-VK","2017/12/17 21:19:54","新北市淡水區六塊厝2-1號","121.450133333333","25.2404616666667","6501000","淡水區"
"251015","182-VK","2017/12/17 21:19:40","新北市淡水區淡金路四段542巷2號","121.452068333333","25.226955","6501000","淡水區"
"251016","442-VK","2017/12/17 21:19:37","新北市淡水區淡金路三段374號","121.449421666667","25.2098766666667","6501000","淡水區"
"236011","165-UM","2017/12/17 14:08:36","新北市土城區永平街51號","121.42795","24.9591633333333","6501300","土城區"
