"lineid","car","time","location","longitude","latitude","cityid","cityname"
"232012","291-BY","2017/12/18 06:39:55","新北市坪林區北宜路八段558號","121.718035","24.908915","6502000","坪林區"
"232017","705-BZ","2017/12/18 03:00:54","新北市坪林區北宜路八段558號","121.717836666667","24.9093183333333","6502000","坪林區"
"232005","758-BX","2017/12/18 06:39:52","新北市坪林區北宜路八段558號","121.71792","24.9091566666667","6502000","坪林區"
"223006","022-BY","2017/12/18 06:39:50","新北市石碇區靜安路一段102號","121.648083333333","25.00893","6501900","石碇區"
"223002","198-BX","2017/12/18 06:39:48","新北市石碇區碇坪路一段118號","121.658533333333","24.9913416666667","6501900","石碇區"
"223001","437-BY","2017/12/18 06:39:50","新北市石碇區小粗坑(潭邊里)10號","121.679068333333","24.98891","6501900","石碇區"
"223007","661-BX","2017/12/18 06:39:45","新北市石碇區碇坪路一段18號","121.651538333333","25.003965","6501900","石碇區"
"227005","282-VK","2017/12/18 06:39:50","新北市雙溪區牡丹里聖南2號","121.860148333333","25.0507483333333","6502500","雙溪區"
"220057","282-UM","2017/12/18 06:39:51","新北市板橋區南雅南路二段116號","121.452491666667","25.0005766666667","6500100","板橋區"
