"lineid","car","time","location","longitude","latitude","cityid","cityname"
"222005","289-BY","2017/07/28 09:39:38","新北市深坑區昇高坑路30號","121.62687","25.000335","6501800","深坑區"
"231007","189-VK","2017/07/28 09:39:07","新北市新店區新潭路三段215巷25號","121.508113333333","24.904075","6500600","新店區"
"231009","192-VK","2017/07/28 09:39:49","新北市新店區平廣路一段170巷6號","121.521191666667","24.8900566666667","6500600","新店區"
"247001","402-BY","2017/07/28 09:39:48","新北市蘆洲區中興街117-2號","121.482166666667","25.0892033333333","6501400","蘆洲區"
"223008","406-TH","2017/07/28 09:36:32","新北市石碇區南勢坑2-2號","121.698206666667","24.9880466666667","6501900","石碇區"
"223004","660-BX","2017/07/28 09:39:28","新北市石碇區小粗坑(潭邊里)1-6號","121.672343333333","24.982695","6501900","石碇區"
"223007","661-BX","2017/07/28 09:33:48","新北市石碇區南勢坑12號","121.698261666667","24.98288","6501900","石碇區"
"223005","677-TV","2017/07/28 09:39:48","新北市石碇區碇坪路二段35號","121.685048333333","24.9766583333333","6501900","石碇區"
"227007","282-VK","2017/07/28 09:29:20","新北市雙溪區泰平里溪尾寮2-2號","121.819388333333","24.963575","6502500","雙溪區"
"237001","159-UY","2017/07/28 09:39:45","新北市三峽區國際一街39號","121.373038333333","24.942035","6500900","三峽區"
"236006","498-BY","2017/07/28 09:39:41","新北市土城區千歲路17號","121.441365","24.9692166666667","6501300","土城區"
