"lineid","car","time","location","longitude","latitude","cityid","cityname"
"234068","552-UM","2017/07/28 12:18:57","新北市永和區福和路1號","121.525768333333","25.00951","6500400","永和區"
"234040","862-TW","2017/07/28 12:18:53","新北市永和區福和路1號","121.52649","25.0096133333333","6500400","永和區"
"231009","192-VK","2017/07/28 12:18:49","新北市新店區屈尺路199號","121.54137","24.9203516666667","6500600","新店區"
"235031","255-BX","2017/07/28 11:53:02","新北市中和區和城路一段271巷1號","121.485653333333","24.9921583333333","6500300","中和區"
"247001","402-BY","2017/07/28 11:27:19","新北市五股區中興路三段3-6號","121.449315","25.078615","6501400","蘆洲區"
"227005","282-VK","2017/07/28 12:19:00","新北市雙溪區三貂里政光路3-1號","121.850838333333","25.0633733333333","6502500","雙溪區"
