"lineid","car","time","location","longitude","latitude","cityid","cityname"
"234044","148-BY","2017/07/28 13:28:47","新北市永和區秀朗路二段115巷2弄2號","121.523938333333","25.001815","6500400","永和區"
"234012","149-BY","2017/07/28 13:28:44","新北市永和區中山路一段184巷10弄16號","121.50899","25.0095583333333","6500400","永和區"
"234005","207-UY","2017/07/28 13:28:59","新北市永和區中山路一段81號","121.5122","25.010705","6500400","永和區"
"234078","298-R6","2017/07/28 13:29:01","新北市永和區福和路7巷5弄7號","121.525608333333","25.0082466666667","6500400","永和區"
"234036","336-UY","2017/07/28 13:28:55","新北市永和區環河東路四段20號","121.528568333333","24.9996216666667","6500400","永和區"
"234062","337-UY","2017/07/28 13:29:00","新北市永和區中正路368巷1弄88號","121.520533333333","25.000735","6500400","永和區"
"234084","338-UY","2017/07/28 13:29:00","新北市永和區成功路一段18巷15號","121.52622","25.005025","6500400","永和區"
"234068","552-UM","2017/07/28 13:28:57","新北市永和區永和路二段116號","121.515473333333","25.01206","6500400","永和區"
"234052","553-UM","2017/07/28 13:28:50","新北市永和區永和路二段168號","121.515555","25.01296","6500400","永和區"
"234015","745-BX","2017/07/28 13:28:49","新北市永和區環河西路一段51巷24號","121.514198333333","25.01758","6500400","永和區"
"234028","746-BX","2017/07/28 13:28:56","新北市永和區民權路1巷28號","121.521645","24.9981916666667","6500400","永和區"
"234028","840-RS","2017/07/28 12:37:49","新北市永和區福和路1號","121.52602","25.0098766666667","6500400","永和區"
"234060","AAD-866","2017/07/28 13:28:50","新北市永和區中正路399號","121.517121666667","25.0043266666667","6500400","永和區"
"234040","862-TW","2017/07/28 13:28:53","新北市永和區水源街39巷23號","121.510733333333","25.0034166666667","6500400","永和區"
"234048","863-TW","2017/07/28 13:28:56","新北市永和區保福路二段94巷7號","121.510531666667","25.013795","6500400","永和區"
"234025","9371-KE","2017/07/28 13:28:55","新北市永和區中山路一段17巷4弄16號","121.513033333333","25.0101683333333","6500400","永和區"
"234010","9373-KE","2017/07/28 13:28:52","新北市永和區仁愛路141巷30弄5號","121.511953333333","25.0115166666667","6500400","永和區"
"248019","261-SL","2017/07/28 13:28:59","新北市五股區天乙路110號","121.446876666667","25.1117283333333","6501500","五股區"
"234022","9380-KE","2017/07/28 13:29:03","新北市永和區環河東路二段90號","121.523963333333","25.0106933333333","6500400","永和區"
"234076","969-R7","2017/07/28 13:28:53","新北市永和區民權路34號","121.52027","24.99888","6500400","永和區"
"234072","AAC-211","2017/07/28 13:28:58","新北市永和區福和路10巷1號","121.524558333333","25.00867","6500400","永和區"
"234066","AAC-212","2017/07/28 13:28:58","新北市永和區永貞路386巷1號","121.50948","25.0073266666667","6500400","永和區"
"234001","AAC-295","2017/07/28 13:28:53","新北市永和區永和路一段118號","121.513993333333","25.0078016666667","6500400","永和區"
"244004","248-BX","2017/07/28 13:28:48","新北市林口區頂福里85-1號","121.351151666667","25.08019","6501700","林口區"
"231002","002-UM","2017/07/28 13:29:02","新北市新店區環河路64號","121.53703","24.9627016666667","6500600","新店區"
"231025","0291-UT","2017/07/28 13:28:58","新北市新店區中央路153號","121.529881666667","24.97307","6500600","新店區"
"231028","046-UY","2017/07/28 13:28:47","新北市新店區安康路一段355號","121.519791666667","24.9628566666667","6500600","新店區"
"231030","047-UY","2017/07/28 13:28:49","新北市新店區安康路二段1-5號","121.517103333333","24.963915","6500600","新店區"
"231029","106-UY","2017/07/28 13:29:01","新北市新店區車子路115-11號","121.506846666667","24.9545833333333","6500600","新店區"
"231051","107-UY","2017/07/28 13:28:59","新北市新店區環河路106號","121.536995","24.964115","6500600","新店區"
"231012","108-UY","2017/07/28 13:28:57","新北市新店區寶橋路6巷4號","121.54332","24.9734983333333","6500600","新店區"
"231022","187-VK","2017/07/28 13:28:48","新北市新店區北宜路一段121-2號","121.540423333333","24.9536933333333","6500600","新店區"
"231026","256-BX","2017/07/28 13:28:49","新北市新店區安康路一段76號","121.528266666667","24.9619083333333","6500600","新店區"
"231034","268-BY","2017/07/28 13:29:00","新北市新店區車子路109號","121.505218333333","24.952105","6500600","新店區"
"231010","278-BY","2017/07/28 13:28:47","新北市新店區中正路366號","121.53524","24.9760833333333","6500600","新店區"
"231016","AAD-862","2017/07/28 13:28:45","新北市新店區新烏路一段11巷1弄2號","121.547308333333","24.9513816666667","6500600","新店區"
"231027","3712-VJ","2017/07/28 13:28:55","新北市新店區新店後街106號","121.53766","24.9552983333333","6500600","新店區"
"231024","3713-VJ","2017/07/28 13:28:46","新北市新店區中正路128巷12號","121.542538333333","24.9718966666667","6500600","新店區"
"231038","4715-K9","2017/07/28 13:28:52","新北市新店區安華路30巷1號","121.519553333333","24.95962","6500600","新店區"
"231036","512-UM","2017/07/28 13:29:00","新北市新店區建業路90號","121.479485","24.955405","6500600","新店區"
"231023","513-UM","2017/07/28 13:28:49","新北市新店區新店路13號","121.540308333333","24.9529066666667","6500600","新店區"
"231035","515-UM","2017/07/28 13:28:54","新北市新店區安康路一段355號","121.519865","24.9627416666667","6500600","新店區"
"231006","617-UM","2017/07/28 13:29:04","新北市新店區安康路一段285號","121.523348333333","24.9636166666667","6500600","新店區"
"231001","619-UM","2017/07/28 13:28:52","新北市新店區安康路一段35-5號","121.531923333333","24.960675","6500600","新店區"
"231003","641-BX","2017/07/28 13:28:51","新北市新店區北新路一段126巷21號","121.542895","24.9697383333333","6500600","新店區"
"231013","719-UM","2017/07/28 13:29:00","新北市新店區中正路454-5號","121.534471666667","24.9790433333333","6500600","新店區"
"231032","720-UM","2017/07/28 13:28:47","新北市新店區安豐路56號","121.499155","24.9543316666667","6500600","新店區"
"231005","897-TW","2017/07/28 13:28:59","新北市新店區秀山路14號","121.532675","24.960315","6500600","新店區"
"231004","899-TW","2017/07/28 13:28:59","新北市新店區安康路一段231號","121.525313333333","24.9631916666667","6500600","新店區"
"231037","AKT-0513","2017/07/28 13:28:49","新北市新店區薏仁坑路59號","121.49041","24.9649333333333","6500600","新店區"
"235030","003-UY","2017/07/28 13:29:01","新北市中和區中山路二段120號","121.502746666667","25.0036516666667","6500300","中和區"
"235028","005-UY","2017/07/28 13:29:02","新北市中和區圓通路141巷37弄1號","121.498958333333","24.995055","6500300","中和區"
"235027","006-UY","2017/07/28 13:28:53","新北市中和區中正路585號","121.486145","24.9945566666667","6500300","中和區"
"235020","096-UM","2017/07/28 13:28:54","新北市中和區連城路469-1號","121.483526666667","24.9957633333333","6500300","中和區"
"235003","097-UM","2017/07/28 13:29:05","新北市中和區景新街293號","121.509973333333","24.9931833333333","6500300","中和區"
"235029","098-UM","2017/07/28 13:28:56","新北市中和區莊敬路49巷20弄4號","121.50189","25.0060083333333","6500300","中和區"
"235004","150-BY","2017/07/28 13:29:04","新北市中和區安平路59號","121.509455","24.9951983333333","6500300","中和區"
"235019","183-VK","2017/07/28 13:28:58","新北市中和區莒光路207號","121.47011","24.9954316666667","6500300","中和區"
"235002","185-VK","2017/07/28 13:28:44","新北市中和區秀朗路三段128巷16弄2號","121.524575","24.9929283333333","6500300","中和區"
"235013","186-VK","2017/07/28 13:28:48","新北市中和區南山路231號","121.503466666667","24.993565","6500300","中和區"
"235031","255-BX","2017/07/28 13:28:56","新北市中和區員山路146巷19號","121.482458333333","24.9969066666667","6500300","中和區"
"235008","293-VK","2017/07/28 13:28:47","新北市中和區圓通路240巷10弄21號","121.494536666667","24.9935783333333","6500300","中和區"
"235036","301-VK","2017/07/28 13:28:48","新北市中和區連城路220號","121.491348333333","24.9964633333333","6500300","中和區"
"235007","352-BY","2017/07/28 13:28:51","新北市中和區景平路331號","121.50585","24.9932166666667","6500300","中和區"
"235015","376-QA","2017/07/28 13:28:49","新北市中和區興南路二段142巷35弄2號","121.502376666667","24.984615","6500300","中和區"
"235032","377-QA","2017/07/28 13:28:46","新北市中和區中正路291號","121.4935","24.9938783333333","6500300","中和區"
"235025","378-QA","2017/07/28 13:28:58","新北市中和區莒光路175-3號","121.472865","24.9994983333333","6500300","中和區"
"235014","4979-A6","2017/07/28 13:28:43","新北市中和區景新街418巷14號","121.512246666667","24.9887816666667","6500300","中和區"
"235033","4980-A6","2017/07/28 13:28:46","新北市中和區連城路96號","121.496585","25.0000483333333","6500300","中和區"
"235006","551-UM","2017/07/28 13:28:55","新北市中和區秀朗路三段128巷1弄1號","121.52466","24.99207","6500300","中和區"
"235034","558-UM","2017/07/28 13:28:52","新北市中和區圓通路169號","121.497621666667","24.9953433333333","6500300","中和區"
"235009","565-BX","2017/07/28 13:28:50","新北市中和區景安路200巷2弄2號","121.503871666667","24.9914283333333","6500300","中和區"
"235018","640-BX","2017/07/28 13:28:29","新北市中和區民享街92號","121.474851666667","24.9998766666667","6500300","中和區"
"235024","647-TV","2017/07/28 13:28:44","新北市中和區員山路291號","121.481088333333","24.9998816666667","6500300","中和區"
"235011","732-UM","2017/07/28 13:28:55","新北市中和區南山路300號","121.507786666667","24.9871366666667","6500300","中和區"
"235010","733-UM","2017/07/28 13:28:48","新北市中和區中正路637巷52弄1號","121.485533333333","24.99355","6500300","中和區"
"235035","783-BX","2017/07/28 13:28:56","新北市中和區環中路138號","121.481881666667","25.0130633333333","6500300","中和區"
"235026","800-TS","2017/07/28 13:28:48","新北市中和區景平路677巷5號","121.496188333333","25.0027033333333","6500300","中和區"
"235021","801-TS","2017/07/28 13:29:00","新北市中和區民安街111巷24弄7號","121.476333333333","24.9989366666667","6500300","中和區"
"235005","802-TS","2017/07/28 13:28:56","新北市中和區中和路294號","121.508536666667","24.9997233333333","6500300","中和區"
"235016","805-TS","2017/07/28 13:28:58","新北市中和區興南路二段94號","121.50539","24.9842866666667","6500300","中和區"
"235012","896-TW","2017/07/28 13:28:44","新北市中和區錦和路350-1號","121.490456666667","24.993565","6500300","中和區"
"235017","900-TW","2017/07/28 13:28:53","新北市中和區民享街467號","121.469841666667","24.9925133333333","6500300","中和區"
"235001","AAC-213","2017/07/28 13:28:48","新北市中和區景德街29號","121.518751666667","24.9912666666667","6500300","中和區"
"235023","AAC-215","2017/07/28 00:39:54","新北市中和區員山路36巷16-3號","121.485013333333","24.9911983333333","6500300","中和區"
"220016","013-TV","2017/07/28 13:29:03","新北市板橋區民生路二段15-1號","121.472696666667","25.01647","6500100","板橋區"
"220013","072-UY","2017/07/28 13:28:44","新北市板橋區民生路二段15-1號","121.472815","25.01631","6500100","板橋區"
"220017","AAD-861","2017/07/28 13:28:48","新北市板橋區民生路二段56-1號","121.47245","25.016935","6500100","板橋區"
"247001","402-BY","2017/07/28 13:29:04","新北市蘆洲區民權路5號","121.476575","25.0857766666667","6501400","蘆洲區"
"247007","339-TH","2017/07/28 13:28:52","新北市五股區中興路三段2巷10號","121.448371666667","25.081845","6501400","蘆洲區"
"247015","001-UY","2017/07/28 13:29:04","新北市五股區中興路三段2巷10號","121.448716666667","25.0816083333333","6501400","蘆洲區"
"208004","AAC-292","2017/07/28 13:28:50","新北市金山區南勢湖70-1號","121.615153333333","25.2150266666667","6502700","金山區"
"207002","291-VK","2017/07/28 13:28:44","新北市萬里區崁腳里崁腳路166號","121.644955","25.1559033333333","6502800","萬里區"
"252005","073-UM","2017/07/28 13:27:56","新北市淡水區新市一路三段188號","121.448925","25.18304","6502100","三芝區"
"207001","662-BX","2017/07/28 13:28:47","新北市萬里區龜吼里玉田路19號","121.677741666667","25.1885383333333","6502800","萬里區"
"236006","498-BY","2017/07/28 13:28:45","新北市土城區亞洲路11巷1弄6號","121.435291666667","24.9716466666667","6501300","土城區"
"221032","280-BY","2017/07/28 13:28:45","新北市汐止區水源路一段56號","121.657428333333","25.06556","6501100","汐止區"
"221002","753-BX","2017/07/28 13:28:47","新北市汐止區南陽街123號","121.624535","25.059705","6501100","汐止區"
"220030","610-BX","2017/07/28 13:28:50","新北市板橋區華東街1-10號","121.448281666667","24.9949216666667","6500100","板橋區"
"220004","276-BY","2017/07/28 13:28:57","新北市板橋區中山路一段156號","121.465098333333","25.0113766666667","6500100","板橋區"
"220001","285-VK","2017/07/28 13:28:50","新北市板橋區民生路二段36-1號","121.472616666667","25.0166316666667","6500100","板橋區"
"220032","296-UM","2017/07/28 13:28:56","新北市板橋區華東街1-9號","121.44812","24.9949816666667","6500100","板橋區"
"220012","486-VK","2017/07/28 02:40:40","新北市板橋區民生路二段17號","121.472461666667","25.0162666666667","6500100","板橋區"
"220104","560-BX","2017/07/28 13:28:48","新北市板橋區華東街1-10號","121.448265","24.9950633333333","6500100","板橋區"
"220005","686-BX","2017/07/28 13:29:01","新北市板橋區民生路二段22號","121.472701666667","25.0165383333333","6500100","板橋區"
"220025","687-BX","2017/07/28 13:29:04","新北市板橋區四川路二段橋頭1號","121.446586666667","24.994125","6500100","板橋區"
"220002","741-BX","2017/07/28 13:29:00","新北市板橋區民生路二段36-1號","121.472641666667","25.0166916666667","6500100","板橋區"
"220022","895-R6","2017/07/28 13:28:46","新北市板橋區華東街1-10號","121.448551666667","24.9948566666667","6500100","板橋區"
