"lineid","car","time","location","longitude","latitude","cityid","cityname"
"234044","148-BY","2017/07/28 13:58:47","新北市永和區林森路39巷2-1號","121.525293333333","25.00475","6500400","永和區"
"234012","149-BY","2017/07/28 13:59:04","新北市永和區保生路55號","121.504705","25.0106533333333","6500400","永和區"
"234005","207-UY","2017/07/28 13:58:59","新北市中和區中和路232號","121.506686666667","24.9994633333333","6500400","永和區"
"234078","298-R6","2017/07/28 13:59:01","新北市永和區國中路12號","121.524373333333","25.00496","6500400","永和區"
"234036","336-UY","2017/07/28 13:58:55","新北市永和區成功路一段72號","121.526691666667","25.0035233333333","6500400","永和區"
"234062","337-UY","2017/07/28 13:59:00","新北市永和區秀朗路一段192巷6弄10號","121.519106666667","25.0023383333333","6500400","永和區"
"234084","338-UY","2017/07/28 13:59:00","新北市永和區福和路69號","121.522693333333","25.007885","6500400","永和區"
"234068","552-UM","2017/07/28 13:58:57","新北市永和區永亨路31號","121.519743333333","25.0061816666667","6500400","永和區"
"234052","553-UM","2017/07/28 13:58:58","新北市永和區竹林路39巷46號","121.520265","25.015275","6500400","永和區"
"234015","745-BX","2017/07/28 13:58:49","新北市永和區文化路84號","121.513991666667","25.0151333333333","6500400","永和區"
"234028","746-BX","2017/07/28 13:58:56","新北市永和區民權路49巷28號","121.521508333333","24.9974216666667","6500400","永和區"
"234028","840-RS","2017/07/28 12:37:49","新北市永和區福和路1號","121.52602","25.0098766666667","6500400","永和區"
"234060","AAD-866","2017/07/28 13:59:05","新北市永和區中正路151巷8弄1號","121.515871666667","24.9986783333333","6500400","永和區"
"234040","862-TW","2017/07/28 13:58:53","新北市永和區中和路421巷5弄1號","121.508723333333","25.0010216666667","6500400","永和區"
"234048","863-TW","2017/07/28 13:58:56","新北市永和區保安路252巷5號","121.505816666667","25.0127133333333","6500400","永和區"
"234025","9371-KE","2017/07/28 13:58:55","新北市永和區自由街54號","121.513708333333","25.0060366666667","6500400","永和區"
"234010","9373-KE","2017/07/28 13:58:52","新北市永和區仁愛路352巷122弄1號","121.500271666667","25.00863","6500400","永和區"
"248019","261-SL","2017/07/28 13:58:38","新北市五股區凌雲路三段59-6號","121.42475","25.1248433333333","6501500","五股區"
"234022","9380-KE","2017/07/28 13:59:03","新北市永和區光復街2巷16弄23號","121.517928333333","25.0163716666667","6500400","永和區"
"234076","969-R7","2017/07/28 13:58:53","新北市永和區民權路58巷3號","121.519606666667","24.9983133333333","6500400","永和區"
"234072","AAC-211","2017/07/28 13:58:58","新北市永和區竹林路201巷24弄1號","121.522313333333","25.0096566666667","6500400","永和區"
"234066","AAC-212","2017/07/28 13:58:58","新北市永和區永貞路339號","121.509545","25.0071133333333","6500400","永和區"
"234001","AAC-295","2017/07/28 13:58:53","新北市永和區福和路345號","121.515446666667","25.0071833333333","6500400","永和區"
"231002","002-UM","2017/07/28 13:59:02","新北市新店區中正路620號","121.533956666667","24.9887433333333","6500600","新店區"
"231025","0291-UT","2017/07/28 13:58:58","新北市新店區中正路275巷11號","121.53733","24.9737583333333","6500600","新店區"
"231028","046-UY","2017/07/28 13:58:47","新北市新店區安和路三段128號","121.51655","24.98576","6500600","新店區"
"231030","047-UY","2017/07/28 13:58:49","新北市新店區安興路7-1號","121.515035","24.96864","6500600","新店區"
"231029","106-UY","2017/07/28 13:59:01","新北市新店區安和路一段5號","121.516703333333","24.96399","6500600","新店區"
"231018","107-UY","2017/07/28 13:58:59","新北市新店區百忍街90號","121.532718333333","24.9771966666667","6500600","新店區"
"231012","108-UY","2017/07/28 13:58:57","新北市新店區中興路一段280號","121.545595","24.9684266666667","6500600","新店區"
"231022","187-VK","2017/07/28 13:58:48","新北市新店區屈尺路75號","121.545588333333","24.9227016666667","6500600","新店區"
"231026","256-BX","2017/07/28 13:58:49","新北市新店區環河路121號","121.529368333333","24.9717966666667","6500600","新店區"
"231034","268-BY","2017/07/28 13:59:00","新北市新店區達觀路24號","121.501845","24.94079","6500600","新店區"
"231016","AAD-862","2017/07/28 13:58:45","新北市新店區北宜路二段291號","121.555785","24.9539316666667","6500600","新店區"
"231027","3712-VJ","2017/07/28 13:58:55","新北市新店區北宜路一段3號","121.538585","24.9584883333333","6500600","新店區"
"231024","3713-VJ","2017/07/28 13:58:46","新北市新店區新生街13巷42-1號","121.538763333333","24.9665366666667","6500600","新店區"
"231038","4715-K9","2017/07/28 13:58:52","新北市新店區溪洲路121號","121.531221666667","24.963055","6500600","新店區"
"231036","512-UM","2017/07/28 13:59:00","新北市新店區安祥路109巷3弄32號","121.476308333333","24.9603133333333","6500600","新店區"
"231023","513-UM","2017/07/28 13:58:49","新北市新店區文中路40號","121.539696666667","24.95656","6500600","新店區"
"231035","515-UM","2017/07/28 13:58:54","新北市新店區安忠路2號","121.514475","24.9634966666667","6500600","新店區"
"231006","617-UM","2017/07/28 13:59:04","新北市新店區北宜路二段209號","121.553198333333","24.95329","6500600","新店區"
"231001","619-UM","2017/07/28 13:58:52","新北市新店區三民路24號","121.53708","24.970985","6500600","新店區"
"231003","641-BX","2017/07/28 13:58:51","新北市新店區中興路一段29號","121.538928333333","24.95948","6500600","新店區"
"231013","719-UM","2017/07/28 13:59:00","新北市新店區明德路66號","121.541543333333","24.97962","6500600","新店區"
"231032","720-UM","2017/07/28 13:58:47","新北市新店區華城路36巷35號","121.52644","24.95364","6500600","新店區"
"231005","897-TW","2017/07/28 13:58:59","新北市新店區中興路三段174號","121.54416","24.98103","6500600","新店區"
"231004","899-TW","2017/07/28 13:58:59","新北市新店區北新路二段107號","121.54293","24.9744983333333","6500600","新店區"
"231037","AKT-0513","2017/07/28 13:58:49","新北市新店區安康路三段165巷2弄9號","121.488995","24.9512666666667","6500600","新店區"
"235030","003-UY","2017/07/28 13:59:01","新北市中和區中山路二段131巷5弄4號","121.502923333333","25.0028316666667","6500300","中和區"
"235028","005-UY","2017/07/28 13:59:02","新北市中和區泰和街31號","121.49924","24.999835","6500300","中和區"
"235027","006-UY","2017/07/28 13:58:53","新北市中和區錦和路200號","121.490253333333","24.9949316666667","6500300","中和區"
"235020","096-UM","2017/07/28 13:58:54","新北市中和區中正路1206巷7號","121.480121666667","25.01109","6500300","中和區"
"235003","097-UM","2017/07/28 13:58:45","新北市中和區景平路64巷13弄22號","121.521368333333","24.9914233333333","6500300","中和區"
"235029","098-UM","2017/07/28 13:58:56","新北市中和區勝利路13號","121.49963","25.0080516666667","6500300","中和區"
"235004","150-BY","2017/07/28 13:59:04","新北市中和區保健路71-3號","121.510435","24.9968916666667","6500300","中和區"
"235022","151-BY","2017/07/28 13:59:00","新北市中和區員山路143巷24號","121.479973333333","24.99583","6500300","中和區"
"235019","183-VK","2017/07/28 13:58:53","新北市板橋區民族路276巷15號","121.469703333333","25.00595","6500300","中和區"
"235002","185-VK","2017/07/28 13:58:44","新北市中和區大勇街43巷16號","121.517148333333","24.9947683333333","6500300","中和區"
"235013","186-VK","2017/07/28 13:58:47","新北市中和區景安路167巷27號","121.506711666667","24.994995","6500300","中和區"
"235031","255-BX","2017/07/28 13:58:56","新北市中和區連城路340巷14弄4號","121.483305","24.9972133333333","6500300","中和區"
"235008","293-VK","2017/07/28 13:58:47","新北市中和區中興街169號","121.499966666667","24.9905283333333","6500300","中和區"
"235036","301-VK","2017/07/28 13:58:48","新北市中和區中山路二段99號","121.503285","25.0040466666667","6500300","中和區"
"235007","352-BY","2017/07/28 13:58:51","新北市中和區秀朗路三段107號","121.5265","24.9946666666667","6500300","中和區"
"235015","376-QA","2017/07/28 13:58:49","新北市中和區忠孝街31巷25-7號","121.509935","24.9840883333333","6500300","中和區"
"235032","377-QA","2017/07/28 13:58:46","新北市中和區圓通路177號","121.497538333333","24.9950516666667","6500300","中和區"
"235025","378-QA","2017/07/28 13:58:58","新北市中和區民治街130巷9號","121.474831666667","25.0025233333333","6500300","中和區"
"235014","4979-A6","2017/07/28 13:58:43","新北市中和區復興路69-1號","121.503855","24.9899616666667","6500300","中和區"
"235033","4980-A6","2017/07/28 13:58:46","新北市中和區中和路165巷3-1號","121.502683333333","25.0002266666667","6500300","中和區"
"235006","551-UM","2017/07/28 13:59:01","新北市中和區秀朗路三段24號","121.526501666667","24.996325","6500300","中和區"
"235034","558-UM","2017/07/28 13:58:12","新北市中和區圓通路24巷2號","121.501253333333","24.9980516666667","6500300","中和區"
"235009","565-BX","2017/07/28 13:58:50","新北市中和區興南路一段14號","121.511405","24.991295","6500300","中和區"
"235018","640-BX","2017/07/28 13:58:48","新北市中和區民享街6-3號","121.473995","25.0046966666667","6500300","中和區"
"235024","647-TV","2017/07/28 13:59:04","新北市中和區中山路三段159號","121.473393333333","25.0062533333333","6500300","中和區"
"235011","732-UM","2017/07/28 13:59:05","新北市中和區興南路二段54巷9弄1號","121.506108333333","24.9854516666667","6500300","中和區"
"235010","733-UM","2017/07/28 13:58:48","新北市中和區興南路二段5號","121.508125","24.986315","6500300","中和區"
"235035","783-BX","2017/07/28 13:58:56","新北市中和區立德街60號","121.488285","25.0075466666667","6500300","中和區"
"235026","800-TS","2017/07/28 13:58:48","新北市中和區中山路二段362-6號","121.49207","25.0028383333333","6500300","中和區"
"235021","801-TS","2017/07/28 13:59:00","新北市中和區民利街14巷5弄15號","121.479805","24.999245","6500300","中和區"
"235005","802-TS","2017/07/28 13:58:56","新北市中和區永貞路227號","121.513423333333","25.0036183333333","6500300","中和區"
"235016","805-TS","2017/07/28 13:58:58","新北市中和區興南路二段131-10號","121.504016666667","24.9808633333333","6500300","中和區"
"235012","896-TW","2017/07/28 13:59:04","新北市中和區華新街83號","121.50834","24.9835616666667","6500300","中和區"
"235017","900-TW","2017/07/28 13:58:53","新北市中和區壽德街18-1號","121.465988333333","24.9948316666667","6500300","中和區"
"235001","AAC-213","2017/07/28 13:58:45","新北市中和區秀朗路三段175巷2號","121.524611666667","24.9912216666667","6500300","中和區"
"235023","AAC-215","2017/07/28 13:58:51","新北市中和區圓通路367巷18-1號","121.49171","24.988795","6500300","中和區"
"220016","013-TV","2017/07/28 13:59:03","新北市板橋區中山路二段465巷46號","121.481186666667","25.021535","6500100","板橋區"
"220013","072-UY","2017/07/28 13:58:45","新北市板橋區民族路247巷9弄2號","121.471296666667","25.0078416666667","6500100","板橋區"
"220034","073-UY","2017/07/28 13:58:55","新北市板橋區中正路236巷15號","121.456595","25.0192283333333","6500100","板橋區"
"220105","075-UY","2017/07/28 13:59:04","新北市板橋區文化路二段16-2號","121.46869","25.0242","6500100","板橋區"
"220017","AAD-861","2017/07/28 13:58:49","新北市板橋區中山路一段50-1號","121.46091","25.0092183333333","6500100","板橋區"
"247019","893-R6","2017/07/28 13:59:02","新北市蘆洲區民族路422巷35-1號","121.47358","25.0937583333333","6501400","蘆洲區"
"247009","546-UM","2017/07/28 13:59:02","新北市蘆洲區集賢路226號","121.482343333333","25.086635","6501400","蘆洲區"
"247017","500-BY","2017/07/28 13:59:00","新北市蘆洲區民族路327巷132號","121.475308333333","25.0896266666667","6501400","蘆洲區"
"247001","402-BY","2017/07/28 13:59:03","新北市蘆洲區三民路101號","121.47235","25.085375","6501400","蘆洲區"
"247005","341-TH","2017/07/28 13:58:59","新北市蘆洲區永安南路二段64號","121.464996666667","25.0779766666667","6501400","蘆洲區"
"247007","339-TH","2017/07/28 13:58:52","新北市蘆洲區國道路二段88號","121.471508333333","25.0747033333333","6501400","蘆洲區"
"247023","337-TH","2017/07/28 13:58:49","新北市蘆洲區光榮路120巷9號","121.465173333333","25.0888583333333","6501400","蘆洲區"
"247001","336-TH","2017/07/28 13:59:04","新北市蘆洲區三民路605號","121.460613333333","25.093765","6501400","蘆洲區"
"247013","057-VK","2017/07/28 13:58:49","新北市蘆洲區中正路168號","121.468823333333","25.0859366666667","6501400","蘆洲區"
"247003","056-VK","2017/07/28 13:58:49","新北市蘆洲區長榮路1號","121.463893333333","25.0820183333333","6501400","蘆洲區"
"247011","007-UY","2017/07/28 13:58:48","新北市蘆洲區民族路158號","121.479626666667","25.08621","6501400","蘆洲區"
"247015","001-UY","2017/07/28 13:59:04","新北市蘆洲區光華路25號","121.469316666667","25.083195","6501400","蘆洲區"
"208004","AAC-292","2017/07/28 13:58:55","新北市金山區名流路2號","121.596153333333","25.2029466666667","6502700","金山區"
"207002","291-VK","2017/07/28 13:59:04","新北市萬里區溪底里富士坪路19號","121.626625","25.1491916666667","6502800","萬里區"
"252005","073-UM","2017/07/28 13:58:16","新北市八里區商港路32號","121.396663333333","25.145015","6502100","三芝區"
"207001","662-BX","2017/07/28 13:58:47","新北市萬里區磺潭里清水9號","121.640495","25.2000516666667","6502800","萬里區"
"236067","105-UM","2017/07/28 13:58:55","新北市土城區城林路6巷80號","121.438456666667","24.97971","6501300","土城區"
"236041","107-UM","2017/07/28 13:58:49","新北市土城區裕生路61號","121.447625","24.9861333333333","6501300","土城區"
"236077","166-UM","2017/07/28 13:58:50","新北市土城區永寧路32巷10弄6號","121.42903","24.9608566666667","6501300","土城區"
"236029","253-BX","2017/07/28 13:58:50","新北市土城區城林路6巷80號","121.438406666667","24.9798316666667","6501300","土城區"
"236025","269-VK","2017/07/28 13:58:34","新北市土城區承天路47號","121.438898333333","24.9638816666667","6501300","土城區"
"236013","270-VK","2017/07/28 13:58:53","新北市土城區城林路6巷80號","121.438558333333","24.9797416666667","6501300","土城區"
"236035","271-VK","2017/07/28 13:58:47","新北市土城區城林路6巷80號","121.438318333333","24.979835","6501300","土城區"
"236019","401-BY","2017/07/28 13:58:54","新北市土城區城林路6巷80號","121.438511666667","24.9797766666667","6501300","土城區"
"236006","498-BY","2017/07/28 13:58:45","新北市土城區中央路二段1號","121.443031666667","24.98085","6501300","土城區"
"236057","912-UM","2017/07/28 13:58:46","新北市土城區永寧路1號","121.430536666667","24.9648166666667","6501300","土城區"
"236046","913-UM","2017/07/28 13:58:45","新北市土城區城林路6巷80號","121.43835","24.9797783333333","6501300","土城區"
"236061","915-UM","2017/07/28 13:59:00","新北市土城區城林路6巷80號","121.438363333333","24.9798583333333","6501300","土城區"
"236054","AAC-216","2017/07/28 13:58:50","新北市土城區城林路6巷80號","121.438145","24.9796066666667","6501300","土城區"
"221002","753-BX","2017/07/28 13:58:47","新北市汐止區康寧街901號","121.65102","25.0752066666667","6501100","汐止區"
"220027","145-BY","2017/07/28 13:59:05","新北市板橋區民權路202巷7弄33-1號","121.458676666667","25.0150233333333","6500100","板橋區"
"220028","200-UY","2017/07/28 13:59:03","新北市板橋區大觀路二段力行1巷97號","121.444905","24.998045","6500100","板橋區"
"220030","610-BX","2017/07/28 13:58:50","新北市板橋區篤行路三段95號","121.426376666667","24.9848","6500100","板橋區"
"220050","245-BX","2017/07/28 13:58:54","新北市板橋區民生路二段240巷11號","121.468826666667","25.0231916666667","6500100","板橋區"
"220004","276-BY","2017/07/28 13:58:57","新北市板橋區信義路148號","121.458836666667","24.9918483333333","6500100","板橋區"
"220020","277-BY","2017/07/28 13:58:48","新北市板橋區大觀路三段50巷59號","121.43184","24.99601","6500100","板橋區"
"220043","283-UM","2017/07/28 13:58:46","新北市板橋區民生路二段232-13號","121.468643333333","25.0223516666667","6500100","板橋區"
"220019","283-VK","2017/07/28 13:58:56","新北市板橋區民族路57號","121.465123333333","25.0092533333333","6500100","板橋區"
"220001","285-VK","2017/07/28 13:58:50","新北市板橋區中山路二段157號","121.475618333333","25.0167116666667","6500100","板橋區"
"220031","286-VK","2017/07/28 13:58:56","新北市板橋區大觀路一段38巷156弄67號","121.442211666667","25.0070266666667","6500100","板橋區"
"220029","287-VK","2017/07/28 13:58:44","新北市板橋區南雅西路二段98-5號","121.452388333333","25.0114583333333","6500100","板橋區"
"220039","288-VK","2017/07/28 13:58:49","新北市板橋區民生路二段234巷9號","121.468365","25.02271","6500100","板橋區"
"220009","295-UM","2017/07/28 13:59:02","新北市板橋區富山街109巷60弄19號","121.475531666667","25.0214583333333","6500100","板橋區"
"220032","296-UM","2017/07/28 13:58:56","新北市板橋區大觀路二段174巷116弄49號","121.442435","25.0013083333333","6500100","板橋區"
"220023","297-UM","2017/07/28 13:58:56","新北市板橋區南雅東路100巷15號","121.454011666667","25.007765","6500100","板橋區"
"220010","305-R5","2017/07/28 13:59:03","新北市板橋區三民路二段245巷44號","121.48091","25.01252","6500100","板橋區"
"220041","307-R5","2017/07/28 13:58:57","新北市板橋區漢生東路83巷6號","121.467221666667","25.016085","6500100","板橋區"
"220047","317-R6","2017/07/28 13:58:52","新北市板橋區民生路二段232-14號","121.468716666667","25.02225","6500100","板橋區"
"220012","486-VK","2017/07/28 13:58:52","新北市板橋區漢生東路178號","121.467355","25.01463","6500100","板橋區"
"220038","487-VK","2017/07/28 13:58:57","新北市板橋區文化路二段1號","121.468523333333","25.0239133333333","6500100","板橋區"
"220037","491-VK","2017/07/28 13:58:54","新北市板橋區民生路二段208號","121.469638333333","25.021205","6500100","板橋區"
"220104","560-BX","2017/07/28 13:59:00","新北市板橋區中正路341巷36號","121.453948333333","25.0199266666667","6500100","板橋區"
"220052","561-BX","2017/07/28 13:58:49","新北市板橋區介壽街117號","121.470545","25.0187566666667","6500100","板橋區"
"220011","609-BX","2017/07/28 13:59:03","新北市板橋區中山路二段88號","121.475173333333","25.016365","6500100","板橋區"
"220040","637-BX","2017/07/28 13:58:49","新北市板橋區莊敬路208巷4弄8號","121.47142","25.0214133333333","6500100","板橋區"
"220005","686-BX","2017/07/28 13:59:01","新北市板橋區民權路33號","121.462236666667","25.0111816666667","6500100","板橋區"
"220025","687-BX","2017/07/28 13:59:04","新北市板橋區大觀路二段174巷137號","121.441178333333","25.0020366666667","6500100","板橋區"
"220042","689-BX","2017/07/28 13:58:52","新北市板橋區民生路二段232-14號","121.468851666667","25.0221716666667","6500100","板橋區"
"220002","741-BX","2017/07/28 13:59:00","新北市板橋區後埔街24號","121.460421666667","25.0063933333333","6500100","板橋區"
"220003","827-TW","2017/07/28 13:59:02","新北市板橋區民安街3號","121.466655","25.0120066666667","6500100","板橋區"
"220014","829-TW","2017/07/28 13:58:59","新北市板橋區三民路二段正隆巷31號","121.477258333333","25.0133816666667","6500100","板橋區"
"220051","830-TW","2017/07/28 13:58:51","新北市板橋區萬板路130號","121.475113333333","25.0235766666667","6500100","板橋區"
"220045","831-TW","2017/07/28 13:58:48","新北市板橋區莊敬路175號","121.47113","25.0236383333333","6500100","板橋區"
"220022","895-R6","2017/07/28 13:58:46","新北市板橋區南雅南路一段90號","121.455138333333","25.00481","6500100","板橋區"
"220021","985-R7","2017/07/28 13:59:02","新北市板橋區館前西路195號","121.455218333333","25.0082816666667","6500100","板橋區"
"220046","AAC-210","2017/07/28 13:59:03","新北市板橋區民生路二段236號","121.468183333333","25.0230066666667","6500100","板橋區"
"220018","AAC-253","2017/07/28 13:58:47","新北市板橋區中山路一段50-7號","121.461118333333","25.009425","6500100","板橋區"
