"lineid","car","time","location","longitude","latitude","cityid","cityname"
"234044","148-BY","2017/07/28 14:08:47","新北市永和區得和路389號","121.525198333333","24.99929","6500400","永和區"
"234012","149-BY","2017/07/28 14:08:44","新北市永和區永貞路387號","121.50804","25.0087","6500400","永和區"
"234005","207-UY","2017/07/28 14:08:59","新北市永和區永貞路323號","121.50985","25.0067716666667","6500400","永和區"
"234078","298-R6","2017/07/28 14:09:01","新北市永和區永亨路90號","121.52242","25.0053216666667","6500400","永和區"
"234036","336-UY","2017/07/28 14:08:59","新北市永和區成功路一段93巷21弄2號","121.528468333333","25.0027066666667","6500400","永和區"
"234062","337-UY","2017/07/28 14:09:00","新北市永和區永利路152號","121.522486666667","25.0029","6500400","永和區"
"234084","338-UY","2017/07/28 14:09:00","新北市永和區中正路575-1號","121.516781666667","25.00862","6500400","永和區"
"234068","552-UM","2017/07/28 14:08:57","新北市永和區永寧街95號","121.518685","25.0067116666667","6500400","永和區"
"234052","553-UM","2017/07/28 14:08:51","新北市永和區博愛街29號","121.518345","25.015905","6500400","永和區"
"234015","745-BX","2017/07/28 14:08:49","新北市永和區仁愛路46號","121.51417","25.0133833333333","6500400","永和區"
"234028","746-BX","2017/07/28 14:08:56","新北市永和區民權路84號","121.519855","24.9970933333333","6500400","永和區"
"234028","840-RS","2017/07/28 12:37:49","新北市永和區福和路1號","121.52602","25.0098766666667","6500400","永和區"
"234060","AAD-866","2017/07/28 14:08:54","新北市永和區安樂路166號","121.51468","25.0008683333333","6500400","永和區"
"234040","862-TW","2017/07/28 14:08:53","新北市永和區雙和街50號","121.508816666667","25.003085","6500400","永和區"
"234048","863-TW","2017/07/28 14:08:56","新北市永和區環河西路二段37號","121.507396666667","25.01561","6500400","永和區"
"234025","9371-KE","2017/07/28 14:08:55","新北市永和區安樂路272巷9弄7號","121.515033333333","25.0045583333333","6500400","永和區"
"234010","9373-KE","2017/07/28 14:08:53","新北市永和區仁愛路352巷122弄3號","121.500351666667","25.008715","6500400","永和區"
"248019","261-SL","2017/07/28 14:08:59","新北市五股區凌雲路三段57號","121.425278333333","25.1250533333333","6501500","五股區"
"234022","9380-KE","2017/07/28 14:08:43","新北市永和區竹林路39巷17號","121.518693333333","25.0148183333333","6500400","永和區"
"234076","969-R7","2017/07/28 14:08:53","新北市永和區民有街75巷10弄9號","121.51872","24.996125","6500400","永和區"
"234072","AAC-211","2017/07/28 14:09:05","新北市永和區竹林路119巷22弄3-1號","121.521596666667","25.0115716666667","6500400","永和區"
"234066","AAC-212","2017/07/28 14:08:58","新北市永和區永貞路313號","121.510086666667","25.0065483333333","6500400","永和區"
"234001","AAC-295","2017/07/28 14:08:53","新北市永和區永和路二段5號","121.514371666667","25.0100083333333","6500400","永和區"
"231002","002-UM","2017/07/28 14:09:02","新北市新店區中正路485號","121.53377","24.9819166666667","6500600","新店區"
"231025","0291-UT","2017/07/28 14:08:58","新北市新店區中正路328巷45號","121.538085","24.9764516666667","6500600","新店區"
"231028","046-UY","2017/07/28 14:08:47","新北市新店區安業街15號","121.516283333333","24.97825","6500600","新店區"
"231030","047-UY","2017/07/28 14:08:49","新北市新店區安民街65巷21-2號","121.515158333333","24.9675083333333","6500600","新店區"
"231029","106-UY","2017/07/28 14:09:01","新北市新店區安康路二段161號","121.510255","24.959445","6500600","新店區"
"231018","107-UY","2017/07/28 14:08:59","新北市新店區中央五街32號","121.528755","24.974735","6500600","新店區"
"231012","108-UY","2017/07/28 14:08:59","新北市新店區五峰路63巷8弄20-1號","121.547641666667","24.9689233333333","6500600","新店區"
"231022","187-VK","2017/07/28 14:08:48","新北市新店區新烏路二段329號","121.550133333333","24.9105883333333","6500600","新店區"
"231026","256-BX","2017/07/28 14:08:49","新北市新店區安華路30巷1號","121.519528333333","24.95977","6500600","新店區"
"231034","268-BY","2017/07/28 14:09:00","新北市新店區車子路8-1號","121.504338333333","24.9529266666667","6500600","新店區"
"231016","AAD-862","2017/07/28 14:08:45","新北市新店區郵政路4巷18號","121.55594","24.9518283333333","6500600","新店區"
"231027","3712-VJ","2017/07/28 14:08:55","新北市新店區中興路一段34號","121.53872","24.9585533333333","6500600","新店區"
"231038","4715-K9","2017/07/28 14:08:52","新北市新店區溪洲路121號","121.53102","24.9628933333333","6500600","新店區"
"231036","512-UM","2017/07/28 14:09:00","新北市新店區安祥路109巷85弄39號","121.47864","24.9597583333333","6500600","新店區"
"231023","513-UM","2017/07/28 14:08:49","新北市新店區文中路40號","121.539668333333","24.956565","6500600","新店區"
"231035","515-UM","2017/07/28 14:08:55","新北市新店區安和路一段52巷2號","121.517633333333","24.96619","6500600","新店區"
"231006","617-UM","2017/07/28 14:09:04","新北市新店區北宜路二段126號","121.556843333333","24.9538816666667","6500600","新店區"
"231001","619-UM","2017/07/28 14:08:52","新北市新店區中華路93號","121.53913","24.96904","6500600","新店區"
"231003","641-BX","2017/07/28 14:08:59","新北市新店區中興路一段136號","121.542096666667","24.963345","6500600","新店區"
"231013","719-UM","2017/07/28 14:09:00","新北市新店區北新路三段65巷34弄21號","121.539905","24.9816283333333","6500600","新店區"
"231032","720-UM","2017/07/28 14:08:47","新北市新店區碧潭路41號","121.53397","24.956305","6500600","新店區"
"231005","897-TW","2017/07/28 14:08:59","新北市新店區中興路三段307號","121.541948333333","24.9856916666667","6500600","新店區"
"231004","899-TW","2017/07/28 14:08:59","新北市新店區北新路二段187-1號","121.542673333333","24.9777516666667","6500600","新店區"
"231037","AKT-0513","2017/07/28 14:08:49","新北市新店區安康路二段341巷1號","121.496838333333","24.9551733333333","6500600","新店區"
"235030","003-UY","2017/07/28 14:09:01","新北市中和區廣福路50號","121.504048333333","25.001995","6500300","中和區"
"235028","005-UY","2017/07/28 14:09:02","新北市中和區泰和街38巷20號","121.498793333333","25.0008866666667","6500300","中和區"
"235027","006-UY","2017/07/28 14:08:53","新北市中和區中正路604號","121.485538333333","24.99534","6500300","中和區"
"235020","096-UM","2017/07/28 14:08:54","新北市中和區員山路514巷14弄10號","121.479958333333","25.0092766666667","6500300","中和區"
"235003","097-UM","2017/07/28 14:08:45","新北市中和區景平路4號","121.524271666667","24.9906666666667","6500300","中和區"
"235029","098-UM","2017/07/28 14:08:36","新北市中和區中山路二段64巷7弄7號","121.503463333333","25.0048083333333","6500300","中和區"
"235004","150-BY","2017/07/28 14:09:04","新北市中和區保健路44巷9號","121.509158333333","24.9967933333333","6500300","中和區"
"235022","151-BY","2017/07/28 14:09:00","新北市中和區連城路477巷6弄6號","121.482875","24.995115","6500300","中和區"
"235019","183-VK","2017/07/28 14:08:53","新北市中和區德光路92-2號","121.468723333333","25.003505","6500300","中和區"
"235002","185-VK","2017/07/28 14:09:04","新北市中和區立人街24-5號","121.518833333333","24.994205","6500300","中和區"
"235013","186-VK","2017/07/28 14:08:47","新北市中和區明禮街23號","121.50464","24.9959283333333","6500300","中和區"
"235031","255-BX","2017/07/28 14:08:56","新北市中和區新生街164號","121.48366","25.0002583333333","6500300","中和區"
"235008","293-VK","2017/07/28 14:08:47","新北市中和區中興街161巷2弄2號","121.500133333333","24.9908733333333","6500300","中和區"
"235036","301-VK","2017/07/28 14:08:48","新北市中和區福美路300-1號","121.497141666667","25.0049516666667","6500300","中和區"
"235007","352-BY","2017/07/28 14:08:51","新北市中和區景平路67號","121.520015","24.991305","6500300","中和區"
"235015","376-QA","2017/07/28 14:08:48","新北市中和區景新街324號","121.511815","24.9911866666667","6500300","中和區"
"235032","377-QA","2017/07/28 14:09:06","新北市中和區連勝街38巷5號","121.497741666667","24.9978083333333","6500300","中和區"
"235025","378-QA","2017/07/28 14:08:58","新北市中和區中山路三段112號","121.476353333333","25.0057983333333","6500300","中和區"
"235014","4979-A6","2017/07/28 14:09:03","新北市中和區景安路208巷27號","121.502321666667","24.99199","6500300","中和區"
"235033","4980-A6","2017/07/28 14:08:46","新北市中和區景平路736巷1弄3號","121.497183333333","25.00399","6500300","中和區"
"235006","551-UM","2017/07/28 14:08:55","新北市中和區自立路117巷3號","121.522403333333","24.99459","6500300","中和區"
"235034","558-UM","2017/07/28 13:58:12","新北市中和區圓通路24巷2號","121.501253333333","24.9980516666667","6500300","中和區"
"235009","565-BX","2017/07/28 14:08:49","新北市中和區景新街467巷20弄21號","121.515111666667","24.9873333333333","6500300","中和區"
"235018","640-BX","2017/07/28 14:08:50","新北市中和區國光街85巷10號","121.470296666667","24.9999483333333","6500300","中和區"
"235024","647-TV","2017/07/28 14:08:44","新北市中和區民治街27巷10號","121.475456666667","25.00132","6500300","中和區"
"235011","732-UM","2017/07/28 14:07:36","新北市中和區興南路二段41號","121.507558333333","24.9856816666667","6500300","中和區"
"235010","733-UM","2017/07/28 14:08:48","新北市中和區忠孝街1巷65號","121.50824","24.9847166666667","6500300","中和區"
"235035","783-BX","2017/07/28 14:08:56","新北市中和區立德街56號","121.488343333333","25.0074766666667","6500300","中和區"
"235026","800-TS","2017/07/28 14:08:48","新北市中和區橋安街7號","121.492711666667","25.0034383333333","6500300","中和區"
"235021","801-TS","2017/07/28 14:09:00","新北市中和區民利街68巷1弄1號","121.478476666667","24.9986583333333","6500300","中和區"
"235005","802-TS","2017/07/28 14:08:56","新北市中和區新興街8巷1號","121.512425","25.0024333333333","6500300","中和區"
"235016","805-TS","2017/07/28 14:08:58","新北市中和區興南路二段261巷1號","121.502661666667","24.9811516666667","6500300","中和區"
"235012","896-TW","2017/07/28 14:09:04","新北市中和區華新街109巷24號","121.508521666667","24.98051","6500300","中和區"
"235017","900-TW","2017/07/28 14:08:53","新北市中和區華福街18號","121.465818333333","24.9967316666667","6500300","中和區"
"235001","AAC-213","2017/07/28 14:08:45","新北市中和區自立路99巷2號","121.522275","24.9947516666667","6500300","中和區"
"235023","AAC-215","2017/07/28 14:08:51","新北市中和區圓通路296巷31弄1號","121.48858","24.9904333333333","6500300","中和區"
"220016","013-TV","2017/07/28 14:09:03","新北市板橋區翠華街6巷52號","121.48138","25.0248566666667","6500100","板橋區"
"220013","072-UY","2017/07/28 14:08:59","新北市板橋區民族路219巷12號","121.469511666667","25.0078016666667","6500100","板橋區"
"220034","073-UY","2017/07/28 14:08:55","新北市板橋區中正路236巷75號","121.459033333333","25.0196216666667","6500100","板橋區"
"220105","075-UY","2017/07/28 14:09:04","新北市板橋區文化路二段102-1號","121.469826666667","25.0261866666667","6500100","板橋區"
"220017","AAD-861","2017/07/28 14:08:49","新北市板橋區華興街73-1號","121.457038333333","25.0050333333333","6500100","板橋區"
"247019","893-R6","2017/07/28 14:09:02","新北市蘆洲區仁愛街17號","121.472531666667","25.0922383333333","6501400","蘆洲區"
"247009","546-UM","2017/07/28 14:09:02","新北市蘆洲區民族路30號","121.476361666667","25.0842833333333","6501400","蘆洲區"
"247017","500-BY","2017/07/28 14:09:00","新北市蘆洲區民族路201巷26號","121.477665","25.0890333333333","6501400","蘆洲區"
"247001","402-BY","2017/07/28 14:09:03","新北市蘆洲區復興路58號","121.473786666667","25.086195","6501400","蘆洲區"
"247005","341-TH","2017/07/28 14:08:59","新北市蘆洲區九芎街153巷24號","121.465938333333","25.0784933333333","6501400","蘆洲區"
"247007","339-TH","2017/07/28 14:08:52","新北市蘆洲區中山一路283號","121.47201","25.0795666666667","6501400","蘆洲區"
"247023","337-TH","2017/07/28 14:08:49","新北市蘆洲區光明路112號","121.463586666667","25.0881916666667","6501400","蘆洲區"
"247001","336-TH","2017/07/28 14:09:04","新北市蘆洲區永平街62號","121.457343333333","25.0916333333333","6501400","蘆洲區"
"247013","057-VK","2017/07/28 14:08:49","新北市蘆洲區三民路155號","121.471555","25.08682","6501400","蘆洲區"
"247003","056-VK","2017/07/28 14:08:49","新北市蘆洲區中華街6巷5號","121.462365","25.0824466666667","6501400","蘆洲區"
"247011","007-UY","2017/07/28 14:08:48","新北市蘆洲區信義路331號","121.478136666667","25.0867316666667","6501400","蘆洲區"
"247021","002-UY","2017/07/28 14:08:54","新北市蘆洲區三民路175號","121.470931666667","25.087305","6501400","蘆洲區"
"247015","001-UY","2017/07/28 14:09:04","新北市蘆洲區光華路46巷33號","121.467923333333","25.0840883333333","6501400","蘆洲區"
"227003","400-TW","2017/07/28 14:04:51","新北市雙溪區三貂里政光路3-1號","121.85088","25.063495","6502500","雙溪區"
"208004","AAC-292","2017/07/28 14:08:57","新北市金山區重和里六股林口9-3號","121.607635","25.219265","6502700","金山區"
"207002","291-VK","2017/07/28 14:08:44","新北市萬里區溪底里瑞泉路21號","121.605381666667","25.1483883333333","6502800","萬里區"
"252005","073-UM","2017/07/28 14:07:56","新北市林口區太平里180號","121.368038333333","25.13389","6502100","三芝區"
"207001","662-BX","2017/07/28 14:08:47","新北市萬里區磺潭里清水18號","121.637821666667","25.197535","6502800","萬里區"
"236067","105-UM","2017/07/28 14:08:55","新北市土城區和平路79號","121.444908333333","24.9712283333333","6501300","土城區"
"236041","107-UM","2017/07/28 14:08:49","新北市土城區裕生路61號","121.44763","24.986125","6501300","土城區"
"236077","166-UM","2017/07/28 14:08:50","新北市土城區永安街53號","121.432668333333","24.9640533333333","6501300","土城區"
"236029","253-BX","2017/07/28 14:08:50","新北市土城區城林路6巷80號","121.43833","24.9797183333333","6501300","土城區"
"236025","269-VK","2017/07/28 14:08:53","新北市土城區承天路18號","121.439348333333","24.9634533333333","6501300","土城區"
"236013","270-VK","2017/07/28 14:08:52","新北市土城區裕民路174號","121.452546666667","24.985375","6501300","土城區"
"236035","271-VK","2017/07/28 14:08:47","新北市土城區青雲路449號","121.458735","24.97512","6501300","土城區"
"236019","401-BY","2017/07/28 14:08:54","新北市土城區城林路6巷80號","121.43855","24.9797533333333","6501300","土城區"
"236006","498-BY","2017/07/28 14:08:45","新北市土城區中央路一段9號","121.448631666667","24.99142","6501300","土城區"
"236057","912-UM","2017/07/28 14:08:46","新北市土城區中央路四段27巷1號","121.424185","24.9623733333333","6501300","土城區"
"236046","913-UM","2017/07/28 14:09:05","新北市土城區明德路一段365-1號","121.453516666667","24.9790783333333","6501300","土城區"
"236061","915-UM","2017/07/28 14:09:00","新北市土城區金城路二段204號","121.455053333333","24.98196","6501300","土城區"
"236054","AAC-216","2017/07/28 14:08:50","新北市土城區中華路二段98號","121.438105","24.9744416666667","6501300","土城區"
"221002","753-BX","2017/07/28 14:08:47","新北市汐止區忠孝東路384號","121.665483333333","25.070105","6501100","汐止區"
"220027","145-BY","2017/07/28 14:08:45","新北市板橋區民權路202巷7弄2-5號","121.460113333333","25.01507","6500100","板橋區"
"220028","200-UY","2017/07/28 14:09:03","新北市板橋區大觀路二段7巷48號","121.448681666667","25.0031583333333","6500100","板橋區"
"220030","610-BX","2017/07/28 14:08:50","新北市板橋區滿平街60號","121.427146666667","24.98941","6500100","板橋區"
"220050","245-BX","2017/07/28 14:08:54","新北市板橋區萬板路48號","121.471913333333","25.022755","6500100","板橋區"
"220004","276-BY","2017/07/28 14:08:57","新北市板橋區信義路110巷3號","121.458193333333","24.9920066666667","6500100","板橋區"
"220020","277-BY","2017/07/28 14:08:48","新北市板橋區溪城路89號","121.427006666667","24.98325","6500100","板橋區"
"220043","283-UM","2017/07/28 14:08:58","新北市板橋區光武街95號","121.466745","25.0270866666667","6500100","板橋區"
"220019","283-VK","2017/07/28 14:09:05","新北市板橋區重慶路245巷39號","121.464895","25.0009166666667","6500100","板橋區"
"220001","285-VK","2017/07/28 14:08:50","新北市板橋區懷仁街14巷2號","121.475996666667","25.0198266666667","6500100","板橋區"
"220031","286-VK","2017/07/28 14:08:56","新北市板橋區龍興街97巷13號","121.443571666667","25.0028633333333","6500100","板橋區"
"220029","287-VK","2017/07/28 14:09:04","新北市板橋區南雅西路二段110巷40弄2號","121.452905","25.0131383333333","6500100","板橋區"
"220039","288-VK","2017/07/28 14:08:49","新北市板橋區四維路291巷1號","121.461955","25.02827","6500100","板橋區"
"220009","295-UM","2017/07/28 14:08:55","新北市板橋區中山路二段268號","121.478955","25.0184283333333","6500100","板橋區"
"220032","296-UM","2017/07/28 14:08:56","新北市板橋區溪崑一街11-3號","121.430863333333","24.99241","6500100","板橋區"
"220023","297-UM","2017/07/28 14:08:56","新北市板橋區中正路99號","121.45646","25.014625","6500100","板橋區"
"220010","305-R5","2017/07/28 14:08:56","新北市板橋區三民路二段居仁巷24號","121.479938333333","25.0132383333333","6500100","板橋區"
"220041","307-R5","2017/07/28 14:08:58","新北市板橋區文化路一段419號","121.46768","25.022575","6500100","板橋區"
"220047","317-R6","2017/07/28 14:08:52","新北市板橋區四維路103巷21號","121.464698333333","25.02408","6500100","板橋區"
"220012","486-VK","2017/07/28 14:08:51","新北市板橋區民生路一段35號","121.475815","25.012525","6500100","板橋區"
"220038","487-VK","2017/07/28 14:08:57","新北市板橋區文化路二段453號","121.475553333333","25.0335733333333","6500100","板橋區"
"220037","491-VK","2017/07/28 14:08:54","新北市板橋區莊敬路56號","121.47265","25.02693","6500100","板橋區"
"220104","560-BX","2017/07/28 14:08:48","新北市板橋區瑞安街31巷2號","121.455655","25.0227916666667","6500100","板橋區"
"220052","561-BX","2017/07/28 14:08:49","新北市板橋區文化路一段188巷9弄120號","121.468936666667","25.01922","6500100","板橋區"
"220011","609-BX","2017/07/28 14:09:03","新北市板橋區三民路二段140號","121.479055","25.01594","6500100","板橋區"
"220040","637-BX","2017/07/28 14:08:49","新北市板橋區萬板路378號","121.478388333333","25.02535","6500100","板橋區"
"220005","686-BX","2017/07/28 14:09:01","新北市板橋區重慶路98號","121.46189","25.0059883333333","6500100","板橋區"
"220025","687-BX","2017/07/28 14:09:04","新北市板橋區龍興街65巷4號","121.443578333333","25.0015333333333","6500100","板橋區"
"220042","689-BX","2017/07/28 14:08:52","新北市板橋區民生路三段261號","121.464365","25.0294733333333","6500100","板橋區"
"220002","741-BX","2017/07/28 14:09:01","新北市板橋區重慶路89巷2號","121.462231666667","25.0063566666667","6500100","板橋區"
"220003","827-TW","2017/07/28 14:09:02","新北市板橋區中山路一段118號","121.462926666667","25.0105266666667","6500100","板橋區"
"220014","829-TW","2017/07/28 14:08:59","新北市板橋區中山路二段90巷43弄23號","121.47722","25.01536","6500100","板橋區"
"220051","830-TW","2017/07/28 14:08:51","新北市板橋區萬板路818巷3弄1號","121.482988333333","25.0274383333333","6500100","板橋區"
"220045","831-TW","2017/07/28 14:09:03","新北市板橋區雙十路二段47巷17號","121.47563","25.0256816666667","6500100","板橋區"
"220022","895-R6","2017/07/28 14:08:58","新北市板橋區林園街29號","121.453848333333","25.0097733333333","6500100","板橋區"
"220021","985-R7","2017/07/28 14:08:46","新北市板橋區中正路95號","121.456398333333","25.0145583333333","6500100","板橋區"
"220046","AAC-210","2017/07/28 14:08:43","新北市板橋區國光路200號","121.461641666667","25.0184866666667","6500100","板橋區"
"220018","AAC-253","2017/07/28 14:08:57","新北市板橋區四川路一段259號","121.45968","25.0023466666667","6500100","板橋區"
