"lineid","car","time","location","longitude","latitude","cityid","cityname"
"234028","840-RS","2017/07/28 14:59:49","新北市永和區保順路8號","121.50391","25.0110666666667","6500400","永和區"
"231002","002-UM","2017/07/28 15:19:02","新北市新店區中正路700巷2號","121.534033333333","24.991125","6500600","新店區"
"231025","0291-UT","2017/07/28 15:18:58","新北市新店區民權路126號","121.535061666667","24.9828683333333","6500600","新店區"
"231028","046-UY","2017/07/28 15:18:47","新北市新店區僑信路108巷42號","121.498955","24.9465833333333","6500600","新店區"
"231030","047-UY","2017/07/28 15:18:49","新北市新店區安業街1-1號","121.516676666667","24.9788366666667","6500600","新店區"
"231029","106-UY","2017/07/28 15:19:01","新北市新店區安康路三段738號","121.473845","24.9420216666667","6500600","新店區"
"231018","107-UY","2017/07/28 15:18:59","新北市新店區中央七街79號","121.527213333333","24.9768033333333","6500600","新店區"
"231012","108-UY","2017/07/28 15:18:57","新北市新店區順安街74號","121.541038333333","24.9866666666667","6500600","新店區"
"231022","187-VK","2017/07/28 15:18:48","新北市新店區永福路54號","121.557651666667","24.928515","6500600","新店區"
"231039","188-VK","2017/07/28 15:18:52","新北市新店區寶元路一段65號","121.542303333333","24.98581","6500600","新店區"
"231026","256-BX","2017/07/28 15:18:45","新北市新店區中正路247巷6弄12號","121.538218333333","24.9730666666667","6500600","新店區"
"231034","268-BY","2017/07/28 15:18:59","新北市新店區如意街1巷2號","121.495743333333","24.949525","6500600","新店區"
"231024","3713-VJ","2017/07/28 15:19:01","新北市新店區新明街14號","121.540971666667","24.9682766666667","6500600","新店區"
"231036","512-UM","2017/07/28 15:19:00","新北市新店區安祥路69巷17號","121.48187","24.9613766666667","6500600","新店區"
"231023","513-UM","2017/07/28 15:18:49","新北市新店區北新路一段88巷11號","121.543018333333","24.9671783333333","6500600","新店區"
"231035","515-UM","2017/07/28 15:18:54","新北市新店區永平街19號","121.516988333333","24.9834016666667","6500600","新店區"
"231001","619-UM","2017/07/28 15:18:52","新北市新店區北新路一段90號","121.541816666667","24.9684183333333","6500600","新店區"
"231003","641-BX","2017/07/28 15:18:51","新北市新店區寶高路60號","121.552345","24.9777516666667","6500600","新店區"
"231032","720-UM","2017/07/28 15:18:47","新北市新店區安泰路45巷13號","121.485638333333","24.9472183333333","6500600","新店區"
"231005","897-TW","2017/07/28 15:18:59","新北市新店區民族路12號","121.541595","24.97886","6500600","新店區"
"231004","899-TW","2017/07/28 15:18:59","新北市新店區建國路29號","121.540193333333","24.9740966666667","6500600","新店區"
"231037","AKT-0513","2017/07/28 15:18:49","新北市新店區安興路91巷25號","121.51416","24.9745466666667","6500600","新店區"
"241013","270-UM","2017/07/28 15:18:56","新北市三重區重新路四段121號","121.484811666667","25.0525416666667","6500200","三重區"
"235030","003-UY","2017/07/28 15:19:01","新北市中和區光華街31巷24號","121.505633333333","25.00493","6500300","中和區"
"235003","097-UM","2017/07/28 15:18:45","新北市中和區安平路48號","121.510165","24.99549","6500300","中和區"
"235022","151-BY","2017/07/28 15:07:28","新北市中和區員山路36巷16-2號","121.48519","24.9915966666667","6500300","中和區"
"235032","377-QA","2017/07/28 15:18:46","新北市中和區錦和路142巷3號","121.489015","24.9973966666667","6500300","中和區"
"235014","4979-A6","2017/07/28 15:19:03","新北市中和區景安路82巷5號","121.505086666667","24.996195","6500300","中和區"
"235033","4980-A6","2017/07/28 15:18:46","新北市中和區中正路614號","121.485491666667","24.9956933333333","6500300","中和區"
"235034","558-UM","2017/07/28 15:07:32","新北市中和區連城路75巷13號","121.498645","24.9983066666667","6500300","中和區"
"235035","783-BX","2017/07/28 15:18:56","新北市中和區永和路341巷7號","121.483248333333","25.0105016666667","6500300","中和區"
"235026","800-TS","2017/07/28 15:18:48","新北市中和區永和路171巷1弄2號","121.492291666667","25.006905","6500300","中和區"
"235012","896-TW","2017/07/28 15:19:04","新北市中和區忠孝街184號","121.51286","24.98827","6500300","中和區"
"235001","AAC-213","2017/07/28 15:18:45","新北市中和區自立路14號","121.52223","24.9962616666667","6500300","中和區"
"235023","AAC-215","2017/07/28 15:18:51","新北市中和區圓通路435巷1號","121.486383333333","24.9872866666667","6500300","中和區"
"220013","072-UY","2017/07/28 15:19:04","新北市板橋區民生路二段15-1號","121.47271","25.0164633333333","6500100","板橋區"
"220017","AAD-861","2017/07/28 15:18:49","新北市板橋區大明街25巷4弄2號","121.458005","25.00212","6500100","板橋區"
"247001","402-BY","2017/07/28 15:18:43","新北市五股區凌雲路三段22號","121.436226666667","25.1040933333333","6501400","蘆洲區"
"247007","339-TH","2017/07/28 15:18:45","新北市五股區中興路三段2巷10號","121.448786666667","25.0815233333333","6501400","蘆洲區"
"227003","400-TW","2017/07/28 14:04:51","新北市雙溪區三貂里政光路3-1號","121.85088","25.063495","6502500","雙溪區"
"208004","AAC-292","2017/07/28 15:18:50","新北市金山區月眉23號","121.628228333333","25.214125","6502700","金山區"
"252005","073-UM","2017/07/28 15:18:56","新北市三芝區後厝里北勢子17號","121.474285","25.2545733333333","6502100","三芝區"
"207001","662-BX","2017/07/28 15:18:47","新北市萬里區大鵬里頂社2-1號","121.658006666667","25.2090033333333","6502800","萬里區"
"236067","105-UM","2017/07/28 15:18:55","新北市土城區裕民路185巷36弄10號","121.454385","24.9845383333333","6501300","土城區"
"236041","107-UM","2017/07/28 15:18:49","新北市土城區金城路二段245巷42號","121.45556","24.9833016666667","6501300","土城區"
"236077","166-UM","2017/07/28 15:18:50","新北市土城區溪頭路20巷2弄2號","121.41289","24.9555566666667","6501300","土城區"
"236029","253-BX","2017/07/28 15:18:50","新北市土城區中華路一段199號","121.443378333333","24.9850033333333","6501300","土城區"
"236025","269-VK","2017/07/28 15:18:59","新北市土城區中央路二段149巷6號","121.442411666667","24.9765083333333","6501300","土城區"
"236013","270-VK","2017/07/28 15:18:52","新北市土城區學府路一段34號","121.458183333333","24.9885833333333","6501300","土城區"
"236035","271-VK","2017/07/28 15:18:50","新北市土城區國際路156號","121.467845","24.9764883333333","6501300","土城區"
"236019","401-BY","2017/07/28 15:18:54","新北市土城區峰廷街10號","121.46858","24.987555","6501300","土城區"
"236057","912-UM","2017/07/28 15:18:46","新北市土城區千歲路3巷6弄16號","121.441668333333","24.9700716666667","6501300","土城區"
"236046","913-UM","2017/07/28 15:18:44","新北市土城區明德路一段109號","121.465485","24.98164","6501300","土城區"
"236061","915-UM","2017/07/28 15:19:00","新北市土城區延平街33巷2號","121.46785","24.9917783333333","6501300","土城區"
"236054","AAC-216","2017/07/28 15:18:50","新北市土城區學府路一段258號","121.451346666667","24.984385","6501300","土城區"
"221002","753-BX","2017/07/28 15:18:27","新北市汐止區八連路二段376-1號","121.629518333333","25.1017783333333","6501100","汐止區"
"220050","245-BX","2017/07/28 15:18:54","新北市板橋區民生路二段192號","121.469848333333","25.020595","6500100","板橋區"
"220031","286-VK","2017/07/28 15:18:56","新北市板橋區僑中二街102巷31號","121.444818333333","25.00842","6500100","板橋區"
"220029","287-VK","2017/07/28 15:19:04","新北市板橋區大觀路二段166號","121.441208333333","24.9986883333333","6500100","板橋區"
"220041","307-R5","2017/07/28 15:18:58","新北市板橋區民權路174號","121.459546666667","25.0132216666667","6500100","板橋區"
"220038","487-VK","2017/07/28 15:18:57","新北市板橋區互助街30號","121.462283333333","25.0272833333333","6500100","板橋區"
"220042","689-BX","2017/07/28 15:19:05","新北市板橋區長江路一段59號","121.458906666667","25.029295","6500100","板橋區"
"220014","829-TW","2017/07/28 15:18:59","新北市八里區商港路96號","121.394243333333","25.1481316666667","6500100","板橋區"
"220051","830-TW","2017/07/28 15:18:51","新北市板橋區民生路二段207號","121.46916","25.0207033333333","6500100","板橋區"
"220022","895-R6","2017/07/28 15:18:46","新北市五股區成泰路一段88-5號","121.437201666667","25.07075","6500100","板橋區"
"220018","AAC-253","2017/07/28 15:18:47","新北市板橋區德興街30號","121.453386666667","24.9938783333333","6500100","板橋區"
