"lineid","car","time","location","longitude","latitude","cityid","cityname"
"234028","840-RS","2017/07/28 14:59:49","新北市永和區保順路8號","121.50391","25.0110666666667","6500400","永和區"
"249005","172-UM","2017/07/28 17:28:56","新北市八里區荖阡坑路69號","121.406711666667","25.126985","6502300","八里區"
"249004","303-UY","2017/07/28 17:28:49","新北市八里區民有街24號","121.415868333333","25.156755","6502300","八里區"
"249002","305-UY","2017/07/28 17:28:45","新北市八里區龍米路一段221號","121.451276666667","25.1319166666667","6502300","八里區"
"249003","593-UM","2017/07/28 17:28:53","新北市八里區中山路二段335號","121.400126666667","25.1475816666667","6502300","八里區"
"249001","759-BX","2017/07/28 17:28:53","新北市八里區大崁腳48-51號","121.42519","25.159225","6502300","八里區"
"232011","375-UM","2017/07/28 17:28:55","新北市坪林區北宜路八段511號","121.706386666667","24.9206283333333","6502000","坪林區"
"244007","080-UY","2017/07/28 17:28:50","新北市林口區建國路2號","121.387351666667","25.09289","6501700","林口區"
"244019","403-UM","2017/07/28 17:28:56","新北市林口區公園路223巷15號","121.373281666667","25.0748","6501700","林口區"
"244009","410-SL","2017/07/28 17:28:50","新北市林口區中華路355號","121.381201666667","25.0924516666667","6501700","林口區"
"244023","483-VK","2017/07/28 17:28:47","新北市林口區隆林街75號","121.386543333333","25.075285","6501700","林口區"
"244017","485-VK","2017/07/28 17:28:57","新北市林口區粉寮路二段28號","121.402998333333","25.0864366666667","6501700","林口區"
"244021","838-TS","2017/07/28 17:28:54","新北市林口區粉寮路一段139號","121.399111666667","25.0812433333333","6501700","林口區"
"241011","013-R5","2017/07/28 17:28:46","新北市三重區河邊北街122-1號","121.503671666667","25.071405","6500200","三重區"
"241015","062-VK","2017/07/28 17:28:56","新北市三重區長元街65巷16弄15號","121.503571666667","25.0662","6500200","三重區"
"241017","063-VK","2017/07/28 17:28:46","新北市三重區大同北路34巷25號","121.494166666667","25.06239","6500200","三重區"
"241024","065-VK","2017/07/28 17:29:01","新北市三重區大勇街82巷15弄5號","121.479961666667","25.0718366666667","6500200","三重區"
"241026","066-VK","2017/07/28 17:28:46","新北市三重區光興街3號","121.500168333333","25.060405","6500200","三重區"
"241003","156-TC","2017/07/28 17:28:51","新北市三重區仁義街288號","121.493586666667","25.0862983333333","6500200","三重區"
"241005","262-UM","2017/07/28 17:28:55","新北市三重區永安北路二段43巷27號","121.483105","25.0827566666667","6500200","三重區"
"241014","265-UM","2017/07/28 17:28:57","新北市三重區安和路17號","121.501346666667","25.0685116666667","6500200","三重區"
"241016","266-UM","2017/07/28 17:29:01","新北市三重區大同北路81號","121.494968333333","25.063675","6500200","三重區"
"241022","267-UM","2017/07/28 17:28:49","新北市三重區新北大道一段7號","121.489493333333","25.0613333333333","6500200","三重區"
"241018","268-UM","2017/07/28 17:28:54","新北市三重區國隆路7號","121.493338333333","25.0637983333333","6500200","三重區"
"241032","269-UM","2017/07/28 17:28:51","新北市三重區名源街30號","121.482231666667","25.0599183333333","6500200","三重區"
"241013","270-UM","2017/07/28 17:28:56","新北市三重區仁愛街124號","121.494821666667","25.0747883333333","6500200","三重區"
"241025","271-UM","2017/07/28 17:28:47","新北市三重區中正北路380號","121.476473333333","25.06985","6500200","三重區"
"241007","398-BY","2017/07/28 17:28:55","新北市三重區慈愛街125號","121.4885","25.07986","6500200","三重區"
"241008","412-TH","2017/07/28 17:28:52","新北市三重區車路頭街77號","121.484526666667","25.0739216666667","6500200","三重區"
"241020","413-TH","2017/07/28 17:28:58","新北市三重區忠孝路二段13號","121.486758333333","25.07142","6500200","三重區"
"241019","478-VK","2017/07/28 17:29:01","新北市三重區自強路二段24號","121.489618333333","25.0692333333333","6500200","三重區"
"241030","480-VK","2017/07/28 17:29:01","新北市三重區新興路41號","121.49166","25.0536433333333","6500200","三重區"
"241023","545-UM","2017/07/28 17:28:49","新北市三重區三民街146巷5號","121.481463333333","25.0645833333333","6500200","三重區"
"241012","941-UM","2017/07/28 17:28:58","新北市三重區仁興街33巷3號","121.499381666667","25.075355","6500200","三重區"
"241029","942-UM","2017/07/28 17:28:47","新北市三重區集美街24-1號","121.488483333333","25.0548433333333","6500200","三重區"
"241033","AAC-255","2017/07/28 17:28:51","新北市三重區興德路133號","121.470166666667","25.05287","6500200","三重區"
"235064","005-UY","2017/07/28 16:21:57","新北市中和區員山路36巷16-3號","121.485116666667","24.99134","6500300","中和區"
"235056","096-UM","2017/07/28 15:57:40","新北市中和區員山路36巷16號","121.484346666667","24.9915533333333","6500300","中和區"
"235022","151-BY","2017/07/28 17:15:32","新北市中和區員山路36巷16-2號","121.485123333333","24.9916166666667","6500300","中和區"
"235067","255-BX","2017/07/28 16:20:16","新北市中和區員山路36巷16號","121.484391666667","24.9914783333333","6500300","中和區"
"235061","378-QA","2017/07/28 14:53:38","新北市中和區員山路36巷13號","121.484305","24.9914016666667","6500300","中和區"
"235062","800-TS","2017/07/28 17:22:42","新北市中和區員山路36巷16-3號","121.485053333333","24.9912466666667","6500300","中和區"
"247020","893-R6","2017/07/28 17:28:44","新北市蘆洲區仁愛街101巷8號","121.470713333333","25.0941333333333","6501400","蘆洲區"
"247010","546-UM","2017/07/28 17:28:51","新北市蘆洲區信義路187號","121.479676666667","25.0826416666667","6501400","蘆洲區"
"247018","500-BY","2017/07/28 17:28:57","新北市蘆洲區水湳街31號","121.471991666667","25.0880183333333","6501400","蘆洲區"
"247006","341-TH","2017/07/28 17:28:42","新北市蘆洲區長安街22巷39弄17號","121.464495","25.0807816666667","6501400","蘆洲區"
"247008","339-TH","2017/07/28 17:28:54","新北市蘆洲區民生街105號","121.473473333333","25.0787116666667","6501400","蘆洲區"
"247024","337-TH","2017/07/28 17:28:59","新北市蘆洲區長興路291號","121.460143333333","25.088845","6501400","蘆洲區"
"247001","336-TH","2017/07/28 17:28:48","新北市蘆洲區永樂街38巷67弄14號","121.457866666667","25.0908466666667","6501400","蘆洲區"
"247014","057-VK","2017/07/28 17:28:57","新北市蘆洲區三民路38-1號","121.475616666667","25.0831383333333","6501400","蘆洲區"
"247004","056-VK","2017/07/28 17:29:02","新北市蘆洲區永安南路二段308號","121.457455","25.0824783333333","6501400","蘆洲區"
"247012","007-UY","2017/07/28 17:28:47","新北市蘆洲區民權路25號","121.47618","25.0863216666667","6501400","蘆洲區"
"247022","002-UY","2017/07/28 17:28:55","新北市蘆洲區三民路236號","121.468335","25.0896916666667","6501400","蘆洲區"
"247016","001-UY","2017/07/28 17:28:50","新北市蘆洲區中正路185巷31弄37號","121.467178333333","25.083435","6501400","蘆洲區"
"228002","663-BX","2017/07/28 17:28:45","新北市貢寮區福隆里興隆街36號","121.94153","25.0170916666667","6502600","貢寮區"
"228001","670-TC","2017/07/28 17:28:51","新北市貢寮區仁理村仁愛路39號","121.924953333333","25.0533733333333","6502600","貢寮區"
"228003","828-UM","2017/07/28 17:28:53","新北市貢寮區仁理村研海街42號","121.926213333333","25.0414066666667","6502600","貢寮區"
"224010","AGQ-8101","2017/07/28 08:47:42","新北市瑞芳區民權街3-1號","121.809408333333","25.10817","6501200","瑞芳區"
"224006","676-BX","2017/07/28 17:28:44","新北市瑞芳區傑魚坑路181-3號","121.788666666667","25.1084133333333","6501200","瑞芳區"
"224009","285-BY","2017/07/28 17:28:50","新北市瑞芳區汽車路21號","121.84546","25.1106316666667","6501200","瑞芳區"
"224008","275-VK","2017/07/28 17:28:58","新北市瑞芳區九芎橋路17號","121.832806666667","25.0927233333333","6501200","瑞芳區"
"224005","271-BY","2017/07/28 17:28:51","新北市瑞芳區海濱路3巷1-11號","121.841756666667","25.1274483333333","6501200","瑞芳區"
"227003","400-TW","2017/07/28 17:29:01","新北市雙溪區平林里外平林72號","121.845823333333","25.0313166666667","6502500","雙溪區"
"251004","009-UM","2017/07/28 17:28:58","新北市淡水區中正東路二段88巷15號","121.459103333333","25.150545","6501000","淡水區"
"251002","012-UM","2017/07/28 17:28:53","新北市淡水區中正路二段38號","121.419555","25.1823266666667","6501000","淡水區"
"251013","180-VK","2017/07/28 17:28:57","新北市淡水區水尾子2號","121.463875","25.1942333333333","6501000","淡水區"
"251008","181-VK","2017/07/28 17:28:53","新北市淡水區大同路100巷9號","121.462706666667","25.13971","6501000","淡水區"
"251015","182-VK","2017/07/28 17:28:44","新北市淡水區三空泉16-10號","121.47125","25.1650166666667","6501000","淡水區"
"251010","413-VK","2017/07/28 17:28:48","新北市淡水區中正路二段211號","121.426226666667","25.1891266666667","6501000","淡水區"
"251012","441-VK","2017/07/28 17:28:56","新北市淡水區北新路124號","121.448055","25.1783516666667","6501000","淡水區"
"251005","443-VK","2017/07/28 17:28:54","新北市淡水區鄧公路31巷2號","121.451205","25.1706316666667","6501000","淡水區"
"251006","561-UM","2017/07/28 17:28:54","新北市淡水區大仁街29號","121.442611666667","25.1754333333333","6501000","淡水區"
"251009","575-R6","2017/07/28 17:28:53","新北市淡水區新生街90巷4號","121.439575","25.174475","6501000","淡水區"
"251007","577-R6","2017/07/28 17:28:51","新北市淡水區民生路47-4號","121.462106666667","25.137985","6501000","淡水區"
"251011","650-BX","2017/07/28 17:28:48","新北市淡水區坪頂路718號","121.482541666667","25.1585116666667","6501000","淡水區"
"251003","673-BX","2017/07/28 17:29:02","新北市淡水區中山路159-1號","121.440806666667","25.172945","6501000","淡水區"
"207003","550-UM","2017/07/28 17:28:59","新北市萬里區龜吼里玉田路46-10號","121.683271666667","25.1891416666667","6502800","萬里區"
"207004","225-TW","2017/07/28 17:29:03","新北市萬里區萬里里景美路15-1號","121.686575","25.173325","6502800","萬里區"
"252002","178-VK","2017/07/28 17:28:59","新北市三芝區忠孝街1-14號","121.505555","25.2540333333333","6502100","三芝區"
"252001","292-VK","2017/07/28 17:28:56","新北市三芝區長安街119號","121.498046666667","25.2596783333333","6502100","三芝區"
"237015","649-BX","2017/07/28 17:28:58","新北市三峽區中山路459巷163-3號","121.348621666667","24.9329316666667","6500900","三峽區"
"242021","AAC-296","2017/07/28 17:28:58","新北市新莊區中港路1號","121.45492","25.0368733333333","6500500","新莊區"
"242048","751-BX","2017/07/28 17:28:59","新北市新莊區四維路210號","121.42137","25.02013","6500500","新莊區"
"242029","705-TV","2017/07/28 17:28:51","新北市新莊區復興路二段167號","121.45848","25.0443583333333","6500500","新莊區"
"242025","615-BX","2017/07/28 17:28:56","新北市新莊區復興路一段199號","121.452025","25.0436133333333","6500500","新莊區"
"242023","613-BX","2017/07/28 17:28:51","新北市新莊區公園路37號","121.453076666667","25.0402333333333","6500500","新莊區"
"242027","612-BX","2017/07/28 17:29:01","新北市新莊區復興路一段213號","121.452571666667","25.0437183333333","6500500","新莊區"
"242037","566-BX","2017/07/28 17:28:55","新北市新莊區建國二路1號","121.434883333333","25.0236916666667","6500500","新莊區"
"242005","442-UM","2017/07/28 17:28:43","新北市新莊區復興路一段187號","121.451665","25.0435433333333","6500500","新莊區"
"242046","441-UM","2017/07/28 17:29:01","新北市新莊區新樹路67巷32號","121.440386666667","25.0303083333333","6500500","新莊區"
"242050","440-UM","2017/07/28 17:28:57","新北市新莊區瓊林南路59-8號","121.435391666667","25.0162933333333","6500500","新莊區"
"242032","415-TV","2017/07/28 17:28:50","新北市新莊區新泰路401巷6號","121.443191666667","25.044125","6500500","新莊區"
"242002","413-TV","2017/07/28 17:28:44","新北市新莊區思明街1號","121.4553","25.0354933333333","6500500","新莊區"
"242039","400-BY","2017/07/28 17:28:51","新北市新莊區民安路272號","121.427585","25.0213866666667","6500500","新莊區"
"242060","362-BY","2017/07/28 17:28:55","新北市新莊區瓊林路190-2號","121.43938","25.02083","6500500","新莊區"
"242058","353-BY","2017/07/28 17:29:03","新北市新莊區中正路516-39號","121.432453333333","25.0321183333333","6500500","新莊區"
"242041","132-UY","2017/07/28 17:29:01","新北市新莊區新樹路115號","121.437395","25.02666","6500500","新莊區"
"242034","133-UY","2017/07/28 17:28:51","新北市新莊區新莊路380號","121.44916","25.0334666666667","6500500","新莊區"
"242019","135-UY","2017/07/28 17:28:47","新北市新莊區中港路54號","121.4554","25.0385716666667","6500500","新莊區"
"242044","172-VK","2017/07/28 17:29:04","新北市新莊區富國路87號","121.420518333333","25.0257783333333","6500500","新莊區"
"242007","173-VK","2017/07/28 17:29:02","新北市新莊區自強街1號","121.454566666667","25.04556","6500500","新莊區"
"242013","175-VK","2017/07/28 17:28:58","新北市新莊區中誠街18號","121.451925","25.048285","6500500","新莊區"
"242056","176-VK","2017/07/28 17:28:45","新北市新莊區新泰路53號","121.449486666667","25.0338816666667","6500500","新莊區"
"242011","346-TH","2017/07/28 17:28:48","新北市新莊區中港路380號","121.452485","25.0478516666667","6500500","新莊區"
"242017","348-TH","2017/07/28 17:29:00","新北市新莊區中華路一段103號","121.452733333333","25.0438766666667","6500500","新莊區"
"242054","349-TH","2017/07/28 17:28:54","新北市新莊區瓊林南路305巷3號","121.434765","25.0054616666667","6500500","新莊區"
"242015","350-TH","2017/07/28 17:28:55","新北市新莊區新泰路159號","121.447606666667","25.0369466666667","6500500","新莊區"
"242009","351-TH","2017/07/28 17:28:53","新北市新莊區昌德街87號","121.455366666667","25.05483","6500500","新莊區"
"238015","755-BX","2017/07/28 17:28:44","新北市樹林區大安路265號","121.419113333333","24.9937483333333","6500700","樹林區"
"238023","601-UM","2017/07/28 17:28:47","新北市樹林區中正路433-2號","121.414955","25.0081766666667","6500700","樹林區"
"238019","599-UM","2017/07/28 17:28:51","新北市樹林區太平路51號","121.41922","24.9825366666667","6500700","樹林區"
"238018","571-TV","2017/07/28 17:28:45","新北市樹林區鎮前街269巷2號","121.42012","24.9856966666667","6500700","樹林區"
"238024","5061-A6","2017/07/28 17:29:05","新北市樹林區樹新路79巷11號","121.427173333333","24.9955683333333","6500700","樹林區"
"238022","312-TH","2017/07/28 17:29:03","新北市樹林區和平街31號","121.422638333333","24.9815683333333","6500700","樹林區"
"238021","311-TH","2017/07/28 17:28:46","新北市樹林區西圳街一段22號","121.402731666667","24.9611216666667","6500700","樹林區"
"238025","303-VK","2017/07/28 17:28:49","新北市樹林區保安二街84巷1號","121.423203333333","24.9955083333333","6500700","樹林區"
"238017","283-BY","2017/07/28 17:28:44","新北市樹林區光武街7-3號","121.415776666667","25.00534","6500700","樹林區"
"238014","282-BY","2017/07/28 17:28:58","新北市樹林區長壽街70巷31弄1號","121.42134","24.99464","6500700","樹林區"
"238020","268-VK","2017/07/28 01:42:48","新北市樹林區中山路三段204號","121.38689","24.9681833333333","6500700","樹林區"
"238026","172-UY","2017/07/28 17:28:58","新北市樹林區中山路三段43號","121.40114","24.97524","6500700","樹林區"
"238016","169-UY","2017/07/28 17:28:54","新北市樹林區中山路一段103-2號","121.423111666667","24.9908116666667","6500700","樹林區"
"239007","AAC-297","2017/07/28 17:29:02","新北市鶯歌區中山路300號","121.34302","24.95697","6500800","鶯歌區"
"239006","891-R6","2017/07/28 17:29:03","新北市鶯歌區鳳鳴路29號","121.33376","24.9652966666667","6500800","鶯歌區"
"239008","527-UM","2017/07/28 17:28:54","新北市鶯歌區大湖路582號","121.336176666667","24.9735466666667","6500800","鶯歌區"
"239005","526-UM","2017/07/28 17:28:56","新北市鶯歌區鶯桃路二段11號","121.325795","24.9718983333333","6500800","鶯歌區"
"239001","417-VK","2017/07/28 17:28:50","新北市鶯歌區中正三路136號","121.336446666667","24.9400716666667","6500800","鶯歌區"
"239003","360-BY","2017/07/28 17:28:57","新北市鶯歌區德昌街84號","121.332673333333","24.960085","6500800","鶯歌區"
"239004","193-VK","2017/07/28 17:28:47","新北市三峽區隆恩街250號","121.35712","24.9407716666667","6500800","鶯歌區"
"221002","277-VK","2017/07/28 17:28:47","新北市汐止區康寧街901號","121.651695","25.0749033333333","6501100","汐止區"
"221033","647-BX","2017/07/28 17:28:44","新北市汐止區汐萬路一段312號","121.650278333333","25.075525","6501100","汐止區"
