"lineid","car","time","location","longitude","latitude","cityid","cityname"
"234028","840-RS","2017/07/28 14:59:49","新北市永和區保順路8號","121.50391","25.0110666666667","6500400","永和區"
"234026","9371-KE","2017/07/28 17:38:59","新北市永和區中正路708號","121.51606","25.0099566666667","6500400","永和區"
"249005","172-UM","2017/07/28 17:38:56","新北市八里區荖阡坑路34-2號","121.402661666667","25.1302966666667","6502300","八里區"
"249004","303-UY","2017/07/28 17:38:30","新北市八里區埤頭二街67巷2號","121.413273333333","25.1568766666667","6502300","八里區"
"249002","305-UY","2017/07/28 17:38:58","新北市八里區龍形一街16號","121.449906666667","25.1304966666667","6502300","八里區"
"249003","593-UM","2017/07/28 17:38:53","新北市八里區中山路二段233號","121.403281666667","25.1491683333333","6502300","八里區"
"249001","759-BX","2017/07/28 17:38:53","新北市八里區龍米路二段153-8號","121.440126666667","25.1535","6502300","八里區"
"232011","375-UM","2017/07/28 17:38:55","新北市坪林區北宜路八段108號","121.70596","24.9348116666667","6502000","坪林區"
"244007","080-UY","2017/07/28 17:38:50","新北市林口區中湖48-8號","121.3832","25.09295","6501700","林口區"
"244019","403-UM","2017/07/28 17:38:56","新北市林口區公園路146號","121.37149","25.071785","6501700","林口區"
"244025","742-UY","2017/07/28 17:38:47","新北市林口區文化二路一段289-5號","121.367516666667","25.0717766666667","6501700","林口區"
"244009","410-SL","2017/07/28 17:38:50","新北市林口區文化一路二段299-2號","121.385426666667","25.0856083333333","6501700","林口區"
"244023","483-VK","2017/07/28 17:38:47","新北市林口區東明一街130號","121.390546666667","25.07088","6501700","林口區"
"244017","485-VK","2017/07/28 17:38:57","新北市林口區文化一路一段190巷5弄1號","121.378728333333","25.0753683333333","6501700","林口區"
"244011","701-TV","2017/07/28 17:38:51","新北市林口區佳林路154號","121.384216666667","25.0771083333333","6501700","林口區"
"244021","838-TS","2017/07/28 17:38:54","新北市林口區仁愛路一段26號","121.397423333333","25.0753516666667","6501700","林口區"
"222002","659-BX","2017/07/28 17:38:56","新北市深坑區深坑街95號","121.614363333333","25.0012466666667","6501800","深坑區"
"241024","065-VK","2017/07/28 17:39:01","新北市三重區大勇街31號","121.482635","25.0716416666667","6500200","三重區"
"241005","262-UM","2017/07/28 17:38:55","新北市三重區碧華街33號","121.484293333333","25.0811633333333","6500200","三重區"
"241014","265-UM","2017/07/28 17:38:57","新北市三重區河邊北街82號","121.504248333333","25.068975","6500200","三重區"
"241016","266-UM","2017/07/28 17:39:01","新北市三重區正義北路15-4號","121.497626666667","25.0631266666667","6500200","三重區"
"241007","398-BY","2017/07/28 17:38:55","新北市三重區國道路一段139號","121.4756","25.073835","6500200","三重區"
"241008","412-TH","2017/07/28 17:37:49","新北市三重區三和路四段101巷24號","121.488985","25.0772216666667","6500200","三重區"
"241019","478-VK","2017/07/28 17:39:02","新北市三重區力行路一段89巷1號","121.486551666667","25.0682016666667","6500200","三重區"
"241030","480-VK","2017/07/28 17:39:01","新北市三重區中正南路281號","121.493205","25.0521516666667","6500200","三重區"
"241023","545-UM","2017/07/28 17:38:49","新北市三重區中華路109號","121.483663333333","25.0634233333333","6500200","三重區"
"241012","941-UM","2017/07/28 17:38:59","新北市三重區河邊北街367號","121.501918333333","25.0759516666667","6500200","三重區"
"241033","AAC-255","2017/07/28 17:38:51","新北市三重區光復路一段51號","121.472093333333","25.04888","6500200","三重區"
"235064","005-UY","2017/07/28 17:38:48","新北市中和區員山路36巷16-3號","121.485038333333","24.9912583333333","6500300","中和區"
"235056","096-UM","2017/07/28 15:57:40","新北市中和區員山路36巷16號","121.484346666667","24.9915533333333","6500300","中和區"
"235022","151-BY","2017/07/28 17:15:32","新北市中和區員山路36巷16-2號","121.485123333333","24.9916166666667","6500300","中和區"
"235067","255-BX","2017/07/28 16:20:16","新北市中和區員山路36巷16號","121.484391666667","24.9914783333333","6500300","中和區"
"235061","378-QA","2017/07/28 14:53:38","新北市中和區員山路36巷13號","121.484305","24.9914016666667","6500300","中和區"
"235062","800-TS","2017/07/28 17:39:02","新北市中和區員山路36巷16-3號","121.485061666667","24.99135","6500300","中和區"
"247020","893-R6","2017/07/28 17:38:57","新北市蘆洲區民族路424號","121.473838333333","25.0917783333333","6501400","蘆洲區"
"247010","546-UM","2017/07/28 17:38:51","新北市蘆洲區中山一路70號","121.478943333333","25.08107","6501400","蘆洲區"
"247018","500-BY","2017/07/28 17:38:57","新北市蘆洲區三民路98巷5號","121.472408333333","25.0871566666667","6501400","蘆洲區"
"247006","341-TH","2017/07/28 17:38:42","新北市蘆洲區九芎街189號","121.464691666667","25.07858","6501400","蘆洲區"
"247008","339-TH","2017/07/28 17:38:54","新北市蘆洲區民生街131巷14號","121.472396666667","25.078615","6501400","蘆洲區"
"247024","337-TH","2017/07/28 17:38:59","新北市蘆洲區光榮路60號","121.461925","25.0883716666667","6501400","蘆洲區"
"247001","336-TH","2017/07/28 17:38:47","新北市蘆洲區永平街32巷11弄27號","121.457918333333","25.0917716666667","6501400","蘆洲區"
"247014","057-VK","2017/07/28 17:38:57","新北市蘆洲區中正路41號","121.471053333333","25.0823616666667","6501400","蘆洲區"
"247004","056-VK","2017/07/28 17:38:44","新北市蘆洲區長榮路106號","121.461848333333","25.0841666666667","6501400","蘆洲區"
"247012","007-UY","2017/07/28 17:38:47","新北市蘆洲區復興路124號","121.476475","25.0873366666667","6501400","蘆洲區"
"247022","002-UY","2017/07/28 17:38:55","新北市蘆洲區民族路548巷10號","121.46754","25.0894733333333","6501400","蘆洲區"
"247016","001-UY","2017/07/28 17:38:50","新北市蘆洲區中正路185巷68弄21號","121.466331666667","25.0852683333333","6501400","蘆洲區"
"228002","663-BX","2017/07/28 17:39:00","新北市貢寮區福隆里外隆林街15-11號","121.958475","25.0042666666667","6502600","貢寮區"
"228001","670-TC","2017/07/28 17:38:51","新北市貢寮區真理里新港街26巷28-6號","121.927756666667","25.0554516666667","6502600","貢寮區"
"228003","828-UM","2017/07/28 17:38:53","新北市貢寮區仁理村仁和路23號","121.923863333333","25.05361","6502600","貢寮區"
"224010","AGQ-8101","2017/07/28 17:38:53","新北市瑞芳區逢甲路89號","121.807466666667","25.1096683333333","6501200","瑞芳區"
"224006","676-BX","2017/07/28 17:38:44","新北市瑞芳區中山路340號","121.796241666667","25.11021","6501200","瑞芳區"
"224002","639-TC","2017/07/28 17:38:45","新北市瑞芳區民權街3-1號","121.809398333333","25.10817","6501200","瑞芳區"
"224009","285-BY","2017/07/28 17:38:50","新北市瑞芳區烏勢巷131號","121.84657","25.1072983333333","6501200","瑞芳區"
"224008","275-VK","2017/07/28 17:38:58","新北市瑞芳區瑞柑新村60號","121.827288333333","25.1069516666667","6501200","瑞芳區"
"224005","271-BY","2017/07/28 17:38:51","新北市瑞芳區海濱路8-6號","121.831711666667","25.1261433333333","6501200","瑞芳區"
"251004","009-UM","2017/07/28 17:38:58","新北市淡水區中正東路二段88巷37-22號","121.459423333333","25.1438316666667","6501000","淡水區"
"251002","012-UM","2017/07/28 17:38:53","新北市淡水區真理街4-1號","121.438415","25.1730716666667","6501000","淡水區"
"251013","180-VK","2017/07/28 17:38:57","新北市淡水區演戲埔腳7號","121.470575","25.1940483333333","6501000","淡水區"
"251008","181-VK","2017/07/28 17:38:53","新北市淡水區八勢路50巷8弄46號","121.463265","25.1526233333333","6501000","淡水區"
"251015","182-VK","2017/07/28 17:38:43","新北市淡水區糞箕湖1-2號","121.48263","25.1708866666667","6501000","淡水區"
"251010","413-VK","2017/07/28 17:38:47","新北市淡水區淡海路280巷21號","121.41975","25.1898533333333","6501000","淡水區"
"251012","441-VK","2017/07/28 17:38:56","新北市淡水區北新路200巷8號","121.451786666667","25.1796766666667","6501000","淡水區"
"251005","443-VK","2017/07/28 17:38:45","新北市淡水區鄧公路35巷10號","121.451866666667","25.1712416666667","6501000","淡水區"
"251001","559-UM","2017/07/28 17:38:54","新北市淡水區自強路201巷39號","121.462216666667","25.1267383333333","6501000","淡水區"
"251006","561-UM","2017/07/28 17:38:54","新北市淡水區大信街24巷2號","121.441936666667","25.1766833333333","6501000","淡水區"
"251009","575-R6","2017/07/28 17:38:53","新北市淡水區中正路38-1號","121.443698333333","25.169315","6501000","淡水區"
"251007","577-R6","2017/07/28 17:38:51","新北市淡水區民生路124巷4弄2號","121.463725","25.1380516666667","6501000","淡水區"
"251011","650-BX","2017/07/28 17:38:48","新北市淡水區小坪頂20-1號","121.48461","25.1575683333333","6501000","淡水區"
"251003","673-BX","2017/07/28 17:39:02","新北市淡水區中山北路一段104號","121.442796666667","25.1765766666667","6501000","淡水區"
"207003","550-UM","2017/07/28 17:38:59","新北市萬里區野柳里東澳路66號","121.692778333333","25.2009633333333","6502800","萬里區"
"207004","225-TW","2017/07/28 17:38:43","新北市萬里區中幅里中福路22號","121.682176666667","25.1652883333333","6502800","萬里區"
"252002","178-VK","2017/07/28 17:38:59","新北市三芝區智成街80號","121.504986666667","25.2557783333333","6502100","三芝區"
"252001","292-VK","2017/07/28 17:38:56","新北市三芝區淡金路二段4號","121.502365","25.2591833333333","6502100","三芝區"
"237011","572-TV","2017/07/28 12:46:23","新北市三峽區中山路459巷163-3號","121.348856666667","24.93315","6500900","三峽區"
"237015","649-BX","2017/07/28 17:38:58","新北市三峽區文化路312號","121.364516666667","24.9355683333333","6500900","三峽區"
"237010","706-TV","2017/07/28 17:38:54","新北市三峽區中山路138號","121.365285","24.9361166666667","6500900","三峽區"
"236043","107-UM","2017/07/28 17:38:56","新北市土城區城林路6巷80號","121.438525","24.9795866666667","6501300","土城區"
"236079","166-UM","2017/07/28 17:38:53","新北市土城區城林路6巷80號","121.438465","24.97981","6501300","土城區"
"236027","269-VK","2017/07/28 17:38:59","新北市土城區城林路6巷80號","121.438478333333","24.97957","6501300","土城區"
"236015","270-VK","2017/07/28 17:38:48","新北市土城區城林路6巷80號","121.438471666667","24.97977","6501300","土城區"
"236022","401-BY","2017/07/28 17:39:00","新北市土城區城林路6巷80號","121.438686666667","24.9797133333333","6501300","土城區"
"236050","913-UM","2017/07/28 17:38:52","新北市土城區城林路6巷80號","121.438426666667","24.9797333333333","6501300","土城區"
"236055","AAC-216","2017/07/28 17:38:42","新北市土城區城林路6巷80號","121.438508333333","24.97977","6501300","土城區"
"242021","AAC-296","2017/07/28 17:38:58","新北市新莊區中華路一段45巷2號","121.45199","25.038265","6500500","新莊區"
"242048","751-BX","2017/07/28 17:38:59","新北市新莊區萬安街119號","121.42072","25.0225783333333","6500500","新莊區"
"242029","705-TV","2017/07/28 17:38:31","新北市新莊區復興路一段207號","121.452233333333","25.0436683333333","6500500","新莊區"
"242025","615-BX","2017/07/28 17:39:03","新北市新莊區復興路二段137號","121.457363333333","25.0444966666667","6500500","新莊區"
"242023","613-BX","2017/07/28 17:38:51","新北市新莊區中港路132巷24號","121.45637","25.0406583333333","6500500","新莊區"
"242027","612-BX","2017/07/28 17:38:40","新北市新莊區思源路56號","121.460105","25.0441866666667","6500500","新莊區"
"242037","566-BX","2017/07/28 17:38:55","新北市新莊區後港一路169號","121.432273333333","25.0282","6500500","新莊區"
"242005","442-UM","2017/07/28 17:38:43","新北市新莊區自立街87號","121.455146666667","25.04546","6500500","新莊區"
"242046","441-UM","2017/07/28 17:38:41","新北市新莊區新樹路8號","121.440343333333","25.0324366666667","6500500","新莊區"
"242050","440-UM","2017/07/28 17:38:57","新北市新莊區西盛街195號","121.428153333333","25.01727","6500500","新莊區"
"242032","415-TV","2017/07/28 17:38:50","新北市新莊區新泰路334號","121.444845","25.04202","6500500","新莊區"
"242002","413-TV","2017/07/28 17:38:44","新北市新莊區新莊路228號","121.452723333333","25.03428","6500500","新莊區"
"242039","400-BY","2017/07/28 17:38:51","新北市新莊區民全街16號","121.429041666667","25.02193","6500500","新莊區"
"242060","362-BY","2017/07/28 17:39:04","新北市新莊區瓊林南路82號","121.43418","25.01244","6500500","新莊區"
"242058","353-BY","2017/07/28 17:38:50","新北市新莊區中正路672號","121.420883333333","25.0284833333333","6500500","新莊區"
"242041","132-UY","2017/07/28 17:39:01","新北市新莊區建國一路9號","121.43388","25.0318433333333","6500500","新莊區"
"242034","133-UY","2017/07/28 17:38:51","新北市新莊區新莊路504號","121.4461","25.0332333333333","6500500","新莊區"
"242019","135-UY","2017/07/28 17:38:47","新北市新莊區中港路160號","121.455036666667","25.0414416666667","6500500","新莊區"
"242044","172-VK","2017/07/28 17:38:44","新北市新莊區中正路871巷9弄2號","121.418708333333","25.026815","6500500","新莊區"
"242007","173-VK","2017/07/28 17:39:02","新北市新莊區福樂街120號","121.457108333333","25.0478866666667","6500500","新莊區"
"242013","175-VK","2017/07/28 17:38:58","新北市新莊區中誠街96號","121.449923333333","25.04782","6500500","新莊區"
"242056","176-VK","2017/07/28 17:38:56","新北市新莊區泰豐街30巷2號","121.448586666667","25.0319133333333","6500500","新莊區"
"242011","346-TH","2017/07/28 17:38:48","新北市新莊區中港路556-1號","121.451605","25.05296","6500500","新莊區"
"242017","348-TH","2017/07/28 17:39:00","新北市新莊區中和街30巷15號","121.448936666667","25.0439233333333","6500500","新莊區"
"242054","349-TH","2017/07/28 17:38:56","新北市新莊區新樹路412號","121.432045","25.0024583333333","6500500","新莊區"
"242015","350-TH","2017/07/28 17:38:55","新北市新莊區新泰路300號","121.445446666667","25.0409466666667","6500500","新莊區"
"242009","351-TH","2017/07/28 17:38:53","新北市新莊區福壽街169巷3號","121.457308333333","25.0536216666667","6500500","新莊區"
"238015","755-BX","2017/07/28 17:38:44","新北市樹林區啟智街34號","121.420811666667","24.9933633333333","6500700","樹林區"
"238023","601-UM","2017/07/28 17:38:47","新北市樹林區中正路438號","121.413438333333","25.0116066666667","6500700","樹林區"
"238019","599-UM","2017/07/28 17:38:51","新北市樹林區太平路127巷10號","121.419671666667","24.980685","6500700","樹林區"
"238018","571-TV","2017/07/28 17:38:56","新北市樹林區鎮前街190號","121.423961666667","24.9894366666667","6500700","樹林區"
"238024","5061-A6","2017/07/28 17:38:45","新北市樹林區博愛街194號","121.424888333333","24.9894966666667","6500700","樹林區"
"238022","312-TH","2017/07/28 17:38:43","新北市樹林區和平街16號","121.421843333333","24.9812083333333","6500700","樹林區"
"238021","311-TH","2017/07/28 17:38:46","新北市樹林區西圳街一段203巷13號","121.393331666667","24.9595466666667","6500700","樹林區"
"238025","303-VK","2017/07/28 17:38:49","新北市樹林區保安街二段24號","121.415426666667","25.0017983333333","6500700","樹林區"
"238017","283-BY","2017/07/28 17:38:44","新北市樹林區中正路234巷17號","121.418638333333","25.0076233333333","6500700","樹林區"
"238014","282-BY","2017/07/28 17:38:58","新北市樹林區保安街一段294巷22號","121.420325","24.99874","6500700","樹林區"
"238020","268-VK","2017/07/28 01:42:48","新北市樹林區中山路三段204號","121.38689","24.9681833333333","6500700","樹林區"
"238026","172-UY","2017/07/28 17:38:58","新北市樹林區新興街19巷34弄1號","121.402086666667","24.9734483333333","6500700","樹林區"
"238016","169-UY","2017/07/28 17:38:54","新北市樹林區中山路一段108巷1號","121.422821666667","24.9908216666667","6500700","樹林區"
"239007","AAC-297","2017/07/28 17:38:42","新北市鶯歌區鶯桃路182巷24號","121.337456666667","24.956225","6500800","鶯歌區"
"239006","891-R6","2017/07/28 17:38:58","新北市鶯歌區鶯桃路524-1號","121.331608333333","24.966635","6500800","鶯歌區"
"239008","527-UM","2017/07/28 17:38:54","新北市鶯歌區大湖路391號","121.331003333333","24.978935","6500800","鶯歌區"
"239005","526-UM","2017/07/28 17:38:56","新北市鶯歌區福隆二街15號","121.325236666667","24.97194","6500800","鶯歌區"
"239001","417-VK","2017/07/28 17:38:50","新北市鶯歌區中正三路234-6號","121.330543333333","24.93702","6500800","鶯歌區"
"239003","360-BY","2017/07/28 17:38:57","新北市鶯歌區鶯桃路206巷14號","121.337566666667","24.959445","6500800","鶯歌區"
"239004","193-VK","2017/07/28 17:38:47","新北市鶯歌區三鶯路102號","121.359066666667","24.9438316666667","6500800","鶯歌區"
"221008","489-VK","2017/07/28 17:38:55","新北市汐止區康寧街901號","121.651361666667","25.0749683333333","6501100","汐止區"
"221010","269-BY","2017/07/28 17:38:49","新北市汐止區汐萬路一段418巷46號","121.651106666667","25.0790916666667","6501100","汐止區"
"221023","277-VK","2017/07/28 17:38:47","新北市汐止區康寧街901號","121.6517","25.074905","6501100","汐止區"
"221032","280-BY","2017/07/28 17:38:45","新北市汐止區樟樹二路355-1號","121.644586666667","25.0750416666667","6501100","汐止區"
"221033","647-BX","2017/07/28 17:38:44","新北市汐止區大同路一段150號","121.631776666667","25.0557383333333","6501100","汐止區"
