"lineid","car","time","location","longitude","latitude","cityid","cityname"
"234046","148-BY","2017/07/28 19:38:59","新北市永和區秀朗路二段165號","121.525266666667","25.0015933333333","6500400","永和區"
"234013","149-BY","2017/07/28 19:38:56","新北市永和區永平路230號","121.508866666667","25.0107683333333","6500400","永和區"
"234007","207-UY","2017/07/28 19:38:49","新北市永和區中和路545號","121.511578333333","25.0033133333333","6500400","永和區"
"234081","298-R6","2017/07/28 19:38:52","新北市永和區國中路104巷8弄23號","121.525485","25.0062283333333","6500400","永和區"
"234038","336-UY","2017/07/28 19:38:59","新北市永和區環河東路四段10號","121.52842","24.9999783333333","6500400","永和區"
"234064","337-UY","2017/07/28 19:38:52","新北市永和區秀朗路二段24巷43號","121.520035","25.001915","6500400","永和區"
"234086","338-UY","2017/07/28 19:38:48","新北市永和區永亨路165巷1-4號","121.52609","25.0042683333333","6500400","永和區"
"234070","552-UM","2017/07/28 19:38:58","新北市永和區永和路二段254號","121.51597","25.0149683333333","6500400","永和區"
"234054","553-UM","2017/07/28 19:38:44","新北市永和區竹林路39巷18號","121.518633333333","25.014635","6500400","永和區"
"234017","745-BX","2017/07/28 19:38:51","新北市永和區永和路二段425巷51號","121.513861666667","25.017425","6500400","永和區"
"234030","746-BX","2017/07/28 19:38:28","新北市永和區民生路67巷38號","121.524686666667","24.99736","6500400","永和區"
"234028","840-RS","2017/07/28 14:59:49","新北市永和區保順路8號","121.50391","25.0110666666667","6500400","永和區"
"234061","AAD-866","2017/07/28 19:39:02","新北市永和區安樂路250-2號","121.514711666667","25.0037683333333","6500400","永和區"
"234042","862-TW","2017/07/28 19:39:00","新北市永和區中和路603號","121.512385","25.00445","6500400","永和區"
"234050","863-TW","2017/07/28 19:39:00","新北市永和區保安路126號","121.509023333333","25.0154983333333","6500400","永和區"
"234026","9371-KE","2017/07/28 19:38:59","新北市永和區中和路501巷10號","121.510551666667","25.0027433333333","6500400","永和區"
"234011","9373-KE","2017/07/28 19:38:51","新北市永和區保生路55號","121.504765","25.0106483333333","6500400","永和區"
"249002","305-UY","2017/07/28 19:38:45","新北市八里區頂寮二街42號","121.450426666667","25.1252283333333","6502300","八里區"
"249003","593-UM","2017/07/28 19:38:45","新北市八里區中華路二段530號","121.399336666667","25.1457716666667","6502300","八里區"
"248014","025-BX","2017/07/28 19:38:46","新北市五股區工商路154號","121.433376666667","25.087675","6501500","五股區"
"248016","026-BX","2017/07/28 19:38:56","新北市五股區成泰路三段541號","121.451818333333","25.1014866666667","6501500","五股區"
"248008","095-VK","2017/07/28 19:39:01","新北市五股區四維路118巷9號","121.468805","25.07436","6501500","五股區"
"248012","247-BX","2017/07/28 19:38:11","新北市五股區工商路99巷15號","121.43703","25.0848783333333","6501500","五股區"
"248018","261-SL","2017/07/28 19:38:37","新北市五股區外寮路1-5號","121.426158333333","25.0769816666667","6501500","五股區"
"248010","272-BY","2017/07/28 19:38:50","新北市五股區自強路76號","121.432865","25.07292","6501500","五股區"
"248004","677-BX","2017/07/28 19:38:47","新北市五股區工商路118號","121.436725","25.085665","6501500","五股區"
"248002","682-TV","2017/07/28 19:38:54","新北市五股區成泰路三段577巷81號","121.449668333333","25.103705","6501500","五股區"
"234023","9380-KE","2017/07/28 19:38:50","新北市永和區豫溪街57巷8弄3號","121.51755","25.01045","6500400","永和區"
"234077","969-R7","2017/07/28 19:38:55","新北市永和區民族街67巷25號","121.519508333333","24.9971616666667","6500400","永和區"
"234074","AAC-211","2017/07/28 19:38:41","新北市永和區竹林路213巷41號","121.523256666667","25.009235","6500400","永和區"
"234067","AAC-212","2017/07/28 19:38:43","新北市永和區中山路一段203號","121.508896666667","25.0087016666667","6500400","永和區"
"234003","AAC-295","2017/07/28 19:38:55","新北市永和區自由街5號","121.515001666667","25.007075","6500400","永和區"
"244019","403-UM","2017/07/28 19:38:55","新北市林口區麗園一街15號","121.376991666667","25.06921","6501700","林口區"
"244025","742-UY","2017/07/28 19:38:47","新北市林口區太平里180號","121.366585","25.1346266666667","6501700","林口區"
"243010","267-VK","2017/07/28 19:38:52","新北市泰山區民生路33號","121.430723333333","25.0522116666667","6501600","泰山區"
"243013","AAD-798","2017/07/28 19:38:56","新北市泰山區應化街7號","121.423851666667","25.0437266666667","6501600","泰山區"
"243009","297-R6","2017/07/28 19:38:54","新北市泰山區美寧街60號","121.430895","25.0646866666667","6501600","泰山區"
"243015","380-SR","2017/07/28 19:38:43","新北市泰山區民權街15號","121.428356666667","25.0508766666667","6501600","泰山區"
"243014","421-VK","2017/07/28 19:38:45","新北市泰山區仁愛路159號","121.435095","25.0564016666667","6501600","泰山區"
"243011","549-UM","2017/07/28 19:39:01","新北市泰山區明志路三段196巷21弄15號","121.422775","25.0382833333333","6501600","泰山區"
"243012","646-TV","2017/07/28 19:38:45","新北市泰山區仁愛路100巷9號","121.433455","25.0552333333333","6501600","泰山區"
"243016","680-BX","2017/07/28 19:38:57","新北市泰山區新北大道七段21號","121.420368333333","25.0321066666667","6501600","泰山區"
"222003","436-BY","2017/07/28 19:38:46","新北市深坑區深南路51-1號","121.621148333333","25.010005","6501800","深坑區"
"222001","628-TS","2017/07/28 19:38:55","新北市深坑區深坑街140號","121.613175","25.0013283333333","6501800","深坑區"
"222002","659-BX","2017/07/28 19:38:56","新北市深坑區北深路一段177號","121.63245","25.01089","6501800","深坑區"
"231041","002-UM","2017/07/28 19:38:47","新北市新店區中正路485號","121.533813333333","24.981895","6500600","新店區"
"231059","046-UY","2017/07/28 19:38:45","新北市新店區安和路三段33-1號","121.516861666667","24.98013","6500600","新店區"
"231061","047-UY","2017/07/28 19:38:45","新北市新店區安民街172號","121.516815","24.9708316666667","6500600","新店區"
"231060","106-UY","2017/07/28 19:38:46","新北市新店區安康路二段139號","121.511878333333","24.9602783333333","6500600","新店區"
"231051","107-UY","2017/07/28 19:38:42","新北市新店區中央五街84號","121.52631","24.9761933333333","6500600","新店區"
"231048","108-UY","2017/07/28 19:38:46","新北市新店區中興路一段308號","121.54673","24.969915","6500600","新店區"
"231053","187-VK","2017/07/28 19:38:54","新北市新店區廣興路30-1號","121.54021","24.9118883333333","6500600","新店區"
"231057","256-BX","2017/07/28 19:38:48","新北市新店區橘園一路11號","121.547965","24.9340866666667","6500600","新店區"
"231068","260-TV","2017/07/28 19:38:51","新北市新店區安康路一段111號","121.528581666667","24.9617133333333","6500600","新店區"
"231063","268-BY","2017/07/28 19:38:51","新北市新店區達觀路41號","121.502763333333","24.9382483333333","6500600","新店區"
"231046","278-BY","2017/07/28 19:38:46","新北市新店區自由街9號","121.53571","24.9749833333333","6500600","新店區"
"231050","AAD-862","2017/07/28 19:38:47","新北市新店區郵政路3巷2號","121.557298333333","24.9519033333333","6500600","新店區"
"231058","3712-VJ","2017/07/28 19:38:48","新北市新店區中正路76巷11弄22號","121.543711666667","24.9717233333333","6500600","新店區"
"231067","4772-VM","2017/07/28 19:38:54","新北市新店區安康路二段295-1號","121.502988333333","24.9576133333333","6500600","新店區"
"231065","512-UM","2017/07/28 19:38:55","新北市新店區安祥路109巷85弄1號","121.477825","24.96034","6500600","新店區"
"231054","513-UM","2017/07/28 19:39:00","新北市新店區北宜路一段41號","121.53833","24.9571766666667","6500600","新店區"
"231064","515-UM","2017/07/28 19:38:54","新北市新店區安和路一段52巷2號","121.517605","24.9661783333333","6500600","新店區"
"231045","617-UM","2017/07/28 19:39:00","新北市新店區北宜路二段150-1號","121.557803333333","24.9539716666667","6500600","新店區"
"231040","619-UM","2017/07/28 19:38:59","新北市新店區北新路一段96巷23號","121.542893333333","24.968715","6500600","新店區"
"231042","641-BX","2017/07/28 19:39:01","新北市新店區中興路一段216號","121.543761666667","24.965795","6500600","新店區"
"231049","719-UM","2017/07/28 19:38:50","新北市新店區大豐路53號","121.540036666667","24.9797266666667","6500600","新店區"
"231062","720-UM","2017/07/28 19:38:59","新北市新店區碧潭路24號","121.534348333333","24.9562983333333","6500600","新店區"
"231044","897-TW","2017/07/28 19:38:58","新北市新店區北新路三段81號","121.541583333333","24.9815083333333","6500600","新店區"
"231043","899-TW","2017/07/28 19:39:01","新北市新店區北新路二段27-2號","121.542793333333","24.971755","6500600","新店區"
"231066","AKT-0513","2017/07/28 19:39:01","新北市新店區安康路二段341巷21號","121.497106666667","24.9545783333333","6500600","新店區"
"241011","013-R5","2017/07/28 19:38:46","新北市三重區秀江街196號","121.497605","25.0716033333333","6500200","三重區"
"241028","022-UY","2017/07/28 19:38:52","新北市三重區中正南路157號","121.49381","25.0560983333333","6500200","三重區"
"241009","060-VK","2017/07/28 19:38:58","新北市三重區三和路四段420-1號","121.480488333333","25.07985","6500200","三重區"
"241031","061-VK","2017/07/28 19:38:59","新北市三重區重新路四段248號","121.486058333333","25.05345","6500200","三重區"
"241015","062-VK","2017/07/28 19:39:02","新北市三重區福德北路34號","121.502036666667","25.0651883333333","6500200","三重區"
"241017","063-VK","2017/07/28 19:38:45","新北市三重區大同北路184巷10號","121.491393333333","25.0655333333333","6500200","三重區"
"241026","066-VK","2017/07/28 19:38:40","新北市三重區文化南路47巷19號","121.499526666667","25.0611616666667","6500200","三重區"
"241014","265-UM","2017/07/28 19:38:52","新北市三重區河邊北街84號","121.504208333333","25.06929","6500200","三重區"
"241022","267-UM","2017/07/28 19:38:57","新北市三重區中正北路154號","121.484785","25.0658616666667","6500200","三重區"
"241013","270-UM","2017/07/28 19:38:51","新北市三重區仁賢街9號","121.49596","25.0746033333333","6500200","三重區"
"241025","271-UM","2017/07/28 19:38:46","新北市三重區頂崁街193號","121.477528333333","25.06652","6500200","三重區"
"241007","398-BY","2017/07/28 19:38:55","新北市三重區三和路四段125巷74號","121.48728","25.07853","6500200","三重區"
"241008","412-TH","2017/07/28 19:38:58","新北市三重區永福街127號","121.479003333333","25.0769566666667","6500200","三重區"
"241020","413-TH","2017/07/28 19:38:58","新北市三重區三和路四段20巷100號","121.488595","25.0732466666667","6500200","三重區"
"241019","478-VK","2017/07/28 19:38:56","新北市三重區安慶街297巷3弄2號","121.488558333333","25.0682133333333","6500200","三重區"
"241030","480-VK","2017/07/28 19:39:01","新北市三重區新興路32號","121.49192","25.0532683333333","6500200","三重區"
"241023","545-UM","2017/07/28 19:38:45","新北市三重區忠孝路三段99巷14號","121.479626666667","25.064205","6500200","三重區"
"241006","AAD-863","2017/07/28 19:38:54","新北市三重區聯華街106號","121.485325","25.075105","6500200","三重區"
"241035","743-BX","2017/07/28 19:38:57","新北市三重區長元西街70號","121.497338333333","25.0655183333333","6500200","三重區"
"241012","941-UM","2017/07/28 19:38:58","新北市三重區仁興街33巷94號","121.501335","25.0762933333333","6500200","三重區"
"241029","942-UM","2017/07/28 19:38:47","新北市三重區重安街102號","121.493088333333","25.056005","6500200","三重區"
"235066","003-UY","2017/07/28 19:38:44","新北市中和區景新街135號","121.505876666667","24.9971366666667","6500300","中和區"
"235064","005-UY","2017/07/28 19:38:47","新北市中和區南山路60-1號","121.502083333333","24.9970183333333","6500300","中和區"
"235063","006-UY","2017/07/28 19:38:59","新北市中和區連城路164號","121.493935","24.9976633333333","6500300","中和區"
"235056","096-UM","2017/07/28 19:39:00","新北市中和區員山路581巷31弄29號","121.47658","25.010295","6500300","中和區"
"235039","097-UM","2017/07/28 19:38:57","新北市中和區秀峰街119巷8弄9號","121.519068333333","24.9899016666667","6500300","中和區"
"235065","098-UM","2017/07/28 19:38:48","新北市中和區福美路269號","121.498121666667","25.0049333333333","6500300","中和區"
"235058","151-BY","2017/07/28 19:38:45","新北市中和區員山路124巷3號","121.481605","24.996","6500300","中和區"
"235055","183-VK","2017/07/28 19:38:49","新北市中和區民享街27巷1號","121.474055","25.0047716666667","6500300","中和區"
"235038","185-VK","2017/07/28 19:38:54","新北市中和區立人街41號","121.520758333333","24.9941816666667","6500300","中和區"
"235049","186-VK","2017/07/28 19:38:53","新北市中和區景新街261號","121.508733333333","24.994085","6500300","中和區"
"235067","255-BX","2017/07/28 19:38:49","新北市中和區新生街264號","121.483586666667","24.9972116666667","6500300","中和區"
"235044","293-VK","2017/07/28 19:38:48","新北市中和區捷運路189號","121.505408333333","24.9913866666667","6500300","中和區"
"235072","301-VK","2017/07/28 19:39:02","新北市中和區連城路176號","121.493115","24.9969933333333","6500300","中和區"
"235043","352-BY","2017/07/28 19:38:46","新北市中和區安樂路46號","121.511988333333","24.99292","6500300","中和區"
"235051","376-QA","2017/07/28 19:38:46","新北市中和區南山路148號","121.5041","24.9922233333333","6500300","中和區"
"235068","377-QA","2017/07/28 19:38:43","新北市中和區中和路53號","121.500551666667","25.0014333333333","6500300","中和區"
"235061","378-QA","2017/07/28 19:38:29","新北市中和區民利街9巷2弄4號","121.480591666667","24.99874","6500300","中和區"
"235050","4979-A6","2017/07/28 19:38:45","新北市中和區員山路36巷16-3號","121.484575","24.9911533333333","6500300","中和區"
"235042","551-UM","2017/07/28 19:38:44","新北市中和區保健路46巷25-1號","121.508905","24.9959733333333","6500300","中和區"
"235070","558-UM","2017/07/28 19:38:53","新北市中和區中山路二段238號","121.49815","25.0025383333333","6500300","中和區"
"235045","565-BX","2017/07/28 19:38:59","新北市中和區景新街383巷50號","121.514445","24.9909633333333","6500300","中和區"
"235054","640-BX","2017/07/28 19:38:49","新北市中和區國光街112巷22弄15號","121.470193333333","25.0024","6500300","中和區"
"235060","647-TV","2017/07/28 19:38:44","新北市中和區中山路二段523巷41號","121.482295","25.0031283333333","6500300","中和區"
"235047","732-UM","2017/07/28 19:38:59","新北市中和區南山路231號","121.503628333333","24.993395","6500300","中和區"
"235046","733-UM","2017/07/28 19:38:50","新北市中和區忠孝街39-4號","121.511815","24.9839266666667","6500300","中和區"
"235071","783-BX","2017/07/28 19:38:57","新北市中和區中正路839巷29號","121.48358","25.00233","6500300","中和區"
"235057","801-TS","2017/07/28 19:38:42","新北市中和區員山路318號","121.48127","25.0029766666667","6500300","中和區"
"235041","802-TS","2017/07/28 19:38:55","新北市中和區中和路318號","121.50967","25.000515","6500300","中和區"
"235052","805-TS","2017/07/28 19:38:48","新北市中和區華新街206巷21弄2號","121.505955","24.9827416666667","6500300","中和區"
"235048","896-TW","2017/07/28 19:38:53","新北市中和區忠孝街2-8號","121.509235","24.9830433333333","6500300","中和區"
"235053","900-TW","2017/07/28 19:38:55","新北市中和區華順街51號","121.46663","24.9985583333333","6500300","中和區"
"235037","AAC-213","2017/07/28 19:39:00","新北市中和區秀朗路三段10巷21弄2號","121.52523","24.9964766666667","6500300","中和區"
"235059","AAC-215","2017/07/28 19:39:00","新北市中和區圓通路284號","121.491513333333","24.9906","6500300","中和區"
"220068","013-TV","2017/07/28 19:38:43","新北市板橋區中山路二段531巷17弄1號","121.482823333333","25.0222","6500100","板橋區"
"220065","072-UY","2017/07/28 19:38:51","新北市板橋區國泰街52號","121.467841666667","25.0066","6500100","板橋區"
"220086","073-UY","2017/07/28 19:38:45","新北市板橋區國光路173巷2弄1號","121.460508333333","25.0187116666667","6500100","板橋區"
"220106","075-UY","2017/07/28 19:38:45","新北市板橋區江寧路三段50號","121.471798333333","25.0320583333333","6500100","板橋區"
"220069","AAD-861","2017/07/28 19:38:44","新北市板橋區貴興路41號","121.45749","25.0036683333333","6500100","板橋區"
"247002","336-TH","2017/07/28 19:38:47","新北市蘆洲區三民路595號","121.460871666667","25.093685","6501400","蘆洲區"
"247014","057-VK","2017/07/28 19:38:56","新北市蘆洲區中正路100號","121.469935","25.08436","6501400","蘆洲區"
"247004","056-VK","2017/07/28 19:38:42","新北市蘆洲區中華街6巷8號","121.463195","25.0818833333333","6501400","蘆洲區"
"226001","205-ST","2017/07/28 19:38:47","新北市平溪區十分里十分街210號","121.779166666667","25.0443583333333","6502400","平溪區"
"228001","670-TC","2017/07/28 19:38:51","新北市貢寮區真理里延平街49號","121.924651666667","25.0556566666667","6502600","貢寮區"
"228003","828-UM","2017/07/28 19:38:53","新北市貢寮區和美里和美街22-1號","121.912796666667","25.082655","6502600","貢寮區"
"224010","AGQ-8101","2017/07/28 19:38:43","新北市瑞芳區基山街14-1號","121.845398333333","25.10894","6501200","瑞芳區"
"224002","639-TC","2017/07/28 19:38:45","新北市瑞芳區民享新村7號","121.817128333333","25.1054083333333","6501200","瑞芳區"
"227011","642-TC","2017/07/28 19:38:46","新北市雙溪區新基里新基北街22號","121.867183333333","25.0389366666667","6502500","雙溪區"
"227003","400-TW","2017/07/28 19:38:50","新北市雙溪區雙溪里內挖路83號","121.863138333333","25.0369466666667","6502500","雙溪區"
"208001","742-BX","2017/07/28 19:38:53","新北市金山區重和里六股林口25號","121.60336","25.2192233333333","6502700","金山區"
"208003","665-BX","2017/07/28 19:38:58","新北市金山區仁愛路10號","121.638491666667","25.22004","6502700","金山區"
"251013","180-VK","2017/07/28 19:38:57","新北市淡水區店子後9號","121.459843333333","25.2187","6501000","淡水區"
"251008","181-VK","2017/07/28 19:38:53","新北市淡水區中正路32巷2號","121.430905","25.1753433333333","6501000","淡水區"
"251015","182-VK","2017/07/28 19:38:43","新北市淡水區泉洲厝19號","121.490218333333","25.19078","6501000","淡水區"
"251010","413-VK","2017/07/28 19:38:47","新北市淡水區新市二路二段200號","121.429896666667","25.1951983333333","6501000","淡水區"
"251005","443-VK","2017/07/28 19:38:45","新北市淡水區原德路108巷2號","121.44342","25.1735483333333","6501000","淡水區"
"251001","559-UM","2017/07/28 19:38:54","新北市淡水區民權路51號","121.459738333333","25.1389033333333","6501000","淡水區"
"251006","561-UM","2017/07/28 19:38:54","新北市淡水區中山北路一段207巷36號","121.443126666667","25.1792683333333","6501000","淡水區"
"251009","575-R6","2017/07/28 19:38:53","新北市淡水區中山北路一段186巷13弄8號","121.445488333333","25.17914","6501000","淡水區"
"251007","577-R6","2017/07/28 19:38:51","新北市淡水區竿蓁一街53號","121.453003333333","25.1663983333333","6501000","淡水區"
"251011","650-BX","2017/07/28 19:39:00","新北市淡水區中正東路二段79號","121.460411666667","25.1539283333333","6501000","淡水區"
"207003","550-UM","2017/07/28 19:38:59","新北市萬里區大鵬里下社3號","121.647788333333","25.2165533333333","6502800","萬里區"
"207004","225-TW","2017/07/28 19:38:43","新北市萬里區萬里里瑪鋉路21號","121.687231666667","25.175425","6502800","萬里區"
"252002","178-VK","2017/07/28 19:38:59","新北市三芝區中正路一段18巷21號","121.503983333333","25.2590966666667","6502100","三芝區"
"252001","292-VK","2017/07/28 19:38:56","新北市三芝區公正街9號","121.499728333333","25.2575166666667","6502100","三芝區"
"208002","170-UY","2017/07/28 19:38:45","新北市金山區四維路4號","121.635416666667","25.2225883333333","6502700","金山區"
"237004","078-UY","2017/07/28 19:38:47","新北市三峽區金敏17號","121.391183333333","24.8744933333333","6500900","三峽區"
"237007","153-BY","2017/07/28 19:38:43","新北市三峽區二鬮路83號","121.359445","24.90694","6500900","三峽區"
"237013","252-BX","2017/07/28 19:38:56","新北市三峽區介壽路一段335號","121.381798333333","24.9304116666667","6500900","三峽區"
"237012","275-BY","2017/07/28 19:38:46","新北市三峽區民生街95號","121.37447","24.935535","6500900","三峽區"
"237008","302-VK","2017/07/28 19:38:53","新北市三峽區大同路132巷12號","121.37378","24.9273216666667","6500900","三峽區"
"237014","433-BY","2017/07/28 19:38:55","新北市三峽區嘉添1-5號","121.368223333333","24.91183","6500900","三峽區"
"237006","5529-G3","2017/07/28 19:38:50","新北市三峽區中正路一段336巷15弄2號","121.369948333333","24.9249633333333","6500900","三峽區"
"237015","649-BX","2017/07/28 19:38:58","新北市三峽區溪東路218巷32號","121.406913333333","24.9304066666667","6500900","三峽區"
"237005","AKY-6261","2017/07/28 19:38:43","新北市三峽區中山路221號","121.363325","24.937","6500900","三峽區"
"236072","105-UM","2017/07/28 19:38:52","新北市土城區清水路25巷8號","121.453383333333","24.9808283333333","6501300","土城區"
"236043","107-UM","2017/07/28 19:38:56","新北市土城區學士路31號","121.452956666667","24.982245","6501300","土城區"
"236079","166-UM","2017/07/28 19:38:53","新北市土城區中州路52巷2弄22號","121.412575","24.9579183333333","6501300","土城區"
"236031","253-BX","2017/07/28 19:38:57","新北市土城區福祥街22號","121.440995","24.9801583333333","6501300","土城區"
"236027","269-VK","2017/07/28 19:38:59","新北市土城區中央路二段61巷22號","121.443228333333","24.9787233333333","6501300","土城區"
"236039","271-VK","2017/07/28 19:38:53","新北市土城區清水路98巷3弄29號","121.458293333333","24.9808683333333","6501300","土城區"
"236022","401-BY","2017/07/28 19:39:00","新北市土城區峰廷街8號","121.468681666667","24.9877633333333","6501300","土城區"
"236050","913-UM","2017/07/28 19:38:52","新北市土城區明德路一段95號","121.465646666667","24.9830383333333","6501300","土城區"
"236063","915-UM","2017/07/28 19:38:40","新北市土城區延平街17號","121.46825","24.9910916666667","6501300","土城區"
"236055","AAC-216","2017/07/28 19:38:42","新北市土城區學府路一段221號","121.451373333333","24.9843433333333","6501300","土城區"
"242048","751-BX","2017/07/28 19:38:59","新北市新莊區後港一路30號","121.425385","25.0259766666667","6500500","新莊區"
"242005","442-UM","2017/07/28 19:39:03","新北市新莊區化成路82號","121.465186666667","25.0438816666667","6500500","新莊區"
"242032","415-TV","2017/07/28 19:39:02","新北市新莊區新泰路215號","121.44639","25.0387816666667","6500500","新莊區"
"242041","132-UY","2017/07/28 19:38:41","新北市新莊區新樹路172號","121.43478","25.0219766666667","6500500","新莊區"
"242007","173-VK","2017/07/28 19:38:42","新北市新莊區福壽街336號","121.457755","25.058345","6500500","新莊區"
"242013","175-VK","2017/07/28 19:38:53","新北市新莊區中誠街119號","121.44941","25.0475466666667","6500500","新莊區"
"242017","348-TH","2017/07/28 19:38:45","新北市新莊區新泰路277巷55號","121.443501666667","25.040095","6500500","新莊區"
"242015","350-TH","2017/07/28 19:38:59","新北市新莊區三和路12-10號","121.442151666667","25.036795","6500500","新莊區"
"238015","755-BX","2017/07/28 19:38:50","新北市樹林區日新街94號","121.421473333333","24.9901633333333","6500700","樹林區"
"238023","601-UM","2017/07/28 19:38:47","新北市樹林區三福街25號","121.408658333333","25.0166566666667","6500700","樹林區"
"238018","571-TV","2017/07/28 19:38:44","新北市樹林區八德街395號","121.415358333333","24.9713933333333","6500700","樹林區"
"238024","5061-A6","2017/07/28 19:38:45","新北市樹林區山佳街15號","121.394106666667","24.9728516666667","6500700","樹林區"
"238022","312-TH","2017/07/28 19:38:43","新北市樹林區名園街65號","121.42017","24.9778366666667","6500700","樹林區"
"238021","311-TH","2017/07/28 19:38:52","新北市樹林區學府路208號","121.377553333333","24.9499716666667","6500700","樹林區"
"238025","303-VK","2017/07/28 19:38:57","新北市樹林區中山路一段276號","121.420725","24.9870166666667","6500700","樹林區"
"238017","283-BY","2017/07/28 19:39:04","新北市樹林區保安街二段195-2號","121.414048333333","25.0036733333333","6500700","樹林區"
"238014","282-BY","2017/07/28 19:38:38","新北市樹林區保安二街64巷1弄1號","121.424045","24.9954266666667","6500700","樹林區"
"238020","268-VK","2017/07/28 01:42:48","新北市樹林區中山路三段204號","121.38689","24.9681833333333","6500700","樹林區"
"239006","891-R6","2017/07/28 19:38:58","新北市鶯歌區文化路72-4號","121.355013333333","24.9537716666667","6500800","鶯歌區"
"221008","489-VK","2017/07/28 19:38:55","新北市汐止區康寧街145號","121.62189","25.0666716666667","6501100","汐止區"
"221036","130-UY","2017/07/28 19:38:53","新北市汐止區汐萬路一段256巷1號","121.651796666667","25.074915","6501100","汐止區"
"221015","131-UY","2017/07/28 19:38:43","新北市汐止區康寧街901號","121.651551666667","25.07493","6501100","汐止區"
"221010","269-BY","2017/07/28 19:38:49","新北市汐止區連峰街5巷2號","121.646503333333","25.0769516666667","6501100","汐止區"
"221023","277-VK","2017/07/28 19:38:56","新北市汐止區民族六街21-2號","121.63009","25.0689733333333","6501100","汐止區"
"221012","278-VK","2017/07/28 15:06:12","新北市汐止區康寧街901號","121.65194","25.0751916666667","6501100","汐止區"
"221032","280-BY","2017/07/28 19:38:44","新北市汐止區南興路9號","121.652091666667","25.0622766666667","6501100","汐止區"
"221027","281-BY","2017/07/28 19:38:54","新北市汐止區忠孝東路9號","121.658303333333","25.0659","6501100","汐止區"
"221038","297-VK","2017/07/28 19:38:47","新北市汐止區忠孝東路206號","121.661823333333","25.06633","6501100","汐止區"
"221029","298-VK","2017/07/28 19:39:00","新北市汐止區康寧街901號","121.651455","25.0750166666667","6501100","汐止區"
"221021","299-VK","2017/07/28 18:51:19","新北市汐止區康寧街885巷24號","121.651643333333","25.0766983333333","6501100","汐止區"
"221031","353-TW","2017/07/28 19:38:56","新北市汐止區福德三路127號","121.63355","25.0675733333333","6501100","汐止區"
"221025","623-UM","2017/07/28 19:38:55","新北市汐止區福安街20巷11號","121.662393333333","25.064815","6501100","汐止區"
"221033","647-BX","2017/07/28 19:38:43","新北市汐止區南勢街1巷1號","121.627021666667","25.03739","6501100","汐止區"
"221002","707-TV","2017/07/28 19:38:49","新北市汐止區大同路一段219巷27號","121.633283333333","25.0583816666667","6501100","汐止區"
"221018","753-BX","2017/07/28 19:31:27","新北市汐止區康寧街901號","121.650828333333","25.075285","6501100","汐止區"
"220079","145-BY","2017/07/28 19:39:01","新北市板橋區建國街96號","121.459761666667","25.017355","6500100","板橋區"
"220080","200-UY","2017/07/28 19:38:54","新北市板橋區大觀路二段37巷134號","121.449351666667","25.001895","6500100","板橋區"
"220082","610-BX","2017/07/28 19:38:48","新北市板橋區大觀路三段212巷36號","121.429571666667","24.9931133333333","6500100","板橋區"
"220101","245-BX","2017/07/28 19:38:47","新北市板橋區莊敬路220巷56號","121.471766666667","25.0207166666667","6500100","板橋區"
"220056","276-BY","2017/07/28 19:39:00","新北市板橋區四川路二段47巷1弄1號","121.454103333333","24.994985","6500100","板橋區"
"220072","277-BY","2017/07/28 19:38:49","新北市板橋區金門街253巷17弄1號","121.433171666667","24.9886416666667","6500100","板橋區"
"220094","283-UM","2017/07/28 19:38:54","新北市板橋區銘傳街100號","121.469785","25.0316933333333","6500100","板橋區"
"220071","283-VK","2017/07/28 19:38:56","新北市板橋區忠孝路48巷7弄6號","121.461318333333","25.0004016666667","6500100","板橋區"
"220053","285-VK","2017/07/28 19:38:54","新北市板橋區中山路二段148巷27號","121.477235","25.01627","6500100","板橋區"
"220083","286-VK","2017/07/28 19:38:53","新北市板橋區龍興街71巷13-2號","121.44322","25.00208","6500100","板橋區"
"220081","287-VK","2017/07/28 19:38:55","新北市板橋區大觀路一段75巷5號","121.447466666667","25.0045183333333","6500100","板橋區"
"220090","288-VK","2017/07/28 19:38:59","新北市板橋區裕民街151號","121.458521666667","25.0270416666667","6500100","板橋區"
"220061","295-UM","2017/07/28 19:38:58","新北市板橋區成功路2-1號","121.475561666667","25.0168466666667","6500100","板橋區"
"220084","296-UM","2017/07/28 19:38:53","新北市板橋區滿平街84巷110弄22號","121.425888333333","24.98577","6500100","板橋區"
"220075","297-UM","2017/07/28 19:38:51","新北市板橋區大勇街79號","121.452823333333","25.0165533333333","6500100","板橋區"
"220062","305-R5","2017/07/28 19:38:57","新北市板橋區三民路二段81巷23號","121.480385","25.0168083333333","6500100","板橋區"
"220092","307-R5","2017/07/28 19:39:04","新北市板橋區民生路二段250號","121.468441666667","25.02331","6500100","板橋區"
"220098","317-R6","2017/07/28 19:38:52","新北市板橋區四維路269巷23號","121.462323333333","25.0279483333333","6500100","板橋區"
"220064","486-VK","2017/07/28 19:38:43","新北市板橋區中山路一段139-5號","121.462388333333","25.0112366666667","6500100","板橋區"
"220089","487-VK","2017/07/28 19:38:55","新北市板橋區民權路202巷30號","121.46096","25.017265","6500100","板橋區"
"220088","491-VK","2017/07/28 19:38:51","新北市板橋區文化路二段498號","121.475483333333","25.0334116666667","6500100","板橋區"
"220035","560-BX","2017/07/28 19:38:47","新北市板橋區中正路360巷15號","121.455185","25.0238783333333","6500100","板橋區"
"220103","561-BX","2017/07/28 19:38:53","新北市板橋區文化路一段286巷11號","121.467896666667","25.0214316666667","6500100","板橋區"
"220063","609-BX","2017/07/28 19:38:58","新北市板橋區萬安街27巷22號","121.483868333333","25.0228316666667","6500100","板橋區"
"220091","637-BX","2017/07/28 19:38:54","新北市板橋區懷德街139巷20弄1號","121.480021666667","25.030815","6500100","板橋區"
"220057","686-BX","2017/07/28 19:38:55","新北市中和區華順街117號","121.465291666667","24.9967416666667","6500100","板橋區"
"220077","687-BX","2017/07/28 19:38:57","新北市板橋區僑中一街96號","121.446896666667","25.0116816666667","6500100","板橋區"
"220093","689-BX","2017/07/28 19:38:51","新北市板橋區新海路454號","121.457711666667","25.0279883333333","6500100","板橋區"
"220054","741-BX","2017/07/28 19:39:04","新北市板橋區忠孝路188號","121.464958333333","25.00261","6500100","板橋區"
"220055","827-TW","2017/07/28 19:38:41","新北市板橋區國慶路149巷2弄1-4號","121.461315","24.996575","6500100","板橋區"
"220067","829-TW","2017/07/28 19:38:52","新北市板橋區長安街146號","121.472941666667","25.0102983333333","6500100","板橋區"
"220102","830-TW","2017/07/28 18:47:52","新北市板橋區萬板路15號","121.470618333333","25.02089","6500100","板橋區"
"220096","831-TW","2017/07/28 19:38:54","新北市板橋區民生路二段214號","121.469521666667","25.0216883333333","6500100","板橋區"
"220074","895-R6","2017/07/28 19:38:56","新北市板橋區後菜園街1號","121.457825","25.010335","6500100","板橋區"
"220073","985-R7","2017/07/28 19:39:00","新北市板橋區國光路33號","121.457283333333","25.01763","6500100","板橋區"
"220097","AAC-210","2017/07/28 19:38:56","新北市板橋區幸福路32巷2弄14號","121.461796666667","25.0210766666667","6500100","板橋區"
"220070","AAC-253","2017/07/28 19:38:59","新北市板橋區四川路一段223號","121.460048333333","25.0033583333333","6500100","板橋區"
