"lineid","car","time","location","longitude","latitude","cityid","cityname"
"248002","655-BX","2017/09/29 10:49:53","新北市五股區中興路二段83巷26-6號","121.45993","25.075155","6501500","五股區"
"231007","189-VK","2017/09/29 10:49:44","新北市新店區新潭路二段112-1號","121.514016666667","24.9244533333333","6500600","新店區"
"231009","192-VK","2017/09/29 10:50:02","新北市新店區廣興路5巷19號","121.545196666667","24.9151183333333","6500600","新店區"
"227005","282-VK","2017/09/29 10:47:45","新北市雙溪區泰平里泰平43號","121.832435","24.97926","6502500","雙溪區"
"237001","159-UY","2017/09/29 10:50:04","新北市三峽區國際二街21-5號","121.373221666667","24.9436966666667","6500900","三峽區"
