"lineid","car","time","location","longitude","latitude","cityid","cityname"
"248002","655-BX","2017/09/29 10:52:31","新北市五股區中興路二段83巷26-6號","121.459963333333","25.0751983333333","6501500","五股區"
"231007","189-VK","2017/09/29 11:09:44","新北市新店區新潭路一段160巷17號","121.52961","24.9319833333333","6500600","新店區"
"231009","192-VK","2017/09/29 11:05:42","新北市新店區成功路58-1號","121.538848333333","24.9001783333333","6500600","新店區"
"227005","282-VK","2017/09/29 11:08:25","新北市雙溪區魚行里丁子蘭坑17號","121.865665","25.0172766666667","6502500","雙溪區"
"237001","159-UY","2017/09/29 11:09:44","新北市三峽區國學街2號","121.37391","24.9411316666667","6500900","三峽區"
