"lineid","car","time","location","longitude","latitude","cityid","cityname"
"234012","149-BY","2017/09/29 12:19:47","新北市永和區福和路1號","121.526383333333","25.0097283333333","6500400","永和區"
"248002","655-BX","2017/09/29 10:52:31","新北市五股區中興路二段83巷26-6號","121.459963333333","25.0751983333333","6501500","五股區"
"234076","969-R7","2017/09/29 12:19:47","新北市永和區福和路1號","121.526565","25.0098166666667","6500400","永和區"
"231009","192-VK","2017/09/29 12:19:42","新北市新店區新烏路一段104-1號","121.54666","24.9371816666667","6500600","新店區"
"235025","378-QA","2017/09/29 12:15:25","新北市中和區和城路一段271巷1號","121.48537","24.991765","6500300","中和區"
"227005","282-VK","2017/09/29 12:19:44","新北市雙溪區三貂里政光路3-1號","121.850823333333","25.0631166666667","6502500","雙溪區"
