"lineid","car","time","location","longitude","latitude","cityid","cityname"
"234044","148-BY","2017/09/29 13:49:47","新北市永和區秀朗路二段77號","121.522793333333","25.0017883333333","6500400","永和區"
"234012","149-BY","2017/09/29 13:49:46","新北市永和區保安路292號","121.505118333333","25.0118716666667","6500400","永和區"
"234005","208-UY","2017/09/29 13:49:54","新北市中和區中和路454號","121.512073333333","25.0036616666667","6500400","永和區"
"234078","298-R6","2017/09/29 13:49:42","新北市永和區永亨路100號","121.523085","25.00489","6500400","永和區"
"234036","336-UY","2017/09/29 13:49:34","新北市永和區成功路二段80號","121.526623333333","24.9989933333333","6500400","永和區"
"234062","337-UY","2017/09/29 13:49:43","新北市永和區中正路368巷21號","121.51835","25.000915","6500400","永和區"
"234084","338-UY","2017/09/29 13:49:42","新北市永和區永利路9號","121.517528333333","25.00605","6500400","永和區"
"234068","552-UM","2017/09/29 13:49:44","新北市永和區竹林路77號","121.519491666667","25.0127533333333","6500400","永和區"
"234052","553-UM","2017/09/29 13:49:38","新北市永和區竹林路39巷26-2號","121.519296666667","25.0148216666667","6500400","永和區"
"234015","745-BX","2017/09/29 13:49:51","新北市永和區文化路9巷2號","121.515351666667","25.0150033333333","6500400","永和區"
"234028","746-BX","2017/09/29 13:49:40","新北市永和區民生路47巷1號","121.522973333333","24.9979616666667","6500400","永和區"
"234060","AAD-866","2017/09/29 13:49:41","新北市永和區中正路354號","121.517683333333","25.00053","6500400","永和區"
"234040","862-TW","2017/09/29 13:49:42","新北市永和區中和路389巷8號","121.508123333333","25.0009016666667","6500400","永和區"
"234048","863-TW","2017/09/29 13:49:47","新北市永和區保安路148號","121.508378333333","25.0146966666667","6500400","永和區"
"234025","9371-KE","2017/09/29 13:49:34","新北市永和區自由街58號","121.513921666667","25.00609","6500400","永和區"
"234010","9373-KE","2017/09/29 13:49:34","新北市永和區保生路55號","121.504761666667","25.010685","6500400","永和區"
"248017","225-UY","2017/09/29 13:49:40","新北市五股區凌雲路三段41-1號","121.430513333333","25.1173666666667","6501500","五股區"
"248002","655-BX","2017/09/29 10:52:31","新北市五股區中興路二段83巷26-6號","121.459963333333","25.0751983333333","6501500","五股區"
"234022","9380-KE","2017/09/29 13:49:47","新北市永和區復興街16巷5號","121.515713333333","25.0125466666667","6500400","永和區"
"234076","969-R7","2017/09/29 13:49:51","新北市永和區民族街37巷1弄2號","121.51904","24.9990883333333","6500400","永和區"
"234072","AAC-211","2017/09/29 13:49:42","新北市永和區豫溪街215巷16號","121.524061666667","25.0097866666667","6500400","永和區"
"234066","AAC-212","2017/09/29 13:49:51","新北市永和區中山路一段281巷1號","121.507323333333","25.006875","6500400","永和區"
"234001","AAC-295","2017/09/29 13:49:35","新北市永和區永和路一段83號","121.513298333333","25.0072516666667","6500400","永和區"
"244004","657-BX","2017/09/29 13:49:49","新北市林口區過崙街82號","121.356563333333","25.07427","6501700","林口區"
"231002","002-UM","2017/09/29 13:49:34","新北市新店區溪園路245-6號","121.525238333333","24.9832166666667","6500600","新店區"
"231024","0293-UT","2017/09/29 13:49:49","新北市新店區北新路一段271巷8號","121.540515","24.966895","6500600","新店區"
"231028","046-UY","2017/09/29 13:49:45","新北市新店區安和路三段46號","121.518025","24.9819783333333","6500600","新店區"
"231030","047-UY","2017/09/29 13:49:37","新北市新店區安康路一段258號","121.520435","24.96405","6500600","新店區"
"231029","106-UY","2017/09/29 13:49:54","新北市新店區安康路二段125-1號","121.512433333333","24.9608366666667","6500600","新店區"
"231018","107-UY","2017/09/29 13:49:47","新北市新店區中正路382巷25號","121.535603333333","24.9785416666667","6500600","新店區"
"231012","108-UY","2017/09/29 13:49:42","新北市新店區德正街25巷2號","121.544383333333","24.9715866666667","6500600","新店區"
"231022","187-VK","2017/09/29 13:49:52","新北市新店區湖子內路1號","121.542436666667","24.930685","6500600","新店區"
"231016","215-TC","2017/09/29 13:49:45","新北市新店區竹林路87巷4號","121.554431666667","24.9506133333333","6500600","新店區"
"231026","256-BX","2017/09/29 13:49:36","新北市新店區福園街17巷2號","121.532791666667","24.9728683333333","6500600","新店區"
"231034","268-BY","2017/09/29 13:49:48","新北市新店區達觀路14巷3號","121.503273333333","24.9418766666667","6500600","新店區"
"231010","278-BY","2017/09/29 13:49:45","新北市新店區三民路60巷19號","121.535633333333","24.97296","6500600","新店區"
"231023","AAD-862","2017/09/29 13:49:50","新北市新店區文中路51-5號","121.540355","24.9566883333333","6500600","新店區"
"231027","3712-VJ","2017/09/29 13:49:37","新北市新店區中興路一段24-2號","121.538603333333","24.95842","6500600","新店區"
"231025","4716-K9","2017/09/29 13:49:39","新北市新店區中央六街56號","121.527923333333","24.975635","6500600","新店區"
"231038","4715-K9","2017/09/29 13:49:34","新北市新店區安康路一段321巷3號","121.521796666667","24.9631816666667","6500600","新店區"
"231036","512-UM","2017/09/29 13:49:50","新北市新店區安祥路109巷151弄6號","121.478893333333","24.9576366666667","6500600","新店區"
"231035","515-UM","2017/09/29 13:49:40","新北市新店區安忠路36號","121.514368333333","24.9614066666667","6500600","新店區"
"231006","617-UM","2017/09/29 13:49:33","新北市新店區北宜路一段260號","121.545715","24.9527716666667","6500600","新店區"
"231001","619-UM","2017/09/29 13:49:32","新北市新店區三民路66號","121.53512","24.9723966666667","6500600","新店區"
"231003","641-BX","2017/09/29 13:49:34","新北市新店區中興路一段115號","121.541303333333","24.96289","6500600","新店區"
"231013","719-UM","2017/09/29 13:49:41","新北市新店區北新路三段65巷10號","121.540931666667","24.9810983333333","6500600","新店區"
"231032","720-UM","2017/09/29 13:49:42","新北市新店區莒光路44巷21弄11-2號","121.519701666667","24.95367","6500600","新店區"
"231005","897-TW","2017/09/29 13:49:40","新北市新店區寶中路121-1號","121.54967","24.9794983333333","6500600","新店區"
"231004","899-TW","2017/09/29 13:49:52","新北市新店區寶橋路53號","121.544998333333","24.9747233333333","6500600","新店區"
"231037","AKT-0513","2017/09/29 13:49:34","新北市新店區安康路三段355巷28號","121.484925","24.9496033333333","6500600","新店區"
"235030","003-UY","2017/09/29 13:49:45","新北市中和區水源路18巷3號","121.504106666667","25.0031366666667","6500300","中和區"
"235028","005-UY","2017/09/29 13:49:48","新北市中和區連城路75巷3號","121.497778333333","24.9996116666667","6500300","中和區"
"235027","006-UY","2017/09/29 13:49:49","新北市中和區中正路462號","121.490196666667","24.99437","6500300","中和區"
"235020","096-UM","2017/09/29 13:49:46","新北市中和區中正路1196號","121.48049","25.0104966666667","6500300","中和區"
"235003","097-UM","2017/09/29 13:49:49","新北市中和區大勇街25巷28號","121.516253333333","24.99359","6500300","中和區"
"235029","098-UM","2017/09/29 13:49:53","新北市中和區中山路二段2巷45弄12號","121.502026666667","25.00686","6500300","中和區"
"235004","150-BY","2017/09/29 13:49:52","新北市中和區保健路50巷62-1號","121.509376666667","24.99528","6500300","中和區"
"235022","151-BY","2017/09/29 13:49:38","新北市中和區連城路532巷16號","121.475638333333","24.9918666666667","6500300","中和區"
"235019","183-VK","2017/09/29 13:49:35","新北市中和區德光路77巷17號","121.469883333333","25.003505","6500300","中和區"
"235002","185-VK","2017/09/29 13:49:41","新北市中和區大勇街60巷30號","121.519348333333","24.9945533333333","6500300","中和區"
"235013","186-VK","2017/09/29 13:49:37","新北市中和區景安路177巷25號","121.506508333333","24.99455","6500300","中和區"
"235031","255-BX","2017/09/29 13:49:43","新北市中和區新生街285號","121.483796666667","24.9975516666667","6500300","中和區"
"235008","293-VK","2017/09/29 13:49:49","新北市中和區復興路280巷24號","121.501971666667","24.9917683333333","6500300","中和區"
"235036","301-VK","2017/09/29 13:49:44","新北市中和區中山路二段134-6號","121.502011666667","25.003365","6500300","中和區"
"235007","352-BY","2017/09/29 13:49:40","新北市中和區成功路139號","121.525808333333","24.99008","6500300","中和區"
"235032","375-QA","2017/09/29 13:49:41","新北市中和區中正路211巷36弄6號","121.49717","24.9927133333333","6500300","中和區"
"235015","376-QA","2017/09/29 13:49:44","新北市中和區忠孝街106巷19號","121.512925","24.98452","6500300","中和區"
"235025","378-QA","2017/09/29 13:49:36","新北市中和區民享街69巷2號","121.474425","25.002185","6500300","中和區"
"235035","956-SL","2017/09/29 13:49:51","新北市中和區橋和路87號","121.490225","25.0054283333333","6500300","中和區"
"235014","4979-A6","2017/09/29 13:49:48","新北市中和區忠孝街58巷16弄11號","121.512133333333","24.9828483333333","6500300","中和區"
"235033","4980-A6","2017/09/29 13:49:39","新北市中和區南山路111巷16號","121.502605","24.9976883333333","6500300","中和區"
"235006","551-UM","2017/09/29 13:49:49","新北市中和區秀朗路三段70巷12號","121.525945","24.994525","6500300","中和區"
"235034","558-UM","2017/09/29 13:43:50","新北市中和區景新街117號","121.505755","24.9976433333333","6500300","中和區"
"235009","565-BX","2017/09/29 13:49:37","新北市中和區南山路206號","121.506083333333","24.9903533333333","6500300","中和區"
"235018","640-BX","2017/09/29 13:49:50","新北市中和區民享街54巷14號","121.47331","25.0023983333333","6500300","中和區"
"235024","647-TV","2017/09/29 13:49:32","新北市中和區中山路三段116號","121.4761","25.0060316666667","6500300","中和區"
"235011","732-UM","2017/09/29 13:49:43","新北市中和區興南路二段34巷57弄1號","121.504951666667","24.9858366666667","6500300","中和區"
"235010","733-UM","2017/09/29 13:49:44","新北市中和區仁愛街36巷55號","121.511391666667","24.9863066666667","6500300","中和區"
"235026","800-TS","2017/09/29 13:49:43","新北市中和區景平路731號","121.496365","25.0041983333333","6500300","中和區"
"235021","801-TS","2017/09/29 13:49:49","新北市中和區員山路327巷92號","121.479371666667","25.002415","6500300","中和區"
"235005","802-TS","2017/09/29 13:49:32","新北市中和區永貞路249巷10號","121.512536666667","25.0037716666667","6500300","中和區"
"235016","805-TS","2017/09/29 13:49:38","新北市中和區興南路二段399巷37號","121.500636666667","24.9776966666667","6500300","中和區"
"235012","896-TW","2017/09/29 13:49:52","新北市中和區南山路411號","121.507145","24.9897666666667","6500300","中和區"
"235017","900-TW","2017/09/29 13:49:48","新北市中和區華福街33號","121.466155","24.9968516666667","6500300","中和區"
"235001","AAC-213","2017/09/29 13:49:49","新北市中和區秀朗路三段173-2號","121.52441","24.9914533333333","6500300","中和區"
"235023","AAC-215","2017/09/29 13:49:37","新北市中和區圓通路395號","121.489638333333","24.98917","6500300","中和區"
"220013","072-UY","2017/09/29 13:49:43","新北市板橋區縣民大道二段82號","121.465363333333","25.01445","6500100","板橋區"
"220034","073-UY","2017/09/29 13:49:42","新北市板橋區大智街71巷5弄1號","121.453291666667","25.0149833333333","6500100","板橋區"
"220105","075-UY","2017/09/29 13:49:36","新北市板橋區民生路二段148號","121.471501666667","25.0196133333333","6500100","板橋區"
"220017","AAD-861","2017/09/29 13:49:40","新北市板橋區華東街268號","121.452553333333","25.0007983333333","6500100","板橋區"
"247009","339-TH","2017/09/29 13:49:33","新北市三重區集賢路163號","121.487455","25.0895683333333","6501400","蘆洲區"
"247003","336-TH","2017/09/29 13:49:48","新北市蘆洲區長榮路151號","121.461606666667","25.0837366666667","6501400","蘆洲區"
"247015","057-VK","2017/09/29 13:49:51","新北市蘆洲區中正路101號","121.469856666667","25.084015","6501400","蘆洲區"
"247005","056-VK","2017/09/29 13:49:49","新北市蘆洲區中山二路256號","121.469311666667","25.0789833333333","6501400","蘆洲區"
"247007","053-VK","2017/09/29 13:49:51","新北市蘆洲區集賢路340號","121.481231666667","25.0843166666667","6501400","蘆洲區"
"208004","AAC-292","2017/09/29 13:49:40","新北市金山區重和里三重橋10號","121.592353333333","25.19496","6502700","金山區"
"207002","749-BX","2017/09/29 13:49:39","新北市萬里區崁腳里崁腳路166號","121.645193333333","25.1561033333333","6502800","萬里區"
"207001","662-BX","2017/09/29 13:49:40","新北市萬里區磺潭里公館崙58號","121.628633333333","25.2058133333333","6502800","萬里區"
"236067","105-UM","2017/09/29 13:49:48","新北市土城區城林路6巷80號","121.438386666667","24.9798233333333","6501300","土城區"
"236041","107-UM","2017/09/29 13:49:51","新北市土城區城林路6巷80號","121.438543333333","24.9797766666667","6501300","土城區"
"236077","166-UM","2017/09/29 13:49:48","新北市土城區中央路三段118號","121.435265","24.9661983333333","6501300","土城區"
"236029","253-BX","2017/09/29 13:49:49","新北市土城區城林路6巷80號","121.438423333333","24.9799233333333","6501300","土城區"
"236025","269-VK","2017/09/29 13:49:36","新北市土城區中華路二段184號","121.437433333333","24.9711583333333","6501300","土城區"
"236013","270-VK","2017/09/29 13:49:52","新北市土城區城林路6巷80號","121.438483333333","24.9798033333333","6501300","土城區"
"236035","271-VK","2017/09/29 13:49:35","新北市土城區城林路6巷80號","121.438418333333","24.9798316666667","6501300","土城區"
"236019","401-BY","2017/09/29 13:49:50","新北市土城區城林路6巷80號","121.438648333333","24.97981","6501300","土城區"
"236046","913-UM","2017/09/29 13:49:41","新北市土城區城林路6巷80號","121.438453333333","24.9798666666667","6501300","土城區"
"236061","915-UM","2017/09/29 13:49:37","新北市土城區城林路6巷80號","121.43841","24.9799066666667","6501300","土城區"
"236054","AAC-216","2017/09/29 13:49:42","新北市土城區城林路6巷80號","121.438403333333","24.97984","6501300","土城區"
"221012","278-VK","2017/09/29 13:49:43","新北市汐止區汐萬路一段256巷1號","121.651781666667","25.07494","6501100","汐止區"
"220027","145-BY","2017/09/29 13:49:49","新北市板橋區中正路13號","121.456171666667","25.0122833333333","6500100","板橋區"
"220028","200-UY","2017/09/29 13:49:53","新北市板橋區大觀路二段265巷66弄20號","121.441801666667","24.9970933333333","6500100","板橋區"
"220030","610-BX","2017/09/29 13:49:38","新北市板橋區篤行路三段17號","121.428983333333","24.9872483333333","6500100","板橋區"
"220050","245-BX","2017/09/29 02:40:27","新北市板橋區民生路二段161巷9號","121.470195","25.0194533333333","6500100","板橋區"
"220016","257-TC","2017/09/29 13:49:49","新北市板橋區富山街109巷17號","121.476051666667","25.0215766666667","6500100","板橋區"
"220004","276-BY","2017/09/29 13:49:48","新北市板橋區四川路二段99-11號","121.452041666667","24.994575","6500100","板橋區"
"220020","277-BY","2017/09/29 13:49:34","新北市板橋區金門街25巷8號","121.433851666667","24.9944116666667","6500100","板橋區"
"220012","280-UM","2017/09/29 13:49:45","新北市板橋區民生路二段15-1號","121.473055","25.0158083333333","6500100","板橋區"
"220043","283-UM","2017/09/29 13:49:48","新北市板橋區民生路二段161巷1號","121.470165","25.0199566666667","6500100","板橋區"
"220019","283-VK","2017/09/29 13:49:52","新北市板橋區忠孝路116號","121.462825","25.0022716666667","6500100","板橋區"
"220001","285-VK","2017/09/29 13:49:33","新北市板橋區民生路二段80號","121.471948333333","25.0184833333333","6500100","板橋區"
"220031","286-VK","2017/09/29 13:49:51","新北市板橋區大觀路二段20巷1-2號","121.445553333333","25.0037983333333","6500100","板橋區"
"220029","287-VK","2017/09/29 13:49:53","新北市板橋區南雅西路二段165號","121.452055","25.0123183333333","6500100","板橋區"
"220039","288-VK","2017/09/29 13:49:51","新北市板橋區民生路二段120號","121.470498333333","25.0197766666667","6500100","板橋區"
"220009","293-UM","2017/09/29 13:49:49","新北市板橋區太和街4巷9號","121.474158333333","25.0199783333333","6500100","板橋區"
"220032","296-UM","2017/09/29 13:49:51","新北市板橋區大觀路二段150巷72號","121.441446666667","25.001195","6500100","板橋區"
"220023","297-UM","2017/09/29 13:49:51","新北市板橋區大觀路一段28巷106號","121.450398333333","25.0111366666667","6500100","板橋區"
"220010","303-R5","2017/09/29 13:49:42","新北市板橋區中山路二段23號","121.472413333333","25.0152783333333","6500100","板橋區"
"220041","307-R5","2017/09/29 13:49:46","新北市板橋區民生路二段178號","121.471226666667","25.0205133333333","6500100","板橋區"
"220047","317-R6","2017/09/29 13:49:50","新北市板橋區民生路二段161巷5號","121.47024","25.0197233333333","6500100","板橋區"
"220038","487-VK","2017/09/29 13:49:36","新北市板橋區民生路二段188號","121.470063333333","25.0202633333333","6500100","板橋區"
"220037","491-VK","2017/09/29 13:49:47","新北市板橋區民生路二段188號","121.470088333333","25.0202366666667","6500100","板橋區"
"220104","560-BX","2017/09/29 13:49:44","新北市板橋區中正路325巷41號","121.453433333333","25.0193283333333","6500100","板橋區"
"220052","561-BX","2017/09/29 13:49:47","新北市板橋區民生路二段120號","121.470455","25.0198133333333","6500100","板橋區"
"220011","609-BX","2017/09/29 13:49:45","新北市板橋區民生路二段121號","121.470746666667","25.0184333333333","6500100","板橋區"
"220040","637-BX","2017/09/29 13:49:34","新北市板橋區民生路二段161巷1號","121.470088333333","25.0201116666667","6500100","板橋區"
"220005","686-BX","2017/09/29 13:49:41","新北市板橋區華東街1-9號","121.448153333333","24.9949683333333","6500100","板橋區"
"220025","687-BX","2017/09/29 13:49:42","新北市板橋區篤行路二段59號","121.431751666667","24.992325","6500100","板橋區"
"220042","689-BX","2017/09/29 13:49:51","新北市板橋區民生路二段188號","121.4702","25.0205016666667","6500100","板橋區"
"220002","741-BX","2017/09/29 13:49:40","新北市板橋區華東街1-9號","121.448153333333","24.99494","6500100","板橋區"
"220003","827-TW","2017/09/29 13:49:53","新北市板橋區華東街262號","121.452686666667","25.0014766666667","6500100","板橋區"
"220014","829-TW","2017/09/29 13:49:35","新北市板橋區民生路二段15-1號","121.472981666667","25.01598","6500100","板橋區"
"220051","830-TW","2017/09/29 00:33:05","新北市板橋區民生路二段56-6號","121.470786666667","25.01883","6500100","板橋區"
"220045","831-TW","2017/09/28 21:19:19","新北市板橋區民生路二段120號","121.470328333333","25.0197216666667","6500100","板橋區"
"220022","895-R6","2017/09/29 13:49:37","新北市板橋區府中路21號","121.459168333333","25.00948","6500100","板橋區"
"220021","985-R7","2017/09/29 13:49:54","新北市板橋區館前西路100號","121.45725","25.0073916666667","6500100","板橋區"
"220046","AAC-210","2017/09/29 13:49:50","新北市板橋區民生路二段120號","121.470396666667","25.0198266666667","6500100","板橋區"
"220018","AAC-253","2017/09/29 13:49:36","新北市板橋區館前西路56號","121.458383333333","25.0069216666667","6500100","板橋區"
