"lineid","car","time","location","longitude","latitude","cityid","cityname"
"234044","148-BY","2017/09/29 13:59:47","新北市永和區永亨路205號","121.526061666667","25.0026883333333","6500400","永和區"
"234012","149-BY","2017/09/29 13:59:47","新北市永和區仁愛路283號","121.505635","25.0095783333333","6500400","永和區"
"234005","208-UY","2017/09/29 13:59:32","新北市中和區中和路302-1號","121.50871","24.999945","6500400","永和區"
"234078","298-R6","2017/09/29 13:59:47","新北市永和區國中路17號","121.524291666667","25.0050066666667","6500400","永和區"
"234036","336-UY","2017/09/29 13:59:34","新北市永和區成功路二段76號","121.526673333333","24.999215","6500400","永和區"
"234062","337-UY","2017/09/29 13:59:43","新北市永和區中正路412巷20弄10號","121.518661666667","25.0017333333333","6500400","永和區"
"234084","338-UY","2017/09/29 13:59:47","新北市永和區福和路130號","121.521875","25.0079633333333","6500400","永和區"
"234068","552-UM","2017/09/29 13:59:43","新北市永和區國光路14號","121.519115","25.0084566666667","6500400","永和區"
"234052","553-UM","2017/09/29 13:59:43","新北市永和區竹林路39巷33弄1號","121.519995","25.0152583333333","6500400","永和區"
"234015","745-BX","2017/09/29 13:59:51","新北市永和區文化路56號","121.514528333333","25.0152","6500400","永和區"
"234028","746-BX","2017/09/29 13:59:52","新北市永和區民生路67巷47號","121.525233333333","24.997535","6500400","永和區"
"234060","AAD-866","2017/09/29 13:59:41","新北市永和區中正路151巷8弄1號","121.515948333333","24.9987433333333","6500400","永和區"
"234040","862-TW","2017/09/29 13:59:42","新北市永和區中和路335巷18弄3號","121.507593333333","25.0003283333333","6500400","永和區"
"234048","863-TW","2017/09/29 13:59:44","新北市永和區保安路262巷4號","121.50585","25.0125783333333","6500400","永和區"
"234025","9371-KE","2017/09/29 13:59:34","新北市永和區自由街38號","121.51397","25.006165","6500400","永和區"
"234010","9373-KE","2017/09/29 13:59:52","新北市永和區仁愛路352巷112弄5號","121.500721666667","25.0084566666667","6500400","永和區"
"248017","225-UY","2017/09/29 13:59:40","新北市五股區凌雲路三段85-1號","121.423201666667","25.1247983333333","6501500","五股區"
"248002","655-BX","2017/09/29 10:52:31","新北市五股區中興路二段83巷26-6號","121.459963333333","25.0751983333333","6501500","五股區"
"234022","9380-KE","2017/09/29 13:59:47","新北市永和區永和路二段276巷1-1號","121.51651","25.015355","6500400","永和區"
"234076","969-R7","2017/09/29 13:59:47","新北市永和區民權路56號","121.519931666667","24.9983233333333","6500400","永和區"
"234072","AAC-211","2017/09/29 13:59:42","新北市永和區豫溪街185號","121.522511666667","25.0103966666667","6500400","永和區"
"234066","AAC-212","2017/09/29 13:59:51","新北市永和區永貞路372號","121.509928333333","25.0067383333333","6500400","永和區"
"234001","AAC-295","2017/09/29 13:59:36","新北市永和區福和路318號","121.515775","25.0073633333333","6500400","永和區"
"244004","657-BX","2017/09/29 13:59:49","新北市林口區信義路152號","121.379948333333","25.0796866666667","6501700","林口區"
"231002","002-UM","2017/09/29 13:59:34","新北市新店區中正路610號","121.53396","24.9884766666667","6500600","新店區"
"231024","0293-UT","2017/09/29 13:59:33","新北市新店區力行路12號","121.539428333333","24.9646933333333","6500600","新店區"
"231028","046-UY","2017/09/29 13:59:45","新北市新店區安和路三段153號","121.516608333333","24.9856566666667","6500600","新店區"
"231030","047-UY","2017/09/29 13:59:37","新北市新店區安民街65巷21-2號","121.515163333333","24.9675016666667","6500600","新店區"
"231029","106-UY","2017/09/29 13:59:34","新北市新店區安康路二段62號","121.514881666667","24.96368","6500600","新店區"
"231018","107-UY","2017/09/29 13:59:47","新北市新店區中央路99號","121.531095","24.975075","6500600","新店區"
"231012","108-UY","2017/09/29 13:59:43","新北市新店區中興路一段282-4號","121.546326666667","24.96828","6500600","新店區"
"231022","187-VK","2017/09/29 13:59:51","新北市新店區屈尺路75號","121.545731666667","24.9227716666667","6500600","新店區"
"231016","215-TC","2017/09/29 13:59:45","新北市新店區北宜路二段118號","121.556695","24.953755","6500600","新店區"
"231026","256-BX","2017/09/29 13:59:36","新北市新店區安康路一段35-1號","121.532125","24.9606683333333","6500600","新店區"
"231034","268-BY","2017/09/29 13:59:47","新北市新店區達觀路41號","121.502201666667","24.9386766666667","6500600","新店區"
"231023","AAD-862","2017/09/29 13:59:50","新北市新店區文中路51號","121.539905","24.9567","6500600","新店區"
"231027","3712-VJ","2017/09/29 13:59:37","新北市新店區中興路一段34號","121.538831666667","24.95855","6500600","新店區"
"231025","4716-K9","2017/09/29 13:59:52","新北市新店區中正路320號","121.53715","24.9748733333333","6500600","新店區"
"231038","4715-K9","2017/09/29 13:59:34","新北市新店區溪洲路121號","121.531213333333","24.9628283333333","6500600","新店區"
"231036","512-UM","2017/09/29 13:59:30","新北市新店區安祥路145巷21號","121.475128333333","24.9562866666667","6500600","新店區"
"231035","515-UM","2017/09/29 13:59:40","新北市新店區安和路二段1-1號","121.517823333333","24.966815","6500600","新店區"
"231006","617-UM","2017/09/29 13:59:33","新北市新店區北宜路二段217號","121.553283333333","24.9535416666667","6500600","新店區"
"231001","619-UM","2017/09/29 13:59:32","新北市新店區三民路24號","121.537185","24.97108","6500600","新店區"
"231003","641-BX","2017/09/29 13:59:54","新北市新店區北宜路一段3號","121.538578333333","24.9585583333333","6500600","新店區"
"231013","719-UM","2017/09/29 13:59:41","新北市新店區明德路66號","121.541538333333","24.9795033333333","6500600","新店區"
"231032","720-UM","2017/09/29 13:59:42","新北市新店區莒光路44巷21弄11-3號","121.518613333333","24.95214","6500600","新店區"
"231005","897-TW","2017/09/29 13:59:40","新北市新店區中興路三段218號","121.543521666667","24.9826","6500600","新店區"
"231004","899-TW","2017/09/29 13:59:36","新北市新店區北新路二段165號","121.542851666667","24.976325","6500600","新店區"
"231037","AKT-0513","2017/09/29 13:59:14","新北市新店區安康路三段165巷2弄2號","121.489621666667","24.9513833333333","6500600","新店區"
"235030","003-UY","2017/09/29 13:59:45","新北市中和區中山路二段131巷5弄4號","121.502928333333","25.00289","6500300","中和區"
"235028","005-UY","2017/09/29 13:59:48","新北市中和區泰和街25號","121.499333333333","25.0000383333333","6500300","中和區"
"235027","006-UY","2017/09/29 13:59:49","新北市中和區連城路268-8號","121.486623333333","24.9965633333333","6500300","中和區"
"235020","096-UM","2017/09/29 13:59:46","新北市中和區員山路514巷15號","121.479518333333","25.0098433333333","6500300","中和區"
"235003","097-UM","2017/09/29 13:59:49","新北市中和區景平路64巷13弄16號","121.521958333333","24.991505","6500300","中和區"
"235029","098-UM","2017/09/29 13:59:33","新北市中和區福祥路158號","121.498625","25.0077983333333","6500300","中和區"
"235004","150-BY","2017/09/29 13:59:52","新北市中和區保健路48巷61號","121.509365","24.9959466666667","6500300","中和區"
"235022","151-BY","2017/09/29 13:59:38","新北市中和區連城路428巷16弄1號","121.480065","24.9956916666667","6500300","中和區"
"235019","183-VK","2017/09/29 13:59:41","新北市板橋區民族路310號","121.470726666667","25.0065483333333","6500300","中和區"
"235002","185-VK","2017/09/29 13:59:41","新北市中和區大勇街43巷11號","121.517121666667","24.9945966666667","6500300","中和區"
"235013","186-VK","2017/09/29 13:59:37","新北市中和區景安路106號","121.505498333333","24.9954133333333","6500300","中和區"
"235031","255-BX","2017/09/29 13:59:43","新北市中和區新生街191號","121.483835","25.00029","6500300","中和區"
"235008","293-VK","2017/09/29 13:59:43","新北市中和區中興街163號","121.500001666667","24.9908066666667","6500300","中和區"
"235036","301-VK","2017/09/29 13:59:44","新北市中和區中山路二段123號","121.50267","25.00357","6500300","中和區"
"235007","352-BY","2017/09/29 13:59:40","新北市中和區成功路67號","121.526151666667","24.9924583333333","6500300","中和區"
"235032","375-QA","2017/09/29 13:59:41","新北市中和區圓通路198巷8號","121.495738333333","24.9946833333333","6500300","中和區"
"235015","376-QA","2017/09/29 13:59:44","新北市中和區忠孝街19巷46號","121.509498333333","24.985065","6500300","中和區"
"235025","378-QA","2017/09/29 13:59:36","新北市中和區中山路三段63巷9號","121.4772","25.0045383333333","6500300","中和區"
"235035","956-SL","2017/09/29 13:59:31","新北市中和區立德街26巷17弄11號","121.489656666667","25.00805","6500300","中和區"
"235014","4979-A6","2017/09/29 13:59:48","新北市中和區南山路399巷2號","121.506905","24.99008","6500300","中和區"
"235033","4980-A6","2017/09/29 13:59:39","新北市中和區景平路431巷112號","121.500163333333","24.9949483333333","6500300","中和區"
"235006","551-UM","2017/09/29 13:59:49","新北市中和區秀朗路三段22巷20號","121.525531666667","24.9961883333333","6500300","中和區"
"235034","558-UM","2017/09/29 13:59:30","新北市中和區中和路187巷2號","121.50353","25.00006","6500300","中和區"
"235009","565-BX","2017/09/29 13:59:37","新北市中和區景新街469號","121.513578333333","24.98812","6500300","中和區"
"235018","640-BX","2017/09/29 13:59:30","新北市中和區民享街27巷2號","121.474026666667","25.0045933333333","6500300","中和區"
"235024","647-TV","2017/09/29 13:59:52","新北市中和區中山路三段120號","121.475023333333","25.0063416666667","6500300","中和區"
"235011","732-UM","2017/09/29 13:59:43","新北市中和區興南路二段94號","121.505335","24.9843216666667","6500300","中和區"
"235010","733-UM","2017/09/29 13:59:44","新北市中和區興南路一段135巷20號","121.509335","24.9869733333333","6500300","中和區"
"235026","800-TS","2017/09/29 13:59:43","新北市中和區中山路二段340巷64號","121.493015","25.0048333333333","6500300","中和區"
"235021","801-TS","2017/09/29 13:59:49","新北市中和區民利街30號","121.479853333333","24.99916","6500300","中和區"
"235005","802-TS","2017/09/29 13:59:32","新北市中和區中安街38號","121.512916666667","25.002825","6500300","中和區"
"235016","805-TS","2017/09/29 13:59:38","新北市中和區興南路二段261巷6-1號","121.503645","24.9800816666667","6500300","中和區"
"235012","896-TW","2017/09/29 13:59:31","新北市中和區華新街61號","121.508058333333","24.9842316666667","6500300","中和區"
"235017","900-TW","2017/09/29 13:59:48","新北市中和區民德路330號","121.466606666667","24.9944683333333","6500300","中和區"
"235001","AAC-213","2017/09/29 13:59:49","新北市中和區自立路99巷3號","121.522235","24.994885","6500300","中和區"
"235023","AAC-215","2017/09/29 13:59:35","新北市中和區圓通路369巷33弄7號","121.491186666667","24.9881666666667","6500300","中和區"
"220013","072-UY","2017/09/29 13:59:43","新北市板橋區漢生東路342號","121.47184","25.0074816666667","6500100","板橋區"
"220034","073-UY","2017/09/29 13:59:42","新北市板橋區中正路166號","121.456471666667","25.01703","6500100","板橋區"
"220105","075-UY","2017/09/29 13:59:36","新北市板橋區文化路二段16-2號","121.468843333333","25.0244233333333","6500100","板橋區"
"220017","AAD-861","2017/09/29 13:59:40","新北市板橋區華興街62號","121.457666666667","25.00496","6500100","板橋區"
"247019","500-BY","2017/09/29 13:59:41","新北市蘆洲區民族路426巷40弄11號","121.473461666667","25.0931866666667","6501400","蘆洲區"
"247009","339-TH","2017/09/29 13:59:33","新北市蘆洲區中興街48號","121.481618333333","25.0871816666667","6501400","蘆洲區"
"247001","337-TH","2017/09/29 13:59:49","新北市蘆洲區三民路607號","121.460568333333","25.0937916666667","6501400","蘆洲區"
"247003","336-TH","2017/09/29 13:59:48","新北市蘆洲區長安街106號","121.461585","25.0812766666667","6501400","蘆洲區"
"247015","057-VK","2017/09/29 13:59:51","新北市蘆洲區光華路36巷10號","121.468983333333","25.0833716666667","6501400","蘆洲區"
"247005","056-VK","2017/09/29 13:59:49","新北市蘆洲區永安南路二段76號","121.46464","25.078175","6501400","蘆洲區"
"247007","053-VK","2017/09/29 13:59:31","新北市蘆洲區永安北路一段2號","121.475861666667","25.0745616666667","6501400","蘆洲區"
"247013","007-UY","2017/09/29 13:59:43","新北市蘆洲區保和街83號","121.469043333333","25.0861133333333","6501400","蘆洲區"
"247017","001-UY","2017/09/29 13:59:38","新北市蘆洲區民族路327巷140號","121.475393333333","25.08939","6501400","蘆洲區"
"208004","AAC-292","2017/09/29 13:59:40","新北市金山區山城路10巷34弄19號","121.594655","25.1985","6502700","金山區"
"207002","749-BX","2017/09/29 13:57:19","新北市萬里區溪底里富士坪路21-5號","121.629578333333","25.149585","6502800","萬里區"
"207001","662-BX","2017/09/29 13:59:40","新北市萬里區磺潭里清水18號","121.637886666667","25.1976866666667","6502800","萬里區"
"236067","105-UM","2017/09/29 13:59:48","新北市土城區中正路53號","121.444206666667","24.9755533333333","6501300","土城區"
"236041","107-UM","2017/09/29 13:59:31","新北市土城區裕生路82巷2號","121.44754","24.9858616666667","6501300","土城區"
"236077","166-UM","2017/09/29 13:59:48","新北市土城區永寧路32巷10弄23號","121.428925","24.9610383333333","6501300","土城區"
"236029","253-BX","2017/09/29 13:59:49","新北市土城區城林路6巷80號","121.438423333333","24.9799233333333","6501300","土城區"
"236025","269-VK","2017/09/29 13:59:36","新北市土城區承天路18號","121.439398333333","24.9634716666667","6501300","土城區"
"236013","270-VK","2017/09/29 13:59:52","新北市土城區中央路二段98號","121.442256666667","24.9783533333333","6501300","土城區"
"236035","271-VK","2017/09/29 13:59:35","新北市土城區中央路二段280號","121.440871666667","24.9741216666667","6501300","土城區"
"236019","401-BY","2017/09/29 13:59:30","新北市土城區城林路6巷80號","121.43862","24.9798166666667","6501300","土城區"
"236006","498-BY","2017/09/29 13:59:49","新北市土城區中央路一段365巷18弄2號","121.445838333333","24.9802316666667","6501300","土城區"
"236057","912-UM","2017/09/29 13:59:35","新北市土城區中央路三段188號","121.430443333333","24.96489","6501300","土城區"
"236046","913-UM","2017/09/29 13:54:41","新北市土城區城林路6巷80號","121.43851","24.98009","6501300","土城區"
"236061","915-UM","2017/09/29 13:59:37","新北市土城區城林路6巷80號","121.4384","24.9799","6501300","土城區"
"236054","AAC-216","2017/09/29 13:59:42","新北市土城區城林路6巷80號","121.438398333333","24.9798366666667","6501300","土城區"
"221012","278-VK","2017/09/29 13:59:43","新北市汐止區汐萬路一段256巷1號","121.651841666667","25.0749466666667","6501100","汐止區"
"220027","145-BY","2017/09/29 13:59:50","新北市板橋區民權路260巷1弄29號","121.458475","25.015865","6500100","板橋區"
"220028","200-UY","2017/09/29 13:59:36","新北市板橋區大觀路二段文和巷77-1號","121.444055","24.99839","6500100","板橋區"
"220030","610-BX","2017/09/29 13:59:38","新北市板橋區篤行路二段156號","121.42935","24.9879583333333","6500100","板橋區"
"220050","245-BX","2017/09/29 02:40:27","新北市板橋區民生路二段161巷9號","121.470195","25.0194533333333","6500100","板橋區"
"220016","257-TC","2017/09/29 13:59:49","新北市板橋區中山路二段465巷5號","121.481648333333","25.0208466666667","6500100","板橋區"
"220004","276-BY","2017/09/29 13:59:48","新北市板橋區信義路111號","121.457651666667","24.9934133333333","6500100","板橋區"
"220020","277-BY","2017/09/29 13:59:34","新北市樹林區樹新路120巷12號","121.430268333333","24.99725","6500100","板橋區"
"220012","280-UM","2017/09/29 13:59:45","新北市板橋區板新路226號","121.468356666667","25.01603","6500100","板橋區"
"220043","283-UM","2017/09/29 13:59:48","新北市板橋區莒光路1-1號","121.469543333333","25.024885","6500100","板橋區"
"220019","283-VK","2017/09/29 13:59:52","新北市板橋區忠孝路136號","121.463586666667","25.0023666666667","6500100","板橋區"
"220001","285-VK","2017/09/29 13:59:49","新北市板橋區永豐街53號","121.474116666667","25.018115","6500100","板橋區"
"220031","286-VK","2017/09/29 13:59:52","新北市板橋區大觀路一段38巷156弄57號","121.442896666667","25.0065766666667","6500100","板橋區"
"220029","287-VK","2017/09/29 13:59:33","新北市板橋區光華街19巷74號","121.452723333333","25.011905","6500100","板橋區"
"220039","288-VK","2017/09/29 13:59:52","新北市板橋區民生路三段20號","121.46756","25.02449","6500100","板橋區"
"220009","293-UM","2017/09/29 13:59:49","新北市板橋區懷仁街47號","121.476803333333","25.0192216666667","6500100","板橋區"
"220032","296-UM","2017/09/29 13:59:51","新北市板橋區大觀路二段313號","121.441848333333","24.9987116666667","6500100","板橋區"
"220023","297-UM","2017/09/29 13:59:48","新北市板橋區南興路20號","121.454956666667","25.0079183333333","6500100","板橋區"
"220010","303-R5","2017/09/29 13:59:42","新北市板橋區三民路二段245巷4弄8號","121.481028333333","25.01212","6500100","板橋區"
"220041","307-R5","2017/09/29 13:59:46","新北市板橋區縣民大道二段200巷5號","121.46973","25.0174816666667","6500100","板橋區"
"220047","317-R6","2017/09/29 13:59:50","新北市板橋區民生路三段20號","121.467638333333","25.0244516666667","6500100","板橋區"
"220038","487-VK","2017/09/29 13:59:36","新北市板橋區文化路二段9號","121.468603333333","25.024235","6500100","板橋區"
"220037","491-VK","2017/09/29 13:59:47","新北市板橋區民生路二段214號","121.469483333333","25.021735","6500100","板橋區"
"220104","560-BX","2017/09/29 13:59:44","新北市板橋區中正路375巷27號","121.453836666667","25.0202466666667","6500100","板橋區"
"220052","561-BX","2017/09/29 13:59:48","新北市板橋區介壽街118號","121.469843333333","25.0178183333333","6500100","板橋區"
"220011","609-BX","2017/09/29 13:59:45","新北市板橋區中山路二段125號","121.475045","25.01651","6500100","板橋區"
"220040","637-BX","2017/09/29 13:59:35","新北市板橋區莊敬路208巷2弄6號","121.471555","25.0216116666667","6500100","板橋區"
"220005","686-BX","2017/09/29 13:59:41","新北市板橋區館前東路19號","121.460155","25.00732","6500100","板橋區"
"220025","687-BX","2017/09/29 13:59:43","新北市板橋區大觀路二段174巷178號","121.442063333333","25.0036166666667","6500100","板橋區"
"220042","689-BX","2017/09/29 13:59:51","新北市板橋區民生路三段42號","121.467383333333","25.0249883333333","6500100","板橋區"
"220002","741-BX","2017/09/29 13:59:46","新北市板橋區館前東路26-4號","121.460461666667","25.0071266666667","6500100","板橋區"
"220003","827-TW","2017/09/29 13:59:33","新北市板橋區中山路一段164號","121.466876666667","25.01199","6500100","板橋區"
"220014","829-TW","2017/09/29 13:59:47","新北市板橋區三民路二段正隆巷12弄18號","121.477645","25.0135533333333","6500100","板橋區"
"220051","830-TW","2017/09/29 00:33:05","新北市板橋區民生路二段56-6號","121.470786666667","25.01883","6500100","板橋區"
"220045","831-TW","2017/09/29 13:59:52","新北市板橋區莊敬路221號","121.471736666667","25.0218283333333","6500100","板橋區"
"220022","895-R6","2017/09/29 13:59:37","新北市板橋區南雅南路一段131號","121.45513","25.0043816666667","6500100","板橋區"
"220021","985-R7","2017/09/29 13:59:34","新北市板橋區館前西路195號","121.455323333333","25.0084083333333","6500100","板橋區"
"220046","AAC-210","2017/09/29 13:59:50","新北市板橋區民生路三段32-6號","121.467228333333","25.024875","6500100","板橋區"
"220018","AAC-253","2017/09/29 13:59:48","新北市板橋區四川路一段287號","121.458845","25.0007183333333","6500100","板橋區"
