"lineid","car","time","location","longitude","latitude","cityid","cityname"
"234044","148-BY","2017/09/29 14:09:47","新北市永和區成功路一段18巷20號","121.526205","25.0052216666667","6500400","永和區"
"234012","149-BY","2017/09/29 14:09:47","新北市永和區保生路3號","121.506203333333","25.00736","6500400","永和區"
"234005","208-UY","2017/09/29 14:09:32","新北市永和區保平路147號","121.509993333333","25.0059916666667","6500400","永和區"
"234078","298-R6","2017/09/29 14:09:44","新北市永和區國中路109巷5弄1號","121.523705","25.0052916666667","6500400","永和區"
"234036","336-UY","2017/09/29 14:09:34","新北市永和區環河東路三段96號","121.528186666667","25.0041316666667","6500400","永和區"
"234062","337-UY","2017/09/29 14:09:43","新北市永和區永利路150號","121.522395","25.002735","6500400","永和區"
"234084","338-UY","2017/09/29 14:09:42","新北市永和區福和路278號","121.517813333333","25.0075466666667","6500400","永和區"
"234068","552-UM","2017/09/29 14:09:44","新北市永和區中正路654巷18號","121.517391666667","25.0084683333333","6500400","永和區"
"234052","553-UM","2017/09/29 14:09:38","新北市永和區博愛街45巷2號","121.519213333333","25.0159633333333","6500400","永和區"
"234015","745-BX","2017/09/29 14:09:32","新北市永和區仁愛路60-1號","121.513568333333","25.013355","6500400","永和區"
"234028","746-BX","2017/09/29 14:09:47","新北市永和區民生路22巷28號","121.521195","24.9971016666667","6500400","永和區"
"234060","AAD-866","2017/09/29 14:09:43","新北市永和區得和路29號","121.515851666667","25.0004","6500400","永和區"
"234040","862-TW","2017/09/29 14:09:42","新北市永和區雙和街64巷22弄3號","121.509796666667","25.0031216666667","6500400","永和區"
"234048","863-TW","2017/09/29 14:09:44","新北市永和區環河西路二段91號","121.506535","25.0149733333333","6500400","永和區"
"234025","9371-KE","2017/09/29 14:09:34","新北市永和區安樂路417號","121.51442","25.003965","6500400","永和區"
"234010","9373-KE","2017/09/29 14:09:34","新北市永和區環河西路二段241號","121.500601666667","25.0092233333333","6500400","永和區"
"248017","225-UY","2017/09/29 14:09:40","新北市五股區凌雲路三段57號","121.425223333333","25.12507","6501500","五股區"
"248002","655-BX","2017/09/29 10:52:31","新北市五股區中興路二段83巷26-6號","121.459963333333","25.0751983333333","6501500","五股區"
"234022","9380-KE","2017/09/29 14:09:47","新北市永和區竹林路23號","121.517198333333","25.01477","6500400","永和區"
"234076","969-R7","2017/09/29 14:09:47","新北市永和區民族街67巷25號","121.519535","24.997215","6500400","永和區"
"234072","AAC-211","2017/09/29 14:09:42","新北市永和區竹林路201巷22弄1號","121.522036666667","25.0093116666667","6500400","永和區"
"234066","AAC-212","2017/09/29 14:09:51","新北市永和區保平路236巷12弄3號","121.508578333333","25.0064883333333","6500400","永和區"
"234001","AAC-295","2017/09/29 14:09:35","新北市永和區中正路706號","121.51619","25.0099933333333","6500400","永和區"
"244004","657-BX","2017/09/29 14:09:49","新北市林口區竹林路265號","121.389573333333","25.0807316666667","6501700","林口區"
"231002","002-UM","2017/09/29 14:09:52","新北市新店區民權路161號","121.533853333333","24.9824","6500600","新店區"
"231028","046-UY","2017/09/29 14:09:45","新北市新店區安業街15號","121.516293333333","24.97838","6500600","新店區"
"231030","047-UY","2017/09/29 14:09:37","新北市新店區安民街65巷21-2號","121.515283333333","24.96748","6500600","新店區"
"231029","106-UY","2017/09/29 14:09:34","新北市新店區安康路二段161號","121.510181666667","24.9594366666667","6500600","新店區"
"231018","107-UY","2017/09/29 14:09:47","新北市新店區中央五街23號","121.52927","24.9746566666667","6500600","新店區"
"231012","108-UY","2017/09/29 14:09:43","新北市新店區五峰路63巷8弄44號","121.54804","24.9686833333333","6500600","新店區"
"231022","187-VK","2017/09/29 14:09:32","新北市新店區新烏路二段212-1號","121.54753","24.916235","6500600","新店區"
"231016","215-TC","2017/09/29 14:09:45","新北市新店區中生路1號","121.562246666667","24.9532683333333","6500600","新店區"
"231034","268-BY","2017/09/29 14:09:47","新北市新店區黎明路3號","121.503253333333","24.9522716666667","6500600","新店區"
"231023","AAD-862","2017/09/29 14:09:50","新北市新店區文中路35巷19號","121.54008","24.95697","6500600","新店區"
"231027","3712-VJ","2017/09/29 14:09:37","新北市新店區北宜路一段39巷20號","121.53893","24.9585216666667","6500600","新店區"
"231025","4716-K9","2017/09/29 14:09:39","新北市新店區中正路328巷27號","121.537525","24.97584","6500600","新店區"
"231038","4715-K9","2017/09/29 14:09:34","新北市新店區溪洲路121號","121.531213333333","24.96281","6500600","新店區"
"231036","512-UM","2017/09/29 14:09:50","新北市新店區安祥路110巷2號","121.47482","24.9569933333333","6500600","新店區"
"231035","515-UM","2017/09/29 14:09:40","新北市新店區安和路二段1-1號","121.517798333333","24.9667816666667","6500600","新店區"
"231006","617-UM","2017/09/29 14:09:36","新北市新店區北宜路二段419-2號","121.560338333333","24.95457","6500600","新店區"
"231001","619-UM","2017/09/29 14:09:32","新北市新店區中華路70巷2號","121.539128333333","24.969275","6500600","新店區"
"231003","641-BX","2017/09/29 14:09:34","新北市新店區中興路一段108號","121.541041666667","24.961915","6500600","新店區"
"231013","719-UM","2017/09/29 14:09:41","新北市新店區北新路三段65巷36號","121.540035","24.981105","6500600","新店區"
"231032","720-UM","2017/09/29 14:09:42","新北市新店區太平路28巷1號","121.533428333333","24.9587383333333","6500600","新店區"
"231005","897-TW","2017/09/29 14:09:40","新北市新店區中興路三段293號","121.54233","24.984925","6500600","新店區"
"231004","899-TW","2017/09/29 14:09:45","新北市新店區北新路二段122號","121.54302","24.9744533333333","6500600","新店區"
"231037","AKT-0513","2017/09/29 14:09:34","新北市新店區安康路二段341巷1號","121.496891666667","24.95511","6500600","新店區"
"235030","003-UY","2017/09/29 14:09:46","新北市中和區廣福路48號","121.504093333333","25.0020483333333","6500300","中和區"
"235028","005-UY","2017/09/29 14:09:48","新北市中和區連城路14號","121.498891666667","25.0021966666667","6500300","中和區"
"235027","006-UY","2017/09/29 14:09:49","新北市中和區連城路249巷26弄12號","121.494063333333","24.9957033333333","6500300","中和區"
"235020","096-UM","2017/09/29 14:09:46","新北市中和區員山路535號","121.479673333333","25.0070633333333","6500300","中和區"
"235003","097-UM","2017/09/29 14:09:49","新北市中和區秀峰街62巷5號","121.520806666667","24.99054","6500300","中和區"
"235029","098-UM","2017/09/29 14:09:33","新北市中和區中山路二段64巷7弄27號","121.502648333333","25.0045833333333","6500300","中和區"
"235004","150-BY","2017/09/29 14:09:52","新北市中和區景安路79巷51號","121.507761666667","24.9958516666667","6500300","中和區"
"235022","151-BY","2017/09/29 14:09:38","新北市中和區連城路477巷6弄14號","121.482678333333","24.9952416666667","6500300","中和區"
"235019","183-VK","2017/09/29 14:09:36","新北市中和區德光路50號","121.470058333333","25.004105","6500300","中和區"
"235002","185-VK","2017/09/29 14:09:41","新北市中和區立人街24-5號","121.518725","24.9941683333333","6500300","中和區"
"235013","186-VK","2017/09/29 14:09:37","新北市中和區景新街151號","121.506306666667","24.9963766666667","6500300","中和區"
"235031","255-BX","2017/09/29 14:09:43","新北市中和區新生街189號","121.483786666667","25.000355","6500300","中和區"
"235008","293-VK","2017/09/29 14:09:43","新北市中和區中興街202巷2號","121.49945","24.9900733333333","6500300","中和區"
"235036","301-VK","2017/09/29 14:09:44","新北市中和區福美路230號","121.499178333333","25.0052833333333","6500300","中和區"
"235007","352-BY","2017/09/29 14:09:40","新北市中和區景平路100-3號","121.520086666667","24.99158","6500300","中和區"
"235032","375-QA","2017/09/29 14:09:41","新北市中和區連勝街83號","121.496928333333","24.9967433333333","6500300","中和區"
"235015","376-QA","2017/09/29 14:09:44","新北市中和區和平街2巷3號","121.510105","24.990305","6500300","中和區"
"235025","378-QA","2017/09/29 14:09:36","新北市中和區員山路150-19號","121.481301666667","24.99788","6500300","中和區"
"235035","956-SL","2017/09/29 14:09:51","新北市中和區立德街98巷48號","121.48824","25.0091583333333","6500300","中和區"
"235014","4979-A6","2017/09/29 14:09:48","新北市中和區景安路208巷42號","121.502501666667","24.9920316666667","6500300","中和區"
"235033","4980-A6","2017/09/29 14:09:39","新北市中和區廣福路71巷38號","121.502573333333","25.0003233333333","6500300","中和區"
"235006","551-UM","2017/09/29 14:09:49","新北市中和區自立路117巷1號","121.522325","24.99459","6500300","中和區"
"235034","558-UM","2017/09/29 14:09:50","新北市中和區景安路77號","121.506391666667","24.9974166666667","6500300","中和區"
"235009","565-BX","2017/09/29 14:09:37","新北市中和區景新街467巷38弄2號","121.514548333333","24.9885566666667","6500300","中和區"
"235018","640-BX","2017/09/29 14:09:50","新北市中和區國光街107巷4弄30號","121.469693333333","24.998875","6500300","中和區"
"235024","647-TV","2017/09/29 14:09:52","新北市中和區民享街8號","121.473918333333","25.004155","6500300","中和區"
"235011","732-UM","2017/09/29 14:09:43","新北市中和區興南路一段56巷3弄2號","121.510555","24.99106","6500300","中和區"
"235010","733-UM","2017/09/29 14:09:44","新北市中和區忠孝街1號","121.508903333333","24.9830933333333","6500300","中和區"
"235026","800-TS","2017/09/29 14:09:43","新北市中和區中山路二段362-5號","121.492206666667","25.00346","6500300","中和區"
"235021","801-TS","2017/09/29 14:09:49","新北市中和區民利街52號","121.479285","24.998745","6500300","中和區"
"235005","802-TS","2017/09/29 14:09:32","新北市中和區中安街178巷2號","121.511061666667","24.9996433333333","6500300","中和區"
"235016","805-TS","2017/09/29 14:09:38","新北市中和區興南路二段110號","121.504578333333","24.9840883333333","6500300","中和區"
"235012","896-TW","2017/09/29 14:09:31","新北市中和區華新街109巷11弄3-1號","121.508708333333","24.9793666666667","6500300","中和區"
"235017","900-TW","2017/09/29 14:09:48","新北市中和區華福街71巷32號","121.467696666667","24.997015","6500300","中和區"
"235001","AAC-213","2017/09/29 14:09:49","新北市中和區秀朗路三段58-3號","121.5257","24.9951033333333","6500300","中和區"
"235023","AAC-215","2017/09/29 14:09:35","新北市中和區圓通路294巷17-5號","121.48872","24.990435","6500300","中和區"
"220013","072-UY","2017/09/29 14:09:43","新北市板橋區民族路151巷53號","121.46918","25.0083516666667","6500100","板橋區"
"220034","073-UY","2017/09/29 14:09:42","新北市板橋區中正路236巷57號","121.458205","25.0195366666667","6500100","板橋區"
"220105","075-UY","2017/09/29 14:09:36","新北市板橋區文化路二段257號","121.471328333333","25.0289033333333","6500100","板橋區"
"220017","AAD-861","2017/09/29 14:09:40","新北市板橋區華興街72號","121.45741","25.0051983333333","6500100","板橋區"
"247021","893-R6","2017/09/29 14:09:35","新北市蘆洲區三民路118號","121.471413333333","25.087125","6501400","蘆洲區"
"247011","546-UM","2017/09/29 14:09:38","新北市蘆洲區信義路345號","121.477766666667","25.0871833333333","6501400","蘆洲區"
"247019","500-BY","2017/09/29 14:09:41","新北市蘆洲區民族路436巷9號","121.472906666667","25.09267","6501400","蘆洲區"
"247009","339-TH","2017/09/29 14:09:33","新北市蘆洲區信義路243號","121.479116666667","25.084195","6501400","蘆洲區"
"247001","337-TH","2017/09/29 14:09:49","新北市蘆洲區永平街32巷11弄11號","121.458438333333","25.0913266666667","6501400","蘆洲區"
"247003","336-TH","2017/09/29 14:09:48","新北市蘆洲區長安街150號","121.459931666667","25.082375","6501400","蘆洲區"
"247015","057-VK","2017/09/29 14:09:11","新北市蘆洲區中正路185巷46弄6號","121.467383333333","25.0851083333333","6501400","蘆洲區"
"247005","056-VK","2017/09/29 14:09:49","新北市蘆洲區永安南路二段16巷17弄14號","121.467531666667","25.0782016666667","6501400","蘆洲區"
"247007","053-VK","2017/09/29 14:09:51","新北市蘆洲區中山一路285號","121.471855","25.079545","6501400","蘆洲區"
"247013","007-UY","2017/09/29 14:09:43","新北市蘆洲區三民路145號","121.471741666667","25.0867066666667","6501400","蘆洲區"
"247023","002-UY","2017/09/29 14:09:41","新北市蘆洲區光榮路118-2號","121.46488","25.0892283333333","6501400","蘆洲區"
"247017","001-UY","2017/09/29 14:09:38","新北市蘆洲區復興路111-5號","121.476638333333","25.088495","6501400","蘆洲區"
"227003","400-TW","2017/09/29 14:09:38","新北市雙溪區三貂里政光路3-1號","121.850978333333","25.0631833333333","6502500","雙溪區"
"208004","AAC-292","2017/09/29 14:09:50","新北市金山區六股里頂六股2-1號","121.614145","25.22169","6502700","金山區"
"207002","749-BX","2017/09/29 14:07:39","新北市萬里區溪底里瑞泉路19號","121.60636","25.1470716666667","6502800","萬里區"
"207001","662-BX","2017/09/29 14:09:40","新北市萬里區磺潭里清水18號","121.637916666667","25.197695","6502800","萬里區"
"236067","105-UM","2017/09/29 14:09:48","新北市土城區和平路79號","121.444941666667","24.97134","6501300","土城區"
"236041","107-UM","2017/09/29 14:09:51","新北市土城區裕生路82巷2號","121.447551666667","24.9858983333333","6501300","土城區"
"236077","166-UM","2017/09/29 14:09:48","新北市土城區永和街2巷4號","121.434486666667","24.9649033333333","6501300","土城區"
"236029","253-BX","2017/09/29 14:09:50","新北市土城區城林路6巷80號","121.438351666667","24.9798416666667","6501300","土城區"
"236025","269-VK","2017/09/29 14:09:36","新北市土城區承天路18號","121.439441666667","24.9634483333333","6501300","土城區"
"236013","270-VK","2017/09/29 14:09:32","新北市土城區青雲路39巷7號","121.460265","24.9874616666667","6501300","土城區"
"236035","271-VK","2017/09/29 14:09:35","新北市土城區明德路一段369號","121.455268333333","24.97811","6501300","土城區"
"236019","401-BY","2017/09/29 14:09:50","新北市土城區城林路6巷80號","121.438215","24.979775","6501300","土城區"
"236006","498-BY","2017/09/29 14:09:49","新北市土城區中央路一段22號","121.448313333333","24.991055","6501300","土城區"
"236057","912-UM","2017/09/29 14:09:35","新北市土城區中央路四段38號","121.420765","24.96084","6501300","土城區"
"236046","913-UM","2017/09/29 14:09:41","新北市土城區明德路一段398-1號","121.453578333333","24.97915","6501300","土城區"
"236061","915-UM","2017/09/29 14:09:37","新北市土城區金城路二段65-1號","121.451271666667","24.9789016666667","6501300","土城區"
"236054","AAC-216","2017/09/29 14:09:42","新北市土城區中華路二段82-1號","121.438783333333","24.9759683333333","6501300","土城區"
"221012","278-VK","2017/09/29 14:09:43","新北市汐止區汐萬路一段256巷1號","121.651858333333","25.0749066666667","6501100","汐止區"
"220027","145-BY","2017/09/29 14:09:49","新北市板橋區民權路260巷21號","121.458708333333","25.0153666666667","6500100","板橋區"
"220028","200-UY","2017/09/29 14:09:47","新北市板橋區大觀路二段5-4號","121.447125","25.00365","6500100","板橋區"
"220030","610-BX","2017/09/29 14:09:49","新北市板橋區溪崑二街25號","121.428576666667","24.99131","6500100","板橋區"
"220050","245-BX","2017/09/29 02:40:27","新北市板橋區民生路二段161巷9號","121.470195","25.0194533333333","6500100","板橋區"
"220016","257-TC","2017/09/29 14:09:49","新北市板橋區翠華街6巷75號","121.481263333333","25.0250566666667","6500100","板橋區"
"220004","276-BY","2017/09/29 14:09:48","新北市板橋區信義路74巷1弄7號","121.457463333333","24.9929633333333","6500100","板橋區"
"220020","277-BY","2017/09/29 14:09:47","新北市板橋區金門街369巷54號","121.42832","24.982145","6500100","板橋區"
"220012","280-UM","2017/09/29 14:09:45","新北市板橋區民生路一段28-12號","121.476535","25.0121233333333","6500100","板橋區"
"220043","283-UM","2017/09/29 14:09:48","新北市板橋區光武街155號","121.465513333333","25.0296383333333","6500100","板橋區"
"220019","283-VK","2017/09/29 14:09:52","新北市板橋區重慶路327巷19弄3-2號","121.464756666667","24.9988583333333","6500100","板橋區"
"220001","285-VK","2017/09/29 14:09:53","新北市板橋區懷仁街35巷11號","121.47704","25.0198066666667","6500100","板橋區"
"220031","286-VK","2017/09/29 14:09:39","新北市板橋區龍興街97巷2號","121.444213333333","25.0027116666667","6500100","板橋區"
"220029","287-VK","2017/09/29 14:05:33","新北市板橋區光華街39巷18號","121.45324","25.01314","6500100","板橋區"
"220039","288-VK","2017/09/29 14:09:31","新北市板橋區四維路291巷4弄1號","121.462325","25.028335","6500100","板橋區"
"220009","293-UM","2017/09/29 14:09:49","新北市板橋區三民路二段21巷45號","121.480558333333","25.01825","6500100","板橋區"
"220032","296-UM","2017/09/29 14:09:51","新北市板橋區篤行路二段92-2號","121.43153","24.9915783333333","6500100","板橋區"
"220023","297-UM","2017/09/29 14:09:51","新北市板橋區大智街25巷12號","121.454748333333","25.0148316666667","6500100","板橋區"
"220010","303-R5","2017/09/29 14:09:42","新北市板橋區三民路二段居仁巷2弄25號","121.480021666667","25.0130283333333","6500100","板橋區"
"220041","307-R5","2017/09/29 14:09:46","新北市板橋區文化路一段415號","121.46769","25.0224316666667","6500100","板橋區"
"220047","317-R6","2017/09/29 14:09:50","新北市板橋區四維路103巷10號","121.464785","25.0242016666667","6500100","板橋區"
"220038","487-VK","2017/09/29 14:09:36","新北市板橋區文化路二段451號","121.47543","25.03343","6500100","板橋區"
"220037","491-VK","2017/09/29 14:09:48","新北市板橋區文化路二段182巷3弄12號","121.471816666667","25.02752","6500100","板橋區"
"220104","560-BX","2017/09/29 14:09:24","新北市板橋區中正路360巷51號","121.45626","25.0229333333333","6500100","板橋區"
"220052","561-BX","2017/09/29 14:09:47","新北市板橋區介壽街84巷54號","121.468655","25.0184183333333","6500100","板橋區"
"220011","609-BX","2017/09/29 14:09:45","新北市板橋區三民路二段167號","121.479101666667","25.0145516666667","6500100","板橋區"
"220040","637-BX","2017/09/29 14:09:44","新北市板橋區萬板路470號","121.479825","25.02591","6500100","板橋區"
"220005","686-BX","2017/09/29 14:09:44","新北市板橋區重慶路221號","121.463061666667","25.00106","6500100","板橋區"
"220025","687-BX","2017/09/29 14:09:50","新北市板橋區大觀路二段146-2號","121.442083333333","24.9988133333333","6500100","板橋區"
"220042","689-BX","2017/09/29 14:09:46","新北市板橋區民生路三段251號","121.464618333333","25.0291816666667","6500100","板橋區"
"220002","741-BX","2017/09/29 14:09:40","新北市板橋區重慶路93巷47號","121.46341","25.0060633333333","6500100","板橋區"
"220003","827-TW","2017/09/29 14:09:33","新北市板橋區新民街2號","121.4644","25.0090833333333","6500100","板橋區"
"220014","829-TW","2017/09/29 14:09:35","新北市板橋區中山路二段90巷43弄15號","121.476886666667","25.0152233333333","6500100","板橋區"
"220051","830-TW","2017/09/29 14:09:39","新北市板橋區田單街49巷6號","121.482781666667","25.0281933333333","6500100","板橋區"
"220045","831-TW","2017/09/29 14:09:52","新北市板橋區雙十路二段47巷22號","121.475633333333","25.0260316666667","6500100","板橋區"
"220022","895-R6","2017/09/29 14:09:37","新北市板橋區林園街6號","121.454056666667","25.0094033333333","6500100","板橋區"
"220021","985-R7","2017/09/29 14:09:44","新北市板橋區中正路157號","121.456633333333","25.016055","6500100","板橋區"
"220046","AAC-210","2017/09/29 14:09:30","新北市板橋區英士路192-1號","121.458605","25.0233516666667","6500100","板橋區"
"220018","AAC-253","2017/09/29 14:09:50","新北市板橋區忠孝路21號","121.460413333333","25.0019633333333","6500100","板橋區"
