"lineid","car","time","location","longitude","latitude","cityid","cityname"
"249005","172-UM","2017/09/29 17:28:11","新北市八里區荖阡坑路30號","121.404701666667","25.13039","6502300","八里區"
"249001","173-UM","2017/09/29 17:28:26","新北市八里區中華路一段1號","121.423355","25.158735","6502300","八里區"
"249004","303-UY","2017/09/29 17:28:18","新北市八里區民有街76號","121.415208333333","25.15638","6502300","八里區"
"249002","305-UY","2017/09/29 17:28:13","新北市八里區烏山頭1-10號","121.44739","25.140325","6502300","八里區"
"249003","593-UM","2017/09/29 17:28:12","新北市八里區中山路二段315號","121.400655","25.1478416666667","6502300","八里區"
"248002","655-BX","2017/09/29 10:52:31","新北市五股區中興路二段83巷26-6號","121.459963333333","25.0751983333333","6501500","五股區"
"244013","069-UM","2017/09/29 17:28:28","新北市林口區中山路152號","121.391085","25.078815","6501700","林口區"
"244007","080-UY","2017/09/29 17:28:22","新北市林口區建國路2號","121.38737","25.092905","6501700","林口區"
"244019","403-UM","2017/09/29 17:28:18","新北市林口區公園路173號","121.371326666667","25.0717466666667","6501700","林口區"
"244009","410-SL","2017/09/29 17:28:25","新北市林口區松柏路70號","121.379493333333","25.0917566666667","6501700","林口區"
"244023","483-VK","2017/09/29 17:28:21","新北市林口區興林一街92號","121.391375","25.0727333333333","6501700","林口區"
"244017","485-VK","2017/09/29 17:28:23","新北市林口區粉寮69號","121.405023333333","25.0909166666667","6501700","林口區"
"244021","838-TS","2017/09/29 17:28:25","新北市林口區宏昌街79號","121.402051666667","25.0856616666667","6501700","林口區"
"231046","278-BY","2017/09/29 17:28:17","新北市新店區直潭路92號","121.530976666667","24.9377033333333","6500600","新店區"
"241011","013-R5","2017/09/29 17:28:15","新北市三重區河邊北街124巷11號","121.503271666667","25.0714183333333","6500200","三重區"
"241008","059-VK","2017/09/29 17:28:29","新北市三重區車路頭街139巷2號","121.483853333333","25.0763766666667","6500200","三重區"
"241015","062-VK","2017/09/29 17:28:12","新北市三重區長元街65巷8弄18號","121.50346","25.0665483333333","6500200","三重區"
"241017","063-VK","2017/09/29 17:28:29","新北市三重區重新路三段45-6號","121.493493333333","25.0617933333333","6500200","三重區"
"241024","065-VK","2017/09/29 17:28:14","新北市三重區國道路一段58巷20號","121.481171666667","25.072045","6500200","三重區"
"241003","091-VK","2017/09/29 17:28:27","新北市三重區碧華街402號","121.491785","25.0848916666667","6500200","三重區"
"241005","262-UM","2017/09/29 17:28:12","新北市三重區仁華街6號","121.483316666667","25.081335","6500200","三重區"
"241016","266-UM","2017/09/29 17:28:18","新北市三重區信義西街51號","121.495151666667","25.06374","6500200","三重區"
"241018","268-UM","2017/09/29 17:28:25","新北市三重區大仁街29號","121.492498333333","25.0651216666667","6500200","三重區"
"241032","269-UM","2017/09/29 17:28:24","新北市三重區名源街30號","121.482111666667","25.0600216666667","6500200","三重區"
"241013","270-UM","2017/09/29 17:28:11","新北市三重區仁福街64巷38號","121.497243333333","25.076015","6500200","三重區"
"241025","271-UM","2017/09/29 17:28:18","新北市三重區中正北路400號","121.475796666667","25.0702816666667","6500200","三重區"
"241007","398-BY","2017/09/29 17:28:21","新北市三重區三和路四段145巷138號","121.487806666667","25.0792966666667","6500200","三重區"
"241020","413-TH","2017/09/29 17:28:11","新北市三重區忠孝路一段163號","121.487891666667","25.0717","6500200","三重區"
"241019","478-VK","2017/09/29 17:28:21","新北市三重區自強路二段26巷33號","121.488446666667","25.069105","6500200","三重區"
"241030","480-VK","2017/09/29 17:28:15","新北市三重區中正南路285號","121.492925","25.0521733333333","6500200","三重區"
"241014","543-UM","2017/09/29 17:28:26","新北市三重區長壽街50-1號","121.500561666667","25.0681983333333","6500200","三重區"
"241023","545-UM","2017/09/29 17:28:09","新北市三重區三民街146巷11號","121.481313333333","25.064395","6500200","三重區"
"241012","941-UM","2017/09/29 17:28:11","新北市三重區仁興街38號","121.499058333333","25.0756983333333","6500200","三重區"
"241033","AAC-255","2017/09/29 17:28:26","新北市三重區興德路145-2號","121.469041666667","25.0526216666667","6500200","三重區"
"247022","893-R6","2017/09/29 17:28:15","新北市蘆洲區三民路148號","121.470376666667","25.087875","6501400","蘆洲區"
"247012","546-UM","2017/09/29 17:28:16","新北市蘆洲區民族路96號","121.478088333333","25.085115","6501400","蘆洲區"
"247020","500-BY","2017/09/29 17:28:18","新北市蘆洲區仁愛街111號","121.47066","25.0944116666667","6501400","蘆洲區"
"247010","339-TH","2017/09/29 17:28:22","新北市蘆洲區鷺江街39號","121.478441666667","25.082195","6501400","蘆洲區"
"247002","337-TH","2017/09/29 17:28:25","新北市蘆洲區永樂街38巷67弄35號","121.457381666667","25.0909316666667","6501400","蘆洲區"
"247004","336-TH","2017/09/29 17:28:20","新北市蘆洲區長安街233巷36號","121.458073333333","25.0823366666667","6501400","蘆洲區"
"247016","057-VK","2017/09/29 17:28:11","新北市蘆洲區光華路26巷22號","121.468715","25.08401","6501400","蘆洲區"
"247006","056-VK","2017/09/29 17:28:22","新北市蘆洲區長安街68巷47號","121.46421","25.0811733333333","6501400","蘆洲區"
"247008","053-VK","2017/09/29 17:28:24","新北市蘆洲區成功路3號","121.473703333333","25.0779633333333","6501400","蘆洲區"
"247014","007-UY","2017/09/29 17:28:28","新北市蘆洲區三民路33號","121.475415","25.083055","6501400","蘆洲區"
"247024","002-UY","2017/09/29 17:28:15","新北市蘆洲區三民路577號","121.461838333333","25.0925166666667","6501400","蘆洲區"
"247018","001-UY","2017/09/29 17:28:26","新北市蘆洲區民權路107號","121.47267","25.0891966666667","6501400","蘆洲區"
"228002","663-BX","2017/09/29 17:28:12","新北市貢寮區福隆里興隆街100巷7號","121.937206666667","25.0183016666667","6502600","貢寮區"
"228001","670-TC","2017/09/29 17:28:27","新北市貢寮區仁理村仁愛路39號","121.925075","25.0533433333333","6502600","貢寮區"
"228003","828-UM","2017/09/29 17:28:22","新北市貢寮區仁理村研海街22號","121.927501666667","25.0381716666667","6502600","貢寮區"
"224010","AGQ-8101","2017/09/29 17:28:21","新北市瑞芳區逢甲路19號","121.809491666667","25.1086883333333","6501200","瑞芳區"
"224006","676-BX","2017/09/29 17:28:16","新北市瑞芳區傑魚坑路183號","121.78844","25.1081833333333","6501200","瑞芳區"
"224009","285-BY","2017/09/29 17:28:09","新北市瑞芳區輕便路17-1號","121.84613","25.11107","6501200","瑞芳區"
"224008","275-VK","2017/09/29 17:28:23","新北市瑞芳區瑞柑新村31號","121.829635","25.1066233333333","6501200","瑞芳區"
"224005","271-BY","2017/09/29 17:28:20","新北市瑞芳區海濱路8-6號","121.831713333333","25.12615","6501200","瑞芳區"
"227011","642-TC","2017/09/29 17:28:21","新北市雙溪區三貂里定福路1-2號","121.850711666667","25.0635683333333","6502500","雙溪區"
"227003","400-TW","2017/09/29 17:28:13","新北市雙溪區平林里梅竹蹊69號","121.843615","25.0303383333333","6502500","雙溪區"
"251004","009-UM","2017/09/29 17:28:27","新北市淡水區中正東路二段88巷15號","121.459248333333","25.1504916666667","6501000","淡水區"
"251005","010-UM","2017/09/29 17:28:17","新北市淡水區鄧公路31巷2號","121.451186666667","25.17063","6501000","淡水區"
"251002","012-UM","2017/09/29 17:28:15","新北市淡水區中正路一段33號","121.426015","25.1766183333333","6501000","淡水區"
"251007","179-VK","2017/09/29 17:28:09","新北市淡水區民生路60號","121.462101666667","25.1379383333333","6501000","淡水區"
"251013","180-VK","2017/09/29 17:28:15","新北市淡水區大竹圍5號","121.466598333333","25.1952616666667","6501000","淡水區"
"251008","181-VK","2017/09/29 17:28:16","新北市淡水區大同路122巷15號","121.463195","25.1397416666667","6501000","淡水區"
"251015","182-VK","2017/09/29 17:28:14","新北市淡水區三空泉16-10號","121.472698333333","25.1643083333333","6501000","淡水區"
"251010","413-VK","2017/09/29 17:28:10","新北市淡水區中正路二段208號","121.426256666667","25.1892066666667","6501000","淡水區"
"251012","441-VK","2017/09/29 17:28:24","新北市淡水區北新路114號","121.447865","25.1783816666667","6501000","淡水區"
"251006","561-UM","2017/09/29 17:28:27","新北市淡水區大仁街15號","121.442375","25.1750233333333","6501000","淡水區"
"251009","575-R6","2017/09/29 17:28:23","新北市淡水區新生街92號","121.439573333333","25.1745516666667","6501000","淡水區"
"251011","650-BX","2017/09/29 17:28:18","新北市淡水區坪頂路718號","121.482571666667","25.1585616666667","6501000","淡水區"
"251003","673-BX","2017/09/29 17:28:27","新北市淡水區中山路159-1號","121.44081","25.1729733333333","6501000","淡水區"
"207003","550-UM","2017/09/29 17:28:14","新北市萬里區龜吼里美崙路93號","121.685286666667","25.185155","6502800","萬里區"
"207004","225-TW","2017/09/29 17:28:29","新北市萬里區萬里里景美路15-1號","121.686581666667","25.1733816666667","6502800","萬里區"
"252002","178-VK","2017/09/29 17:28:25","新北市三芝區忠孝街1-14號","121.505328333333","25.25397","6502100","三芝區"
"252001","292-VK","2017/09/29 17:28:20","新北市三芝區長安街119號","121.49806","25.2596783333333","6502100","三芝區"
"237015","649-BX","2017/09/29 17:28:27","新北市三峽區中山路459巷163-3號","121.348773333333","24.9329266666667","6500900","三峽區"
"242032","AAC-296","2017/09/29 15:10:17","新北市新莊區新泰路357巷3弄57號","121.442468333333","25.0396016666667","6500500","新莊區"
"242029","986-R7","2017/09/29 17:28:15","新北市新莊區復興路二段198號","121.459398333333","25.0445133333333","6500500","新莊區"
"242050","751-BX","2017/09/29 17:28:13","新北市新莊區新樹路449巷23號","121.434718333333","25.0142783333333","6500500","新莊區"
"242025","615-BX","2017/09/29 17:28:13","新北市新莊區中港路266號","121.453228333333","25.0438466666667","6500500","新莊區"
"242023","613-BX","2017/09/29 17:28:16","新北市新莊區中華路一段110號","121.452476666667","25.04026","6500500","新莊區"
"242027","612-BX","2017/09/29 17:28:12","新北市新莊區思源路55號","121.459955","25.0402333333333","6500500","新莊區"
"242039","566-BX","2017/09/29 17:28:10","新北市新莊區新樹路225號","121.435188333333","25.022855","6500500","新莊區"
"242044","497-BY","2017/09/29 17:28:25","新北市新莊區富國路84號","121.420316666667","25.02584","6500500","新莊區"
"242046","442-UM","2017/09/29 17:28:25","新北市新莊區新樹路65-4號","121.439435","25.030925","6500500","新莊區"
"242048","441-UM","2017/09/29 17:28:15","新北市新莊區龍安路255號","121.419805","25.020105","6500500","新莊區"
"242054","440-UM","2017/09/29 17:28:12","新北市新莊區環河路658-8號","121.43619","25.0077083333333","6500500","新莊區"
"242005","413-TV","2017/09/29 17:28:27","新北市新莊區復興路一段212號","121.45286","25.0437516666667","6500500","新莊區"
"242041","400-BY","2017/09/29 17:28:10","新北市新莊區建國一路78號","121.434303333333","25.0303583333333","6500500","新莊區"
"242060","362-BY","2017/09/29 17:28:23","新北市新莊區瓊林路172-6號","121.440941666667","25.0231983333333","6500500","新莊區"
"242058","353-BY","2017/09/29 17:28:19","新北市新莊區中正路466號","121.438878333333","25.033425","6500500","新莊區"
"242007","132-UY","2017/09/29 17:28:15","新北市新莊區中華路二段9號","121.45369","25.04542","6500500","新莊區"
"242037","133-UY","2017/09/29 17:28:25","新北市新莊區民安路429巷12號","121.434006666667","25.0235766666667","6500500","新莊區"
"242021","135-UY","2017/09/29 17:28:10","新北市新莊區中正路130號","121.452898333333","25.03627","6500500","新莊區"
"242009","173-VK","2017/09/29 15:09:35","新北市新莊區三和路10號","121.442216666667","25.03607","6500500","新莊區"
"242015","175-VK","2017/09/29 17:28:20","新北市新莊區新泰路152號","121.44776","25.03734","6500500","新莊區"
"242002","176-VK","2017/09/29 17:28:28","新北市新莊區新莊路154號","121.455255","25.0354883333333","6500500","新莊區"
"242013","346-TH","2017/09/29 17:28:25","新北市新莊區中誠街55號","121.451103333333","25.04794","6500500","新莊區"
"242019","348-TH","2017/09/29 17:28:16","新北市新莊區中港路54號","121.45541","25.0385383333333","6500500","新莊區"
"242056","349-TH","2017/09/29 17:28:21","新北市新莊區新泰路51號","121.449403333333","25.0338066666667","6500500","新莊區"
"242017","350-TH","2017/09/29 17:28:18","新北市新莊區中華路一段103號","121.45266","25.0439333333333","6500500","新莊區"
"242011","351-TH","2017/09/29 17:28:21","新北市新莊區中港路400號","121.452228333333","25.0498766666667","6500500","新莊區"
"238015","755-BX","2017/09/29 17:28:26","新北市樹林區大安路269號","121.418961666667","24.993685","6500700","樹林區"
"238023","601-UM","2017/09/29 17:28:19","新北市樹林區中正路433號","121.415038333333","25.008595","6500700","樹林區"
"238019","599-UM","2017/09/29 17:28:13","新北市樹林區八德街69號","121.419441666667","24.9823583333333","6500700","樹林區"
"238018","571-TV","2017/09/29 17:28:18","新北市樹林區樹中街15號","121.420885","24.9857783333333","6500700","樹林區"
"238024","5061-A6","2017/09/29 17:28:24","新北市樹林區保安街一段48巷28號","121.426591666667","24.9953066666667","6500700","樹林區"
"238021","KEA-2217","2017/09/29 17:28:25","新北市樹林區西圳街一段61-1號","121.40066","24.9624483333333","6500700","樹林區"
"238022","KEA-2213","2017/09/29 17:28:14","新北市樹林區忠孝街19號","121.423503333333","24.9825433333333","6500700","樹林區"
"238025","303-VK","2017/09/29 17:28:11","新北市樹林區保安二街66號","121.423931666667","24.9953916666667","6500700","樹林區"
"238017","283-BY","2017/09/29 17:28:27","新北市樹林區光武街32巷12號","121.416786666667","25.0054833333333","6500700","樹林區"
"238014","282-BY","2017/09/29 17:28:12","新北市樹林區長壽街70巷26號","121.421915","24.9950083333333","6500700","樹林區"
"238020","268-VK","2017/09/29 17:28:14","新北市樹林區千歲街99-1號","121.428238333333","25.0008","6500700","樹林區"
"238026","172-UY","2017/09/29 17:28:21","新北市樹林區福德街8號","121.401135","24.975385","6500700","樹林區"
"238016","169-UY","2017/09/29 17:28:25","新北市樹林區中山路一段135-4號","121.422375","24.9897566666667","6500700","樹林區"
"239007","AAC-297","2017/09/29 17:28:27","新北市鶯歌區國華路15號","121.34287","24.95617","6500800","鶯歌區"
"239006","891-R6","2017/09/29 17:28:24","新北市鶯歌區鶯桃路472巷7號","121.332781666667","24.96571","6500800","鶯歌區"
"239008","527-UM","2017/09/29 17:28:24","新北市鶯歌區大湖路622號","121.3348","24.9747566666667","6500800","鶯歌區"
"239005","526-UM","2017/09/29 17:28:27","新北市鶯歌區福隆一街70號","121.324548333333","24.971135","6500800","鶯歌區"
"239001","417-VK","2017/09/29 17:28:25","新北市鶯歌區高職西街68號","121.336506666667","24.9420583333333","6500800","鶯歌區"
"239003","360-BY","2017/09/29 17:28:30","新北市鶯歌區鶯桃路193號","121.337493333333","24.958715","6500800","鶯歌區"
"239002","359-BY","2017/09/29 17:28:13","新北市鶯歌區育英街15號","121.346856666667","24.955205","6500800","鶯歌區"
"239004","193-VK","2017/09/29 17:28:11","新北市鶯歌區三鶯路62巷1號","121.357476666667","24.9426","6500800","鶯歌區"
"221012","278-VK","2017/09/29 17:28:20","新北市汐止區康寧街901號","121.65183","25.074995","6501100","汐止區"
"221027","281-BY","2017/09/29 17:28:09","新北市汐止區康寧街901號","121.651795","25.075055","6501100","汐止區"
"221033","647-BX","2017/09/29 17:28:13","新北市汐止區汐萬路一段333巷23號","121.649028333333","25.0760216666667","6501100","汐止區"
"221018","753-BX","2017/09/29 17:28:12","新北市汐止區汐萬路一段256巷1號","121.65202","25.075015","6501100","汐止區"
"242034","280-VK","2017/09/29 17:28:09","新北市新莊區新泰路2號","121.44984","25.03232","6500500","新莊區"
