"lineid","car","time","location","longitude","latitude","cityid","cityname"
"234046","148-BY","2017/09/29 19:49:38","新北市永和區秀朗路二段85號","121.523033333333","25.00172","6500400","永和區"
"234013","149-BY","2017/09/29 19:49:39","新北市永和區仁愛路168號","121.510131666667","25.01276","6500400","永和區"
"234007","208-UY","2017/09/29 19:49:40","新北市中和區中和路228號","121.506535","24.999615","6500400","永和區"
"234081","298-R6","2017/09/29 19:49:36","新北市永和區永亨路98號","121.523075","25.004865","6500400","永和區"
"234038","336-UY","2017/09/29 19:49:46","新北市永和區成功路二段80號","121.526695","24.9988866666667","6500400","永和區"
"234064","337-UY","2017/09/29 19:49:31","新北市永和區中正路368巷29號","121.5186","25.0008416666667","6500400","永和區"
"234086","338-UY","2017/09/29 19:49:41","新北市永和區永亨路11號","121.519441666667","25.005865","6500400","永和區"
"234070","552-UM","2017/09/29 19:49:47","新北市永和區竹林路88號","121.519446666667","25.0126433333333","6500400","永和區"
"234054","553-UM","2017/09/29 19:49:32","新北市永和區竹林路75巷25弄8號","121.52019","25.014415","6500400","永和區"
"234017","745-BX","2017/09/29 19:49:36","新北市永和區永和路二段299號","121.51599","25.016135","6500400","永和區"
"234030","746-BX","2017/09/29 19:49:30","新北市永和區民生路67巷21號","121.523923333333","24.9973033333333","6500400","永和區"
"234061","AAD-866","2017/09/29 19:49:38","新北市永和區中正路163號","121.51649","24.9985583333333","6500400","永和區"
"234042","862-TW","2017/09/29 19:49:29","新北市永和區中和路389巷24號","121.508133333333","25.0013366666667","6500400","永和區"
"234050","863-TW","2017/09/29 19:49:41","新北市永和區保安路148號","121.508381666667","25.01481","6500400","永和區"
"234026","9371-KE","2017/09/29 19:49:33","新北市永和區雙和街25巷4號","121.508861666667","25.0018966666667","6500400","永和區"
"234011","9373-KE","2017/09/29 19:49:38","新北市永和區仁愛路352巷94號","121.501195","25.008035","6500400","永和區"
"249001","173-UM","2017/09/29 19:49:33","新北市八里區中華路二段252號","121.405313333333","25.1498033333333","6502300","八里區"
"249004","303-UY","2017/09/29 19:49:05","新北市八里區忠孝路462號","121.414936666667","25.1612716666667","6502300","八里區"
"249002","305-UY","2017/09/29 19:49:32","新北市八里區頂寮三街48號","121.451108333333","25.1257766666667","6502300","八里區"
"249003","593-UM","2017/09/29 19:49:32","新北市八里區中華路二段560巷19號","121.398308333333","25.1453616666667","6502300","八里區"
"248014","025-BX","2017/09/29 19:49:34","新北市五股區五福路38號","121.433921666667","25.089225","6501500","五股區"
"248016","026-BX","2017/09/29 19:49:28","新北市五股區成泰路四段24-7號","121.453871666667","25.1068483333333","6501500","五股區"
"248008","095-VK","2017/09/29 19:49:40","新北市五股區四維路171巷2號","121.467703333333","25.07518","6501500","五股區"
"248018","225-UY","2017/09/29 19:48:57","新北市五股區外寮路1-2號","121.4287","25.0775033333333","6501500","五股區"
"248012","247-BX","2017/09/29 19:49:33","新北市五股區蓬萊路6巷41號","121.435776666667","25.0801516666667","6501500","五股區"
"248010","272-BY","2017/09/29 19:49:33","新北市五股區登林路貿商巷1弄1號","121.430493333333","25.0696083333333","6501500","五股區"
"248002","655-BX","2017/09/29 19:49:46","新北市五股區成泰路三段544-18號","121.452666666667","25.1032616666667","6501500","五股區"
"248004","677-BX","2017/09/29 19:49:38","新北市五股區成泰路一段114號","121.4355","25.0730866666667","6501500","五股區"
"234023","9380-KE","2017/09/29 19:49:45","新北市永和區豫溪街57巷8弄3號","121.517618333333","25.0104433333333","6500400","永和區"
"234077","969-R7","2017/09/29 19:49:38","新北市永和區民治街97巷7號","121.516935","24.9979866666667","6500400","永和區"
"234074","AAC-211","2017/09/29 19:49:38","新北市永和區豫溪街189巷1號","121.52261","25.0103","6500400","永和區"
"234067","AAC-212","2017/09/29 19:49:32","新北市永和區中山路一段164號","121.509501666667","25.0092583333333","6500400","永和區"
"234003","AAC-295","2017/09/29 19:49:38","新北市永和區自由街3號","121.51511","25.0071466666667","6500400","永和區"
"244019","403-UM","2017/09/29 19:49:38","新北市林口區湖南里70-9號","121.375856666667","25.0898816666667","6501700","林口區"
"243013","AAD-798","2017/09/29 19:49:30","新北市泰山區應化街7號","121.423883333333","25.04374","6501600","泰山區"
"243009","297-R6","2017/09/29 19:49:28","新北市泰山區美寧街76號","121.431523333333","25.0646183333333","6501600","泰山區"
"243015","380-SR","2017/09/29 19:49:42","新北市泰山區明志路二段214巷11號","121.426593333333","25.04881","6501600","泰山區"
"243014","421-VK","2017/09/29 19:49:29","新北市泰山區泰林路二段33-7號","121.43525","25.0564833333333","6501600","泰山區"
"243010","KEA-2215","2017/09/29 19:49:29","新北市泰山區民生路33號","121.43063","25.0521916666667","6501600","泰山區"
"243011","KEA-2216","2017/09/29 19:49:39","新北市泰山區明志路三段182巷37號","121.423093333333","25.0393833333333","6501600","泰山區"
"243012","646-TV","2017/09/29 19:49:33","新北市泰山區全興路13號","121.432321666667","25.05895","6501600","泰山區"
"243016","680-BX","2017/09/29 19:49:31","新北市泰山區新北大道六段365號","121.422658333333","25.0327883333333","6501600","泰山區"
"222002","016-RS","2017/09/29 19:49:30","新北市深坑區北深路一段355-1號","121.622871666667","25.0052033333333","6501800","深坑區"
"222003","436-BY","2017/09/29 19:34:42","新北市深坑區深南路51-1號","121.621163333333","25.0100483333333","6501800","深坑區"
"222001","628-TS","2017/09/29 19:49:33","新北市深坑區北深路三段68號","121.607883333333","25.0014083333333","6501800","深坑區"
"231041","002-UM","2017/09/29 19:49:46","新北市新店區中央路218號","121.529816666667","24.9730866666667","6500600","新店區"
"231059","046-UY","2017/09/29 19:49:35","新北市新店區安和路一段7號","121.516735","24.9640266666667","6500600","新店區"
"231061","047-UY","2017/09/29 19:49:42","新北市新店區安民街325號","121.517426666667","24.9745566666667","6500600","新店區"
"231060","106-UY","2017/09/29 19:49:47","新北市新店區安康路二段161號","121.510221666667","24.9593433333333","6500600","新店區"
"231051","107-UY","2017/09/29 19:49:42","新北市新店區中央二街40號","121.527663333333","24.974025","6500600","新店區"
"231048","108-UY","2017/09/29 19:49:48","新北市新店區寶興路65巷1號","121.550908333333","24.971725","6500600","新店區"
"231050","215-TC","2017/09/29 19:46:35","新北市新店區北宜路二段579巷4號","121.56531","24.95392","6500600","新店區"
"231057","256-BX","2017/09/29 19:49:45","新北市新店區花園二路三段21-3號","121.556965","24.9314033333333","6500600","新店區"
"231063","268-BY","2017/09/29 19:49:30","新北市新店區黎明路3號","121.503193333333","24.952215","6500600","新店區"
"231046","278-BY","2017/09/29 19:49:36","新北市新店區三民路159巷19弄46號","121.532186666667","24.9732533333333","6500600","新店區"
"231054","AAD-862","2017/09/29 19:49:26","新北市新店區光明街138巷14號","121.539935","24.961155","6500600","新店區"
"231067","4772-VM","2017/09/29 19:49:42","新北市新店區秀山路11巷8號","121.531883333333","24.95938","6500600","新店區"
"231065","512-UM","2017/09/29 19:49:39","新北市新店區安祥路109巷123號","121.476611666667","24.95786","6500600","新店區"
"231064","515-UM","2017/09/29 19:49:31","新北市新店區安和路一段52巷2-1號","121.517668333333","24.9663283333333","6500600","新店區"
"231045","617-UM","2017/09/29 19:49:38","新北市新店區北宜路二段382號","121.564483333333","24.95291","6500600","新店區"
"231040","619-UM","2017/09/29 19:49:38","新北市新店區中正路75巷71號","121.54305","24.96888","6500600","新店區"
"231042","641-BX","2017/09/29 19:49:43","新北市新店區中興路一段271號","121.545145","24.96811","6500600","新店區"
"231068","718-UY","2017/09/29 19:49:31","新北市新店區安華路28-1號","121.519455","24.961055","6500600","新店區"
"231049","719-UM","2017/09/29 19:49:41","新北市新店區民權路109-3號","121.535776666667","24.982045","6500600","新店區"
"231062","720-UM","2017/09/29 19:49:29","新北市新店區永業路117號","121.528478333333","24.9480983333333","6500600","新店區"
"231044","897-TW","2017/09/29 19:49:34","新北市新店區復興路44-1號","121.538628333333","24.9866683333333","6500600","新店區"
"231043","899-TW","2017/09/29 19:49:47","新北市新店區中正路245號","121.539106666667","24.9734066666667","6500600","新店區"
"231066","AKT-0513","2017/09/29 19:49:43","新北市新店區薏仁坑路7號","121.49884","24.9591583333333","6500600","新店區"
"241011","013-R5","2017/09/29 19:49:29","新北市三重區三和路二段173巷19號","121.498411666667","25.0701533333333","6500200","三重區"
"241028","022-UY","2017/09/29 19:49:40","新北市三重區中正南路157號","121.493693333333","25.0561333333333","6500200","三重區"
"241008","059-VK","2017/09/29 19:49:43","新北市三重區永福街145號","121.478731666667","25.0763816666667","6500200","三重區"
"241009","060-VK","2017/09/29 19:49:44","新北市三重區三和路四段396巷7號","121.481143333333","25.07922","6500200","三重區"
"241031","061-VK","2017/09/29 19:49:37","新北市三重區重新路四段248號","121.486026666667","25.05338","6500200","三重區"
"241015","062-VK","2017/09/29 19:49:45","新北市三重區三和路一段2號","121.50384","25.06432","6500200","三重區"
"241017","063-VK","2017/09/29 19:49:28","新北市三重區重陽路三段7-1號","121.489218333333","25.0662583333333","6500200","三重區"
"241024","065-VK","2017/09/29 19:49:34","新北市三重區大勇街82巷11號","121.479481666667","25.071695","6500200","三重區"
"241026","066-VK","2017/09/29 19:49:31","新北市三重區文化南路42號","121.500396666667","25.0602883333333","6500200","三重區"
"241003","091-VK","2017/09/29 19:49:34","新北市三重區五華街93巷28號","121.492923333333","25.0844133333333","6500200","三重區"
"241005","262-UM","2017/09/29 19:49:32","新北市三重區溪尾街316號","121.487703333333","25.0844066666667","6500200","三重區"
"241016","266-UM","2017/09/29 19:49:38","新北市三重區正義北路48巷53號","121.495858333333","25.0636366666667","6500200","三重區"
"241022","267-UM","2017/09/29 19:49:32","新北市三重區過圳街31巷2號","121.488885","25.06059","6500200","三重區"
"241018","268-UM","2017/09/29 19:49:46","新北市三重區自強路一段167號","121.493113333333","25.0673733333333","6500200","三重區"
"241032","269-UM","2017/09/29 19:49:31","新北市三重區重陽路一段60巷30弄3號","121.485331666667","25.0578433333333","6500200","三重區"
"241013","270-UM","2017/09/29 19:49:40","新北市三重區仁愛街112巷16號","121.494668333333","25.0739366666667","6500200","三重區"
"241025","271-UM","2017/09/29 19:49:46","新北市三重區大有街1-1號","121.477678333333","25.0654366666667","6500200","三重區"
"241007","398-BY","2017/09/29 19:49:30","新北市三重區慈愛街10號","121.484541666667","25.0784433333333","6500200","三重區"
"241020","413-TH","2017/09/29 19:49:30","新北市三重區三和路四段14巷8號","121.491251666667","25.0736016666667","6500200","三重區"
"241035","462-BY","2017/09/29 19:49:35","新北市三重區文化北路8號","121.499306666667","25.06358","6500200","三重區"
"241004","475-VK","2017/09/29 19:49:33","新北市三重區五華街74號","121.493391666667","25.082015","6500200","三重區"
"241019","478-VK","2017/09/29 19:49:38","新北市三重區自強路二段67巷17號","121.489416666667","25.0702333333333","6500200","三重區"
"241030","480-VK","2017/09/29 19:49:35","新北市三重區集成路12號","121.48855","25.052015","6500200","三重區"
"241014","543-UM","2017/09/29 19:49:26","新北市三重區長安街82號","121.501468333333","25.0675766666667","6500200","三重區"
"241023","545-UM","2017/09/29 19:49:38","新北市三重區頂崁街172號","121.477615","25.0659783333333","6500200","三重區"
"241001","547-UM","2017/09/29 19:49:29","新北市三重區仁愛街327巷38號","121.493118333333","25.080065","6500200","三重區"
"241006","AAD-863","2017/09/29 19:49:47","新北市三重區力行路二段78號","121.481663333333","25.0737066666667","6500200","三重區"
"241012","941-UM","2017/09/29 19:49:40","新北市三重區仁興街56巷46號","121.498085","25.0754216666667","6500200","三重區"
"241029","942-UM","2017/09/29 19:49:44","新北市三重區光明路13巷13號","121.49063","25.0585533333333","6500200","三重區"
"241033","AAC-255","2017/09/29 19:49:46","新北市三重區中興南街80巷3號","121.471416666667","25.04351","6500200","三重區"
"235066","003-UY","2017/09/29 19:49:29","新北市中和區南工路60號","121.506155","25.0018033333333","6500300","中和區"
"235064","005-UY","2017/09/29 19:49:28","新北市中和區南山路127巷32弄2號","121.503946666667","24.997645","6500300","中和區"
"235063","006-UY","2017/09/29 19:49:46","新北市中和區連城路176號","121.493151666667","24.9970016666667","6500300","中和區"
"235056","096-UM","2017/09/29 19:49:31","新北市中和區中山路三段100號","121.477078333333","25.00584","6500300","中和區"
"235039","097-UM","2017/09/29 19:49:41","新北市中和區景平路172號","121.517018333333","24.9925983333333","6500300","中和區"
"235065","098-UM","2017/09/29 19:49:31","新北市中和區莊敬路1-6號","121.499475","25.004375","6500300","中和區"
"235040","150-BY","2017/09/29 19:49:40","新北市中和區安平路59號","121.509716666667","24.9950266666667","6500300","中和區"
"235058","151-BY","2017/09/29 19:49:33","新北市中和區員山路146巷24號","121.482511666667","24.9967133333333","6500300","中和區"
"235055","183-VK","2017/09/29 19:49:33","新北市中和區中山路三段181巷18弄41號","121.47263","25.0051083333333","6500300","中和區"
"235038","185-VK","2017/09/29 19:49:36","新北市中和區自立路117巷4弄5號","121.522758333333","24.9944583333333","6500300","中和區"
"235049","186-VK","2017/09/29 19:49:27","新北市中和區中興街53號","121.500713333333","24.9938716666667","6500300","中和區"
"235067","255-BX","2017/09/29 19:49:38","新北市中和區新生街186巷1弄18號","121.483325","24.9989733333333","6500300","中和區"
"235044","293-VK","2017/09/29 19:49:33","新北市中和區南山路389號","121.506385","24.99035","6500300","中和區"
"235072","301-VK","2017/09/29 19:49:39","新北市新店區安華路28-1號","121.519478333333","24.9613966666667","6500300","中和區"
"235043","352-BY","2017/09/29 19:49:36","新北市中和區興南路一段160號","121.508148333333","24.98675","6500300","中和區"
"235068","375-QA","2017/09/29 19:49:45","新北市中和區永和路9巷2號","121.499","25.0039816666667","6500300","中和區"
"235051","376-QA","2017/09/29 19:49:34","新北市中和區中興街156號","121.499858333333","24.9917433333333","6500300","中和區"
"235061","378-QA","2017/09/29 19:49:29","新北市中和區員山路174巷1號","121.481688333333","24.9998833333333","6500300","中和區"
"235050","4979-A6","2017/09/29 19:49:33","新北市中和區景平路241巷82弄10號","121.50718","24.9921066666667","6500300","中和區"
"235069","4980-A6","2017/09/29 19:49:43","新北市中和區圓通路196號","121.496371666667","24.99435","6500300","中和區"
"235042","551-UM","2017/09/29 19:49:41","新北市中和區保健路2巷30號","121.507013333333","24.9974916666667","6500300","中和區"
"235070","558-UM","2017/09/29 19:48:02","新北市中和區景平路632-8號","121.499703333333","24.9986533333333","6500300","中和區"
"235045","565-BX","2017/09/29 19:49:28","新北市中和區景新街334號","121.511786666667","24.9907433333333","6500300","中和區"
"235054","640-BX","2017/09/29 19:49:39","新北市中和區民德路2號","121.468673333333","25.0033083333333","6500300","中和區"
"235060","647-TV","2017/09/29 19:49:39","新北市中和區中山路二段519號","121.482033333333","25.005135","6500300","中和區"
"235047","732-UM","2017/09/29 19:49:44","新北市中和區和平街82號","121.50767","24.9911666666667","6500300","中和區"
"235046","733-UM","2017/09/29 19:49:48","新北市中和區仁愛街90號","121.511408333333","24.9873133333333","6500300","中和區"
"235062","800-TS","2017/09/29 19:49:31","新北市新店區安康路二段382號","121.500381666667","24.9571666666667","6500300","中和區"
"235057","801-TS","2017/09/29 19:49:46","新北市中和區員山路146-3號","121.481268333333","24.9969866666667","6500300","中和區"
"235041","802-TS","2017/09/29 19:49:39","新北市中和區永貞路249巷12號","121.512478333333","25.003695","6500300","中和區"
"235052","805-TS","2017/09/29 19:49:42","新北市中和區華新街28-2號","121.507575","24.984495","6500300","中和區"
"235048","896-TW","2017/09/29 19:49:28","新北市中和區興南路一段147號","121.508635","24.9873933333333","6500300","中和區"
"235053","900-TW","2017/09/29 19:49:36","新北市中和區國光街215巷29號","121.467335","25.0005283333333","6500300","中和區"
"235037","AAC-213","2017/09/29 19:49:38","新北市中和區秀朗路三段149號","121.524748333333","24.99229","6500300","中和區"
"235059","AAC-215","2017/09/29 19:49:30","新北市中和區圓通路305巷29弄2號","121.49508","24.9891333333333","6500300","中和區"
"220065","072-UY","2017/09/29 19:49:45","新北市板橋區民族路276巷42號","121.46944","25.0058083333333","6500100","板橋區"
"220086","073-UY","2017/09/29 19:49:36","新北市板橋區中正路1巷8號","121.455431666667","25.0118216666667","6500100","板橋區"
"220106","075-UY","2017/09/29 19:49:39","新北市板橋區文化路二段620號","121.478271666667","25.0356816666667","6500100","板橋區"
"220069","AAD-861","2017/09/29 19:49:35","新北市板橋區南雅南路二段11-1號","121.454168333333","25.0026216666667","6500100","板橋區"
"247010","339-TH","2017/09/29 19:49:41","新北市三重區集賢路188號","121.483978333333","25.0881433333333","6501400","蘆洲區"
"247002","337-TH","2017/09/29 19:49:40","新北市蘆洲區永樂街38巷71號","121.458506666667","25.090715","6501400","蘆洲區"
"247004","336-TH","2017/09/29 19:49:40","新北市蘆洲區永安南路二段292號","121.45737","25.0817483333333","6501400","蘆洲區"
"247006","056-VK","2017/09/29 19:49:35","新北市蘆洲區永安南路二段28號","121.467161666667","25.0770983333333","6501400","蘆洲區"
"247008","053-VK","2017/09/29 19:49:28","新北市蘆洲區中山一路29號","121.479215","25.0808483333333","6501400","蘆洲區"
"247014","007-UY","2017/09/29 19:49:34","新北市蘆洲區復興路30-7號","121.472768333333","25.0845833333333","6501400","蘆洲區"
"226004","205-ST","2017/09/29 19:49:30","新北市平溪區靜安路二段295號","121.733133333333","25.0258066666667","6502400","平溪區"
"228001","670-TC","2017/09/29 19:49:27","新北市貢寮區真理里新港街26巷21-9號","121.927016666667","25.0550116666667","6502600","貢寮區"
"228003","828-UM","2017/09/29 19:49:42","新北市貢寮區真理里美艷山街3-1號","121.925541666667","25.05942","6502600","貢寮區"
"227011","642-TC","2017/09/29 19:49:41","新北市雙溪區新基里中華路90號","121.866146666667","25.03905","6502500","雙溪區"
"227003","400-TW","2017/09/29 19:49:29","新北市雙溪區雙溪里內挖路43號","121.863376666667","25.0365683333333","6502500","雙溪區"
"208002","742-BX","2017/09/29 19:49:31","新北市金山區中華路368號","121.633303333333","25.2245633333333","6502700","金山區"
"208003","665-BX","2017/09/29 19:49:29","新北市金山區清泉里清水路41巷2號","121.62969","25.2331733333333","6502700","金山區"
"208001","761-BX","2017/09/29 19:49:45","新北市金山區重和里六股林口4-2號","121.60018","25.2123316666667","6502700","金山區"
"251004","009-UM","2017/09/29 19:49:47","新北市淡水區民權路185巷20號","121.460293333333","25.133805","6501000","淡水區"
"251005","010-UM","2017/09/29 19:49:37","新北市淡水區中正東路6號","121.446978333333","25.1672216666667","6501000","淡水區"
"251013","180-VK","2017/09/29 19:49:35","新北市淡水區頂田寮1-3號","121.457703333333","25.2146483333333","6501000","淡水區"
"251008","181-VK","2017/09/29 19:49:36","新北市淡水區中正路一段24巷2-4號","121.426825","25.1771183333333","6501000","淡水區"
"251015","182-VK","2017/09/29 19:49:34","新北市淡水區北新路二段77-10號","121.480856666667","25.1855233333333","6501000","淡水區"
"251012","441-VK","2017/09/29 19:49:43","新北市淡水區中山北路三段156號","121.44583","25.1957733333333","6501000","淡水區"
"251001","559-UM","2017/09/29 19:49:37","新北市淡水區中正東路二段89號","121.459455","25.1525516666667","6501000","淡水區"
"251006","561-UM","2017/09/29 19:49:27","新北市淡水區水碓街15號","121.443508333333","25.1769833333333","6501000","淡水區"
"251009","575-R6","2017/09/29 19:49:37","新北市淡水區中正路38-1號","121.443751666667","25.1693316666667","6501000","淡水區"
"251011","650-BX","2017/09/29 19:49:38","新北市淡水區淡金路一段166-5號","121.454011666667","25.1799466666667","6501000","淡水區"
"207003","550-UM","2017/09/29 19:49:32","新北市萬里區大鵬里萬里加投45-1號","121.64098","25.21087","6502800","萬里區"
"207004","225-TW","2017/09/29 19:49:43","新北市萬里區萬里里瑪鋉路238號","121.689035","25.1802316666667","6502800","萬里區"
"252002","178-VK","2017/09/29 19:49:45","新北市三芝區三民街33-1號","121.504653333333","25.258615","6502100","三芝區"
"252001","292-VK","2017/09/29 19:49:40","新北市三芝區公正街9號","121.499731666667","25.257525","6502100","三芝區"
"237004","078-UY","2017/09/29 19:49:37","新北市三峽區添福26-1號","121.375776666667","24.897595","6500900","三峽區"
"237007","153-BY","2017/09/29 19:49:31","新北市三峽區二鬮路136巷151號","121.357318333333","24.9106666666667","6500900","三峽區"
"237009","210-TH","2017/09/29 19:49:29","新北市三峽區民族街78巷2弄1號","121.368738333333","24.92974","6500900","三峽區"
"237013","252-BX","2017/09/29 19:49:41","新北市三峽區溪北街35號","121.396868333333","24.9361033333333","6500900","三峽區"
"237012","275-BY","2017/09/29 19:49:28","新北市三峽區中華路26號","121.37385","24.9324383333333","6500900","三峽區"
"237008","302-VK","2017/09/29 19:49:43","新北市三峽區中正路一段174巷4弄30號","121.372925","24.9293366666667","6500900","三峽區"
"237014","433-BY","2017/09/29 19:49:39","新北市三峽區添福59-10號","121.373708333333","24.9033","6500900","三峽區"
"237006","5529-G3","2017/09/29 19:49:44","新北市三峽區中正路一段336巷15弄2號","121.36997","24.9249833333333","6500900","三峽區"
"237015","649-BX","2017/09/29 19:49:27","新北市三峽區橫溪路99巷5號","121.399596666667","24.9360716666667","6500900","三峽區"
"237005","AKY-6261","2017/09/29 19:49:40","新北市三峽區長泰街18巷1號","121.379111666667","24.9317216666667","6500900","三峽區"
"236072","105-UM","2017/09/29 19:49:46","新北市土城區水源街32巷12號","121.441146666667","24.9759166666667","6501300","土城區"
"236043","107-UM","2017/09/29 19:49:42","新北市土城區金城路二段245巷17號","121.455195","24.98324","6501300","土城區"
"236079","166-UM","2017/09/29 19:49:35","新北市土城區溪頭路155號","121.409171666667","24.9507066666667","6501300","土城區"
"236031","253-BX","2017/09/29 19:49:42","新北市土城區中央路一段290號","121.443336666667","24.98246","6501300","土城區"
"236027","269-VK","2017/09/29 19:49:43","新北市土城區中央路二段61巷22號","121.443248333333","24.9787966666667","6501300","土城區"
"236039","271-VK","2017/09/29 19:49:48","新北市土城區國際路158巷54號","121.467925","24.974815","6501300","土城區"
"236022","401-BY","2017/09/29 19:49:34","新北市土城區峰廷街3號","121.469131666667","24.98734","6501300","土城區"
"236059","912-UM","2017/09/29 19:49:32","新北市土城區中央路二段78號","121.442448333333","24.9790433333333","6501300","土城區"
"236050","913-UM","2017/09/29 19:47:50","新北市土城區青雲路317號","121.459098333333","24.978805","6501300","土城區"
"236063","915-UM","2017/09/29 19:49:37","新北市土城區延平街31號","121.468076666667","24.991785","6501300","土城區"
"236055","AAC-216","2017/09/29 19:49:39","新北市土城區延和路27號","121.465783333333","24.9891316666667","6501300","土城區"
"242032","AAC-296","2017/09/29 19:49:45","新北市新莊區忠孝街103號","121.443866666667","25.0373483333333","6500500","新莊區"
"242025","615-BX","2017/09/29 19:49:37","新北市新莊區五權一路12巷21弄9號","121.457925","25.0647433333333","6500500","新莊區"
"242023","613-BX","2017/09/29 19:49:45","新北市新莊區化成路69號","121.465565","25.0459183333333","6500500","新莊區"
"242027","612-BX","2017/09/29 19:49:42","新北市新莊區立信五街2號","121.444605","25.051575","6500500","新莊區"
"242039","566-BX","2017/09/29 19:49:42","新北市新莊區民安路299巷45號","121.429541666667","25.0234016666667","6500500","新莊區"
"242044","497-BY","2017/09/29 19:49:40","新北市新莊區新北大道七段712號","121.41241","25.02654","6500500","新莊區"
"242048","441-UM","2017/09/29 19:49:29","新北市新莊區後港一路28巷12號","121.425555","25.0251383333333","6500500","新莊區"
"242005","413-TV","2017/09/29 19:49:37","新北市新莊區化成路63巷16號","121.463943333333","25.0458933333333","6500500","新莊區"
"242060","362-BY","2017/09/29 19:49:42","新北市新莊區中環路一段287號","121.441941666667","25.0319783333333","6500500","新莊區"
"242058","353-BY","2017/09/29 19:49:45","新北市新莊區八德街62號","121.424831666667","25.02233","6500500","新莊區"
"242007","132-UY","2017/09/29 19:49:37","新北市新莊區新北大道三段7號","121.458003333333","25.0600383333333","6500500","新莊區"
"242037","133-UY","2017/09/29 19:49:45","新北市新莊區建安街60號","121.427216666667","25.0247483333333","6500500","新莊區"
"242009","173-VK","2017/09/29 18:32:58","新北市新莊區三和路12-21號","121.442036666667","25.0388366666667","6500500","新莊區"
"242002","176-VK","2017/09/29 19:49:43","新北市新莊區新泰路2號","121.449876666667","25.03235","6500500","新莊區"
"242013","346-TH","2017/09/29 19:49:28","新北市新莊區中泰街38巷10號","121.450841666667","25.04732","6500500","新莊區"
"242019","348-TH","2017/09/29 19:49:36","新北市新莊區明智街21巷1號","121.45412","25.0413816666667","6500500","新莊區"
"242056","349-TH","2017/09/29 19:49:41","新北市新莊區新泰路87號","121.448673333333","25.0343866666667","6500500","新莊區"
"242017","350-TH","2017/09/29 19:49:38","新北市新莊區中華路一段166號","121.452723333333","25.0417016666667","6500500","新莊區"
"242011","351-TH","2017/09/29 19:49:41","新北市新莊區榮華路二段99號","121.447431666667","25.0556533333333","6500500","新莊區"
"238015","755-BX","2017/09/29 19:49:26","新北市樹林區日新街79號","121.421861666667","24.9906516666667","6500700","樹林區"
"238023","601-UM","2017/09/29 19:49:42","新北市樹林區三福街91號","121.406518333333","25.0159616666667","6500700","樹林區"
"238024","5061-A6","2017/09/29 19:48:09","新北市樹林區中山路三段210-2號","121.380721666667","24.966845","6500700","樹林區"
"238021","KEA-2217","2017/09/29 19:49:39","新北市樹林區佳園路三段201號","121.38517","24.94737","6500700","樹林區"
"238025","303-VK","2017/09/29 19:49:31","新北市樹林區大安路618號","121.411226666667","24.982985","6500700","樹林區"
"238017","283-BY","2017/09/29 19:49:47","新北市樹林區保安街二段45巷15號","121.415371666667","24.9999366666667","6500700","樹林區"
"238014","282-BY","2017/09/29 19:49:32","新北市樹林區千歲街46巷11號","121.426736666667","24.99663","6500700","樹林區"
"238020","268-VK","2017/09/29 19:49:33","新北市板橋區大觀路三段59巷17弄5-1號","121.43489","24.99539","6500700","樹林區"
"239006","891-R6","2017/09/29 19:49:44","新北市鶯歌區文化路41號","121.359606666667","24.9567533333333","6500800","鶯歌區"
"221008","489-VK","2017/09/29 19:49:36","新北市汐止區康寧街39號","121.618605","25.0668983333333","6501100","汐止區"
"221036","130-UY","2017/09/29 19:49:35","新北市汐止區汐萬路一段39號","121.655086666667","25.069125","6501100","汐止區"
"221015","131-UY","2017/09/29 19:49:36","新北市汐止區忠孝東路397號","121.665675","25.0708366666667","6501100","汐止區"
"221010","269-BY","2017/09/29 19:49:38","新北市汐止區汐萬路一段343巷13弄14號","121.649883333333","25.0764966666667","6501100","汐止區"
"221012","278-VK","2017/09/29 19:49:39","新北市汐止區大同路三段539號","121.681021666667","25.0714433333333","6501100","汐止區"
"221023","279-VK","2017/09/29 19:49:28","新北市汐止區明峰街165號","121.62886","25.0701783333333","6501100","汐止區"
"221032","280-BY","2017/09/29 19:49:33","新北市汐止區橫科路119號","121.620096666667","25.0503783333333","6501100","汐止區"
"221027","281-BY","2017/09/29 19:49:29","新北市汐止區忠孝東路9號","121.658328333333","25.0659683333333","6501100","汐止區"
"221038","297-VK","2017/09/29 19:49:26","新北市汐止區忠孝東路291號","121.664015","25.068775","6501100","汐止區"
"221029","298-VK","2017/09/29 19:49:31","新北市汐止區康寧街901號","121.651431666667","25.0750483333333","6501100","汐止區"
"221021","299-VK","2017/09/29 19:49:44","新北市汐止區新台五路一段171號","121.65494","25.062845","6501100","汐止區"
"221031","353-TW","2017/09/29 19:49:34","新北市汐止區福德三路127號","121.633655","25.0676216666667","6501100","汐止區"
"221035","622-UM","2017/09/29 19:49:39","新北市汐止區長江街13巷3號","121.654715","25.0714166666667","6501100","汐止區"
"221025","623-UM","2017/09/29 19:49:29","新北市汐止區秀峰路81巷15弄2號","121.660868333333","25.0644516666667","6501100","汐止區"
"221033","647-BX","2017/09/29 19:49:33","新北市汐止區東勢街76巷100-1號","121.636486666667","25.03909","6501100","汐止區"
"221018","753-BX","2017/09/29 19:49:31","新北市汐止區大同路二段533號","121.661785","25.06908","6501100","汐止區"
"220079","145-BY","2017/09/29 19:49:43","新北市板橋區中正路183巷42號","121.455068333333","25.01608","6500100","板橋區"
"220080","200-UY","2017/09/29 19:49:46","新北市板橋區大觀路二段37巷10號","121.447263333333","25.00282","6500100","板橋區"
"220082","610-BX","2017/09/29 19:49:43","新北市板橋區溪北路91號","121.428603333333","24.989365","6500100","板橋區"
"220101","245-BX","2017/09/29 19:49:29","新北市板橋區莊敬路263巷15號","121.473145","25.0217716666667","6500100","板橋區"
"220068","257-TC","2017/09/29 19:49:40","新北市板橋區中山路二段412巷18號","121.483248333333","25.0199733333333","6500100","板橋區"
"220056","276-BY","2017/09/29 19:49:34","新北市板橋區南雅南路二段49號","121.451521666667","24.994445","6500100","板橋區"
"220072","277-BY","2017/09/29 19:49:41","新北市板橋區金門街215巷41號","121.433343333333","24.989645","6500100","板橋區"
"220064","280-UM","2017/09/29 19:49:40","新北市板橋區中山路一段91號","121.461638333333","25.0100616666667","6500100","板橋區"
"220094","283-UM","2017/09/29 19:49:41","新北市板橋區長江路一段423號","121.463188333333","25.0310733333333","6500100","板橋區"
"220071","283-VK","2017/09/29 19:49:30","新北市板橋區廣權路79號","121.463943333333","24.992445","6500100","板橋區"
"220053","285-VK","2017/09/29 19:49:39","新北市板橋區中山路二段90巷25號","121.475806666667","25.015705","6500100","板橋區"
"220083","286-VK","2017/09/29 19:49:31","新北市板橋區大觀路二段174巷122號","121.441318333333","25.0021083333333","6500100","板橋區"
"220081","287-VK","2017/09/29 19:46:21","新北市板橋區大觀路一段29巷179弄12號","121.449","25.0047466666667","6500100","板橋區"
"220090","288-VK","2017/09/29 19:49:26","新北市板橋區龍泉街72巷13號","121.456076666667","25.02631","6500100","板橋區"
"220061","293-UM","2017/09/29 19:49:39","新北市板橋區板新路200巷12號","121.46898","25.0162816666667","6500100","板橋區"
"220084","296-UM","2017/09/29 19:49:29","新北市板橋區溪崑二街145號","121.426188333333","24.9881383333333","6500100","板橋區"
"220075","297-UM","2017/09/29 19:49:38","新北市板橋區金華街1號","121.455476666667","25.02009","6500100","板橋區"
"220062","303-R5","2017/09/29 19:49:45","新北市板橋區光復街33巷13弄2號","121.48206","25.0191266666667","6500100","板橋區"
"220092","307-R5","2017/09/29 19:49:36","新北市板橋區四維路137巷15號","121.464401666667","25.02464","6500100","板橋區"
"220098","317-R6","2017/09/29 19:49:32","新北市板橋區新海路407號","121.458511666667","25.026965","6500100","板橋區"
"220089","487-VK","2017/09/29 19:49:39","新北市板橋區陽明街259號","121.462616666667","25.0254866666667","6500100","板橋區"
"242034","280-VK","2017/09/29 19:49:45","新北市新莊區仁愛街73號","121.444053333333","25.0378833333333","6500500","新莊區"
"220088","491-VK","2017/09/29 19:49:42","新北市板橋區仁化街66號","121.476005","25.0317866666667","6500100","板橋區"
"220035","560-BX","2017/09/29 19:49:47","新北市板橋區金華街25號","121.455885","25.0205083333333","6500100","板橋區"
"220103","561-BX","2017/09/29 19:49:49","新北市板橋區陽明街29巷9號","121.464935","25.0218683333333","6500100","板橋區"
"220063","609-BX","2017/09/29 19:49:46","新北市板橋區三民路一段44號","121.479323333333","25.02274","6500100","板橋區"
"220091","637-BX","2017/09/29 19:49:32","新北市板橋區民治街92號","121.479221666667","25.031725","6500100","板橋區"
"220057","686-BX","2017/09/29 19:49:31","新北市板橋區廣權路27號","121.462408333333","24.9915083333333","6500100","板橋區"
"220077","687-BX","2017/09/29 19:49:48","新北市板橋區僑中一街124巷17號","121.446115","25.0134616666667","6500100","板橋區"
"220093","689-BX","2017/09/29 19:49:36","新北市板橋區長江路二段225號","121.468255","25.032555","6500100","板橋區"
"220054","741-BX","2017/09/29 19:49:34","新北市板橋區忠孝路192號","121.465241666667","25.002605","6500100","板橋區"
"220055","827-TW","2017/09/29 19:49:48","新北市板橋區國慶路167巷13號","121.461921666667","24.99709","6500100","板橋區"
"220067","829-TW","2017/09/29 19:49:31","新北市板橋區長安街210-1號","121.474575","25.012005","6500100","板橋區"
"220102","830-TW","2017/09/29 19:49:44","新北市板橋區仁化街42巷5弄1號","121.475493333333","25.0314616666667","6500100","板橋區"
"220096","831-TW","2017/09/29 19:49:41","新北市板橋區民生路二段226巷31弄1號","121.471018333333","25.0220833333333","6500100","板橋區"
"220074","895-R6","2017/09/29 19:49:33","新北市板橋區館前西路142號","121.456268333333","25.0080266666667","6500100","板橋區"
"220073","985-R7","2017/09/29 19:49:36","新北市板橋區國光路51號","121.45808","25.0180133333333","6500100","板橋區"
"220097","AAC-210","2017/09/29 19:49:38","新北市板橋區文化路一段285巷1號","121.464401666667","25.0188616666667","6500100","板橋區"
"220070","AAC-253","2017/09/29 19:49:33","新北市板橋區民族路83號","121.465723333333","25.008635","6500100","板橋區"
