"lineid","car","time","location","longitude","latitude","cityid","cityname"
"234046","148-BY","2017/09/29 19:59:33","新北市永和區永亨路166號","121.526116666667","25.0034583333333","6500400","永和區"
"234013","149-BY","2017/09/29 19:59:40","新北市永和區保生路55號","121.504725","25.010645","6500400","永和區"
"234007","208-UY","2017/09/29 19:59:37","新北市永和區保生路22巷15號","121.50706","25.0081016666667","6500400","永和區"
"234081","298-R6","2017/09/29 19:59:41","新北市永和區國中路8號","121.524301666667","25.0047383333333","6500400","永和區"
"234038","336-UY","2017/09/29 19:59:26","新北市永和區成功路二段118號","121.52654","24.9977916666667","6500400","永和區"
"234064","337-UY","2017/09/29 19:59:31","新北市永和區中正路412巷20弄11號","121.518813333333","25.001845","6500400","永和區"
"234086","338-UY","2017/09/29 19:59:43","新北市永和區福和路182號","121.520475","25.0079083333333","6500400","永和區"
"234070","552-UM","2017/09/29 19:59:27","新北市永和區國光路39號","121.519188333333","25.0083166666667","6500400","永和區"
"234054","553-UM","2017/09/29 19:59:32","新北市永和區環河東路一段122號","121.520428333333","25.01544","6500400","永和區"
"234017","745-BX","2017/09/29 19:59:36","新北市永和區文化路69號","121.513998333333","25.0151266666667","6500400","永和區"
"234030","746-BX","2017/09/29 19:59:37","新北市永和區民生路22巷6號","121.52219","24.997335","6500400","永和區"
"234061","AAD-866","2017/09/29 19:59:38","新北市永和區中正路109號","121.515546666667","24.99752","6500400","永和區"
"234042","862-TW","2017/09/29 19:59:29","新北市永和區中和路421巷5弄18號","121.508251666667","25.0006733333333","6500400","永和區"
"234050","863-TW","2017/09/29 19:59:37","新北市永和區保安路264號","121.50588","25.0123566666667","6500400","永和區"
"234026","9371-KE","2017/09/29 19:59:33","新北市永和區水源街27巷14號","121.511231666667","25.003735","6500400","永和區"
"234011","9373-KE","2017/09/29 19:59:38","新北市永和區仁愛路352巷112弄1號","121.500561666667","25.008385","6500400","永和區"
"249005","172-UM","2017/09/29 19:59:31","新北市八里區楓林路1-15號","121.385248333333","25.1312833333333","6502300","八里區"
"249001","173-UM","2017/09/29 19:59:33","新北市八里區中華路二段312號","121.403743333333","25.1484033333333","6502300","八里區"
"249004","303-UY","2017/09/29 19:59:45","新北市八里區中華路二段11巷5號","121.413646666667","25.1534366666667","6502300","八里區"
"249002","305-UY","2017/09/29 19:59:32","新北市八里區頂寮一街1號","121.452185","25.1240433333333","6502300","八里區"
"249003","593-UM","2017/09/29 19:59:32","新北市八里區中華路二段560巷3號","121.398545","25.145105","6502300","八里區"
"248014","025-BX","2017/09/29 19:59:33","新北市五股區五福路14巷11號","121.434881666667","25.0887983333333","6501500","五股區"
"248016","026-BX","2017/09/29 19:59:28","新北市五股區成泰路三段577巷80弄7號","121.449473333333","25.1043183333333","6501500","五股區"
"248008","095-VK","2017/09/29 19:59:40","新北市五股區四維路30巷41號","121.468941666667","25.071525","6501500","五股區"
"248018","225-UY","2017/09/29 19:59:37","新北市五股區登林路105-6號","121.407708333333","25.0790416666667","6501500","五股區"
"248012","247-BX","2017/09/29 19:59:33","新北市五股區成泰路一段220-1號","121.436363333333","25.079515","6501500","五股區"
"248010","272-BY","2017/09/29 19:59:33","新北市五股區登林路76-9號","121.429761666667","25.06942","6501500","五股區"
"248002","655-BX","2017/09/29 19:59:38","新北市五股區成泰路三段436號","121.450851666667","25.0994783333333","6501500","五股區"
"248004","677-BX","2017/09/29 19:59:38","新北市五股區成泰路一段32巷62號","121.435028333333","25.0669983333333","6501500","五股區"
"234023","9380-KE","2017/09/29 19:59:24","新北市永和區中正路662巷21號","121.517446666667","25.008865","6500400","永和區"
"234077","969-R7","2017/09/29 19:59:31","新北市永和區智光街94號","121.516113333333","24.9969883333333","6500400","永和區"
"234074","AAC-211","2017/09/29 19:59:38","新北市永和區豫溪街185號","121.522491666667","25.01038","6500400","永和區"
"234067","AAC-212","2017/09/29 19:59:32","新北市永和區中山路一段281巷2弄1號","121.507273333333","25.0066616666667","6500400","永和區"
"234003","AAC-295","2017/09/29 19:59:38","新北市永和區永和路二段35號","121.514516666667","25.01032","6500400","永和區"
"244019","403-UM","2017/09/29 19:57:58","新北市林口區寶斗厝坑67-5號","121.338746666667","25.11102","6501700","林口區"
"243013","AAD-798","2017/09/29 19:59:30","新北市泰山區應化街7號","121.423881666667","25.04374","6501600","泰山區"
"243009","297-R6","2017/09/29 19:59:28","新北市泰山區楓江路16巷8號","121.433865","25.0620166666667","6501600","泰山區"
"243015","380-SR","2017/09/29 19:59:02","新北市泰山區明志路二段214巷16弄15號","121.426798333333","25.0496583333333","6501600","泰山區"
"243014","421-VK","2017/09/29 19:59:29","新北市泰山區泰林路二段181號","121.433488333333","25.0608866666667","6501600","泰山區"
"243010","KEA-2215","2017/09/29 19:59:29","新北市泰山區中華街10巷1號","121.427898333333","25.0524983333333","6501600","泰山區"
"243011","KEA-2216","2017/09/29 19:59:41","新北市泰山區明志路三段180號","121.42404","25.0389516666667","6501600","泰山區"
"243012","646-TV","2017/09/29 19:59:37","新北市泰山區全興路109號","121.433876666667","25.0566816666667","6501600","泰山區"
"243016","680-BX","2017/09/29 19:59:31","新北市泰山區貴陽街3號","121.42108","25.0334883333333","6501600","泰山區"
"222002","016-RS","2017/09/29 19:59:30","新北市深坑區北深路二段81巷8弄2號","121.61835","25.003205","6501800","深坑區"
"222003","436-BY","2017/09/29 19:59:27","新北市深坑區埔新街14號","121.620761666667","25.0039666666667","6501800","深坑區"
"222001","628-TS","2017/09/29 19:59:33","新北市深坑區北深路三段166號","121.60231","25.0034916666667","6501800","深坑區"
"231041","002-UM","2017/09/29 19:59:27","新北市新店區民族路192-1號","121.536003333333","24.975535","6500600","新店區"
"231055","0293-UT","2017/09/29 19:59:28","新北市新店區力行路72號","121.538713333333","24.966185","6500600","新店區"
"231059","046-UY","2017/09/29 19:59:35","新北市新店區安康路二段147-1號","121.511291666667","24.959785","6500600","新店區"
"231061","047-UY","2017/09/29 19:59:42","新北市新店區安民街275號","121.51753","24.9731183333333","6500600","新店區"
"231060","106-UY","2017/09/29 19:59:27","新北市新店區安康路二段402號","121.496875","24.9553716666667","6500600","新店區"
"231051","107-UY","2017/09/29 19:59:41","新北市新店區中央路137號","121.530201666667","24.9736816666667","6500600","新店區"
"231048","108-UY","2017/09/29 19:59:28","新北市新店區寶宏路18號","121.549306666667","24.9761733333333","6500600","新店區"
"231050","215-TC","2017/09/29 19:59:35","新北市新店區中生路61號","121.5647","24.95232","6500600","新店區"
"231057","256-BX","2017/09/29 19:59:25","新北市新店區花園二路一段11號","121.555495","24.9325166666667","6500600","新店區"
"231063","268-BY","2017/09/29 19:59:31","新北市新店區黎明路11號","121.501996666667","24.9499733333333","6500600","新店區"
"231054","AAD-862","2017/09/29 19:59:26","新北市新店區光明街135號","121.539453333333","24.9619766666667","6500600","新店區"
"231056","4716-K9","2017/09/29 19:59:26","新北市新店區北新路三段137號","121.541236666667","24.9829616666667","6500600","新店區"
"231067","4772-VM","2017/09/29 19:59:42","新北市新店區秀山路11巷28號","121.531503333333","24.958655","6500600","新店區"
"231065","512-UM","2017/09/29 19:59:39","新北市新店區安祥路109巷8號","121.47541","24.9588583333333","6500600","新店區"
"231064","515-UM","2017/09/29 19:59:31","新北市新店區碧安街3號","121.516861666667","24.9677983333333","6500600","新店區"
"231045","617-UM","2017/09/29 19:59:38","新北市新店區北宜路二段151-1號","121.551923333333","24.953195","6500600","新店區"
"231040","619-UM","2017/09/29 19:59:38","新北市新店區中正路62號","121.544263333333","24.9701533333333","6500600","新店區"
"231042","641-BX","2017/09/29 19:59:42","新北市新店區中興路二段89號","121.547106666667","24.9714783333333","6500600","新店區"
"231068","718-UY","2017/09/29 19:59:31","新北市新店區安華路28-1號","121.5195","24.9611133333333","6500600","新店區"
"231049","719-UM","2017/09/29 19:59:44","新北市新店區明德路75巷2號","121.541343333333","24.978115","6500600","新店區"
"231062","720-UM","2017/09/29 19:59:29","新北市新店區華城路34-1號","121.529023333333","24.9567333333333","6500600","新店區"
"231044","897-TW","2017/09/29 19:59:34","新北市新店區復興路36號","121.53901","24.9867533333333","6500600","新店區"
"231043","899-TW","2017/09/29 19:59:34","新北市新店區中正路282-11號","121.538521666667","24.97394","6500600","新店區"
"231066","AKT-0513","2017/09/29 19:59:23","新北市新店區柴埕路34-1號","121.513551666667","24.965235","6500600","新店區"
"241011","013-R5","2017/09/29 19:59:29","新北市三重區三和路二段222號","121.49786","25.0695966666667","6500200","三重區"
"241028","022-UY","2017/09/29 19:59:40","新北市三重區仁化街34號","121.49359","25.060065","6500200","三重區"
"241008","059-VK","2017/09/29 19:59:24","新北市三重區永福街179-2號","121.478971666667","25.075065","6500200","三重區"
"241009","060-VK","2017/09/29 19:59:44","新北市三重區三和路四段396巷2-1號","121.481496666667","25.0790066666667","6500200","三重區"
"241031","061-VK","2017/09/29 19:59:37","新北市三重區重新路四段144巷23號","121.486981666667","25.05522","6500200","三重區"
"241015","062-VK","2017/09/29 19:59:25","新北市三重區三和路二段8號","121.501098333333","25.06696","6500200","三重區"
"241017","063-VK","2017/09/29 19:59:28","新北市三重區自強路一段189號","121.49194","25.06811","6500200","三重區"
"241024","065-VK","2017/09/29 19:59:34","新北市三重區力行路一段277號","121.482193333333","25.071515","6500200","三重區"
"241026","066-VK","2017/09/29 19:59:31","新北市三重區福德南路15號","121.502396666667","25.0632433333333","6500200","三重區"
"241003","091-VK","2017/09/29 19:59:34","新北市三重區仁愛街445巷28號","121.491053333333","25.08311","6500200","三重區"
"241005","262-UM","2017/09/29 19:59:32","新北市三重區五華街180巷7號","121.488521666667","25.0860483333333","6500200","三重區"
"241016","266-UM","2017/09/29 19:59:38","新北市三重區正義北路36巷37號","121.496201666667","25.0634133333333","6500200","三重區"
"241022","267-UM","2017/09/29 19:59:32","新北市三重區過圳街31巷2號","121.488891666667","25.0605833333333","6500200","三重區"
"241018","268-UM","2017/09/29 19:59:45","新北市三重區雙園街43號","121.495305","25.0676833333333","6500200","三重區"
"241032","269-UM","2017/09/29 19:59:31","新北市三重區朝陽街4巷2號","121.483703333333","25.056165","6500200","三重區"
"241013","270-UM","2017/09/29 19:59:40","新北市三重區三和路三段125巷16號","121.49334","25.0736566666667","6500200","三重區"
"241025","271-UM","2017/09/29 19:59:26","新北市三重區頂崁街210巷9號","121.476561666667","25.067835","6500200","三重區"
"241007","398-BY","2017/09/29 19:59:30","新北市三重區溪尾街160號","121.488861666667","25.0801233333333","6500200","三重區"
"241020","413-TH","2017/09/29 19:59:30","新北市三重區忠孝路一段87號","121.489843333333","25.0721133333333","6500200","三重區"
"241035","462-BY","2017/09/29 19:59:35","新北市三重區正義北路17號","121.497665","25.063275","6500200","三重區"
"241004","475-VK","2017/09/29 19:59:33","新北市三重區五華街74號","121.493398333333","25.082015","6500200","三重區"
"241019","478-VK","2017/09/29 19:59:38","新北市三重區重陽路四段20-1號","121.491045","25.0693333333333","6500200","三重區"
"241030","480-VK","2017/09/29 19:59:35","新北市三重區重新路四段244巷9號","121.486328333333","25.053475","6500200","三重區"
"241014","543-UM","2017/09/29 19:59:38","新北市三重區三和路二段115號","121.499098333333","25.06875","6500200","三重區"
"241023","545-UM","2017/09/29 19:59:38","新北市三重區頂崁街188號","121.4775","25.0663033333333","6500200","三重區"
"241001","547-UM","2017/09/29 19:59:29","新北市三重區仁愛街269巷50號","121.494426666667","25.0796266666667","6500200","三重區"
"241006","AAD-863","2017/09/29 19:59:27","新北市三重區力行路二段120號","121.482066666667","25.0749366666667","6500200","三重區"
"241012","941-UM","2017/09/29 19:59:31","新北市三重區仁厚街56號","121.500365","25.0765916666667","6500200","三重區"
"241029","942-UM","2017/09/29 19:59:35","新北市三重區重新路三段204號","121.490138333333","25.058245","6500200","三重區"
"241033","AAC-255","2017/09/29 19:59:27","新北市三重區中興北街77號","121.469406666667","25.0477233333333","6500200","三重區"
"235066","003-UY","2017/09/29 19:59:29","新北市中和區中山路二段10號","121.505036666667","25.0056","6500300","中和區"
"235056","096-UM","2017/09/29 19:59:31","新北市中和區漢民路415號","121.472351666667","25.006915","6500300","中和區"
"235039","097-UM","2017/09/29 19:59:41","新北市中和區大勇街25巷29弄4號","121.515156666667","24.9938783333333","6500300","中和區"
"235065","098-UM","2017/09/29 19:59:31","新北市中和區福美路257號","121.49855","25.0051283333333","6500300","中和區"
"235040","150-BY","2017/09/29 19:59:40","新北市中和區保健路8巷19號","121.507708333333","24.99773","6500300","中和區"
"235058","151-BY","2017/09/29 19:59:36","新北市中和區員山路150巷2弄37號","121.481825","24.9975133333333","6500300","中和區"
"235055","183-VK","2017/09/29 19:59:33","新北市中和區德光路38號","121.47032","25.004875","6500300","中和區"
"235038","185-VK","2017/09/29 19:59:36","新北市中和區自強路50號","121.520133333333","24.9948783333333","6500300","中和區"
"235049","186-VK","2017/09/29 19:59:27","新北市中和區景平路526號","121.50292","24.994395","6500300","中和區"
"235067","255-BX","2017/09/29 19:59:34","新北市中和區員山路148巷23弄28號","121.482241666667","24.9977","6500300","中和區"
"235044","293-VK","2017/09/29 19:59:33","新北市中和區板南路146號","121.502153333333","24.992645","6500300","中和區"
"235072","301-VK","2017/09/29 19:59:39","新北市新店區薏仁坑路自強巷1號","121.497965","24.957585","6500300","中和區"
"235043","352-BY","2017/09/29 19:59:36","新北市中和區興南路二段159巷12號","121.505228333333","24.9831366666667","6500300","中和區"
"235068","375-QA","2017/09/29 19:59:25","新北市中和區福美路299號","121.497216666667","25.0047416666667","6500300","中和區"
"235051","376-QA","2017/09/29 19:59:34","新北市中和區中興街233巷8弄8號","121.50117","24.98931","6500300","中和區"
"235050","4979-A6","2017/09/29 19:59:33","新北市中和區景平路318號","121.512306666667","24.992825","6500300","中和區"
"235069","4980-A6","2017/09/29 19:59:43","新北市中和區景新街34巷18弄1號","121.50339","24.9984716666667","6500300","中和區"
"235042","551-UM","2017/09/29 19:59:41","新北市永和區中正路4號","121.512301666667","24.99359","6500300","中和區"
"235070","558-UM","2017/09/29 19:59:30","新北市中和區連勝街45號","121.498155","24.9974216666667","6500300","中和區"
"235054","640-BX","2017/09/29 19:59:39","新北市中和區莒光路175-4號","121.472758333333","24.9993783333333","6500300","中和區"
"235060","647-TV","2017/09/29 19:59:39","新北市中和區新生街30巷24號","121.48242","25.0038483333333","6500300","中和區"
"235046","733-UM","2017/09/29 19:59:28","新北市中和區興南路一段93巷40號","121.510425","24.98649","6500300","中和區"
"235062","800-TS","2017/09/29 19:59:31","新北市中和區圓通路296巷1號","121.487836666667","24.9888116666667","6500300","中和區"
"235057","801-TS","2017/09/29 19:59:27","新北市中和區中正路802號","121.485053333333","25.0016616666667","6500300","中和區"
"235041","802-TS","2017/09/29 19:59:44","新北市中和區中安街32-1號","121.513153333333","25.002955","6500300","中和區"
"235052","805-TS","2017/09/29 19:59:42","新北市中和區忠孝街2號","121.508708333333","24.9828933333333","6500300","中和區"
"235048","896-TW","2017/09/29 19:59:25","新北市中和區興南路一段12號","121.511441666667","24.9913166666667","6500300","中和區"
"235053","900-TW","2017/09/29 19:59:36","新北市中和區民德路246號","121.467996666667","24.9972683333333","6500300","中和區"
"235037","AAC-213","2017/09/29 19:59:38","新北市中和區自立路147號","121.522493333333","24.9930966666667","6500300","中和區"
"235059","AAC-215","2017/09/29 19:59:31","新北市中和區圓通路355號","121.491373333333","24.9900216666667","6500300","中和區"
"220065","072-UY","2017/09/29 19:59:42","新北市板橋區民族路87號","121.46617","25.0086316666667","6500100","板橋區"
"220086","073-UY","2017/09/29 19:59:16","新北市板橋區南雅西路二段7巷25號","121.451938333333","25.0095066666667","6500100","板橋區"
"220106","075-UY","2017/09/29 19:59:37","新北市板橋區民治街71巷15號","121.480245","25.0328616666667","6500100","板橋區"
"220069","AAD-861","2017/09/29 19:59:35","新北市板橋區大明街20巷19弄14號","121.458133333333","25.0033216666667","6500100","板橋區"
"247020","500-BY","2017/09/29 19:59:43","新北市蘆洲區民義街77號","121.473356666667","25.0902433333333","6501400","蘆洲區"
"247010","339-TH","2017/09/29 19:59:41","新北市蘆洲區集賢路236號","121.48206","25.08612","6501400","蘆洲區"
"247002","337-TH","2017/09/29 19:59:40","新北市蘆洲區長安街276-1號","121.45748","25.0871416666667","6501400","蘆洲區"
"247004","336-TH","2017/09/29 19:59:40","新北市蘆洲區長安街267巷9弄1號","121.457883333333","25.083435","6501400","蘆洲區"
"247016","057-VK","2017/09/29 19:59:30","新北市蘆洲區光華路1號","121.46993","25.0834416666667","6501400","蘆洲區"
"247006","056-VK","2017/09/29 19:59:35","新北市蘆洲區九芎街107號","121.46579","25.0798366666667","6501400","蘆洲區"
"247008","053-VK","2017/09/29 19:59:46","新北市蘆洲區中山一路95巷20弄74號","121.476428333333","25.0805366666667","6501400","蘆洲區"
"247014","007-UY","2017/09/29 19:59:34","新北市蘆洲區成功路129號","121.472308333333","25.0822033333333","6501400","蘆洲區"
"247024","002-UY","2017/09/29 19:59:27","新北市蘆洲區光榮路120巷12號","121.46536","25.0884583333333","6501400","蘆洲區"
"247018","001-UY","2017/09/29 19:59:26","新北市蘆洲區民族路278號","121.478266666667","25.08943","6501400","蘆洲區"
"226004","205-ST","2017/09/29 19:59:30","新北市平溪區石底里公園街18-3號","121.733235","25.0258733333333","6502400","平溪區"
"228003","828-UM","2017/09/29 19:59:42","新北市貢寮區仁理村仁和路110號","121.922866666667","25.05082","6502600","貢寮區"
"227011","642-TC","2017/09/29 19:59:41","新北市雙溪區新基里新基南街25號","121.866251666667","25.0381683333333","6502500","雙溪區"
"227003","400-TW","2017/09/29 19:59:29","新北市雙溪區共和里東榮街22號","121.86562","25.0340866666667","6502500","雙溪區"
"208002","742-BX","2017/09/29 19:59:34","新北市金山區環金路23號","121.639933333333","25.2174383333333","6502700","金山區"
"208003","665-BX","2017/09/29 19:59:35","新北市金山區永興里濆水路7-2號","121.62923","25.2655466666667","6502700","金山區"
"251004","009-UM","2017/09/29 19:59:27","新北市淡水區民族路50巷2弄4號","121.461363333333","25.1358966666667","6501000","淡水區"
"251005","010-UM","2017/09/29 19:59:37","新北市淡水區學府路136巷13號","121.451138333333","25.1728966666667","6501000","淡水區"
"251013","180-VK","2017/09/29 19:59:35","新北市淡水區奎柔山路63號","121.451386666667","25.20627","6501000","淡水區"
"251008","181-VK","2017/09/29 19:59:36","新北市淡水區淡海路72巷19號","121.423953333333","25.1811533333333","6501000","淡水區"
"251015","182-VK","2017/09/29 19:59:34","新北市淡水區埤島80-2號","121.449413333333","25.1895483333333","6501000","淡水區"
"251010","413-VK","2017/09/29 19:59:30","新北市淡水區崁頂128號","121.432046666667","25.2043483333333","6501000","淡水區"
"251012","441-VK","2017/09/29 19:59:23","新北市淡水區下圭柔山100-2號","121.441248333333","25.2114516666667","6501000","淡水區"
"251001","559-UM","2017/09/29 19:59:37","新北市淡水區水源街二段194號","121.456798333333","25.1761466666667","6501000","淡水區"
"251006","561-UM","2017/09/29 19:59:07","新北市淡水區北新路10號","121.444525","25.1774383333333","6501000","淡水區"
"251009","575-R6","2017/09/29 19:59:37","新北市淡水區英專路27號","121.445256666667","25.1698133333333","6501000","淡水區"
"251011","650-BX","2017/09/29 19:59:38","新北市淡水區崁頂55-3號","121.442296666667","25.1966616666667","6501000","淡水區"
"207003","550-UM","2017/09/29 19:59:32","新北市萬里區磺潭里公館崙5號","121.641881666667","25.21426","6502800","萬里區"
"207004","225-TW","2017/09/29 19:59:43","新北市萬里區北基里忠二街35號","121.685651666667","25.1757616666667","6502800","萬里區"
"252002","178-VK","2017/09/29 19:59:25","新北市三芝區忠孝街112-5號","121.505613333333","25.25767","6502100","三芝區"
"252001","292-VK","2017/09/29 19:59:40","新北市三芝區公正街9號","121.499765","25.2575316666667","6502100","三芝區"
"237004","078-UY","2017/09/29 19:59:37","新北市三峽區嘉添109-5號","121.369525","24.9107816666667","6500900","三峽區"
"237007","153-BY","2017/09/29 19:59:31","新北市三峽區二鬮路136巷43號","121.358055","24.9088666666667","6500900","三峽區"
"237009","210-TH","2017/09/29 19:59:29","新北市三峽區民族街8號","121.369043333333","24.9313566666667","6500900","三峽區"
"237012","275-BY","2017/09/29 19:59:28","新北市三峽區中華路3巷6-1號","121.374976666667","24.9312016666667","6500900","三峽區"
"237014","433-BY","2017/09/29 19:59:39","新北市三峽區介壽路一段53號","121.375645","24.9329266666667","6500900","三峽區"
"237006","5529-G3","2017/09/29 19:59:44","新北市三峽區中正路二段168號","121.365885","24.91576","6500900","三峽區"
"237015","649-BX","2017/09/29 19:59:27","新北市三峽區介壽路二段138巷1弄152-2號","121.400658333333","24.9292216666667","6500900","三峽區"
"237005","AKY-6261","2017/09/29 19:59:40","新北市三峽區民生街1巷29-7號","121.381905","24.93266","6500900","三峽區"
"236072","105-UM","2017/09/29 19:59:36","新北市土城區忠義路77號","121.443085","24.9650316666667","6501300","土城區"
"236043","107-UM","2017/09/29 19:59:42","新北市土城區學府路一段116號","121.45554","24.9875516666667","6501300","土城區"
"236079","166-UM","2017/09/29 19:59:35","新北市土城區福安街68號","121.4183","24.9645933333333","6501300","土城區"
"236031","253-BX","2017/09/29 19:59:42","新北市土城區中央路一段252號","121.444271666667","24.984695","6501300","土城區"
"236027","269-VK","2017/09/29 19:59:43","新北市土城區中央路二段98號","121.442213333333","24.9785","6501300","土城區"
"236015","270-VK","2017/09/29 19:59:29","新北市土城區廣福街123號","121.45623","24.9928833333333","6501300","土城區"
"236039","271-VK","2017/09/29 19:59:28","新北市土城區國際路89號","121.46725","24.97585","6501300","土城區"
"236022","401-BY","2017/09/29 19:59:34","新北市土城區延吉街120號","121.469826666667","24.9859833333333","6501300","土城區"
"236059","912-UM","2017/09/29 19:59:32","新北市土城區中央路一段170號","121.445755","24.9867566666667","6501300","土城區"
"236050","913-UM","2017/09/29 19:59:10","新北市土城區金城路三段115號","121.467606666667","24.9879666666667","6501300","土城區"
"236063","915-UM","2017/09/29 19:59:37","新北市土城區延和路215號","121.469901666667","24.9898166666667","6501300","土城區"
"236055","AAC-216","2017/09/29 19:59:39","新北市土城區延和路11號","121.46394","24.988005","6501300","土城區"
"242032","AAC-296","2017/09/29 19:59:40","新北市新莊區公園一路42號","121.443305","25.0356583333333","6500500","新莊區"
"242029","986-R7","2017/09/29 19:59:35","新北市新莊區中平路301號","121.444596666667","25.0512216666667","6500500","新莊區"
"242050","751-BX","2017/09/29 19:59:33","新北市新莊區龍安路515號","121.426928333333","25.017765","6500500","新莊區"
"242025","615-BX","2017/09/29 19:59:37","新北市新莊區五工一路92號","121.460856666667","25.0676283333333","6500500","新莊區"
"242023","613-BX","2017/09/29 19:59:44","新北市新莊區化成路410號","121.465936666667","25.050795","6500500","新莊區"
"242027","612-BX","2017/09/29 19:59:42","新北市新莊區幸福路900號","121.44317","25.0493633333333","6500500","新莊區"
"242039","566-BX","2017/09/29 19:59:29","新北市新莊區民安路286號","121.427918333333","25.0216466666667","6500500","新莊區"
"242044","497-BY","2017/09/29 19:59:40","新北市新莊區中正路746巷29號","121.4107","25.0245916666667","6500500","新莊區"
"242046","442-UM","2017/09/29 19:59:25","新北市新莊區裕民街19巷2弄1號","121.419648333333","25.0252766666667","6500500","新莊區"
"242048","441-UM","2017/09/29 19:59:29","新北市新莊區民安路201號","121.426301666667","25.0225066666667","6500500","新莊區"
"242054","440-UM","2017/09/29 19:59:43","新北市新莊區西盛街418號","121.427196666667","25.0122216666667","6500500","新莊區"
"242005","413-TV","2017/09/29 19:59:38","新北市新莊區化成路364巷20號","121.466671666667","25.0493583333333","6500500","新莊區"
"242041","400-BY","2017/09/29 19:59:39","新北市新莊區壽山路164號","121.413331666667","25.0312483333333","6500500","新莊區"
"242060","362-BY","2017/09/29 19:59:42","新北市新莊區瓊泰路8號","121.444861666667","25.028665","6500500","新莊區"
"242058","353-BY","2017/09/29 19:59:45","新北市新莊區八德街140號","121.42378","25.0203183333333","6500500","新莊區"
"242007","132-UY","2017/09/29 19:59:37","新北市新莊區思源路487號","121.459395","25.056275","6500500","新莊區"
"242037","133-UY","2017/09/29 19:59:45","新北市新莊區建安街41巷8號","121.429001666667","25.0253216666667","6500500","新莊區"
"242021","135-UY","2017/09/29 19:59:30","新北市新莊區建中街16巷28號","121.449188333333","25.0387583333333","6500500","新莊區"
"242009","173-VK","2017/09/29 19:59:43","新北市新莊區幸福路776號","121.446858333333","25.049275","6500500","新莊區"
"242015","175-VK","2017/09/29 19:59:29","新北市新莊區泰安街44號","121.446868333333","25.0424083333333","6500500","新莊區"
"242002","176-VK","2017/09/29 19:59:43","新北市新莊區中正路219號","121.450975","25.0358216666667","6500500","新莊區"
"242013","346-TH","2017/09/29 19:59:28","新北市新莊區中信街23巷1號","121.450995","25.0504833333333","6500500","新莊區"
"242019","348-TH","2017/09/29 19:59:36","新北市新莊區長青街30號","121.456371666667","25.042275","6500500","新莊區"
"242056","349-TH","2017/09/29 19:59:41","新北市新莊區中正路347巷5號","121.447298333333","25.0346316666667","6500500","新莊區"
"242017","350-TH","2017/09/29 19:59:38","新北市新莊區中華路二段45巷7號","121.452948333333","25.0465033333333","6500500","新莊區"
"242011","351-TH","2017/09/29 19:59:41","新北市新莊區中港路531巷33號","121.450081666667","25.051485","6500500","新莊區"
"238015","755-BX","2017/09/29 19:59:46","新北市樹林區中山路二段100號","121.414225","24.98346","6500700","樹林區"
"238021","KEA-2217","2017/09/29 19:59:39","新北市樹林區佳園路三段113巷2號","121.386705","24.95082","6500700","樹林區"
"238025","303-VK","2017/09/29 19:58:51","新北市樹林區中山路三段214號","121.379733333333","24.967815","6500700","樹林區"
"221008","489-VK","2017/09/29 19:59:36","台北市內湖區康樂街125巷16號","121.620381666667","25.0732883333333","6501100","汐止區"
"221036","130-UY","2017/09/29 19:59:35","新北市汐止區新台五路二段85巷20號","121.664135","25.06745","6501100","汐止區"
"221015","131-UY","2017/09/29 19:59:36","新北市汐止區橋東街1號","121.666818333333","25.0762816666667","6501100","汐止區"
"221010","269-BY","2017/09/29 19:59:38","新北市汐止區連峰街226號","121.64569","25.0807783333333","6501100","汐止區"
"221012","278-VK","2017/09/29 19:59:39","新北市汐止區大同路三段334號","121.679561666667","25.0711516666667","6501100","汐止區"
"221023","279-VK","2017/09/29 19:59:28","新北市汐止區明峰街216號","121.62721","25.0689066666667","6501100","汐止區"
"221032","280-BY","2017/09/29 19:59:33","新北市汐止區橫科路18巷33弄7號","121.6177","25.0497966666667","6501100","汐止區"
"221027","281-BY","2017/09/29 19:59:37","新北市汐止區中正路70號","121.661621666667","25.0699283333333","6501100","汐止區"
"221038","297-VK","2017/09/29 19:59:26","新北市汐止區忠孝東路456號","121.666108333333","25.0728866666667","6501100","汐止區"
"221029","298-VK","2017/09/29 19:59:31","新北市汐止區樟樹一路139巷23號","121.641023333333","25.0660683333333","6501100","汐止區"
"221021","299-VK","2017/09/29 19:59:32","新北市汐止區水源路一段143號","121.655936666667","25.0623266666667","6501100","汐止區"
"221031","353-TW","2017/09/29 19:59:34","新北市汐止區福德一路176巷14號","121.635405","25.066495","6501100","汐止區"
"221035","622-UM","2017/09/29 19:59:39","新北市汐止區長江街57巷1號","121.656216666667","25.071535","6501100","汐止區"
"221025","623-UM","2017/09/29 19:59:29","新北市汐止區秀峰路109巷11號","121.660548333333","25.063505","6501100","汐止區"
"221033","647-BX","2017/09/29 19:59:33","新北市汐止區東勢街102號","121.633763333333","25.0415716666667","6501100","汐止區"
"221018","753-BX","2017/09/29 19:59:31","新北市汐止區茄福街23號","121.672708333333","25.06707","6501100","汐止區"
"220079","145-BY","2017/09/29 19:59:35","新北市板橋區南雅西路二段273巷11號","121.450558333333","25.0150916666667","6500100","板橋區"
"220080","200-UY","2017/09/29 19:59:27","新北市板橋區大觀路二段169巷23號","121.446481666667","24.9998333333333","6500100","板橋區"
"220082","610-BX","2017/09/29 19:59:43","新北市板橋區篤行路二段131巷23號","121.431788333333","24.9903116666667","6500100","板橋區"
"220101","245-BX","2017/09/29 19:59:29","新北市板橋區縣民大道三段97巷2號","121.476073333333","25.0220966666667","6500100","板橋區"
"220068","257-TC","2017/09/29 19:59:31","新北市板橋區光復街172巷2弄1號","121.485276666667","25.0193666666667","6500100","板橋區"
"220072","277-BY","2017/09/29 19:59:41","新北市板橋區篤行路二段77巷9弄1號","121.432306666667","24.99182","6500100","板橋區"
"220064","280-UM","2017/09/29 19:59:40","新北市板橋區實踐路92號","121.4639","25.00499","6500100","板橋區"
"220094","283-UM","2017/09/29 19:59:41","新北市板橋區雨農路30號","121.461368333333","25.0243366666667","6500100","板橋區"
"220071","283-VK","2017/09/29 19:59:30","新北市板橋區五權街30巷12弄24號","121.463925","24.9943116666667","6500100","板橋區"
"220053","285-VK","2017/09/29 19:59:39","新北市板橋區永豐街139號","121.474933333333","25.02001","6500100","板橋區"
"220083","286-VK","2017/09/29 19:59:34","新北市板橋區僑中二街8巷6號","121.44694","25.0112633333333","6500100","板橋區"
"220081","287-VK","2017/09/29 19:59:21","新北市板橋區僑中一街80巷6弄24號","121.448438333333","25.01143","6500100","板橋區"
"220090","288-VK","2017/09/29 19:59:38","新北市板橋區幸福路32巷4弄9號","121.461175","25.0215266666667","6500100","板橋區"
"220061","293-UM","2017/09/29 19:59:39","新北市板橋區觀光街5號","121.47174","25.0158116666667","6500100","板橋區"
"220084","296-UM","2017/09/29 19:59:29","新北市板橋區滿平街2巷10號","121.425193333333","24.9894083333333","6500100","板橋區"
"220075","297-UM","2017/09/29 19:59:38","新北市板橋區金華街10巷125號","121.459688333333","25.0206566666667","6500100","板橋區"
"220062","303-R5","2017/09/29 19:59:30","新北市板橋區中山路二段422-4號","121.483258333333","25.0212433333333","6500100","板橋區"
"220092","307-R5","2017/09/29 19:59:35","新北市板橋區四維路259巷66號","121.460456666667","25.0266883333333","6500100","板橋區"
"220098","317-R6","2017/09/29 19:59:41","新北市板橋區漢生西路159號","121.462978333333","25.0236066666667","6500100","板橋區"
"220089","487-VK","2017/09/29 19:59:39","新北市板橋區龍泉街94-4號","121.456591666667","25.02507","6500100","板橋區"
"242034","280-VK","2017/09/29 19:59:27","新北市新莊區建中街84號","121.447171666667","25.0366916666667","6500500","新莊區"
"220088","491-VK","2017/09/29 19:59:44","新北市板橋區大同街89號","121.479888333333","25.0282766666667","6500100","板橋區"
"220035","560-BX","2017/09/29 19:59:28","新北市板橋區新生街53巷20號","121.457578333333","25.0216633333333","6500100","板橋區"
"220103","561-BX","2017/09/29 19:59:29","新北市板橋區自由路13號","121.465475","25.022675","6500100","板橋區"
"220091","637-BX","2017/09/29 19:59:35","新北市板橋區文聖街89巷27號","121.478466666667","25.0304533333333","6500100","板橋區"
"220057","686-BX","2017/09/29 19:59:31","新北市板橋區四川路二段96號","121.451651666667","24.9945366666667","6500100","板橋區"
"220093","689-BX","2017/09/29 19:59:36","新北市板橋區文化路二段505巷7號","121.475745","25.0346483333333","6500100","板橋區"
"220054","741-BX","2017/09/29 19:59:34","新北市板橋區忠孝路忠義巷21弄2號","121.466973333333","25.0040483333333","6500100","板橋區"
"220055","827-TW","2017/09/29 19:59:40","新北市板橋區仁愛路49巷2-3號","121.460091666667","24.9995416666667","6500100","板橋區"
"220067","829-TW","2017/09/29 19:59:34","新北市板橋區中山路一段184-1號","121.469275","25.0126366666667","6500100","板橋區"
"220102","830-TW","2017/09/29 19:59:29","新北市板橋區民治街126巷5號","121.477705","25.0312416666667","6500100","板橋區"
"220096","831-TW","2017/09/29 19:59:41","新北市板橋區莒光路16巷15號","121.469528333333","25.0239766666667","6500100","板橋區"
"220074","895-R6","2017/09/29 19:59:43","新北市板橋區民權路87號","121.460975","25.01192","6500100","板橋區"
"220073","985-R7","2017/09/29 19:59:45","新北市板橋區南雅西路二段249號","121.451651666667","25.0145766666667","6500100","板橋區"
"220097","AAC-210","2017/09/29 19:59:38","新北市板橋區光正街16巷1號","121.462863333333","25.0172016666667","6500100","板橋區"
"220070","AAC-253","2017/09/29 19:59:35","新北市板橋區四川路一段127號","121.459896666667","25.0047166666667","6500100","板橋區"
