"lineid","car","time","location","longitude","latitude","cityid","cityname"
"234046","148-BY","2017/09/29 20:09:37","新北市永和區林森路66號","121.523866666667","25.0040666666667","6500400","永和區"
"234013","149-BY","2017/09/29 20:09:39","新北市永和區永貞路387號","121.50809","25.008665","6500400","永和區"
"234007","208-UY","2017/09/29 20:09:37","新北市永和區保順路51巷6號","121.50265","25.0104416666667","6500400","永和區"
"234081","298-R6","2017/09/29 20:09:38","新北市永和區永亨路100號","121.52311","25.0048566666667","6500400","永和區"
"234038","336-UY","2017/09/29 20:09:26","新北市永和區成功路一段47巷7號","121.527513333333","25.00412","6500400","永和區"
"234064","337-UY","2017/09/29 20:09:31","新北市永和區永利路96號","121.520953333333","25.0037716666667","6500400","永和區"
"234086","338-UY","2017/09/29 20:09:21","新北市永和區福和路278號","121.517786666667","25.00746","6500400","永和區"
"234070","552-UM","2017/09/29 20:09:27","新北市永和區大新街78-2號","121.517323333333","25.0081483333333","6500400","永和區"
"234054","553-UM","2017/09/29 20:09:32","新北市永和區博愛街25號","121.517871666667","25.0159466666667","6500400","永和區"
"234017","745-BX","2017/09/29 20:09:36","新北市永和區文化路80號","121.514075","25.01521","6500400","永和區"
"234030","746-BX","2017/09/29 20:09:30","新北市永和區民權路49巷37號","121.522033333333","24.9976983333333","6500400","永和區"
"234061","AAD-866","2017/09/29 20:09:38","新北市永和區安樂路100巷26號","121.515496666667","24.9988183333333","6500400","永和區"
"234042","862-TW","2017/09/29 20:09:31","新北市永和區雙和街64巷1號","121.50909","25.0035083333333","6500400","永和區"
"234050","863-TW","2017/09/29 20:09:38","新北市永和區環河西路二段49號","121.507141666667","25.0155016666667","6500400","永和區"
"234011","9373-KE","2017/09/29 20:09:38","新北市永和區仁愛路352巷130號","121.499998333333","25.0086483333333","6500400","永和區"
"249005","172-UM","2017/09/29 20:09:31","新北市八里區下罟子50-1號","121.383813333333","25.13826","6502300","八里區"
"249001","173-UM","2017/09/29 20:09:40","新北市八里區中華路二段320號","121.403333333333","25.1481533333333","6502300","八里區"
"249004","303-UY","2017/09/29 20:08:45","新北市八里區中山路一段189巷18號","121.412213333333","25.1578966666667","6502300","八里區"
"249002","305-UY","2017/09/29 20:09:32","新北市八里區龍米路一段8-1號","121.45738","25.1155816666667","6502300","八里區"
"249003","593-UM","2017/09/29 20:09:32","新北市八里區中山路二段540巷3號","121.397101666667","25.14689","6502300","八里區"
"248014","025-BX","2017/09/29 20:09:33","新北市五股區成泰路三段83號","121.443751666667","25.089985","6501500","五股區"
"248016","026-BX","2017/09/29 20:09:28","新北市五股區成泰路三段577巷80弄72號","121.44894","25.1048066666667","6501500","五股區"
"248012","247-BX","2017/09/29 20:09:33","新北市五股區工商路205號","121.433291666667","25.087135","6501500","五股區"
"248010","272-BY","2017/09/29 20:09:34","新北市五股區成泰路一段7巷12號","121.43326","25.0668066666667","6501500","五股區"
"248002","655-BX","2017/09/29 20:09:38","新北市五股區成泰路三段311-1號","121.447775","25.0948966666667","6501500","五股區"
"248004","677-BX","2017/09/29 20:09:38","新北市五股區成泰路一段147號","121.435441666667","25.0732116666667","6501500","五股區"
"234023","9380-KE","2017/09/29 20:09:43","新北市永和區勵行街42-1號","121.516756666667","25.0135233333333","6500400","永和區"
"234077","969-R7","2017/09/29 20:09:31","新北市永和區智光街115號","121.515536666667","24.99613","6500400","永和區"
"234074","AAC-211","2017/09/29 20:09:38","新北市永和區豫溪街139號","121.520561666667","25.0104","6500400","永和區"
"234067","AAC-212","2017/09/29 20:09:35","新北市永和區保平路212號","121.509778333333","25.0059983333333","6500400","永和區"
"234003","AAC-295","2017/09/29 20:09:38","新北市永和區中正路626號","121.517033333333","25.0079166666667","6500400","永和區"
"244019","403-UM","2017/09/29 20:09:38","新北市林口區太平里180號","121.366466666667","25.1344766666667","6501700","林口區"
"243013","AAD-798","2017/09/29 20:09:30","新北市泰山區明志路三段74巷6號","121.424535","25.04188","6501600","泰山區"
"243009","297-R6","2017/09/29 20:09:28","新北市泰山區泰林路二段142巷5號","121.434633333333","25.0600733333333","6501600","泰山區"
"243015","380-SR","2017/09/29 20:09:22","新北市泰山區明志路一段391號","121.430793333333","25.057575","6501600","泰山區"
"243014","421-VK","2017/09/29 20:09:32","新北市泰山區明志路一段58號","121.43352","25.06479","6501600","泰山區"
"243010","KEA-2215","2017/09/29 20:09:29","新北市泰山區明志路二段136巷16號","121.42677","25.0514783333333","6501600","泰山區"
"243011","KEA-2216","2017/09/29 20:09:42","新北市新莊區壽山路33-18號","121.419076666667","25.0298133333333","6501600","泰山區"
"243012","646-TV","2017/09/29 20:09:33","新北市泰山區楓江路86巷7號","121.437215","25.0628833333333","6501600","泰山區"
"243016","680-BX","2017/09/29 20:09:31","新北市泰山區明志路二段382號","121.425418333333","25.04458","6501600","泰山區"
"222002","016-RS","2017/09/29 20:09:30","新北市深坑區北深路三段192巷9號","121.60193","25.0041716666667","6501800","深坑區"
"222003","436-BY","2017/09/29 20:09:27","新北市深坑區埔新街60號","121.620225","25.002495","6501800","深坑區"
"222001","628-TS","2017/09/29 20:09:33","新北市深坑區北深路三段208號","121.601248333333","25.00376","6501800","深坑區"
"231041","002-UM","2017/09/29 20:09:28","新北市新店區中正路468號","121.534016666667","24.9794983333333","6500600","新店區"
"231055","0293-UT","2017/09/29 20:09:28","新北市新店區中華路42巷33號","121.541173333333","24.96919","6500600","新店區"
"231059","046-UY","2017/09/29 20:09:35","新北市新店區安德街37號","121.511395","24.96248","6500600","新店區"
"231061","047-UY","2017/09/29 20:09:21","新北市新店區安興路32號","121.515738333333","24.970405","6500600","新店區"
"231060","106-UY","2017/09/29 20:09:27","新北市新店區安康路三段230號","121.488096666667","24.9518216666667","6500600","新店區"
"231051","107-UY","2017/09/29 20:09:41","新北市新店區中央路236號","121.529196666667","24.97268","6500600","新店區"
"231048","108-UY","2017/09/29 20:09:29","新北市新店區永華街53號","121.544431666667","24.9757833333333","6500600","新店區"
"231050","215-TC","2017/09/29 20:09:35","新北市新店區中生路61號","121.564708333333","24.9523183333333","6500600","新店區"
"231057","256-BX","2017/09/29 20:09:25","新北市新店區花園一路一段2號","121.55312","24.9324483333333","6500600","新店區"
"231063","268-BY","2017/09/29 20:09:30","新北市新店區黎明路55巷1號","121.502385","24.9483366666667","6500600","新店區"
"231054","AAD-862","2017/09/29 20:09:26","新北市新店區檳榔路23號","121.541598333333","24.963755","6500600","新店區"
"231056","4716-K9","2017/09/29 20:09:26","新北市新店區北新路二段68號","121.542951666667","24.972505","6500600","新店區"
"231067","4772-VM","2017/09/29 20:09:23","新北市新店區溪洲路101號","121.532628333333","24.9617583333333","6500600","新店區"
"231065","512-UM","2017/09/29 20:09:39","新北市新店區安祥路106巷288號","121.472395","24.9581933333333","6500600","新店區"
"231064","515-UM","2017/09/29 20:09:31","新北市新店區安光路10-1號","121.513601666667","24.9641233333333","6500600","新店區"
"231045","617-UM","2017/09/29 20:09:38","新北市新店區北宜路一段50號","121.5384","24.956445","6500600","新店區"
"231040","619-UM","2017/09/29 20:09:38","新北市新店區中正路106號","121.543145","24.9706366666667","6500600","新店區"
"231042","641-BX","2017/09/29 20:09:42","新北市新店區寶橋路78巷19號","121.547371666667","24.9747683333333","6500600","新店區"
"231068","718-UY","2017/09/29 20:09:31","新北市新店區光明街143號","121.539375","24.9621833333333","6500600","新店區"
"231049","719-UM","2017/09/29 20:09:21","新北市新店區北新路二段121巷1-1號","121.542205","24.9749766666667","6500600","新店區"
"231062","720-UM","2017/09/29 20:09:09","新北市新店區安忠路57巷11弄2號","121.51373","24.95761","6500600","新店區"
"231044","897-TW","2017/09/29 20:09:34","新北市新店區寶慶街58巷8號","121.542108333333","24.98712","6500600","新店區"
"231043","899-TW","2017/09/29 20:09:34","新北市新店區民族路188號","121.536603333333","24.97596","6500600","新店區"
"231066","AKT-0513","2017/09/29 20:09:23","新北市新店區安民街121巷12號","121.515458333333","24.969215","6500600","新店區"
"241011","013-R5","2017/09/29 20:09:29","新北市三重區仁愛街32號","121.496391666667","25.0717816666667","6500200","三重區"
"241028","022-UY","2017/09/29 20:09:40","新北市三重區仁化街146號","121.49466","25.057655","6500200","三重區"
"241008","059-VK","2017/09/29 20:09:24","新北市三重區永福街197巷6-1號","121.478503333333","25.074455","6500200","三重區"
"241009","060-VK","2017/09/29 20:09:24","新北市三重區永福街28號","121.482558333333","25.0781016666667","6500200","三重區"
"241031","061-VK","2017/09/29 20:09:37","新北市三重區過圳街9-1號","121.488781666667","25.060195","6500200","三重區"
"241015","062-VK","2017/09/29 20:09:25","新北市三重區福德北路26-3號","121.502176666667","25.0648933333333","6500200","三重區"
"241017","063-VK","2017/09/29 20:09:28","新北市三重區大同北路221巷14號","121.491918333333","25.066435","6500200","三重區"
"241024","065-VK","2017/09/29 20:09:34","新北市三重區中正北路294號","121.480145","25.06882","6500200","三重區"
"241026","066-VK","2017/09/29 20:09:31","新北市三重區中央南路130號","121.501641666667","25.0599033333333","6500200","三重區"
"241002","090-VK","2017/09/29 20:09:23","新北市三重區仁忠街37號","121.495581666667","25.081865","6500200","三重區"
"241003","091-VK","2017/09/29 20:09:14","新北市三重區分子尾街76號","121.489246666667","25.081975","6500200","三重區"
"241005","262-UM","2017/09/29 20:09:32","新北市三重區碧華街292號","121.489643333333","25.0833383333333","6500200","三重區"
"241016","266-UM","2017/09/29 20:09:38","新北市三重區大同北路97-3號","121.494371666667","25.0636733333333","6500200","三重區"
"241022","267-UM","2017/09/29 20:09:32","新北市三重區新北大道一段42號","121.48791","25.0614016666667","6500200","三重區"
"241018","268-UM","2017/09/29 20:09:27","新北市三重區正義北路215號","121.496168333333","25.0685533333333","6500200","三重區"
"241032","269-UM","2017/09/29 20:09:31","新北市三重區捷運路65號","121.483455","25.055635","6500200","三重區"
"241013","270-UM","2017/09/29 20:09:40","新北市三重區三和路三段139巷24號","121.493416666667","25.073955","6500200","三重區"
"241025","271-UM","2017/09/29 20:09:26","新北市三重區中正北路430-5號","121.47445","25.0706116666667","6500200","三重區"
"241007","398-BY","2017/09/29 20:09:30","新北市三重區三和路四段111-9號","121.486506666667","25.07759","6500200","三重區"
"241020","413-TH","2017/09/29 20:09:30","新北市三重區三和路三段117號","121.493061666667","25.0731333333333","6500200","三重區"
"241035","462-BY","2017/09/29 20:09:35","新北市三重區文化北路24號","121.499078333333","25.064385","6500200","三重區"
"241004","475-VK","2017/09/29 20:09:33","新北市三重區仁愛街352號","121.491618333333","25.0802166666667","6500200","三重區"
"241019","478-VK","2017/09/29 20:09:38","新北市三重區自強路二段33巷41號","121.490631666667","25.0698366666667","6500200","三重區"
"241030","480-VK","2017/09/29 20:09:35","新北市三重區集美街75巷14號","121.488108333333","25.0530466666667","6500200","三重區"
"241014","543-UM","2017/09/29 20:09:26","新北市三重區長樂街118號","121.501763333333","25.0696683333333","6500200","三重區"
"241023","545-UM","2017/09/29 20:09:38","新北市三重區頂崁街233號","121.476983333333","25.0684616666667","6500200","三重區"
"241001","547-UM","2017/09/29 20:09:29","新北市三重區三和路四段89巷22號","121.490001666667","25.07604","6500200","三重區"
"241006","AAD-863","2017/09/29 20:09:27","新北市三重區力行路二段55號","121.482123333333","25.07463","6500200","三重區"
"241012","941-UM","2017/09/29 20:09:31","新北市三重區仁愛街125巷32號","121.49783","25.0759766666667","6500200","三重區"
"241029","942-UM","2017/09/29 20:09:15","新北市三重區光明路34號","121.491428333333","25.0585133333333","6500200","三重區"
"241033","AAC-255","2017/09/29 20:09:27","新北市三重區光復路一段70號","121.47173","25.0493683333333","6500200","三重區"
"235066","003-UY","2017/09/29 20:09:29","新北市中和區水源路103號","121.507486666667","25.0034116666667","6500300","中和區"
"235056","096-UM","2017/09/29 20:09:31","新北市中和區中山路三段94號","121.477471666667","25.005625","6500300","中和區"
"235039","097-UM","2017/09/29 20:09:41","新北市中和區大勇街29巷23弄1號","121.515385","24.9946483333333","6500300","中和區"
"235065","098-UM","2017/09/29 20:09:31","新北市中和區福美路256巷18號","121.498048333333","25.0059666666667","6500300","中和區"
"235040","150-BY","2017/09/29 20:09:36","新北市中和區保健路33巷11號","121.509255","24.9979666666667","6500300","中和區"
"235058","151-BY","2017/09/29 20:09:33","新北市中和區中正路755-1號","121.484935","24.9999133333333","6500300","中和區"
"235038","185-VK","2017/09/29 20:09:36","新北市中和區自強路38巷1號","121.520208333333","24.995295","6500300","中和區"
"235067","255-BX","2017/09/29 20:09:34","新北市板橋區民生路一段28-12號","121.476503333333","25.0122816666667","6500300","中和區"
"235044","293-VK","2017/09/29 20:09:33","新北市中和區復興路296號","121.501553333333","24.99031","6500300","中和區"
"235072","301-VK","2017/09/29 20:09:39","新北市新店區安平路23-13號","121.520498333333","24.965915","6500300","中和區"
"235068","375-QA","2017/09/29 20:09:25","新北市中和區中山路二段274號","121.496818333333","25.0025083333333","6500300","中和區"
"235051","376-QA","2017/09/29 20:09:34","新北市中和區景安路198號","121.50428","24.9913683333333","6500300","中和區"
"235050","4979-A6","2017/09/29 20:09:42","新北市中和區景新街274巷18號","121.510226666667","24.9920466666667","6500300","中和區"
"235069","4980-A6","2017/09/29 20:09:23","新北市中和區圓通路2號","121.501916666667","24.9980416666667","6500300","中和區"
"235042","551-UM","2017/09/29 20:09:41","新北市新店區光華街38巷3號","121.515615","24.9698466666667","6500300","中和區"
"235070","558-UM","2017/09/29 20:09:22","新北市中和區圓通路75號","121.500008333333","24.9969683333333","6500300","中和區"
"235026","800-TS","2017/09/29 20:09:31","新北市中和區員山路36巷16-3號","121.484891666667","24.9915283333333","6500300","中和區"
"235041","802-TS","2017/09/29 20:09:39","新北市中和區中和路350巷12弄4號","121.510793333333","25.0001416666667","6500300","中和區"
"235048","896-TW","2017/09/29 20:09:25","新北市中和區景新街481號","121.513548333333","24.9875733333333","6500300","中和區"
"235037","AAC-213","2017/09/29 20:09:38","新北市中和區立人街3號","121.521833333333","24.99404","6500300","中和區"
"235059","AAC-215","2017/09/29 20:09:30","新北市中和區圓通路335巷33弄3號","121.493203333333","24.9893183333333","6500300","中和區"
"220065","072-UY","2017/09/29 20:09:23","新北市板橋區富山街80巷3-1號","121.476695","25.022315","6500100","板橋區"
"220106","075-UY","2017/09/29 20:09:37","新北市板橋區懷德街9號","121.476718333333","25.0330733333333","6500100","板橋區"
"220069","AAD-861","2017/09/29 20:09:35","新北市板橋區大明街25巷2弄17號","121.457536666667","25.0024716666667","6500100","板橋區"
"247022","893-R6","2017/09/29 20:09:40","新北市蘆洲區三民路175號","121.470955","25.0872733333333","6501400","蘆洲區"
"247012","546-UM","2017/09/29 20:09:24","新北市蘆洲區民族路181號","121.478848333333","25.0887683333333","6501400","蘆洲區"
"247020","500-BY","2017/09/29 20:09:23","新北市蘆洲區民義街68巷34號","121.474045","25.0893983333333","6501400","蘆洲區"
"247010","339-TH","2017/09/29 20:09:21","新北市蘆洲區信義路154號","121.479385","25.08333","6501400","蘆洲區"
"247002","337-TH","2017/09/29 20:09:40","新北市蘆洲區永康街54號","121.459148333333","25.08618","6501400","蘆洲區"
"247004","336-TH","2017/09/29 20:09:40","新北市蘆洲區長安街285巷8號","121.457788333333","25.084355","6501400","蘆洲區"
"247016","057-VK","2017/09/29 20:09:30","新北市蘆洲區光華路180號","121.465011666667","25.0820416666667","6501400","蘆洲區"
"247006","056-VK","2017/09/29 20:09:35","新北市蘆洲區永安南路二段18號","121.467726666667","25.0772266666667","6501400","蘆洲區"
"247008","053-VK","2017/09/29 20:09:26","新北市蘆洲區中山一路12號","121.479861666667","25.0809333333333","6501400","蘆洲區"
"247014","007-UY","2017/09/29 20:09:34","新北市蘆洲區中山二路265巷5號","121.470255","25.0796183333333","6501400","蘆洲區"
"247024","002-UY","2017/09/29 20:09:27","新北市蘆洲區光明路127號","121.46362","25.0883033333333","6501400","蘆洲區"
"247018","001-UY","2017/09/29 20:09:26","新北市蘆洲區民族路314巷9號","121.47779","25.0904816666667","6501400","蘆洲區"
"208003","665-BX","2017/09/29 20:09:41","新北市金山區海興路87號","121.633148333333","25.24074","6502700","金山區"
"251004","009-UM","2017/09/29 20:09:07","新北市淡水區民族路31-14號","121.461523333333","25.1364666666667","6501000","淡水區"
"251005","010-UM","2017/09/29 20:09:37","新北市淡水區學府路121號","121.450195","25.17246","6501000","淡水區"
"251002","012-UM","2017/09/29 20:09:40","新北市淡水區中正路334號","121.435803333333","25.1731666666667","6501000","淡水區"
"251013","180-VK","2017/09/29 20:09:35","新北市淡水區奎柔山路578號","121.468661666667","25.2051466666667","6501000","淡水區"
"251008","181-VK","2017/09/29 20:09:36","新北市淡水區沙崙路141-1號","121.42335","25.1829833333333","6501000","淡水區"
"251015","182-VK","2017/09/29 20:09:34","新北市淡水區埤島3-23號","121.447748333333","25.1897833333333","6501000","淡水區"
"251010","413-VK","2017/09/29 20:09:30","新北市淡水區新市二路二段200號","121.428925","25.194995","6501000","淡水區"
"251012","441-VK","2017/09/29 20:09:43","新北市淡水區淡金路三段224號","121.448983333333","25.2049083333333","6501000","淡水區"
"251001","559-UM","2017/09/29 20:09:37","新北市淡水區新市二路四段265號","121.445728333333","25.1925066666667","6501000","淡水區"
"251006","561-UM","2017/09/29 20:09:27","新北市淡水區北新路141巷60弄11號","121.448168333333","25.1796883333333","6501000","淡水區"
"251009","575-R6","2017/09/29 20:09:37","新北市淡水區清水街2號","121.445596666667","25.1704616666667","6501000","淡水區"
"251011","650-BX","2017/09/29 20:09:38","新北市淡水區下圭柔山90-8號","121.431241666667","25.2102866666667","6501000","淡水區"
"251003","673-BX","2017/09/29 20:09:27","新北市淡水區新市一路二段255號","121.443756666667","25.18352","6501000","淡水區"
"207003","550-UM","2017/09/29 20:09:32","新北市萬里區大鵬里萬里加投180號","121.642965","25.2157966666667","6502800","萬里區"
"207004","225-TW","2017/09/29 20:09:23","新北市萬里區北基里愛二街2號","121.682518333333","25.1767433333333","6502800","萬里區"
"252002","178-VK","2017/09/29 20:09:25","新北市三芝區忠孝街116-3號","121.505628333333","25.257555","6502100","三芝區"
"252001","292-VK","2017/09/29 20:09:40","新北市三芝區公正街9號","121.4998","25.2575083333333","6502100","三芝區"
"237004","078-UY","2017/09/29 20:09:37","新北市三峽區民權街207號","121.367683333333","24.9286533333333","6500900","三峽區"
"237007","153-BY","2017/09/29 20:09:31","新北市三峽區麻園46號","121.363786666667","24.9212633333333","6500900","三峽區"
"237012","275-BY","2017/09/29 20:09:28","新北市三峽區安溪路313號","121.371058333333","24.9307116666667","6500900","三峽區"
"237006","5529-G3","2017/09/29 20:09:24","新北市三峽區中正路二段264號","121.36586","24.9126116666667","6500900","三峽區"
"237005","AKY-6261","2017/09/29 20:09:42","新北市三峽區三樹路88號","121.378146666667","24.938645","6500900","三峽區"
"236072","105-UM","2017/09/29 20:09:36","新北市土城區大安路2號","121.432841666667","24.965525","6501300","土城區"
"236043","107-UM","2017/09/29 20:09:42","新北市土城區學成路4號","121.453553333333","24.9864083333333","6501300","土城區"
"236079","166-UM","2017/09/29 20:09:35","新北市土城區民族街30號","121.418715","24.963325","6501300","土城區"
"236031","253-BX","2017/09/29 20:09:22","新北市土城區中央路一段120號","121.446321666667","24.9881566666667","6501300","土城區"
"236027","269-VK","2017/09/29 20:09:29","新北市土城區中央路一段269-3號","121.444885","24.98523","6501300","土城區"
"236015","270-VK","2017/09/29 20:09:29","新北市土城區德興街135號","121.455086666667","24.9917583333333","6501300","土城區"
"236039","271-VK","2017/09/29 20:09:28","新北市土城區延吉街351號","121.464661666667","24.9839583333333","6501300","土城區"
"236022","401-BY","2017/09/29 20:09:34","新北市土城區延吉街44號","121.471808333333","24.9871","6501300","土城區"
"236059","912-UM","2017/09/29 20:09:32","新北市土城區中央路一段302號","121.443375","24.981985","6501300","土城區"
"236050","913-UM","2017/09/29 20:09:30","新北市土城區金城路三段162號","121.46728","24.9874716666667","6501300","土城區"
"236063","915-UM","2017/09/29 20:09:37","新北市土城區延和路12巷7號","121.464281666667","24.9876116666667","6501300","土城區"
"236055","AAC-216","2017/09/29 20:09:39","新北市土城區學成路41號","121.45245","24.9872966666667","6501300","土城區"
"242032","AAC-296","2017/09/29 20:09:41","新北市新莊區公園一路40號","121.443301666667","25.0356216666667","6500500","新莊區"
"242029","986-R7","2017/09/29 20:09:35","新北市新莊區中榮街152巷44號","121.44544","25.0538083333333","6500500","新莊區"
"242050","751-BX","2017/09/29 20:09:33","新北市新莊區民安西路194號","121.42591","25.015455","6500500","新莊區"
"242025","615-BX","2017/09/29 20:09:37","新北市新莊區五權一路12巷25弄11號","121.458271666667","25.0644016666667","6500500","新莊區"
"242023","613-BX","2017/09/29 20:09:25","新北市新莊區化成路608號","121.466165","25.0546616666667","6500500","新莊區"
"242027","612-BX","2017/09/29 20:09:22","新北市新莊區中平路282號","121.444841666667","25.0507566666667","6500500","新莊區"
"242039","566-BX","2017/09/29 20:09:29","新北市新莊區民安西路111巷1號","121.42674","25.0182733333333","6500500","新莊區"
"242044","497-BY","2017/09/29 20:09:40","新北市新莊區中正路929巷7弄10號","121.411336666667","25.0205016666667","6500500","新莊區"
"242046","442-UM","2017/09/29 20:09:25","新北市新莊區裕民街108號","121.418218333333","25.023035","6500500","新莊區"
"242048","441-UM","2017/09/29 20:09:29","新北市新莊區四維路150巷9號","121.422283333333","25.0232716666667","6500500","新莊區"
"242054","440-UM","2017/09/29 20:09:43","新北市新莊區西盛街387巷9號","121.428441666667","25.013015","6500500","新莊區"
"242005","413-TV","2017/09/29 20:09:38","新北市新莊區頭興街166號","121.461605","25.0537216666667","6500500","新莊區"
"242041","400-BY","2017/09/29 20:09:39","新北市新莊區新北大道七段370號","121.413013333333","25.0311566666667","6500500","新莊區"
"242060","362-BY","2017/09/29 20:09:42","新北市新莊區瓊林路104-17號","121.443353333333","25.0264066666667","6500500","新莊區"
"242058","353-BY","2017/09/29 20:09:40","新北市新莊區龍安路327號","121.42205","25.01944","6500500","新莊區"
"242007","132-UY","2017/09/29 20:09:37","新北市新莊區思源路419巷1弄13號","121.45927","25.0521816666667","6500500","新莊區"
"242037","133-UY","2017/09/29 20:09:25","新北市新莊區建安街9巷14號","121.429525","25.026615","6500500","新莊區"
"242021","135-UY","2017/09/29 20:09:30","新北市新莊區建中街34號","121.448953333333","25.0375133333333","6500500","新莊區"
"242009","173-VK","2017/09/29 20:09:23","新北市新莊區昌隆街32號","121.454203333333","25.0507566666667","6500500","新莊區"
"242015","175-VK","2017/09/29 20:09:29","新北市新莊區中平路26巷25號","121.44622","25.04335","6500500","新莊區"
"242002","176-VK","2017/09/29 20:09:43","新北市三重區重新路五段637-1號","121.467083333333","25.0433366666667","6500500","新莊區"
"242013","346-TH","2017/09/29 20:09:28","新北市新莊區幸福路710巷5弄1號","121.449136666667","25.0497916666667","6500500","新莊區"
"242019","348-TH","2017/09/29 20:09:36","新北市新莊區長青街7號","121.4592","25.0424166666667","6500500","新莊區"
"242056","349-TH","2017/09/29 20:09:41","新北市新莊區新莊路649巷13弄17號","121.445646666667","25.03194","6500500","新莊區"
"242017","350-TH","2017/09/29 20:09:38","新北市新莊區中港路352號","121.451806666667","25.04678","6500500","新莊區"
"242011","351-TH","2017/09/29 20:09:21","新北市新莊區中信街52號","121.44934","25.05087","6500500","新莊區"
"238021","KEA-2217","2017/09/29 20:09:39","新北市樹林區佳園路三段101巷62弄22號","121.394028333333","24.9488233333333","6500700","樹林區"
"221008","489-VK","2017/09/29 20:09:36","台北市內湖區康樂街16號","121.617995","25.06808","6501100","汐止區"
"221036","130-UY","2017/09/29 20:09:35","新北市汐止區新台五路二段27號","121.662806666667","25.06621","6501100","汐止區"
"221015","131-UY","2017/09/29 20:09:36","新北市汐止區建成路15號","121.664503333333","25.072525","6501100","汐止區"
"221010","269-BY","2017/09/29 20:09:38","新北市汐止區八連路一段197巷25號","121.641516666667","25.079215","6501100","汐止區"
"221012","278-VK","2017/09/29 20:09:39","新北市汐止區汐平路二段66號","121.698428333333","25.0610166666667","6501100","汐止區"
"221023","279-VK","2017/09/29 20:09:28","新北市汐止區明峰街298巷2弄2號","121.625306666667","25.0680033333333","6501100","汐止區"
"221032","280-BY","2017/09/29 20:09:33","新北市汐止區弘道街8巷5弄3號","121.617245","25.0479083333333","6501100","汐止區"
"221027","281-BY","2017/09/29 20:09:29","新北市汐止區中正路110號","121.660808333333","25.06957","6501100","汐止區"
"221038","297-VK","2017/09/29 20:09:26","新北市汐止區大同路三段66-3號","121.668093333333","25.0773016666667","6501100","汐止區"
"221029","298-VK","2017/09/29 20:09:40","新北市汐止區樟樹一路119巷14號","121.641045","25.0644433333333","6501100","汐止區"
"221021","299-VK","2017/09/29 20:09:32","新北市汐止區莊敬街128-3號","121.654696666667","25.0613266666667","6501100","汐止區"
"221031","353-TW","2017/09/29 20:09:43","新北市汐止區原興路78巷2號","121.631725","25.0666083333333","6501100","汐止區"
"221035","622-UM","2017/09/29 20:09:39","新北市汐止區長江街79巷13號","121.657545","25.0728366666667","6501100","汐止區"
"221025","623-UM","2017/09/29 20:09:30","新北市汐止區秀峰路60號","121.659725","25.0649066666667","6501100","汐止區"
"221033","647-BX","2017/09/29 20:09:33","新北市汐止區東勢街201巷104號","121.633493333333","25.04289","6501100","汐止區"
"221002","707-TV","2017/09/29 20:09:43","新北市汐止區工建路302-1號","121.634425","25.0605466666667","6501100","汐止區"
"221018","753-BX","2017/09/29 20:09:31","新北市汐止區茄苳路306號","121.673286666667","25.0667733333333","6501100","汐止區"
"220080","200-UY","2017/09/29 20:09:32","新北市板橋區大觀路二段力行2巷65號","121.445896666667","24.9989783333333","6500100","板橋區"
"220101","245-BX","2017/09/29 20:09:29","新北市板橋區莒光路171巷1弄16號","121.474486666667","25.0246283333333","6500100","板橋區"
"220068","257-TC","2017/09/29 20:09:31","新北市板橋區中山路二段282號","121.479446666667","25.0187516666667","6500100","板橋區"
"220072","277-BY","2017/09/29 20:09:41","新北市板橋區金門街109巷14號","121.433865","24.9917833333333","6500100","板橋區"
"220064","280-UM","2017/09/29 20:09:40","新北市板橋區漢生東路193巷27號","121.471096666667","25.01222","6500100","板橋區"
"220071","283-VK","2017/09/29 20:09:33","新北市板橋區廣權路133號","121.465641666667","24.9933583333333","6500100","板橋區"
"220083","286-VK","2017/09/29 20:09:31","新北市板橋區僑中二街48巷18號","121.445611666667","25.010385","6500100","板橋區"
"220081","287-VK","2017/09/29 19:59:21","新北市板橋區僑中一街80巷6弄24號","121.448438333333","25.01143","6500100","板橋區"
"220061","293-UM","2017/09/29 20:09:39","新北市板橋區觀光街4-1號","121.47229","25.0158233333333","6500100","板橋區"
"220062","303-R5","2017/09/29 20:09:30","新北市板橋區縣民大道二段66號","121.463086666667","25.0127216666667","6500100","板橋區"
"220092","307-R5","2017/09/29 20:09:36","新北市板橋區文化路一段71-1號","121.460835","25.0140116666667","6500100","板橋區"
"220098","317-R6","2017/09/29 20:09:32","新北市板橋區新海路72巷5弄17號","121.461643333333","25.022625","6500100","板橋區"
"220089","487-VK","2017/09/29 20:09:37","新北市板橋區新海路403巷24號","121.45747","25.026235","6500100","板橋區"
"242034","280-VK","2017/09/29 20:09:41","新北市新莊區華興街8號","121.446238333333","25.0352183333333","6500500","新莊區"
"220088","491-VK","2017/09/29 20:09:22","新北市板橋區民治街59號","121.479535","25.03327","6500100","板橋區"
"220103","561-BX","2017/09/29 20:09:42","新北市板橋區自由路7號","121.465418333333","25.02254","6500100","板橋區"
"220093","689-BX","2017/09/29 20:09:40","新北市板橋區長江路一段147號","121.460903333333","25.0303416666667","6500100","板橋區"
"220054","741-BX","2017/09/29 20:09:38","新北市板橋區忠孝路忠義巷9弄1號","121.465085","25.0047183333333","6500100","板橋區"
"220055","827-TW","2017/09/29 20:09:28","新北市板橋區忠孝路48巷11弄9-2號","121.461703333333","24.999835","6500100","板橋區"
"220067","829-TW","2017/09/29 20:09:31","新北市板橋區中山路一段183號","121.468028333333","25.0130266666667","6500100","板橋區"
"220102","830-TW","2017/09/29 20:09:29","新北市板橋區板新路236號","121.468033333333","25.0164833333333","6500100","板橋區"
"220074","895-R6","2017/09/29 20:09:33","新北市板橋區府後街1號","121.459363333333","25.0098766666667","6500100","板橋區"
"220073","985-R7","2017/09/29 20:09:36","新北市板橋區南雅西路二段1號","121.453085","25.0089","6500100","板橋區"
"220097","AAC-210","2017/09/29 20:09:38","新北市板橋區光正街23巷8號","121.46214","25.0169283333333","6500100","板橋區"
"220070","AAC-253","2017/09/29 20:09:39","新北市板橋區四川路二段245巷75號","121.452546666667","24.9927666666667","6500100","板橋區"
