"lineid","car","time","location","longitude","latitude","cityid","cityname"
"234030","746-BX","2017/09/29 20:48:30","新北市新莊區五權一路13-3號","121.459818333333","25.0686616666667","6500400","永和區"
"249001","173-UM","2017/09/29 20:48:33","新北市八里區中山路三段409號","121.368803333333","25.1357066666667","6502300","八里區"
"234074","AAC-211","2017/09/29 20:48:38","新北市永和區環河東路二段20號","121.5223","25.013145","6500400","永和區"
"222002","016-RS","2017/09/29 20:48:30","新北市深坑區北深路三段93巷49號","121.604361666667","25.0005083333333","6501800","深坑區"
"222003","436-BY","2017/09/29 20:48:27","新北市深坑區北深路二段2巷3號","121.621891666667","25.0047283333333","6501800","深坑區"
"222001","628-TS","2017/09/29 20:48:33","新北市深坑區北深路三段133號","121.604008333333","25.00256","6501800","深坑區"
"231041","002-UM","2017/09/29 20:48:26","新北市新店區中正路700巷1號","121.533945","24.9912916666667","6500600","新店區"
"231059","046-UY","2017/09/29 20:48:35","新北市新店區吉祥街15巷60號","121.499821666667","24.9451133333333","6500600","新店區"
"231061","047-UY","2017/09/29 20:48:21","新北市新店區新和街93巷12號","121.52072","24.9867316666667","6500600","新店區"
"231060","106-UY","2017/09/29 20:48:27","新北市新店區安康路三段738號","121.473878333333","24.9419733333333","6500600","新店區"
"231051","107-UY","2017/09/29 20:48:21","新北市新店區中央八街128號","121.52513","24.978445","6500600","新店區"
"231048","108-UY","2017/09/29 20:48:28","新北市新店區寶元路一段109號","121.545735","24.9831483333333","6500600","新店區"
"231050","215-TC","2017/09/29 20:48:35","新北市新店區中正路266號","121.539063333333","24.9735783333333","6500600","新店區"
"231057","256-BX","2017/09/29 20:48:27","新北市新店區花園一路一段2號","121.552778333333","24.9325133333333","6500600","新店區"
"231063","268-BY","2017/09/29 20:48:30","新北市新店區富貴街9巷43號","121.495281666667","24.9487733333333","6500600","新店區"
"231054","AAD-862","2017/09/29 20:48:26","新北市新店區北新路一段126巷27號","121.543153333333","24.9694933333333","6500600","新店區"
"231058","3712-VJ","2017/09/29 20:48:22","新北市新店區平等街45號","121.536363333333","24.973135","6500600","新店區"
"231056","4716-K9","2017/09/29 20:48:26","新北市新店區中央七街61巷5號","121.528361666667","24.9765816666667","6500600","新店區"
"231065","512-UM","2017/09/29 20:48:39","新北市新店區安祥路69巷15號","121.48196","24.9614416666667","6500600","新店區"
"231064","515-UM","2017/09/29 20:48:31","新北市新店區永平街16巷30號","121.51724","24.98443","6500600","新店區"
"231045","617-UM","2017/09/29 20:48:38","新北市新店區檳榔路22巷1號","121.541393333333","24.964095","6500600","新店區"
"231040","619-UM","2017/09/29 20:48:38","新北市新店區中正路272號","121.538935","24.973655","6500600","新店區"
"231042","641-BX","2017/09/29 20:48:22","新北市新店區寶高路116號","121.554556666667","24.97612","6500600","新店區"
"231068","718-UY","2017/09/29 20:48:31","新北市新店區寶元路二段11號","121.546108333333","24.9823516666667","6500600","新店區"
"231049","719-UM","2017/09/29 20:48:21","新北市新店區安康路一段105號","121.529056666667","24.9616016666667","6500600","新店區"
"231062","720-UM","2017/09/29 20:48:29","新北市新店區和成街2號","121.488608333333","24.9482833333333","6500600","新店區"
"231044","897-TW","2017/09/29 20:48:34","新北市新店區民族路81號","121.539093333333","24.9779733333333","6500600","新店區"
"231043","899-TW","2017/09/29 20:48:34","新北市新店區博愛街13巷24號","121.540243333333","24.9740616666667","6500600","新店區"
"231066","AKT-0513","2017/09/29 20:48:23","新北市新店區安興路112號","121.51469","24.9776383333333","6500600","新店區"
"241011","013-R5","2017/09/29 20:48:29","新北市三重區秀江街117號","121.499745","25.0721883333333","6500200","三重區"
"241028","022-UY","2017/09/29 20:48:20","新北市三重區中正南路48號","121.493896666667","25.0599316666667","6500200","三重區"
"241008","059-VK","2017/09/29 20:48:24","新北市三重區永福街72巷11號","121.479436666667","25.0767983333333","6500200","三重區"
"241009","060-VK","2017/09/29 20:48:28","新北市三重區三和路四段388-2號","121.481925","25.0791516666667","6500200","三重區"
"241031","061-VK","2017/09/29 20:48:37","新北市三重區重陽路一段113巷3號","121.487521666667","25.05979","6500200","三重區"
"241015","062-VK","2017/09/29 20:48:26","新北市三重區自強路一段11號","121.498746666667","25.0682916666667","6500200","三重區"
"241017","063-VK","2017/09/29 20:48:28","新北市三重區民生街42號","121.491626666667","25.06694","6500200","三重區"
"241024","065-VK","2017/09/29 20:48:34","新北市三重區大勇街82巷15弄30號","121.481275","25.0719783333333","6500200","三重區"
"241026","066-VK","2017/09/29 20:48:31","新北市三重區文化南路7號","121.500048333333","25.062325","6500200","三重區"
"241002","090-VK","2017/09/29 20:48:23","新北市三重區仁義街167巷55號","121.498935","25.0824216666667","6500200","三重區"
"241005","262-UM","2017/09/29 20:48:32","新北市三重區五華街141巷1號","121.491083333333","25.084725","6500200","三重區"
"241016","266-UM","2017/09/29 20:48:38","新北市三重區自強路一段232號","121.493453333333","25.0669866666667","6500200","三重區"
"241022","267-UM","2017/09/29 20:48:32","新北市三重區中正北路20巷12號","121.488018333333","25.0624383333333","6500200","三重區"
"241018","268-UM","2017/09/29 20:48:41","新北市三重區正義北路346號","121.494401666667","25.0709283333333","6500200","三重區"
"241032","269-UM","2017/09/29 20:48:31","新北市三重區重陽路一段120巷35號","121.485135","25.0602466666667","6500200","三重區"
"241013","270-UM","2017/09/29 20:48:20","新北市三重區仁賢街12-1號","121.495661666667","25.0748833333333","6500200","三重區"
"241025","271-UM","2017/09/29 20:48:26","新北市三重區貴陽街21號","121.484261666667","25.06192","6500200","三重區"
"241007","398-BY","2017/09/29 20:48:30","新北市三重區慈愛街6號","121.48434","25.078385","6500200","三重區"
"241020","413-TH","2017/09/29 20:48:30","新北市三重區忠孝路一段101號","121.489421666667","25.0721066666667","6500200","三重區"
"241035","462-BY","2017/09/29 20:48:34","新北市三重區文化北路246號","121.497466666667","25.069845","6500200","三重區"
"241004","475-VK","2017/09/29 20:48:33","新北市三重區分子尾街9號","121.489558333333","25.0805916666667","6500200","三重區"
"241019","478-VK","2017/09/29 20:48:22","新北市三重區大智街139號","121.490853333333","25.070945","6500200","三重區"
"241030","480-VK","2017/09/29 20:48:35","新北市三重區環河南路221巷33號","121.491115","25.0527466666667","6500200","三重區"
"241014","543-UM","2017/09/29 20:48:26","新北市三重區龍濱路118-3號","121.501823333333","25.07047","6500200","三重區"
"241023","545-UM","2017/09/29 20:48:38","新北市三重區忠孝路三段84巷26號","121.481328333333","25.064365","6500200","三重區"
"241001","547-UM","2017/09/29 20:48:29","新北市三重區三和路四段132號","121.488785","25.0754716666667","6500200","三重區"
"241006","AAD-863","2017/09/29 20:48:27","新北市三重區車路頭街139巷14號","121.484285","25.0762133333333","6500200","三重區"
"241012","941-UM","2017/09/29 20:48:11","新北市三重區仁信街29號","121.501241666667","25.0755766666667","6500200","三重區"
"241029","942-UM","2017/09/29 20:48:39","新北市三重區同安街122-1號","121.493243333333","25.0559866666667","6500200","三重區"
"241033","AAC-255","2017/09/29 20:48:27","新北市三重區光復路二段1號","121.472258333333","25.05333","6500200","三重區"
"235040","150-BY","2017/09/29 20:48:20","新北市新店區安忠路205巷8號","121.509785","24.95495","6500300","中和區"
"235072","301-VK","2017/09/29 20:48:19","新北市中和區員山路36巷13號","121.483963333333","24.99105","6500300","中和區"
"235069","4980-A6","2017/09/29 20:48:40","新北市中和區新生街114巷37弄12號","121.482303333333","25.0018766666667","6500300","中和區"
"235026","800-TS","2017/09/29 20:12:34","新北市中和區員山路36巷16-3號","121.484755","24.9917466666667","6500300","中和區"
"247022","893-R6","2017/09/29 20:48:40","新北市蘆洲區三民路138號","121.470875","25.087875","6501400","蘆洲區"
"247012","546-UM","2017/09/29 20:48:24","新北市蘆洲區集賢路200號","121.483601666667","25.0876283333333","6501400","蘆洲區"
"247020","500-BY","2017/09/29 20:48:23","新北市蘆洲區仁愛街64號","121.471455","25.0938633333333","6501400","蘆洲區"
"247010","339-TH","2017/09/29 20:48:21","新北市蘆洲區鷺江街91號","121.476883333333","25.083745","6501400","蘆洲區"
"247002","337-TH","2017/09/29 20:48:20","新北市蘆洲區永康街30號","121.458608333333","25.0855416666667","6501400","蘆洲區"
"247004","336-TH","2017/09/29 20:48:40","新北市蘆洲區長安街101號","121.461578333333","25.0808183333333","6501400","蘆洲區"
"247016","057-VK","2017/09/29 20:48:29","新北市蘆洲區中山二路288號","121.468896666667","25.077685","6501400","蘆洲區"
"247006","056-VK","2017/09/29 20:48:35","新北市蘆洲區永安南路二段36-1號","121.466911666667","25.0772816666667","6501400","蘆洲區"
"247008","053-VK","2017/09/29 20:48:26","新北市三重區仁愛街747號","121.481186666667","25.08058","6501400","蘆洲區"
"247014","007-UY","2017/09/29 20:48:34","新北市蘆洲區三民路85號","121.474735","25.0842433333333","6501400","蘆洲區"
"247024","002-UY","2017/09/29 20:48:27","新北市蘆洲區長樂路136號","121.462166666667","25.0901383333333","6501400","蘆洲區"
"251005","010-UM","2017/09/29 20:48:36","新北市淡水區學府路96號","121.449298333333","25.1711333333333","6501000","淡水區"
"251002","012-UM","2017/09/29 20:48:20","新北市淡水區中正東路43號","121.446476666667","25.1681166666667","6501000","淡水區"
"251007","179-VK","2017/09/29 20:48:28","新北市淡水區鄧公路29巷22號","121.452508333333","25.1702183333333","6501000","淡水區"
"251013","180-VK","2017/09/29 20:48:37","新北市淡水區行忠路169號","121.45651","25.2011316666667","6501000","淡水區"
"251015","182-VK","2017/09/29 20:48:34","新北市淡水區淡金路四段542巷17號","121.452668333333","25.2271166666667","6501000","淡水區"
"251010","413-VK","2017/09/29 20:48:29","新北市淡水區沙崙路145號","121.42334","25.1830683333333","6501000","淡水區"
"251012","441-VK","2017/09/29 20:48:24","新北市淡水區淡金路四段476號","121.452013333333","25.2238616666667","6501000","淡水區"
"251001","559-UM","2017/09/29 20:48:37","新北市淡水區淡金路218號","121.460531666667","25.1672233333333","6501000","淡水區"
"251011","650-BX","2017/09/29 20:48:38","新北市淡水區新民街一段13-1號","121.433058333333","25.1845633333333","6501000","淡水區"
"251003","673-BX","2017/09/29 20:48:39","新北市淡水區新興街71號","121.441376666667","25.1795733333333","6501000","淡水區"
"252002","178-VK","2017/09/29 20:48:25","新北市三芝區淡金路二段89-1號","121.504056666667","25.2608433333333","6502100","三芝區"
"236039","271-VK","2017/09/29 20:48:28","新北市樹林區八德街588號","121.397871666667","24.9692333333333","6501300","土城區"
"242032","AAC-296","2017/09/29 20:48:40","新北市新莊區環河路462號","121.440175","25.0196966666667","6500500","新莊區"
"242029","986-R7","2017/09/29 20:48:35","新北市新莊區昌隆街3巷1弄2號","121.453891666667","25.0513883333333","6500500","新莊區"
"242050","751-BX","2017/09/29 20:48:33","新北市新莊區民安西路44號","121.42743","25.0209016666667","6500500","新莊區"
"242025","615-BX","2017/09/29 20:48:37","新北市新莊區新樹路647-1號","121.435626666667","25.002815","6500500","新莊區"
"242027","612-BX","2017/09/29 20:48:01","新北市新莊區瓊林路59-66號","121.44143","25.0228883333333","6500500","新莊區"
"242039","566-BX","2017/09/29 20:48:29","新北市新莊區環河路462號","121.440145","25.01977","6500500","新莊區"
"242048","441-UM","2017/09/29 20:48:34","新北市新莊區中正路615號","121.432446666667","25.031995","6500500","新莊區"
"242054","440-UM","2017/09/29 20:48:23","新北市新莊區西盛街324巷42號","121.42657","25.014995","6500500","新莊區"
"242060","362-BY","2017/09/29 20:48:42","新北市新莊區新樹路525-5號","121.432763333333","25.0097283333333","6500500","新莊區"
"242007","132-UY","2017/09/29 20:48:37","新北市新莊區碧江街43號","121.451538333333","25.03253","6500500","新莊區"
"242037","133-UY","2017/09/29 20:48:24","新北市新莊區建國一路66號","121.434305","25.0306516666667","6500500","新莊區"
"242021","135-UY","2017/09/29 20:48:29","新北市新莊區新泰路16號","121.44965","25.0330933333333","6500500","新莊區"
"242009","173-VK","2017/09/29 20:48:23","新北市新莊區福壽街67號","121.458116666667","25.049455","6500500","新莊區"
"242056","349-TH","2017/09/29 20:48:21","新北市新莊區環河路500號","121.43903","25.017365","6500500","新莊區"
"242017","350-TH","2017/09/29 20:48:38","新北市新莊區瓊林路46-12號","121.446588333333","25.0289916666667","6500500","新莊區"
"242011","351-TH","2017/09/29 20:48:21","新北市新莊區中正路473-1號","121.442025","25.0332","6500500","新莊區"
"221036","130-UY","2017/09/29 20:48:35","新北市汐止區新昌路70號","121.663561666667","25.0687616666667","6501100","汐止區"
"221027","281-BY","2017/09/29 20:48:29","新北市汐止區大同路二段370號","121.657745","25.0671616666667","6501100","汐止區"
"221029","298-VK","2017/09/29 20:48:31","新北市汐止區樟樹二路339巷18號","121.641841666667","25.0715666666667","6501100","汐止區"
"221031","353-TW","2017/09/29 20:48:34","新北市汐止區福德一路164號","121.636161666667","25.0664266666667","6501100","汐止區"
"221035","622-UM","2017/09/29 20:48:39","新北市汐止區汐萬路一段180號","121.652368333333","25.0718633333333","6501100","汐止區"
"221033","647-BX","2017/09/29 20:48:33","新北市汐止區合順街18巷8弄5號","121.620288333333","25.04195","6501100","汐止區"
"221002","707-TV","2017/09/29 20:48:23","新北市汐止區福德二路136號","121.630836666667","25.06519","6501100","汐止區"
"221018","753-BX","2017/09/29 20:48:31","新北市汐止區汐萬路一段186號","121.65229","25.0720383333333","6501100","汐止區"
"220101","245-BX","2017/09/29 20:48:29","新北市林口區汕頭32號","121.366305","25.13472","6500100","板橋區"
"220083","286-VK","2017/09/29 20:48:31","新北市板橋區僑中二街116巷30號","121.444445","25.00662","6500100","板橋區"
"220062","303-R5","2017/09/29 20:48:30","新北市板橋區南雅南路一段131號","121.455311666667","25.0042566666667","6500100","板橋區"
"220074","895-R6","2017/09/29 20:48:33","新北市樹林區中山路三段210-2號","121.381385","24.9656833333333","6500100","板橋區"
"220070","AAC-253","2017/09/29 20:48:33","新北市八里區商港路105巷15-1號","121.391873333333","25.1496416666667","6500100","板橋區"
