"lineid","car","time","location","longitude","latitude","cityid","cityname"
"234030","746-BX","2017/09/29 20:58:30","新北市八里區商港路96號","121.393978333333","25.14842","6500400","永和區"
"231059","046-UY","2017/09/29 20:58:35","新北市新店區僑信路99號","121.500256666667","24.94686","6500600","新店區"
"231061","047-UY","2017/09/29 20:58:22","新北市新店區永安街60號","121.518856666667","24.986905","6500600","新店區"
"231060","106-UY","2017/09/29 20:58:27","新北市新店區安康路三段525巷54號","121.482051666667","24.9452716666667","6500600","新店區"
"231051","107-UY","2017/09/29 20:58:21","新北市新店區民生路156巷90號","121.527373333333","24.982035","6500600","新店區"
"231048","108-UY","2017/09/29 20:58:28","新北市新店區文化路73巷1號","121.54488","24.9824833333333","6500600","新店區"
"231050","215-TC","2017/09/29 20:58:35","新北市新店區三民路117巷4弄1號","121.534383333333","24.9715433333333","6500600","新店區"
"231057","256-BX","2017/09/29 20:58:25","新北市新店區北宜路一段80號","121.538693333333","24.95581","6500600","新店區"
"231063","268-BY","2017/09/29 20:58:30","新北市新店區富貴街10巷1號","121.494151666667","24.94955","6500600","新店區"
"231054","AAD-862","2017/09/29 20:58:26","新北市新店區北新路一段126巷27號","121.543178333333","24.9695933333333","6500600","新店區"
"231067","4772-VM","2017/09/29 20:58:22","新北市新店區安華路30巷12-1號","121.518416666667","24.9580066666667","6500600","新店區"
"231065","512-UM","2017/09/29 20:58:19","新北市新店區安祥路67巷28弄47號","121.483723333333","24.9592016666667","6500600","新店區"
"231064","515-UM","2017/09/29 20:58:31","新北市新店區安民街365巷8號","121.516178333333","24.975775","6500600","新店區"
"231040","619-UM","2017/09/29 20:58:18","新北市新店區中正路122號","121.542258333333","24.9711583333333","6500600","新店區"
"231042","641-BX","2017/09/29 20:58:22","新北市新店區寶橋路207號","121.54859","24.9770983333333","6500600","新店區"
"231068","718-UY","2017/09/29 20:58:31","新北市新店區中興路二段181號","121.547911666667","24.972835","6500600","新店區"
"231062","720-UM","2017/09/29 20:58:29","新北市新店區雙城路36號","121.491976666667","24.9502066666667","6500600","新店區"
"231043","899-TW","2017/09/29 20:58:34","新北市新店區民族路197號","121.537128333333","24.976205","6500600","新店區"
"231066","AKT-0513","2017/09/29 20:58:23","新北市新店區安康路二段16巷48號","121.51682","24.96567","6500600","新店區"
"241011","013-R5","2017/09/29 20:58:29","新北市三重區秀江街117號","121.499788333333","25.0721983333333","6500200","三重區"
"241028","022-UY","2017/09/29 20:58:20","新北市三重區新北大道一段7號","121.489713333333","25.06146","6500200","三重區"
"241008","059-VK","2017/09/29 20:58:24","新北市三重區永福街72巷9號","121.479353333333","25.0768166666667","6500200","三重區"
"241009","060-VK","2017/09/29 20:58:24","新北市三重區三和路四段388-2號","121.482088333333","25.0791483333333","6500200","三重區"
"241031","061-VK","2017/09/29 20:58:37","新北市三重區重陽路一段113巷3號","121.487546666667","25.0598366666667","6500200","三重區"
"241015","062-VK","2017/09/29 20:58:25","新北市三重區福德北路63號","121.502105","25.0655616666667","6500200","三重區"
"241017","063-VK","2017/09/29 20:58:28","新北市三重區大仁街58號","121.49223","25.06493","6500200","三重區"
"241024","065-VK","2017/09/29 20:58:34","新北市三重區大勇街82巷15弄30號","121.481283333333","25.07199","6500200","三重區"
"241026","066-VK","2017/09/29 20:58:31","新北市三重區文化南路32號","121.500295","25.061455","6500200","三重區"
"241002","090-VK","2017/09/29 20:58:23","新北市三重區五華街1巷2號","121.495501666667","25.0797683333333","6500200","三重區"
"241005","262-UM","2017/09/29 20:58:32","新北市三重區三信路180號","121.488106666667","25.0863","6500200","三重區"
"241016","266-UM","2017/09/29 20:58:38","新北市三重區正義北路113號","121.496855","25.0657066666667","6500200","三重區"
"241022","267-UM","2017/09/29 20:58:32","新北市三重區中正北路20巷12號","121.488043333333","25.062495","6500200","三重區"
"241018","268-UM","2017/09/29 20:58:25","新北市三重區自強路一段236號","121.493281666667","25.06705","6500200","三重區"
"241032","269-UM","2017/09/29 20:58:31","新北市三重區三陽路135號","121.483056666667","25.0588216666667","6500200","三重區"
"241013","270-UM","2017/09/29 20:58:20","新北市三重區仁賢街12-1號","121.495708333333","25.0748766666667","6500200","三重區"
"241025","271-UM","2017/09/29 20:58:26","新北市三重區貴陽街18號","121.484133333333","25.0618666666667","6500200","三重區"
"241007","398-BY","2017/09/29 20:58:30","新北市三重區三和路四段143-1號","121.484395","25.0783183333333","6500200","三重區"
"241020","413-TH","2017/09/29 20:58:30","新北市三重區忠孝路二段35號","121.48594","25.0711233333333","6500200","三重區"
"241004","475-VK","2017/09/29 20:58:33","新北市三重區仁愛街502號","121.488181666667","25.0821983333333","6500200","三重區"
"241019","478-VK","2017/09/29 20:58:18","新北市三重區自強路二段74巷15號","121.488081666667","25.0699833333333","6500200","三重區"
"241030","480-VK","2017/09/29 20:58:35","新北市三重區環河南路222號","121.492465","25.0519783333333","6500200","三重區"
"241014","543-UM","2017/09/29 20:58:26","新北市三重區長壽街120巷11號","121.502528333333","25.0691033333333","6500200","三重區"
"241023","545-UM","2017/09/29 20:58:38","新北市三重區忠孝路三段50巷41弄64號","121.482415","25.0638266666667","6500200","三重區"
"241001","547-UM","2017/09/29 20:58:29","新北市三重區自強路三段87巷19號","121.488148333333","25.0749333333333","6500200","三重區"
"241006","AAD-863","2017/09/29 20:58:27","新北市三重區永福街62-4號","121.480823333333","25.077875","6500200","三重區"
"241012","941-UM","2017/09/29 20:58:31","新北市三重區仁信街27號","121.501278333333","25.0755466666667","6500200","三重區"
"241029","942-UM","2017/09/29 20:58:35","新北市三重區電信街121-2號","121.494683333333","25.058115","6500200","三重區"
"241033","AAC-255","2017/09/29 20:58:27","新北市三重區光復路二段1號","121.472258333333","25.0533016666667","6500200","三重區"
"235040","150-BY","2017/09/29 20:58:20","新北市中和區中正路395號","121.489653333333","24.99385","6500300","中和區"
"235072","301-VK","2017/09/29 20:58:39","新北市中和區員山路36巷13號","121.483926666667","24.9911616666667","6500300","中和區"
"235069","4980-A6","2017/09/29 20:58:20","新北市中和區連城路523巷9弄28號","121.482323333333","24.9945533333333","6500300","中和區"
"235026","800-TS","2017/09/29 20:12:34","新北市中和區員山路36巷16-3號","121.484755","24.9917466666667","6500300","中和區"
"247022","893-R6","2017/09/29 20:58:40","新北市蘆洲區中正路263巷2號","121.467355","25.08744","6501400","蘆洲區"
"247012","546-UM","2017/09/29 20:58:24","新北市蘆洲區民權路26號","121.476758333333","25.0858766666667","6501400","蘆洲區"
"247020","500-BY","2017/09/29 20:58:23","新北市蘆洲區民族路484號","121.471045","25.0913566666667","6501400","蘆洲區"
"247010","339-TH","2017/09/29 20:58:21","新北市蘆洲區鷺江街70號","121.47701","25.08374","6501400","蘆洲區"
"247002","337-TH","2017/09/29 20:58:20","新北市蘆洲區永樂街38巷37號","121.458308333333","25.089505","6501400","蘆洲區"
"247004","336-TH","2017/09/29 20:58:20","新北市蘆洲區永安南路二段268號","121.458593333333","25.08077","6501400","蘆洲區"
"247016","057-VK","2017/09/29 20:58:39","新北市蘆洲區正和街31號","121.469651666667","25.081925","6501400","蘆洲區"
"247006","056-VK","2017/09/29 20:58:35","新北市蘆洲區永安南路二段16巷8號","121.46781","25.0773033333333","6501400","蘆洲區"
"247008","053-VK","2017/09/29 20:58:26","新北市蘆洲區和平路11號","121.472856666667","25.0791916666667","6501400","蘆洲區"
"247014","007-UY","2017/09/29 20:58:34","新北市蘆洲區中山二路36巷9號","121.474378333333","25.08277","6501400","蘆洲區"
"247024","002-UY","2017/09/29 20:58:27","新北市蘆洲區長興路198號","121.460833333333","25.0869633333333","6501400","蘆洲區"
"247018","001-UY","2017/09/29 20:58:26","新北市蘆洲區民權路136-2號","121.473183333333","25.0888616666667","6501400","蘆洲區"
"251005","010-UM","2017/09/29 20:58:36","新北市淡水區學府路88號","121.449178333333","25.1709966666667","6501000","淡水區"
"251002","012-UM","2017/09/29 20:58:20","新北市淡水區英專路76號","121.445725","25.1712066666667","6501000","淡水區"
"251007","179-VK","2017/09/29 20:58:28","新北市淡水區仁愛街5號","121.445971666667","25.170555","6501000","淡水區"
"251013","180-VK","2017/09/29 20:58:35","新北市淡水區行忠路127號","121.454713333333","25.19978","6501000","淡水區"
"251015","182-VK","2017/09/29 20:58:34","新北市淡水區淡金路四段542巷17號","121.452673333333","25.2271183333333","6501000","淡水區"
"251010","413-VK","2017/09/29 20:58:29","新北市淡水區淡海路23號","121.423735","25.1791116666667","6501000","淡水區"
"251012","441-VK","2017/09/29 20:58:23","新北市淡水區淡金路五段120-3號","121.45666","25.23753","6501000","淡水區"
"251001","559-UM","2017/09/29 20:58:17","新北市淡水區淡金路一段156號","121.45503","25.1787566666667","6501000","淡水區"
"251011","650-BX","2017/09/29 20:58:38","新北市淡水區新民街一段1號","121.433566666667","25.1843983333333","6501000","淡水區"
"251003","673-BX","2017/09/29 20:58:27","新北市淡水區新春街169號","121.443183333333","25.1812766666667","6501000","淡水區"
"252002","178-VK","2017/09/29 20:58:25","新北市三芝區淡金路二段76-2號","121.504035","25.2610333333333","6502100","三芝區"
"236039","271-VK","2017/09/29 20:58:28","新北市土城區城林路1號","121.43614","24.9763166666667","6501300","土城區"
"242029","986-R7","2017/09/29 20:58:35","新北市新莊區中華路二段30號","121.453573333333","25.04516","6500500","新莊區"
"242048","441-UM","2017/09/29 20:58:29","新北市新莊區瓊林北路4號","121.440176666667","25.022995","6500500","新莊區"
"221027","281-BY","2017/09/29 20:58:29","新北市汐止區汐萬路一段256巷3號","121.652173333333","25.0747033333333","6501100","汐止區"
"221029","298-VK","2017/09/29 20:58:31","新北市汐止區汐萬路一段256巷1號","121.651713333333","25.0748433333333","6501100","汐止區"
"221031","353-TW","2017/09/29 20:58:34","新北市汐止區汐萬路一段256巷1號","121.651965","25.0747883333333","6501100","汐止區"
"221018","753-BX","2017/09/29 20:58:31","新北市汐止區汐萬路一段256巷1號","121.651905","25.07487","6501100","汐止區"
"220101","245-BX","2017/09/29 20:57:29","新北市八里區中山路三段409號","121.368678333333","25.13513","6500100","板橋區"
"220062","303-R5","2017/09/29 20:58:30","新北市板橋區民生路二段171號","121.46988","25.020155","6500100","板橋區"
"220074","895-R6","2017/09/29 20:58:32","新北市土城區福安街52巷4號","121.418395","24.9654883333333","6500100","板橋區"
"220070","AAC-253","2017/09/29 20:58:33","新北市八里區中山路三段409號","121.368768333333","25.13411","6500100","板橋區"
