"lineid","car","time","location","longitude","latitude","cityid","cityname"
"231050","215-TC","2017/09/29 21:28:15","新北市新店區三民路17號","121.53976","24.9721583333333","6500600","新店區"
"231063","268-BY","2017/09/29 21:28:30","新北市新店區吉祥街9巷1號","121.497458333333","24.94708","6500600","新店區"
"241011","013-R5","2017/09/29 21:28:29","新北市三重區龍濱路285號","121.501025","25.0734","6500200","三重區"
"241008","059-VK","2017/09/29 21:28:24","新北市三重區光復路二段175號","121.472473333333","25.0620266666667","6500200","三重區"
"241017","063-VK","2017/09/29 21:28:28","新北市三重區中正北路23號","121.492408333333","25.0619666666667","6500200","三重區"
"241024","065-VK","2017/09/29 21:28:14","新北市三重區中正北路145巷14號","121.484158333333","25.0678033333333","6500200","三重區"
"241026","066-VK","2017/09/29 21:28:31","新北市三重區環河南路220-8號","121.49331","25.0525266666667","6500200","三重區"
"241003","091-VK","2017/09/29 21:28:14","新北市三重區仁義街220巷1號","121.495273333333","25.0841716666667","6500200","三重區"
"241005","262-UM","2017/09/29 21:28:11","新北市三重區仁華街77號","121.485631666667","25.0829716666667","6500200","三重區"
"241016","266-UM","2017/09/29 21:28:18","新北市三重區正義北路86號","121.496943333333","25.064415","6500200","三重區"
"241007","398-BY","2017/09/29 21:28:30","新北市三重區正義北路113號","121.496896666667","25.0657466666667","6500200","三重區"
"241014","543-UM","2017/09/29 21:28:26","新北市三重區龍濱路190號","121.501086666667","25.0732966666667","6500200","三重區"
"241006","AAD-863","2017/09/29 21:28:26","新北市五股區凌雲路三段32-1號","121.432271666667","25.1079283333333","6500200","三重區"
"235026","800-TS","2017/09/29 20:12:34","新北市中和區員山路36巷16-3號","121.484755","24.9917466666667","6500300","中和區"
"247022","893-R6","2017/09/29 21:28:20","新北市蘆洲區永康街63號","121.456311666667","25.0851566666667","6501400","蘆洲區"
"247012","546-UM","2017/09/29 21:28:24","新北市蘆洲區中興街114號","121.482296666667","25.0888633333333","6501400","蘆洲區"
"247020","500-BY","2017/09/29 21:28:23","新北市蘆洲區中正路512-1號","121.461143333333","25.09764","6501400","蘆洲區"
"247010","339-TH","2017/09/29 21:28:21","新北市蘆洲區鷺江街23號","121.478846666667","25.082465","6501400","蘆洲區"
"247002","337-TH","2017/09/29 21:28:20","新北市五股區中興路三段2巷10號","121.44878","25.0819","6501400","蘆洲區"
"247008","053-VK","2017/09/29 21:28:26","新北市蘆洲區中山一路165號","121.475118333333","25.0815766666667","6501400","蘆洲區"
"247014","007-UY","2017/09/29 21:28:14","新北市蘆洲區光明路3號","121.460508333333","25.0865416666667","6501400","蘆洲區"
"247024","002-UY","2017/09/29 21:28:27","新北市五股區中興路二段182巷50號","121.452903333333","25.0807583333333","6501400","蘆洲區"
"251004","009-UM","2017/09/29 21:28:23","新北市淡水區民族路2號","121.460256666667","25.13698","6501000","淡水區"
"251005","010-UM","2017/09/29 21:28:16","新北市淡水區水源街一段34巷8號","121.443175","25.1718416666667","6501000","淡水區"
"251002","012-UM","2017/09/29 21:15:46","新北市淡水區學府路172巷21號","121.448295","25.174935","6501000","淡水區"
"251013","180-VK","2017/09/29 21:28:15","新北市淡水區埤島61-3號","121.460205","25.1956516666667","6501000","淡水區"
"251008","181-VK","2017/09/29 21:28:16","新北市淡水區水源街二段138-1號","121.453828333333","25.1749266666667","6501000","淡水區"
"251015","182-VK","2017/09/29 21:28:13","新北市淡水區興仁路103巷37號","121.449896666667","25.21602","6501000","淡水區"
"251010","413-VK","2017/09/29 21:28:10","新北市淡水區沙崙路25巷21號","121.420673333333","25.1824483333333","6501000","淡水區"
"251012","441-VK","2017/09/29 21:28:23","新北市淡水區淡金路四段581號","121.451588333333","25.2308133333333","6501000","淡水區"
"251001","559-UM","2017/09/29 21:28:17","新北市淡水區義山路一段222號","121.438498333333","25.1910183333333","6501000","淡水區"
"251006","561-UM","2017/09/29 21:28:27","新北市淡水區公明街47號","121.443336666667","25.1688133333333","6501000","淡水區"
"251009","575-R6","2017/09/29 21:28:17","新北市淡水區民族路33巷16-3號","121.463358333333","25.1360033333333","6501000","淡水區"
"251011","650-BX","2017/09/29 21:28:18","新北市淡水區新民街160號","121.437155","25.1783616666667","6501000","淡水區"
"251003","673-BX","2017/09/29 21:28:27","新北市淡水區崁頂15-5號","121.438953333333","25.1859333333333","6501000","淡水區"
"220101","245-BX","2017/09/29 21:28:29","新北市板橋區三民路一段136號","121.479151666667","25.0204583333333","6500100","板橋區"
"220070","AAC-253","2017/09/29 21:28:13","新北市五股區凌雲路二段66號","121.439776666667","25.1061683333333","6500100","板橋區"
