"lineid","car","time","location","longitude","latitude","cityid","cityname"
"244024","837-TS","2017/07/13 10:13:01","新北市林口區粉寮路二段160巷28號","121.40518","25.0907266666667","6501700","林口區"
"222006","289-BY","2017/07/13 10:30:04","新北市深坑區王軍寮3-3號","121.617386666667","24.9836416666667","6501800","深坑區"
"231008","188-VK","2017/07/13 10:29:51","新北市新店區平廣路一段50號","121.533901666667","24.90072","6500600","新店區"
"231069","189-VK","2017/07/13 10:29:48","新北市新店區小坑三路51-1號","121.515891666667","24.9089566666667","6500600","新店區"
"253005","295-VK","2017/07/13 10:21:24","新北市石門區中山路64-1號","121.567686666667","25.2903833333333","6502200","石門區"
"253003","6232-TK","2017/07/13 10:29:54","新北市石門區小坑9號","121.594455","25.2891716666667","6502200","石門區"
"253001","6251-TK","2017/07/13 10:29:54","新北市石門區小坑9號","121.594316666667","25.2886266666667","6502200","石門區"
"253002","637-UY","2017/07/13 10:29:52","新北市石門區小坑9號","121.594668333333","25.2857366666667","6502200","石門區"
"252005","073-UM","2017/07/13 08:47:30","新北市三芝區埔坪里埔頭坑41號","121.50447","25.264305","6502100","三芝區"
"252004","249-BX","2017/07/13 10:29:48","新北市三芝區錫板里南勢崗34-1號","121.486031666667","25.2622616666667","6502100","三芝區"
"252007","AAC-283","2017/07/13 10:30:04","新北市三芝區新庄里番社后32號","121.501031666667","25.27435","6502100","三芝區"
"237001","159-UY","2017/07/12 02:41:16","新北市三峽區中山路459巷163-1號","121.349326666667","24.9334083333333","6500900","三峽區"
"236003","370-SL","2017/07/13 10:27:22","新北市樹林區中山路三段210-2號","121.380726666667","24.967","6501300","土城區"
"242006","173-VK","2017/07/13 10:29:44","新北市新莊區三和路12-21號","121.441886666667","25.0384216666667","6500500","新莊區"
