"lineid","car","time","location","longitude","latitude","cityid","cityname"
"222006","289-BY","2017/07/13 10:43:44","新北市深坑區阿柔洋66號","121.606868333333","24.9987316666667","6501800","深坑區"
"231008","188-VK","2017/07/13 10:43:31","新北市新店區小坑一路35巷1號","121.52839","24.9094466666667","6500600","新店區"
"231069","189-VK","2017/07/13 10:43:48","新北市新店區新潭路三段80巷31-1號","121.50101","24.90969","6500600","新店區"
"253005","295-VK","2017/07/13 10:21:24","新北市石門區中山路64-1號","121.567686666667","25.2903833333333","6502200","石門區"
"253003","6232-TK","2017/07/13 10:43:53","新北市石門區小坑9號","121.594608333333","25.2882316666667","6502200","石門區"
"252005","073-UM","2017/07/13 08:47:30","新北市三芝區埔坪里埔頭坑41號","121.50447","25.264305","6502100","三芝區"
"237001","159-UY","2017/07/12 02:41:16","新北市三峽區中山路459巷163-1號","121.349326666667","24.9334083333333","6500900","三峽區"
"236003","370-SL","2017/07/13 10:41:42","新北市土城區亞洲路58巷5弄2號","121.434253333333","24.974495","6501300","土城區"
"242006","173-VK","2017/07/13 10:44:04","新北市新莊區三和路12-21號","121.44202","25.0386683333333","6500500","新莊區"
