"lineid","car","time","location","longitude","latitude","cityid","cityname"
"234044","148-BY","2017/07/13 12:59:51","新北市永和區秀朗路二段176巷27號","121.525926666667","25.0002316666667","6500400","永和區"
"234012","149-BY","2017/07/13 12:59:55","新北市永和區信義路14-1號","121.514406666667","25.0120833333333","6500400","永和區"
"234005","207-UY","2017/07/13 12:59:51","新北市永和區中山路一段9號","121.513998333333","25.0102833333333","6500400","永和區"
"234078","298-R6","2017/07/13 12:59:59","新北市永和區永亨路61號","121.52108","25.0060683333333","6500400","永和區"
"234036","336-UY","2017/07/13 12:59:46","新北市永和區民樂街77巷1號","121.527388333333","24.9967566666667","6500400","永和區"
"234062","337-UY","2017/07/13 12:59:55","新北市永和區中正路498號","121.517371666667","25.00408","6500400","永和區"
"234084","338-UY","2017/07/13 12:59:57","新北市永和區永寧街121號","121.518011666667","25.00572","6500400","永和區"
"234068","552-UM","2017/07/13 12:59:53","新北市永和區豫溪街95巷10弄1號","121.517936666667","25.010785","6500400","永和區"
"234052","553-UM","2017/07/13 12:59:46","新北市永和區竹林路66巷15-7號","121.518265","25.0132366666667","6500400","永和區"
"234015","745-BX","2017/07/13 12:59:54","新北市永和區永和路二段285號","121.516036666667","25.0158183333333","6500400","永和區"
"234028","746-BX","2017/07/13 12:59:55","新北市永和區四維街44號","121.525258333333","24.99808","6500400","永和區"
"234060","AAD-866","2017/07/13 12:59:55","新北市永和區福和路309巷1號","121.516331666667","25.0070833333333","6500400","永和區"
"234066","847-RS","2017/07/13 12:59:51","新北市永和區中和路625號","121.512921666667","25.0048933333333","6500400","永和區"
"234040","862-TW","2017/07/13 12:59:58","新北市永和區永貞路306號","121.511916666667","25.004865","6500400","永和區"
"234048","863-TW","2017/07/13 12:59:49","新北市永和區文化路194號","121.51078","25.01622","6500400","永和區"
"234025","9371-KE","2017/07/13 12:59:54","新北市永和區永和路一段40-1號","121.51304","25.0053933333333","6500400","永和區"
"234010","9373-KE","2017/07/13 12:59:47","新北市永和區文化路9巷22弄1號","121.515228333333","25.0145633333333","6500400","永和區"
"248013","025-BX","2017/07/13 12:59:56","新北市五股區成泰路一段98巷77號","121.451528333333","25.0791016666667","6501500","五股區"
"248015","026-BX","2017/07/13 12:59:47","新北市五股區中興路二段83巷26號","121.459115","25.075605","6501500","五股區"
"248005","077-UY","2017/07/13 12:59:57","新北市五股區中興路二段83巷26-6號","121.459351666667","25.0753166666667","6501500","五股區"
"248007","095-VK","2017/07/13 12:59:46","新北市五股區更洲路10號","121.45829","25.0788466666667","6501500","五股區"
"248017","225-UY","2017/07/13 12:59:44","新北市五股區中興路二段83巷26-6號","121.460095","25.0752416666667","6501500","五股區"
"248011","247-BX","2017/07/12 01:18:10","新北市五股區中興路二段83巷26-6號","121.459946666667","25.0752283333333","6501500","五股區"
"248009","272-BY","2017/07/13 12:59:52","新北市五股區中興路二段163號","121.457568333333","25.0777066666667","6501500","五股區"
"248003","677-BX","2017/07/13 12:59:46","新北市五股區中興路二段180-1號","121.457493333333","25.07793","6501500","五股區"
"248001","678-BX","2017/07/13 12:59:52","新北市五股區中興路二段83巷26-6號","121.459811666667","25.074985","6501500","五股區"
"234022","9380-KE","2017/07/13 12:59:53","新北市永和區竹林路91巷55弄1號","121.521928333333","25.0138416666667","6500400","永和區"
"234076","969-R7","2017/07/13 12:59:47","新北市永和區民享街19號","121.515525","24.995075","6500400","永和區"
"234072","AAC-211","2017/07/13 12:59:42","新北市永和區福和路1號","121.525535","25.009445","6500400","永和區"
"234001","AAC-295","2017/07/13 12:59:46","新北市永和區永平路20號","121.513526666667","25.008795","6500400","永和區"
"244003","248-BX","2017/07/13 12:59:53","新北市林口區粉寮路二段14號","121.401631666667","25.0853616666667","6501700","林口區"
"244016","485-VK","2017/07/13 10:56:56","新北市林口區粉寮69號","121.404981666667","25.0908616666667","6501700","林口區"
"243001","297-R6","2017/07/13 12:10:29","新北市泰山區黎明路25號","121.421951666667","25.0610416666667","6501600","泰山區"
"243007","380-SR","2017/07/13 12:13:43","新北市泰山區犁頭窠3-1號","121.42224","25.060495","6501600","泰山區"
"243002","548-UM","2017/07/13 12:58:25","新北市泰山區黎明路25號","121.421763333333","25.0608783333333","6501600","泰山區"
"243004","646-TV","2017/07/13 03:06:28","","121.421715","25.0603833333333","6501600","泰山區"
"231002","002-UM","2017/07/13 12:59:43","新北市新店區安華路28-1號","121.519743333333","24.960775","6500600","新店區"
"231025","0291-UT","2017/07/13 12:59:59","新北市新店區安華路28-1號","121.519656666667","24.9607583333333","6500600","新店區"
"231028","046-UY","2017/07/13 12:59:46","新北市新店區安華路28-1號","121.519683333333","24.9608516666667","6500600","新店區"
"231030","047-UY","2017/07/13 12:59:45","新北市新店區安華路3號","121.519488333333","24.95991","6500600","新店區"
"231029","106-UY","2017/07/13 12:59:53","新北市新店區安華路28-1號","121.51967","24.9606566666667","6500600","新店區"
"231018","107-UY","2017/07/13 12:59:42","新北市新店區安華路28-1號","121.519358333333","24.9613366666667","6500600","新店區"
"231011","108-UY","2017/07/13 12:59:47","新北市新店區安華路28-1號","121.519598333333","24.9612033333333","6500600","新店區"
"231007","189-VK","2017/07/13 11:59:52","新北市新店區安華路28-1號","121.519521666667","24.9611833333333","6500600","新店區"
"231010","278-BY","2017/07/13 12:59:54","新北市新店區安華路28-1號","121.520068333333","24.96114","6500600","新店區"
"231017","AAD-862","2017/07/13 12:59:41","新北市新店區安華路28-1號","121.519846666667","24.96123","6500600","新店區"
"231027","3712-VJ","2017/07/13 12:59:42","新北市新店區安華路28-1號","121.51924","24.960635","6500600","新店區"
"231024","3713-VJ","2017/07/13 12:59:50","新北市新店區安華路1-1號","121.519166666667","24.96054","6500600","新店區"
"231038","4715-K9","2017/07/13 12:59:43","新北市新店區安華路28-1號","121.519403333333","24.9607833333333","6500600","新店區"
"231036","512-UM","2017/07/13 12:59:41","新北市新店區安華路28-1號","121.519276666667","24.9612533333333","6500600","新店區"
"231023","513-UM","2017/07/13 12:59:57","新北市新店區安華路28-1號","121.519616666667","24.9610583333333","6500600","新店區"
"231035","515-UM","2017/07/13 12:59:43","新北市新店區安華路28-1號","121.519666666667","24.9612916666667","6500600","新店區"
"231003","616-UM","2017/07/13 12:59:58","新北市新店區安華路1-1號","121.519446666667","24.9604866666667","6500600","新店區"
"231001","619-UM","2017/07/13 12:59:44","新北市新店區安華路28-1號","121.519626666667","24.9609366666667","6500600","新店區"
"231034","645-TV","2017/07/13 12:59:47","新北市新店區安華路28-1號","121.519346666667","24.9605633333333","6500600","新店區"
"231013","719-UM","2017/07/13 12:59:55","新北市新店區安華路28-1號","121.519491666667","24.9612433333333","6500600","新店區"
"231031","720-UM","2017/07/13 12:59:52","新北市新店區安華路28-1號","121.519171666667","24.9611533333333","6500600","新店區"
"231005","897-TW","2017/07/13 12:59:52","新北市新店區安華路28-1號","121.519621666667","24.9609083333333","6500600","新店區"
"231006","898-TW","2017/07/13 12:59:47","新北市新店區安華路28-1號","121.519341666667","24.9609066666667","6500600","新店區"
"231004","899-TW","2017/07/13 12:59:54","新北市新店區安華路28-1號","121.519021666667","24.9608416666667","6500600","新店區"
"231037","AKT-0513","2017/07/13 12:59:55","新北市新店區安華路28-1號","121.51945","24.96082","6500600","新店區"
"235028","005-UY","2017/07/13 12:59:59","新北市中和區員山路36巷16-3號","121.485035","24.9913966666667","6500300","中和區"
"235029","098-UM","2017/07/13 12:59:45","新北市中和區中正路637巷60弄61號","121.48546","24.9933033333333","6500300","中和區"
"235022","151-BY","2017/07/13 12:59:47","新北市中和區中正路395號","121.489793333333","24.9935033333333","6500300","中和區"
"235019","183-VK","2017/07/13 12:59:56","新北市中和區員山路36巷16-2號","121.48529","24.9917183333333","6500300","中和區"
"235002","185-VK","2017/07/13 12:59:54","新北市永和區民生路67巷58號","121.525713333333","24.99747","6500300","中和區"
"235031","255-BX","2017/07/13 12:59:57","新北市中和區中山路二段550號","121.483991666667","25.0051533333333","6500300","中和區"
"235025","378-QA","2017/07/13 12:30:49","新北市中和區員山路36巷16-2號","121.485235","24.99166","6500300","中和區"
"235035","783-BX","2017/07/13 12:59:56","新北市中和區新生街142號","121.483601666667","25.0008333333333","6500300","中和區"
"235026","800-TS","2017/07/13 12:59:57","新北市中和區員山路36巷16-3號","121.485046666667","24.9913133333333","6500300","中和區"
"228005","097-TW","2017/07/13 12:59:45","新北市貢寮區福隆里桂安街11號","121.959611666667","25.0204466666667","6502600","貢寮區"
"228004","212-TW","2017/07/13 12:59:44","新北市貢寮區吉林里內寮街57號","121.886476666667","24.9867716666667","6502600","貢寮區"
"253005","295-VK","2017/07/13 10:21:24","新北市石門區中山路64-1號","121.567686666667","25.2903833333333","6502200","石門區"
"208004","AAC-292","2017/07/13 12:59:50","新北市金山區磺港里磺港路305號","121.642508333333","25.227555","6502700","金山區"
"207002","749-BX","2017/07/13 12:59:40","新北市萬里區雙興里大坪路37-1號","121.627706666667","25.1704633333333","6502800","萬里區"
"207001","463-BY","2017/07/13 12:59:49","新北市萬里區萬里里獅頭路22-1號","121.692986666667","25.178165","6502800","萬里區"
"252005","073-UM","2017/07/13 08:47:30","新北市三芝區埔坪里埔頭坑41號","121.50447","25.264305","6502100","三芝區"
"237001","159-UY","2017/07/12 02:41:16","新北市三峽區中山路459巷163-1號","121.349326666667","24.9334083333333","6500900","三峽區"
"236003","370-SL","2017/07/13 12:57:47","新北市土城區永平街72號","121.42727","24.959135","6501300","土城區"
"236005","498-BY","2017/07/13 12:59:44","新北市土城區亞洲路32巷6號","121.435825","24.9744516666667","6501300","土城區"
"242006","173-VK","2017/07/13 11:00:37","新北市新莊區三和路12-21號","121.442053333333","25.038775","6500500","新莊區"
"221002","753-BX","2017/07/13 12:59:47","新北市汐止區中興路179-3號","121.630533333333","25.066705","6501100","汐止區"
