"lineid","car","time","location","longitude","latitude","cityid","cityname"
"234044","148-BY","2017/07/13 13:29:51","新北市永和區秀朗路二段115巷2弄2號","121.523876666667","25.00181","6500400","永和區"
"234012","149-BY","2017/07/13 13:29:55","新北市永和區中山路一段184巷9弄1號","121.508451666667","25.0093066666667","6500400","永和區"
"234005","207-UY","2017/07/13 13:29:58","新北市永和區中山路一段322-1號","121.506483333333","25.0068083333333","6500400","永和區"
"234078","298-R6","2017/07/13 13:29:59","新北市永和區國中路104巷12弄15號","121.52557","25.0065416666667","6500400","永和區"
"234036","336-UY","2017/07/13 13:29:46","新北市永和區成功路一段127號","121.526956666667","25.0018233333333","6500400","永和區"
"234062","337-UY","2017/07/13 13:29:55","新北市永和區中正路368巷1弄88號","121.52052","25.0007633333333","6500400","永和區"
"234084","338-UY","2017/07/13 13:29:57","新北市永和區永利路116號","121.52148","25.0031883333333","6500400","永和區"
"234068","552-UM","2017/07/13 13:29:53","新北市永和區中興街1號","121.515273333333","25.01233","6500400","永和區"
"234052","553-UM","2017/07/13 13:29:46","新北市永和區復興街21號","121.516071666667","25.0130733333333","6500400","永和區"
"234015","745-BX","2017/07/13 13:29:54","新北市永和區環河西路一段51巷24號","121.514173333333","25.0175733333333","6500400","永和區"
"234028","746-BX","2017/07/13 13:29:40","新北市永和區民權路31號","121.520096666667","24.9977633333333","6500400","永和區"
"234060","AAD-866","2017/07/13 13:29:55","新北市永和區中正路570號","121.517201666667","25.0062616666667","6500400","永和區"
"234066","847-RS","2017/07/13 13:29:51","新北市永和區保平路188號","121.510508333333","25.0064233333333","6500400","永和區"
"234040","862-TW","2017/07/13 13:29:58","新北市永和區水源街39巷16號","121.510585","25.003635","6500400","永和區"
"234048","863-TW","2017/07/13 13:29:49","新北市永和區保福路二段163巷13弄9-1號","121.509448333333","25.0141766666667","6500400","永和區"
"234025","9371-KE","2017/07/13 13:29:54","新北市永和區中山路一段17巷4弄14號","121.513168333333","25.0102183333333","6500400","永和區"
"234010","9373-KE","2017/07/13 13:29:47","新北市永和區仁愛路141巷9號","121.51167","25.0119166666667","6500400","永和區"
"248013","025-BX","2017/07/13 13:29:56","新北市五股區成泰路一段210號","121.436126666667","25.0791033333333","6501500","五股區"
"248015","026-BX","2017/07/13 13:29:47","新北市五股區凌雲路一段83巷34號","121.449278333333","25.1010333333333","6501500","五股區"
"248005","077-UY","2017/07/13 13:29:57","新北市五股區四維路4號","121.467216666667","25.0711016666667","6501500","五股區"
"248007","095-VK","2017/07/13 13:29:46","新北市五股區四維路185巷42弄3-1號","121.463376666667","25.0772466666667","6501500","五股區"
"248017","225-UY","2017/07/13 13:29:44","新北市五股區民義路二段52巷11-2號","121.411005","25.1108116666667","6501500","五股區"
"248011","247-BX","2017/07/13 13:29:59","新北市五股區御成路103號","121.44117","25.0939916666667","6501500","五股區"
"248009","272-BY","2017/07/13 13:29:52","新北市五股區自強路89號","121.432575","25.0717466666667","6501500","五股區"
"248003","677-BX","2017/07/13 13:29:46","新北市五股區六合街3號","121.431953333333","25.0885466666667","6501500","五股區"
"248001","678-BX","2017/07/13 13:29:53","新北市五股區西雲路167-1號","121.446836666667","25.0947933333333","6501500","五股區"
"234022","9380-KE","2017/07/13 13:29:53","新北市永和區竹林路91巷47弄3號","121.521116666667","25.0128816666667","6500400","永和區"
"234076","969-R7","2017/07/13 13:29:53","新北市永和區智光街28號","121.517871666667","24.9989266666667","6500400","永和區"
"234072","AAC-211","2017/07/13 13:29:42","新北市永和區永和路二段105號","121.514961666667","25.0118833333333","6500400","永和區"
"234001","AAC-295","2017/07/13 13:29:44","新北市永和區福和路368號","121.51446","25.0076533333333","6500400","永和區"
"244003","248-BX","2017/07/13 13:29:53","新北市林口區寶斗厝坑39號","121.336288333333","25.1193383333333","6501700","林口區"
"244016","485-VK","2017/07/13 10:56:56","新北市林口區粉寮69號","121.404981666667","25.0908616666667","6501700","林口區"
"243005","AAD-798","2017/07/13 13:29:51","新北市泰山區明志路三段170號","121.42436","25.03911","6501600","泰山區"
"243001","297-R6","2017/07/13 12:10:29","新北市泰山區黎明路25號","121.421951666667","25.0610416666667","6501600","泰山區"
"243007","380-SR","2017/07/13 12:13:43","新北市泰山區犁頭窠3-1號","121.42224","25.060495","6501600","泰山區"
"243002","548-UM","2017/07/13 12:58:25","新北市泰山區黎明路25號","121.421763333333","25.0608783333333","6501600","泰山區"
"243004","646-TV","2017/07/13 03:06:28","","121.421715","25.0603833333333","6501600","泰山區"
"231002","002-UM","2017/07/13 13:29:43","新北市新店區環河路66號","121.53704","24.96276","6500600","新店區"
"231025","0291-UT","2017/07/13 13:29:59","新北市新店區中央五街53號","121.527908333333","24.9754566666667","6500600","新店區"
"231028","046-UY","2017/07/13 13:29:46","新北市新店區安和路一段6-1號","121.517176666667","24.9650166666667","6500600","新店區"
"231030","047-UY","2017/07/13 13:29:45","新北市新店區安康路一段355-4號","121.517645","24.9639133333333","6500600","新店區"
"231029","106-UY","2017/07/13 13:29:53","新北市新店區安豐路49號","121.500206666667","24.95408","6500600","新店區"
"231018","107-UY","2017/07/13 13:29:42","新北市新店區中央路145號","121.530175","24.9734816666667","6500600","新店區"
"231011","108-UY","2017/07/13 13:29:47","新北市新店區德正街12號","121.543696666667","24.9725316666667","6500600","新店區"
"231021","187-VK","2017/07/13 13:29:56","新北市新店區北宜路一段109巷3號","121.539611666667","24.955","6500600","新店區"
"231007","189-VK","2017/07/13 11:59:52","新北市新店區安華路28-1號","121.519521666667","24.9611833333333","6500600","新店區"
"231026","256-BX","2017/07/13 13:29:44","新北市新店區安康路一段3-1號","121.534463333333","24.9606983333333","6500600","新店區"
"231010","278-BY","2017/07/13 13:29:55","新北市新店區中央路3號","121.533605","24.9786733333333","6500600","新店區"
"231017","AAD-862","2017/07/13 13:29:41","新北市新店區北宜路二段30巷5弄2號","121.547961666667","24.9508216666667","6500600","新店區"
"231027","3712-VJ","2017/07/13 13:28:42","新北市新店區國校路32號","121.537646666667","24.9543533333333","6500600","新店區"
"231024","3713-VJ","2017/07/13 13:29:51","新北市新店區北新路二段29巷2弄1號","121.542451666667","24.9727583333333","6500600","新店區"
"231038","4715-K9","2017/07/13 13:29:43","新北市新店區安華路30巷1號","121.519603333333","24.9592466666667","6500600","新店區"
"231036","512-UM","2017/07/13 13:29:41","新北市新店區安祥路109巷151弄6號","121.478511666667","24.95773","6500600","新店區"
"231023","513-UM","2017/07/13 13:29:57","新北市新店區新店路13號","121.540296666667","24.9529016666667","6500600","新店區"
"231035","515-UM","2017/07/13 13:29:43","新北市新店區安忠路8-1號","121.514726666667","24.9631316666667","6500600","新店區"
"231003","616-UM","2017/07/13 13:29:58","新北市新店區北新路一段96巷23號","121.543055","24.9688116666667","6500600","新店區"
"231001","619-UM","2017/07/13 13:29:44","新北市新店區中央路175-3號","121.534948333333","24.9695916666667","6500600","新店區"
"231034","645-TV","2017/07/13 13:29:47","新北市新店區車子路109號","121.50522","24.952105","6500600","新店區"
"231013","719-UM","2017/07/13 13:29:55","新北市新店區中央路208號","121.530218333333","24.9738616666667","6500600","新店區"
"231031","720-UM","2017/07/13 13:29:51","新北市新店區僑信路2巷2號","121.499693333333","24.9535816666667","6500600","新店區"
"231005","897-TW","2017/07/13 13:29:52","新北市新店區中正路111號","121.542471666667","24.970435","6500600","新店區"
"231006","898-TW","2017/07/13 13:29:47","新北市新店區安華路28-1號","121.519671666667","24.9612716666667","6500600","新店區"
"231004","899-TW","2017/07/13 13:29:54","新北市新店區安康路一段48號","121.530351666667","24.9610983333333","6500600","新店區"
"231037","AKT-0513","2017/07/13 13:26:15","新北市新店區薏仁坑路31號","121.494223333333","24.9620916666667","6500600","新店區"
"235030","003-UY","2017/07/13 13:29:54","新北市中和區中山路二段120號","121.502633333333","25.0038016666667","6500300","中和區"
"235028","005-UY","2017/07/13 13:29:59","新北市中和區圓通路141巷37弄1號","121.498983333333","24.9949583333333","6500300","中和區"
"235027","006-UY","2017/07/13 13:29:56","新北市中和區連城路347巷16弄1號","121.488446666667","24.9948866666667","6500300","中和區"
"235020","096-UM","2017/07/13 13:29:55","新北市中和區中正路899號","121.484301666667","25.0048383333333","6500300","中和區"
"235003","097-UM","2017/07/13 13:29:55","新北市中和區安平路38號","121.509688333333","24.9949266666667","6500300","中和區"
"235029","098-UM","2017/07/13 13:29:55","新北市中和區莊敬路49巷19號","121.501451666667","25.0058633333333","6500300","中和區"
"235004","150-BY","2017/07/13 13:29:51","新北市中和區保健路50巷66號","121.50932","24.9951866666667","6500300","中和區"
"235022","151-BY","2017/07/13 13:29:47","新北市中和區圓通路369巷165號","121.490141666667","24.9821816666667","6500300","中和區"
"235019","183-VK","2017/07/13 13:29:56","新北市中和區民享街245-1號","121.47222","24.9962533333333","6500300","中和區"
"235002","185-VK","2017/07/13 13:29:54","新北市中和區大智街106巷1號","121.524351666667","24.9925766666667","6500300","中和區"
"235013","186-VK","2017/07/13 13:29:53","新北市中和區景安路143號","121.505618333333","24.995435","6500300","中和區"
"235031","255-BX","2017/07/13 13:29:57","新北市中和區連城路328號","121.483265","24.9959316666667","6500300","中和區"
"235036","301-VK","2017/07/13 13:29:56","新北市中和區錦和路93巷2弄1號","121.490316666667","24.9956916666667","6500300","中和區"
"235007","352-BY","2017/07/13 13:29:57","新北市中和區景平路323號","121.505953333333","24.9931783333333","6500300","中和區"
"235015","376-QA","2017/07/13 13:29:43","新北市中和區華新街232巷7號","121.505821666667","24.98171","6500300","中和區"
"235032","377-QA","2017/07/13 13:29:55","新北市中和區錦和路350-1號","121.49062","24.99359","6500300","中和區"
"235025","378-QA","2017/07/13 13:29:52","新北市中和區民享街99號","121.474923333333","24.9998333333333","6500300","中和區"
"235014","4979-A6","2017/07/13 13:29:54","新北市中和區景新街410巷18-3號","121.512066666667","24.989135","6500300","中和區"
"235033","4980-A6","2017/07/13 13:29:43","新北市中和區連城路99巷45號","121.497093333333","24.9987616666667","6500300","中和區"
"235006","551-UM","2017/07/13 13:29:58","新北市中和區大仁街44號","121.518266666667","24.9938683333333","6500300","中和區"
"235009","565-BX","2017/07/13 13:29:47","新北市中和區復興路38號","121.504853333333","24.9900516666667","6500300","中和區"
"235034","611-BX","2017/07/13 13:29:48","新北市中和區圓通路120-2號","121.499061666667","24.9959783333333","6500300","中和區"
"235018","640-BX","2017/07/13 13:29:53","新北市中和區民享街106號","121.474695","24.9994216666667","6500300","中和區"
"235024","647-TV","2017/07/13 13:29:55","新北市中和區員山路72-1號","121.481038333333","24.993555","6500300","中和區"
"235011","732-UM","2017/07/13 13:29:45","新北市中和區南山路300號","121.50795","24.987135","6500300","中和區"
"235035","783-BX","2017/07/13 13:29:55","新北市中和區環中路138號","121.482145","25.01307","6500300","中和區"
"235026","800-TS","2017/07/13 13:29:57","新北市中和區景平路752號","121.496496666667","25.0044683333333","6500300","中和區"
"235021","801-TS","2017/07/13 13:29:57","新北市中和區民安街111巷4弄3號","121.47632","24.9989916666667","6500300","中和區"
"235005","802-TS","2017/07/13 13:29:43","新北市中和區中和路358號","121.510401666667","25.00169","6500300","中和區"
"235016","805-TS","2017/07/13 13:29:50","新北市中和區興南路二段133號","121.505236666667","24.98415","6500300","中和區"
"235012","896-TW","2017/07/13 13:29:56","新北市中和區錦和路350-1號","121.490185","24.993555","6500300","中和區"
"235017","900-TW","2017/07/13 13:29:56","新北市中和區民享街467號","121.469846666667","24.9925616666667","6500300","中和區"
"235001","AAC-213","2017/07/13 13:29:55","新北市中和區景德街53號","121.517638333333","24.99144","6500300","中和區"
"235023","AAC-215","2017/07/13 13:29:50","新北市中和區員山路36巷16-3號","121.485005","24.991345","6500300","中和區"
"220016","013-TV","2017/07/13 13:29:55","新北市板橋區民生路二段17號","121.47255","25.0164683333333","6500100","板橋區"
"220013","072-UY","2017/07/13 13:29:50","新北市板橋區民生路二段15-1號","121.472663333333","25.0163966666667","6500100","板橋區"
"220017","AAD-861","2017/07/13 13:29:46","新北市板橋區民生路二段36-1號","121.472615","25.01675","6500100","板橋區"
"247007","339-TH","2017/07/13 13:29:57","新北市五股區中興路三段163號","121.44898","25.0808633333333","6501400","蘆洲區"
"247003","056-VK","2017/07/13 13:29:57","新北市五股區中興路三段163號","121.449183333333","25.0807983333333","6501400","蘆洲區"
"247015","001-UY","2017/07/13 13:29:54","新北市五股區中興路三段2巷10號","121.448788333333","25.0815983333333","6501400","蘆洲區"
"228005","097-TW","2017/07/13 13:29:45","新北市貢寮區美豐里文秀坑8號","121.90265","25.050455","6502600","貢寮區"
"228004","212-TW","2017/07/13 13:28:04","新北市貢寮區龍崗里石壁坑街17-3號","121.910171666667","24.9892433333333","6502600","貢寮區"
"253005","295-VK","2017/07/13 10:21:24","新北市石門區中山路64-1號","121.567686666667","25.2903833333333","6502200","石門區"
"208004","AAC-292","2017/07/13 13:29:50","新北市金山區南勢湖74號","121.611261666667","25.2110533333333","6502700","金山區"
"207002","749-BX","2017/07/13 13:30:00","新北市萬里區崁腳里崁腳路166號","121.64494","25.1559233333333","6502800","萬里區"
"207001","463-BY","2017/07/13 13:29:49","新北市萬里區龜吼里玉田路46-10號","121.683196666667","25.1894033333333","6502800","萬里區"
"252005","073-UM","2017/07/13 08:47:30","新北市三芝區埔坪里埔頭坑41號","121.50447","25.264305","6502100","三芝區"
"252005","702-TV","2017/07/13 13:30:02","新北市三芝區福德里土地公埔67-3號","121.519905","25.2277583333333","6502100","三芝區"
"237001","159-UY","2017/07/12 02:41:16","新北市三峽區中山路459巷163-1號","121.349326666667","24.9334083333333","6500900","三峽區"
"236003","370-SL","2017/07/13 13:27:07","新北市土城區裕民路151號","121.452266666667","24.986025","6501300","土城區"
"236005","498-BY","2017/07/13 13:29:44","新北市土城區亞洲路11巷1弄2號","121.435148333333","24.9716316666667","6501300","土城區"
"242043","172-VK","2017/07/13 13:29:57","新北市新莊區民本街22號","121.428113333333","25.0197516666667","6500500","新莊區"
"242006","173-VK","2017/07/13 11:00:37","新北市新莊區三和路12-21號","121.442053333333","25.038775","6500500","新莊區"
"221002","753-BX","2017/07/13 13:29:47","新北市汐止區福德一路430巷22號","121.624818333333","25.0602283333333","6501100","汐止區"
"220027","145-BY","2017/07/13 13:29:47","新北市板橋區華東街1-9號","121.448246666667","24.9947866666667","6500100","板橋區"
"220030","610-BX","2017/07/13 13:29:44","新北市板橋區華東街1-9號","121.448235","24.9949416666667","6500100","板橋區"
"220004","276-BY","2017/07/13 13:29:51","新北市板橋區中山路一段8號","121.45991","25.00774","6500100","板橋區"
"220012","280-UM","2017/07/13 13:29:43","新北市板橋區民生路二段36-1號","121.472598333333","25.0165633333333","6500100","板橋區"
"220019","283-VK","2017/07/13 13:29:49","新北市板橋區民生路二段36-1號","121.472538333333","25.0165433333333","6500100","板橋區"
"220001","285-VK","2017/07/13 13:29:42","新北市板橋區民生路二段30號","121.472645","25.017035","6500100","板橋區"
"220029","287-VK","2017/07/13 13:29:46","新北市板橋區華東街1-10號","121.448248333333","24.9950333333333","6500100","板橋區"
"220032","296-UM","2017/07/13 13:29:58","新北市板橋區華東街1-9號","121.448123333333","24.9949533333333","6500100","板橋區"
"220023","297-UM","2017/07/13 13:29:55","新北市板橋區華東街1-9號","121.448146666667","24.9949733333333","6500100","板橋區"
"220010","305-R5","2017/07/13 13:29:55","新北市板橋區民生路二段15-1號","121.47277","25.016495","6500100","板橋區"
"220028","461-BY","2017/07/13 13:29:58","新北市板橋區華東街1-9號","121.4482","24.9948483333333","6500100","板橋區"
"220005","686-BX","2017/07/13 13:29:50","新北市板橋區民生路二段15-1號","121.472706666667","25.0164466666667","6500100","板橋區"
"220025","687-BX","2017/07/13 13:29:56","新北市板橋區大觀路三段59巷17弄6-1號","121.43711","24.99544","6500100","板橋區"
"220022","895-R6","2017/07/13 13:29:58","新北市板橋區南雅南路二段11-5號","121.454026666667","25.00227","6500100","板橋區"
