"lineid","car","time","location","longitude","latitude","cityid","cityname"
"234044","148-BY","2017/07/13 13:39:51","新北市永和區秀朗路二段179號","121.525835","25.001525","6500400","永和區"
"234012","149-BY","2017/07/13 13:39:55","新北市永和區永平路238巷7號","121.509271666667","25.0115116666667","6500400","永和區"
"234005","207-UY","2017/07/13 13:39:42","新北市永和區中山路一段102-1號","121.51107","25.01057","6500400","永和區"
"234078","298-R6","2017/07/13 13:39:59","新北市永和區林森路20巷11號","121.525603333333","25.006015","6500400","永和區"
"234036","336-UY","2017/07/13 13:39:46","新北市永和區民樂街39巷18弄2號","121.528536666667","24.99953","6500400","永和區"
"234062","337-UY","2017/07/13 13:39:55","新北市永和區秀朗路一段192巷6弄14號","121.5191","25.0022783333333","6500400","永和區"
"234084","338-UY","2017/07/13 13:39:57","新北市永和區林森路39巷2-1號","121.525243333333","25.00468","6500400","永和區"
"234068","552-UM","2017/07/13 13:39:53","新北市永和區竹林路58-2號","121.51809","25.0137933333333","6500400","永和區"
"234052","553-UM","2017/07/13 13:39:53","新北市永和區竹林路39巷14號","121.518471666667","25.0145183333333","6500400","永和區"
"234015","745-BX","2017/07/13 13:39:54","新北市永和區永和路二段299號","121.515986666667","25.0161216666667","6500400","永和區"
"234028","746-BX","2017/07/13 13:39:40","新北市永和區民生路45號","121.522945","24.9978566666667","6500400","永和區"
"234060","AAD-866","2017/07/13 13:39:55","新北市永和區永貞路208號","121.51566","25.00404","6500400","永和區"
"234066","847-RS","2017/07/13 13:39:51","新北市永和區中山路一段203號","121.508901666667","25.00867","6500400","永和區"
"234040","862-TW","2017/07/13 13:39:38","新北市永和區中和路305巷2弄2號","121.50669","25.0000133333333","6500400","永和區"
"234048","863-TW","2017/07/13 13:39:49","新北市永和區環河西路一段105號","121.511105","25.0175633333333","6500400","永和區"
"234025","9371-KE","2017/07/13 13:39:54","新北市永和區永平路210號","121.5094","25.01023","6500400","永和區"
"234010","9373-KE","2017/07/13 13:39:47","新北市永和區保福路二段15巷9號","121.510568333333","25.0109483333333","6500400","永和區"
"248013","025-BX","2017/07/13 13:39:56","新北市五股區民義路一段107巷32號","121.432195","25.0845333333333","6501500","五股區"
"248015","026-BX","2017/07/13 13:39:47","新北市五股區凌雲路一段149巷42號","121.44865","25.1009133333333","6501500","五股區"
"248005","077-UY","2017/07/13 13:39:57","新北市五股區中興路一段48號","121.468125","25.0727366666667","6501500","五股區"
"248007","095-VK","2017/07/13 13:39:46","新北市五股區中興路一段148號","121.464668333333","25.073935","6501500","五股區"
"248017","225-UY","2017/07/13 13:39:44","新北市五股區民義路二段48巷2-5號","121.4147","25.102585","6501500","五股區"
"248011","247-BX","2017/07/13 13:39:47","新北市五股區御成路12號","121.441851666667","25.091215","6501500","五股區"
"248009","272-BY","2017/07/13 13:39:52","新北市五股區水碓七路168號","121.430848333333","25.0739933333333","6501500","五股區"
"248003","677-BX","2017/07/13 13:39:46","新北市五股區民義路一段283號","121.425815","25.0927516666667","6501500","五股區"
"248001","678-BX","2017/07/13 13:39:58","新北市五股區西雲路262號","121.449053333333","25.0974683333333","6501500","五股區"
"234022","9380-KE","2017/07/13 13:39:53","新北市永和區中正路662巷23號","121.51754","25.0088216666667","6500400","永和區"
"234076","969-R7","2017/07/13 13:39:47","新北市永和區民權路30號","121.520225","24.99909","6500400","永和區"
"234072","AAC-211","2017/07/13 13:39:55","新北市永和區竹林路213巷21號","121.52222","25.0090016666667","6500400","永和區"
"234001","AAC-295","2017/07/13 13:39:44","新北市永和區福和路352號","121.514695","25.0073483333333","6500400","永和區"
"244003","248-BX","2017/07/13 13:34:13","新北市林口區瑞平里8鄰53號","121.342693333333","25.1221933333333","6501700","林口區"
"244016","485-VK","2017/07/13 10:56:56","新北市林口區粉寮69號","121.404981666667","25.0908616666667","6501700","林口區"
"243005","AAD-798","2017/07/13 13:39:51","新北市泰山區明志路三段206巷3號","121.423305","25.0379616666667","6501600","泰山區"
"243001","297-R6","2017/07/13 12:10:29","新北市泰山區黎明路25號","121.421951666667","25.0610416666667","6501600","泰山區"
"243007","380-SR","2017/07/13 13:40:02","新北市泰山區犁頭窠3-1號","121.422256666667","25.0605033333333","6501600","泰山區"
"243002","548-UM","2017/07/13 13:39:40","新北市泰山區黎明路25號","121.422048333333","25.0607083333333","6501600","泰山區"
"243004","646-TV","2017/07/13 13:39:50","新北市泰山區泰林路二段459號","121.425615","25.063975","6501600","泰山區"
"231002","002-UM","2017/07/13 13:39:43","新北市新店區溪園路393號","121.524278333333","24.979065","6500600","新店區"
"231025","0291-UT","2017/07/13 13:39:39","新北市新店區中央六街58號","121.527846666667","24.9757733333333","6500600","新店區"
"231028","046-UY","2017/07/13 13:39:50","新北市新店區安和路二段155號","121.51898","24.9742633333333","6500600","新店區"
"231030","047-UY","2017/07/13 13:39:50","新北市新店區安康路一段98號","121.527515","24.9622866666667","6500600","新店區"
"231029","106-UY","2017/07/13 13:39:53","新北市新店區安康路二段241號","121.508113333333","24.9585366666667","6500600","新店區"
"231018","107-UY","2017/07/13 13:39:42","新北市新店區百忍街12號","121.534695","24.9756416666667","6500600","新店區"
"231011","108-UY","2017/07/13 13:39:47","新北市新店區德正街27巷36號","121.545693333333","24.9714716666667","6500600","新店區"
"231021","187-VK","2017/07/13 13:39:56","新北市新店區永興路88-2號","121.544151666667","24.9331133333333","6500600","新店區"
"231007","189-VK","2017/07/13 11:59:52","新北市新店區安華路28-1號","121.519521666667","24.9611833333333","6500600","新店區"
"231026","256-BX","2017/07/13 13:39:44","新北市新店區中正路142號","121.5418","24.9715266666667","6500600","新店區"
"231010","278-BY","2017/07/13 13:39:55","新北市新店區中正路307巷17號","121.535895","24.9736216666667","6500600","新店區"
"231017","AAD-862","2017/07/13 13:40:00","新北市新店區竹林路2巷27弄1號","121.550263333333","24.950925","6500600","新店區"
"231027","3712-VJ","2017/07/13 13:40:02","新北市新店區北宜路一段115巷15號","121.540876666667","24.9548316666667","6500600","新店區"
"231024","3713-VJ","2017/07/13 13:39:51","新北市新店區中華路44號","121.539825","24.968285","6500600","新店區"
"231038","4715-K9","2017/07/13 13:39:43","新北市新店區安華路30巷1號","121.519591666667","24.9592583333333","6500600","新店區"
"231036","512-UM","2017/07/13 13:40:01","新北市新店區安祥路147巷1號","121.475076666667","24.9553883333333","6500600","新店區"
"231023","513-UM","2017/07/13 13:39:57","新北市新店區新店路143號","121.53706","24.9548066666667","6500600","新店區"
"231035","515-UM","2017/07/13 13:39:43","新北市新店區安忠路77號","121.511171666667","24.9572","6500600","新店區"
"231003","616-UM","2017/07/13 13:39:58","新北市新店區北新路一段126巷25號","121.543318333333","24.9700966666667","6500600","新店區"
"231001","619-UM","2017/07/13 13:39:44","新北市新店區中正路408號","121.534471666667","24.97767","6500600","新店區"
"231034","645-TV","2017/07/13 13:39:47","新北市新店區達觀路16號","121.50294","24.941045","6500600","新店區"
"231013","719-UM","2017/07/13 13:39:55","新北市新店區中正路418巷21號","121.53499","24.9787183333333","6500600","新店區"
"231031","720-UM","2017/07/13 13:39:51","新北市新店區莒光路61巷1-1號","121.523981666667","24.9584966666667","6500600","新店區"
"231005","897-TW","2017/07/13 13:39:52","新北市新店區寶中路72號","121.547875","24.9805916666667","6500600","新店區"
"231006","898-TW","2017/07/13 13:39:54","新北市新店區光明街1-1號","121.538151666667","24.959195","6500600","新店區"
"231004","899-TW","2017/07/13 13:39:54","新北市新店區北新路二段18號","121.542816666667","24.971305","6500600","新店區"
"231037","AKT-0513","2017/07/13 13:39:55","新北市新店區安康路二段317號","121.499376666667","24.9566516666667","6500600","新店區"
"235030","003-UY","2017/07/13 13:39:54","新北市中和區水源路7巷2號","121.503806666667","25.0036033333333","6500300","中和區"
"235028","005-UY","2017/07/13 13:39:59","新北市中和區連城路97號","121.496538333333","24.99986","6500300","中和區"
"235027","006-UY","2017/07/13 13:39:53","新北市中和區連城路389巷20號","121.486585","24.9951416666667","6500300","中和區"
"235020","096-UM","2017/07/13 13:39:55","新北市中和區員山路466巷18號","121.480933333333","25.0065166666667","6500300","中和區"
"235003","097-UM","2017/07/13 13:39:55","新北市中和區大勇街27巷5號","121.517081666667","24.99359","6500300","中和區"
"235029","098-UM","2017/07/13 13:39:45","新北市中和區莊敬路33巷36弄2號","121.500133333333","25.0064283333333","6500300","中和區"
"235004","150-BY","2017/07/13 13:39:51","新北市中和區安平路59號","121.50953","24.9950783333333","6500300","中和區"
"235022","151-BY","2017/07/13 13:39:47","新北市中和區員山路7-1號","121.483393333333","24.98542","6500300","中和區"
"235019","183-VK","2017/07/13 13:39:56","新北市中和區莒光路84巷2號","121.471935","25.0025166666667","6500300","中和區"
"235002","185-VK","2017/07/13 13:39:54","新北市中和區自強路6-2號","121.51994","24.9960083333333","6500300","中和區"
"235013","186-VK","2017/07/13 13:39:53","新北市中和區明義街11巷5號","121.503821666667","24.9946966666667","6500300","中和區"
"235031","255-BX","2017/07/13 13:39:57","新北市中和區新生街242巷9號","121.482953333333","24.9977283333333","6500300","中和區"
"235036","301-VK","2017/07/13 13:39:56","新北市中和區連城路139巷64號","121.496678333333","24.996765","6500300","中和區"
"235007","352-BY","2017/07/13 13:39:57","新北市中和區景平路159巷7號","121.512825","24.9919216666667","6500300","中和區"
"235015","376-QA","2017/07/13 13:39:43","新北市中和區興南路二段114巷10弄3號","121.503945","24.9850816666667","6500300","中和區"
"235032","377-QA","2017/07/13 13:39:55","新北市中和區中正路271-3號","121.49584","24.993455","6500300","中和區"
"235025","378-QA","2017/07/13 13:39:52","新北市中和區民享街92巷5號","121.474351666667","24.9997333333333","6500300","中和區"
"235014","4979-A6","2017/07/13 13:39:54","新北市中和區景新街496巷30弄1號","121.513365","24.9854533333333","6500300","中和區"
"235033","4980-A6","2017/07/13 13:39:43","新北市中和區泰和街3號","121.499873333333","25.0007583333333","6500300","中和區"
"235006","551-UM","2017/07/13 13:39:58","新北市中和區自立路56巷9號","121.523041666667","24.9917183333333","6500300","中和區"
"235009","565-BX","2017/07/13 13:39:47","新北市中和區復興路49巷2號","121.504571666667","24.9898366666667","6500300","中和區"
"235034","611-BX","2017/07/13 13:39:48","新北市中和區南華路5號","121.502051666667","24.99559","6500300","中和區"
"235018","640-BX","2017/07/13 13:39:53","新北市中和區民享街86巷9號","121.473961666667","25.00075","6500300","中和區"
"235024","647-TV","2017/07/13 13:39:55","新北市中和區員山路467號","121.480365","25.0045166666667","6500300","中和區"
"235011","732-UM","2017/07/13 13:39:45","新北市中和區南山路320巷10弄14號","121.506855","24.9867566666667","6500300","中和區"
"235035","783-BX","2017/07/13 13:39:56","新北市中和區環河西路三段198號","121.487001666667","25.0161133333333","6500300","中和區"
"235026","800-TS","2017/07/13 13:39:57","新北市中和區中山路二段312巷6號","121.495666666667","25.0027716666667","6500300","中和區"
"235021","801-TS","2017/07/13 13:39:57","新北市中和區民安街41號","121.479955","25.0002716666667","6500300","中和區"
"235005","802-TS","2017/07/13 13:39:42","新北市中和區中安街80號","121.512095","25.0019","6500300","中和區"
"235016","805-TS","2017/07/13 13:39:50","新北市中和區興南路三段52巷2-5號","121.494288333333","24.975795","6500300","中和區"
"235012","896-TW","2017/07/13 13:39:56","新北市中和區中正路63號","121.501326666667","24.9933583333333","6500300","中和區"
"235017","900-TW","2017/07/13 13:39:56","新北市中和區民享街494號","121.469716666667","24.99223","6500300","中和區"
"235001","AAC-213","2017/07/13 13:39:55","新北市中和區景德街141號","121.514516666667","24.99092","6500300","中和區"
"235023","AAC-215","2017/07/13 13:39:50","新北市中和區員山路36巷16-2號","121.485308333333","24.9917283333333","6500300","中和區"
"220016","013-TV","2017/07/13 13:39:55","新北市板橋區民生路二段17號","121.472653333333","25.016455","6500100","板橋區"
"220104","015-TV","2017/07/13 13:39:41","新北市板橋區南雅南路二段140號","121.451663333333","24.9962566666667","6500100","板橋區"
"220013","072-UY","2017/07/13 13:39:30","新北市板橋區民生路二段15-1號","121.472726666667","25.0164666666667","6500100","板橋區"
"220017","AAD-861","2017/07/13 13:39:46","新北市板橋區民生路二段36-1號","121.47262","25.0167816666667","6500100","板橋區"
"247007","339-TH","2017/07/13 13:39:57","新北市蘆洲區復興路323巷140號","121.48089","25.09564","6501400","蘆洲區"
"247001","336-TH","2017/07/13 13:39:59","新北市五股區成洲一路23號","121.450276666667","25.0961783333333","6501400","蘆洲區"
"247003","056-VK","2017/07/13 13:39:57","新北市蘆洲區中原路71號","121.458498333333","25.082","6501400","蘆洲區"
"247015","001-UY","2017/07/13 13:39:54","新北市五股區成泰路三段544-1號","121.455015","25.1009433333333","6501400","蘆洲區"
"228005","097-TW","2017/07/13 13:39:45","新北市貢寮區美豐里文秀坑1-3號","121.905021666667","25.0539016666667","6502600","貢寮區"
"228004","212-TW","2017/07/13 13:39:44","新北市貢寮區龍崗里嵩陽街41號","121.905208333333","25.01303","6502600","貢寮區"
"253005","295-VK","2017/07/13 10:21:24","新北市石門區中山路64-1號","121.567686666667","25.2903833333333","6502200","石門區"
"208004","AAC-292","2017/07/13 13:39:50","新北市金山區南勢湖24號","121.617565","25.218245","6502700","金山區"
"207002","749-BX","2017/07/13 13:39:40","新北市萬里區崁腳里崁腳路166號","121.644925","25.15591","6502800","萬里區"
"207001","463-BY","2017/07/13 13:39:49","新北市萬里區大鵬里萬里加投59-1號","121.642338333333","25.2125316666667","6502800","萬里區"
"252005","073-UM","2017/07/13 08:47:30","新北市三芝區埔坪里埔頭坑41號","121.50447","25.264305","6502100","三芝區"
"252005","702-TV","2017/07/13 13:39:43","新北市三芝區圓山里五腳松10號","121.528755","25.2207966666667","6502100","三芝區"
"237001","159-UY","2017/07/13 13:39:52","新北市鶯歌區文化路407-1號","121.353205","24.9498483333333","6500900","三峽區"
"236040","107-UM","2017/07/13 13:39:53","新北市土城區城林路6巷80號","121.43843","24.9797066666667","6501300","土城區"
"236076","166-UM","2017/07/13 13:39:42","新北市土城區中華路二段2號","121.439086666667","24.9797966666667","6501300","土城區"
"236028","253-BX","2017/07/13 13:39:43","新北市土城區城林路6巷80號","121.438338333333","24.9798716666667","6501300","土城區"
"236012","270-VK","2017/07/13 13:39:55","新北市土城區城林路6巷80號","121.438313333333","24.9797483333333","6501300","土城區"
"236003","370-SL","2017/07/13 13:27:07","新北市土城區裕民路151號","121.452266666667","24.986025","6501300","土城區"
"236018","401-BY","2017/07/13 13:39:49","新北市土城區城林路6巷80號","121.438568333333","24.9797916666667","6501300","土城區"
"236005","498-BY","2017/07/13 13:39:43","新北市土城區中華路二段92-1號","121.437985","24.9747716666667","6501300","土城區"
"236047","913-UM","2017/07/13 13:39:54","新北市土城區城林路6巷80號","121.438315","24.9797733333333","6501300","土城區"
"236052","AAC-216","2017/07/13 13:40:02","新北市土城區城林路6巷80號","121.43835","24.9797733333333","6501300","土城區"
"242006","173-VK","2017/07/13 11:00:37","新北市新莊區三和路12-21號","121.442053333333","25.038775","6500500","新莊區"
"221002","753-BX","2017/07/13 13:39:47","新北市汐止區福德二路77-2號","121.633195","25.06586","6501100","汐止區"
"220027","145-BY","2017/07/13 13:39:47","新北市板橋區華東街330號","121.452751666667","25.0035066666667","6500100","板橋區"
"220030","610-BX","2017/07/13 13:39:44","新北市板橋區華東街1-10號","121.448258333333","24.9949233333333","6500100","板橋區"
"220004","276-BY","2017/07/13 13:39:51","新北市板橋區四川路二段245巷66號","121.453223333333","24.9916183333333","6500100","板橋區"
"220020","277-BY","2017/07/13 13:39:53","新北市板橋區華東街1-10號","121.448278333333","24.9950516666667","6500100","板橋區"
"220012","280-UM","2017/07/13 13:39:43","新北市板橋區民生路二段36-1號","121.472545","25.0166766666667","6500100","板橋區"
"220019","283-VK","2017/07/13 13:39:49","新北市板橋區民生路二段36-1號","121.472666666667","25.016645","6500100","板橋區"
"220043","285-UM","2017/07/13 13:39:55","新北市板橋區民生路二段161巷1號","121.47014","25.0201033333333","6500100","板橋區"
"220001","285-VK","2017/07/13 13:39:42","新北市板橋區民生路二段36-1號","121.472583333333","25.0167433333333","6500100","板橋區"
"220031","286-VK","2017/07/13 13:39:42","新北市板橋區華東街1-9號","121.448258333333","24.9948533333333","6500100","板橋區"
"220029","287-VK","2017/07/13 13:39:47","新北市板橋區華東街1-10號","121.448216666667","24.9950166666667","6500100","板橋區"
"220039","288-VK","2017/07/13 13:39:56","新北市板橋區民生路二段161巷9號","121.470335","25.019575","6500100","板橋區"
"220009","293-UM","2017/07/13 13:39:41","新北市板橋區民生路二段36-1號","121.472445","25.0167483333333","6500100","板橋區"
"220032","296-UM","2017/07/13 13:39:58","新北市板橋區華東街1-9號","121.448138333333","24.99493","6500100","板橋區"
"220023","297-UM","2017/07/13 13:39:55","新北市板橋區華東街1-9號","121.448141666667","24.9949766666667","6500100","板橋區"
"220010","305-R5","2017/07/13 13:39:55","新北市板橋區民生路二段22號","121.472741666667","25.0165033333333","6500100","板橋區"
"220047","317-R6","2017/07/13 13:39:41","新北市板橋區民生路二段180號","121.470638333333","25.0202283333333","6500100","板橋區"
"220028","461-BY","2017/07/13 13:39:58","新北市板橋區華東街1-9號","121.448195","24.99486","6500100","板橋區"
"220005","686-BX","2017/07/13 13:39:50","新北市板橋區民生路二段36-1號","121.472631666667","25.0165533333333","6500100","板橋區"
"220025","687-BX","2017/07/13 13:39:56","新北市板橋區大觀路三段212巷70號","121.429805","24.9934983333333","6500100","板橋區"
"220002","741-BX","2017/07/13 13:39:50","新北市板橋區民生路二段36-1號","121.472476666667","25.0166066666667","6500100","板橋區"
"220014","829-TW","2017/07/13 13:39:52","新北市板橋區民生路二段15-1號","121.472836666667","25.0163966666667","6500100","板橋區"
"220051","830-TW","2017/07/13 13:39:41","新北市板橋區民生路二段161巷1號","121.469941666667","25.0199283333333","6500100","板橋區"
"220045","831-TW","2017/07/13 01:19:30","新北市板橋區民生路二段120號","121.470478333333","25.0196683333333","6500100","板橋區"
"220022","895-R6","2017/07/13 13:39:58","新北市板橋區南雅南路一段2-2號","121.456175","25.0069283333333","6500100","板橋區"
"220021","985-R7","2017/07/13 13:39:49","新北市板橋區華東街1-10號","121.448338333333","24.9949533333333","6500100","板橋區"
"220046","AAC-210","2017/07/13 13:39:58","新北市板橋區民生路二段161巷5號","121.470286666667","25.0197316666667","6500100","板橋區"
"220018","AAC-253","2017/07/13 13:40:00","新北市板橋區民生路二段36-1號","121.472626666667","25.01664","6500100","板橋區"
