"lineid","car","time","location","longitude","latitude","cityid","cityname"
"234044","148-BY","2017/07/13 13:59:51","新北市永和區永利路248號","121.524245","25.0030033333333","6500400","永和區"
"234012","149-BY","2017/07/13 13:59:55","新北市永和區保順路11號","121.504763333333","25.009755","6500400","永和區"
"234005","207-UY","2017/07/13 13:59:43","新北市永和區中和路525號","121.511306666667","25.0029466666667","6500400","永和區"
"234078","298-R6","2017/07/13 13:59:59","新北市永和區國中路17號","121.524326666667","25.0049883333333","6500400","永和區"
"234036","336-UY","2017/07/13 13:59:46","新北市永和區成功路二段118號","121.526501666667","24.9977833333333","6500400","永和區"
"234062","337-UY","2017/07/13 13:59:55","新北市永和區秀朗路一段196巷11號","121.519843333333","25.0027516666667","6500400","永和區"
"234084","338-UY","2017/07/13 13:59:57","新北市永和區永利路35號","121.518631666667","25.0057016666667","6500400","永和區"
"234068","552-UM","2017/07/13 13:59:53","新北市永和區中正路626號","121.516985","25.0079366666667","6500400","永和區"
"234052","553-UM","2017/07/13 13:59:46","新北市永和區竹林路73-1號","121.518576666667","25.0133966666667","6500400","永和區"
"234015","745-BX","2017/07/13 13:59:54","新北市永和區文化路14號","121.515338333333","25.015085","6500400","永和區"
"234028","746-BX","2017/07/13 14:00:00","新北市永和區民權路51號","121.520083333333","24.99699","6500400","永和區"
"234060","AAD-866","2017/07/13 13:59:55","新北市永和區中正路283巷1-1號","121.517398333333","25.00095","6500400","永和區"
"234066","847-RS","2017/07/13 13:59:51","新北市永和區永貞路364號","121.510168333333","25.0066883333333","6500400","永和區"
"234040","862-TW","2017/07/13 13:59:58","新北市永和區中和路421巷16弄2號","121.508856666667","25.0012633333333","6500400","永和區"
"234048","863-TW","2017/07/13 13:59:49","新北市永和區保安路292號","121.505253333333","25.0118283333333","6500400","永和區"
"234025","9371-KE","2017/07/13 13:59:54","新北市永和區安樂路451號","121.514328333333","25.0049516666667","6500400","永和區"
"234010","9373-KE","2017/07/13 13:59:47","新北市永和區仁愛路352巷92弄16號","121.501395","25.0082066666667","6500400","永和區"
"248015","026-BX","2017/07/13 13:59:47","新北市五股區成泰路三段543巷5號","121.450876666667","25.1021583333333","6501500","五股區"
"248007","095-VK","2017/07/13 13:59:46","新北市五股區中興路一段128巷12號","121.465676666667","25.0744266666667","6501500","五股區"
"248017","225-UY","2017/07/13 13:59:44","新北市五股區民義路一段220巷5-8號","121.428408333333","25.09337","6501500","五股區"
"248011","247-BX","2017/07/13 13:58:27","新北市五股區御史路95號","121.440208333333","25.09489","6501500","五股區"
"248009","272-BY","2017/07/13 13:59:52","新北市五股區水碓一路23號","121.430563333333","25.0712583333333","6501500","五股區"
"248003","677-BX","2017/07/13 13:59:46","新北市五股區民義路二段50-1號","121.412003333333","25.1029183333333","6501500","五股區"
"248001","678-BX","2017/07/13 13:59:53","新北市五股區凌雲路一段156巷1號","121.448858333333","25.1026633333333","6501500","五股區"
"234022","9380-KE","2017/07/13 13:59:53","新北市永和區永和路二段336號","121.516441666667","25.01667","6500400","永和區"
"234076","969-R7","2017/07/13 13:59:53","新北市永和區民族街43巷3號","121.518681666667","24.9984633333333","6500400","永和區"
"234072","AAC-211","2017/07/13 13:59:42","新北市永和區豫溪街134號","121.521046666667","25.0102633333333","6500400","永和區"
"234001","AAC-295","2017/07/13 13:59:45","新北市永和區福和路299號","121.516423333333","25.0073","6500400","永和區"
"244003","248-BX","2017/07/13 13:59:53","新北市八里區中山路三段409號","121.368676666667","25.1343483333333","6501700","林口區"
"244016","485-VK","2017/07/13 10:56:56","新北市林口區粉寮69號","121.404981666667","25.0908616666667","6501700","林口區"
"243005","AAD-798","2017/07/13 13:59:51","新北市泰山區明志路三段243號","121.423506666667","25.037635","6501600","泰山區"
"243001","297-R6","2017/07/13 13:59:51","新北市泰山區福德街4號","121.432436666667","25.0622533333333","6501600","泰山區"
"243007","380-SR","2017/07/13 13:59:42","新北市泰山區明志路一段224號","121.432588333333","25.06134","6501600","泰山區"
"243006","421-VK","2017/07/13 13:59:52","新北市泰山區黎明路23號","121.420888333333","25.0626116666667","6501600","泰山區"
"243002","548-UM","2017/07/13 13:59:40","新北市泰山區辭修路24號","121.42908","25.0581716666667","6501600","泰山區"
"243003","549-UM","2017/07/13 13:59:57","新北市泰山區明志路二段320巷2弄7號","121.426106666667","25.046625","6501600","泰山區"
"243004","646-TV","2017/07/13 13:59:50","新北市泰山區仁德路110號","121.432726666667","25.0568466666667","6501600","泰山區"
"243008","680-BX","2017/07/13 13:59:52","新北市泰山區明志路二段211號","121.42744","25.0486733333333","6501600","泰山區"
"231002","002-UM","2017/07/13 13:59:43","新北市新店區中正路634號","121.534038333333","24.9890783333333","6500600","新店區"
"231025","0291-UT","2017/07/13 13:59:39","新北市新店區中央路7號","121.533495","24.978565","6500600","新店區"
"231028","046-UY","2017/07/13 13:59:46","新北市新店區安和路三段151號","121.516621666667","24.9855016666667","6500600","新店區"
"231030","047-UY","2017/07/13 13:59:45","新北市新店區安康路一段302-2號","121.517475","24.9641066666667","6500600","新店區"
"231029","106-UY","2017/07/13 13:59:53","新北市新店區安康路二段57號","121.514141666667","24.9632816666667","6500600","新店區"
"231018","107-UY","2017/07/13 13:59:42","新北市新店區中央路116號","121.531108333333","24.975105","6500600","新店區"
"231011","108-UY","2017/07/13 13:59:47","新北市新店區中興路一段282-5號","121.546326666667","24.9681666666667","6500600","新店區"
"231021","187-VK","2017/07/13 13:59:56","新北市新店區自強路72號","121.546125","24.9249533333333","6500600","新店區"
"231007","189-VK","2017/07/13 11:59:52","新北市新店區安華路28-1號","121.519521666667","24.9611833333333","6500600","新店區"
"231026","256-BX","2017/07/13 13:59:44","新北市新店區安康路一段3-1號","121.534433333333","24.9608033333333","6500600","新店區"
"231017","AAD-862","2017/07/13 13:59:47","新北市新店區北宜路二段233號","121.553683333333","24.9534566666667","6500600","新店區"
"231027","3712-VJ","2017/07/13 13:59:42","新北市新店區北宜路一段39巷20號","121.538841666667","24.958445","6500600","新店區"
"231024","3713-VJ","2017/07/13 13:59:55","新北市新店區力行路14巷8號","121.53932","24.96504","6500600","新店區"
"231038","4715-K9","2017/07/13 13:59:43","新北市新店區溪洲路121號","121.531186666667","24.9628","6500600","新店區"
"231036","512-UM","2017/07/13 13:59:41","新北市新店區安祥路110巷2號","121.474743333333","24.95701","6500600","新店區"
"231023","513-UM","2017/07/13 13:59:57","新北市新店區文中路40號","121.539773333333","24.9565033333333","6500600","新店區"
"231035","515-UM","2017/07/13 13:59:43","新北市新店區安和路一段52巷2號","121.517608333333","24.9661983333333","6500600","新店區"
"231003","616-UM","2017/07/13 13:59:58","新北市新店區光明街96巷3號","121.539486666667","24.9600266666667","6500600","新店區"
"231001","619-UM","2017/07/13 13:59:44","新北市新店區三民路24號","121.537111666667","24.9710033333333","6500600","新店區"
"231034","645-TV","2017/07/13 13:59:47","新北市新店區達觀路1-1號","121.50503","24.94362","6500600","新店區"
"231013","719-UM","2017/07/13 13:59:55","新北市新店區明德路66號","121.541573333333","24.9795516666667","6500600","新店區"
"231031","720-UM","2017/07/13 13:59:51","新北市新店區華城路6號","121.530206666667","24.9604233333333","6500600","新店區"
"231005","897-TW","2017/07/13 13:59:52","新北市新店區寶中路47-3號","121.545438333333","24.979325","6500600","新店區"
"231006","898-TW","2017/07/13 13:59:47","新北市新店區北宜路二段209號","121.553183333333","24.9533416666667","6500600","新店區"
"231004","899-TW","2017/07/13 13:59:54","新北市新店區寶橋路8號","121.54383","24.9737066666667","6500600","新店區"
"231037","AKT-0513","2017/07/13 13:59:55","新北市新店區安康路三段355巷1號","121.484438333333","24.9506433333333","6500600","新店區"
"235030","003-UY","2017/07/13 13:59:54","新北市中和區中山路二段131巷5弄4號","121.502916666667","25.0028416666667","6500300","中和區"
"235028","005-UY","2017/07/13 13:59:59","新北市中和區連城路75巷13號","121.498585","24.9983816666667","6500300","中和區"
"235027","006-UY","2017/07/13 13:59:53","新北市中和區中正路573號","121.486583333333","24.9944583333333","6500300","中和區"
"235020","096-UM","2017/07/13 13:59:55","新北市中和區中正路1222號","121.479545","25.0106983333333","6500300","中和區"
"235003","097-UM","2017/07/13 13:59:55","新北市中和區景平路64巷13弄22號","121.521475","24.9914616666667","6500300","中和區"
"235029","098-UM","2017/07/13 13:59:55","新北市中和區勝利路35巷3弄2號","121.499136666667","25.0070116666667","6500300","中和區"
"235004","150-BY","2017/07/13 13:59:55","新北市中和區保健路46巷1號","121.509721666667","24.9969966666667","6500300","中和區"
"235022","151-BY","2017/07/13 13:59:47","新北市中和區員山路75號","121.480683333333","24.994085","6500300","中和區"
"235019","183-VK","2017/07/13 13:59:56","新北市中和區民生街93-2號","121.46853","25.0047366666667","6500300","中和區"
"235002","185-VK","2017/07/13 13:59:55","新北市中和區大勇街43巷12號","121.517271666667","24.9947433333333","6500300","中和區"
"235013","186-VK","2017/07/13 13:59:58","新北市中和區景安路167巷3號","121.505715","24.99462","6500300","中和區"
"235031","255-BX","2017/07/13 13:59:57","新北市中和區連城路340巷14弄4號","121.483301666667","24.9972333333333","6500300","中和區"
"235008","293-VK","2017/07/13 13:59:41","新北市中和區中興街129號","121.499965","24.99163","6500300","中和區"
"235036","301-VK","2017/07/13 13:59:56","新北市中和區中山路二段89號","121.503641666667","25.0040316666667","6500300","中和區"
"235007","352-BY","2017/07/13 13:59:57","新北市中和區成功路1號","121.526503333333","24.9942516666667","6500300","中和區"
"235015","376-QA","2017/07/13 13:59:43","新北市中和區忠孝街106巷44號","121.513376666667","24.984195","6500300","中和區"
"235032","377-QA","2017/07/13 13:59:35","新北市中和區圓通路265巷60號","121.496255","24.9924583333333","6500300","中和區"
"235025","378-QA","2017/07/13 13:59:52","新北市中和區民有街82號","121.476061666667","25.0041483333333","6500300","中和區"
"235014","4979-A6","2017/07/13 13:59:54","新北市中和區華新街42號","121.507855","24.984255","6500300","中和區"
"235033","4980-A6","2017/07/13 13:59:43","新北市中和區中和路219-3號","121.504173333333","25.00016","6500300","中和區"
"235006","551-UM","2017/07/13 13:59:58","新北市中和區秀朗路三段128巷38弄2號","121.524708333333","24.993925","6500300","中和區"
"235009","565-BX","2017/07/13 13:59:47","新北市中和區景新街467巷11號","121.513701666667","24.98826","6500300","中和區"
"235034","611-BX","2017/07/13 13:59:48","新北市中和區南山路6號","121.501998333333","24.9987333333333","6500300","中和區"
"235018","640-BX","2017/07/13 13:59:53","新北市中和區民享街29-1號","121.474018333333","25.0042816666667","6500300","中和區"
"235024","647-TV","2017/07/13 13:59:57","新北市中和區中山路三段136號","121.473968333333","25.0062133333333","6500300","中和區"
"235011","732-UM","2017/07/13 13:59:25","新北市中和區興南路二段77號","121.506605","24.9849516666667","6500300","中和區"
"235010","733-UM","2017/07/13 13:59:47","新北市中和區興南路二段3巷15弄3號","121.508548333333","24.9863633333333","6500300","中和區"
"235035","783-BX","2017/07/13 13:59:55","新北市中和區立德街32號","121.489088333333","25.0070933333333","6500300","中和區"
"235026","800-TS","2017/07/13 13:59:57","新北市中和區中山路二段340巷63號","121.492745","25.0048066666667","6500300","中和區"
"235021","801-TS","2017/07/13 13:59:57","新北市中和區民安街25巷10號","121.480575","24.9999383333333","6500300","中和區"
"235005","802-TS","2017/07/13 13:59:42","新北市中和區永貞路241號","121.513053333333","25.00378","6500300","中和區"
"235016","805-TS","2017/07/13 13:59:50","新北市中和區興南路二段261巷6號","121.504195","24.9805816666667","6500300","中和區"
"235012","896-TW","2017/07/13 13:59:56","新北市中和區華新街61號","121.50796","24.9842366666667","6500300","中和區"
"235017","900-TW","2017/07/13 13:59:56","新北市中和區民德路298巷17號","121.466305","24.99554","6500300","中和區"
"235001","AAC-213","2017/07/13 13:59:55","新北市中和區自立路177巷6號","121.523468333333","24.9921433333333","6500300","中和區"
"235023","AAC-215","2017/07/13 13:59:50","新北市中和區圓通路367巷20弄23號","121.491371666667","24.9882883333333","6500300","中和區"
"220016","013-TV","2017/07/13 13:59:55","新北市板橋區中山路二段465巷22號","121.481505","25.0210616666667","6500100","板橋區"
"220104","015-TV","2017/07/13 13:59:58","新北市板橋區南雅西路二段301巷65號","121.451915","25.0171733333333","6500100","板橋區"
"220013","072-UY","2017/07/13 13:59:57","新北市板橋區民族路247巷9弄12號","121.471091666667","25.008325","6500100","板橋區"
"220034","073-UY","2017/07/13 14:00:01","新北市板橋區民權路312號","121.456993333333","25.0162633333333","6500100","板橋區"
"220017","AAD-861","2017/07/13 13:59:46","新北市板橋區大華街19號","121.459065","25.00597","6500100","板橋區"
"220105","120-SR","2017/07/13 13:59:44","新北市板橋區文化路二段124巷28-2號","121.471268333333","25.0256716666667","6500100","板橋區"
"247019","893-R6","2017/07/13 13:59:56","新北市蘆洲區民族路422巷84-1號","121.473585","25.09389","6501400","蘆洲區"
"247009","546-UM","2017/07/13 13:59:54","新北市蘆洲區集賢路224巷23號","121.4816","25.0870066666667","6501400","蘆洲區"
"247017","500-BY","2017/07/13 13:59:47","新北市蘆洲區民族路327巷100-1號","121.47502","25.0902216666667","6501400","蘆洲區"
"247005","341-TH","2017/07/13 13:59:47","新北市蘆洲區中山一路280號","121.47142","25.0791383333333","6501400","蘆洲區"
"247007","339-TH","2017/07/13 13:59:57","新北市蘆洲區國道路二段25號","121.47479","25.07389","6501400","蘆洲區"
"247001","336-TH","2017/07/13 14:00:00","新北市蘆洲區永平街32巷70號","121.460455","25.0934","6501400","蘆洲區"
"247013","057-VK","2017/07/13 13:59:44","新北市蘆洲區保和街81號","121.469098333333","25.0861933333333","6501400","蘆洲區"
"247003","056-VK","2017/07/13 13:59:57","新北市蘆洲區長榮路24號","121.463645","25.0825116666667","6501400","蘆洲區"
"247011","007-UY","2017/07/13 13:59:46","新北市蘆洲區民族路156號","121.4796","25.0861683333333","6501400","蘆洲區"
"247021","002-UY","2017/07/13 13:59:52","新北市蘆洲區中正路261號","121.467416666667","25.0872983333333","6501400","蘆洲區"
"247015","001-UY","2017/07/13 13:59:54","新北市蘆洲區光華路22巷4號","121.469441666667","25.08371","6501400","蘆洲區"
"228005","097-TW","2017/07/13 13:59:45","新北市貢寮區美豐里雞母嶺街52-1號","121.888511666667","25.0684183333333","6502600","貢寮區"
"228004","212-TW","2017/07/13 13:59:44","新北市貢寮區龍崗里嵩陽街35-3號","121.906703333333","25.0174266666667","6502600","貢寮區"
"253005","295-VK","2017/07/13 10:21:24","新北市石門區中山路64-1號","121.567686666667","25.2903833333333","6502200","石門區"
"208004","AAC-292","2017/07/13 13:59:49","新北市金山區重和里三重橋17號","121.589605","25.1889483333333","6502700","金山區"
"207002","749-BX","2017/07/13 13:54:10","新北市萬里區溪底里烏塗炭1號","121.63881","25.1532666666667","6502800","萬里區"
"207001","463-BY","2017/07/13 13:59:49","新北市萬里區磺潭里清水18號","121.637645","25.1979816666667","6502800","萬里區"
"252005","073-UM","2017/07/13 08:47:30","新北市三芝區埔坪里埔頭坑41號","121.50447","25.264305","6502100","三芝區"
"252005","702-TV","2017/07/13 13:58:41","新北市三芝區圓山里二坪頂67號","121.539383333333","25.23349","6502100","三芝區"
"237001","159-UY","2017/07/13 13:59:57","新北市三峽區中山路459巷137號","121.349313333333","24.9338166666667","6500900","三峽區"
"236066","105-UM","2017/07/13 13:59:51","新北市土城區城林路6巷80號","121.43834","24.9795483333333","6501300","土城區"
"236040","107-UM","2017/07/13 14:00:01","新北市土城區裕生路61號","121.447666666667","24.9860766666667","6501300","土城區"
"236076","166-UM","2017/07/13 13:59:57","新北市土城區永寧路32巷10弄3號","121.42887","24.96097","6501300","土城區"
"236028","253-BX","2017/07/13 13:59:43","新北市土城區城林路6巷80號","121.438403333333","24.9798183333333","6501300","土城區"
"236024","269-VK","2017/07/13 13:59:51","新北市土城區承天路67號","121.439438333333","24.9636566666667","6501300","土城區"
"236012","270-VK","2017/07/13 13:59:55","新北市土城區學府路二段125號","121.44841","24.9807283333333","6501300","土城區"
"236033","271-VK","2017/07/13 13:59:44","新北市土城區員福街10號","121.441695","24.9785166666667","6501300","土城區"
"236003","370-SL","2017/07/13 13:57:51","新北市土城區學府路一段294號","121.449458333333","24.9825566666667","6501300","土城區"
"236018","401-BY","2017/07/13 13:59:49","新北市土城區城林路6巷80號","121.438335","24.9797716666667","6501300","土城區"
"236005","498-BY","2017/07/13 13:59:43","新北市土城區中央路二段78號","121.44243","24.9789933333333","6501300","土城區"
"236056","912-UM","2017/07/13 13:59:52","新北市土城區中央路三段196號","121.430356666667","24.9649433333333","6501300","土城區"
"236047","913-UM","2017/07/13 13:59:54","新北市土城區城林路6巷80號","121.43833","24.9798133333333","6501300","土城區"
"236060","915-UM","2017/07/13 13:59:49","新北市土城區城林路6巷80號","121.438458333333","24.9798216666667","6501300","土城區"
"236052","AAC-216","2017/07/13 13:59:42","新北市土城區中華路二段82號","121.438788333333","24.9762866666667","6501300","土城區"
"242006","173-VK","2017/07/13 11:00:37","新北市新莊區三和路12-21號","121.442053333333","25.038775","6500500","新莊區"
"220027","145-BY","2017/07/13 13:59:52","新北市板橋區中正路37號","121.456318333333","25.013115","6500100","板橋區"
"220030","610-BX","2017/07/13 13:59:44","新北市板橋區篤行路三段93號","121.426536666667","24.98478","6500100","板橋區"
"220050","245-BX","2017/07/13 13:59:43","新北市板橋區文化路二段22號","121.468843333333","25.0244333333333","6500100","板橋區"
"220052","257-TC","2017/07/13 13:59:45","新北市板橋區介壽街120號","121.469858333333","25.0177166666667","6500100","板橋區"
"220004","276-BY","2017/07/13 13:59:52","新北市板橋區信義路129號","121.457886666667","24.9932116666667","6500100","板橋區"
"220020","277-BY","2017/07/13 13:59:53","新北市板橋區大觀路三段36巷5-3號","121.432911666667","24.99589","6500100","板橋區"
"220012","280-UM","2017/07/13 13:59:43","新北市板橋區中山路一段291-2號","121.470476666667","25.014245","6500100","板橋區"
"220019","283-VK","2017/07/13 13:59:49","新北市板橋區忠孝路176巷25號","121.465351666667","25.0017583333333","6500100","板橋區"
"220043","285-UM","2017/07/13 13:59:55","新北市板橋區文化路二段31號","121.468756666667","25.024775","6500100","板橋區"
"220001","285-VK","2017/07/13 13:59:53","新北市板橋區永豐街49巷17號","121.473606666667","25.017555","6500100","板橋區"
"220031","286-VK","2017/07/13 13:59:54","新北市板橋區大觀路一段38巷156弄59號","121.442801666667","25.006815","6500100","板橋區"
"220029","287-VK","2017/07/13 13:59:46","新北市板橋區光華街15巷43號","121.452673333333","25.0114883333333","6500100","板橋區"
"220039","288-VK","2017/07/13 13:59:56","新北市板橋區民生路三段68-1號","121.46671","25.0257516666667","6500100","板橋區"
"220009","293-UM","2017/07/13 13:59:51","新北市板橋區富山街99號","121.476346666667","25.0218966666667","6500100","板橋區"
"220032","296-UM","2017/07/13 13:59:58","新北市板橋區大觀路二段156巷99號","121.4411","25.0011666666667","6500100","板橋區"
"220023","297-UM","2017/07/13 13:59:57","新北市板橋區南興路39號","121.454685","25.007465","6500100","板橋區"
"220041","299-UM","2017/07/13 14:00:02","新北市板橋區文化路一段104巷19號","121.465065","25.0179466666667","6500100","板橋區"
"220010","305-R5","2017/07/13 13:59:55","新北市板橋區三民路二段245巷6號","121.479491666667","25.0125183333333","6500100","板橋區"
"220047","317-R6","2017/07/13 13:59:42","新北市板橋區民有街14號","121.466373333333","25.02483","6500100","板橋區"
"220028","461-BY","2017/07/13 13:59:58","新北市板橋區大觀路二段265巷3弄51號","121.44496","24.9976166666667","6500100","板橋區"
"220038","487-VK","2017/07/13 13:59:52","新北市板橋區文化路二段26號","121.468918333333","25.024475","6500100","板橋區"
"220037","491-VK","2017/07/13 13:59:47","新北市板橋區民生路二段216號","121.469341666667","25.0216016666667","6500100","板橋區"
"220011","609-BX","2017/07/13 13:59:45","新北市板橋區中山路二段125號","121.47511","25.0164016666667","6500100","板橋區"
"220005","686-BX","2017/07/13 13:59:55","新北市板橋區館前東路18號","121.460035","25.0071433333333","6500100","板橋區"
"220025","687-BX","2017/07/13 13:59:56","新北市板橋區龍興街71巷53號","121.441516666667","25.0026883333333","6500100","板橋區"
"220042","689-BX","2017/07/13 13:59:43","新北市板橋區民生路三段24號","121.467593333333","25.02461","6500100","板橋區"
"220002","741-BX","2017/07/13 13:59:50","新北市板橋區後埔街46號","121.460375","25.0060266666667","6500100","板橋區"
"220003","827-TW","2017/07/13 13:59:47","新北市板橋區民安街13號","121.466861666667","25.01164","6500100","板橋區"
"220014","829-TW","2017/07/13 13:59:59","新北市板橋區三民路二段正隆巷12弄20號","121.47765","25.01365","6500100","板橋區"
"220051","830-TW","2017/07/13 13:59:51","新北市板橋區懷德街233巷6號","121.480895","25.028655","6500100","板橋區"
"220045","831-TW","2017/07/13 13:59:54","新北市板橋區莒光路101號","121.472598333333","25.0239683333333","6500100","板橋區"
"220022","895-R6","2017/07/13 13:59:58","新北市板橋區南雅南路一段106號","121.454941666667","25.0043483333333","6500100","板橋區"
"220021","985-R7","2017/07/13 13:59:58","新北市板橋區館前西路195號","121.455211666667","25.0082666666667","6500100","板橋區"
"220046","AAC-210","2017/07/13 13:59:58","新北市板橋區漢生西路197號","121.463203333333","25.0243433333333","6500100","板橋區"
"220018","AAC-253","2017/07/13 14:00:00","新北市板橋區中山路一段8號","121.460076666667","25.00778","6500100","板橋區"
