"lineid","car","time","location","longitude","latitude","cityid","cityname"
"234044","148-BY","2017/07/13 14:09:51","新北市永和區成功路一段107號","121.526913333333","25.0023983333333","6500400","永和區"
"234012","149-BY","2017/07/13 14:09:55","新北市永和區永貞路387號","121.508128333333","25.0087333333333","6500400","永和區"
"234005","207-UY","2017/07/13 14:10:02","新北市中和區中和路302號","121.508881666667","24.9999","6500400","永和區"
"234078","298-R6","2017/07/13 14:09:59","新北市永和區永亨路115巷3號","121.523688333333","25.0049816666667","6500400","永和區"
"234036","336-UY","2017/07/13 14:09:46","新北市永和區成功路一段47巷14號","121.527581666667","25.0039166666667","6500400","永和區"
"234062","337-UY","2017/07/13 14:09:55","新北市永和區永利路150號","121.522398333333","25.002755","6500400","永和區"
"234084","338-UY","2017/07/13 14:09:57","新北市永和區福和路139號","121.52096","25.00772","6500400","永和區"
"234068","552-UM","2017/07/13 14:09:53","新北市永和區永利路25號","121.518178333333","25.006055","6500400","永和區"
"234052","553-UM","2017/07/13 14:09:46","新北市永和區環河東路一段122號","121.520645","25.0154916666667","6500400","永和區"
"234015","745-BX","2017/07/13 14:09:54","新北市永和區仁愛路51號","121.513766666667","25.0132683333333","6500400","永和區"
"234028","746-BX","2017/07/13 14:09:56","新北市永和區民權路49巷10號","121.520643333333","24.9971316666667","6500400","永和區"
"234060","AAD-866","2017/07/13 14:09:55","新北市永和區中正路151巷5弄2-1號","121.515616666667","24.9987666666667","6500400","永和區"
"234066","847-RS","2017/07/13 14:09:51","新北市永和區永貞路358號","121.510178333333","25.0066433333333","6500400","永和區"
"234040","862-TW","2017/07/13 14:09:58","新北市永和區雙和街52巷2號","121.50895","25.003165","6500400","永和區"
"234048","863-TW","2017/07/13 14:09:49","新北市永和區環河西路二段13號","121.508761666667","25.0165983333333","6500400","永和區"
"234025","9371-KE","2017/07/13 14:09:54","新北市永和區安樂路270號","121.5145","25.00409","6500400","永和區"
"234010","9373-KE","2017/07/13 14:09:47","新北市永和區仁愛路352巷122弄32號","121.500903333333","25.0091516666667","6500400","永和區"
"248015","026-BX","2017/07/13 14:09:47","新北市五股區成泰路三段543巷54號","121.449591666667","25.1030733333333","6501500","五股區"
"248017","225-UY","2017/07/13 14:09:44","新北市五股區壟路1-1號","121.419825","25.096095","6501500","五股區"
"248011","247-BX","2017/07/13 14:09:47","新北市五股區工商路36巷4號","121.43965","25.083875","6501500","五股區"
"248009","272-BY","2017/07/13 14:09:52","新北市五股區水碓一路23號","121.430618333333","25.0713316666667","6501500","五股區"
"248003","677-BX","2017/07/13 14:09:46","新北市五股區六合街3號","121.431896666667","25.08857","6501500","五股區"
"248001","678-BX","2017/07/13 14:09:53","新北市五股區成泰路三段577巷81號","121.44968","25.10367","6501500","五股區"
"234022","9380-KE","2017/07/13 14:09:53","新北市永和區竹林路25巷21號","121.518223333333","25.0149416666667","6500400","永和區"
"234076","969-R7","2017/07/13 14:09:47","新北市永和區民有街75巷10弄33號","121.519226666667","24.9960783333333","6500400","永和區"
"234072","AAC-211","2017/07/13 14:09:42","新北市永和區竹林路201巷24弄8號","121.522398333333","25.0096133333333","6500400","永和區"
"234001","AAC-295","2017/07/13 14:09:44","新北市永和區中正路706號","121.516141666667","25.0099","6500400","永和區"
"244003","248-BX","2017/07/13 14:09:53","新北市林口區瑞平里66號","121.346028333333","25.1274266666667","6501700","林口區"
"244016","485-VK","2017/07/13 10:56:56","新北市林口區粉寮69號","121.404981666667","25.0908616666667","6501700","林口區"
"243005","AAD-798","2017/07/13 14:09:51","新北市泰山區明志路三段257號","121.423296666667","25.037365","6501600","泰山區"
"243001","297-R6","2017/07/13 14:09:51","新北市泰山區楓樹街15巷1-2號","121.435043333333","25.0630966666667","6501600","泰山區"
"243007","380-SR","2017/07/13 14:09:42","新北市泰山區明志路一段468號","121.430591666667","25.0552116666667","6501600","泰山區"
"243006","421-VK","2017/07/13 14:09:52","新北市泰山區泰林路二段454號","121.426095","25.0642166666667","6501600","泰山區"
"243002","548-UM","2017/07/13 14:09:58","新北市泰山區明志路一段483巷1弄3號","121.43103","25.0555666666667","6501600","泰山區"
"243003","549-UM","2017/07/13 14:09:56","新北市泰山區明志路二段372巷2號","121.425395","25.045025","6501600","泰山區"
"243004","646-TV","2017/07/13 14:09:50","新北市泰山區辭修路34巷1號","121.428811666667","25.0581266666667","6501600","泰山區"
"243008","680-BX","2017/07/13 14:09:52","新北市泰山區明志路三段31號","121.42488","25.0429","6501600","泰山區"
"231002","002-UM","2017/07/13 14:09:43","新北市新店區中正路514號","121.533826666667","24.9833983333333","6500600","新店區"
"231025","0291-UT","2017/07/13 14:09:39","新北市新店區中正路328巷27號","121.537515","24.975735","6500600","新店區"
"231028","046-UY","2017/07/13 14:09:46","新北市新店區安業街1號","121.515888333333","24.97884","6500600","新店區"
"231030","047-UY","2017/07/13 14:09:45","新北市新店區柴埕路52巷1-3號","121.5124","24.964625","6500600","新店區"
"231029","106-UY","2017/07/13 14:09:53","新北市新店區安康路二段120號","121.512843333333","24.9627233333333","6500600","新店區"
"231018","107-UY","2017/07/13 14:09:42","新北市新店區中央五街33號","121.528801666667","24.9749766666667","6500600","新店區"
"231011","108-UY","2017/07/13 14:09:53","新北市新店區五峰路63巷8弄20號","121.5474","24.9693116666667","6500600","新店區"
"231021","187-VK","2017/07/13 14:09:56","新北市新店區屈尺路83-2號","121.544655","24.9220833333333","6500600","新店區"
"231007","189-VK","2017/07/13 11:59:52","新北市新店區安華路28-1號","121.519521666667","24.9611833333333","6500600","新店區"
"231017","AAD-862","2017/07/13 14:09:41","新北市新店區北宜路二段196-1號","121.559053333333","24.9542683333333","6500600","新店區"
"231027","3712-VJ","2017/07/13 14:09:42","新北市新店區北宜路一段39巷20號","121.538971666667","24.958335","6500600","新店區"
"231038","4715-K9","2017/07/13 14:09:43","新北市新店區溪洲路121號","121.531195","24.9627816666667","6500600","新店區"
"231036","512-UM","2017/07/13 14:09:41","新北市新店區安祥路109巷1弄27號","121.476536666667","24.960075","6500600","新店區"
"231023","513-UM","2017/07/13 14:09:57","新北市新店區文中路40號","121.539786666667","24.9565683333333","6500600","新店區"
"231035","515-UM","2017/07/13 14:09:43","新北市新店區安和路一段52巷2-1號","121.517615","24.9663216666667","6500600","新店區"
"231003","616-UM","2017/07/13 14:09:38","新北市新店區光明街22號","121.538345","24.958615","6500600","新店區"
"231001","619-UM","2017/07/13 14:09:57","新北市新店區中華路66號","121.539218333333","24.969045","6500600","新店區"
"231034","645-TV","2017/07/13 14:09:47","新北市新店區黎明路3號","121.50356","24.9524533333333","6500600","新店區"
"231013","719-UM","2017/07/13 14:09:55","新北市新店區北新路三段65巷34弄26號","121.540125","24.981795","6500600","新店區"
"231031","720-UM","2017/07/13 14:09:51","新北市新店區永業路23號","121.533265","24.9557016666667","6500600","新店區"
"231005","897-TW","2017/07/13 14:09:52","新北市新店區中興路三段304號","121.542348333333","24.9853216666667","6500600","新店區"
"231006","898-TW","2017/07/13 14:09:47","新北市新店區北宜路二段126號","121.55686","24.9538766666667","6500600","新店區"
"231004","899-TW","2017/07/13 14:09:54","新北市新店區北新路二段189-1號","121.542713333333","24.9779233333333","6500600","新店區"
"231037","AKT-0513","2017/07/13 14:09:55","新北市新店區安康路三段165巷2弄5號","121.489225","24.9512516666667","6500600","新店區"
"235030","003-UY","2017/07/13 14:09:54","新北市中和區廣福路36號","121.504495","25.002195","6500300","中和區"
"235028","005-UY","2017/07/13 14:09:59","新北市中和區連城路47巷4號","121.49809","25.0015033333333","6500300","中和區"
"235027","006-UY","2017/07/13 14:09:53","新北市中和區連城路249巷5號","121.493718333333","24.9968166666667","6500300","中和區"
"235020","096-UM","2017/07/13 14:09:55","新北市中和區員山路538號","121.478653333333","25.00996","6500300","中和區"
"235003","097-UM","2017/07/13 14:09:55","新北市中和區景平路3號","121.523675","24.9902716666667","6500300","中和區"
"235029","098-UM","2017/07/13 14:09:45","新北市中和區中山路二段136巷4號","121.502","25.0037466666667","6500300","中和區"
"235004","150-BY","2017/07/13 14:09:51","新北市中和區保健路67巷3弄3號","121.509713333333","24.9974033333333","6500300","中和區"
"235022","151-BY","2017/07/13 14:09:47","新北市中和區連城路376-1號","121.4811","24.9953","6500300","中和區"
"235019","183-VK","2017/07/13 14:09:56","新北市中和區德光路31號","121.470661666667","25.0041833333333","6500300","中和區"
"235002","185-VK","2017/07/13 14:09:54","新北市中和區立人街69巷3號","121.519983333333","24.9938783333333","6500300","中和區"
"235013","186-VK","2017/07/13 14:09:53","新北市中和區景新街160巷2號","121.505635","24.9972933333333","6500300","中和區"
"235031","255-BX","2017/07/13 14:09:57","新北市中和區新生街164號","121.483683333333","25.0003016666667","6500300","中和區"
"235008","293-VK","2017/07/13 14:10:01","新北市中和區中興街161巷8弄1號","121.501021666667","24.9908583333333","6500300","中和區"
"235036","301-VK","2017/07/13 14:09:56","新北市中和區景平路731號","121.496351666667","25.0042466666667","6500300","中和區"
"235007","352-BY","2017/07/13 14:09:57","新北市中和區景平路104號","121.519926666667","24.9915733333333","6500300","中和區"
"235015","376-QA","2017/07/13 14:09:03","新北市中和區忠孝街19巷38號","121.509651666667","24.98473","6500300","中和區"
"235032","377-QA","2017/07/13 14:09:55","新北市中和區圓通路162巷37弄1號","121.496216666667","24.9954016666667","6500300","中和區"
"235025","378-QA","2017/07/13 14:09:54","新北市中和區員山路394巷12弄4號","121.481268333333","25.00432","6500300","中和區"
"235014","4979-A6","2017/07/13 14:09:53","新北市中和區復興路280巷36弄4號","121.501526666667","24.992115","6500300","中和區"
"235033","4980-A6","2017/07/13 14:09:43","新北市中和區中山路二段181巷20號","121.50103","25.002","6500300","中和區"
"235006","551-UM","2017/07/13 14:09:58","新北市中和區自立路173號","121.52319","24.9922316666667","6500300","中和區"
"235009","565-BX","2017/07/13 14:09:47","新北市中和區景新街467巷38弄2號","121.514538333333","24.98863","6500300","中和區"
"235034","611-BX","2017/07/13 14:09:56","新北市中和區中和路212號","121.505918333333","24.999695","6500300","中和區"
"235018","640-BX","2017/07/13 14:09:53","新北市中和區國光街8巷2號","121.471751666667","25.0001683333333","6500300","中和區"
"235024","647-TV","2017/07/13 14:09:55","新北市中和區民享街91-12號","121.474638333333","25.00071","6500300","中和區"
"235011","732-UM","2017/07/13 14:09:51","新北市中和區興南路一段58號","121.510841666667","24.9906","6500300","中和區"
"235010","733-UM","2017/07/13 14:09:47","新北市中和區忠孝街1巷50號","121.508425","24.9843616666667","6500300","中和區"
"235035","783-BX","2017/07/13 14:09:55","新北市中和區立德街72巷20號","121.487765","25.0082616666667","6500300","中和區"
"235026","800-TS","2017/07/13 14:09:57","新北市中和區中山路二段362-3號","121.492046666667","25.0035916666667","6500300","中和區"
"235021","801-TS","2017/07/13 14:09:57","新北市中和區民利街89號","121.478085","24.99803","6500300","中和區"
"235005","802-TS","2017/07/13 14:09:42","新北市中和區新興街6巷1號","121.512265","25.00248","6500300","中和區"
"235016","805-TS","2017/07/13 14:09:49","新北市中和區興南路二段114巷6號","121.504171666667","24.9843583333333","6500300","中和區"
"235012","896-TW","2017/07/13 14:09:56","新北市中和區華新街109巷11弄2-5號","121.508641666667","24.9794316666667","6500300","中和區"
"235017","900-TW","2017/07/13 14:09:56","新北市中和區和平路202號","121.463838333333","24.9960766666667","6500300","中和區"
"235001","AAC-213","2017/07/13 14:09:55","新北市中和區自立路99巷36弄2號","121.523823333333","24.9942716666667","6500300","中和區"
"235023","AAC-215","2017/07/13 14:09:50","新北市中和區圓通路294巷17-5號","121.488751666667","24.9905566666667","6500300","中和區"
"220016","013-TV","2017/07/13 14:09:55","新北市板橋區三民路一段1巷49號","121.480775","25.024835","6500100","板橋區"
"220104","015-TV","2017/07/13 14:10:01","新北市板橋區中正路275巷13號","121.454918333333","25.0186366666667","6500100","板橋區"
"220013","072-UY","2017/07/13 14:09:50","新北市板橋區民族路247巷3弄2號","121.470428333333","25.0076666666667","6500100","板橋區"
"220034","073-UY","2017/07/13 14:09:57","新北市板橋區中正路236巷84號","121.458283333333","25.0194","6500100","板橋區"
"220017","AAD-861","2017/07/13 14:09:46","新北市板橋區縣民大道一段108號","121.457006666667","25.0056866666667","6500100","板橋區"
"220105","120-SR","2017/07/13 14:09:44","新北市板橋區文化路二段294號","121.471891666667","25.0294683333333","6500100","板橋區"
"247019","893-R6","2017/07/13 14:09:56","新北市蘆洲區民族路446-5號","121.472628333333","25.0922366666667","6501400","蘆洲區"
"247009","546-UM","2017/07/13 14:09:54","新北市蘆洲區三民路52號","121.475466666667","25.0835316666667","6501400","蘆洲區"
"247017","500-BY","2017/07/13 14:09:47","新北市蘆洲區民族路203-2號","121.477928333333","25.089195","6501400","蘆洲區"
"247005","341-TH","2017/07/13 14:09:47","新北市蘆洲區九芎街115號","121.465485","25.0795216666667","6501400","蘆洲區"
"247007","339-TH","2017/07/13 14:09:57","新北市蘆洲區中山一路285號","121.471958333333","25.0795083333333","6501400","蘆洲區"
"247023","337-TH","2017/07/13 14:09:46","新北市蘆洲區光明路112號","121.463651666667","25.0881","6501400","蘆洲區"
"247001","336-TH","2017/07/13 14:10:00","新北市蘆洲區永平街42-1號","121.458113333333","25.091265","6501400","蘆洲區"
"247013","057-VK","2017/07/13 14:09:55","新北市蘆洲區忠孝路51號","121.471273333333","25.0865333333333","6501400","蘆洲區"
"247003","056-VK","2017/07/13 14:09:57","新北市蘆洲區長安街102巷63號","121.4626","25.0819616666667","6501400","蘆洲區"
"247011","007-UY","2017/07/13 14:09:46","新北市蘆洲區信義路270號","121.47804","25.0869733333333","6501400","蘆洲區"
"247021","002-UY","2017/07/13 14:09:52","新北市蘆洲區三民路193號","121.470466666667","25.087795","6501400","蘆洲區"
"247015","001-UY","2017/07/13 14:09:54","新北市蘆洲區光華路46巷24號","121.46823","25.08389","6501400","蘆洲區"
"228005","097-TW","2017/07/13 14:09:45","新北市雙溪區三港里雙澳路100號","121.888828333333","25.05638","6502600","貢寮區"
"228004","212-TW","2017/07/13 14:09:44","新北市貢寮區雙玉里下雙溪街10-2號","121.915121666667","25.0140666666667","6502600","貢寮區"
"253005","295-VK","2017/07/13 10:21:24","新北市石門區中山路64-1號","121.567686666667","25.2903833333333","6502200","石門區"
"208004","AAC-292","2017/07/13 14:09:49","新北市金山區山城路29號","121.598338333333","25.2019083333333","6502700","金山區"
"207002","749-BX","2017/07/13 14:09:55","新北市萬里區溪底里富士坪路1-2號","121.630168333333","25.1497466666667","6502800","萬里區"
"207001","463-BY","2017/07/13 14:09:49","新北市萬里區磺潭里清水18號","121.63764","25.1979916666667","6502800","萬里區"
"252005","073-UM","2017/07/13 08:47:30","新北市三芝區埔坪里埔頭坑41號","121.50447","25.264305","6502100","三芝區"
"252005","702-TV","2017/07/13 14:09:41","新北市三芝區橫山里橫山45-1號","121.5369","25.2574383333333","6502100","三芝區"
"236066","105-UM","2017/07/13 14:09:51","新北市土城區金城路一段88巷20弄1號","121.445216666667","24.972915","6501300","土城區"
"236040","107-UM","2017/07/13 14:09:41","新北市土城區裕生路61號","121.447655","24.9861083333333","6501300","土城區"
"236076","166-UM","2017/07/13 14:10:00","新北市土城區永寧路41號","121.43004","24.96195","6501300","土城區"
"236028","253-BX","2017/07/13 14:09:43","新北市土城區城林路6巷80號","121.438425","24.9798066666667","6501300","土城區"
"236024","269-VK","2017/07/13 14:09:51","新北市土城區承天路18號","121.439335","24.9637516666667","6501300","土城區"
"236012","270-VK","2017/07/13 14:09:55","新北市土城區青雲路39巷7號","121.460345","24.987545","6501300","土城區"
"236033","271-VK","2017/07/13 14:09:44","新北市土城區青雲路449-1號","121.458915","24.9747183333333","6501300","土城區"
"236003","370-SL","2017/07/13 14:07:31","新北市土城區城林路6巷80號","121.438591666667","24.9795966666667","6501300","土城區"
"236018","401-BY","2017/07/13 14:09:49","新北市土城區城林路6巷80號","121.438356666667","24.979765","6501300","土城區"
"236005","498-BY","2017/07/13 14:09:44","新北市土城區中央路一段10號","121.44909","24.9919016666667","6501300","土城區"
"236056","912-UM","2017/07/13 14:09:52","新北市土城區中央路四段48號","121.420421666667","24.9605333333333","6501300","土城區"
"236047","913-UM","2017/07/13 14:09:54","新北市土城區明德路一段365-1號","121.45355","24.9790416666667","6501300","土城區"
"236060","915-UM","2017/07/13 14:09:49","新北市土城區金城路二段200號","121.45484","24.981745","6501300","土城區"
"236052","AAC-216","2017/07/13 14:09:42","新北市土城區中華路二段100號","121.438118333333","24.9744066666667","6501300","土城區"
"242006","173-VK","2017/07/13 11:00:37","新北市新莊區三和路12-21號","121.442053333333","25.038775","6500500","新莊區"
"220027","145-BY","2017/07/13 14:09:53","新北市板橋區民權路202巷7弄9號","121.459691666667","25.014855","6500100","板橋區"
"220030","610-BX","2017/07/13 14:09:44","新北市板橋區滿平街123號","121.428658333333","24.9884433333333","6500100","板橋區"
"220050","245-BX","2017/07/13 14:09:43","新北市板橋區莊敬路142-3號","121.471176666667","25.0231933333333","6500100","板橋區"
"220052","257-TC","2017/07/13 14:09:45","新北市板橋區文化路一段188巷9弄120號","121.468906666667","25.0192433333333","6500100","板橋區"
"220040","267-BY","2017/07/13 14:09:49","新北市板橋區縣民大道三段245巷15號","121.480905","25.0264183333333","6500100","板橋區"
"220004","276-BY","2017/07/13 14:09:51","新北市板橋區信義路74巷1弄2號","121.457098333333","24.9931083333333","6500100","板橋區"
"220020","277-BY","2017/07/13 14:09:53","新北市板橋區金門街369巷57弄18號","121.429428333333","24.9839933333333","6500100","板橋區"
"220012","280-UM","2017/07/13 14:10:00","新北市板橋區板新路189號","121.468955","25.0158366666667","6500100","板橋區"
"220019","283-VK","2017/07/13 14:09:49","新北市板橋區忠孝路136號","121.463546666667","25.0023166666667","6500100","板橋區"
"220043","285-UM","2017/07/13 14:09:55","新北市板橋區光武街127巷2號","121.46592","25.0288416666667","6500100","板橋區"
"220001","285-VK","2017/07/13 14:09:55","新北市板橋區懷仁街33號","121.476566666667","25.0195333333333","6500100","板橋區"
"220031","286-VK","2017/07/13 14:09:47","新北市板橋區龍興街97巷13號","121.4436","25.0028533333333","6500100","板橋區"
"220029","287-VK","2017/07/13 14:09:46","新北市板橋區光華街39巷4號","121.453543333333","25.0131433333333","6500100","板橋區"
"220039","288-VK","2017/07/13 14:09:56","新北市板橋區四維路269巷11號","121.462753333333","25.028125","6500100","板橋區"
"220009","293-UM","2017/07/13 14:09:41","新北市板橋區中山路二段256號","121.478758333333","25.0183366666667","6500100","板橋區"
"220032","296-UM","2017/07/13 14:09:58","新北市板橋區篤行路一段16號","121.43131","24.9954883333333","6500100","板橋區"
"220023","297-UM","2017/07/13 14:09:55","新北市板橋區大智街25巷34號","121.454088333333","25.01485","6500100","板橋區"
"220041","299-UM","2017/07/13 14:09:53","新北市板橋區文化路二段225巷60弄10號","121.469231666667","25.02874","6500100","板橋區"
"220010","305-R5","2017/07/13 14:09:55","新北市板橋區三民路二段居仁巷1弄34號","121.48036","25.0135816666667","6500100","板橋區"
"220047","317-R6","2017/07/13 14:09:59","新北市板橋區自由路51巷14弄4號","121.464771666667","25.0236433333333","6500100","板橋區"
"220028","461-BY","2017/07/13 14:09:58","新北市板橋區大觀路二段7巷97號","121.450141666667","25.003025","6500100","板橋區"
"220038","487-VK","2017/07/13 14:09:54","新北市板橋區文化路二段445號","121.475245","25.0332866666667","6500100","板橋區"
"220037","491-VK","2017/07/13 14:09:47","新北市板橋區莊敬路48-2號","121.472696666667","25.0270216666667","6500100","板橋區"
"220011","609-BX","2017/07/13 14:09:45","新北市板橋區三民路二段97號","121.479373333333","25.0163233333333","6500100","板橋區"
"220005","686-BX","2017/07/13 14:09:52","新北市板橋區重慶路161號","121.462661666667","25.0028266666667","6500100","板橋區"
"220025","687-BX","2017/07/13 14:09:35","新北市板橋區龍興街73巷2號","121.443963333333","25.0020183333333","6500100","板橋區"
"220042","689-BX","2017/07/13 14:09:57","新北市板橋區民生路三段251號","121.464615","25.02917","6500100","板橋區"
"220002","741-BX","2017/07/13 14:09:50","新北市板橋區重慶路93巷18號","121.46282","25.0057916666667","6500100","板橋區"
"220003","827-TW","2017/07/13 14:09:47","新北市板橋區中山路一段154巷3弄2號","121.465338333333","25.0103916666667","6500100","板橋區"
"220014","829-TW","2017/07/13 14:09:52","新北市板橋區三民路二段正隆巷65號","121.476408333333","25.0133","6500100","板橋區"
"220051","830-TW","2017/07/13 14:09:41","新北市板橋區田單街44號","121.48261","25.0278466666667","6500100","板橋區"
"220045","831-TW","2017/07/13 14:09:54","新北市板橋區雙十路二段47巷3號","121.476208333333","25.0260766666667","6500100","板橋區"
"220022","895-R6","2017/07/13 14:09:58","新北市板橋區林園街20號","121.453903333333","25.0098583333333","6500100","板橋區"
"220021","985-R7","2017/07/13 14:09:49","新北市板橋區中正路31號","121.45631","25.01282","6500100","板橋區"
"220046","AAC-210","2017/07/13 14:09:58","新北市板橋區新海路135巷2號","121.459818333333","25.023365","6500100","板橋區"
"220018","AAC-253","2017/07/13 14:09:53","新北市板橋區四川路一段288號","121.458698333333","25.0007216666667","6500100","板橋區"
