"lineid","car","time","location","longitude","latitude","cityid","cityname"
"234044","148-BY","2017/07/13 14:19:51","新北市永和區永元路107號","121.52263","25.0023966666667","6500400","永和區"
"234012","149-BY","2017/07/13 14:19:55","新北市永和區保生路58號","121.505396666667","25.0087483333333","6500400","永和區"
"234005","207-UY","2017/07/13 14:19:42","新北市中和區中和路206號","121.505491666667","24.999625","6500400","永和區"
"234078","298-R6","2017/07/13 14:19:39","新北市永和區國中路132巷18號","121.524161666667","25.0076533333333","6500400","永和區"
"234036","336-UY","2017/07/13 14:19:46","新北市永和區成功路一段17巷6弄2號","121.527578333333","25.0050783333333","6500400","永和區"
"234062","337-UY","2017/07/13 14:19:55","新北市永和區得和路120號","121.51868","25.0000683333333","6500400","永和區"
"234084","338-UY","2017/07/13 14:19:57","新北市永和區福和路275號","121.51753","25.0073016666667","6500400","永和區"
"234068","552-UM","2017/07/13 14:19:53","新北市永和區永寧街65號","121.519986666667","25.0067616666667","6500400","永和區"
"234052","553-UM","2017/07/13 14:19:46","新北市永和區博愛街16-6號","121.517145","25.0157533333333","6500400","永和區"
"234028","746-BX","2017/07/13 14:20:00","新北市永和區民權路55號","121.52001","24.9968933333333","6500400","永和區"
"234060","AAD-866","2017/07/13 14:19:55","新北市永和區安樂路138號","121.514036666667","25.0003716666667","6500400","永和區"
"234066","847-RS","2017/07/13 14:19:51","新北市永和區保平路214巷12弄1號","121.50896","25.0067883333333","6500400","永和區"
"234040","862-TW","2017/07/13 14:19:38","新北市中和區中安街192號","121.51141","24.9993416666667","6500400","永和區"
"234048","863-TW","2017/07/13 14:19:51","新北市永和區保福路三段15號","121.508218333333","25.0156266666667","6500400","永和區"
"234025","9371-KE","2017/07/13 14:19:54","新北市中和區安樂路255號","121.514083333333","24.9998416666667","6500400","永和區"
"248015","026-BX","2017/07/13 14:19:47","新北市五股區成洲五路12號","121.452373333333","25.1015716666667","6501500","五股區"
"248017","225-UY","2017/07/13 14:19:24","新北市五股區壟路20-1號","121.413385","25.0850233333333","6501500","五股區"
"248011","247-BX","2017/07/13 14:19:47","新北市五股區工商路99巷20弄8號","121.436535","25.0851466666667","6501500","五股區"
"248009","272-BY","2017/07/13 14:19:52","新北市五股區水碓一路23號","121.430691666667","25.0713816666667","6501500","五股區"
"248003","677-BX","2017/07/13 14:19:46","新北市五股區五福路51號","121.432951666667","25.08967","6501500","五股區"
"248001","678-BX","2017/07/13 14:19:53","新北市五股區成泰路四段9號","121.452963333333","25.1066433333333","6501500","五股區"
"234022","9380-KE","2017/07/13 14:19:53","新北市永和區保生路55號","121.50452","25.0108283333333","6500400","永和區"
"234076","969-R7","2017/07/13 14:19:47","新北市永和區民族街81巷58號","121.52008","24.99649","6500400","永和區"
"234072","AAC-211","2017/07/13 14:19:42","新北市永和區豫溪街191巷7弄22號","121.523275","25.0111483333333","6500400","永和區"
"234001","AAC-295","2017/07/13 14:19:44","新北市永和區中正路624巷2號","121.51709","25.007905","6500400","永和區"
"244003","248-BX","2017/07/13 14:19:53","新北市林口區瑞平里33-1號","121.348448333333","25.12854","6501700","林口區"
"244016","485-VK","2017/07/13 10:56:56","新北市林口區粉寮69號","121.404981666667","25.0908616666667","6501700","林口區"
"243005","AAD-798","2017/07/13 14:19:51","新北市泰山區明志路三段145巷2弄1號","121.425396666667","25.0399183333333","6501600","泰山區"
"243001","297-R6","2017/07/13 14:19:51","新北市泰山區和平街13巷68號","121.434488333333","25.0664233333333","6501600","泰山區"
"243007","380-SR","2017/07/13 14:19:42","新北市泰山區明志路二段3號","121.430183333333","25.0537533333333","6501600","泰山區"
"243006","421-VK","2017/07/13 14:19:52","新北市泰山區泰林路二段152號","121.434121666667","25.0600966666667","6501600","泰山區"
"243002","548-UM","2017/07/13 14:20:00","新北市泰山區明志路二段7巷5號","121.430535","25.0535083333333","6501600","泰山區"
"243003","549-UM","2017/07/13 14:19:56","新北市泰山區貴子路15巷4弄4號","121.426601666667","25.0420716666667","6501600","泰山區"
"243004","646-TV","2017/07/13 14:19:50","新北市泰山區仁義路220巷6號","121.432885","25.0538933333333","6501600","泰山區"
"243008","680-BX","2017/07/13 14:19:52","新北市泰山區工專路18號","121.423783333333","25.0396866666667","6501600","泰山區"
"231002","002-UM","2017/07/13 14:19:43","新北市新店區中央路155號","121.529685","24.9725333333333","6500600","新店區"
"231025","0291-UT","2017/07/13 14:19:59","新北市新店區二十張路103號","121.536575","24.9795633333333","6500600","新店區"
"231028","046-UY","2017/07/13 14:19:57","新北市新店區安和路二段95號","121.518621666667","24.9694583333333","6500600","新店區"
"231030","047-UY","2017/07/13 14:19:45","新北市新店區薏仁坑路自強巷1號","121.497023333333","24.958045","6500600","新店區"
"231029","106-UY","2017/07/13 14:19:53","新北市新店區安康路二段159巷2號","121.510235","24.95925","6500600","新店區"
"231018","107-UY","2017/07/13 14:19:42","新北市新店區中央四街30號","121.528566666667","24.9743683333333","6500600","新店區"
"231011","108-UY","2017/07/13 14:19:47","新北市新店區五峰路59-7號","121.54739","24.9701883333333","6500600","新店區"
"231021","187-VK","2017/07/13 14:19:56","新北市新店區桂山路2-1號","121.557005","24.9042016666667","6500600","新店區"
"231007","189-VK","2017/07/13 11:59:52","新北市新店區安華路28-1號","121.519521666667","24.9611833333333","6500600","新店區"
"231017","AAD-862","2017/07/13 14:19:41","新北市新店區北宜路二段382號","121.564521666667","24.9533366666667","6500600","新店區"
"231027","3712-VJ","2017/07/13 14:19:42","新北市新店區光明街286巷14號","121.540853333333","24.9636283333333","6500600","新店區"
"231038","4715-K9","2017/07/13 14:19:43","新北市新店區溪洲路6巷5號","121.533925","24.9614183333333","6500600","新店區"
"231036","512-UM","2017/07/13 14:19:56","新北市新店區安祥路109巷90弄84號","121.475838333333","24.9582966666667","6500600","新店區"
"231023","513-UM","2017/07/13 14:19:57","新北市新店區光明街62號","121.53862","24.9596666666667","6500600","新店區"
"231035","515-UM","2017/07/13 14:19:43","新北市新店區光華街5巷36號","121.517365","24.9678033333333","6500600","新店區"
"231003","616-UM","2017/07/13 14:19:38","新北市新店區中興路一段202號","121.543638333333","24.965275","6500600","新店區"
"231001","619-UM","2017/07/13 14:19:44","新北市新店區北新路一段307號","121.541491666667","24.9677133333333","6500600","新店區"
"231034","645-TV","2017/07/13 14:19:47","新北市新店區黎明路3號","121.503565","24.9524616666667","6500600","新店區"
"231013","719-UM","2017/07/13 14:19:55","新北市新店區大豐路65號","121.539576666667","24.9795516666667","6500600","新店區"
"231031","720-UM","2017/07/13 14:19:51","新北市新店區溪洲路160-1號","121.530346666667","24.96508","6500600","新店區"
"231005","897-TW","2017/07/13 14:19:52","新北市新店區中興路三段238號","121.543105","24.9835116666667","6500600","新店區"
"231006","898-TW","2017/07/13 14:19:47","新北市新店區北宜路二段599號","121.568186666667","24.95556","6500600","新店區"
"231004","899-TW","2017/07/13 14:19:54","新北市新店區北新路二段108號","121.543005","24.97431","6500600","新店區"
"231037","AKT-0513","2017/07/13 14:19:55","新北市新店區安康路二段341巷30號","121.496925","24.9544266666667","6500600","新店區"
"235030","003-UY","2017/07/13 14:19:54","新北市中和區景新街2號","121.502588333333","24.9995766666667","6500300","中和區"
"235028","005-UY","2017/07/13 14:19:49","新北市中和區連城路29號","121.498678333333","25.002055","6500300","中和區"
"235027","006-UY","2017/07/13 14:19:53","新北市中和區圓通路198巷6號","121.495685","24.9944916666667","6500300","中和區"
"235020","096-UM","2017/07/13 14:19:55","新北市中和區員山路575號","121.479353333333","25.0080283333333","6500300","中和區"
"235003","097-UM","2017/07/13 14:19:55","新北市中和區秀峰街121號","121.52002","24.9906783333333","6500300","中和區"
"235029","098-UM","2017/07/13 14:19:45","新北市中和區中山路二段2巷5弄2號","121.504416666667","25.00623","6500300","中和區"
"235004","150-BY","2017/07/13 14:19:53","新北市中和區安平路36巷55號","121.510448333333","24.9947483333333","6500300","中和區"
"235022","151-BY","2017/07/13 14:19:47","新北市中和區員山路36巷16-2號","121.485243333333","24.991635","6500300","中和區"
"235019","183-VK","2017/07/13 14:19:56","新北市中和區莒光路7號","121.47196","25.00591","6500300","中和區"
"235002","185-VK","2017/07/13 14:19:54","新北市中和區大仁街10巷9弄29號","121.51924","24.9928266666667","6500300","中和區"
"235013","186-VK","2017/07/13 14:19:53","新北市中和區景新街228-6號","121.508158333333","24.9942333333333","6500300","中和區"
"235031","255-BX","2017/07/13 14:19:57","新北市中和區民安街21號","121.480495","25.0005116666667","6500300","中和區"
"235008","293-VK","2017/07/13 14:19:41","新北市中和區復興路333號","121.500418333333","24.9902366666667","6500300","中和區"
"235036","301-VK","2017/07/13 14:19:56","新北市中和區中山路二段13號","121.505146666667","25.0055583333333","6500300","中和區"
"235007","352-BY","2017/07/13 14:19:57","新北市中和區景平路296號","121.512803333333","24.992545","6500300","中和區"
"235015","376-QA","2017/07/13 14:19:43","新北市中和區興南路一段55-2號","121.510678333333","24.9900383333333","6500300","中和區"
"235032","377-QA","2017/07/13 14:19:55","新北市中和區景平路545巷5號","121.498256666667","24.9991433333333","6500300","中和區"
"235025","378-QA","2017/07/13 14:20:00","新北市中和區員山路143巷27弄2號","121.479508333333","24.9955516666667","6500300","中和區"
"235014","4979-A6","2017/07/13 14:19:33","新北市中和區中興街158巷1號","121.49969","24.99166","6500300","中和區"
"235033","4980-A6","2017/07/13 14:19:43","新北市中和區福美路301巷9號","121.497398333333","25.00448","6500300","中和區"
"235006","551-UM","2017/07/13 14:19:58","新北市中和區大勇街60巷8號","121.518673333333","24.9946133333333","6500300","中和區"
"235009","565-BX","2017/07/13 14:19:47","新北市中和區景新街437巷22號","121.514398333333","24.9892966666667","6500300","中和區"
"235034","611-BX","2017/07/13 14:19:47","新北市中和區安和路173號","121.506218333333","24.9976933333333","6500300","中和區"
"235018","640-BX","2017/07/13 14:19:53","新北市中和區民德路174號","121.468423333333","24.99952","6500300","中和區"
"235024","647-TV","2017/07/13 14:19:55","新北市中和區中山路三段111號","121.474816666667","25.00602","6500300","中和區"
"235011","732-UM","2017/07/13 14:19:45","新北市中和區和平街54巷10弄2號","121.509033333333","24.99145","6500300","中和區"
"235010","733-UM","2017/07/13 14:19:47","新北市中和區華新街115號","121.507315","24.98213","6500300","中和區"
"235035","783-BX","2017/07/13 14:19:55","新北市中和區中正路782巷2號","121.486408333333","25.0009616666667","6500300","中和區"
"235026","800-TS","2017/07/13 14:19:57","新北市中和區橋和路116號","121.491386666667","25.0056466666667","6500300","中和區"
"235021","801-TS","2017/07/13 14:19:57","新北市中和區民利街53號","121.47936","24.9986866666667","6500300","中和區"
"235005","802-TS","2017/07/13 14:19:42","新北市中和區宜安路118巷16號","121.510803333333","24.9985433333333","6500300","中和區"
"235016","805-TS","2017/07/13 14:19:49","新北市中和區興南路二段142巷17弄26號","121.503008333333","24.9829266666667","6500300","中和區"
"235012","896-TW","2017/07/13 14:19:56","新北市中和區華新街109巷1弄1號","121.508836666667","24.982615","6500300","中和區"
"235017","900-TW","2017/07/13 14:19:56","新北市中和區華福街55號","121.466703333333","24.99668","6500300","中和區"
"235001","AAC-213","2017/07/13 14:19:55","新北市中和區秀朗路三段10巷14弄39號","121.524138333333","24.99614","6500300","中和區"
"235023","AAC-215","2017/07/13 14:19:50","新北市中和區圓通路286巷28號","121.492061666667","24.991405","6500300","中和區"
"220016","013-TV","2017/07/13 14:19:55","新北市板橋區翠華街6巷101號","121.48208","25.0253933333333","6500100","板橋區"
"220104","015-TV","2017/07/13 14:19:46","新北市板橋區中正路379巷3弄5號","121.453291666667","25.0211033333333","6500100","板橋區"
"220013","072-UY","2017/07/13 14:19:50","新北市板橋區民族路219巷26號","121.469456666667","25.0086133333333","6500100","板橋區"
"220034","073-UY","2017/07/13 14:19:40","新北市板橋區中正路216巷22號","121.456746666667","25.0185916666667","6500100","板橋區"
"220017","AAD-861","2017/07/13 14:19:46","新北市板橋區貴興路25號","121.457725","25.0043083333333","6500100","板橋區"
"220105","120-SR","2017/07/13 14:19:44","新北市板橋區文化路二段369巷34號","121.472225","25.03177","6500100","板橋區"
"247019","893-R6","2017/07/13 14:19:56","新北市蘆洲區仁愛街65號","121.471663333333","25.0935116666667","6501400","蘆洲區"
"247009","546-UM","2017/07/13 14:19:54","新北市蘆洲區鷺江街69號","121.477168333333","25.0828066666667","6501400","蘆洲區"
"247017","500-BY","2017/07/13 14:19:47","新北市蘆洲區民權路114號","121.473605","25.088395","6501400","蘆洲區"
"247005","341-TH","2017/07/13 14:19:53","新北市蘆洲區九芎街153巷31號","121.466278333333","25.0784016666667","6501400","蘆洲區"
"247007","339-TH","2017/07/13 14:19:57","新北市蘆洲區中山一路197巷6弄22號","121.474168333333","25.0803166666667","6501400","蘆洲區"
"247023","337-TH","2017/07/13 14:19:55","新北市蘆洲區三民路577號","121.461973333333","25.0927233333333","6501400","蘆洲區"
"247001","336-TH","2017/07/13 14:20:00","新北市蘆洲區永樂街43號","121.457666666667","25.08829","6501400","蘆洲區"
"247013","057-VK","2017/07/13 14:19:44","新北市蘆洲區成功路58號","121.472493333333","25.0803533333333","6501400","蘆洲區"
"247003","056-VK","2017/07/13 14:19:57","新北市蘆洲區長安街174號","121.459093333333","25.0833983333333","6501400","蘆洲區"
"247011","007-UY","2017/07/13 14:19:45","新北市蘆洲區民權路3巷26號","121.475155","25.08556","6501400","蘆洲區"
"247021","002-UY","2017/07/13 14:19:52","新北市蘆洲區民族路403號","121.469125","25.089885","6501400","蘆洲區"
"247015","001-UY","2017/07/13 14:19:54","新北市蘆洲區中正路185巷31弄33號","121.467061666667","25.083495","6501400","蘆洲區"
"228005","097-TW","2017/07/13 14:19:45","新北市貢寮區美豐里雞母嶺街57號","121.897053333333","25.0639966666667","6502600","貢寮區"
"228004","212-TW","2017/07/13 14:19:44","新北市貢寮區雙玉里田寮洋街39號","121.924953333333","25.013875","6502600","貢寮區"
"253005","295-VK","2017/07/13 10:21:24","新北市石門區中山路64-1號","121.567686666667","25.2903833333333","6502200","石門區"
"208004","AAC-292","2017/07/13 14:19:50","新北市金山區重和里六股林口77號","121.600198333333","25.2160183333333","6502700","金山區"
"207002","749-BX","2017/07/13 14:19:55","新北市萬里區溪底里富士坪路1-2號","121.630011666667","25.1496283333333","6502800","萬里區"
"207001","463-BY","2017/07/13 14:19:49","新北市萬里區磺潭里清水18號","121.637631666667","25.19799","6502800","萬里區"
"252005","073-UM","2017/07/13 08:47:30","新北市三芝區埔坪里埔頭坑41號","121.50447","25.264305","6502100","三芝區"
"252005","702-TV","2017/07/13 14:19:21","新北市三芝區橫山里橫山2號","121.532406666667","25.2616066666667","6502100","三芝區"
"236066","105-UM","2017/07/13 14:19:56","新北市土城區明德路一段128巷1號","121.463453333333","24.9790633333333","6501300","土城區"
"236040","107-UM","2017/07/13 14:20:01","新北市土城區裕生路21巷19號","121.448778333333","24.987135","6501300","土城區"
"236076","166-UM","2017/07/13 14:19:57","新北市土城區永平街29號","121.428511666667","24.9622716666667","6501300","土城區"
"236028","253-BX","2017/07/13 14:19:44","新北市土城區順風路63號","121.440183333333","24.9772833333333","6501300","土城區"
"236024","269-VK","2017/07/13 14:19:51","新北市土城區承天路24號","121.439273333333","24.96327","6501300","土城區"
"236012","270-VK","2017/07/13 14:19:55","新北市土城區青雲路39巷7號","121.460328333333","24.9875533333333","6501300","土城區"
"236033","271-VK","2017/07/13 14:19:59","新北市土城區青雲路483巷10弄35號","121.459418333333","24.9725116666667","6501300","土城區"
"236003","370-SL","2017/07/13 14:17:51","新北市土城區永和街35號","121.435046666667","24.960775","6501300","土城區"
"236018","401-BY","2017/07/13 14:19:49","新北市土城區明德路一段385-1號","121.452576666667","24.979655","6501300","土城區"
"236005","498-BY","2017/07/13 14:19:43","新北市土城區中華路一段56巷22號","121.444508333333","24.989565","6501300","土城區"
"236056","912-UM","2017/07/13 14:19:52","新北市土城區中央路四段195號","121.414713333333","24.9565516666667","6501300","土城區"
"236047","913-UM","2017/07/13 14:19:54","新北市土城區明德路一段280-1號","121.457311666667","24.9775533333333","6501300","土城區"
"236060","915-UM","2017/07/13 14:19:49","新北市土城區延壽路44巷11號","121.47145","24.9929583333333","6501300","土城區"
"236052","AAC-216","2017/07/13 14:19:42","新北市土城區中華路二段100號","121.438156666667","24.9743533333333","6501300","土城區"
"242006","173-VK","2017/07/13 11:00:37","新北市新莊區三和路12-21號","121.442053333333","25.038775","6500500","新莊區"
"220027","145-BY","2017/07/13 14:19:54","新北市板橋區民權路202巷16弄1號","121.460745","25.0162716666667","6500100","板橋區"
"220030","610-BX","2017/07/13 14:19:51","新北市板橋區大觀路三段263號","121.429171666667","24.99233","6500100","板橋區"
"220050","245-BX","2017/07/13 14:19:52","新北市板橋區莒光路229巷2號","121.474208333333","25.0221883333333","6500100","板橋區"
"220052","257-TC","2017/07/13 14:19:45","新北市板橋區介壽街22-1號","121.467696666667","25.0199966666667","6500100","板橋區"
"220040","267-BY","2017/07/13 14:19:49","新北市板橋區文聖街211號","121.480146666667","25.0260783333333","6500100","板橋區"
"220004","276-BY","2017/07/13 14:19:51","新北市板橋區信義路233-1號","121.459923333333","24.9911","6500100","板橋區"
"220020","277-BY","2017/07/13 14:19:53","新北市板橋區金門街330號","121.428198333333","24.9847633333333","6500100","板橋區"
"220012","280-UM","2017/07/13 14:19:43","新北市板橋區板新路7號","121.475493333333","25.0125583333333","6500100","板橋區"
"220019","283-VK","2017/07/13 14:19:49","新北市板橋區重慶路327巷15號","121.464406666667","24.9986083333333","6500100","板橋區"
"220043","285-UM","2017/07/13 14:19:55","新北市板橋區吳鳳路82號","121.46693","25.0312933333333","6500100","板橋區"
"220001","285-VK","2017/07/13 14:19:42","新北市板橋區富山街12號","121.478556666667","25.02181","6500100","板橋區"
"220031","286-VK","2017/07/13 14:19:42","新北市板橋區大觀路二段174巷186弄16號","121.442935","25.003425","6500100","板橋區"
"220029","287-VK","2017/07/13 14:19:46","新北市板橋區南雅西路二段2-1號","121.453153333333","25.0089","6500100","板橋區"
"220039","288-VK","2017/07/13 14:19:56","新北市板橋區裕民街21號","121.462185","25.0290066666667","6500100","板橋區"
"220009","293-UM","2017/07/13 14:19:59","新北市板橋區中山路二段318巷20弄42號","121.481356666667","25.0188133333333","6500100","板橋區"
"220032","296-UM","2017/07/13 14:19:58","新北市板橋區溪崑二街22巷26號","121.428293333333","24.991945","6500100","板橋區"
"220023","297-UM","2017/07/13 14:19:55","新北市板橋區府中路141-2號","121.455578333333","25.009415","6500100","板橋區"
"220041","299-UM","2017/07/13 14:19:43","新北市板橋區光武街48巷26號","121.46812","25.026845","6500100","板橋區"
"220010","305-R5","2017/07/13 14:19:55","新北市板橋區三民路二段153巷34弄1號","121.481178333333","25.0142283333333","6500100","板橋區"
"220047","317-R6","2017/07/13 14:19:42","新北市板橋區民有街96號","121.464768333333","25.0276766666667","6500100","板橋區"
"220028","461-BY","2017/07/13 14:19:58","新北市板橋區大觀路二段19巷68號","121.44864","25.0029116666667","6500100","板橋區"
"220038","487-VK","2017/07/13 14:19:52","新北市板橋區文化路二段37號","121.468941666667","25.02493","6500100","板橋區"
"220037","491-VK","2017/07/13 14:19:47","新北市板橋區雙十路二段239號","121.472688333333","25.028895","6500100","板橋區"
"220011","609-BX","2017/07/13 14:19:45","新北市板橋區三民路二段202-19號","121.47898","25.01338","6500100","板橋區"
"220005","686-BX","2017/07/13 14:19:52","新北市板橋區重慶路342號","121.464216666667","24.997425","6500100","板橋區"
"220025","687-BX","2017/07/13 14:19:56","新北市板橋區大觀路二段281號","121.44247","24.9988283333333","6500100","板橋區"
"220042","689-BX","2017/07/13 14:19:43","新北市板橋區文化路一段479巷44號","121.467743333333","25.0228416666667","6500100","板橋區"
"220002","741-BX","2017/07/13 14:19:50","新北市板橋區四川路一段199號","121.460606666667","25.0036766666667","6500100","板橋區"
"220003","827-TW","2017/07/13 14:19:56","新北市板橋區新民街6巷2號","121.464393333333","25.010485","6500100","板橋區"
"220014","829-TW","2017/07/13 14:19:52","新北市板橋區長安街138巷5弄62號","121.47399","25.0096316666667","6500100","板橋區"
"220051","830-TW","2017/07/13 14:19:41","新北市板橋區文聖街84號","121.477491666667","25.0298683333333","6500100","板橋區"
"220045","831-TW","2017/07/13 14:19:54","新北市板橋區大同街26巷2號","121.477918333333","25.0271366666667","6500100","板橋區"
"220022","895-R6","2017/07/13 14:19:58","新北市板橋區文昌街6-1號","121.456011666667","25.0101616666667","6500100","板橋區"
"220021","985-R7","2017/07/13 14:19:49","新北市板橋區民權路220號","121.458765","25.0141883333333","6500100","板橋區"
"220046","AAC-210","2017/07/13 14:19:58","新北市板橋區幸福路57號","121.460933333333","25.0198766666667","6500100","板橋區"
"220018","AAC-253","2017/07/13 14:20:00","新北市板橋區忠孝路28號","121.460348333333","25.00181","6500100","板橋區"
