"lineid","car","time","location","longitude","latitude","cityid","cityname"
"234005","207-UY","2017/07/13 14:39:42","新北市永和區中正路273號","121.517496666667","25.0008016666667","6500400","永和區"
"234062","337-UY","2017/07/13 14:39:55","新北市永和區中正路382號","121.517601666667","25.0013033333333","6500400","永和區"
"234084","338-UY","2017/07/13 14:39:57","新北市永和區永和路二段324號","121.516131666667","25.0164983333333","6500400","永和區"
"234052","553-UM","2017/07/13 14:39:46","新北市永和區環河東路一段80號","121.519561666667","25.0164166666667","6500400","永和區"
"234028","746-BX","2017/07/13 14:39:40","新北市新店區安德街148巷31號","121.506313333333","24.9606933333333","6500400","永和區"
"234060","AAD-866","2017/07/13 14:39:55","新北市永和區秀朗路一段108巷8號","121.516446666667","25.0037516666667","6500400","永和區"
"234066","847-RS","2017/07/13 14:39:51","新北市永和區保平路290號","121.508146666667","25.0046766666667","6500400","永和區"
"234025","9371-KE","2017/07/13 14:39:54","新北市永和區中和路501巷9號","121.510451666667","25.002755","6500400","永和區"
"248013","025-BX","2017/07/13 14:39:40","新北市五股區五福路52巷3弄6號","121.433493333333","25.0900916666667","6501500","五股區"
"248015","026-BX","2017/07/13 14:39:47","新北市五股區成泰路四段24-5號","121.453471666667","25.10684","6501500","五股區"
"248007","095-VK","2017/07/13 14:39:46","新北市五股區四維路118巷9號","121.468855","25.0743933333333","6501500","五股區"
"248017","225-UY","2017/07/13 14:20:04","新北市五股區壟路16號","121.415421666667","25.0855983333333","6501500","五股區"
"248011","247-BX","2017/07/13 14:39:51","新北市五股區民義路一段45號","121.436291666667","25.084535","6501500","五股區"
"248009","272-BY","2017/07/13 14:39:54","新北市五股區登林路貿商巷1弄9號","121.429626666667","25.0696583333333","6501500","五股區"
"248003","677-BX","2017/07/13 14:39:46","新北市五股區成泰路二段87號","121.438218333333","25.08393","6501500","五股區"
"248001","678-BX","2017/07/13 14:39:53","新北市五股區成泰路三段311-2號","121.447846666667","25.0949666666667","6501500","五股區"
"234022","9380-KE","2017/07/13 14:39:53","新北市永和區中正路570號","121.51706","25.0062766666667","6500400","永和區"
"234072","AAC-211","2017/07/13 14:39:54","新北市永和區環河東路二段30號","121.522593333333","25.0127033333333","6500400","永和區"
"234001","AAC-295","2017/07/13 14:39:44","新北市永和區中正路626號","121.516938333333","25.0079333333333","6500400","永和區"
"244003","248-BX","2017/07/13 14:39:53","新北市林口區瑞平里33-1號","121.348426666667","25.128675","6501700","林口區"
"244016","485-VK","2017/07/13 10:56:56","新北市林口區粉寮69號","121.404981666667","25.0908616666667","6501700","林口區"
"243005","AAD-798","2017/07/13 14:39:51","新北市泰山區應化街7號","121.423848333333","25.043725","6501600","泰山區"
"243001","297-R6","2017/07/13 14:39:55","新北市泰山區楓江路16巷25號","121.434105","25.0614116666667","6501600","泰山區"
"243007","380-SR","2017/07/13 14:39:42","新北市泰山區明志路二段214巷16弄16號","121.4269","25.0496583333333","6501600","泰山區"
"243006","421-VK","2017/07/13 14:39:53","新北市泰山區明志路一段180號","121.433011666667","25.0623716666667","6501600","泰山區"
"243002","548-UM","2017/07/13 14:39:59","新北市泰山區明志路二段136巷48號","121.426175","25.0520483333333","6501600","泰山區"
"243003","549-UM","2017/07/13 14:39:56","新北市泰山區明志路三段204巷10弄12號","121.423126666667","25.0386733333333","6501600","泰山區"
"243004","646-TV","2017/07/13 14:39:50","新北市泰山區楓江路34號","121.434445","25.0624283333333","6501600","泰山區"
"243008","680-BX","2017/07/13 14:39:52","新北市泰山區中山路二段845號","121.424836666667","25.03462","6501600","泰山區"
"231002","002-UM","2017/07/13 14:39:43","新北市新店區中正路468號","121.534015","24.9794533333333","6500600","新店區"
"231025","0291-UT","2017/07/13 14:39:59","新北市新店區民族路161號","121.537781666667","24.9767883333333","6500600","新店區"
"231028","046-UY","2017/07/13 14:39:46","新北市新店區安德街60巷35號","121.511081666667","24.9636533333333","6500600","新店區"
"231030","047-UY","2017/07/13 14:39:45","新北市新店區安民街113號","121.516278333333","24.9684633333333","6500600","新店區"
"231029","106-UY","2017/07/13 14:39:53","新北市新店區安康路三段177號","121.488451666667","24.9517683333333","6500600","新店區"
"231018","107-UY","2017/07/13 14:39:42","新北市新店區中央二街7-1號","121.529273333333","24.9731033333333","6500600","新店區"
"231011","108-UY","2017/07/13 14:39:47","新北市新店區寶宏路38號","121.549381666667","24.9755383333333","6500600","新店區"
"231021","187-VK","2017/07/13 14:39:56","新北市新店區新烏路二段411號","121.55155","24.9093316666667","6500600","新店區"
"231007","189-VK","2017/07/13 11:59:52","新北市新店區安華路28-1號","121.519521666667","24.9611833333333","6500600","新店區"
"231017","AAD-862","2017/07/13 14:39:41","新北市新店區北宜路三段221號","121.592403333333","24.95326","6500600","新店區"
"231027","3712-VJ","2017/07/13 14:39:44","新北市新店區中正路76巷11弄24號","121.543683333333","24.97192","6500600","新店區"
"231038","4715-K9","2017/07/13 14:39:43","新北市新店區溪洲路121號","121.53126","24.962615","6500600","新店區"
"231036","512-UM","2017/07/13 14:39:41","新北市新店區安祥路106巷327號","121.472503333333","24.9586216666667","6500600","新店區"
"231023","513-UM","2017/07/13 14:39:57","新北市新店區檳榔路20號","121.541186666667","24.9642516666667","6500600","新店區"
"231035","515-UM","2017/07/13 14:39:43","新北市新店區安德街20號","121.512393333333","24.9630616666667","6500600","新店區"
"231003","616-UM","2017/07/13 14:39:58","新北市新店區中興路一段286號","121.545783333333","24.9689683333333","6500600","新店區"
"231001","619-UM","2017/07/13 14:39:44","新北市新店區中正路96號","121.543468333333","24.9703383333333","6500600","新店區"
"231034","645-TV","2017/07/13 14:39:47","新北市新店區黎明路52巷9號","121.502036666667","24.9487516666667","6500600","新店區"
"231013","719-UM","2017/07/13 14:39:55","新北市新店區北新路二段171巷10號","121.54209","24.9764966666667","6500600","新店區"
"231005","897-TW","2017/07/13 14:39:52","新北市新店區復興路1巷15號","121.540701666667","24.9857583333333","6500600","新店區"
"231006","898-TW","2017/07/13 14:39:47","新北市新店區北宜路二段149號","121.551778333333","24.9531233333333","6500600","新店區"
"231004","899-TW","2017/07/13 14:39:54","新北市新店區中正路263-5號","121.53823","24.9739183333333","6500600","新店區"
"231037","AKT-0513","2017/07/13 14:39:55","新北市新店區柴埕路57號","121.51369","24.9652033333333","6500600","新店區"
"235030","003-UY","2017/07/13 14:39:54","新北市中和區景新街137號","121.506136666667","24.997","6500300","中和區"
"235028","005-UY","2017/07/13 14:39:58","新北市中和區南山路81巷60號","121.504013333333","24.99805","6500300","中和區"
"235027","006-UY","2017/07/13 14:39:53","新北市中和區連城路247號","121.49353","24.9971866666667","6500300","中和區"
"235020","096-UM","2017/07/13 14:39:55","新北市中和區員山路581巷2弄7-2號","121.477741666667","25.0096316666667","6500300","中和區"
"235003","097-UM","2017/07/13 14:39:55","新北市中和區景平路177號","121.511971666667","24.9924916666667","6500300","中和區"
"235029","098-UM","2017/07/13 14:39:45","新北市中和區莊敬路7號","121.499826666667","25.0044433333333","6500300","中和區"
"235004","150-BY","2017/07/13 14:39:51","新北市中和區宜安路65號","121.511248333333","24.9969683333333","6500300","中和區"
"235022","151-BY","2017/07/13 14:39:47","新北市中和區員山路124巷3號","121.481603333333","24.9959733333333","6500300","中和區"
"235019","183-VK","2017/07/13 14:39:56","新北市中和區德光路13號","121.471141666667","25.0044216666667","6500300","中和區"
"235002","185-VK","2017/07/13 14:39:57","新北市中和區自立路123號","121.521841666667","24.9942516666667","6500300","中和區"
"235013","186-VK","2017/07/13 14:39:53","新北市中和區景新街267號","121.509006666667","24.9940016666667","6500300","中和區"
"235031","255-BX","2017/07/13 14:39:57","新北市中和區新生街242巷11弄8號","121.482836666667","24.997445","6500300","中和區"
"235008","293-VK","2017/07/13 14:39:41","新北市中和區景安路202號","121.50406","24.9913116666667","6500300","中和區"
"235036","301-VK","2017/07/13 14:39:56","新北市中和區泰和街38巷1號","121.499266666667","25.0001066666667","6500300","中和區"
"235007","352-BY","2017/07/13 14:39:57","新北市中和區南山路92號","121.502856666667","24.9947683333333","6500300","中和區"
"235015","376-QA","2017/07/13 14:38:43","新北市中和區板南路148號","121.502106666667","24.9927466666667","6500300","中和區"
"235032","377-QA","2017/07/13 14:39:55","新北市中和區廟美街62號","121.500228333333","25.0025216666667","6500300","中和區"
"235025","378-QA","2017/07/13 14:39:52","新北市中和區民樂路26號","121.482493333333","25.0010966666667","6500300","中和區"
"235014","4979-A6","2017/07/13 14:39:13","新北市中和區景平路333號","121.50577","24.9933466666667","6500300","中和區"
"235033","4980-A6","2017/07/13 14:39:43","新北市中和區員山路36巷13號","121.48454","24.9909083333333","6500300","中和區"
"235006","551-UM","2017/07/13 14:39:58","新北市中和區保健路2巷21號","121.507248333333","24.9975566666667","6500300","中和區"
"235009","565-BX","2017/07/13 14:39:47","新北市中和區景新街320號","121.511745","24.9913083333333","6500300","中和區"
"235034","611-BX","2017/07/13 14:39:51","新北市中和區中山路二段248號","121.497753333333","25.0024816666667","6500300","中和區"
"235018","640-BX","2017/07/13 14:39:53","新北市中和區國光街112巷22弄20號","121.470616666667","25.00234","6500300","中和區"
"235024","647-TV","2017/07/13 14:39:55","新北市中和區中山路二段523巷41號","121.482305","25.0031433333333","6500300","中和區"
"235011","732-UM","2017/07/13 14:40:01","新北市中和區南山路283巷6號","121.504438333333","24.9923416666667","6500300","中和區"
"235010","733-UM","2017/07/13 14:39:50","新北市中和區忠孝街84號","121.511573333333","24.9842166666667","6500300","中和區"
"235035","783-BX","2017/07/13 14:39:55","新北市中和區連城路469-1號","121.483603333333","24.9958333333333","6500300","中和區"
"235026","800-TS","2017/07/13 14:39:57","新北市中和區中山路二段411號","121.485843333333","25.00423","6500300","中和區"
"235021","801-TS","2017/07/13 14:39:57","新北市中和區員山路437-3號","121.480756666667","25.0039516666667","6500300","中和區"
"235005","802-TS","2017/07/13 14:39:42","新北市中和區景安路51號","121.507343333333","24.9983133333333","6500300","中和區"
"235016","805-TS","2017/07/13 14:39:49","新北市中和區華新街143巷46號","121.50626","24.97999","6500300","中和區"
"235012","896-TW","2017/07/13 14:39:56","新北市中和區景新街551號","121.51499","24.9865983333333","6500300","中和區"
"235017","900-TW","2017/07/13 14:39:56","新北市中和區民德路197-2號","121.46896","24.9986183333333","6500300","中和區"
"235001","AAC-213","2017/07/13 14:39:55","新北市中和區秀朗路三段10巷37弄15號","121.524048333333","24.9955533333333","6500300","中和區"
"235023","AAC-215","2017/07/13 14:39:50","新北市中和區圓通路305巷5弄1號","121.493525","24.9902933333333","6500300","中和區"
"220016","013-TV","2017/07/13 14:39:55","新北市板橋區中山路二段416巷36-1號","121.483131666667","25.0198216666667","6500100","板橋區"
"220104","015-TV","2017/07/13 14:39:41","新北市板橋區中正路433巷27號","121.453258333333","25.0236516666667","6500100","板橋區"
"220013","072-UY","2017/07/13 14:39:50","新北市板橋區實踐路93巷77號","121.467153333333","25.0053266666667","6500100","板橋區"
"220034","073-UY","2017/07/13 14:39:40","新北市板橋區中正路216巷150弄1號","121.460835","25.0194833333333","6500100","板橋區"
"220017","AAD-861","2017/07/13 14:39:46","新北市板橋區貴興路41號","121.457576666667","25.0036116666667","6500100","板橋區"
"220105","120-SR","2017/07/13 14:39:44","新北市板橋區雙十路三段10巷1弄31號","121.47133","25.0317483333333","6500100","板橋區"
"247019","893-R6","2017/07/13 14:39:56","新北市蘆洲區民義街82號","121.473498333333","25.0902966666667","6501400","蘆洲區"
"247009","546-UM","2017/07/13 14:39:54","新北市蘆洲區集賢路320號","121.481388333333","25.0848766666667","6501400","蘆洲區"
"247017","500-BY","2017/07/13 14:39:47","新北市蘆洲區民族路273號","121.475908333333","25.0908266666667","6501400","蘆洲區"
"247005","341-TH","2017/07/13 14:39:47","新北市蘆洲區長安街68巷20號","121.463791666667","25.0808433333333","6501400","蘆洲區"
"247007","339-TH","2017/07/13 14:39:57","新北市蘆洲區民生街72號","121.472973333333","25.07905","6501400","蘆洲區"
"247023","337-TH","2017/07/13 14:39:46","新北市蘆洲區中山二路222巷20號","121.469311666667","25.0805266666667","6501400","蘆洲區"
"247001","336-TH","2017/07/13 14:40:00","新北市蘆洲區永樂街38巷57弄35-1號","121.457191666667","25.0902783333333","6501400","蘆洲區"
"247013","057-VK","2017/07/13 14:39:44","新北市蘆洲區中央路61-3號","121.473328333333","25.0834016666667","6501400","蘆洲區"
"247003","056-VK","2017/07/13 14:39:57","新北市蘆洲區長安街220巷21弄4號","121.459525","25.0856666666667","6501400","蘆洲區"
"247011","007-UY","2017/07/13 14:39:45","新北市蘆洲區集賢路224巷66號","121.48078","25.0881116666667","6501400","蘆洲區"
"247021","002-UY","2017/07/13 14:39:52","新北市蘆洲區三民路256號","121.467803333333","25.0900116666667","6501400","蘆洲區"
"247015","001-UY","2017/07/13 14:39:54","新北市蘆洲區光華路73巷25號","121.468478333333","25.0820883333333","6501400","蘆洲區"
"228005","097-TW","2017/07/13 14:39:45","新北市貢寮區美豐里雞母嶺街6-6號","121.902063333333","25.0642333333333","6502600","貢寮區"
"228004","212-TW","2017/07/13 14:39:44","新北市貢寮區福隆里龜壽谷街30-7號","121.946798333333","25.01419","6502600","貢寮區"
"253005","295-VK","2017/07/13 10:21:24","新北市石門區中山路64-1號","121.567686666667","25.2903833333333","6502200","石門區"
"208004","AAC-292","2017/07/13 14:39:50","新北市金山區重和里牛埔仔9號","121.602015","25.2207483333333","6502700","金山區"
"207002","749-BX","2017/07/13 14:39:55","新北市萬里區溪底里富士坪路1-2號","121.630071666667","25.1495683333333","6502800","萬里區"
"207001","463-BY","2017/07/13 14:38:09","新北市萬里區雙興里豐稟路22號","121.640811666667","25.18665","6502800","萬里區"
"252005","073-UM","2017/07/13 08:47:30","新北市三芝區埔坪里埔頭坑41號","121.50447","25.264305","6502100","三芝區"
"252005","702-TV","2017/07/13 14:39:41","新北市三芝區埔坪里埔頭坑122-1號","121.518973333333","25.2448183333333","6502100","三芝區"
"236066","105-UM","2017/07/13 14:39:57","新北市土城區永豐路255巷27弄28號","121.47668","24.9736283333333","6501300","土城區"
"236040","107-UM","2017/07/13 14:40:01","新北市土城區學成路108巷6號","121.450146666667","24.98955","6501300","土城區"
"236076","166-UM","2017/07/13 14:39:57","新北市土城區中央路四段52巷36號","121.41995","24.9607516666667","6501300","土城區"
"236028","253-BX","2017/07/13 14:39:43","新北市土城區中華路二段187號","121.438463333333","24.97461","6501300","土城區"
"236024","269-VK","2017/07/13 14:39:51","新北市土城區忠義路47號","121.440553333333","24.9694033333333","6501300","土城區"
"236012","270-VK","2017/07/13 14:39:55","新北市土城區清水路240號","121.461268333333","24.982395","6501300","土城區"
"236033","271-VK","2017/07/13 14:39:44","新北市土城區明德路一段313巷24號","121.459625","24.976215","6501300","土城區"
"236003","370-SL","2017/07/13 14:38:38","新北市土城區永平街51號","121.427625","24.95923","6501300","土城區"
"236018","401-BY","2017/07/13 14:39:49","新北市土城區永豐路12號","121.46566","24.984575","6501300","土城區"
"236056","912-UM","2017/07/13 14:39:52","新北市土城區中央路四段81號","121.417081666667","24.9581716666667","6501300","土城區"
"236047","913-UM","2017/07/13 14:39:54","新北市土城區明德路一段6號","121.464843333333","24.98571","6501300","土城區"
"236060","915-UM","2017/07/13 14:39:49","新北市土城區延壽路13巷40號","121.469983333333","24.9914733333333","6501300","土城區"
"236052","AAC-216","2017/07/13 14:39:49","新北市土城區中華路一段135號","121.444238333333","24.9865483333333","6501300","土城區"
"242006","173-VK","2017/07/13 11:00:37","新北市新莊區三和路12-21號","121.442053333333","25.038775","6500500","新莊區"
"220027","145-BY","2017/07/13 14:39:32","新北市板橋區民權路202巷17弄8號","121.460411666667","25.0166616666667","6500100","板橋區"
"220030","610-BX","2017/07/13 14:39:44","新北市板橋區金門街375號","121.428215","24.9845683333333","6500100","板橋區"
"220050","245-BX","2017/07/13 14:39:57","新北市板橋區莊敬路220巷19號","121.47248","25.0207333333333","6500100","板橋區"
"220052","257-TC","2017/07/13 14:39:45","新北市板橋區文化路一段288號","121.46735","25.021495","6500100","板橋區"
"220040","267-BY","2017/07/13 14:39:29","新北市板橋區懷德街199號","121.480405","25.0291866666667","6500100","板橋區"
"220004","276-BY","2017/07/13 14:39:51","新北市板橋區信義路1巷26弄30號","121.458326666667","24.996465","6500100","板橋區"
"220020","277-BY","2017/07/13 14:39:53","新北市板橋區金門街253巷16弄11號","121.432763333333","24.9879083333333","6500100","板橋區"
"220012","280-UM","2017/07/13 14:39:43","新北市板橋區四川路一段6號","121.459403333333","25.00691","6500100","板橋區"
"220019","283-VK","2017/07/13 14:39:59","新北市板橋區四川路一段283巷5號","121.459778333333","25.0013183333333","6500100","板橋區"
"220043","285-UM","2017/07/13 14:39:55","新北市板橋區宏國路96號","121.470128333333","25.03205","6500100","板橋區"
"220001","285-VK","2017/07/13 14:39:43","新北市板橋區懷仁街77巷35號","121.477726666667","25.0194383333333","6500100","板橋區"
"220031","286-VK","2017/07/13 14:39:42","新北市板橋區龍興街65巷20號","121.443195","25.0015733333333","6500100","板橋區"
"220029","287-VK","2017/07/13 14:39:46","新北市板橋區大觀路一段77號","121.447168333333","25.0044416666667","6500100","板橋區"
"220039","288-VK","2017/07/13 14:39:56","新北市板橋區裕民街56巷2號","121.461385","25.02883","6500100","板橋區"
"220009","293-UM","2017/07/13 14:39:41","新北市板橋區中山路一段265巷16號","121.468565","25.0145966666667","6500100","板橋區"
"220032","296-UM","2017/07/13 14:39:58","新北市板橋區滿平街84巷100弄5號","121.42632","24.9863783333333","6500100","板橋區"
"220023","297-UM","2017/07/13 14:39:55","新北市板橋區中正路275巷17號","121.4541","25.0183616666667","6500100","板橋區"
"220041","299-UM","2017/07/13 14:39:22","新北市板橋區文化路一段387巷13號","121.46637","25.022055","6500100","板橋區"
"220010","305-R5","2017/07/13 14:39:55","新北市板橋區三民路二段81巷23號","121.480418333333","25.0167783333333","6500100","板橋區"
"220047","317-R6","2017/07/13 14:39:42","新北市板橋區四維路269巷49號","121.461216666667","25.0272866666667","6500100","板橋區"
"220028","461-BY","2017/07/13 14:39:58","新北市板橋區大觀路二段153巷46弄16號","121.449093333333","24.999795","6500100","板橋區"
"220038","487-VK","2017/07/13 14:39:54","新北市板橋區文化路一段98號","121.464565","25.0179083333333","6500100","板橋區"
"220037","491-VK","2017/07/13 14:39:47","新北市板橋區雙十路二段151號","121.474536666667","25.028255","6500100","板橋區"
"220011","609-BX","2017/07/13 14:39:45","新北市板橋區三民路二段140號","121.47901","25.015975","6500100","板橋區"
"220034","630-UY","2017/07/13 14:39:44","新北市板橋區南雅南路二段144巷84號","121.449971666667","24.995535","6500100","板橋區"
"220005","686-BX","2017/07/13 14:39:50","新北市板橋區和平路82-1號","121.461453333333","24.99451","6500100","板橋區"
"220025","687-BX","2017/07/13 14:39:56","新北市板橋區僑中二街102巷1-4號","121.44598","25.00819","6500100","板橋區"
"220042","689-BX","2017/07/13 14:39:43","新北市板橋區新海路122號","121.461103333333","25.0229433333333","6500100","板橋區"
"220002","741-BX","2017/07/13 14:39:50","新北市中和區德光路100號","121.468511666667","25.0034083333333","6500100","板橋區"
"220003","827-TW","2017/07/13 14:39:47","新北市板橋區重慶路290巷22弄3號","121.462228333333","24.9991883333333","6500100","板橋區"
"220014","829-TW","2017/07/13 14:39:52","新北市板橋區漢生東路193巷53號","121.471686666667","25.011765","6500100","板橋區"
"220051","830-TW","2017/07/13 14:39:41","新北市板橋區雙十路二段46巷20號","121.476306666667","25.0280466666667","6500100","板橋區"
"220045","831-TW","2017/07/13 14:39:55","新北市板橋區民生路二段234巷24弄3號","121.470473333333","25.02229","6500100","板橋區"
"220022","895-R6","2017/07/13 14:39:55","新北市板橋區大東街34號","121.456476666667","25.0087516666667","6500100","板橋區"
"220021","985-R7","2017/07/13 14:39:49","新北市板橋區新生街50號","121.456785","25.0210383333333","6500100","板橋區"
"220046","AAC-210","2017/07/13 14:39:58","新北市板橋區新海路93號","121.461563333333","25.0217766666667","6500100","板橋區"
"220018","AAC-253","2017/07/13 14:39:51","新北市板橋區四川路一段159號","121.45994","25.0040116666667","6500100","板橋區"
