"lineid","car","time","location","longitude","latitude","cityid","cityname"
"248015","026-BX","2017/07/13 15:09:47","新北市五股區天乙路34號","121.448438333333","25.103485","6501500","五股區"
"248007","095-VK","2017/07/13 15:09:46","新北市五股區中興路一段1巷12弄17號","121.46935","25.070855","6501500","五股區"
"248017","225-UY","2017/07/13 15:09:20","新北市五股區登林路105-6號","121.40765","25.07911","6501500","五股區"
"248003","677-BX","2017/07/13 15:09:46","新北市五股區成泰路一段149-7號","121.43534","25.0738","6501500","五股區"
"244003","248-BX","2017/07/13 15:09:32","新北市林口區後坑14號","121.35986","25.1200016666667","6501700","林口區"
"244016","485-VK","2017/07/13 10:56:56","新北市林口區粉寮69號","121.404981666667","25.0908616666667","6501700","林口區"
"243001","297-R6","2017/07/13 15:09:51","新北市泰山區泰林路二段542巷3弄5號","121.423126666667","25.064105","6501600","泰山區"
"243006","421-VK","2017/07/13 15:09:52","新北市泰山區泰林路三段745巷145號","121.405603333333","25.06773","6501600","泰山區"
"243003","549-UM","2017/07/13 15:09:56","新北市泰山區新北大道六段313巷22號","121.424216666667","25.03327","6501600","泰山區"
"243008","680-BX","2017/07/13 15:09:51","新北市泰山區文程路36-1號","121.429636666667","25.0486","6501600","泰山區"
"231002","002-UM","2017/07/13 15:09:43","新北市新店區中正路539-5號","121.533463333333","24.98664","6500600","新店區"
"231025","0291-UT","2017/07/13 15:09:59","新北市新店區民權路107號","121.536556666667","24.982225","6500600","新店區"
"231028","046-UY","2017/07/13 15:09:47","新北市新店區僑愛七路53號","121.5016","24.9446766666667","6500600","新店區"
"231030","047-UY","2017/07/13 15:09:45","新北市新店區安民街339號","121.516983333333","24.9748066666667","6500600","新店區"
"231029","106-UY","2017/07/13 15:09:53","新北市新店區安康路三段738號","121.473886666667","24.9420466666667","6500600","新店區"
"231018","107-UY","2017/07/13 15:09:42","新北市新店區溪園路449號","121.524766666667","24.9776366666667","6500600","新店區"
"231011","108-UY","2017/07/13 15:09:47","新北市新店區寶慶街58巷12號","121.54205","24.987285","6500600","新店區"
"231021","187-VK","2017/07/13 15:09:56","新北市新店區永福路72-2號","121.560703333333","24.9275433333333","6500600","新店區"
"231007","189-VK","2017/07/13 11:59:52","新北市新店區安華路28-1號","121.519521666667","24.9611833333333","6500600","新店區"
"231026","256-BX","2017/07/13 15:09:46","新北市新店區建興街6號","121.539951666667","24.97649","6500600","新店區"
"231017","AAD-862","2017/07/13 15:08:21","新北市新店區明山路65號","121.565476666667","24.957145","6500600","新店區"
"231024","3713-VJ","2017/07/13 15:09:50","新北市新店區中華路42巷30號","121.541023333333","24.9689716666667","6500600","新店區"
"231036","512-UM","2017/07/13 15:09:41","新北市新店區安祥路104巷11弄15號","121.480831666667","24.9632533333333","6500600","新店區"
"231023","513-UM","2017/07/13 15:09:57","新北市新店區檳榔路109號","121.544468333333","24.9617633333333","6500600","新店區"
"231035","515-UM","2017/07/13 15:09:43","新北市新店區安和路三段120巷14號","121.517551666667","24.9857283333333","6500600","新店區"
"231003","616-UM","2017/07/13 15:09:58","新北市新店區寶橋路207號","121.548601666667","24.9770733333333","6500600","新店區"
"231001","619-UM","2017/07/13 15:09:44","新北市新店區中正路274號","121.538851666667","24.973615","6500600","新店區"
"231034","645-TV","2017/07/13 15:09:47","新北市新店區玫瑰路4-1號","121.493586666667","24.95142","6500600","新店區"
"231039","718-UY","2017/07/13 15:09:55","新北市新店區中興路三段258號","121.542778333333","24.9842466666667","6500600","新店區"
"231031","720-UM","2017/07/13 15:09:51","新北市新店區安泰路109號","121.48673","24.9432233333333","6500600","新店區"
"231005","897-TW","2017/07/13 15:09:52","新北市新店區北新路三段169號","121.540955","24.98396","6500600","新店區"
"231006","898-TW","2017/07/13 15:09:47","新北市新店區新坡一街18巷5弄8-1號","121.550716666667","24.96184","6500600","新店區"
"231004","899-TW","2017/07/13 15:09:54","新北市新店區建國路86號","121.54052","24.9768366666667","6500600","新店區"
"231037","AKT-0513","2017/07/13 15:09:55","新北市新店區安民街307號","121.517576666667","24.9739366666667","6500600","新店區"
"241009","060-VK","2017/07/13 15:09:51","新北市三重區重新路四段121號","121.484978333333","25.0519166666667","6500200","三重區"
"241013","270-UM","2017/07/13 15:10:00","新北市三重區重新路四段121號","121.484728333333","25.05231","6500200","三重區"
"241020","413-TH","2017/07/13 15:09:58","新北市三重區重新路四段121號","121.485361666667","25.0520416666667","6500200","三重區"
"241029","942-UM","2017/07/13 15:09:55","新北市三重區重新路四段121號","121.485021666667","25.051925","6500200","三重區"
"235030","003-UY","2017/07/13 15:09:54","新北市中和區保平路291號","121.506565","25.0035816666667","6500300","中和區"
"235003","097-UM","2017/07/13 15:09:55","新北市中和區宜安路52巷14號","121.512413333333","24.99715","6500300","中和區"
"235029","098-UM","2017/07/13 15:09:45","新北市中和區福美路314號","121.496743333333","25.0048583333333","6500300","中和區"
"235004","150-BY","2017/07/13 15:09:51","新北市中和區景安路77號","121.506475","24.9973983333333","6500300","中和區"
"235022","151-BY","2017/07/13 15:09:47","新北市中和區中正路659號","121.485018333333","24.99623","6500300","中和區"
"235008","293-VK","2017/07/13 15:09:41","新北市中和區板南路188-1號","121.50035","24.99275","6500300","中和區"
"235036","301-VK","2017/07/13 15:09:56","新北市新店區安康路二段320巷6號","121.504791666667","24.959105","6500300","中和區"
"235007","352-BY","2017/07/13 15:09:57","新北市中和區興南路二段159巷10號","121.505033333333","24.9831533333333","6500300","中和區"
"235015","376-QA","2017/07/13 15:09:23","新北市中和區復興路280巷19號","121.502063333333","24.9915966666667","6500300","中和區"
"235032","377-QA","2017/07/13 15:09:55","新北市中和區福美路261號","121.49846","25.005005","6500300","中和區"
"235014","4979-A6","2017/07/13 15:09:53","新北市中和區景新街313號","121.511081666667","24.992315","6500300","中和區"
"235033","4980-A6","2017/07/13 15:09:43","新北市中和區景新街50巷8號","121.503401666667","24.9987483333333","6500300","中和區"
"235034","611-BX","2017/07/13 15:09:47","新北市中和區連勝街39號","121.498205","24.9976666666667","6500300","中和區"
"235018","640-BX","2017/07/13 15:09:58","新北市中和區莒光路3巷1號","121.471805","25.006195","6500300","中和區"
"235010","733-UM","2017/07/13 15:09:47","新北市中和區忠孝街31巷26號","121.510033333333","24.9843433333333","6500300","中和區"
"235035","783-BX","2017/07/13 15:09:55","新北市中和區中正路802號","121.485046666667","25.0017783333333","6500300","中和區"
"235012","896-TW","2017/07/13 15:09:56","新北市中和區興南路一段129號","121.508985","24.9877166666667","6500300","中和區"
"235017","900-TW","2017/07/13 15:09:57","新北市中和區民德路208號","121.468228333333","24.998335","6500300","中和區"
"235001","AAC-213","2017/07/13 15:09:55","新北市中和區秀朗路三段107號","121.526518333333","24.994645","6500300","中和區"
"235023","AAC-215","2017/07/13 15:09:50","新北市中和區圓通路367巷13弄81號","121.493646666667","24.9877216666667","6500300","中和區"
"220016","013-TV","2017/07/13 15:09:55","新北市板橋區光復街230號","121.484748333333","25.021365","6500100","板橋區"
"220104","015-TV","2017/07/13 15:10:01","新北市板橋區金華街21巷17號","121.456006666667","25.0207416666667","6500100","板橋區"
"220013","072-UY","2017/07/13 15:09:52","新北市板橋區區運路66號","121.466318333333","25.0101133333333","6500100","板橋區"
"220017","AAD-861","2017/07/13 15:09:46","新北市板橋區貴興路79號","121.456826666667","25.0029966666667","6500100","板橋區"
"220105","120-SR","2017/07/13 15:09:44","新北市板橋區仁化街150巷5-1號","121.478063333333","25.0329633333333","6500100","板橋區"
"247005","341-TH","2017/07/13 15:09:47","新北市八里區中山路三段382號","121.368531666667","25.1359416666667","6501400","蘆洲區"
"247013","057-VK","2017/07/13 15:09:44","新北市八里區荖阡坑路34-1號","121.401096666667","25.1305433333333","6501400","蘆洲區"
"228004","212-TW","2017/07/13 15:09:44","新北市貢寮區雙玉里田寮洋街16-2號","121.921778333333","25.0252033333333","6502600","貢寮區"
"253005","295-VK","2017/07/13 10:21:24","新北市石門區中山路64-1號","121.567686666667","25.2903833333333","6502200","石門區"
"208004","AAC-292","2017/07/13 15:09:49","新北市金山區西湖里尖山仔20-1號","121.617676666667","25.2453283333333","6502700","金山區"
"207001","463-BY","2017/07/13 15:09:49","新北市萬里區磺潭里員潭路15-1號","121.646746666667","25.19843","6502800","萬里區"
"252005","073-UM","2017/07/13 08:47:30","新北市三芝區埔坪里埔頭坑41號","121.50447","25.264305","6502100","三芝區"
"237010","706-TV","2017/07/13 14:56:10","新北市三峽區中山路459巷163-3號","121.348698333333","24.9326","6500900","三峽區"
"236066","105-UM","2017/07/13 15:09:51","新北市土城區裕民路37號","121.44834","24.9883566666667","6501300","土城區"
"236040","107-UM","2017/07/13 15:10:00","新北市土城區學士路25號","121.453213333333","24.9823833333333","6501300","土城區"
"236076","166-UM","2017/07/13 15:09:57","新北市土城區中州路3巷43號","121.413396666667","24.9562916666667","6501300","土城區"
"236028","253-BX","2017/07/13 15:09:43","新北市土城區中央路二段54號","121.442583333333","24.9794566666667","6501300","土城區"
"236024","269-VK","2017/07/13 15:09:50","新北市土城區中正路64號","121.444201666667","24.9754283333333","6501300","土城區"
"236012","270-VK","2017/07/13 15:09:55","新北市土城區學府路一段77號","121.456866666667","24.9882366666667","6501300","土城區"
"236033","271-VK","2017/07/13 15:09:44","新北市土城區仁愛路16巷22號","121.460066666667","24.9797883333333","6501300","土城區"
"236003","370-SL","2017/07/13 14:38:38","新北市土城區永平街51號","121.427625","24.95923","6501300","土城區"
"236018","401-BY","2017/07/13 15:09:49","新北市土城區延吉街185號","121.469138333333","24.985545","6501300","土城區"
"236056","912-UM","2017/07/13 15:09:52","新北市土城區清水路25巷14號","121.453355","24.9806333333333","6501300","土城區"
"236047","913-UM","2017/07/13 15:09:54","新北市土城區清水路119號","121.457723333333","24.9816716666667","6501300","土城區"
"236052","AAC-216","2017/07/13 15:09:42","新北市土城區學成路7號","121.453335","24.986475","6501300","土城區"
"242006","173-VK","2017/07/13 11:00:37","新北市新莊區三和路12-21號","121.442053333333","25.038775","6500500","新莊區"
"238002","755-BX","2017/07/13 15:09:56","新北市樹林區八德街1166號","121.390458333333","24.968375","6500700","樹林區"
"238010","601-UM","2017/07/13 15:09:42","新北市樹林區八德街1012號","121.391343333333","24.9684933333333","6500700","樹林區"
"238006","599-UM","2017/07/13 15:09:56","新北市樹林區八德街1168號","121.390378333333","24.9683483333333","6500700","樹林區"
"238005","571-TV","2017/07/13 15:09:44","新北市樹林區八德街491-8號","121.402433333333","24.969305","6500700","樹林區"
"238011","5061-A6","2017/07/13 15:09:54","新北市樹林區中山路二段54號","121.41631","24.98446","6500700","樹林區"
"238009","312-TH","2017/07/13 15:09:39","新北市樹林區八德街1152號","121.390718333333","24.9684266666667","6500700","樹林區"
"238008","311-TH","2017/07/13 15:08:38","新北市樹林區佳園路一段94號","121.393605","24.9684883333333","6500700","樹林區"
"238012","303-VK","2017/07/13 15:09:47","新北市樹林區八德街648號","121.39663","24.9691383333333","6500700","樹林區"
"238004","283-BY","2017/07/13 15:09:47","新北市樹林區八德街1022號","121.391046666667","24.9684933333333","6500700","樹林區"
"238001","282-BY","2017/07/13 15:09:54","新北市樹林區八德街1160號","121.390545","24.96842","6500700","樹林區"
"238007","268-VK","2017/07/13 15:09:58","新北市樹林區八德街1172號","121.390143333333","24.96831","6500700","樹林區"
"238013","172-UY","2017/07/13 15:09:54","新北市樹林區八德街1148號","121.390781666667","24.968315","6500700","樹林區"
"238003","169-UY","2017/07/13 15:09:48","新北市樹林區大安路571號","121.411918333333","24.9836783333333","6500700","樹林區"
"220027","145-BY","2017/07/13 15:09:53","新北市板橋區中正路183巷32號","121.455468333333","25.016145","6500100","板橋區"
"220030","610-BX","2017/07/13 15:09:44","新北市板橋區溪北路60號","121.427693333333","24.98975","6500100","板橋區"
"220050","245-BX","2017/07/13 15:09:43","新北市板橋區雙十路一段44巷36號","121.477346666667","25.0248983333333","6500100","板橋區"
"220052","257-TC","2017/07/13 15:09:45","新北市板橋區英士路13號","121.461955","25.0252166666667","6500100","板橋區"
"220040","267-BY","2017/07/13 15:09:49","新北市板橋區文聖街101號","121.477796666667","25.029595","6500100","板橋區"
"220020","277-BY","2017/07/13 15:09:53","新北市板橋區金門街109巷25號","121.433886666667","24.9916666666667","6500100","板橋區"
"220012","280-UM","2017/07/13 15:09:52","新北市板橋區實踐路60號","121.463846666667","25.00599","6500100","板橋區"
"220019","283-VK","2017/07/13 15:09:48","新北市板橋區和平路174巷24號","121.464533333333","24.9946033333333","6500100","板橋區"
"220043","285-UM","2017/07/13 15:09:55","新北市板橋區文化路一段371號","121.467053333333","25.0214466666667","6500100","板橋區"
"220001","285-VK","2017/07/13 15:09:42","新北市板橋區永豐街96-2號","121.475715","25.0203733333333","6500100","板橋區"
"220031","286-VK","2017/07/13 15:09:42","新北市板橋區僑中二街90巷14號","121.445676666667","25.009275","6500100","板橋區"
"220029","287-VK","2017/07/13 15:09:46","新北市板橋區僑中一街80巷14弄2號","121.448211666667","25.0134866666667","6500100","板橋區"
"220039","288-VK","2017/07/13 15:09:56","新北市板橋區幸福路32巷2弄31號","121.46085","25.0218633333333","6500100","板橋區"
"220009","293-UM","2017/07/13 15:09:41","新北市板橋區中山路一段156號","121.464955","25.0116833333333","6500100","板橋區"
"220032","296-UM","2017/07/13 15:09:49","新北市板橋區溪崑二街110號","121.426241666667","24.9886916666667","6500100","板橋區"
"220023","297-UM","2017/07/13 15:09:55","新北市板橋區金華街10巷133號","121.459905","25.0207","6500100","板橋區"
"220041","299-UM","2017/07/13 15:09:42","新北市板橋區幸福路60巷59號","121.460063333333","25.0214733333333","6500100","板橋區"
"220010","305-R5","2017/07/13 15:09:55","新北市板橋區中山路二段613號","121.485376666667","25.022515","6500100","板橋區"
"220038","487-VK","2017/07/13 15:09:52","新北市板橋區龍泉街80號","121.456341666667","25.0255266666667","6500100","板橋區"
"220037","491-VK","2017/07/13 15:09:47","新北市板橋區懷德街189-3號","121.479901666667","25.0295416666667","6500100","板橋區"
"220011","609-BX","2017/07/13 15:09:57","新北市板橋區中山路二段312號","121.479981666667","25.0191416666667","6500100","板橋區"
"220034","630-UY","2017/07/13 15:09:44","新北市板橋區南雅南路二段120-8號","121.452283333333","24.9995333333333","6500100","板橋區"
"220005","686-BX","2017/07/13 15:09:50","新北市板橋區四川路二段86號","121.45202","24.9946083333333","6500100","板橋區"
"220025","687-BX","2017/07/13 15:09:56","新北市板橋區僑中一街124巷86-4號","121.447585","25.0182483333333","6500100","板橋區"
"220042","689-BX","2017/07/13 15:09:43","新北市板橋區吳鳳路91-1號","121.466615","25.0319233333333","6500100","板橋區"
"220003","827-TW","2017/07/13 15:09:47","新北市板橋區國慶路149巷4弄16-4號","121.461898333333","24.99704","6500100","板橋區"
"220014","829-TW","2017/07/13 15:09:51","新北市板橋區縣民大道一段308號","121.461363333333","25.010845","6500100","板橋區"
"220051","830-TW","2017/07/13 15:09:45","新北市板橋區民治街135號","121.477741666667","25.030715","6500100","板橋區"
"220045","831-TW","2017/07/13 15:09:54","新北市板橋區莊敬路141巷7號","121.472226666667","25.02473","6500100","板橋區"
"220022","895-R6","2017/07/13 15:09:38","新北市板橋區府中路23號","121.459103333333","25.009455","6500100","板橋區"
"220021","985-R7","2017/07/13 15:09:50","新北市板橋區館前西路166-1號","121.452376666667","25.0085566666667","6500100","板橋區"
"220046","AAC-210","2017/07/13 15:09:58","新北市板橋區光正街9巷22弄9號","121.46224","25.0164983333333","6500100","板橋區"
"220018","AAC-253","2017/07/13 15:09:40","新北市板橋區成都街76號","121.463583333333","25.0052716666667","6500100","板橋區"
