"lineid","car","time","location","longitude","latitude","cityid","cityname"
"244016","485-VK","2017/07/13 10:56:56","新北市林口區粉寮69號","121.404981666667","25.0908616666667","6501700","林口區"
"243009","297-R6","2017/07/13 15:59:14","新北市泰山區黎明路25號","121.422026666667","25.06096","6501600","泰山區"
"231018","107-UY","2017/07/13 16:19:42","新北市新店區中正路700巷82號","121.53596","24.9932616666667","6500600","新店區"
"231007","189-VK","2017/07/13 11:59:52","新北市新店區安華路28-1號","121.519521666667","24.9611833333333","6500600","新店區"
"231046","278-BY","2017/07/13 16:19:42","新北市新店區灣潭路3-3號","121.538216666667","24.95079","6500600","新店區"
"241011","013-R5","2017/07/13 16:19:40","新北市三重區龍濱路285號","121.501091666667","25.0733283333333","6500200","三重區"
"241028","022-UY","2017/07/13 16:19:51","新北市三重區同安東街10號","121.49709","25.0570616666667","6500200","三重區"
"241008","059-VK","2017/07/13 16:19:51","新北市三重區永福街122-2號","121.479073333333","25.0753166666667","6500200","三重區"
"241009","060-VK","2017/07/13 16:19:51","新北市三重區溪尾街196巷9號","121.487865","25.0808633333333","6500200","三重區"
"241031","061-VK","2017/07/13 16:19:45","新北市三重區重新路四段146號","121.486336666667","25.0563533333333","6500200","三重區"
"241017","063-VK","2017/07/13 16:19:51","新北市三重區大同北路91號","121.494761666667","25.06363","6500200","三重區"
"241024","065-VK","2017/07/13 16:19:52","新北市三重區中正北路340號","121.47832","25.0691866666667","6500200","三重區"
"241026","066-VK","2017/07/13 16:19:49","新北市三重區正義南路43-1號","121.498136666667","25.0608333333333","6500200","三重區"
"241002","090-VK","2017/07/13 16:19:48","新北市三重區仁義街47號","121.498341666667","25.0788333333333","6500200","三重區"
"241003","091-VK","2017/07/13 16:19:40","新北市三重區仁義街220巷22號","121.49452","25.0836233333333","6500200","三重區"
"241005","262-UM","2017/07/13 16:19:44","新北市三重區溪尾街300-2號","121.487316666667","25.0836233333333","6500200","三重區"
"241016","265-UM","2017/07/13 16:20:00","新北市三重區大仁街94號","121.492895","25.0655583333333","6500200","三重區"
"241022","267-UM","2017/07/13 16:19:38","新北市三重區新北大道一段11號","121.488018333333","25.061015","6500200","三重區"
"241018","268-UM","2017/07/13 16:19:43","新北市三重區重陽路三段5巷8弄15號","121.489811666667","25.0659616666667","6500200","三重區"
"241013","270-UM","2017/07/13 16:19:53","新北市三重區龍門路40號","121.495886666667","25.0725283333333","6500200","三重區"
"241025","271-UM","2017/07/13 16:19:42","新北市三重區中正北路560巷100弄2號","121.472546666667","25.0682233333333","6500200","三重區"
"241007","398-BY","2017/07/13 16:19:57","新北市三重區三和路四段163巷95號","121.486611666667","25.0795916666667","6500200","三重區"
"241020","413-TH","2017/07/13 16:19:58","新北市三重區車路頭街17巷4號","121.484075","25.070555","6500200","三重區"
"241004","475-VK","2017/07/13 16:19:51","新北市三重區五華街74號","121.493468333333","25.0821616666667","6500200","三重區"
"241030","480-VK","2017/07/13 16:19:44","新北市三重區重新路四段121號","121.48473","25.052405","6500200","三重區"
"241014","543-UM","2017/07/13 16:19:57","新北市三重區河邊北街96-1號","121.503931666667","25.069855","6500200","三重區"
"241023","545-UM","2017/07/13 16:19:49","新北市三重區忠孝路三段32號","121.481288333333","25.0668133333333","6500200","三重區"
"241001","547-UM","2017/07/13 16:19:50","新北市三重區自強路四段87號","121.491095","25.07935","6500200","三重區"
"241006","AAD-863","2017/07/13 16:19:38","新北市三重區永福街46巷41弄27號","121.481565","25.0772116666667","6500200","三重區"
"241012","941-UM","2017/07/13 16:19:48","新北市三重區龍門路43號","121.496251666667","25.0722683333333","6500200","三重區"
"241029","942-UM","2017/07/13 16:19:55","新北市三重區同安街110號","121.494356666667","25.0563183333333","6500200","三重區"
"241033","AAC-255","2017/07/13 16:19:49","新北市三重區重新路五段326巷5號","121.477363333333","25.0477116666667","6500200","三重區"
"235064","005-UY","2017/07/13 16:19:58","新北市中和區員山路36巷16-3號","121.485081666667","24.9913166666667","6500300","中和區"
"235034","611-BX","2017/07/13 16:19:47","新北市中和區中正路637巷60弄61號","121.485353333333","24.99281","6500300","中和區"
"235026","800-TS","2017/07/13 16:19:57","新北市中和區錦和路73號","121.489483333333","24.9978983333333","6500300","中和區"
"220105","120-SR","2017/07/13 16:19:44","新北市樹林區八德街272號","121.41143","24.9701783333333","6500100","板橋區"
"224008","275-VK","2017/07/13 16:19:58","新北市瑞芳區明燈路三段32號","121.808201666667","25.1079766666667","6501200","瑞芳區"
"224007","273-VK","2017/07/13 16:19:41","新北市瑞芳區大埔路220號","121.760823333333","25.1023083333333","6501200","瑞芳區"
"224005","271-BY","2017/07/13 16:19:55","新北市瑞芳區阿美家園5號","121.821625","25.1160633333333","6501200","瑞芳區"
"227010","642-TC","2017/07/13 16:19:51","新北市雙溪區三港里雙澳路80號","121.88377","25.0538483333333","6502500","雙溪區"
"227004","400-TW","2017/07/13 16:19:57","新北市雙溪區上林里內平林80號","121.828306666667","25.027905","6502500","雙溪區"
"253005","295-VK","2017/07/13 10:21:24","新北市石門區中山路64-1號","121.567686666667","25.2903833333333","6502200","石門區"
"251008","181-VK","2017/07/13 16:19:58","新北市淡水區中正東路一段2號","121.45193","25.1631816666667","6501000","淡水區"
"251014","182-VK","2017/07/13 16:20:00","新北市淡水區中正路二段31號","121.419363333333","25.18192","6501000","淡水區"
"251006","561-UM","2017/07/13 16:05:14","新北市淡水區中正路二段18號","121.419745","25.1810566666667","6501000","淡水區"
"252005","073-UM","2017/07/13 15:36:52","新北市三芝區埔坪里埔頭坑41號","121.50431","25.2645216666667","6502100","三芝區"
"237010","706-TV","2017/07/13 16:19:57","新北市三峽區中山路459巷163-3號","121.348703333333","24.9327166666667","6500900","三峽區"
"236024","269-VK","2017/07/13 16:19:50","新北市樹林區中山路三段210-2號","121.381278333333","24.9657533333333","6501300","土城區"
"236003","370-SL","2017/07/13 14:38:38","新北市土城區永平街51號","121.427625","24.95923","6501300","土城區"
"236056","912-UM","2017/07/13 16:19:52","新北市土城區中央路三段62號","121.436741666667","24.9673033333333","6501300","土城區"
"242006","173-VK","2017/07/13 11:00:37","新北市新莊區三和路12-21號","121.442053333333","25.038775","6500500","新莊區"
"238002","755-BX","2017/07/13 16:19:56","新北市樹林區東興街3號","121.409391666667","24.9803866666667","6500700","樹林區"
"238010","601-UM","2017/07/13 16:19:41","新北市樹林區三福街134號","121.405713333333","25.01602","6500700","樹林區"
"238006","599-UM","2017/07/13 16:19:56","新北市樹林區東榮街147巷2弄7號","121.414391666667","24.98128","6500700","樹林區"
"238005","571-TV","2017/07/13 16:19:44","新北市樹林區八德街228號","121.413691666667","24.970775","6500700","樹林區"
"238009","312-TH","2017/07/13 16:19:59","新北市樹林區八德街247巷24-3號","121.419781666667","24.9733066666667","6500700","樹林區"
"238012","303-VK","2017/07/13 16:19:47","新北市樹林區中正路19號","121.427738333333","24.9992716666667","6500700","樹林區"
"238004","283-BY","2017/07/13 16:19:47","新北市樹林區中正路433-1號","121.414731666667","25.0079983333333","6500700","樹林區"
"238001","282-BY","2017/07/13 16:19:14","新北市樹林區中正路22-1號","121.42777","24.9994516666667","6500700","樹林區"
"238007","268-VK","2017/07/13 16:19:58","新北市樹林區俊興街275號","121.41807","25.0181983333333","6500700","樹林區"
"238013","172-UY","2017/07/13 16:19:54","新北市樹林區佳園路一段75巷194號","121.39704","24.970725","6500700","樹林區"
"238003","169-UY","2017/07/13 16:19:48","新北市樹林區復興路335巷6弄2號","121.418263333333","24.987515","6500700","樹林區"
"220034","630-UY","2017/07/13 16:19:49","新北市板橋區華東街1-10號","121.448536666667","24.9949166666667","6500100","板橋區"
"220018","AAC-253","2017/07/13 16:19:40","新北市樹林區中山路三段214號","121.379936666667","24.9677316666667","6500100","板橋區"
