"lineid","car","time","location","longitude","latitude","cityid","cityname"
"249005","172-UM","2017/07/13 17:09:44","新北市八里區華富山5-5號","121.41792","25.14468","6502300","八里區"
"249004","303-UY","2017/07/13 17:09:53","新北市八里區忠孝路336號","121.417835","25.161265","6502300","八里區"
"249002","305-UY","2017/07/13 17:09:53","新北市八里區龍米路二段147巷2號","121.443308333333","25.1494333333333","6502300","八里區"
"249003","593-UM","2017/07/13 17:09:48","新北市八里區中山路二段393號","121.398125","25.14675","6502300","八里區"
"249001","759-BX","2017/07/13 17:09:54","新北市八里區中華路二段201-27號","121.405978333333","25.1499683333333","6502300","八里區"
"244007","080-UY","2017/07/13 17:09:49","新北市林口區菁埔37-7號","121.376766666667","25.09716","6501700","林口區"
"244009","410-SL","2017/07/13 17:09:51","新北市林口區東林街45號","121.394256666667","25.0799383333333","6501700","林口區"
"244023","483-VK","2017/07/13 17:09:56","新北市林口區粉寮路19號","121.39973","25.0818566666667","6501700","林口區"
"244016","485-VK","2017/07/13 17:09:40","新北市林口區粉寮69號","121.404971666667","25.0909133333333","6501700","林口區"
"244011","701-TV","2017/07/13 17:09:50","新北市林口區粉寮路二段160巷28號","121.40517","25.09077","6501700","林口區"
"244025","837-TS","2017/07/13 17:09:52","新北市林口區粉寮69號","121.404808333333","25.0907583333333","6501700","林口區"
"244021","838-TS","2017/07/13 17:09:43","新北市林口區宏昌街15號","121.404173333333","25.0850716666667","6501700","林口區"
"243009","297-R6","2017/07/13 15:59:14","新北市泰山區黎明路25號","121.422026666667","25.06096","6501600","泰山區"
"231007","189-VK","2017/07/13 11:59:52","新北市新店區安華路28-1號","121.519521666667","24.9611833333333","6500600","新店區"
"231046","278-BY","2017/07/13 17:09:42","新北市新店區直潭七街60號","121.532365","24.93962","6500600","新店區"
"241011","013-R5","2017/07/13 17:09:53","新北市三重區仁愛街51號","121.496638333333","25.07193","6500200","三重區"
"241028","022-UY","2017/07/13 17:09:51","新北市三重區重新路三段110號","121.492218333333","25.0603633333333","6500200","三重區"
"241008","059-VK","2017/07/13 17:09:51","新北市三重區力行路二段136巷17弄2號","121.481725","25.0756516666667","6500200","三重區"
"241009","060-VK","2017/07/13 17:09:51","新北市三重區三和路四段211-18號","121.482246666667","25.0798483333333","6500200","三重區"
"241031","061-VK","2017/07/13 17:09:45","新北市三重區重陽路一段113巷2弄2號","121.487496666667","25.0599816666667","6500200","三重區"
"241015","062-VK","2017/07/13 17:09:58","新北市三重區長生街19號","121.499395","25.0663616666667","6500200","三重區"
"241017","063-VK","2017/07/13 17:09:51","新北市三重區大仁街1號","121.49161","25.0635283333333","6500200","三重區"
"241024","065-VK","2017/07/13 17:09:52","新北市三重區中正北路165巷2號","121.478663333333","25.0697016666667","6500200","三重區"
"241026","066-VK","2017/07/13 17:09:49","新北市三重區重新路二段15號","121.498385","25.0623733333333","6500200","三重區"
"241002","090-VK","2017/07/13 17:09:48","新北市三重區仁義街225巷17號","121.497235","25.08242","6500200","三重區"
"241003","091-VK","2017/07/13 17:09:40","新北市三重區進安街198號","121.493836666667","25.086015","6500200","三重區"
"241005","262-UM","2017/07/13 17:09:44","新北市三重區碧華街50號","121.483463333333","25.0812283333333","6500200","三重區"
"241016","265-UM","2017/07/13 17:09:40","新北市三重區大同北路130號","121.492818333333","25.06466","6500200","三重區"
"241022","267-UM","2017/07/13 17:09:57","新北市三重區重陽路二段34巷72號","121.485046666667","25.0643066666667","6500200","三重區"
"241018","268-UM","2017/07/13 17:09:43","新北市三重區六張街93號","121.49257","25.069865","6500200","三重區"
"241032","269-UM","2017/07/13 17:09:51","新北市三重區三陽路6號","121.486036666667","25.0587116666667","6500200","三重區"
"241013","270-UM","2017/07/13 17:09:40","新北市三重區仁孝街34號","121.496533333333","25.074135","6500200","三重區"
"241025","271-UM","2017/07/13 17:09:42","新北市三重區中正北路560巷38號","121.470965","25.0699066666667","6500200","三重區"
"241007","398-BY","2017/07/13 17:09:57","新北市三重區三和路四段163巷67號","121.485526666667","25.07923","6500200","三重區"
"241020","413-TH","2017/07/13 17:10:01","新北市三重區自強路三段34巷21號","121.486198333333","25.0723683333333","6500200","三重區"
"241004","475-VK","2017/07/13 17:09:51","新北市三重區五華街98巷8號","121.492013333333","25.0818966666667","6500200","三重區"
"241019","478-VK","2017/07/13 17:09:58","新北市三重區力行路一段153巷54號","121.486538333333","25.069295","6500200","三重區"
"241030","480-VK","2017/07/13 17:09:44","新北市三重區成功路62號","121.488546666667","25.050765","6500200","三重區"
"241014","543-UM","2017/07/13 17:09:57","新北市三重區龍濱路231號","121.501756666667","25.072195","6500200","三重區"
"241023","545-UM","2017/07/13 17:09:49","新北市三重區忠孝路三段84巷1號","121.480236666667","25.064495","6500200","三重區"
"241001","547-UM","2017/07/13 17:09:50","新北市三重區仁愛街245巷23號","121.49439","25.0784066666667","6500200","三重區"
"241006","AAD-863","2017/07/13 17:09:58","新北市三重區車路頭街145號","121.48393","25.0766583333333","6500200","三重區"
"241012","941-UM","2017/07/13 17:09:48","新北市三重區仁壽街133號","121.499151666667","25.0741266666667","6500200","三重區"
"241029","942-UM","2017/07/13 17:09:55","新北市三重區同安街145號","121.493093333333","25.0560233333333","6500200","三重區"
"241033","AAC-255","2017/07/13 17:09:49","新北市三重區中興北街271號","121.469165","25.060655","6500200","三重區"
"235064","005-UY","2017/07/13 17:03:30","新北市中和區員山路36巷16-3號","121.485098333333","24.9913083333333","6500300","中和區"
"235067","255-BX","2017/07/13 16:32:10","新北市中和區員山路36巷13號","121.484366666667","24.99122","6500300","中和區"
"235062","800-TS","2017/07/13 17:01:14","新北市中和區員山路36巷16-3號","121.485003333333","24.99139","6500300","中和區"
"247020","893-R6","2017/07/13 17:09:50","新北市蘆洲區民族路426巷54號","121.4728","25.09369","6501400","蘆洲區"
"247010","546-UM","2017/07/13 17:09:57","新北市蘆洲區鷺江街93號","121.476851666667","25.0838983333333","6501400","蘆洲區"
"247018","500-BY","2017/07/13 17:09:39","新北市蘆洲區復興路85號","121.476563333333","25.0875016666667","6501400","蘆洲區"
"247006","341-TH","2017/07/13 17:09:57","新北市蘆洲區長安街100號","121.461565","25.081195","6501400","蘆洲區"
"247008","339-TH","2017/07/13 17:09:53","新北市蘆洲區信義路30巷58號","121.47463","25.0779633333333","6501400","蘆洲區"
"247024","337-TH","2017/07/13 17:09:52","新北市蘆洲區長興路15號","121.464251666667","25.0828333333333","6501400","蘆洲區"
"247002","336-TH","2017/07/13 17:09:56","新北市蘆洲區永樂街39號","121.457788333333","25.088355","6501400","蘆洲區"
"247014","057-VK","2017/07/13 17:09:53","新北市蘆洲區中央路37巷15號","121.473391666667","25.08261","6501400","蘆洲區"
"247004","056-VK","2017/07/13 17:09:52","新北市蘆洲區長安街207巷20號","121.45929","25.0817783333333","6501400","蘆洲區"
"247012","007-UY","2017/07/13 17:09:50","新北市蘆洲區信義路268號","121.478205","25.0869733333333","6501400","蘆洲區"
"247022","002-UY","2017/07/13 17:09:47","新北市蘆洲區民族路377號","121.470138333333","25.090415","6501400","蘆洲區"
"247016","001-UY","2017/07/13 17:09:56","新北市蘆洲區正和街96巷7號","121.46769","25.0811733333333","6501400","蘆洲區"
"228003","097-TW","2017/07/13 17:09:43","新北市貢寮區福隆里東興街10-6號","121.951266666667","25.0195216666667","6502600","貢寮區"
"228001","212-TW","2017/07/13 17:09:55","新北市貢寮區仁理村尖山腳街20號","121.924328333333","25.0478483333333","6502600","貢寮區"
"228002","663-BX","2017/07/13 17:09:57","新北市平溪區平湖里坑頭2號","121.910663333333","25.0173366666667","6502600","貢寮區"
"224010","AGQ-8101","2017/07/13 09:07:04","新北市瑞芳區民權街3-1號","121.809268333333","25.1081183333333","6501200","瑞芳區"
"224006","676-BX","2017/07/13 17:09:51","新北市瑞芳區大寮路114號","121.78032","25.09787","6501200","瑞芳區"
"224008","275-VK","2017/07/13 17:09:38","新北市瑞芳區侯硐路25號","121.82556","25.0828116666667","6501200","瑞芳區"
"224007","273-VK","2017/07/13 17:09:41","新北市瑞芳區粗坑口路66號","121.761311666667","25.0989833333333","6501200","瑞芳區"
"224005","271-BY","2017/07/13 17:09:53","新北市瑞芳區傑魚坑路320號","121.7864","25.1048616666667","6501200","瑞芳區"
"227010","642-TC","2017/07/13 17:09:51","新北市雙溪區三貂里子崙坑1-6號","121.849973333333","25.0574216666667","6502500","雙溪區"
"227004","400-TW","2017/07/13 17:09:37","新北市雙溪區外柑里外柑腳37號","121.809828333333","25.0183916666667","6502500","雙溪區"
"253005","295-VK","2017/07/13 10:21:24","新北市石門區中山路64-1號","121.567686666667","25.2903833333333","6502200","石門區"
"251009","008-UM","2017/07/13 17:04:02","新北市淡水區中正路225號","121.436831666667","25.1726033333333","6501000","淡水區"
"251004","009-UM","2017/07/13 17:09:39","新北市淡水區中山路8號","121.444723333333","25.1689216666667","6501000","淡水區"
"251007","179-VK","2017/07/13 17:09:49","新北市淡水區民權路41號","121.45969","25.1403983333333","6501000","淡水區"
"251008","181-VK","2017/07/13 17:09:34","新北市淡水區樹梅坑16號","121.471451666667","25.1431966666667","6501000","淡水區"
"251014","182-VK","2017/07/13 17:09:40","新北市淡水區八里堆9-6號","121.465353333333","25.2245183333333","6501000","淡水區"
"251010","413-VK","2017/07/13 17:09:52","新北市淡水區中正路二段31號","121.419515","25.18158","6501000","淡水區"
"251012","441-VK","2017/07/13 17:09:54","新北市淡水區新民街103號","121.436083333333","25.181005","6501000","淡水區"
"251016","442-VK","2017/07/13 17:09:49","新北市淡水區社厝坑1號","121.476408333333","25.188865","6501000","淡水區"
"251005","443-VK","2017/07/13 17:09:56","新北市淡水區學府路88號","121.449113333333","25.17096","6501000","淡水區"
"251006","561-UM","2017/07/13 17:09:49","新北市淡水區中正路一段112號","121.423643333333","25.1780866666667","6501000","淡水區"
"251011","650-BX","2017/07/13 17:09:51","新北市淡水區坪頂路51巷2號","121.457968333333","25.1626383333333","6501000","淡水區"
"251002","672-BX","2017/07/13 16:56:21","新北市淡水區中正路二段31號","121.419366666667","25.1817016666667","6501000","淡水區"
"252005","073-UM","2017/07/13 15:36:52","新北市三芝區埔坪里埔頭坑41號","121.50431","25.2645216666667","6502100","三芝區"
"252002","178-VK","2017/07/13 17:09:46","新北市三芝區智成街117號","121.505898333333","25.2550533333333","6502100","三芝區"
"252001","702-TV","2017/07/13 17:09:54","新北市三芝區埔頭里埔頭43-3號","121.500551666667","25.2616066666667","6502100","三芝區"
"237010","706-TV","2017/07/13 17:09:54","新北市三峽區中山路459巷163-3號","121.348678333333","24.93278","6500900","三峽區"
"237005","AKY-6261","2017/07/13 17:09:52","新北市三峽區中山路459巷137號","121.350051666667","24.9340733333333","6500900","三峽區"
"236003","370-SL","2017/07/13 14:38:38","新北市土城區永平街51號","121.427625","24.95923","6501300","土城區"
"242021","AAC-296","2017/07/13 15:45:55","新北市新莊區新泰路357巷3弄57號","121.4422","25.0393683333333","6500500","新莊區"
"242029","986-R7","2017/07/13 17:09:51","新北市新莊區新泰路357巷3弄57號","121.44241","25.0394366666667","6500500","新莊區"
"242048","751-BX","2017/07/13 17:10:01","新北市新莊區新泰路357巷3弄57號","121.44186","25.039705","6500500","新莊區"
"242025","615-BX","2017/07/13 17:09:57","新北市新莊區新泰路255巷83號","121.44226","25.0388716666667","6500500","新莊區"
"242023","613-BX","2017/07/13 17:09:49","新北市新莊區新泰路255巷83號","121.44229","25.039175","6500500","新莊區"
"242027","612-BX","2017/07/13 17:09:42","新北市新莊區新泰路255巷83號","121.442381666667","25.0392316666667","6500500","新莊區"
"242036","566-BX","2017/07/13 17:09:48","新北市新莊區三和路12-11號","121.442213333333","25.0370083333333","6500500","新莊區"
"242042","497-BY","2017/07/13 17:09:47","新北市新莊區新泰路357巷3弄57號","121.44203","25.0391266666667","6500500","新莊區"
"242046","441-UM","2017/07/13 17:09:57","新北市新莊區三和路12-21號","121.442036666667","25.0383583333333","6500500","新莊區"
"242031","415-TV","2017/07/13 17:09:51","新北市新莊區新泰路357巷3弄57號","121.441943333333","25.0392516666667","6500500","新莊區"
"242002","413-TV","2017/07/13 13:20:24","新北市新莊區新泰路357巷3弄57號","121.4421","25.039335","6500500","新莊區"
"242039","400-BY","2017/07/13 17:09:57","新北市新莊區新泰路357巷3弄1號","121.442341666667","25.0414383333333","6500500","新莊區"
"242061","362-BY","2017/07/13 17:09:37","新北市新莊區新泰路255巷83號","121.442231666667","25.0388166666667","6500500","新莊區"
"242058","353-BY","2017/07/13 17:09:48","新北市新莊區新泰路255巷83號","121.442261666667","25.0388983333333","6500500","新莊區"
"242011","132-UY","2017/07/13 17:09:44","新北市新莊區新泰路255巷83號","121.4421","25.0389133333333","6500500","新莊區"
"242034","133-UY","2017/07/13 17:09:54","新北市新莊區新泰路357巷3弄49號","121.442495","25.040055","6500500","新莊區"
"242019","135-UY","2017/07/13 17:09:40","新北市新莊區三和路12-21號","121.44202","25.0386866666667","6500500","新莊區"
"242044","172-VK","2017/07/13 17:09:43","新北市新莊區中正路513-1號","121.439948333333","25.03349","6500500","新莊區"
"242007","173-VK","2017/07/13 11:00:37","新北市新莊區三和路12-21號","121.442053333333","25.038775","6500500","新莊區"
"242056","176-VK","2017/07/13 17:09:58","新北市新莊區新泰路357巷3弄57號","121.442388333333","25.0396316666667","6500500","新莊區"
"242013","346-TH","2017/07/13 14:51:35","新北市新莊區三和路12-16號","121.44206","25.0374683333333","6500500","新莊區"
"242051","347-TH","2017/07/13 17:09:55","新北市新莊區新泰路413巷22號","121.44236","25.0444683333333","6500500","新莊區"
"242017","348-TH","2017/07/13 17:09:44","新北市新莊區新泰路357巷3弄57號","121.44204","25.0396466666667","6500500","新莊區"
"242053","349-TH","2017/07/13 13:19:28","新北市新莊區三和路12-20號","121.442055","25.0377933333333","6500500","新莊區"
"242015","350-TH","2017/07/13 13:46:29","新北市新莊區新泰路255巷83號","121.442045","25.0389016666667","6500500","新莊區"
"242009","351-TH","2017/07/13 14:59:33","新北市新莊區新泰路357巷3弄57號","121.44211","25.0394583333333","6500500","新莊區"
"238023","601-UM","2017/07/13 17:09:42","新北市樹林區中山路二段219號","121.4026","24.9761766666667","6500700","樹林區"
"238018","571-TV","2017/07/13 17:09:44","新北市樹林區水源街58號","121.425773333333","24.9809983333333","6500700","樹林區"
"238024","5061-A6","2017/07/13 17:09:55","新北市樹林區鎮前街77-21號","121.424876666667","24.9901733333333","6500700","樹林區"
"238022","312-TH","2017/07/13 17:09:39","新北市樹林區八德街321-1號","121.419578333333","24.9736816666667","6500700","樹林區"
"238012","303-VK","2017/07/13 17:09:47","新北市樹林區中正路22-1號","121.427791666667","24.9993966666667","6500700","樹林區"
"238017","283-BY","2017/07/13 17:09:47","新北市樹林區光武街7-3號","121.415685","25.0053666666667","6500700","樹林區"
"238001","282-BY","2017/07/13 17:09:54","新北市樹林區中正路23號","121.427536666667","24.9994316666667","6500700","樹林區"
"238016","169-UY","2017/07/13 17:09:48","新北市樹林區中山路二段34號","121.41739","24.9848983333333","6500700","樹林區"
"239007","AAC-297","2017/07/13 17:09:56","新北市鶯歌區信義街5號","121.353346666667","24.9558416666667","6500800","鶯歌區"
"239006","891-R6","2017/07/13 17:09:53","新北市鶯歌區八德路2巷39號","121.336765","24.9465666666667","6500800","鶯歌區"
"239008","527-UM","2017/07/13 17:09:51","新北市鶯歌區尖山路57-2號","121.350118333333","24.949745","6500800","鶯歌區"
"239001","417-VK","2017/07/13 17:09:39","新北市鶯歌區尖山路86巷17號","121.34715","24.9494433333333","6500800","鶯歌區"
"239003","360-BY","2017/07/13 17:09:41","新北市鶯歌區八德路50號","121.33008","24.9557783333333","6500800","鶯歌區"
"239002","359-BY","2017/07/13 17:09:50","新北市鶯歌區南雅路396號","121.3481","24.9539533333333","6500800","鶯歌區"
"239004","193-VK","2017/07/13 17:09:48","新北市鶯歌區文化路256巷15弄31號","121.352231666667","24.9469633333333","6500800","鶯歌區"
"220034","630-UY","2017/07/13 17:09:49","新北市板橋區華東街1-10號","121.448528333333","24.994865","6500100","板橋區"
