"lineid","car","time","location","longitude","latitude","cityid","cityname"
"234026","9371-KE","2017/07/13 17:59:40","新北市永和區永和路一段70號","121.513041666667","25.0061816666667","6500400","永和區"
"234011","9373-KE","2017/07/13 17:59:42","新北市永和區福和路1號","121.52556","25.00953","6500400","永和區"
"249005","172-UM","2017/07/13 17:59:44","新北市八里區荖阡坑路20-5號","121.397075","25.1366883333333","6502300","八里區"
"249004","303-UY","2017/07/13 17:59:53","新北市八里區中華路12-1號","121.41634","25.1541566666667","6502300","八里區"
"249002","305-UY","2017/07/13 17:59:53","新北市八里區龍形五街7號","121.450581666667","25.13373","6502300","八里區"
"249003","593-UM","2017/07/13 17:59:48","新北市八里區中山路二段196號","121.405718333333","25.1524533333333","6502300","八里區"
"249001","759-BX","2017/07/13 17:59:54","新北市八里區龍米路二段30號","121.44862","25.1399366666667","6502300","八里區"
"248014","025-BX","2017/07/13 17:59:57","新北市五股區更洲路47號","121.456925","25.0789166666667","6501500","五股區"
"248016","026-BX","2017/07/13 17:59:55","新北市五股區中興路二段161號","121.457791666667","25.077195","6501500","五股區"
"248006","077-UY","2017/07/13 17:59:55","新北市五股區中興路二段83巷26號","121.459093333333","25.0756483333333","6501500","五股區"
"248008","095-VK","2017/07/13 17:59:42","新北市五股區更洲路18號","121.458283333333","25.07886","6501500","五股區"
"248020","225-UY","2017/07/13 17:59:51","新北市五股區中興路二段83巷26-6號","121.460025","25.075225","6501500","五股區"
"248010","272-BY","2017/07/13 17:59:57","新北市五股區中興路二段182巷5號","121.457026666667","25.0787733333333","6501500","五股區"
"248002","678-BX","2017/07/13 17:59:46","新北市五股區中興路二段37巷28號","121.460158333333","25.075","6501500","五股區"
"232011","375-UM","2017/07/13 17:59:43","新北市坪林區北宜路八段387號","121.708446666667","24.93234","6502000","坪林區"
"244013","069-UM","2017/07/13 17:59:57","新北市林口區中山路190號","121.389171666667","25.078885","6501700","林口區"
"244007","080-UY","2017/07/13 17:59:49","新北市林口區林口路88號","121.388975","25.08092","6501700","林口區"
"244009","410-SL","2017/07/13 17:59:51","新北市林口區林口路303號","121.385481666667","25.08511","6501700","林口區"
"244023","483-VK","2017/07/13 17:59:56","新北市林口區東湖路77號","121.384791666667","25.07355","6501700","林口區"
"244017","485-VK","2017/07/13 17:59:40","新北市林口區文化二路一段230巷3-1號","121.370431666667","25.0719933333333","6501700","林口區"
"244011","701-TV","2017/07/13 17:59:50","新北市林口區中正路160號","121.392395","25.0774016666667","6501700","林口區"
"244025","837-TS","2017/07/13 17:59:52","新北市林口區文化三路一段39巷96號","121.359111666667","25.0667983333333","6501700","林口區"
"244021","838-TS","2017/07/13 17:59:23","新北市林口區新寮45號","121.404246666667","25.0643433333333","6501700","林口區"
"243009","297-R6","2017/07/13 15:59:14","新北市泰山區黎明路25號","121.422026666667","25.06096","6501600","泰山區"
"222003","436-BY","2017/07/13 17:59:46","新北市深坑區炮子崙23號","121.607185","24.9909383333333","6501800","深坑區"
"222001","628-TS","2017/07/13 17:59:43","新北市深坑區北深路二段220號","121.612348333333","25.001275","6501800","深坑區"
"222002","659-BX","2017/07/13 17:59:45","新北市深坑區深坑街35號","121.616083333333","25.001815","6501800","深坑區"
"231007","189-VK","2017/07/13 11:59:52","新北市新店區安華路28-1號","121.519521666667","24.9611833333333","6500600","新店區"
"231046","278-BY","2017/07/13 17:59:42","新北市新店區康雅崙路14號","121.537088333333","24.9266183333333","6500600","新店區"
"241005","262-UM","2017/07/13 17:59:44","新北市三重區碧華街408號","121.491998333333","25.0850133333333","6500200","三重區"
"241024","462-BY","2017/07/13 17:59:49","新北市三重區中正北路193巷35弄63號","121.478568333333","25.0714333333333","6500200","三重區"
"241033","AAC-255","2017/07/13 17:59:49","新北市三重區重新路五段580號","121.469588333333","25.0455416666667","6500200","三重區"
"235064","005-UY","2017/07/13 17:59:44","新北市中和區員山路36巷16-3號","121.485181666667","24.9912816666667","6500300","中和區"
"235063","006-UY","2017/07/13 17:59:53","新北市中和區員山路36巷16-3號","121.48495","24.9911233333333","6500300","中和區"
"235065","098-UM","2017/07/13 17:59:41","新北市中和區連城路308號","121.483646666667","24.9963816666667","6500300","中和區"
"235058","151-BY","2017/07/13 17:59:42","新北市中和區中正路637巷52弄1號","121.485436666667","24.9935166666667","6500300","中和區"
"235038","185-VK","2017/07/13 17:59:52","新北市中和區和城路一段271巷1號","121.485398333333","24.9918333333333","6500300","中和區"
"235067","255-BX","2017/07/13 17:49:29","新北市中和區和城路一段271巷1號","121.48558","24.991925","6500300","中和區"
"235072","301-VK","2017/07/13 17:59:48","新北市中和區員山路36巷11號","121.483838333333","24.9907283333333","6500300","中和區"
"235061","378-QA","2017/07/13 17:22:58","新北市中和區和城路一段271巷1號","121.485443333333","24.9917883333333","6500300","中和區"
"235042","551-UM","2017/07/13 17:59:57","新北市中和區和城路一段271巷1號","121.485653333333","24.991765","6500300","中和區"
"235062","800-TS","2017/07/13 17:59:57","新北市中和區中正路637巷60弄61號","121.485581666667","24.992885","6500300","中和區"
"247018","500-BY","2017/07/13 17:59:39","新北市蘆洲區復興路201號","121.479566666667","25.089565","6501400","蘆洲區"
"247006","341-TH","2017/07/13 17:59:37","新北市蘆洲區中華街40號","121.46246","25.0809966666667","6501400","蘆洲區"
"247008","339-TH","2017/07/13 17:59:53","新北市五股區中興路二段182巷15弄13號","121.457171666667","25.081355","6501400","蘆洲區"
"247002","336-TH","2017/07/13 17:59:56","新北市蘆洲區永平街32巷57弄32號","121.458611666667","25.0934133333333","6501400","蘆洲區"
"247014","057-VK","2017/07/13 17:59:53","新北市八里區荖阡坑路20-9號","121.398518333333","25.1369116666667","6501400","蘆洲區"
"247012","007-UY","2017/07/13 17:59:50","新北市蘆洲區民族路184號","121.47995","25.08692","6501400","蘆洲區"
"226004","312-R5","2017/07/13 17:59:50","新北市平溪區石底里石筍尖16號","121.732126666667","25.026035","6502400","平溪區"
"228003","097-TW","2017/07/13 17:59:43","新北市貢寮區真理里美艷山街6-2號","121.928915","25.0607083333333","6502600","貢寮區"
"228001","212-TW","2017/07/13 17:59:55","新北市貢寮區真理里新港街26巷51號","121.927823333333","25.05327","6502600","貢寮區"
"228002","663-BX","2017/07/13 17:59:57","新北市貢寮區福連里香蘭街3-3號","121.971895","25.0245266666667","6502600","貢寮區"
"224006","676-BX","2017/07/13 17:59:51","新北市瑞芳區傑魚坑路183號","121.788416666667","25.1082733333333","6501200","瑞芳區"
"224011","420-VK","2017/07/13 17:59:44","新北市瑞芳區三爪子坑路32巷40號","121.809321666667","25.1068466666667","6501200","瑞芳區"
"224008","275-VK","2017/07/13 17:59:58","新北市瑞芳區員山子路23號","121.821393333333","25.103025","6501200","瑞芳區"
"224007","273-VK","2017/07/13 18:00:01","新北市瑞芳區大寮路49巷4號","121.781983333333","25.0976566666667","6501200","瑞芳區"
"224005","272-VK","2017/07/13 17:59:44","新北市瑞芳區鼻頭路93號","121.916106666667","25.1242866666667","6501200","瑞芳區"
"253006","032-BX","2017/07/13 17:59:45","新北市石門區大丘田45-1號","121.549786666667","25.2751383333333","6502200","石門區"
"253005","295-VK","2017/07/13 17:59:53","新北市石門區中山路62-11號","121.567521666667","25.2896233333333","6502200","石門區"
"208003","665-BX","2017/07/13 17:59:50","新北市金山區磺港里磺港路202-1號","121.645121666667","25.227485","6502700","金山區"
"208001","761-BX","2017/07/13 17:59:54","新北市金山區磺港里磺港路162號","121.64428","25.22536","6502700","金山區"
"251009","008-UM","2017/07/13 17:36:42","新北市淡水區中正路65號","121.441301666667","25.16946","6501000","淡水區"
"251004","009-UM","2017/07/13 17:59:59","新北市淡水區民權路82號","121.459205","25.1336216666667","6501000","淡水區"
"251001","011-UM","2017/07/13 17:59:43","新北市淡水區民權路16號","121.463283333333","25.12436","6501000","淡水區"
"251007","179-VK","2017/07/13 17:59:49","新北市淡水區中正東路二段143巷6弄5號","121.461348333333","25.1465666666667","6501000","淡水區"
"251008","181-VK","2017/07/13 17:59:58","新北市淡水區八勢路30巷19號","121.46291","25.1537866666667","6501000","淡水區"
"251014","182-VK","2017/07/13 17:59:40","新北市淡水區公埔子16-6號","121.481026666667","25.2245466666667","6501000","淡水區"
"251010","413-VK","2017/07/13 17:59:52","新北市淡水區淡海路53號","121.423171666667","25.1803666666667","6501000","淡水區"
"251012","441-VK","2017/07/13 17:59:54","新北市淡水區北新路二段148號","121.482246666667","25.1852216666667","6501000","淡水區"
"251016","442-VK","2017/07/13 17:59:49","新北市淡水區淡金路三段46巷15號","121.448641666667","25.199515","6501000","淡水區"
"251005","443-VK","2017/07/13 17:59:57","新北市淡水區水源街一段83巷149-14號","121.448188333333","25.1730666666667","6501000","淡水區"
"251006","561-UM","2017/07/13 17:59:49","新北市淡水區重建街199號","121.441091666667","25.1746766666667","6501000","淡水區"
"251011","650-BX","2017/07/13 17:59:51","新北市淡水區三空泉5號","121.477418333333","25.1620666666667","6501000","淡水區"
"251002","672-BX","2017/07/13 17:59:58","新北市淡水區中正東路6號","121.447025","25.1670483333333","6501000","淡水區"
"251003","766-UM","2017/07/13 17:59:51","新北市淡水區大忠街79-6號","121.445866666667","25.177235","6501000","淡水區"
"207003","550-UM","2017/07/13 17:59:56","新北市萬里區港東路野柳風景區攤販68號","121.6913","25.205825","6502800","萬里區"
"207004","225-TW","2017/07/13 17:59:44","新北市萬里區中幅里中福路48號","121.683238333333","25.17409","6502800","萬里區"
"252005","073-UM","2017/07/13 15:36:52","新北市三芝區埔坪里埔頭坑41號","121.50431","25.2645216666667","6502100","三芝區"
"252002","178-VK","2017/07/13 17:59:46","新北市三芝區中山路一段114號","121.502461666667","25.2561166666667","6502100","三芝區"
"252001","702-TV","2017/07/13 17:59:54","新北市三芝區中興街一段30號","121.497711666667","25.2577483333333","6502100","三芝區"
"208002","170-UY","2017/07/13 17:59:36","新北市金山區三界壇路34號","121.625316666667","25.228625","6502700","金山區"
"237004","078-UY","2017/07/13 17:59:53","新北市三峽區中園街213號","121.36704","24.920415","6500900","三峽區"
"237007","153-BY","2017/07/13 17:59:37","新北市三峽區中園街108-4號","121.366666666667","24.923015","6500900","三峽區"
"237009","210-TH","2017/07/13 17:59:51","新北市三峽區中山路106巷16號","121.366158333333","24.9362166666667","6500900","三峽區"
"237013","252-BX","2017/07/13 17:59:53","新北市三峽區介壽路一段198號","121.377468333333","24.9308666666667","6500900","三峽區"
"237012","275-BY","2017/07/13 17:59:39","新北市三峽區民生街27巷30號","121.37611","24.9360783333333","6500900","三峽區"
"237008","302-VK","2017/07/13 17:59:45","新北市三峽區正義街153號","121.36818","24.91523","6500900","三峽區"
"237014","433-BY","2017/07/13 17:59:38","新北市三峽區復興路101巷1弄79號","121.371048333333","24.9376416666667","6500900","三峽區"
"237006","5529-G3","2017/07/13 17:59:47","新北市三峽區介壽路二段138巷1弄88號","121.397815","24.9320883333333","6500900","三峽區"
"237011","572-TV","2017/07/13 17:59:53","新北市三峽區大同路1-7號","121.37795","24.92949","6500900","三峽區"
"237016","649-BX","2017/07/13 17:59:50","新北市三峽區紫微路105號","121.409708333333","24.9122866666667","6500900","三峽區"
"237010","706-TV","2017/07/13 17:59:54","新北市三峽區中山路54號","121.368383333333","24.93453","6500900","三峽區"
"237005","AKY-6261","2017/07/13 17:59:58","新北市三峽區復興路119-3號","121.36962","24.9386616666667","6500900","三峽區"
"236071","105-UM","2017/07/13 17:59:46","新北市土城區青雲路669-3號","121.467153333333","24.96493","6501300","土城區"
"236042","107-UM","2017/07/13 17:59:43","新北市土城區裕生路65-1號","121.447416666667","24.985595","6501300","土城區"
"236078","166-UM","2017/07/13 17:59:53","新北市土城區永寧路32巷10弄5號","121.428746666667","24.9610183333333","6501300","土城區"
"236030","253-BX","2017/07/13 17:59:56","新北市土城區城林路6巷80號","121.43849","24.9797983333333","6501300","土城區"
"236026","269-VK","2017/07/13 17:59:25","新北市土城區承天路67號","121.439595","24.9635233333333","6501300","土城區"
"236014","270-VK","2017/07/13 18:00:00","新北市土城區城林路6巷80號","121.438528333333","24.9795966666667","6501300","土城區"
"236037","271-VK","2017/07/13 17:59:44","新北市土城區中央路二段219-6號","121.440835","24.9738816666667","6501300","土城區"
"236003","370-SL","2017/07/13 14:38:38","新北市土城區永平街51號","121.427625","24.95923","6501300","土城區"
"236021","401-BY","2017/07/13 17:59:53","新北市土城區城林路6巷80號","121.438606666667","24.9797616666667","6501300","土城區"
"236058","912-UM","2017/07/13 17:59:58","新北市土城區中央路三段191號","121.430806666667","24.9650116666667","6501300","土城區"
"236048","913-UM","2017/07/13 17:59:50","新北市土城區城林路6巷80號","121.438471666667","24.9795183333333","6501300","土城區"
"236062","915-UM","2017/07/13 17:59:48","新北市土城區中央路二段278巷2號","121.440735","24.97434","6501300","土城區"
"236053","AAC-216","2017/07/13 17:59:49","新北市土城區城林路6巷80號","121.438575","24.9795766666667","6501300","土城區"
"242021","AAC-296","2017/07/13 17:59:48","新北市新莊區中正路215號","121.451146666667","25.03564","6500500","新莊區"
"242029","986-R7","2017/07/13 17:59:51","新北市新莊區中平路110巷4-1號","121.445513333333","25.0459666666667","6500500","新莊區"
"242048","751-BX","2017/07/13 17:59:41","新北市新莊區萬安街57巷25號","121.422658333333","25.0239133333333","6500500","新莊區"
"242025","615-BX","2017/07/13 17:59:57","新北市新莊區五工路38-1號","121.460921666667","25.063295","6500500","新莊區"
"242023","613-BX","2017/07/13 17:59:52","新北市新莊區福壽街26號","121.45815","25.04817","6500500","新莊區"
"242027","612-BX","2017/07/13 17:59:42","新北市新莊區思源路448號","121.459955","25.0534516666667","6500500","新莊區"
"242036","566-BX","2017/07/13 17:59:50","新北市新莊區建福路54號","121.426673333333","25.0273866666667","6500500","新莊區"
"242042","497-BY","2017/07/13 17:59:47","新北市新莊區壽山路31號","121.420115","25.0288283333333","6500500","新莊區"
"242004","442-UM","2017/07/13 17:59:52","新北市新莊區福樂街72巷10號","121.45838","25.0465066666667","6500500","新莊區"
"242046","441-UM","2017/07/13 17:59:57","新北市新莊區福營路165巷33號","121.432516666667","25.0301566666667","6500500","新莊區"
"242031","415-TV","2017/07/13 17:59:50","新北市新莊區新泰路289巷39號","121.443803333333","25.04041","6500500","新莊區"
"242002","413-TV","2017/07/13 17:59:43","新北市新莊區中正路161-4號","121.455316666667","25.0366516666667","6500500","新莊區"
"242039","400-BY","2017/07/13 17:59:54","新北市新莊區民安西路88巷2號","121.42633","25.0199866666667","6500500","新莊區"
"242061","362-BY","2017/07/13 17:59:40","新北市新莊區新樹路465號","121.432618333333","25.0130766666667","6500500","新莊區"
"242058","353-BY","2017/07/13 17:59:48","新北市新莊區雙鳳路134巷5號","121.412643333333","25.0280233333333","6500500","新莊區"
"242011","132-UY","2017/07/13 17:59:44","新北市新莊區中榮街56巷13弄2號","121.449138333333","25.05346","6500500","新莊區"
"242034","133-UY","2017/07/13 17:59:54","新北市新莊區福海街31巷2號","121.445116666667","25.0339833333333","6500500","新莊區"
"242019","135-UY","2017/07/13 17:59:48","新北市新莊區明中街43巷4號","121.457551666667","25.03897","6500500","新莊區"
"242044","172-VK","2017/07/13 17:59:44","新北市新莊區雙鳳路73巷1號","121.414938333333","25.0276","6500500","新莊區"
"242007","173-VK","2017/07/13 17:59:41","新北市新莊區自信街75巷13號","121.4557","25.0487966666667","6500500","新莊區"
"242056","176-VK","2017/07/13 17:59:58","新北市新莊區豐年街豐1巷1號","121.446658333333","25.0311666666667","6500500","新莊區"
"242013","346-TH","2017/07/13 17:59:41","新北市新莊區中和街124號","121.447628333333","25.0479233333333","6500500","新莊區"
"242051","347-TH","2017/07/13 17:59:54","新北市新莊區民安西路135號","121.4265","25.0176466666667","6500500","新莊區"
"242017","348-TH","2017/07/13 17:59:43","新北市新莊區永樂街100號","121.450233333333","25.0449916666667","6500500","新莊區"
"242053","349-TH","2017/07/13 17:59:50","新北市新莊區西盛街395巷25弄13號","121.428386666667","25.0120466666667","6500500","新莊區"
"242015","350-TH","2017/07/13 17:59:46","新北市新莊區中平路87巷5號","121.444238333333","25.045745","6500500","新莊區"
"242009","351-TH","2017/07/13 17:59:38","新北市新莊區昌平街71巷21號","121.45346","25.05357","6500500","新莊區"
"238015","755-BX","2017/07/13 17:59:43","新北市樹林區啟智街79巷2號","121.419808333333","24.99173","6500700","樹林區"
"238023","601-UM","2017/07/13 17:59:41","新北市樹林區龍興街31巷21號","121.40374","25.016145","6500700","樹林區"
"238019","599-UM","2017/07/13 17:59:56","新北市樹林區忠孝街67巷46號","121.425513333333","24.98177","6500700","樹林區"
"238018","571-TV","2017/07/13 17:59:44","新北市樹林區鎮前街72號","121.425601666667","24.9921966666667","6500700","樹林區"
"238022","312-TH","2017/07/13 17:59:39","新北市樹林區太平路96號","121.418573333333","24.9794366666667","6500700","樹林區"
"238021","311-TH","2017/07/13 15:08:38","新北市樹林區佳園路一段94號","121.393605","24.9684883333333","6500700","樹林區"
"238025","303-VK","2017/07/13 17:59:52","新北市樹林區三俊街119號","121.417566666667","25.015625","6500700","樹林區"
"238017","283-BY","2017/07/13 17:59:47","新北市樹林區三俊街2號","121.410775","25.015095","6500700","樹林區"
"238014","282-BY","2017/07/13 17:59:54","新北市樹林區保安街一段289巷28號","121.417841666667","24.9971266666667","6500700","樹林區"
"238020","268-VK","2017/07/13 17:59:58","新北市樹林區三俊街253-1號","121.422195","25.01448","6500700","樹林區"
"238026","172-UY","2017/07/13 17:59:53","新北市樹林區中洲街30巷13弄15號","121.398023333333","24.971935","6500700","樹林區"
"238016","169-UY","2017/07/13 17:59:48","新北市樹林區啟智街151巷10號","121.416485","24.987725","6500700","樹林區"
"239007","AAC-297","2017/07/13 17:59:56","新北市鶯歌區尖山埔路199號","121.345235","24.950465","6500800","鶯歌區"
"239006","891-R6","2017/07/13 17:59:53","新北市鶯歌區鶯桃路413巷78弄8-1號","121.329616666667","24.9633533333333","6500800","鶯歌區"
"239008","527-UM","2017/07/13 17:59:51","新北市鶯歌區明圓街10號","121.337061666667","24.9780533333333","6500800","鶯歌區"
"239001","417-VK","2017/07/13 17:59:39","新北市鶯歌區中正三路39號","121.338993333333","24.941875","6500800","鶯歌區"
"239003","360-BY","2017/07/13 17:59:41","新北市鶯歌區鶯桃路284號","121.335183333333","24.9601583333333","6500800","鶯歌區"
"239002","359-BY","2017/07/13 17:59:50","新北市鶯歌區光明街40號","121.34833","24.9559283333333","6500800","鶯歌區"
"221008","489-VK","2017/07/13 17:59:45","新北市汐止區明峰街15號","121.63489","25.0714216666667","6501100","汐止區"
"221010","269-BY","2017/07/13 17:59:56","新北市汐止區汐萬路二段222號","121.646801666667","25.08775","6501100","汐止區"
"221031","277-VK","2017/07/13 00:11:44","新北市汐止區汐萬路一段256巷3號","121.652526666667","25.0745416666667","6501100","汐止區"
"221027","281-BY","2017/07/13 17:59:45","新北市汐止區汐萬路一段39號","121.65512","25.06906","6501100","汐止區"
"221038","297-VK","2017/07/13 17:59:38","新北市汐止區連興街128巷2號","121.653696666667","25.0618566666667","6501100","汐止區"
"221029","298-VK","2017/07/13 17:59:44","新北市汐止區樟樹二路338號","121.64158","25.0704766666667","6501100","汐止區"
"221002","623-UM","2017/07/13 17:59:56","新北市汐止區仁愛路47號","121.659696666667","25.0632283333333","6501100","汐止區"
"221002","707-TV","2017/07/13 17:59:46","新北市汐止區工建路208號","121.635835","25.06184","6501100","汐止區"
"220079","145-BY","2017/07/13 17:55:29","新北市板橋區華東街1-9號","121.448195","24.9948783333333","6500100","板橋區"
"220034","630-UY","2017/07/13 17:49:09","新北市板橋區華東街1-10號","121.448535","24.9948683333333","6500100","板橋區"
