"lineid","car","time","location","longitude","latitude","cityid","cityname"
"234046","148-BY","2017/07/13 18:59:56","新北市永和區秀朗路二段186巷3號","121.526105","25.0008083333333","6500400","永和區"
"234013","149-BY","2017/07/13 18:59:54","新北市永和區信義路10-1號","121.514491666667","25.0121183333333","6500400","永和區"
"234007","207-UY","2017/07/13 18:59:50","新北市永和區中山路一段98-2號","121.511481666667","25.0107783333333","6500400","永和區"
"234081","298-R6","2017/07/13 18:59:54","新北市永和區永亨路83號","121.521901666667","25.0056183333333","6500400","永和區"
"234038","336-UY","2017/07/13 18:59:59","新北市永和區民樂街73巷1號","121.527396666667","24.9972533333333","6500400","永和區"
"234064","337-UY","2017/07/13 18:59:45","新北市永和區秀朗路一段166號","121.518513333333","25.00342","6500400","永和區"
"234086","338-UY","2017/07/13 18:59:43","新北市永和區永寧街127號","121.518061666667","25.0056433333333","6500400","永和區"
"234070","552-UM","2017/07/13 18:59:51","新北市永和區豫溪街95巷10弄1號","121.518091666667","25.0108183333333","6500400","永和區"
"234054","553-UM","2017/07/13 18:59:55","新北市永和區竹林路66巷5號","121.518133333333","25.0132316666667","6500400","永和區"
"234017","745-BX","2017/07/13 18:59:46","新北市永和區永和路二段287號","121.515893333333","25.015885","6500400","永和區"
"234030","746-BX","2017/07/13 18:59:50","新北市永和區秀朗路二段276號","121.525928333333","24.997875","6500400","永和區"
"234061","AAD-866","2017/07/13 18:59:40","新北市永和區福和路311-1號","121.516158333333","25.0070266666667","6500400","永和區"
"234067","847-RS","2017/07/13 18:59:47","新北市永和區永和路一段3號","121.512821666667","25.0051083333333","6500400","永和區"
"234042","862-TW","2017/07/13 18:59:46","新北市永和區永貞路267號","121.511833333333","25.0048266666667","6500400","永和區"
"234050","863-TW","2017/07/13 18:59:50","新北市永和區文化路147號","121.510753333333","25.0162016666667","6500400","永和區"
"234026","9371-KE","2017/07/13 18:59:40","新北市永和區安樂路451號","121.514306666667","25.0049566666667","6500400","永和區"
"234011","9373-KE","2017/07/13 18:59:42","新北市永和區文化路146號","121.512708333333","25.015345","6500400","永和區"
"249005","172-UM","2017/07/13 18:59:44","新北市八里區長道坑6號","121.397866666667","25.1234783333333","6502300","八里區"
"249001","759-BX","2017/07/13 18:59:54","新北市八里區龍米路二段228-1號","121.432716666667","25.1584466666667","6502300","八里區"
"248014","025-BX","2017/07/13 18:59:56","新北市五股區民義路一段107巷32號","121.432288333333","25.0844433333333","6501500","五股區"
"248016","026-BX","2017/07/13 18:59:55","新北市五股區成泰路三段543巷16號","121.450928333333","25.1022116666667","6501500","五股區"
"248006","077-UY","2017/07/13 19:00:00","新北市五股區四維路80號","121.467415","25.0729333333333","6501500","五股區"
"248008","095-VK","2017/07/13 18:59:42","新北市五股區中興路一段118巷6弄3號","121.466245","25.0741916666667","6501500","五股區"
"248020","225-UY","2017/07/13 18:59:30","新北市五股區凌雲路三段57號","121.425296666667","25.125","6501500","五股區"
"248012","247-BX","2017/07/13 18:58:47","新北市五股區成泰路二段186號","121.438763333333","25.0847066666667","6501500","五股區"
"248010","272-BY","2017/07/13 18:59:37","新北市五股區水碓一路23號","121.430578333333","25.0713583333333","6501500","五股區"
"248002","678-BX","2017/07/13 18:59:46","新北市五股區凌雲路一段138號","121.449523333333","25.1022433333333","6501500","五股區"
"234023","9380-KE","2017/07/13 18:59:44","新北市永和區竹林路75巷17號","121.520053333333","25.013995","6500400","永和區"
"234077","969-R7","2017/07/13 18:59:48","新北市永和區智光街22號","121.517886666667","24.9993316666667","6500400","永和區"
"234074","AAC-211","2017/07/13 18:59:47","新北市永和區福和路1號","121.52507","25.0090216666667","6500400","永和區"
"234003","AAC-295","2017/07/13 18:59:46","新北市永和區保福路一段68-1號","121.51265","25.0099066666667","6500400","永和區"
"232011","375-UM","2017/07/13 18:59:43","新北市坪林區水柳腳1號","121.711623333333","24.9351766666667","6502000","坪林區"
"244013","069-UM","2017/07/13 18:59:56","新北市林口區麗園一街6巷3-3號","121.376176666667","25.0697316666667","6501700","林口區"
"244009","410-SL","2017/07/13 18:59:51","新北市林口區竹林路332號","121.391263333333","25.08338","6501700","林口區"
"244023","483-VK","2017/07/13 18:59:56","新北市林口區民權路81號","121.372258333333","25.0810683333333","6501700","林口區"
"244017","485-VK","2017/07/13 18:59:59","新北市林口區文化二路一段120巷7號","121.367978333333","25.0698916666667","6501700","林口區"
"244011","701-TV","2017/07/13 18:59:50","新北市林口區仁愛路一段348號","121.390668333333","25.076545","6501700","林口區"
"244025","837-TS","2017/07/13 18:59:52","新北市林口區南勢街192巷11號","121.361358333333","25.0750183333333","6501700","林口區"
"243013","AAD-798","2017/07/13 18:59:55","新北市泰山區明志路三段206巷1號","121.423456666667","25.0377916666667","6501600","泰山區"
"243009","297-R6","2017/07/13 18:59:47","新北市泰山區泰林路二段330號","121.429826666667","25.0632683333333","6501600","泰山區"
"243015","380-SR","2017/07/13 18:59:53","新北市泰山區明志路一段203號","121.432663333333","25.0614066666667","6501600","泰山區"
"243014","421-VK","2017/07/13 18:59:47","新北市泰山區泰林路二段577號","121.4222","25.0635316666667","6501600","泰山區"
"243010","548-UM","2017/07/13 18:59:44","新北市泰山區辭修路24號","121.42907","25.05817","6501600","泰山區"
"243011","549-UM","2017/07/13 18:59:44","新北市泰山區明志路二段298巷16-3號","121.425618333333","25.0467433333333","6501600","泰山區"
"243012","646-TV","2017/07/13 18:59:41","新北市泰山區福興三街193號","121.433438333333","25.0572816666667","6501600","泰山區"
"243016","680-BX","2017/07/13 18:59:41","新北市泰山區明志路二段229號","121.427376666667","25.0485316666667","6501600","泰山區"
"222003","436-BY","2017/07/13 18:59:46","新北市深坑區深南路51-1號","121.62133","25.0101433333333","6501800","深坑區"
"222001","628-TS","2017/07/13 18:59:43","新北市深坑區北深路一段300號","121.62396","25.005635","6501800","深坑區"
"222002","659-BX","2017/07/13 18:59:45","新北市深坑區文山路一段33號","121.62946","25.0039183333333","6501800","深坑區"
"231041","002-UM","2017/07/13 18:59:46","新北市新店區環河路29巷1號","121.536745","24.961335","6500600","新店區"
"231056","0291-UT","2017/07/13 18:59:47","新北市新店區大同街2號","121.539825","24.9800016666667","6500600","新店區"
"231059","046-UY","2017/07/13 18:59:57","新北市新店區安康路一段266巷4號","121.519791666667","24.964095","6500600","新店區"
"231061","047-UY","2017/07/13 18:59:45","新北市新店區安康路二段1-5號","121.517226666667","24.96383","6500600","新店區"
"231060","106-UY","2017/07/13 18:59:45","新北市新店區安忠路205巷8號","121.509315","24.95492","6500600","新店區"
"231051","107-UY","2017/07/13 18:59:49","新北市新店區百忍街10巷2號","121.534851666667","24.975565","6500600","新店區"
"231047","108-UY","2017/07/13 18:59:45","新北市新店區德正街27巷29弄28號","121.545781666667","24.972275","6500600","新店區"
"231052","187-VK","2017/07/13 18:59:50","新北市新店區屈尺路6號","121.549371666667","24.9234316666667","6500600","新店區"
"231007","189-VK","2017/07/13 11:59:52","新北市新店區安華路28-1號","121.519521666667","24.9611833333333","6500600","新店區"
"231063","268-BY","2017/07/13 18:59:46","新北市新店區車子路110號","121.505226666667","24.9520933333333","6500600","新店區"
"231046","278-BY","2017/07/13 18:59:42","新北市新店區直潭四街52號","121.532861666667","24.941315","6500600","新店區"
"231050","AAD-862","2017/07/13 18:59:58","新北市新店區北宜路二段30巷5弄3號","121.548368333333","24.950795","6500600","新店區"
"231058","3712-VJ","2017/07/13 18:59:53","新北市新店區中興路一段180號","121.543216666667","24.9647383333333","6500600","新店區"
"231055","3713-VJ","2017/07/13 18:59:47","新北市新店區新生街13巷18號","121.539096666667","24.9660583333333","6500600","新店區"
"231067","4772-VM","2017/07/13 18:59:43","新北市新店區安康路一段263巷33號","121.523946666667","24.9613533333333","6500600","新店區"
"231065","512-UM","2017/07/13 18:59:55","新北市新店區安祥路147巷78號","121.475765","24.9555566666667","6500600","新店區"
"231054","513-UM","2017/07/13 18:59:58","新北市新店區新店路13號","121.540295","24.95287","6500600","新店區"
"231064","515-UM","2017/07/13 18:59:43","新北市新店區安康路一段266巷4號","121.519793333333","24.96404","6500600","新店區"
"231042","616-UM","2017/07/13 18:59:44","新北市新店區中興路一段266-1號","121.544996666667","24.96732","6500600","新店區"
"231040","619-UM","2017/07/13 18:59:53","新北市新店區中正路376號","121.53489","24.97667","6500600","新店區"
"231049","719-UM","2017/07/13 18:59:42","新北市新店區中正路454-5號","121.534553333333","24.97902","6500600","新店區"
"231062","720-UM","2017/07/13 18:59:58","新北市新店區吉安街39號","121.515448333333","24.9661233333333","6500600","新店區"
"231044","897-TW","2017/07/13 18:59:59","新北市新店區寶中路72號","121.548003333333","24.98067","6500600","新店區"
"231045","898-TW","2017/07/13 18:59:52","新北市新店區光明街53號","121.53858","24.9602316666667","6500600","新店區"
"231043","899-TW","2017/07/13 18:59:58","新北市新店區北新路二段17號","121.542625","24.971555","6500600","新店區"
"231066","AKT-0513","2017/07/13 18:59:48","新北市新店區安祥路30號","121.493178333333","24.956075","6500600","新店區"
"241029","942-UM","2017/07/13 18:59:55","新北市三重區重安街15-1號","121.490356666667","25.0575483333333","6500200","三重區"
"235066","003-UY","2017/07/13 18:59:49","新北市中和區水源路6巷6號","121.503451666667","25.0034","6500300","中和區"
"235064","005-UY","2017/07/13 18:59:44","新北市中和區泰和街26號","121.49949","25.0004266666667","6500300","中和區"
"235063","006-UY","2017/07/13 18:59:53","新北市中和區錦和路202號","121.490373333333","24.9948466666667","6500300","中和區"
"235056","096-UM","2017/07/13 18:59:43","新北市中和區中山路二段568巷22號","121.482463333333","25.0063833333333","6500300","中和區"
"235039","097-UM","2017/07/13 18:59:49","新北市中和區安樂路217巷56號","121.512995","24.9976116666667","6500300","中和區"
"235065","098-UM","2017/07/13 18:59:41","新北市中和區中山路二段2巷45弄12號","121.501951666667","25.00673","6500300","中和區"
"235040","150-BY","2017/07/13 18:59:39","新北市中和區宜安路7號","121.513451666667","24.9953266666667","6500300","中和區"
"235058","151-BY","2017/07/13 18:59:42","新北市中和區連城路631-1號","121.476338333333","24.9916233333333","6500300","中和區"
"235055","183-VK","2017/07/13 18:59:38","新北市中和區民德路8巷2號","121.46855","25.002805","6500300","中和區"
"235038","185-VK","2017/07/13 18:59:52","新北市中和區大勇街43巷4號","121.517696666667","24.994755","6500300","中和區"
"235049","186-VK","2017/07/13 18:59:56","新北市中和區景新街210巷2弄6號","121.50695","24.994155","6500300","中和區"
"235067","255-BX","2017/07/13 18:59:43","新北市中和區中正路839巷2號","121.484698333333","25.00249","6500300","中和區"
"235044","293-VK","2017/07/13 18:59:57","新北市中和區中興街163號","121.499946666667","24.9908733333333","6500300","中和區"
"235072","301-VK","2017/07/13 18:59:48","新北市中和區景平路732號","121.496595","25.0038866666667","6500300","中和區"
"235043","352-BY","2017/07/13 18:59:55","新北市中和區成功路75號","121.526108333333","24.9923266666667","6500300","中和區"
"235051","376-QA","2017/07/13 18:59:39","新北市中和區忠孝街106巷58號","121.513898333333","24.9842983333333","6500300","中和區"
"235068","377-QA","2017/07/13 18:59:42","新北市中和區圓通路293-6號","121.495208333333","24.9922683333333","6500300","中和區"
"235061","378-QA","2017/07/13 18:59:45","新北市中和區民享街89巷4弄3號","121.475053333333","25.001605","6500300","中和區"
"235050","4979-A6","2017/07/13 18:59:50","新北市中和區華新街109巷1弄9號","121.509278333333","24.9827216666667","6500300","中和區"
"235069","4980-A6","2017/07/13 18:59:42","新北市中和區圓通路109巷24號","121.500043333333","24.996245","6500300","中和區"
"235042","551-UM","2017/07/13 18:59:37","新北市中和區秀朗路三段100巷2弄5號","121.524971666667","24.9935433333333","6500300","中和區"
"235045","565-BX","2017/07/13 18:59:45","新北市中和區景新街469號","121.513581666667","24.9881216666667","6500300","中和區"
"235054","640-BX","2017/07/13 18:59:38","新北市中和區民享街35巷11號","121.47482","25.0040233333333","6500300","中和區"
"235060","647-TV","2017/07/13 18:59:54","新北市中和區中山路三段122號","121.47449","25.0064466666667","6500300","中和區"
"235046","733-UM","2017/07/13 18:59:52","新北市中和區興南路二段3巷13號","121.508341666667","24.9861383333333","6500300","中和區"
"235062","800-TS","2017/07/13 18:59:56","新北市中和區中山路二段362-6號","121.492136666667","25.00279","6500300","中和區"
"235057","801-TS","2017/07/13 18:59:45","新北市中和區民利街14巷3-3號","121.480646666667","24.9994833333333","6500300","中和區"
"235041","802-TS","2017/07/13 18:59:56","新北市中和區中安街218號","121.511941666667","24.99892","6500300","中和區"
"235052","805-TS","2017/07/13 18:59:54","新北市中和區興南路二段347號","121.50012","24.9800566666667","6500300","中和區"
"235048","896-TW","2017/07/13 18:59:39","新北市中和區華新街95號","121.50876","24.9831433333333","6500300","中和區"
"235053","900-TW","2017/07/13 18:59:45","新北市中和區壽德街15-1號","121.465796666667","24.9958733333333","6500300","中和區"
"235070","911-UM","2017/07/13 18:59:50","新北市中和區圓通路8號","121.50174","24.9981366666667","6500300","中和區"
"235037","AAC-213","2017/07/13 18:59:46","新北市中和區自立路62號","121.52377","24.9914033333333","6500300","中和區"
"235059","AAC-215","2017/07/13 18:59:39","新北市中和區圓通路369巷19弄7號","121.49132","24.9883083333333","6500300","中和區"
"220068","013-TV","2017/07/13 18:59:53","新北市板橋區中山路二段465巷3號","121.481661666667","25.0206916666667","6500100","板橋區"
"220065","072-UY","2017/07/13 18:59:45","新北市板橋區漢生東路324號","121.471716666667","25.0078833333333","6500100","板橋區"
"220086","073-UY","2017/07/13 18:59:54","新北市板橋區大智街7號","121.455975","25.0147983333333","6500100","板橋區"
"220069","AAD-861","2017/07/13 18:59:51","新北市板橋區大華街33號","121.459136666667","25.00586","6500100","板橋區"
"220106","120-SR","2017/07/13 18:59:43","新北市板橋區文化路二段124巷28-2號","121.471251666667","25.0255833333333","6500100","板橋區"
"247006","341-TH","2017/07/13 18:59:37","新北市五股區中興路三段163號","121.449275","25.0808316666667","6501400","蘆洲區"
"247002","336-TH","2017/07/13 18:58:21","新北市五股區中興路三段163號","121.449208333333","25.0808366666667","6501400","蘆洲區"
"247014","057-VK","2017/07/13 18:59:52","新北市五股區中興路三段163號","121.449328333333","25.0807266666667","6501400","蘆洲區"
"226004","312-R5","2017/07/13 18:59:50","新北市平溪區嶺腳里嶺腳寮9-1號","121.747516666667","25.0297083333333","6502400","平溪區"
"228003","097-TW","2017/07/13 18:59:43","新北市貢寮區和美里龍洞街47號","121.911813333333","25.1132316666667","6502600","貢寮區"
"228001","212-TW","2017/07/13 18:59:55","新北市貢寮區仁理村保健街71號","121.923726666667","25.05165","6502600","貢寮區"
"228002","663-BX","2017/07/13 18:59:57","新北市貢寮區福隆里東興街106巷21弄2號","121.946101666667","25.0178883333333","6502600","貢寮區"
"224010","AGQ-8101","2017/07/13 18:57:28","新北市瑞芳區烏勢巷108號","121.846011666667","25.1087183333333","6501200","瑞芳區"
"224006","676-BX","2017/07/13 18:59:51","新北市瑞芳區民權街6巷27號","121.80677","25.106785","6501200","瑞芳區"
"224002","639-TC","2017/07/13 18:59:56","新北市平溪區新寮里五分寮10-2號","121.800005","25.0740266666667","6501200","瑞芳區"
"224011","420-VK","2017/07/13 18:59:44","新北市瑞芳區崙頂路3-1號","121.847018333333","25.1046933333333","6501200","瑞芳區"
"224008","275-VK","2017/07/13 18:59:38","新北市瑞芳區瑞芳街90號","121.802216666667","25.1102533333333","6501200","瑞芳區"
"224007","273-VK","2017/07/13 18:59:41","新北市瑞芳區大埔路186-1號","121.761468333333","25.1012833333333","6501200","瑞芳區"
"224005","272-VK","2017/07/13 18:59:44","新北市瑞芳區建基路二段7號","121.807546666667","25.1327983333333","6501200","瑞芳區"
"227010","642-TC","2017/07/13 18:59:51","新北市雙溪區牡丹里中正路58巷23號","121.866436666667","25.04157","6502500","雙溪區"
"227004","400-TW","2017/07/13 18:59:39","新北市雙溪區平林里康福家園10號","121.858796666667","25.037305","6502500","雙溪區"
"253006","032-BX","2017/07/13 18:59:45","新北市石門區下員坑30-7號","121.519298333333","25.281165","6502200","石門區"
"253005","295-VK","2017/07/13 18:59:52","新北市石門區中央路7號","121.566556666667","25.29155","6502200","石門區"
"208003","665-BX","2017/07/13 18:59:52","新北市金山區中正路39號","121.634968333333","25.222075","6502700","金山區"
"208001","761-BX","2017/07/13 18:59:54","新北市金山區中山路69號","121.640713333333","25.2183033333333","6502700","金山區"
"251009","008-UM","2017/07/13 18:59:42","新北市淡水區重建街36號","121.439911666667","25.17122","6501000","淡水區"
"251001","011-UM","2017/07/13 18:59:43","新北市淡水區自強路58-1號","121.463301666667","25.1275416666667","6501000","淡水區"
"251007","179-VK","2017/07/13 18:59:45","新北市淡水區民生路115-1號","121.464498333333","25.1385066666667","6501000","淡水區"
"251014","182-VK","2017/07/13 18:59:20","新北市淡水區崙頂6巷1號","121.49523","25.22248","6501000","淡水區"
"251010","413-VK","2017/07/13 18:59:52","新北市淡水區沙崙路97號","121.42211","25.1824983333333","6501000","淡水區"
"251012","441-VK","2017/07/13 18:59:54","新北市淡水區新春街126巷15弄1號","121.440495","25.1808283333333","6501000","淡水區"
"251016","442-VK","2017/07/13 18:59:56","新北市淡水區淡金路三段224號","121.448813333333","25.2047833333333","6501000","淡水區"
"251005","443-VK","2017/07/13 18:59:56","新北市淡水區崁頂59-2號","121.44156","25.19828","6501000","淡水區"
"251006","561-UM","2017/07/13 18:59:49","新北市淡水區下圭柔山90-8號","121.431648333333","25.21178","6501000","淡水區"
"251011","650-BX","2017/07/13 18:59:51","新北市淡水區中正東路二段143巷2弄1號","121.46078","25.1474233333333","6501000","淡水區"
"251002","672-BX","2017/07/13 18:59:58","新北市淡水區中正東路53號","121.446745","25.1678983333333","6501000","淡水區"
"251003","766-UM","2017/07/13 18:59:51","新北市淡水區中山北路一段149巷24號","121.442968333333","25.1779616666667","6501000","淡水區"
"207003","550-UM","2017/07/13 18:59:56","新北市萬里區大鵬里頂社24-5號","121.657865","25.2101","6502800","萬里區"
"207004","225-TW","2017/07/13 18:59:44","新北市萬里區萬里里獅頭路23號","121.693263333333","25.17824","6502800","萬里區"
"252005","073-UM","2017/07/13 15:36:52","新北市三芝區埔坪里埔頭坑41號","121.50431","25.2645216666667","6502100","三芝區"
"252002","178-VK","2017/07/13 18:59:46","新北市三芝區中正路一段82號","121.504116666667","25.257305","6502100","三芝區"
"252003","249-BX","2017/07/13 18:59:42","新北市三芝區錫板里海尾14-29號","121.476533333333","25.2573766666667","6502100","三芝區"
"252001","702-TV","2017/07/13 18:59:54","新北市三芝區中興街二段260號","121.501763333333","25.25303","6502100","三芝區"
"208002","170-UY","2017/07/13 18:59:46","新北市金山區仁愛路37-13號","121.635781666667","25.2202","6502700","金山區"
"237004","078-UY","2017/07/13 18:59:53","新北市三峽區有木130-1號","121.435881666667","24.8565466666667","6500900","三峽區"
"237007","153-BY","2017/07/13 18:59:57","新北市三峽區大埔路24號","121.365991666667","24.9093783333333","6500900","三峽區"
"237013","252-BX","2017/07/13 18:59:53","新北市三峽區光明路69巷25號","121.376756666667","24.92918","6500900","三峽區"
"237012","275-BY","2017/07/13 18:59:53","新北市三峽區三樹路222巷60號","121.38224","24.94235","6500900","三峽區"
"237008","302-VK","2017/07/13 18:59:45","新北市三峽區白雞33-51號","121.370465","24.9130466666667","6500900","三峽區"
"237014","433-BY","2017/07/13 18:59:38","新北市三峽區隆恩街245號","121.357601666667","24.94095","6500900","三峽區"
"237006","5529-G3","2017/07/13 18:59:46","新北市三峽區溪東路233巷47弄2號","121.41062","24.9346483333333","6500900","三峽區"
"237011","572-TV","2017/07/13 18:59:53","新北市三峽區介壽路三段233巷3號","121.40548","24.94662","6500900","三峽區"
"237016","649-BX","2017/07/13 18:59:50","新北市三峽區建安84號","121.454041666667","24.9206816666667","6500900","三峽區"
"237010","706-TV","2017/07/13 18:59:54","新北市三峽區復興路174巷4號","121.37076","24.9389016666667","6500900","三峽區"
"237005","AKY-6261","2017/07/13 18:59:51","新北市三峽區中山路459巷52-1號","121.356343333333","24.93616","6500900","三峽區"
"236071","105-UM","2017/07/13 18:59:46","新北市土城區青雲路145號","121.458846666667","24.9843016666667","6501300","土城區"
"236042","107-UM","2017/07/13 18:59:43","新北市土城區裕民路136巷23號","121.45085","24.9853516666667","6501300","土城區"
"236078","166-UM","2017/07/13 18:59:41","新北市土城區中央路四段466號","121.410011666667","24.95054","6501300","土城區"
"236030","253-BX","2017/07/13 18:59:55","新北市土城區興城路77號","121.440176666667","24.9707083333333","6501300","土城區"
"236026","269-VK","2017/07/13 18:59:45","新北市土城區中央路二段242號","121.441845","24.9750083333333","6501300","土城區"
"236014","270-VK","2017/07/13 18:59:59","新北市土城區永豐路31巷15號","121.463696666667","24.98821","6501300","土城區"
"236037","271-VK","2017/07/13 18:59:44","新北市土城區明德路一段240巷26弄41號","121.461336666667","24.9784716666667","6501300","土城區"
"236003","370-SL","2017/07/13 14:38:38","新北市土城區永平街51號","121.427625","24.95923","6501300","土城區"
"236021","401-BY","2017/07/13 18:59:53","新北市土城區德峰街41巷6號","121.467925","24.9861616666667","6501300","土城區"
"236058","912-UM","2017/07/13 18:59:58","新北市土城區金城路二段12號","121.449183333333","24.977235","6501300","土城區"
"236051","913-UM","2017/07/13 18:59:50","新北市土城區明德路一段280-1號","121.457171666667","24.9775533333333","6501300","土城區"
"236062","915-UM","2017/07/13 18:59:48","新北市土城區延和路43號","121.466041666667","24.98953","6501300","土城區"
"236053","AAC-216","2017/07/13 18:59:49","新北市土城區裕民路78號","121.449866666667","24.9872983333333","6501300","土城區"
"238023","601-UM","2017/07/13 18:59:56","新北市樹林區工興街14巷13號","121.39945","25.013995","6500700","樹林區"
"238019","599-UM","2017/07/13 18:59:52","新北市樹林區大同街48-1號","121.416025","24.9817766666667","6500700","樹林區"
"238018","571-TV","2017/07/13 18:59:44","新北市樹林區中華路120號","121.41769","24.9807666666667","6500700","樹林區"
"238024","5061-A6","2017/07/13 18:59:55","新北市樹林區八德街592號","121.397621666667","24.9702233333333","6500700","樹林區"
"238022","312-TH","2017/07/13 18:59:59","新北市樹林區東興街2-5號","121.409513333333","24.9793133333333","6500700","樹林區"
"238021","311-TH","2017/07/13 18:52:31","新北市樹林區西圳街一段118巷16號","121.394361666667","24.9662433333333","6500700","樹林區"
"238025","303-VK","2017/07/13 18:59:46","新北市樹林區民和街51號","121.382688333333","24.9698533333333","6500700","樹林區"
"238017","283-BY","2017/07/13 18:59:47","新北市樹林區中山路三段107-1號","121.399931666667","24.9747083333333","6500700","樹林區"
"238014","282-BY","2017/07/13 18:59:34","新北市樹林區潭興街7號","121.424116666667","24.9976216666667","6500700","樹林區"
"238020","268-VK","2017/07/13 18:59:38","新北市樹林區俊英街83巷1號","121.425865","25.0079083333333","6500700","樹林區"
"238026","172-UY","2017/07/13 18:59:53","新北市樹林區德和街40號","121.389708333333","24.97998","6500700","樹林區"
"238016","169-UY","2017/07/13 18:59:48","新北市樹林區文化街28號","121.419283333333","24.9877483333333","6500700","樹林區"
"239007","AAC-297","2017/07/13 18:59:56","新北市鶯歌區中正一路305號","121.356418333333","24.9573366666667","6500800","鶯歌區"
"239006","891-R6","2017/07/13 18:59:53","新北市鶯歌區鶯桃路296巷72弄4號","121.336673333333","24.9615516666667","6500800","鶯歌區"
"239008","527-UM","2017/07/13 18:59:59","新北市鶯歌區國際二路20巷4號","121.336928333333","24.97506","6500800","鶯歌區"
"239001","417-VK","2017/07/13 18:59:59","新北市鶯歌區永安街37號","121.337888333333","24.9561066666667","6500800","鶯歌區"
"239003","360-BY","2017/07/13 18:59:41","新北市鶯歌區鶯桃路658巷87號","121.331243333333","24.970535","6500800","鶯歌區"
"239004","193-VK","2017/07/13 18:59:48","新北市鶯歌區中正三路247巷76號","121.333701666667","24.9363116666667","6500800","鶯歌區"
"221008","489-VK","2017/07/13 18:59:45","新北市汐止區康寧街753巷2弄22號","121.64009","25.0745066666667","6501100","汐止區"
"221010","269-BY","2017/07/13 18:59:49","新北市汐止區汐萬路一段256巷3號","121.652341666667","25.0747283333333","6501100","汐止區"
"221031","277-VK","2017/07/13 00:11:44","新北市汐止區汐萬路一段256巷3號","121.652526666667","25.0745416666667","6501100","汐止區"
"221027","281-BY","2017/07/13 18:59:45","新北市汐止區汐萬路一段256巷1號","121.651951666667","25.074795","6501100","汐止區"
"221038","297-VK","2017/07/13 18:48:25","新北市汐止區汐萬路一段312號","121.650641666667","25.0753216666667","6501100","汐止區"
"221029","298-VK","2017/07/13 18:59:44","新北市汐止區樟樹一路254號","121.642425","25.067155","6501100","汐止區"
"221035","622-UM","2017/07/13 18:59:54","新北市汐止區汐萬路一段256巷3號","121.652461666667","25.0746233333333","6501100","汐止區"
"221002","623-UM","2017/07/13 18:59:56","新北市汐止區汐萬路一段256巷3號","121.652545","25.0745383333333","6501100","汐止區"
"221002","707-TV","2017/07/13 18:59:46","新北市汐止區大同路一段2號","121.620996666667","25.054925","6501100","汐止區"
"220079","145-BY","2017/07/13 18:59:57","新北市板橋區民權路202巷9弄14號","121.4599","25.0155316666667","6500100","板橋區"
"220082","610-BX","2017/07/13 18:59:49","新北市板橋區篤行路三段2-1號","121.42931","24.9879116666667","6500100","板橋區"
"220101","245-BX","2017/07/13 18:59:52","新北市板橋區文化路二段182巷5弄1號","121.471651666667","25.0270983333333","6500100","板橋區"
"220103","257-TC","2017/07/13 18:59:42","新北市板橋區民生路二段123號","121.470613333333","25.018625","6500100","板橋區"
"220091","267-BY","2017/07/13 18:59:45","新北市板橋區雙十路二段47巷34號","121.475341666667","25.02571","6500100","板橋區"
"220056","276-BY","2017/07/13 18:59:55","新北市板橋區信義路78號","121.457653333333","24.9933783333333","6500100","板橋區"
"220072","277-BY","2017/07/13 18:59:45","新北市板橋區大觀路三段36巷4號","121.433848333333","24.9959383333333","6500100","板橋區"
"220064","280-UM","2017/07/13 18:59:53","新北市板橋區縣民大道二段106號","121.466761666667","25.015215","6500100","板橋區"
"220071","283-VK","2017/07/13 18:59:47","新北市板橋區忠孝路176巷5弄2號","121.464758333333","25.0019266666667","6500100","板橋區"
"220094","285-UM","2017/07/13 18:59:55","新北市板橋區莊敬路208巷6弄7號","121.471","25.0211333333333","6500100","板橋區"
"220053","285-VK","2017/07/13 18:59:50","新北市板橋區中山路二段89巷60號","121.473701666667","25.017355","6500100","板橋區"
"220083","286-VK","2017/07/13 18:59:43","新北市板橋區僑中二街12巷36號","121.445206666667","25.0109916666667","6500100","板橋區"
"220081","287-VK","2017/07/13 18:59:45","新北市板橋區光華街15巷1-1號","121.453933333333","25.0118316666667","6500100","板橋區"
"220090","288-VK","2017/07/13 18:59:44","新北市板橋區四維路177巷1弄1號","121.46427","25.0263416666667","6500100","板橋區"
"220061","293-UM","2017/07/13 18:59:38","新北市板橋區富山街109巷1號","121.476211666667","25.02189","6500100","板橋區"
"220062","295-UM","2017/07/13 18:59:52","新北市板橋區民享街115號","121.477761666667","25.0162733333333","6500100","板橋區"
"220084","296-UM","2017/07/13 18:59:54","新北市板橋區大觀路二段156巷42號","121.441308333333","25.0002216666667","6500100","板橋區"
"220075","297-UM","2017/07/13 18:59:41","新北市板橋區館前西路213巷7號","121.454476666667","25.008255","6500100","板橋區"
"220092","299-UM","2017/07/13 18:59:44","新北市板橋區文化路一段90號","121.464348333333","25.0176266666667","6500100","板橋區"
"220098","317-R6","2017/07/13 18:59:49","新北市板橋區民有街18號","121.466221666667","25.0249983333333","6500100","板橋區"
"220080","461-BY","2017/07/13 18:59:52","新北市板橋區大觀路二段265巷3弄21號","121.443751666667","24.9981166666667","6500100","板橋區"
"220089","487-VK","2017/07/13 18:59:50","新北市板橋區仁化街7號","121.474821666667","25.0317283333333","6500100","板橋區"
"220088","491-VK","2017/07/13 18:59:50","新北市板橋區民生路二段216號","121.469435","25.02153","6500100","板橋區"
"220035","560-BX","2017/07/13 18:59:52","新北市板橋區中正路341巷31號","121.454115","25.0199566666667","6500100","板橋區"
"220063","609-BX","2017/07/13 18:59:49","新北市板橋區中山路二段132號","121.476323333333","25.016845","6500100","板橋區"
"220034","630-UY","2017/07/13 18:58:41","新北市板橋區華東街1-10號","121.44853","24.9948116666667","6500100","板橋區"
"220057","686-BX","2017/07/13 18:59:48","新北市板橋區民權路45號","121.462186666667","25.01122","6500100","板橋區"
"220077","687-BX","2017/07/13 18:59:58","新北市板橋區龍興街34號","121.443068333333","25.0005183333333","6500100","板橋區"
"220093","689-BX","2017/07/13 18:59:55","新北市板橋區民生路三段24號","121.467736666667","25.0246933333333","6500100","板橋區"
"220054","741-BX","2017/07/13 18:59:46","新北市板橋區後埔街32號","121.460483333333","25.0061266666667","6500100","板橋區"
"220055","827-TW","2017/07/13 18:59:58","新北市板橋區中山路一段160-13號","121.466593333333","25.0118133333333","6500100","板橋區"
"220067","829-TW","2017/07/13 18:59:51","新北市板橋區三民路二段正泰4巷28號","121.477631666667","25.0140133333333","6500100","板橋區"
"220102","830-TW","2017/07/13 18:59:59","新北市板橋區懷德街233巷3號","121.480641666667","25.0289116666667","6500100","板橋區"
"220096","831-TW","2017/07/13 18:59:49","新北市板橋區莒光路75號","121.471645","25.0240983333333","6500100","板橋區"
"220074","895-R6","2017/07/13 18:59:40","新北市板橋區林園街52號","121.453666666667","25.0106666666667","6500100","板橋區"
"220073","985-R7","2017/07/13 18:59:50","新北市板橋區中正路140號","121.45696","25.01602","6500100","板橋區"
"220097","AAC-210","2017/07/13 18:59:49","新北市板橋區陽明街166號","121.463681666667","25.0245533333333","6500100","板橋區"
"220070","AAC-253","2017/07/13 18:59:44","新北市板橋區中山路一段22號","121.460138333333","25.00815","6500100","板橋區"
