"lineid","car","time","location","longitude","latitude","cityid","cityname"
"234046","148-BY","2017/07/13 19:29:39","新北市永和區秀朗路二段84號","121.523351666667","25.0016166666667","6500400","永和區"
"234013","149-BY","2017/07/13 19:29:54","新北市永和區信義路8巷1號","121.514578333333","25.0122183333333","6500400","永和區"
"234007","207-UY","2017/07/13 19:29:50","新北市永和區永和路一段102號","121.513236666667","25.00706","6500400","永和區"
"234081","298-R6","2017/07/13 19:29:54","新北市永和區環河東路三段54號","121.526903333333","25.006225","6500400","永和區"
"234038","336-UY","2017/07/13 19:29:59","新北市永和區成功路一段127號","121.526921666667","25.00184","6500400","永和區"
"234064","337-UY","2017/07/13 19:29:40","新北市永和區秀朗路二段24巷21號","121.5205","25.0020416666667","6500400","永和區"
"234086","338-UY","2017/07/13 19:29:43","新北市永和區林森路80號","121.523546666667","25.0038033333333","6500400","永和區"
"234070","552-UM","2017/07/13 19:29:51","新北市永和區中興街1號","121.515441666667","25.0122233333333","6500400","永和區"
"234054","553-UM","2017/07/13 19:29:55","新北市永和區永和路二段159號","121.515338333333","25.0129533333333","6500400","永和區"
"234017","745-BX","2017/07/13 19:29:46","新北市永和區永和路二段425巷16號","121.514928333333","25.017715","6500400","永和區"
"234030","746-BX","2017/07/13 19:29:50","新北市永和區民生路42號","121.522456666667","24.9967516666667","6500400","永和區"
"234061","AAD-866","2017/07/13 19:29:40","新北市永和區中正路568號","121.51722","25.0061983333333","6500400","永和區"
"234067","847-RS","2017/07/13 19:29:47","新北市永和區保平路176號","121.510883333333","25.006715","6500400","永和區"
"234042","862-TW","2017/07/13 19:29:46","新北市永和區水源街39巷30號","121.510766666667","25.0030616666667","6500400","永和區"
"234050","863-TW","2017/07/13 19:03:10","新北市永和區文化路218號","121.51002","25.016825","6500400","永和區"
"234026","9371-KE","2017/07/13 19:29:40","新北市中和區安平路222號","121.513938333333","25.00025","6500400","永和區"
"234011","9373-KE","2017/07/13 19:29:42","新北市永和區保福路二段44巷2弄10號","121.51164","25.011845","6500400","永和區"
"249003","593-UM","2017/07/13 19:29:48","新北市八里區商港六路23號","121.39664","25.1485966666667","6502300","八里區"
"248014","025-BX","2017/07/13 19:29:43","新北市五股區民義路一段161-8號","121.432088333333","25.0877083333333","6501500","五股區"
"248008","095-VK","2017/07/13 19:29:41","新北市五股區中興路一段95巷20號","121.466505","25.0722916666667","6501500","五股區"
"248020","225-UY","2017/07/13 19:29:53","新北市五股區凌雲路三段45-1號","121.42773","25.11935","6501500","五股區"
"248012","247-BX","2017/07/13 19:11:27","新北市五股區中興路四段38巷11-2號","121.439201666667","25.083635","6501500","五股區"
"248010","272-BY","2017/07/13 19:29:57","新北市五股區水碓一路23號","121.430643333333","25.07128","6501500","五股區"
"248002","678-BX","2017/07/13 19:29:46","新北市五股區凌雲路一段158巷11號","121.447745","25.1034416666667","6501500","五股區"
"234077","969-R7","2017/07/13 19:29:48","新北市永和區民族街43巷3號","121.518678333333","24.9984783333333","6500400","永和區"
"234074","AAC-211","2017/07/13 19:29:47","新北市永和區永和路二段284號","121.516001666667","25.01549","6500400","永和區"
"234003","AAC-295","2017/07/13 19:29:46","新北市永和區福和路376號","121.514313333333","25.0077333333333","6500400","永和區"
"244009","410-SL","2017/07/13 19:29:50","新北市林口區中山路518號","121.378856666667","25.0831566666667","6501700","林口區"
"244023","483-VK","2017/07/13 19:29:56","新北市林口區仁愛路二段700號","121.369166666667","25.080945","6501700","林口區"
"243013","AAD-798","2017/07/13 19:29:55","新北市泰山區明志路三段145巷5弄7-1號","121.425481666667","25.0401733333333","6501600","泰山區"
"243009","297-R6","2017/07/13 19:29:47","新北市五股區成泰路一段9號","121.433656666667","25.0664516666667","6501600","泰山區"
"243015","380-SR","2017/07/13 19:29:53","新北市泰山區明志路二段87號","121.428723333333","25.052265","6501600","泰山區"
"243014","421-VK","2017/07/13 19:29:47","新北市泰山區仁愛路159號","121.435076666667","25.0563766666667","6501600","泰山區"
"243010","548-UM","2017/07/13 19:29:44","新北市泰山區民生路31巷2號","121.430405","25.05233","6501600","泰山區"
"243011","549-UM","2017/07/13 19:29:44","新北市泰山區中山路二段563號","121.429855","25.0403966666667","6501600","泰山區"
"243012","646-TV","2017/07/13 19:25:01","新北市新莊區中平路258號","121.445183333333","25.04954","6501600","泰山區"
"243016","680-BX","2017/07/13 19:29:41","新北市泰山區明志路三段405號","121.42119","25.033975","6501600","泰山區"
"222003","436-BY","2017/07/13 19:29:46","新北市深坑區深南路88巷1號","121.620983333333","25.0116783333333","6501800","深坑區"
"222001","628-TS","2017/07/13 19:29:43","新北市深坑區北深路二段153號","121.614285","25.0022433333333","6501800","深坑區"
"222002","659-BX","2017/07/13 19:29:45","新北市深坑區北深路一段177號","121.632576666667","25.010905","6501800","深坑區"
"231041","002-UM","2017/07/13 19:29:46","新北市新店區中正路558號","121.533685","24.9872783333333","6500600","新店區"
"231059","046-UY","2017/07/13 19:29:37","新北市新店區安和路三段110巷1號","121.517408333333","24.9854033333333","6500600","新店區"
"231061","047-UY","2017/07/13 19:29:45","新北市新店區安民街36號","121.515853333333","24.96526","6500600","新店區"
"231060","106-UY","2017/07/13 19:29:45","新北市新店區安康路二段1號","121.516278333333","24.9637133333333","6500600","新店區"
"231051","107-UY","2017/07/13 19:29:49","新北市新店區中央五街55號","121.527773333333","24.9754483333333","6500600","新店區"
"231047","108-UY","2017/07/13 19:29:45","新北市新店區中興路一段264號","121.544783333333","24.9671983333333","6500600","新店區"
"231052","187-VK","2017/07/13 19:29:50","新北市新店區新烏路二段200巷11號","121.547743333333","24.9167316666667","6500600","新店區"
"231007","189-VK","2017/07/13 11:59:52","新北市新店區安華路28-1號","121.519521666667","24.9611833333333","6500600","新店區"
"231057","256-BX","2017/07/13 19:29:56","新北市新店區花園一路二段23號","121.551086666667","24.9327","6500600","新店區"
"231063","268-BY","2017/07/13 19:29:46","新北市新店區達觀路16號","121.503121666667","24.9408066666667","6500600","新店區"
"231046","278-BY","2017/07/13 19:29:42","新北市新店區環河路29巷1號","121.537146666667","24.961355","6500600","新店區"
"231050","AAD-862","2017/07/13 19:29:58","新北市新店區秀水路19號","121.554785","24.954935","6500600","新店區"
"231058","3712-VJ","2017/07/13 19:29:53","新北市新店區北新路二段228巷13號","121.543398333333","24.9771316666667","6500600","新店區"
"231067","4772-VM","2017/07/13 19:29:43","新北市新店區薏仁坑路自強巷1號","121.496885","24.9580966666667","6500600","新店區"
"231065","512-UM","2017/07/13 19:29:55","新北市新店區安祥路109巷1弄91號","121.478835","24.9602616666667","6500600","新店區"
"231054","513-UM","2017/07/13 19:29:38","新北市新店區文中路51號","121.539868333333","24.9566416666667","6500600","新店區"
"231064","515-UM","2017/07/13 19:29:43","新北市新店區安忠路57巷8號","121.513361666667","24.959125","6500600","新店區"
"231042","616-UM","2017/07/13 19:29:44","新北市新店區中興路一段57號","121.539751666667","24.960395","6500600","新店區"
"231040","619-UM","2017/07/13 19:29:53","新北市新店區北新路一段32號","121.540908333333","24.9658466666667","6500600","新店區"
"231049","719-UM","2017/07/13 19:29:42","新北市新店區二十張路1巷5號","121.540583333333","24.9820383333333","6500600","新店區"
"231062","720-UM","2017/07/13 19:29:57","新北市新店區安康路一段90號","121.527925","24.9619783333333","6500600","新店區"
"231044","897-TW","2017/07/13 19:29:53","新北市新店區中興路三段189號","121.544036666667","24.9812366666667","6500600","新店區"
"231045","898-TW","2017/07/13 19:29:52","新北市新店區北宜路二段207號","121.553135","24.9533083333333","6500600","新店區"
"231043","899-TW","2017/07/13 19:29:58","新北市新店區北新路二段226號","121.542965","24.9772216666667","6500600","新店區"
"231066","AKT-0513","2017/07/13 19:29:48","新北市新店區安康路三段440-5號","121.4846","24.9513316666667","6500600","新店區"
"241028","022-UY","2017/07/13 19:29:46","新北市三重區中寮街66號","121.49299","25.058315","6500200","三重區"
"241009","060-VK","2017/07/13 19:29:51","新北市三重區溪尾街242巷73號","121.485945","25.0814383333333","6500200","三重區"
"241031","061-VK","2017/07/13 19:29:45","新北市三重區集美街100號","121.488565","25.0541283333333","6500200","三重區"
"241017","063-VK","2017/07/13 19:29:51","新北市三重區中正北路39號","121.491033333333","25.0626733333333","6500200","三重區"
"241026","066-VK","2017/07/13 19:29:49","新北市三重區文化南路47巷4號","121.4998","25.0612183333333","6500200","三重區"
"241016","265-UM","2017/07/13 19:29:39","新北市三重區大同北路32號","121.495258333333","25.0625266666667","6500200","三重區"
"241022","267-UM","2017/07/13 19:29:37","新北市三重區三民街157巷2號","121.483758333333","25.0645933333333","6500200","三重區"
"241032","269-UM","2017/07/13 19:29:48","新北市三重區三陽路51號","121.484706666667","25.0588966666667","6500200","三重區"
"241013","270-UM","2017/07/13 19:29:59","新北市三重區仁愛街104號","121.49539","25.0741333333333","6500200","三重區"
"241025","271-UM","2017/07/13 19:29:51","新北市三重區頂崁街210巷28弄20號","121.47575","25.0671733333333","6500200","三重區"
"241007","398-BY","2017/07/13 19:29:37","新北市三重區溪尾街169號","121.489035","25.0800866666667","6500200","三重區"
"241020","413-TH","2017/07/13 19:29:58","新北市三重區大智街250號","121.489303333333","25.0731966666667","6500200","三重區"
"241030","480-VK","2017/07/13 19:29:44","新北市三重區成功路41巷3號","121.49023","25.0514266666667","6500200","三重區"
"241023","545-UM","2017/07/13 19:29:49","新北市三重區頂崁街99號","121.477983333333","25.063805","6500200","三重區"
"241006","AAD-863","2017/07/13 19:29:38","新北市三重區三和路四段111-1號","121.485695","25.0773883333333","6500200","三重區"
"241035","743-BX","2017/07/13 19:29:50","新北市三重區信義西街1巷21號","121.498006666667","25.0652466666667","6500200","三重區"
"241029","942-UM","2017/07/13 19:29:55","新北市三重區中正南路216號","121.493836666667","25.055175","6500200","三重區"
"235066","003-UY","2017/07/13 19:29:49","新北市中和區中和路132號","121.503755","24.99934","6500300","中和區"
"235064","005-UY","2017/07/13 19:29:44","新北市中和區連城路2號","121.49922","25.0024783333333","6500300","中和區"
"235063","006-UY","2017/07/13 19:29:53","新北市中和區連勝街122號","121.494546666667","24.996275","6500300","中和區"
"235056","096-UM","2017/07/13 19:29:55","新北市中和區民富街30號","121.476841666667","25.0064516666667","6500300","中和區"
"235039","097-UM","2017/07/13 19:29:50","新北市中和區秀峰街89號","121.521293333333","24.9902766666667","6500300","中和區"
"235065","098-UM","2017/07/13 19:29:41","新北市中和區中山路二段2巷3弄9號","121.50451","25.0058233333333","6500300","中和區"
"235040","150-BY","2017/07/13 19:29:39","新北市中和區保健路46巷26弄24號","121.507933333333","24.9956083333333","6500300","中和區"
"235058","151-BY","2017/07/13 19:29:42","新北市中和區連城路469巷89號","121.484508333333","24.9934133333333","6500300","中和區"
"235055","183-VK","2017/07/13 19:29:38","新北市中和區莒光路120巷15弄1號","121.471621666667","25.0012883333333","6500300","中和區"
"235038","185-VK","2017/07/13 19:29:52","新北市中和區大仁街20巷59號","121.519896666667","24.9933833333333","6500300","中和區"
"235049","186-VK","2017/07/13 19:29:56","新北市中和區安和路19號","121.510978333333","24.9937866666667","6500300","中和區"
"235067","255-BX","2017/07/13 19:29:43","新北市中和區民樂路81號","121.484778333333","25.0013166666667","6500300","中和區"
"235044","293-VK","2017/07/13 19:29:57","新北市中和區中興街241號","121.500511666667","24.98907","6500300","中和區"
"235072","301-VK","2017/07/13 19:29:48","新北市中和區連城路263巷8弄7號","121.491773333333","24.995205","6500300","中和區"
"235043","352-BY","2017/07/13 19:29:55","新北市中和區安和路127號","121.506925","24.9960033333333","6500300","中和區"
"235051","376-QA","2017/07/13 19:29:39","新北市中和區和平街54巷8弄13號","121.50948","24.9914816666667","6500300","中和區"
"235068","377-QA","2017/07/13 19:29:42","新北市中和區圓通路158巷3-1號","121.497561666667","24.9961433333333","6500300","中和區"
"235061","378-QA","2017/07/13 19:29:45","新北市中和區員山路153-1號","121.480906666667","24.9964316666667","6500300","中和區"
"235050","4979-A6","2017/07/13 19:29:50","新北市中和區中正路436號","121.491153333333","24.99418","6500300","中和區"
"235069","4980-A6","2017/07/13 19:29:42","新北市中和區福美路303號","121.497106666667","25.00483","6500300","中和區"
"235042","551-UM","2017/07/13 19:29:57","新北市中和區中和路378巷14弄1號","121.51133","25.0016816666667","6500300","中和區"
"235045","565-BX","2017/07/13 19:29:45","新北市中和區景新街383巷30號","121.51358","24.9905","6500300","中和區"
"235054","640-BX","2017/07/13 19:29:58","新北市中和區國光街109巷17號","121.469605","24.9998016666667","6500300","中和區"
"235060","647-TV","2017/07/13 19:29:54","新北市中和區新生街114巷1號","121.483366666667","25.0023883333333","6500300","中和區"
"235046","733-UM","2017/07/13 19:29:52","新北市中和區忠孝街37巷49號","121.51067","24.9845133333333","6500300","中和區"
"235071","783-BX","2017/07/13 19:29:54","新北市中和區中正路637巷15弄2號","121.484783333333","24.9951033333333","6500300","中和區"
"235057","801-TS","2017/07/13 19:29:45","新北市中和區員山路423巷17號","121.480401666667","25.002725","6500300","中和區"
"235041","802-TS","2017/07/13 19:29:56","新北市中和區中和路294號","121.508511666667","24.9997483333333","6500300","中和區"
"235052","805-TS","2017/07/13 19:29:54","新北市中和區華新街143巷65弄1號","121.50654","24.9790466666667","6500300","中和區"
"235048","896-TW","2017/07/13 19:29:39","新北市中和區四維街15號","121.513136666667","24.9871866666667","6500300","中和區"
"235053","900-TW","2017/07/13 19:29:45","新北市中和區民德路244號","121.46803","24.9973183333333","6500300","中和區"
"235070","911-UM","2017/07/13 19:29:50","新北市中和區連城路47巷6號","121.498023333333","25.0015466666667","6500300","中和區"
"235037","AAC-213","2017/07/13 19:29:46","新北市中和區秀朗路三段60巷43號","121.52494","24.9948483333333","6500300","中和區"
"235059","AAC-215","2017/07/13 19:29:59","新北市中和區圓通路252巷6號","121.493015","24.9917233333333","6500300","中和區"
"220068","013-TV","2017/07/13 19:29:53","新北市板橋區中山路二段563號","121.484233333333","25.0218783333333","6500100","板橋區"
"220065","072-UY","2017/07/13 19:29:50","新北市板橋區國泰街75巷39-2號","121.468055","25.00525","6500100","板橋區"
"220086","073-UY","2017/07/13 19:29:54","新北市板橋區中正路216巷2弄13號","121.456595","25.0180166666667","6500100","板橋區"
"220069","AAD-861","2017/07/13 19:29:52","新北市板橋區貴興路35號","121.457655","25.0038716666667","6500100","板橋區"
"220106","120-SR","2017/07/13 19:29:23","新北市板橋區江寧路三段87巷2弄33號","121.472886666667","25.0333633333333","6500100","板橋區"
"247006","341-TH","2017/07/13 19:29:57","新北市五股區中興路三段160號","121.445611666667","25.0809316666667","6501400","蘆洲區"
"247002","336-TH","2017/07/13 19:29:53","新北市五股區新五路二段372巷20號","121.447866666667","25.085985","6501400","蘆洲區"
"247014","057-VK","2017/07/13 19:29:52","新北市蘆洲區復興路34號","121.472258333333","25.0853233333333","6501400","蘆洲區"
"247004","056-VK","2017/07/13 19:29:56","新北市蘆洲區長安街174號","121.459055","25.0833516666667","6501400","蘆洲區"
"226004","312-R5","2017/07/13 19:29:50","新北市平溪區南山里乾坑11號","121.78333","25.0489733333333","6502400","平溪區"
"228003","097-TW","2017/07/13 19:29:43","新北市貢寮區和美里和美街19-2號","121.912798333333","25.0826133333333","6502600","貢寮區"
"228001","212-TW","2017/07/13 19:29:55","新北市貢寮區真理里延平街68號","121.925398333333","25.0574233333333","6502600","貢寮區"
"228002","663-BX","2017/07/13 19:29:57","新北市貢寮區龍門里龍門街70號","121.931026666667","25.0265733333333","6502600","貢寮區"
"224006","676-BX","2017/07/13 19:29:51","新北市瑞芳區三爪子坑路230號","121.805748333333","25.1057283333333","6501200","瑞芳區"
"224002","639-TC","2017/07/13 19:29:56","新北市瑞芳區三爪子坑路7號","121.814021666667","25.1078433333333","6501200","瑞芳區"
"224011","420-VK","2017/07/13 19:29:44","新北市瑞芳區崙頂路3-1號","121.847016666667","25.1046983333333","6501200","瑞芳區"
"224005","272-VK","2017/07/13 19:29:44","新北市瑞芳區瑞濱路85號","121.821175","25.1209916666667","6501200","瑞芳區"
"227010","642-TC","2017/07/13 19:29:51","新北市雙溪區新基里新基北街43號","121.86818","25.039715","6502500","雙溪區"
"227004","400-TW","2017/07/13 19:29:39","新北市雙溪區雙溪里光復街16號","121.865096666667","25.0354233333333","6502500","雙溪區"
"253006","032-BX","2017/07/13 19:29:45","新北市石門區楓林23-10號","121.538648333333","25.2911183333333","6502200","石門區"
"253005","295-VK","2017/07/13 19:29:52","新北市石門區小坑12-8號","121.595631666667","25.2850133333333","6502200","石門區"
"208003","665-BX","2017/07/13 19:29:50","新北市金山區中山路263巷14號","121.636398333333","25.22162","6502700","金山區"
"208001","761-BX","2017/07/13 19:29:54","新北市金山區金包里街142-1號","121.637633333333","25.2225383333333","6502700","金山區"
"251009","008-UM","2017/07/13 19:13:02","新北市淡水區中正路8巷6號","121.44178","25.1700433333333","6501000","淡水區"
"251001","011-UM","2017/07/13 19:29:43","新北市淡水區民權路163號","121.459875","25.136015","6501000","淡水區"
"251007","179-VK","2017/07/13 19:29:45","新北市淡水區中正東路一段127巷21號","121.455858333333","25.1602866666667","6501000","淡水區"
"251008","181-VK","2017/07/13 19:29:38","新北市淡水區中正路一段80號","121.424748333333","25.1772766666667","6501000","淡水區"
"251014","182-VK","2017/07/13 19:29:40","新北市淡水區小中寮19-7號","121.484766666667","25.229675","6501000","淡水區"
"251010","413-VK","2017/07/13 19:29:52","新北市淡水區中正路二段136號","121.420981666667","25.1871733333333","6501000","淡水區"
"251016","442-VK","2017/07/13 19:29:49","新北市淡水區淡金路三段350巷18號","121.45078","25.2083916666667","6501000","淡水區"
"251005","443-VK","2017/07/13 19:29:56","新北市淡水區水源街一段71巷11號","121.444453333333","25.17292","6501000","淡水區"
"251006","561-UM","2017/07/13 19:29:49","新北市淡水區大義街29巷14號","121.441713333333","25.1780883333333","6501000","淡水區"
"251011","650-BX","2017/07/13 19:29:51","新北市淡水區中正東路二段143巷2弄1號","121.460733333333","25.1474166666667","6501000","淡水區"
"251003","766-UM","2017/07/13 19:29:51","新北市淡水區中山北路二段184號","121.4443","25.18496","6501000","淡水區"
"207003","550-UM","2017/07/13 19:29:55","新北市萬里區大鵬里萬里加投199號","121.643981666667","25.2151083333333","6502800","萬里區"
"207004","225-TW","2017/07/13 19:29:44","新北市萬里區萬里里瑪鋉路127-8號","121.688866666667","25.177765","6502800","萬里區"
"252005","073-UM","2017/07/13 19:29:48","新北市三芝區埔坪里埔頭坑41號","121.50434","25.26457","6502100","三芝區"
"252002","178-VK","2017/07/13 19:29:46","新北市三芝區淡金路二段18-1號","121.50267","25.2594883333333","6502100","三芝區"
"252001","702-TV","2017/07/13 19:29:54","新北市三芝區長勤街63-1號","121.50014","25.25608","6502100","三芝區"
"208002","170-UY","2017/07/13 19:29:46","新北市金山區仁愛路76號","121.634785","25.2213983333333","6502700","金山區"
"237004","078-UY","2017/07/13 19:29:53","新北市三峽區有木205號","121.438913333333","24.8522283333333","6500900","三峽區"
"237007","153-BY","2017/07/13 19:29:57","新北市三峽區二鬮路178號","121.359216666667","24.9068633333333","6500900","三峽區"
"237009","210-TH","2017/07/13 19:29:51","新北市三峽區民權街17號","121.370271666667","24.9343916666667","6500900","三峽區"
"237013","252-BX","2017/07/13 19:29:53","新北市三峽區介壽路一段276巷88弄23號","121.37879","24.9284466666667","6500900","三峽區"
"237012","275-BY","2017/07/13 19:29:58","新北市三峽區三樹路98巷169號","121.384408333333","24.9392883333333","6500900","三峽區"
"237008","302-VK","2017/07/13 19:29:45","新北市三峽區光明路106巷13號","121.376261666667","24.9273083333333","6500900","三峽區"
"237014","433-BY","2017/07/13 19:29:58","新北市三峽區中山路63巷12號","121.366978333333","24.9343066666667","6500900","三峽區"
"237006","5529-G3","2017/07/13 19:29:46","新北市三峽區中正路一段336巷15弄2號","121.369986666667","24.924945","6500900","三峽區"
"237011","572-TV","2017/07/13 19:29:53","新北市三峽區中正路一段290-1號","121.371625","24.92584","6500900","三峽區"
"237016","649-BX","2017/07/13 19:29:50","新北市三峽區安坑13-3號","121.44388","24.9265433333333","6500900","三峽區"
"237010","706-TV","2017/07/13 19:29:54","新北市三峽區復興路168號","121.370976666667","24.9383666666667","6500900","三峽區"
"237005","AKY-6261","2017/07/13 19:29:51","新北市三峽區復興路367巷1弄3號","121.363758333333","24.9381783333333","6500900","三峽區"
"236071","105-UM","2017/07/13 19:29:46","新北市土城區學府路一段143巷20弄2號","121.453956666667","24.98542","6501300","土城區"
"236078","166-UM","2017/07/13 19:29:41","新北市土城區中州路1-2號","121.41465","24.9572283333333","6501300","土城區"
"236030","253-BX","2017/07/13 19:29:55","新北市土城區中央路一段324號","121.44322","24.981515","6501300","土城區"
"236026","269-VK","2017/07/13 19:29:45","新北市土城區中央路二段61巷20號","121.443115","24.97877","6501300","土城區"
"236003","370-SL","2017/07/13 14:38:38","新北市土城區永平街51號","121.427625","24.95923","6501300","土城區"
"236021","401-BY","2017/07/13 19:29:53","新北市土城區峰廷街3號","121.469091666667","24.9873666666667","6501300","土城區"
"236058","912-UM","2017/07/13 19:29:58","新北市土城區中央路二段280號","121.440651666667","24.97405","6501300","土城區"
"236051","913-UM","2017/07/13 19:29:50","新北市土城區清水路178號","121.460078333333","24.9816816666667","6501300","土城區"
"242031","415-TV","2017/07/13 19:29:47","新北市新莊區新泰路227號","121.44612","25.0392516666667","6500500","新莊區"
"242007","173-VK","2017/07/13 19:29:41","新北市新莊區福壽街425號","121.45769","25.058345","6500500","新莊區"
"242015","350-TH","2017/07/13 19:29:46","新北市新莊區三和路12-21號","121.442188333333","25.0382516666667","6500500","新莊區"
"238015","755-BX","2017/07/13 19:29:43","新北市樹林區復興路231-1號","121.419748333333","24.990615","6500700","樹林區"
"238023","601-UM","2017/07/13 19:29:41","桃園市龜山區萬壽路一段363號","121.40151","25.0168766666667","6500700","樹林區"
"238019","599-UM","2017/07/13 19:29:45","新北市樹林區東榮街84號","121.416143333333","24.98265","6500700","樹林區"
"238018","571-TV","2017/07/13 19:29:44","新北市樹林區中華路143號","121.421501666667","24.9823866666667","6500700","樹林區"
"238024","5061-A6","2017/07/13 19:29:55","新北市樹林區福德街48-6號","121.399091666667","24.97459","6500700","樹林區"
"238022","312-TH","2017/07/13 19:29:38","新北市樹林區國凱街37號","121.420206666667","24.97886","6500700","樹林區"
"238021","311-TH","2017/07/13 18:52:31","新北市樹林區西圳街一段118巷16號","121.394361666667","24.9662433333333","6500700","樹林區"
"238025","303-VK","2017/07/13 19:29:46","新北市樹林區中山路一段6號","121.424356666667","24.9929383333333","6500700","樹林區"
"238017","283-BY","2017/07/13 19:29:47","新北市樹林區光興街153-6號","121.408325","25.0032216666667","6500700","樹林區"
"238014","282-BY","2017/07/13 19:24:34","新北市樹林區中正路22-1號","121.427698333333","24.9993916666667","6500700","樹林區"
"238020","268-VK","2017/07/13 19:29:58","新北市樹林區俊英街133巷1弄4號","121.423843333333","25.0113083333333","6500700","樹林區"
"238026","172-UY","2017/07/13 19:29:53","新北市樹林區寶園街8-2號","121.38561","24.9536016666667","6500700","樹林區"
"238016","169-UY","2017/07/13 19:29:52","新北市樹林區復興路452巷9號","121.413155","24.983985","6500700","樹林區"
"239007","AAC-297","2017/07/13 19:29:55","新北市鶯歌區大湖路133號","121.342796666667","24.9647083333333","6500800","鶯歌區"
"239006","891-R6","2017/07/13 19:29:53","新北市鶯歌區鶯桃路76號","121.340255","24.953365","6500800","鶯歌區"
"239008","527-UM","2017/07/13 19:29:51","新北市鶯歌區大湖路335號","121.341661666667","24.9725466666667","6500800","鶯歌區"
"239001","417-VK","2017/07/13 19:29:48","新北市鶯歌區尖山埔路144號","121.343433333333","24.949605","6500800","鶯歌區"
"239003","360-BY","2017/07/13 19:29:41","新北市鶯歌區建國路278號","121.346985","24.9531983333333","6500800","鶯歌區"
"239004","193-VK","2017/07/13 19:29:48","新北市鶯歌區鶯華新村28號","121.330285","24.9344583333333","6500800","鶯歌區"
"221008","489-VK","2017/07/13 19:29:45","新北市汐止區康寧街241號","121.624473333333","25.066825","6501100","汐止區"
"221010","269-BY","2017/07/13 19:29:49","新北市汐止區康寧街901號","121.651401666667","25.0750683333333","6501100","汐止區"
"221031","277-VK","2017/07/13 00:11:44","新北市汐止區汐萬路一段256巷3號","121.652526666667","25.0745416666667","6501100","汐止區"
"221027","281-BY","2017/07/13 19:29:39","新北市汐止區水源路一段27號","121.65718","25.0665633333333","6501100","汐止區"
"221038","297-VK","2017/07/13 19:29:43","新北市汐止區汐萬路一段312號","121.650616666667","25.0754666666667","6501100","汐止區"
"221029","298-VK","2017/07/13 19:29:44","新北市汐止區康寧街901號","121.651613333333","25.0749533333333","6501100","汐止區"
"221002","623-UM","2017/07/13 19:29:56","新北市汐止區新台五路二段10號","121.660265","25.065045","6501100","汐止區"
"221002","707-TV","2017/07/13 19:29:46","新北市汐止區大同路一段337巷17弄1號","121.637338333333","25.0599233333333","6501100","汐止區"
"220079","145-BY","2017/07/13 19:29:46","新北市板橋區民權路202巷13弄30號","121.458806666667","25.0163583333333","6500100","板橋區"
"220082","610-BX","2017/07/13 19:29:49","新北市板橋區金門街383號","121.428003333333","24.9843333333333","6500100","板橋區"
"220101","245-BX","2017/07/13 19:29:52","新北市板橋區縣民大道三段133巷19號","121.47703","25.023745","6500100","板橋區"
"220103","257-TC","2017/07/13 19:29:55","新北市板橋區文化路一段270巷1弄1號","121.467466666667","25.0209566666667","6500100","板橋區"
"220091","267-BY","2017/07/13 19:29:50","新北市板橋區文聖街135巷16號","121.479125","25.0288916666667","6500100","板橋區"
"220056","276-BY","2017/07/13 19:29:55","新北市板橋區國慶路49巷17號","121.459711666667","24.996325","6500100","板橋區"
"220072","277-BY","2017/07/13 19:29:45","新北市板橋區篤行路三段玉平巷31弄1號","121.429456666667","24.98711","6500100","板橋區"
"220064","280-UM","2017/07/13 19:29:53","新北市板橋區中山路一段51號","121.460885","25.0092333333333","6500100","板橋區"
"220071","283-VK","2017/07/13 19:29:47","新北市板橋區大豐街111號","121.461246666667","25.00117","6500100","板橋區"
"220094","285-UM","2017/07/13 19:29:55","新北市板橋區吳鳳路82號","121.467005","25.03128","6500100","板橋區"
"220053","285-VK","2017/07/13 19:29:42","新北市板橋區富山街53巷29號","121.47765","25.021025","6500100","板橋區"
"220083","286-VK","2017/07/13 19:29:42","新北市板橋區龍興街95巷6號","121.44381","25.00254","6500100","板橋區"
"220081","287-VK","2017/07/13 19:29:45","新北市板橋區南雅西路一段51號","121.45372","25.0049216666667","6500100","板橋區"
"220090","288-VK","2017/07/13 19:29:39","新北市板橋區長江路一段106巷18弄7號","121.460035","25.0284133333333","6500100","板橋區"
"220061","293-UM","2017/07/13 19:29:39","新北市板橋區中山路二段257號","121.477268333333","25.0177766666667","6500100","板橋區"
"220062","295-UM","2017/07/13 19:29:51","新北市板橋區三民路二段153巷2弄10號","121.479545","25.0145233333333","6500100","板橋區"
"220084","296-UM","2017/07/13 19:29:51","新北市板橋區滿平街136巷8弄11號","121.427345","24.98754","6500100","板橋區"
"220075","297-UM","2017/07/13 19:29:41","新北市板橋區中正路291號","121.455218333333","25.019215","6500100","板橋區"
"220092","299-UM","2017/07/13 19:29:51","新北市板橋區光武街4巷15號","121.46823","25.0256783333333","6500100","板橋區"
"220098","317-R6","2017/07/13 19:29:49","新北市板橋區四維路266巷5弄2-1號","121.46381","25.02865","6500100","板橋區"
"220080","461-BY","2017/07/13 19:29:46","新北市板橋區大觀路二段3巷27號","121.448333333333","25.00363","6500100","板橋區"
"220089","487-VK","2017/07/13 19:29:49","新北市板橋區文化路一段51號","121.460661666667","25.013505","6500100","板橋區"
"220088","491-VK","2017/07/13 19:29:50","新北市板橋區雙十路二段76巷2號","121.475178333333","25.0279183333333","6500100","板橋區"
"220035","560-BX","2017/07/13 19:29:48","新北市板橋區中正路399巷13弄2號","121.453203333333","25.022555","6500100","板橋區"
"220063","609-BX","2017/07/13 19:29:49","新北市板橋區林森街3巷2弄5號","121.482465","25.023555","6500100","板橋區"
"220034","630-UY","2017/07/13 19:27:31","新北市板橋區華東街1-10號","121.44855","24.9949383333333","6500100","板橋區"
"220057","686-BX","2017/07/13 19:29:48","新北市板橋區國慶路191號","121.462938333333","24.9964483333333","6500100","板橋區"
"220077","687-BX","2017/07/13 19:29:59","新北市板橋區僑中二街116巷2號","121.445711666667","25.0065116666667","6500100","板橋區"
"220093","689-BX","2017/07/13 19:29:05","新北市板橋區新海路113號","121.461078333333","25.0226616666667","6500100","板橋區"
"220054","741-BX","2017/07/13 19:29:46","新北市板橋區光明街98號","121.46216","25.00286","6500100","板橋區"
"220055","827-TW","2017/07/13 19:29:48","新北市板橋區重慶路278巷7號","121.462573333333","24.999635","6500100","板橋區"
"220067","829-TW","2017/07/13 19:29:27","新北市板橋區漢生東路299巷32號","121.472711666667","25.0088066666667","6500100","板橋區"
"220102","830-TW","2017/07/13 19:29:45","新北市板橋區松柏街22巷36號","121.475058333333","25.02888","6500100","板橋區"
"220096","831-TW","2017/07/13 19:29:49","新北市板橋區大同街35巷31號","121.476568333333","25.0275016666667","6500100","板橋區"
"220074","895-R6","2017/07/13 19:29:40","新北市板橋區中正路1巷14號","121.455161666667","25.0116966666667","6500100","板橋區"
"220073","985-R7","2017/07/13 19:29:40","新北市板橋區瑞安街46巷1號","121.45537","25.0220633333333","6500100","板橋區"
"220097","AAC-210","2017/07/13 19:29:51","新北市板橋區陽明街133號","121.463298333333","25.0239666666667","6500100","板橋區"
"220070","AAC-253","2017/07/13 19:29:51","新北市板橋區忠孝路127號","121.463003333333","25.0024416666667","6500100","板橋區"
