"lineid","car","time","location","longitude","latitude","cityid","cityname"
"234046","148-BY","2017/07/13 19:59:59","新北市永和區林森路81號","121.523831666667","25.003925","6500400","永和區"
"234013","149-BY","2017/07/13 19:59:55","新北市永和區永平路286-1號","121.507658333333","25.01205","6500400","永和區"
"234007","207-UY","2017/07/13 19:59:50","新北市永和區中山路一段242號","121.507775","25.0081316666667","6500400","永和區"
"234081","298-R6","2017/07/13 19:59:54","新北市永和區永利路81巷2弄2號","121.521628333333","25.0035483333333","6500400","永和區"
"234038","336-UY","2017/07/13 19:59:39","新北市永和區成功路一段130號","121.526713333333","25.0021733333333","6500400","永和區"
"234064","337-UY","2017/07/13 19:59:59","新北市永和區中正路412巷20弄27號","121.519125","25.0012516666667","6500400","永和區"
"234086","338-UY","2017/07/13 19:59:42","新北市永和區福和路233號","121.518485","25.0074566666667","6500400","永和區"
"234070","552-UM","2017/07/13 19:59:51","新北市永和區永貞路10巷12號","121.520313333333","25.00731","6500400","永和區"
"234054","553-UM","2017/07/13 19:59:56","新北市永和區博愛街45巷2號","121.519215","25.01592","6500400","永和區"
"234017","745-BX","2017/07/13 19:59:46","新北市永和區文化路115號","121.512721666667","25.0151816666667","6500400","永和區"
"234030","746-BX","2017/07/13 19:59:50","新北市永和區民生路22巷33號","121.52095","24.9969183333333","6500400","永和區"
"234061","AAD-866","2017/07/13 19:59:40","新北市永和區中正路334號","121.5176","24.9999416666667","6500400","永和區"
"234067","847-RS","2017/07/13 19:59:47","新北市永和區保平路236巷27號","121.508053333333","25.006835","6500400","永和區"
"234042","862-TW","2017/07/13 19:59:51","新北市永和區中和路335巷18弄28號","121.508013333333","25.0004333333333","6500400","永和區"
"234050","863-TW","2017/07/13 19:59:50","新北市永和區保安路292號","121.505086666667","25.01203","6500400","永和區"
"234026","9371-KE","2017/07/13 19:59:40","新北市永和區保平路196號","121.510145","25.0062366666667","6500400","永和區"
"234011","9373-KE","2017/07/13 19:59:42","新北市永和區保生路55號","121.504748333333","25.0099883333333","6500400","永和區"
"249005","172-UM","2017/07/13 19:59:44","新北市八里區楓林路1-12號","121.385555","25.1311683333333","6502300","八里區"
"249004","303-UY","2017/07/13 19:59:53","新北市八里區文昌路112號","121.409651666667","25.15775","6502300","八里區"
"249003","593-UM","2017/07/13 19:59:48","新北市八里區中華路二段558號","121.398625","25.145215","6502300","八里區"
"249001","759-BX","2017/07/13 19:59:59","新北市八里區中華路二段312號","121.40379","25.1482816666667","6502300","八里區"
"248014","025-BX","2017/07/13 19:59:43","新北市五股區五福路22巷4號","121.434588333333","25.089035","6501500","五股區"
"248016","026-BX","2017/07/13 19:59:42","新北市五股區成泰路三段577巷80弄25號","121.44957","25.10458","6501500","五股區"
"248008","095-VK","2017/07/13 19:59:41","新北市三重區中正北路598巷4號","121.469741666667","25.07192","6501500","五股區"
"248020","225-UY","2017/07/13 19:59:53","新北市五股區凌雲路三段21-1號","121.430638333333","25.1096216666667","6501500","五股區"
"248012","247-BX","2017/07/13 19:11:27","新北市五股區中興路四段38巷11-2號","121.439201666667","25.083635","6501500","五股區"
"248010","272-BY","2017/07/13 19:59:57","新北市五股區登林路76-7號","121.430148333333","25.069385","6501500","五股區"
"248002","678-BX","2017/07/13 19:59:46","新北市五股區成泰路三段436號","121.450833333333","25.0994333333333","6501500","五股區"
"234023","9380-KE","2017/07/13 19:59:44","新北市永和區中正路704號","121.516233333333","25.0100066666667","6500400","永和區"
"234077","969-R7","2017/07/13 19:59:48","新北市永和區民有街10巷1號","121.516045","24.9970433333333","6500400","永和區"
"234074","AAC-211","2017/07/13 19:59:47","新北市永和區豫溪街189巷1號","121.522606666667","25.01036","6500400","永和區"
"234003","AAC-295","2017/07/13 19:59:46","新北市永和區中正路688號","121.51661","25.0095483333333","6500400","永和區"
"244009","410-SL","2017/07/13 19:59:51","新北市八里區中山路三段409號","121.368433333333","25.1345816666667","6501700","林口區"
"243013","AAD-798","2017/07/13 19:59:55","新北市泰山區應化街13號","121.423865","25.0437016666667","6501600","泰山區"
"243009","297-R6","2017/07/13 19:59:47","新北市泰山區楓江路16巷21號","121.434015","25.0615","6501600","泰山區"
"243015","380-SR","2017/07/13 19:59:53","新北市泰山區民族街10巷5號","121.429155","25.0516216666667","6501600","泰山區"
"243014","421-VK","2017/07/13 19:59:47","新北市泰山區泰林路二段177號","121.433585","25.06081","6501600","泰山區"
"243010","548-UM","2017/07/13 19:59:44","新北市泰山區明志路二段62號","121.429026666667","25.0526966666667","6501600","泰山區"
"243011","549-UM","2017/07/13 19:59:44","新北市泰山區工專路63號","121.422266666667","25.040415","6501600","泰山區"
"243012","646-TV","2017/07/13 19:59:58","新北市泰山區福興街22號","121.434316666667","25.0576666666667","6501600","泰山區"
"243016","680-BX","2017/07/13 19:59:41","新北市泰山區中山路二段776號","121.423593333333","25.0338883333333","6501600","泰山區"
"222003","436-BY","2017/07/13 19:59:46","新北市深坑區埔新街14號","121.62078","25.0039833333333","6501800","深坑區"
"222001","628-TS","2017/07/13 19:59:43","新北市深坑區北深路三段165-1號","121.602025","25.0034666666667","6501800","深坑區"
"222002","659-BX","2017/07/13 19:59:45","新北市深坑區北深路二段81巷8弄6號","121.618226666667","25.0031133333333","6501800","深坑區"
"231041","002-UM","2017/07/13 19:59:46","新北市新店區中正路352號","121.535908333333","24.9755366666667","6500600","新店區"
"231056","0291-UT","2017/07/13 19:59:47","新北市新店區民權路42巷59弄1號","121.538636666667","24.98384","6500600","新店區"
"231059","046-UY","2017/07/13 19:59:57","新北市新店區安康路二段147-1號","121.511358333333","24.9598083333333","6500600","新店區"
"231061","047-UY","2017/07/13 19:59:45","新北市新店區安興路83-8號","121.515276666667","24.975745","6500600","新店區"
"231060","106-UY","2017/07/13 19:59:45","新北市新店區安康路二段341巷1號","121.496861666667","24.95528","6500600","新店區"
"231051","107-UY","2017/07/13 19:59:49","新北市新店區中央二街7-2號","121.529185","24.973135","6500600","新店區"
"231047","108-UY","2017/07/13 19:59:45","新北市新店區寶宏路38號","121.54935","24.9754666666667","6500600","新店區"
"231052","187-VK","2017/07/13 19:59:50","新北市新店區新烏路三段寶島巷4號","121.55155","24.89927","6500600","新店區"
"231007","189-VK","2017/07/13 11:59:52","新北市新店區安華路28-1號","121.519521666667","24.9611833333333","6500600","新店區"
"231057","256-BX","2017/07/13 19:59:40","新北市新店區花園二路一段11號","121.555496666667","24.9324866666667","6500600","新店區"
"231063","268-BY","2017/07/13 19:59:46","新北市新店區黎明路3號","121.503593333333","24.9524516666667","6500600","新店區"
"231050","AAD-862","2017/07/13 19:59:58","新北市新店區中生路61號","121.564726666667","24.9522833333333","6500600","新店區"
"231055","3713-VJ","2017/07/13 19:59:47","新北市新店區中華路83巷67號","121.53832","24.967255","6500600","新店區"
"231067","4772-VM","2017/07/13 19:59:43","新北市新店區秀山路11巷28號","121.53149","24.958645","6500600","新店區"
"231065","512-UM","2017/07/13 19:59:55","新北市新店區安祥路109巷8號","121.47542","24.9588283333333","6500600","新店區"
"231054","513-UM","2017/07/13 19:59:58","新北市新店區北新路一段75號","121.53847","24.960395","6500600","新店區"
"231064","515-UM","2017/07/13 19:59:43","新北市新店區光華街5巷36號","121.51737","24.9678033333333","6500600","新店區"
"231042","616-UM","2017/07/13 19:59:44","新北市新店區中正路5號","121.54579","24.969115","6500600","新店區"
"231040","619-UM","2017/07/13 19:59:53","新北市新店區中正路66號","121.544181666667","24.9701533333333","6500600","新店區"
"231068","718-UY","2017/07/13 19:59:45","新北市新店區安華路28-1號","121.519315","24.960915","6500600","新店區"
"231049","719-UM","2017/07/13 19:59:47","新北市新店區明德路83號","121.541491666667","24.9783166666667","6500600","新店區"
"231062","720-UM","2017/07/13 19:59:38","新北市新店區華潭街51號","121.528765","24.9540783333333","6500600","新店區"
"231044","897-TW","2017/07/13 19:59:53","新北市新店區中正路568號","121.533938333333","24.9879366666667","6500600","新店區"
"231045","898-TW","2017/07/13 19:59:52","新北市新店區北宜路二段291號","121.555606666667","24.95368","6500600","新店區"
"231043","899-TW","2017/07/13 19:59:58","新北市新店區中正路282-11號","121.538435","24.973955","6500600","新店區"
"241011","013-R5","2017/07/13 19:59:40","新北市三重區三和路三段8號","121.49706","25.07021","6500200","三重區"
"241028","022-UY","2017/07/13 19:59:46","新北市三重區中正南路58號","121.49409","25.05966","6500200","三重區"
"241009","060-VK","2017/07/13 19:59:51","新北市三重區三和路四段390巷40號","121.480458333333","25.07857","6500200","三重區"
"241031","061-VK","2017/07/13 19:59:45","新北市三重區重新路四段184巷16號","121.487141666667","25.05495","6500200","三重區"
"241015","062-VK","2017/07/13 19:59:38","新北市三重區三和路二段35-1號","121.50089","25.06715","6500200","三重區"
"241017","063-VK","2017/07/13 19:59:51","新北市三重區自強路一段274號","121.492035","25.067945","6500200","三重區"
"241024","065-VK","2017/07/13 19:59:42","新北市三重區力行路一段178巷9號","121.48158","25.0714283333333","6500200","三重區"
"241026","066-VK","2017/07/13 19:59:49","新北市三重區仁慈街26號","121.502166666667","25.0631783333333","6500200","三重區"
"241003","091-VK","2017/07/13 19:59:40","新北市三重區五華街128號","121.491628333333","25.0834566666667","6500200","三重區"
"241005","262-UM","2017/07/13 19:59:44","新北市三重區溪尾街325巷32號","121.48874","25.08348","6500200","三重區"
"241016","265-UM","2017/07/13 19:59:39","新北市三重區正義北路36巷22號","121.496338333333","25.06327","6500200","三重區"
"241022","267-UM","2017/07/13 19:59:37","新北市三重區過圳街31巷2號","121.48912","25.0605433333333","6500200","三重區"
"241018","268-UM","2017/07/13 19:59:47","新北市三重區雙園街103號","121.493706666667","25.0672933333333","6500200","三重區"
"241032","269-UM","2017/07/13 19:59:48","新北市三重區朝陽街26巷1弄13號","121.483098333333","25.0567983333333","6500200","三重區"
"241013","270-UM","2017/07/13 19:59:39","新北市三重區三和路三段125巷4號","121.493111666667","25.0735033333333","6500200","三重區"
"241025","271-UM","2017/07/13 19:59:51","新北市三重區頂崁街210巷31號","121.47555","25.0681333333333","6500200","三重區"
"241007","398-BY","2017/07/13 19:59:56","新北市三重區溪尾街124-1號","121.489488333333","25.0793216666667","6500200","三重區"
"241020","413-TH","2017/07/13 19:59:54","新北市三重區大智街234號","121.489688333333","25.072615","6500200","三重區"
"241004","475-VK","2017/07/13 19:59:42","新北市三重區五華街108-2號","121.492426666667","25.0827816666667","6500200","三重區"
"241019","478-VK","2017/07/13 19:59:37","新北市三重區六張街141號","121.490531666667","25.06925","6500200","三重區"
"241030","480-VK","2017/07/13 19:59:44","新北市三重區成功路153號","121.486535","25.0522116666667","6500200","三重區"
"241014","543-UM","2017/07/13 19:59:52","新北市三重區三和路二段178號","121.498865","25.0688766666667","6500200","三重區"
"241023","545-UM","2017/07/13 19:59:49","新北市三重區頂崁街172號","121.477521666667","25.0659483333333","6500200","三重區"
"241001","547-UM","2017/07/13 19:59:41","新北市三重區五華街6號","121.494916666667","25.0798483333333","6500200","三重區"
"241006","AAD-863","2017/07/13 19:59:58","新北市三重區力行路二段33巷1號","121.482496666667","25.0736816666667","6500200","三重區"
"241035","743-BX","2017/07/13 19:59:50","新北市三重區大榮街9號","121.498258333333","25.06309","6500200","三重區"
"241012","941-UM","2017/07/13 19:59:48","新北市三重區仁厚街52號","121.500291666667","25.0765616666667","6500200","三重區"
"241029","942-UM","2017/07/13 19:59:55","新北市三重區重新路三段204號","121.49007","25.0583916666667","6500200","三重區"
"241033","AAC-255","2017/07/13 19:59:56","新北市三重區中興北街75號","121.469413333333","25.0476883333333","6500200","三重區"
"235066","003-UY","2017/07/13 19:59:49","新北市中和區中山路二段48號","121.504236666667","25.00489","6500300","中和區"
"235056","096-UM","2017/07/13 19:59:51","新北市中和區中山路三段172號","121.472788333333","25.0063916666667","6500300","中和區"
"235039","097-UM","2017/07/13 19:59:49","新北市中和區大勇街27巷25號","121.516373333333","24.9938166666667","6500300","中和區"
"235065","098-UM","2017/07/13 19:59:41","新北市中和區福祥路90巷7弄3號","121.499506666667","25.006055","6500300","中和區"
"235040","150-BY","2017/07/13 19:59:59","新北市中和區保健路8巷25號","121.50768","24.997665","6500300","中和區"
"235058","151-BY","2017/07/13 19:59:22","新北市中和區員山路146巷3號","121.481621666667","24.9968166666667","6500300","中和區"
"235055","183-VK","2017/07/13 19:59:38","新北市中和區德光路30號","121.470676666667","25.0043033333333","6500300","中和區"
"235038","185-VK","2017/07/13 19:59:32","新北市中和區大智街55巷30弄20號","121.52115","24.9931166666667","6500300","中和區"
"235049","186-VK","2017/07/13 19:59:56","新北市中和區景平路385巷71號","121.501296666667","24.9942983333333","6500300","中和區"
"235067","255-BX","2017/07/13 19:59:43","新北市中和區新生街186巷6號","121.483338333333","24.9996766666667","6500300","中和區"
"235044","293-VK","2017/07/13 19:59:57","新北市中和區南山路399巷7號","121.506883333333","24.9903183333333","6500300","中和區"
"235072","301-VK","2017/07/13 19:59:48","新北市五股區凌雲路三段24巷21-9號","121.434116666667","25.1075","6500300","中和區"
"235043","352-BY","2017/07/13 19:59:55","新北市中和區興南路二段159巷7號","121.50528","24.983225","6500300","中和區"
"235051","376-QA","2017/07/13 19:59:39","新北市中和區復興路333號","121.500521666667","24.9902783333333","6500300","中和區"
"235068","377-QA","2017/07/13 19:59:42","新北市中和區福美路297號","121.49735","25.0047716666667","6500300","中和區"
"235050","4979-A6","2017/07/13 19:59:50","新北市中和區景平路155巷30號","121.51357","24.99166","6500300","中和區"
"235069","4980-A6","2017/07/13 19:59:42","新北市中和區景平路477號","121.500221666667","24.9971583333333","6500300","中和區"
"235054","640-BX","2017/07/13 19:59:38","新北市中和區莒光路105號","121.472411666667","25.0028316666667","6500300","中和區"
"235046","733-UM","2017/07/13 19:59:52","新北市中和區興南路一段93巷61號","121.510265","24.9871416666667","6500300","中和區"
"235057","801-TS","2017/07/13 19:59:45","新北市中和區民樂路71號","121.484178333333","25.0013283333333","6500300","中和區"
"235041","802-TS","2017/07/13 19:59:56","新北市中和區永貞路244號","121.51442","25.0037833333333","6500300","中和區"
"235052","805-TS","2017/07/13 19:59:54","新北市中和區華新街142號","121.507968333333","24.98248","6500300","中和區"
"235048","896-TW","2017/07/13 19:59:59","新北市中和區興南路一段20-1號","121.511331666667","24.99102","6500300","中和區"
"235053","900-TW","2017/07/13 19:59:45","新北市中和區國光街215巷29號","121.467376666667","25.0004933333333","6500300","中和區"
"235070","911-UM","2017/07/13 19:59:50","新北市中和區連城路171巷41弄1號","121.496468333333","24.99658","6500300","中和區"
"235037","AAC-213","2017/07/13 19:59:46","新北市中和區自強路52號","121.520085","24.9947866666667","6500300","中和區"
"235059","AAC-215","2017/07/13 19:59:39","新北市中和區圓通路335巷13號","121.493415","24.98953","6500300","中和區"
"220068","013-TV","2017/07/13 19:59:53","新北市板橋區中山路二段312號","121.479966666667","25.019135","6500100","板橋區"
"220065","072-UY","2017/07/13 19:59:45","新北市板橋區海山路27號","121.467655","25.0090583333333","6500100","板橋區"
"220069","AAD-861","2017/07/13 19:59:43","新北市板橋區南雅南路二段7巷12號","121.45436","25.0029283333333","6500100","板橋區"
"220106","120-SR","2017/07/13 19:59:42","新北市板橋區民治街71巷33號","121.480553333333","25.0333616666667","6500100","板橋區"
"247020","893-R6","2017/07/13 19:59:50","新北市蘆洲區民義街70號","121.473171666667","25.0899833333333","6501400","蘆洲區"
"247018","500-BY","2017/07/13 19:59:48","新北市蘆洲區民族路298巷2號","121.477911666667","25.0900066666667","6501400","蘆洲區"
"247006","341-TH","2017/07/13 19:59:57","新北市蘆洲區九芎街103號","121.465885","25.0796583333333","6501400","蘆洲區"
"247008","339-TH","2017/07/13 19:59:43","新北市蘆洲區中山一路162號","121.47469","25.0814666666667","6501400","蘆洲區"
"247024","337-TH","2017/07/13 19:59:49","新北市蘆洲區光明路112巷29弄13號","121.464288333333","25.0876666666667","6501400","蘆洲區"
"247002","336-TH","2017/07/13 19:59:53","新北市蘆洲區永樂街31巷9號","121.458088333333","25.08714","6501400","蘆洲區"
"247014","057-VK","2017/07/13 19:59:53","新北市蘆洲區成功路98號","121.472608333333","25.0821","6501400","蘆洲區"
"247004","056-VK","2017/07/13 19:59:56","新北市蘆洲區永安南路二段330號","121.456811666667","25.083","6501400","蘆洲區"
"247012","007-UY","2017/07/13 19:59:43","新北市蘆洲區民族路236巷4號","121.480088333333","25.0885416666667","6501400","蘆洲區"
"247022","002-UY","2017/07/13 19:59:53","新北市蘆洲區中正路180號","121.467018333333","25.0879266666667","6501400","蘆洲區"
"247016","001-UY","2017/07/13 19:59:45","新北市蘆洲區光華路80號","121.467875","25.08277","6501400","蘆洲區"
"226004","312-R5","2017/07/13 19:59:50","新北市平溪區靜安路二段532號","121.746395","25.0278916666667","6502400","平溪區"
"228003","097-TW","2017/07/13 19:59:43","新北市貢寮區仁理村仁和路220號","121.923826666667","25.0534566666667","6502600","貢寮區"
"224011","420-VK","2017/07/13 19:59:44","新北市瑞芳區崙頂路1-6號","121.847083333333","25.1047083333333","6501200","瑞芳區"
"224005","272-VK","2017/07/13 19:59:44","新北市瑞芳區三爪子坑路303-2號","121.818311666667","25.1056366666667","6501200","瑞芳區"
"227010","642-TC","2017/07/13 19:59:51","新北市雙溪區新基里新基南街25號","121.866221666667","25.03816","6502500","雙溪區"
"227004","400-TW","2017/07/13 19:59:38","新北市雙溪區共和里東榮街1號","121.865291666667","25.0343466666667","6502500","雙溪區"
"208003","665-BX","2017/07/13 19:59:50","新北市金山區永興里濆水路29號","121.625753333333","25.26974","6502700","金山區"
"208001","761-BX","2017/07/13 19:59:55","新北市金山區重和里茅埔頭2號","121.604536666667","25.21723","6502700","金山區"
"251009","008-UM","2017/07/13 19:13:02","新北市淡水區中正路8巷6號","121.44178","25.1700433333333","6501000","淡水區"
"251004","009-UM","2017/07/13 19:59:38","新北市淡水區民權路177巷7號","121.460783333333","25.1355083333333","6501000","淡水區"
"251001","011-UM","2017/07/13 19:59:43","新北市淡水區水源街二段177巷32弄20號","121.456","25.1773333333333","6501000","淡水區"
"251008","181-VK","2017/07/13 19:59:57","新北市淡水區淡海路70號","121.423113333333","25.1809216666667","6501000","淡水區"
"251014","182-VK","2017/07/13 19:59:40","新北市淡水區石頭厝14-16號","121.464286666667","25.2366866666667","6501000","淡水區"
"251010","413-VK","2017/07/13 19:59:52","新北市淡水區崁頂76-1號","121.431125","25.20377","6501000","淡水區"
"251012","441-VK","2017/07/13 19:59:54","新北市淡水區下圭柔山70巷2號","121.446261666667","25.2081","6501000","淡水區"
"251016","442-VK","2017/07/13 19:59:49","新北市淡水區番子田16-13號","121.453741666667","25.2316366666667","6501000","淡水區"
"251005","443-VK","2017/07/13 19:59:56","新北市淡水區學府路136巷39號","121.451923333333","25.172795","6501000","淡水區"
"251006","561-UM","2017/07/13 19:59:49","新北市淡水區北新路141巷2弄2號","121.449345","25.1791516666667","6501000","淡水區"
"251011","650-BX","2017/07/13 19:59:51","新北市淡水區崁頂55-3號","121.442315","25.19663","6501000","淡水區"
"251003","766-UM","2017/07/13 19:59:51","新北市淡水區中山北路二段189巷15弄31號","121.443513333333","25.184235","6501000","淡水區"
"207003","550-UM","2017/07/13 19:59:55","新北市萬里區磺潭里公館崙5號","121.641893333333","25.2142483333333","6502800","萬里區"
"207004","225-TW","2017/07/13 19:59:44","新北市萬里區北基里忠二街35號","121.685623333333","25.1757416666667","6502800","萬里區"
"252005","073-UM","2017/07/13 19:32:26","新北市三芝區埔坪里埔頭坑41號","121.50432","25.2645466666667","6502100","三芝區"
"252002","178-VK","2017/07/13 19:59:46","新北市三芝區三民街39巷1號","121.505318333333","25.2578383333333","6502100","三芝區"
"252001","702-TV","2017/07/13 19:59:54","新北市三芝區公正街66號","121.499851666667","25.2575016666667","6502100","三芝區"
"208002","170-UY","2017/07/13 19:59:46","新北市金山區中正路134-5號","121.632103333333","25.2205266666667","6502700","金山區"
"237004","078-UY","2017/07/13 19:59:53","新北市三峽區嘉添225號","121.369796666667","24.91046","6500900","三峽區"
"237007","153-BY","2017/07/13 19:59:57","新北市三峽區二鬮路136巷24弄63號","121.357316666667","24.91061","6500900","三峽區"
"237009","210-TH","2017/07/13 19:59:51","新北市三峽區中園街62-3號","121.36808","24.925685","6500900","三峽區"
"237012","275-BY","2017/07/13 19:59:38","新北市三峽區中華路3巷2號","121.374818333333","24.9322933333333","6500900","三峽區"
"237008","302-VK","2017/07/13 19:59:45","新北市三峽區大同路132巷12號","121.373843333333","24.9272783333333","6500900","三峽區"
"237014","433-BY","2017/07/13 19:59:38","新北市三峽區添福9-40號","121.371966666667","24.9067533333333","6500900","三峽區"
"237006","5529-G3","2017/07/13 19:59:46","新北市三峽區中園街237-1號","121.367086666667","24.9194","6500900","三峽區"
"237016","649-BX","2017/07/13 19:59:50","新北市三峽區橫溪路99巷24號","121.400061666667","24.9364433333333","6500900","三峽區"
"237005","AKY-6261","2017/07/13 19:59:51","新北市三峽區民生街85號","121.374795","24.93529","6500900","三峽區"
"236071","105-UM","2017/07/13 19:59:46","新北市土城區忠承路5號","121.442016666667","24.9681216666667","6501300","土城區"
"236042","107-UM","2017/07/13 19:59:43","新北市土城區裕民路185巷18號","121.454116666667","24.984865","6501300","土城區"
"236078","166-UM","2017/07/13 19:59:41","新北市土城區福安街57號","121.418395","24.96442","6501300","土城區"
"236030","253-BX","2017/07/13 19:59:55","新北市土城區中央路一段248號","121.444553333333","24.9847616666667","6501300","土城區"
"236026","269-VK","2017/07/13 19:59:45","新北市土城區員林街5號","121.442536666667","24.9782133333333","6501300","土城區"
"236014","270-VK","2017/07/13 19:59:39","新北市土城區廣福街123號","121.456228333333","24.992875","6501300","土城區"
"236037","271-VK","2017/07/13 19:59:24","新北市土城區國際路139巷14號","121.468468333333","24.97675","6501300","土城區"
"236003","370-SL","2017/07/13 14:38:38","新北市土城區永平街51號","121.427625","24.95923","6501300","土城區"
"236021","401-BY","2017/07/13 19:59:53","新北市土城區延吉街137巷6號","121.470935","24.98576","6501300","土城區"
"236058","912-UM","2017/07/13 19:59:58","新北市土城區中央路一段122號","121.446445","24.987955","6501300","土城區"
"236051","913-UM","2017/07/13 19:59:50","新北市土城區金城路三段198號","121.468431666667","24.9881216666667","6501300","土城區"
"236062","915-UM","2017/07/13 19:59:48","新北市土城區金城路三段163巷18號","121.46903","24.989235","6501300","土城區"
"236053","AAC-216","2017/07/13 19:59:49","新北市土城區金城路三段185-1號","121.469746666667","24.9888683333333","6501300","土城區"
"242021","AAC-296","2017/07/13 19:59:56","新北市新莊區建中街16巷32號","121.449061666667","25.038735","6500500","新莊區"
"242029","986-R7","2017/07/13 19:59:44","新北市新莊區中榮街152巷38號","121.445591666667","25.05376","6500500","新莊區"
"242048","751-BX","2017/07/13 19:59:40","新北市新莊區民安路228號","121.426108333333","25.0224116666667","6500500","新莊區"
"242025","615-BX","2017/07/13 19:59:52","新北市新莊區五工二路86巷30號","121.460498333333","25.0671566666667","6500500","新莊區"
"242023","613-BX","2017/07/13 19:59:53","新北市新莊區化成路179號","121.465816666667","25.0497666666667","6500500","新莊區"
"242027","612-BX","2017/07/13 19:59:57","新北市新莊區立信一街72號","121.443418333333","25.049705","6500500","新莊區"
"242036","566-BX","2017/07/13 19:59:48","新北市新莊區建安街39號","121.428945","25.0255166666667","6500500","新莊區"
"242042","497-BY","2017/07/13 19:59:47","新北市新莊區青山路一段48巷6號","121.410021666667","25.027845","6500500","新莊區"
"242004","442-UM","2017/07/13 19:59:50","新北市新莊區化成路314巷7號","121.466226666667","25.048385","6500500","新莊區"
"242031","415-TV","2017/07/13 19:59:47","新北市新莊區公園一路60號","121.44321","25.03612","6500500","新莊區"
"242002","413-TV","2017/07/13 19:59:42","新北市新莊區中正路138號","121.453485","25.0363483333333","6500500","新莊區"
"242039","400-BY","2017/07/13 19:59:54","新北市新莊區民安西路42號","121.427466666667","25.0209333333333","6500500","新莊區"
"242061","362-BY","2017/07/13 19:59:57","新北市新莊區瓊泰路3號","121.44495","25.0286333333333","6500500","新莊區"
"242058","353-BY","2017/07/13 19:59:58","新北市新莊區八德街120號","121.423961666667","25.02081","6500500","新莊區"
"242011","132-UY","2017/07/13 19:59:44","新北市新莊區中港路531巷122號","121.450018333333","25.0515216666667","6500500","新莊區"
"242034","133-UY","2017/07/13 19:59:54","新北市新莊區建中街106號","121.446265","25.0365666666667","6500500","新莊區"
"242019","135-UY","2017/07/13 19:59:40","新北市新莊區民生街19號","121.456023333333","25.0422","6500500","新莊區"
"242044","172-VK","2017/07/13 19:59:43","新北市新莊區中正路746巷37號","121.410836666667","25.0248266666667","6500500","新莊區"
"242007","173-VK","2017/07/13 19:59:41","新北市新莊區思源路593巷13號","121.458776666667","25.0595516666667","6500500","新莊區"
"242056","176-VK","2017/07/13 19:59:37","新北市新莊區中正路347巷17-1號","121.447488333333","25.0344216666667","6500500","新莊區"
"242013","346-TH","2017/07/13 19:59:41","新北市新莊區中港路435號","121.452435","25.0479816666667","6500500","新莊區"
"242051","347-TH","2017/07/13 19:59:54","新北市新莊區西盛街137號","121.428231666667","25.0185716666667","6500500","新莊區"
"242017","348-TH","2017/07/13 19:59:48","新北市新莊區中華路二段45巷3號","121.453118333333","25.0465916666667","6500500","新莊區"
"242015","350-TH","2017/07/13 19:59:55","新北市新莊區復興路一段47巷6號","121.446906666667","25.04253","6500500","新莊區"
"242009","351-TH","2017/07/13 19:59:49","新北市新莊區昌盛街24號","121.45393","25.0499216666667","6500500","新莊區"
"238015","755-BX","2017/07/13 19:59:42","新北市樹林區中山路三段210-2號","121.380718333333","24.96664","6500700","樹林區"
"238023","601-UM","2017/07/13 19:59:41","新北市樹林區中正路245號","121.422645","25.0040116666667","6500700","樹林區"
"238021","311-TH","2017/07/13 18:52:31","新北市樹林區西圳街一段118巷16號","121.394361666667","24.9662433333333","6500700","樹林區"
"238020","268-VK","2017/07/13 19:59:38","新北市樹林區俊英街7號","121.42971","25.00017","6500700","樹林區"
"239006","891-R6","2017/07/13 19:59:53","新北市鶯歌區文化路72號","121.355243333333","24.953955","6500800","鶯歌區"
"221008","489-VK","2017/07/13 19:59:45","台北市內湖區東湖路163號","121.617686666667","25.0677783333333","6501100","汐止區"
"221010","269-BY","2017/07/13 19:59:49","新北市汐止區連峰街230號","121.645566666667","25.080745","6501100","汐止區"
"221031","277-VK","2017/07/13 00:11:44","新北市汐止區汐萬路一段256巷3號","121.652526666667","25.0745416666667","6501100","汐止區"
"221023","279-VK","2017/07/13 14:21:57","新北市新店區安豐路57-2號","121.499395","24.9539","6501100","汐止區"
"221027","281-BY","2017/07/13 19:59:39","新北市汐止區中正路55號","121.661913333333","25.0699533333333","6501100","汐止區"
"221038","297-VK","2017/07/13 19:59:56","新北市汐止區忠孝東路425號","121.665911666667","25.0717333333333","6501100","汐止區"
"221029","298-VK","2017/07/13 19:59:44","新北市汐止區樟樹一路137巷26號","121.641008333333","25.0660083333333","6501100","汐止區"
"221035","622-UM","2017/07/13 19:59:54","新北市汐止區長江街57巷21弄8號","121.655498333333","25.0720716666667","6501100","汐止區"
"221002","623-UM","2017/07/13 19:59:56","新北市汐止區秀峰路109巷16號","121.660611666667","25.0634116666667","6501100","汐止區"
"221018","753-BX","2017/07/13 19:59:54","新北市汐止區茄苳路83號","121.667125","25.070555","6501100","汐止區"
"220079","145-BY","2017/07/13 19:59:46","新北市板橋區大智街37號","121.454663333333","25.0151816666667","6500100","板橋區"
"220082","610-BX","2017/07/13 19:59:49","新北市板橋區溪崑二街10號","121.42892","24.9918766666667","6500100","板橋區"
"220101","245-BX","2017/07/13 19:59:55","新北市板橋區縣民大道三段103巷10號","121.475941666667","25.0228033333333","6500100","板橋區"
"220103","257-TC","2017/07/13 19:59:42","新北市板橋區陽明街29號","121.46537","25.02183","6500100","板橋區"
"220091","267-BY","2017/07/13 19:59:45","新北市板橋區文聖街101巷20號","121.478363333333","25.0296983333333","6500100","板橋區"
"220072","277-BY","2017/07/13 19:59:45","新北市板橋區金門街126號","121.432883333333","24.9912316666667","6500100","板橋區"
"220064","280-UM","2017/07/13 19:59:53","新北市板橋區漢生東路193巷9號","121.47036","25.0119","6500100","板橋區"
"220071","283-VK","2017/07/13 19:59:47","新北市板橋區五權街30巷37弄10號","121.463488333333","24.9924266666667","6500100","板橋區"
"220094","285-UM","2017/07/13 19:59:55","新北市板橋區溪頭街2號","121.457301666667","25.02875","6500100","板橋區"
"220053","285-VK","2017/07/13 19:59:54","新北市板橋區永豐街67號","121.473853333333","25.01859","6500100","板橋區"
"220083","286-VK","2017/07/13 19:59:52","新北市板橋區僑中二街8巷3號","121.446921666667","25.0112266666667","6500100","板橋區"
"220081","287-VK","2017/07/13 19:59:58","新北市板橋區大觀路一段29巷4弄1號","121.4502","25.0077066666667","6500100","板橋區"
"220090","288-VK","2017/07/13 19:59:59","新北市板橋區綠堤街33-4號","121.455735","25.026465","6500100","板橋區"
"220061","293-UM","2017/07/13 19:59:58","新北市板橋區觀光街5號","121.471803333333","25.0158583333333","6500100","板橋區"
"220062","295-UM","2017/07/13 19:59:51","新北市板橋區光復街116號","121.484218333333","25.0183866666667","6500100","板橋區"
"220084","296-UM","2017/07/13 19:59:51","新北市板橋區滿平街44號","121.426861666667","24.9897316666667","6500100","板橋區"
"220075","297-UM","2017/07/13 19:59:53","新北市板橋區金華街10巷48弄70號","121.459788333333","25.0203416666667","6500100","板橋區"
"220092","299-UM","2017/07/13 19:59:44","新北市板橋區互助街79號","121.460086666667","25.0260683333333","6500100","板橋區"
"220098","317-R6","2017/07/13 19:59:49","新北市板橋區英士路199號","121.459156666667","25.0237","6500100","板橋區"
"220080","461-BY","2017/07/13 19:59:46","新北市板橋區大觀路二段59巷16號","121.447235","25.002435","6500100","板橋區"
"220089","487-VK","2017/07/13 19:59:49","新北市板橋區龍泉街55巷24號","121.45762","25.0252","6500100","板橋區"
"220088","491-VK","2017/07/13 19:59:50","新北市板橋區大同街69號","121.47943","25.027965","6500100","板橋區"
"220035","560-BX","2017/07/13 19:59:48","新北市板橋區新生街53巷3弄12號","121.457066666667","25.02174","6500100","板橋區"
"220063","609-BX","2017/07/13 19:59:48","新北市板橋區漢生東路83巷4-1號","121.467216666667","25.015915","6500100","板橋區"
"220034","630-UY","2017/07/13 19:52:45","新北市板橋區華東街1-10號","121.448578333333","24.9948433333333","6500100","板橋區"
"220057","686-BX","2017/07/13 19:59:48","新北市板橋區和平路14巷38號","121.461655","24.9915316666667","6500100","板橋區"
"220093","689-BX","2017/07/13 19:59:55","新北市板橋區文化路二段656號","121.479283333333","25.035725","6500100","板橋區"
"220054","741-BX","2017/07/13 19:59:46","新北市板橋區實踐路93巷9-2號","121.464581666667","25.0054766666667","6500100","板橋區"
"220055","827-TW","2017/07/13 19:59:48","新北市板橋區國慶路149巷37弄8號","121.460461666667","24.9979816666667","6500100","板橋區"
"220067","829-TW","2017/07/13 19:59:47","新北市板橋區中山路一段206巷125號","121.47262","25.0134483333333","6500100","板橋區"
"220102","830-TW","2017/07/13 19:59:45","新北市板橋區仁化街64巷22號","121.475885","25.031065","6500100","板橋區"
"220096","831-TW","2017/07/13 19:59:49","新北市板橋區莒光路39巷17號","121.470906666667","25.0252883333333","6500100","板橋區"
"220074","895-R6","2017/07/13 19:59:40","新北市板橋區府中路29-2號","121.458666666667","25.0079283333333","6500100","板橋區"
"220073","985-R7","2017/07/13 20:00:00","新北市板橋區南雅西路二段271號","121.451838333333","25.0150916666667","6500100","板橋區"
"220097","AAC-210","2017/07/13 19:59:49","新北市板橋區光正街45巷29號","121.461606666667","25.0161033333333","6500100","板橋區"
"220070","AAC-253","2017/07/13 19:59:48","新北市板橋區民族路163號","121.468293333333","25.0076166666667","6500100","板橋區"
