"lineid","car","time","location","longitude","latitude","cityid","cityname"
"234081","298-R6","2017/07/13 20:39:54","新北市永和區永貞路82號","121.52019","25.0050233333333","6500400","永和區"
"234064","337-UY","2017/07/13 20:39:59","新北市永和區環河西路二段215號","121.501443333333","25.010545","6500400","永和區"
"234030","746-BX","2017/07/13 20:39:50","新北市永和區豫溪街217巷29號","121.52429","25.0102683333333","6500400","永和區"
"234061","AAD-866","2017/07/13 20:39:40","新北市永和區安樂路194巷39弄2號","121.516486666667","25.0013283333333","6500400","永和區"
"234067","847-RS","2017/07/13 20:39:47","新北市永和區保平路292巷4號","121.507893333333","25.0048916666667","6500400","永和區"
"234042","862-TW","2017/07/13 20:39:46","新北市永和區永和路二段116號","121.51506","25.011995","6500400","永和區"
"249004","303-UY","2017/07/13 20:39:53","新北市八里區中山路一段153號","121.412633333333","25.1588983333333","6502300","八里區"
"249001","759-BX","2017/07/13 20:39:39","新北市八里區中山路三段382號","121.368678333333","25.135925","6502300","八里區"
"234023","9380-KE","2017/07/13 20:39:44","新北市永和區竹林路3號","121.51631","25.0149566666667","6500400","永和區"
"234074","AAC-211","2017/07/13 20:39:47","新北市永和區竹林路119巷30弄7號","121.522435","25.0116516666667","6500400","永和區"
"234003","AAC-295","2017/07/13 20:39:46","新北市永和區中和路573號","121.51164","25.003415","6500400","永和區"
"243014","421-VK","2017/07/13 20:39:47","新北市泰山區泰林路三段745巷145號","121.40556","25.0677033333333","6501600","泰山區"
"243010","548-UM","2017/07/13 20:39:44","新北市泰山區明志路二段61號","121.429156666667","25.0526916666667","6501600","泰山區"
"243011","549-UM","2017/07/13 20:39:44","新北市泰山區明志路二段53號","121.42927","25.0527933333333","6501600","泰山區"
"222003","436-BY","2017/07/13 20:39:46","新北市深坑區阿柔洋23號","121.612993333333","24.9991083333333","6501800","深坑區"
"222001","628-TS","2017/07/13 20:39:43","新北市深坑區北深路三段234號","121.60067","25.0039716666667","6501800","深坑區"
"222002","659-BX","2017/07/13 20:39:45","新北市深坑區萬福路45號","121.599428333333","25.00682","6501800","深坑區"
"231041","002-UM","2017/07/13 20:39:46","新北市新店區中正路547號","121.533761666667","24.9877733333333","6500600","新店區"
"231056","0291-UT","2017/07/13 20:39:47","新北市新店區中央路81號","121.532201666667","24.9765583333333","6500600","新店區"
"231059","046-UY","2017/07/13 20:39:37","新北市新店區僑愛七路20號","121.501646666667","24.944535","6500600","新店區"
"231061","047-UY","2017/07/13 20:39:45","新北市新店區新和街37號","121.519296666667","24.9849733333333","6500600","新店區"
"231060","106-UY","2017/07/13 20:39:45","新北市新店區錦秀路1號","121.479026666667","24.9458333333333","6500600","新店區"
"231051","107-UY","2017/07/13 20:39:49","新北市新店區中央八街86號","121.52702","24.9773416666667","6500600","新店區"
"231047","108-UY","2017/07/13 20:39:45","新北市新店區寶慶街37號","121.543055","24.98668","6500600","新店區"
"231052","187-VK","2017/07/13 20:39:50","新北市新店區廣興路7-1號","121.545985","24.9120216666667","6500600","新店區"
"231007","189-VK","2017/07/13 11:59:52","新北市新店區安華路28-1號","121.519521666667","24.9611833333333","6500600","新店區"
"231057","256-BX","2017/07/13 20:39:40","新北市新店區花園六路二段2號","121.554141666667","24.933295","6500600","新店區"
"231063","268-BY","2017/07/13 20:39:46","新北市新店區玫瑰路4-1號","121.493546666667","24.9514066666667","6500600","新店區"
"231050","AAD-862","2017/07/13 20:39:58","新北市新店區建國路51號","121.540593333333","24.9756833333333","6500600","新店區"
"231058","3712-VJ","2017/07/13 20:39:53","新北市新店區平等街48巷21號","121.535205","24.9734183333333","6500600","新店區"
"231065","512-UM","2017/07/13 20:39:55","新北市新店區安祥路102巷135號","121.486696666667","24.9646716666667","6500600","新店區"
"231054","513-UM","2017/07/13 20:39:38","新北市新店區行政街24號","121.543018333333","24.9656","6500600","新店區"
"231064","515-UM","2017/07/13 20:39:43","新北市新店區安和路三段167號","121.5161","24.986","6500600","新店區"
"231042","616-UM","2017/07/13 20:39:53","新北市新店區寶高路83號","121.553528333333","24.9766433333333","6500600","新店區"
"231040","619-UM","2017/07/13 20:39:53","新北市新店區中正路263巷14號","121.538185","24.9731016666667","6500600","新店區"
"231068","718-UY","2017/07/13 20:39:45","新北市新店區寶慶街37號","121.543103333333","24.98646","6500600","新店區"
"231049","719-UM","2017/07/13 20:39:42","新北市新店區永業路81巷3弄1號","121.529833333333","24.949225","6500600","新店區"
"231062","720-UM","2017/07/13 20:39:58","新北市新店區雙城路4巷2號","121.491328333333","24.9510666666667","6500600","新店區"
"231044","897-TW","2017/07/13 20:39:53","新北市新店區民權路91號","121.537518333333","24.9829266666667","6500600","新店區"
"231045","898-TW","2017/07/13 20:39:52","新北市新店區長春路159號","121.557973333333","24.9616883333333","6500600","新店區"
"231043","899-TW","2017/07/13 20:39:58","新北市新店區建國路43號","121.540613333333","24.9752133333333","6500600","新店區"
"231066","AKT-0513","2017/07/13 20:39:48","新北市新店區安興路112號","121.514655","24.9776416666667","6500600","新店區"
"241011","013-R5","2017/07/13 20:39:40","新北市三重區龍門路216號","121.500176666667","25.0735616666667","6500200","三重區"
"241028","022-UY","2017/07/13 20:39:46","新北市三重區光興街91號","121.497405","25.0599083333333","6500200","三重區"
"241009","060-VK","2017/07/13 20:39:51","新北市三重區仁愛街602號","121.483863333333","25.0809616666667","6500200","三重區"
"241031","061-VK","2017/07/13 20:39:45","新北市三重區重陽路一段113巷1弄40號","121.488083333333","25.0587266666667","6500200","三重區"
"241015","062-VK","2017/07/13 20:39:38","新北市三重區文化北路200弄1號","121.497986666667","25.0681216666667","6500200","三重區"
"241017","063-VK","2017/07/13 20:39:51","新北市三重區大同北路269號","121.490848333333","25.067385","6500200","三重區"
"241024","065-VK","2017/07/13 20:39:42","新北市三重區中正北路165巷2號","121.47877","25.0697083333333","6500200","三重區"
"241026","066-VK","2017/07/13 20:39:49","新北市三重區文化南路3號","121.500015","25.062405","6500200","三重區"
"241002","090-VK","2017/07/13 20:39:47","新北市三重區仁義街167巷37號","121.498238333333","25.08212","6500200","三重區"
"241003","091-VK","2017/07/13 20:39:40","新北市三重區五華街141巷58號","121.493506666667","25.0867683333333","6500200","三重區"
"241005","262-UM","2017/07/13 20:39:44","新北市三重區碧華街327號","121.491498333333","25.0846016666667","6500200","三重區"
"241016","265-UM","2017/07/13 20:39:39","新北市三重區長壽西街98號","121.495748333333","25.0670983333333","6500200","三重區"
"241022","267-UM","2017/07/13 20:39:54","新北市三重區過圳街27-5號","121.48804","25.0623366666667","6500200","三重區"
"241018","268-UM","2017/07/13 20:39:42","新北市三重區重陽路四段27號","121.491473333333","25.0695816666667","6500200","三重區"
"241032","269-UM","2017/07/13 20:39:47","新北市三重區興華街73號","121.484956666667","25.0601666666667","6500200","三重區"
"241013","270-UM","2017/07/13 20:39:59","新北市三重區三和路四段1號","121.491685","25.0742283333333","6500200","三重區"
"241025","271-UM","2017/07/13 20:39:51","新北市三重區忠孝路三段99巷11號","121.479936666667","25.0646233333333","6500200","三重區"
"241007","398-BY","2017/07/13 20:39:56","新北市三重區三和路四段97-15號","121.488108333333","25.076795","6500200","三重區"
"241020","413-TH","2017/07/13 20:39:38","新北市三重區三和路三段124號","121.493471666667","25.0723216666667","6500200","三重區"
"241004","475-VK","2017/07/13 20:39:38","新北市三重區仁愛街442號","121.489336666667","25.0819416666667","6500200","三重區"
"241019","478-VK","2017/07/13 20:39:37","新北市三重區忠孝路一段10巷8號","121.49178","25.071525","6500200","三重區"
"241030","480-VK","2017/07/13 20:39:44","新北市三重區成功路73巷12號","121.489385","25.0518883333333","6500200","三重區"
"241014","543-UM","2017/07/13 20:39:57","新北市三重區萬壽街2號","121.499041666667","25.06932","6500200","三重區"
"241023","545-UM","2017/07/13 20:39:49","新北市三重區自由街37巷1號","121.478835","25.06696","6500200","三重區"
"241001","547-UM","2017/07/13 20:39:41","新北市三重區三和路四段160巷76號","121.485826666667","25.0748833333333","6500200","三重區"
"241035","743-BX","2017/07/13 20:39:50","新北市三重區正義北路239號","121.495708333333","25.0692533333333","6500200","三重區"
"241012","941-UM","2017/07/13 20:39:48","新北市三重區秀江街26號","121.50255","25.0730083333333","6500200","三重區"
"241029","942-UM","2017/07/13 20:39:55","新北市三重區集美街126巷27號","121.490131666667","25.053675","6500200","三重區"
"241033","AAC-255","2017/07/13 20:39:55","新北市三重區光復路二段3-1號","121.47421","25.0538133333333","6500200","三重區"
"235072","301-VK","2017/07/13 20:39:48","新北市中和區中正路905號","121.483615","25.0061833333333","6500300","中和區"
"235069","4980-A6","2017/07/13 20:39:42","新北市中和區中正路588號","121.485965","24.99499","6500300","中和區"
"235026","800-TS","2017/07/13 20:31:21","新北市中和區員山路36巷16-2號","121.485175","24.991425","6500300","中和區"
"235037","AAC-213","2017/07/13 20:39:46","新北市中和區秀朗路三段128巷17弄41號","121.522976666667","24.99318","6500300","中和區"
"235059","AAC-215","2017/07/13 20:39:39","新北市中和區員山路72號","121.480838333333","24.99346","6500300","中和區"
"247020","893-R6","2017/07/13 20:39:50","新北市蘆洲區仁愛街73號","121.471508333333","25.093785","6501400","蘆洲區"
"247010","546-UM","2017/07/13 20:39:50","新北市蘆洲區集賢路232-1號","121.482216666667","25.0860483333333","6501400","蘆洲區"
"247006","341-TH","2017/07/13 20:39:37","新北市蘆洲區和平路121巷8弄10號","121.466258333333","25.0806616666667","6501400","蘆洲區"
"247008","339-TH","2017/07/13 20:39:53","新北市蘆洲區永安北路二段12巷10號","121.48056","25.0812333333333","6501400","蘆洲區"
"247024","337-TH","2017/07/13 20:39:49","新北市蘆洲區長樂路108號","121.46187","25.0889916666667","6501400","蘆洲區"
"247002","336-TH","2017/07/13 20:39:53","新北市蘆洲區長安街375巷16號","121.456703333333","25.088","6501400","蘆洲區"
"247014","057-VK","2017/07/13 20:39:52","新北市蘆洲區中山二路101號","121.47273","25.0817183333333","6501400","蘆洲區"
"247004","056-VK","2017/07/13 20:39:56","新北市蘆洲區長安街222號","121.458123333333","25.0848983333333","6501400","蘆洲區"
"247012","007-UY","2017/07/13 20:39:43","新北市蘆洲區中興街163號","121.482056666667","25.0897116666667","6501400","蘆洲區"
"247022","002-UY","2017/07/13 20:39:58","新北市蘆洲區中正路243巷7弄5號","121.467331666667","25.0861666666667","6501400","蘆洲區"
"247016","001-UY","2017/07/13 20:39:45","新北市蘆洲區中山二路288號","121.468805","25.0778216666667","6501400","蘆洲區"
"224011","420-VK","2017/07/13 20:19:02","新北市瑞芳區明燈路二段66號","121.80946","25.1076283333333","6501200","瑞芳區"
"251001","011-UM","2017/07/13 20:39:43","新北市淡水區淡金路一段69號","121.458025","25.1738416666667","6501000","淡水區"
"251008","181-VK","2017/07/13 20:39:57","新北市淡水區新市一路一段99巷37號","121.429795","25.1881916666667","6501000","淡水區"
"251014","182-VK","2017/07/13 20:39:40","新北市淡水區桂竹圍13號","121.472508333333","25.2324533333333","6501000","淡水區"
"251010","413-VK","2017/07/13 20:39:52","新北市淡水區沙崙路181巷15號","121.423928333333","25.18435","6501000","淡水區"
"251012","441-VK","2017/07/13 20:39:54","新北市淡水區興仁路108號","121.45166","25.2181933333333","6501000","淡水區"
"251016","442-VK","2017/07/13 20:39:49","新北市淡水區後洲子16-1號","121.449511666667","25.2240383333333","6501000","淡水區"
"251005","443-VK","2017/07/13 20:39:56","新北市淡水區崁頂78-3號","121.42988","25.2061516666667","6501000","淡水區"
"251006","561-UM","2017/07/13 20:39:49","新北市淡水區商工路198巷5號","121.451231666667","25.1872016666667","6501000","淡水區"
"251011","650-BX","2017/07/13 20:39:51","新北市淡水區新市一路一段361號","121.4362","25.1861883333333","6501000","淡水區"
"251002","672-BX","2017/07/13 20:39:58","新北市淡水區中正路38-1號","121.44376","25.1693383333333","6501000","淡水區"
"251003","766-UM","2017/07/13 20:39:51","新北市淡水區新民街152巷6弄20號","121.438705","25.17848","6501000","淡水區"
"252005","073-UM","2017/07/13 19:32:26","新北市三芝區埔坪里埔頭坑41號","121.50432","25.2645466666667","6502100","三芝區"
"252001","702-TV","2017/07/13 20:39:54","新北市三芝區中山路一段89號","121.501248333333","25.25654","6502100","三芝區"
"236003","370-SL","2017/07/13 14:38:38","新北市土城區永平街51號","121.427625","24.95923","6501300","土城區"
"242021","AAC-296","2017/07/13 20:39:56","新北市新莊區公園路118號","121.451505","25.0399816666667","6500500","新莊區"
"242029","986-R7","2017/07/13 20:39:44","新北市新莊區中華路二段95號","121.452681666667","25.049525","6500500","新莊區"
"242048","751-BX","2017/07/13 20:39:40","新北市新莊區中正路877-5號","121.417976666667","25.0264866666667","6500500","新莊區"
"242025","615-BX","2017/07/13 20:39:52","新北市新莊區化成路579巷1號","121.46428","25.0660483333333","6500500","新莊區"
"242023","613-BX","2017/07/13 20:39:53","新北市新莊區新北大道二段302號","121.46458","25.061365","6500500","新莊區"
"242027","612-BX","2017/07/13 20:39:57","新北市新莊區思源路69號","121.459881666667","25.04063","6500500","新莊區"
"242036","566-BX","2017/07/13 20:39:48","新北市新莊區建安街18號","121.428685","25.02635","6500500","新莊區"
"242042","497-BY","2017/07/13 20:39:47","新北市新莊區中正路694巷3弄8號","121.41811","25.0281233333333","6500500","新莊區"
"242004","442-UM","2017/07/13 20:39:51","新北市新莊區化成路371巷28弄1號","121.463558333333","25.057055","6500500","新莊區"
"242031","415-TV","2017/07/13 20:39:47","新北市新莊區三泰路58號","121.433833333333","25.0376266666667","6500500","新莊區"
"242002","413-TV","2017/07/13 20:39:43","新北市新莊區中港路32號","121.455143333333","25.0374583333333","6500500","新莊區"
"242039","400-BY","2017/07/13 20:39:54","新北市新莊區民安路459號","121.434606666667","25.0224766666667","6500500","新莊區"
"242061","362-BY","2017/07/13 20:39:57","新北市新莊區新樹路262-2號","121.432541666667","25.0149983333333","6500500","新莊區"
"242058","353-BY","2017/07/13 20:39:58","新北市新莊區四維路95號","121.423373333333","25.0237366666667","6500500","新莊區"
"242011","132-UY","2017/07/13 20:39:44","新北市新莊區中榮街102號","121.447265","25.0529733333333","6500500","新莊區"
"242034","133-UY","2017/07/13 20:39:54","新北市新莊區中正路334巷8號","121.44583","25.0352616666667","6500500","新莊區"
"242019","135-UY","2017/07/13 20:39:40","新北市新莊區銘德街111號","121.455611666667","25.043235","6500500","新莊區"
"242044","172-VK","2017/07/13 20:39:49","新北市新莊區龍安路74號","121.417105","25.0209633333333","6500500","新莊區"
"242007","173-VK","2017/07/13 20:39:41","新北市新莊區福壽街56號","121.458488333333","25.0488183333333","6500500","新莊區"
"242056","176-VK","2017/07/13 20:39:44","新北市新莊區瓊泰路60號","121.443436666667","25.0286066666667","6500500","新莊區"
"242013","346-TH","2017/07/13 20:39:41","新北市新莊區中平路330號","121.445226666667","25.0522616666667","6500500","新莊區"
"242051","347-TH","2017/07/13 20:39:54","新北市新莊區民安西路173巷7號","121.426561666667","25.01598","6500500","新莊區"
"242017","348-TH","2017/07/13 20:39:54","新北市新莊區中港三街125號","121.44856","25.0459683333333","6500500","新莊區"
"242053","349-TH","2017/07/13 20:39:50","新北市新莊區西盛街323巷24號","121.428885","25.0147416666667","6500500","新莊區"
"242015","350-TH","2017/07/13 20:39:46","新北市新莊區中和街46號","121.44816","25.0443133333333","6500500","新莊區"
"242009","351-TH","2017/07/13 20:39:49","新北市新莊區幸福路564巷2弄4號","121.454623333333","25.049535","6500500","新莊區"
"238023","601-UM","2017/07/13 20:39:41","新北市樹林區育德街78號","121.387461666667","24.96834","6500700","樹林區"
"221008","489-VK","2017/07/13 20:39:45","新北市汐止區康寧街706-2號","121.6385","25.0730416666667","6501100","汐止區"
"221031","277-VK","2017/07/13 00:11:44","新北市汐止區汐萬路一段256巷3號","121.652526666667","25.0745416666667","6501100","汐止區"
"221023","279-VK","2017/07/13 14:21:57","新北市新店區安豐路57-2號","121.499395","24.9539","6501100","汐止區"
"221027","281-BY","2017/07/13 20:39:39","新北市汐止區大同路二段555號","121.66254","25.0696166666667","6501100","汐止區"
"221038","297-VK","2017/07/13 20:39:43","新北市汐止區忠孝東路9號","121.657716666667","25.0654566666667","6501100","汐止區"
"221029","298-VK","2017/07/13 20:39:44","新北市汐止區新台五路一段77號","121.64499","25.0617133333333","6501100","汐止區"
"221035","622-UM","2017/07/13 20:39:54","新北市汐止區長江街101-5號","121.658655","25.0731133333333","6501100","汐止區"
"221002","623-UM","2017/07/13 20:39:56","新北市汐止區水源路二段283巷1號","121.659238333333","25.0498366666667","6501100","汐止區"
"221002","707-TV","2017/07/13 20:39:45","新北市汐止區福德二路123號","121.631238333333","25.0652316666667","6501100","汐止區"
"221018","753-BX","2017/07/13 20:39:45","新北市汐止區茄苳路225巷11弄2號","121.671435","25.06935","6501100","汐止區"
"220103","257-TC","2017/07/13 20:39:42","新北市板橋區漢生東路73巷26號","121.46727","25.01691","6500100","板橋區"
"220083","286-VK","2017/07/13 20:39:57","新北市板橋區僑中二街106巷22-2號","121.44496","25.0077433333333","6500100","板橋區"
"220081","287-VK","2017/07/13 20:39:56","新北市板橋區大觀路二段145號","121.445621666667","25.0010416666667","6500100","板橋區"
"220034","630-UY","2017/07/13 20:26:45","新北市板橋區華東街1-10號","121.448538333333","24.9948466666667","6500100","板橋區"
"220070","AAC-253","2017/07/13 20:39:44","新北市板橋區大觀路三段50巷49號","121.432231666667","24.9956866666667","6500100","板橋區"
