"lineid","car","time","location","longitude","latitude","cityid","cityname"
"234030","746-BX","2017/07/13 20:59:50","新北市永和區福和路1號","121.526266666667","25.0095916666667","6500400","永和區"
"249004","303-UY","2017/07/13 20:59:53","新北市八里區中山路二段56巷1號","121.407285","25.1543083333333","6502300","八里區"
"234003","AAC-295","2017/07/13 20:59:46","新北市永和區福和路1號","121.52635","25.009565","6500400","永和區"
"244019","403-UM","2017/07/13 20:59:45","新北市林口區粉寮69號","121.405105","25.0907683333333","6501700","林口區"
"231059","046-UY","2017/07/13 20:59:57","新北市新店區僑信路76號","121.499578333333","24.9485066666667","6500600","新店區"
"231061","047-UY","2017/07/13 20:59:45","新北市新店區永安街67號","121.519313333333","24.98695","6500600","新店區"
"231060","106-UY","2017/07/13 20:59:45","新北市新店區安康路三段525巷1號","121.481986666667","24.94517","6500600","新店區"
"231051","107-UY","2017/07/13 20:59:49","新北市新店區中正路480號","121.53385","24.9814916666667","6500600","新店區"
"231047","108-UY","2017/07/13 20:59:45","新北市新店區文化路73巷1號","121.544881666667","24.9825316666667","6500600","新店區"
"231007","189-VK","2017/07/13 11:59:52","新北市新店區安華路28-1號","121.519521666667","24.9611833333333","6500600","新店區"
"231063","268-BY","2017/07/13 20:59:46","新北市新店區富貴街8巷1號","121.494321666667","24.9498616666667","6500600","新店區"
"231050","AAD-862","2017/07/13 20:59:38","新北市新店區三民路117巷1弄2號","121.534685","24.9718466666667","6500600","新店區"
"231058","3712-VJ","2017/07/13 20:59:53","新北市新店區三民路60巷19號","121.535593333333","24.9729233333333","6500600","新店區"
"231067","4772-VM","2017/07/13 20:59:43","新北市新店區安業街67巷34號","121.52026","24.97501","6500600","新店區"
"231065","512-UM","2017/07/13 20:59:55","新北市新店區安祥路67巷9號","121.48422","24.9597983333333","6500600","新店區"
"231054","513-UM","2017/07/13 20:59:58","新北市新店區中正路75巷61號","121.543216666667","24.9693233333333","6500600","新店區"
"231064","515-UM","2017/07/13 20:59:43","新北市新店區安民街300號","121.517795","24.9736916666667","6500600","新店區"
"231042","616-UM","2017/07/13 20:59:44","新北市新店區寶興路42巷1號","121.549226666667","24.9730183333333","6500600","新店區"
"231040","619-UM","2017/07/13 20:59:53","新北市新店區中正路146號","121.541693333333","24.97155","6500600","新店區"
"231062","720-UM","2017/07/13 20:59:57","新北市新店區雙城路115號","121.492498333333","24.9474916666667","6500600","新店區"
"231043","899-TW","2017/07/13 20:59:39","新北市新店區民族路207號","121.537028333333","24.9760366666667","6500600","新店區"
"231066","AKT-0513","2017/07/13 20:59:48","新北市新店區吉安街33號","121.51588","24.966005","6500600","新店區"
"241011","013-R5","2017/07/13 20:59:40","新北市三重區秀江街119號","121.499708333333","25.072195","6500200","三重區"
"241028","022-UY","2017/07/13 20:59:46","新北市三重區新北大道一段1號","121.491436666667","25.06127","6500200","三重區"
"241009","060-VK","2017/07/13 20:59:51","新北市三重區三和路四段386號","121.482361666667","25.07901","6500200","三重區"
"241031","061-VK","2017/07/13 20:59:45","新北市三重區重陽路一段113巷2弄2號","121.487423333333","25.0599183333333","6500200","三重區"
"241015","062-VK","2017/07/13 20:59:58","新北市三重區福德北路65號","121.502145","25.0655883333333","6500200","三重區"
"241017","063-VK","2017/07/13 20:59:51","新北市三重區民生街38巷2弄24號","121.492233333333","25.06727","6500200","三重區"
"241024","065-VK","2017/07/13 20:59:42","新北市三重區大勇街49號","121.481325","25.071995","6500200","三重區"
"241026","066-VK","2017/07/13 20:59:49","新北市三重區文化南路41號","121.500183333333","25.0615033333333","6500200","三重區"
"241002","090-VK","2017/07/13 20:59:47","新北市三重區五華街7巷81號","121.49677","25.0807233333333","6500200","三重區"
"241003","091-VK","2017/07/13 20:59:40","新北市三重區五華街141巷58號","121.493508333333","25.0867833333333","6500200","三重區"
"241005","262-UM","2017/07/13 20:59:44","新北市三重區五華街141巷3號","121.49122","25.0847366666667","6500200","三重區"
"241016","265-UM","2017/07/13 20:59:59","新北市三重區正義北路89號","121.497158333333","25.06515","6500200","三重區"
"241022","267-UM","2017/07/13 20:59:57","新北市三重區中正北路18-1號","121.48841","25.0633883333333","6500200","三重區"
"241018","268-UM","2017/07/13 20:59:42","新北市三重區自強路一段236號","121.493265","25.06711","6500200","三重區"
"241032","269-UM","2017/07/13 20:59:57","新北市三重區興華街130號","121.483328333333","25.0597483333333","6500200","三重區"
"241013","270-UM","2017/07/13 20:59:39","新北市三重區仁賢街4號","121.495608333333","25.0747983333333","6500200","三重區"
"241025","271-UM","2017/07/13 20:59:51","新北市三重區新北大道一段156號","121.484225","25.061625","6500200","三重區"
"241007","398-BY","2017/07/13 20:59:37","新北市三重區三和路四段155巷31號","121.484841666667","25.0785816666667","6500200","三重區"
"241020","413-TH","2017/07/13 20:59:58","新北市三重區忠孝路二段35號","121.485953333333","25.0710516666667","6500200","三重區"
"241004","475-VK","2017/07/13 20:59:38","新北市三重區仁愛街488號","121.488751666667","25.0820633333333","6500200","三重區"
"241019","478-VK","2017/07/13 20:59:57","新北市三重區自強路二段74巷19號","121.48802","25.0698766666667","6500200","三重區"
"241030","480-VK","2017/07/13 20:59:44","新北市三重區中正南路293號","121.492813333333","25.05192","6500200","三重區"
"241014","543-UM","2017/07/13 20:59:57","新北市三重區長壽街120巷11號","121.502468333333","25.06905","6500200","三重區"
"241023","545-UM","2017/07/13 20:59:49","新北市三重區忠孝路三段50巷41弄64號","121.482398333333","25.0637683333333","6500200","三重區"
"241001","547-UM","2017/07/13 20:59:41","新北市三重區三和路四段118巷16號","121.487971666667","25.0745366666667","6500200","三重區"
"241006","AAD-863","2017/07/13 20:59:57","新北市三重區永福街119號","121.479131666667","25.0770433333333","6500200","三重區"
"241035","743-BX","2017/07/13 20:59:54","新北市三重區文化北路143號","121.497643333333","25.0693783333333","6500200","三重區"
"241012","941-UM","2017/07/13 20:59:48","新北市三重區仁信街27號","121.501261666667","25.075555","6500200","三重區"
"241029","942-UM","2017/07/13 20:59:55","新北市三重區正義南路107號","121.498231666667","25.0585333333333","6500200","三重區"
"241033","AAC-255","2017/07/13 20:59:55","新北市三重區光復路二段1號","121.472195","25.0533416666667","6500200","三重區"
"235072","301-VK","2017/07/13 20:59:48","新北市中和區員山路36巷12號","121.483933333333","24.99104","6500300","中和區"
"235069","4980-A6","2017/07/13 20:59:42","新北市中和區連城路523巷13弄28號","121.482343333333","24.993655","6500300","中和區"
"235026","800-TS","2017/07/13 20:31:21","新北市中和區員山路36巷16-2號","121.485175","24.991425","6500300","中和區"
"247020","893-R6","2017/07/13 20:59:50","新北市蘆洲區民族路371號","121.471013333333","25.0912383333333","6501400","蘆洲區"
"247010","546-UM","2017/07/13 20:59:45","新北市蘆洲區鷺江街76號","121.476976666667","25.08387","6501400","蘆洲區"
"247018","500-BY","2017/07/13 20:59:57","新北市蘆洲區民權路93號","121.472978333333","25.0889366666667","6501400","蘆洲區"
"247006","341-TH","2017/07/13 20:59:57","新北市蘆洲區永安南路二段16巷18號","121.468025","25.077815","6501400","蘆洲區"
"247008","339-TH","2017/07/13 20:59:43","新北市蘆洲區民生街74號","121.472798333333","25.079045","6501400","蘆洲區"
"247024","337-TH","2017/07/13 20:59:49","新北市蘆洲區光明路20號","121.461185","25.0864916666667","6501400","蘆洲區"
"247002","336-TH","2017/07/13 20:59:57","新北市蘆洲區長安街317號","121.4575","25.08626","6501400","蘆洲區"
"247014","057-VK","2017/07/13 20:59:52","新北市蘆洲區中山二路36巷38號","121.474048333333","25.0834566666667","6501400","蘆洲區"
"247004","056-VK","2017/07/13 20:59:56","新北市蘆洲區永安南路二段268號","121.458623333333","25.0807816666667","6501400","蘆洲區"
"247012","007-UY","2017/07/13 20:59:43","新北市蘆洲區民權路5號","121.476641666667","25.0857666666667","6501400","蘆洲區"
"247022","002-UY","2017/07/13 20:59:53","新北市蘆洲區中正路261號","121.467338333333","25.087335","6501400","蘆洲區"
"247016","001-UY","2017/07/13 20:59:45","新北市蘆洲區正和街83號","121.468188333333","25.0806366666667","6501400","蘆洲區"
"224011","420-VK","2017/07/13 20:19:02","新北市瑞芳區明燈路二段66號","121.80946","25.1076283333333","6501200","瑞芳區"
"251001","011-UM","2017/07/13 20:59:43","新北市淡水區水源街二段177巷2弄8號","121.456136666667","25.17705","6501000","淡水區"
"251007","179-VK","2017/07/13 20:59:45","新北市淡水區仁愛街9號","121.446123333333","25.1705733333333","6501000","淡水區"
"251014","182-VK","2017/07/13 20:59:40","新北市淡水區淡金路五段72號","121.454948333333","25.2335516666667","6501000","淡水區"
"251010","413-VK","2017/07/13 20:59:52","新北市淡水區中正路一段118-3號","121.423925","25.17878","6501000","淡水區"
"251012","441-VK","2017/07/13 20:59:54","新北市淡水區淡金路五段72號","121.45456","25.2335466666667","6501000","淡水區"
"251016","442-VK","2017/07/13 20:59:49","新北市淡水區牛埔子10-1號","121.449993333333","25.2184566666667","6501000","淡水區"
"251005","443-VK","2017/07/13 20:59:56","新北市淡水區學府路71號","121.448371666667","25.16988","6501000","淡水區"
"251006","561-UM","2017/07/13 20:59:49","新北市淡水區中正路二段31號","121.41923","25.18195","6501000","淡水區"
"251011","650-BX","2017/07/13 20:59:51","新北市淡水區新民街294號","121.4352","25.1820833333333","6501000","淡水區"
"251002","672-BX","2017/07/13 20:59:38","新北市淡水區英專路112號","121.445843333333","25.172145","6501000","淡水區"
"251003","766-UM","2017/07/13 20:59:51","新北市淡水區新春街125巷5號","121.441508333333","25.182395","6501000","淡水區"
"252005","073-UM","2017/07/13 20:59:30","新北市三芝區埔坪里埔頭坑41號","121.50436","25.26464","6502100","三芝區"
"252001","702-TV","2017/07/13 20:59:54","新北市三芝區淡金路二段89-1號","121.504033333333","25.260865","6502100","三芝區"
"236003","370-SL","2017/07/13 14:38:38","新北市土城區永平街51號","121.427625","24.95923","6501300","土城區"
"242021","AAC-296","2017/07/13 20:59:56","新北市新莊區環漢路三段525號","121.435483333333","25.0026283333333","6500500","新莊區"
"242034","133-UY","2017/07/13 20:59:54","新北市新莊區瓊林路13-6號","121.448391666667","25.0304683333333","6500500","新莊區"
"238023","601-UM","2017/07/13 20:59:41","新北市樹林區中山路三段204號","121.387125","24.96833","6500700","樹林區"
"221029","298-VK","2017/07/13 20:59:44","新北市汐止區汐萬路一段256巷1號","121.651706666667","25.0748433333333","6501100","汐止區"
"221018","753-BX","2017/07/13 20:59:45","新北市汐止區水源路一段3號","121.657268333333","25.0672116666667","6501100","汐止區"
"220034","630-UY","2017/07/13 20:26:45","新北市板橋區華東街1-10號","121.448538333333","24.9948466666667","6500100","板橋區"
"220070","AAC-253","2017/07/13 20:57:44","新北市樹林區中山路三段214號","121.380205","24.9679466666667","6500100","板橋區"
