"lineid","car","time","location","longitude","latitude","cityid","cityname"
"244019","403-UM","2017/07/13 21:01:16","新北市林口區粉寮69號","121.405103333333","25.0907683333333","6501700","林口區"
"231007","189-VK","2017/07/13 11:59:52","新北市新店區安華路28-1號","121.519521666667","24.9611833333333","6500600","新店區"
"241005","262-UM","2017/07/13 21:49:44","新北市三重區五華街141巷58號","121.493511666667","25.08665","6500200","三重區"
"235026","800-TS","2017/07/13 21:49:51","新北市中和區員山路36巷16-3號","121.485175","24.9913466666667","6500300","中和區"
"247006","341-TH","2017/07/13 21:49:57","新北市林口區太平里180號","121.367863333333","25.134435","6501400","蘆洲區"
"247014","057-VK","2017/07/13 21:49:52","新北市八里區中山路三段390號","121.368245","25.1349666666667","6501400","蘆洲區"
"224011","420-VK","2017/07/13 21:49:46","新北市瑞芳區中正路68-1號","121.806155","25.1074983333333","6501200","瑞芳區"
"251009","008-UM","2017/07/13 21:49:42","新北市淡水區民族路35巷14號","121.465168333333","25.1374783333333","6501000","淡水區"
"251004","009-UM","2017/07/13 21:49:38","新北市淡水區民權路92巷35-1號","121.462096666667","25.1267416666667","6501000","淡水區"
"251001","011-UM","2017/07/13 21:49:43","新北市淡水區後洲路一段157號","121.42774","25.1985483333333","6501000","淡水區"
"251007","179-VK","2017/07/13 21:49:45","新北市淡水區水源街二段177巷74號","121.452311666667","25.177395","6501000","淡水區"
"251008","181-VK","2017/07/13 21:49:37","新北市淡水區學府路104號","121.44984","25.1717533333333","6501000","淡水區"
"251010","413-VK","2017/07/13 21:49:52","新北市淡水區濱海路三段148巷50弄62號","121.430976666667","25.1915966666667","6501000","淡水區"
"251012","441-VK","2017/07/13 21:49:54","新北市淡水區淡金路三段73號","121.448088333333","25.1998833333333","6501000","淡水區"
"251016","442-VK","2017/07/13 21:49:49","新北市淡水區淡金路二段15號","121.446291666667","25.1891933333333","6501000","淡水區"
"251005","443-VK","2017/07/13 21:49:56","新北市淡水區鄧公路30巷30弄1號","121.453586666667","25.1697933333333","6501000","淡水區"
"251006","561-UM","2017/07/13 21:49:49","新北市淡水區中正路11巷3號","121.437841666667","25.17084","6501000","淡水區"
"251011","650-BX","2017/07/13 21:49:50","新北市淡水區新民街322巷9號","121.436383333333","25.1828183333333","6501000","淡水區"
"251002","672-BX","2017/07/13 21:49:52","新北市淡水區大忠街159號","121.448213333333","25.176615","6501000","淡水區"
"251003","766-UM","2017/07/13 21:49:51","新北市淡水區新春街88號","121.438755","25.1822916666667","6501000","淡水區"
"252005","073-UM","2017/07/13 21:16:26","新北市三芝區埔坪里埔頭坑41號","121.50431","25.264535","6502100","三芝區"
"236003","370-SL","2017/07/13 14:38:38","新北市土城區永平街51號","121.427625","24.95923","6501300","土城區"
"220034","630-UY","2017/07/13 21:37:39","新北市板橋區華東街1-10號","121.448545","24.994845","6500100","板橋區"
