"lineid","car","time","location","longitude","latitude","cityid","cityname"
"232001","290-BY","2017/10/30 08:19:46","新北市坪林區大粗坑6-1號","121.730581666667","24.94802","6502000","坪林區"
"232012","291-BY","2017/10/30 08:19:53","新北市坪林區九芎根4號","121.666423333333","24.88535","6502000","坪林區"
"232017","705-BZ","2017/10/30 08:09:20","新北市坪林區柑腳坑13號","121.766608333333","24.9487816666667","6502000","坪林區"
"232005","758-BX","2017/10/30 08:19:50","新北市坪林區鶯子瀨3-1號","121.705895","24.9140933333333","6502000","坪林區"
"244012","069-UM","2017/10/30 08:19:57","新北市林口區中正路555號","121.38111","25.0768833333333","6501700","林口區"
"244006","080-UY","2017/10/30 08:19:50","新北市林口區中湖60-1號","121.376045","25.0938016666667","6501700","林口區"
"244018","403-UM","2017/10/30 08:19:41","新北市林口區公園路233號","121.374191666667","25.0748016666667","6501700","林口區"
"244024","742-UY","2017/10/30 08:19:45","新北市林口區民族路16巷2號","121.364396666667","25.0738766666667","6501700","林口區"
"244008","410-SL","2017/10/30 08:19:48","新北市林口區中北三街305號","121.382748333333","25.0834066666667","6501700","林口區"
"244022","483-VK","2017/10/30 08:19:57","新北市林口區隆林街2號","121.389668333333","25.0754916666667","6501700","林口區"
"244016","485-VK","2017/10/30 08:19:50","新北市林口區文化二路一段260巷18號","121.371068333333","25.0725833333333","6501700","林口區"
"244001","657-BX","2017/10/30 08:19:39","新北市林口區頂福里9巷90-1號","121.323726666667","25.10686","6501700","林口區"
"244010","701-TV","2017/10/30 08:19:54","新北市林口區中正路388號","121.385373333333","25.077795","6501700","林口區"
"244020","838-TS","2017/10/30 08:19:40","新北市林口區東林街16號","121.396238333333","25.0791416666667","6501700","林口區"
"222005","289-BY","2017/10/30 08:19:48","新北市深坑區萬福路18號","121.602086666667","25.0086433333333","6501800","深坑區"
"231007","189-VK","2017/10/30 08:19:44","新北市新店區新潭路一段73號","121.524993333333","24.9399416666667","6500600","新店區"
"231008","192-VK","2017/10/30 08:19:42","新北市新店區新烏路161號","121.545575","24.9326433333333","6500600","新店區"
"226005","5620-A6","2017/10/30 08:19:47","新北市平溪區南山里南山坪102-1號","121.779576666667","25.0424766666667","6502400","平溪區"
"226001","7418-A5","2017/10/30 08:19:38","新北市平溪區東勢里芊蓁林52號","121.755723333333","25.0095166666667","6502400","平溪區"
"226003","AGD-0702","2017/10/30 08:11:11","新北市平溪區嶺腳里嶺腳寮83-2號","121.750091666667","25.0350733333333","6502400","平溪區"
"223006","022-BY","2017/10/30 08:19:58","新北市深坑區昇高坑路51-1號","121.630725","24.994415","6501900","石碇區"
"223002","198-BX","2017/10/30 08:19:35","新北市石碇區北宜路五段80號","121.646593333333","24.9517533333333","6501900","石碇區"
"223003","205-TH","2017/10/30 08:19:53","新北市石碇區北宜路五段80號","121.647818333333","24.9503433333333","6501900","石碇區"
"223008","406-TH","2017/10/30 08:19:57","新北市石碇區番子坑109號","121.674943333333","25.01119","6501900","石碇區"
"223001","437-BY","2017/10/30 08:19:53","新北市石碇區北宜路五段80號","121.646375","24.9516583333333","6501900","石碇區"
"223004","660-BX","2017/10/30 08:19:43","新北市石碇區外按16-1號","121.650625","24.99754","6501900","石碇區"
"223007","661-BX","2017/10/30 08:19:48","新北市石碇區靜安路一段262號","121.68132","25.0105133333333","6501900","石碇區"
"223005","677-TV","2017/10/30 08:19:45","新北市石碇區外按16-1號","121.65066","24.9975583333333","6501900","石碇區"
"227005","282-VK","2017/10/30 08:19:56","新北市雙溪區上林里大瀨10號","121.822278333333","25.022205","6502500","雙溪區"
"253003","6232-TK","2017/10/30 08:19:50","新北市石門區老崩山39-3號","121.565245","25.26608","6502200","石門區"
"253001","6251-TK","2017/10/30 08:19:56","新北市石門區楓林6號","121.53708","25.2969966666667","6502200","石門區"
"253002","637-UY","2017/10/30 08:19:55","新北市石門區大溪墘10-3號","121.553071666667","25.2739016666667","6502200","石門區"
"253004","8270-PC","2017/10/30 08:19:54","新北市石門區阿里荖18-3號","121.60772","25.2804516666667","6502200","石門區"
"252006","073-UM","2017/10/30 08:19:55","新北市三芝區後厝里大片頭88號","121.458038333333","25.2454566666667","6502100","三芝區"
"252004","249-BX","2017/10/30 08:19:56","新北市三芝區興華里車埕16號","121.50239","25.1978566666667","6502100","三芝區"
"237001","159-UY","2017/10/30 08:19:49","新北市三峽區大義路17號","121.378663333333","24.9441916666667","6500900","三峽區"
"236007","165-UM","2017/10/30 08:19:46","新北市土城區清水路192號","121.460365","24.9816116666667","6501300","土城區"
"236001","339-SR","2017/10/30 08:19:40","新北市土城區中央路四段260號","121.414985","24.956825","6501300","土城區"
"236005","498-BY","2017/10/30 08:19:53","新北市土城區永平街2巷4號","121.42731","24.9634383333333","6501300","土城區"
"242030","AAC-296","2017/10/30 08:20:00","新北市新莊區新泰路321巷37號","121.44315","25.0411816666667","6500500","新莊區"
"242028","986-R7","2017/10/30 08:19:42","新北市新莊區復興路一段21號","121.44613","25.0415916666667","6500500","新莊區"
"242049","751-BX","2017/10/30 08:19:58","新北市新莊區民本街53巷13號","121.428738333333","25.0180533333333","6500500","新莊區"
"242024","615-BX","2017/10/30 08:19:56","新北市三重區新北大道二段27號","121.471276666667","25.0612433333333","6500500","新莊區"
"242022","613-BX","2017/10/30 08:20:00","新北市新莊區福壽街22號","121.458106666667","25.04802","6500500","新莊區"
"242026","612-BX","2017/10/30 08:19:54","新北市新莊區福壽街147號","121.458048333333","25.0529333333333","6500500","新莊區"
"242038","566-BX","2017/10/30 08:19:43","新北市新莊區民安路162號","121.424726666667","25.0245166666667","6500500","新莊區"
"242043","497-BY","2017/10/30 08:20:01","新北市新莊區雙鳳路101號","121.414473333333","25.027805","6500500","新莊區"
"242047","441-UM","2017/10/30 08:19:51","新北市新莊區萬安街105號","121.420875","25.02294","6500500","新莊區"
"242052","440-UM","2017/10/30 08:19:45","新北市樹林區樹新路130號","121.430303333333","24.9985883333333","6500500","新莊區"
"242033","415-TV","2017/10/30 08:19:52","新北市新莊區中正路439巷29號","121.443566666667","25.033205","6500500","新莊區"
"242003","413-TV","2017/10/30 08:19:49","新北市新莊區福樂街56巷11號","121.458493333333","25.0463733333333","6500500","新莊區"
"242040","400-BY","2017/10/30 08:19:44","新北市新莊區壽山路31號","121.419936666667","25.0286883333333","6500500","新莊區"
"242059","362-BY","2017/10/30 08:19:47","新北市新莊區新樹路270號","121.432601666667","25.013335","6500500","新莊區"
"242057","353-BY","2017/10/30 08:19:56","新北市新莊區壽山路162號","121.415123333333","25.0311016666667","6500500","新莊區"
"242006","132-UY","2017/10/30 08:19:52","新北市新莊區福樂街69號","121.45716","25.047805","6500500","新莊區"
"242035","133-UY","2017/10/30 08:19:54","新北市新莊區建福路72號","121.426838333333","25.0268533333333","6500500","新莊區"
"242020","135-UY","2017/10/30 08:19:57","新北市新莊區中正路164號","121.451268333333","25.035935","6500500","新莊區"
"242045","172-VK","2017/10/30 08:19:40","新北市新莊區福營路97巷17號","121.435108333333","25.0317683333333","6500500","新莊區"
"242008","173-VK","2017/10/30 00:37:41","新北市新莊區三和路12-21號","121.442081666667","25.0387316666667","6500500","新莊區"
"242014","175-VK","2017/10/30 08:19:54","新北市新莊區中平路87巷3號","121.44453","25.0458166666667","6500500","新莊區"
"242001","176-VK","2017/10/30 08:19:46","新北市新莊區新莊路152巷18號","121.45465","25.0365033333333","6500500","新莊區"
"242001","233-RS","2017/10/30 08:19:41","新北市新莊區瓊林南路77-41號","121.437235","25.0126633333333","6500500","新莊區"
"242012","347-TH","2017/10/30 08:19:15","新北市新莊區中和街82巷5號","121.448151666667","25.0464933333333","6500500","新莊區"
"242018","348-TH","2017/10/30 08:19:43","新北市新莊區明中街51巷1號","121.456776666667","25.0396416666667","6500500","新莊區"
"242055","349-TH","2017/10/30 08:19:58","新北市新莊區瓊林路42-1號","121.447481666667","25.029575","6500500","新莊區"
"242016","350-TH","2017/10/30 08:19:58","新北市新莊區永樂街106號","121.450158333333","25.0448833333333","6500500","新莊區"
"242010","280-VK","2017/10/30 08:19:58","新北市新莊區中港路中慶巷11號","121.450756666667","25.0537616666667","6500500","新莊區"
