"lineid","car","time","location","longitude","latitude","cityid","cityname"
"232001","290-BY","2017/10/30 08:39:46","新北市坪林區九芎坑15號","121.73861","24.94928","6502000","坪林區"
"232012","291-BY","2017/10/30 08:39:53","新北市坪林區金瓜寮24-3號","121.679486666667","24.9093766666667","6502000","坪林區"
"232017","705-BZ","2017/10/30 08:40:00","新北市坪林區鷺鶿岫4-1號","121.787053333333","24.9559783333333","6502000","坪林區"
"232005","758-BX","2017/10/30 08:39:50","新北市坪林區魚堀15號","121.705123333333","24.9083666666667","6502000","坪林區"
"244012","069-UM","2017/10/30 08:39:57","新北市林口區中山路16號","121.396285","25.0783216666667","6501700","林口區"
"244006","080-UY","2017/10/30 08:39:50","新北市林口區林口路260號","121.386396666667","25.08438","6501700","林口區"
"244018","403-UM","2017/10/30 08:40:01","新北市林口區公園路163號","121.370966666667","25.071415","6501700","林口區"
"244024","742-UY","2017/10/30 08:39:45","新北市林口區南勢四街82巷2號","121.355295","25.0709233333333","6501700","林口區"
"244008","410-SL","2017/10/30 08:39:48","新北市林口區佳林路56巷5號","121.385553333333","25.0815733333333","6501700","林口區"
"244022","483-VK","2017/10/30 08:39:57","新北市林口區興林路152巷24號","121.387495","25.0717116666667","6501700","林口區"
"244016","485-VK","2017/10/30 08:39:50","新北市林口區八德路20巷10號","121.36776","25.067645","6501700","林口區"
"244001","657-BX","2017/10/30 08:39:39","新北市林口區嘉溪雅坑46號","121.322241666667","25.121165","6501700","林口區"
"244010","701-TV","2017/10/30 08:39:54","新北市林口區粉寮路一段51號","121.39669","25.0777283333333","6501700","林口區"
"244020","838-TS","2017/10/30 08:39:40","新北市林口區自強三街7號","121.397426666667","25.0779266666667","6501700","林口區"
"222005","289-BY","2017/10/30 08:39:48","台北市南港區南深路80號","121.623361666667","25.0181183333333","6501800","深坑區"
"231007","189-VK","2017/10/30 08:39:42","新北市新店區新潭路二段132號","121.513495","24.9225233333333","6500600","新店區"
"231008","192-VK","2017/10/30 08:39:42","新北市新店區新烏路三段165巷20號","121.553036666667","24.901135","6500600","新店區"
"226005","5620-A6","2017/10/30 08:39:47","新北市平溪區南山里六分12號","121.797683333333","25.0488966666667","6502400","平溪區"
"226001","7418-A5","2017/10/30 08:39:58","新北市平溪區東勢里火燒寮26-1號","121.759018333333","24.9919883333333","6502400","平溪區"
"226003","AGD-0702","2017/10/30 08:39:51","新北市平溪區十分里十分街45號","121.774555","25.0408866666667","6502400","平溪區"
"223006","022-BY","2017/10/30 08:39:58","新北市石碇區靜安路一段87號","121.65248","25.0072833333333","6501900","石碇區"
"223002","198-BX","2017/10/30 08:39:45","新北市石碇區碇格路二段2-1號","121.646508333333","24.9606183333333","6501900","石碇區"
"223003","205-TH","2017/10/30 08:39:53","新北市石碇區北宜路六段直潭巷6號","121.658773333333","24.9350266666667","6501900","石碇區"
"223008","406-TH","2017/10/30 08:39:57","新北市石碇區十八重溪6號","121.678056666667","25.011305","6501900","石碇區"
"223001","437-BY","2017/10/30 08:39:53","新北市石碇區北宜路六段塗潭巷53號","121.652431666667","24.9350316666667","6501900","石碇區"
"223004","660-BX","2017/10/30 08:39:59","新北市石碇區崩山14號","121.673798333333","24.9734333333333","6501900","石碇區"
"223007","661-BX","2017/10/30 08:39:48","新北市石碇區靜安路一段242號","121.672806666667","25.00833","6501900","石碇區"
"223005","677-TV","2017/10/30 08:39:45","新北市石碇區崩山26-1號","121.676758333333","24.9674083333333","6501900","石碇區"
"227005","282-VK","2017/10/30 08:24:56","新北市雙溪區外柑里過溪3-1號","121.824875","25.0190216666667","6502500","雙溪區"
"253003","6232-TK","2017/10/30 08:39:50","新北市石門區內石門21-1號","121.571763333333","25.27372","6502200","石門區"
"253001","6251-TK","2017/10/30 08:39:56","新北市石門區下員坑21號","121.511343333333","25.27772","6502200","石門區"
"253002","637-UY","2017/10/30 08:39:55","新北市石門區九芎林9號","121.565775","25.262025","6502200","石門區"
"253004","8270-PC","2017/10/30 08:38:14","新北市石門區竹子湖13號","121.617735","25.2557333333333","6502200","石門區"
"252006","073-UM","2017/10/30 08:39:55","新北市三芝區後厝里土地公坑57-1號","121.461466666667","25.2476916666667","6502100","三芝區"
"252004","249-BX","2017/10/30 08:39:56","新北市三芝區店子里店子72號","121.500771666667","25.2048316666667","6502100","三芝區"
"237001","159-UY","2017/10/30 08:39:49","新北市三峽區大觀路68號","121.37467","24.9455116666667","6500900","三峽區"
"236007","165-UM","2017/10/30 08:39:44","新北市土城區石門路85-6號","121.468708333333","24.9565716666667","6501300","土城區"
"236001","339-SR","2017/10/30 08:39:40","新北市土城區中央路三段283號","121.426358333333","24.9633166666667","6501300","土城區"
"236005","498-BY","2017/10/30 08:39:53","新北市土城區中央路三段249巷11號","121.428121666667","24.963625","6501300","土城區"
"242030","AAC-296","2017/10/30 08:39:39","新北市新莊區新泰路255巷1號","121.445908333333","25.0396033333333","6500500","新莊區"
"242028","986-R7","2017/10/30 08:40:02","新北市新莊區幸福路862號","121.44364","25.0490316666667","6500500","新莊區"
"242049","751-BX","2017/10/30 08:39:38","新北市新莊區西盛街182號","121.428143333333","25.01868","6500500","新莊區"
"242024","615-BX","2017/10/30 08:39:56","新北市新莊區五工二路95號","121.459271666667","25.066655","6500500","新莊區"
"242022","613-BX","2017/10/30 08:39:40","新北市新莊區化成路306號","121.465701666667","25.048115","6500500","新莊區"
"242026","612-BX","2017/10/30 08:39:54","新北市新莊區幸福路599號","121.453236666667","25.0492166666667","6500500","新莊區"
"242038","566-BX","2017/10/30 08:39:43","新北市新莊區民安路309號","121.429903333333","25.0226183333333","6500500","新莊區"
"242043","497-BY","2017/10/30 08:39:41","新北市新莊區新北大道七段792號","121.413288333333","25.024375","6500500","新莊區"
"242047","441-UM","2017/10/30 08:39:51","新北市新莊區後港一路13號","121.42418","25.0263316666667","6500500","新莊區"
"242052","440-UM","2017/10/30 08:39:45","新北市新莊區光華街48號","121.428631666667","25.01175","6500500","新莊區"
"242033","415-TV","2017/10/30 08:40:00","新北市新莊區仁愛街5號","121.444208333333","25.0349333333333","6500500","新莊區"
"242003","413-TV","2017/10/30 08:39:49","新北市新莊區思源路40-1號","121.460903333333","25.0433466666667","6500500","新莊區"
"242040","400-BY","2017/10/30 08:39:44","新北市新莊區壽山路41號","121.414998333333","25.0304616666667","6500500","新莊區"
"242059","362-BY","2017/10/30 08:39:47","新北市新莊區後港一路10號","121.42465","25.0257583333333","6500500","新莊區"
"242057","353-BY","2017/10/30 08:40:00","新北市新莊區中正路905號","121.411165","25.0214116666667","6500500","新莊區"
"242006","132-UY","2017/10/30 08:39:52","新北市新莊區思源路593巷5弄2號","121.459128333333","25.0593583333333","6500500","新莊區"
"242035","133-UY","2017/10/30 08:39:54","新北市新莊區建福路48巷9號","121.425873333333","25.0274766666667","6500500","新莊區"
"242020","135-UY","2017/10/30 08:39:57","新北市新莊區新興街1號","121.450661666667","25.036005","6500500","新莊區"
"242045","172-VK","2017/10/30 08:39:40","新北市新莊區福營路323號","121.425923333333","25.0288183333333","6500500","新莊區"
"242008","173-VK","2017/10/30 08:39:50","新北市新莊區中華路二段152-1號","121.453333333333","25.0504733333333","6500500","新莊區"
"242014","175-VK","2017/10/30 08:39:41","新北市新莊區中港二街151號","121.44779","25.045305","6500500","新莊區"
"242001","176-VK","2017/10/30 08:39:46","新北市新莊區武前街29號","121.450185","25.0325583333333","6500500","新莊區"
"242001","233-RS","2017/10/30 08:39:41","新北市樹林區中山路三段214號","121.380068333333","24.9679433333333","6500500","新莊區"
"242012","347-TH","2017/10/30 08:33:34","新北市新莊區中和街124號","121.447635","25.0478616666667","6500500","新莊區"
"242018","348-TH","2017/10/30 08:39:43","新北市新莊區明智街21巷1號","121.454105","25.0413666666667","6500500","新莊區"
"242055","349-TH","2017/10/30 08:39:55","新北市新莊區瓊林路13-2號","121.44912","25.0312916666667","6500500","新莊區"
"242016","350-TH","2017/10/30 08:39:55","新北市新莊區中港路357號","121.451985","25.0459733333333","6500500","新莊區"
"242010","280-VK","2017/10/30 08:39:55","新北市新莊區中榮街49巷1號","121.449448333333","25.052475","6500500","新莊區"
