"lineid","car","time","location","longitude","latitude","cityid","cityname"
"232012","291-BY","2017/10/30 08:59:53","新北市坪林區北宜路八段6號","121.70161","24.9354666666667","6502000","坪林區"
"232017","705-BZ","2017/10/30 08:59:49","新北市坪林區鷺鶿岫4-2號","121.78576","24.9559283333333","6502000","坪林區"
"232005","758-BX","2017/10/30 08:59:50","新北市坪林區鶯子瀨9-8號","121.708948333333","24.9160983333333","6502000","坪林區"
"244012","069-UM","2017/10/30 08:59:57","新北市林口區中山路267號","121.385213333333","25.0796316666667","6501700","林口區"
"244006","080-UY","2017/10/30 08:59:50","新北市林口區竹林路548號","121.3875","25.084505","6501700","林口區"
"244018","403-UM","2017/10/30 08:59:41","新北市林口區忠孝路512巷36號","121.371543333333","25.06818","6501700","林口區"
"244024","742-UY","2017/10/30 08:59:45","新北市林口區南勢二街162號","121.359245","25.07475","6501700","林口區"
"244008","410-SL","2017/10/30 08:59:48","新北市林口區民生路140號","121.37908","25.0880116666667","6501700","林口區"
"244022","483-VK","2017/10/30 08:59:37","新北市林口區東湖路105巷60號","121.38455","25.0714916666667","6501700","林口區"
"244016","485-VK","2017/10/30 08:59:50","新北市林口區文化二路一段68巷12號","121.366083333333","25.067985","6501700","林口區"
"244001","657-BX","2017/10/30 08:59:59","新北市林口區竹林路410巷1號","121.390286666667","25.084375","6501700","林口區"
"244010","701-TV","2017/10/30 08:59:54","新北市林口區興林路17巷3弄2號","121.390378333333","25.0770016666667","6501700","林口區"
"244020","838-TS","2017/10/30 08:59:59","新北市林口區工六路100號","121.401313333333","25.0766","6501700","林口區"
"222005","289-BY","2017/10/30 08:59:48","新北市深坑區風格街51號","121.629833333333","25.018275","6501800","深坑區"
"231007","189-VK","2017/10/30 08:59:42","新北市新店區新潭路三段220號","121.503255","24.90404","6500600","新店區"
"231008","192-VK","2017/10/30 09:00:02","新北市新店區廣興路5巷15號","121.545823333333","24.9127666666667","6500600","新店區"
"226005","5620-A6","2017/10/30 08:59:46","新北市平溪區十分里十分街132-1號","121.777263333333","25.0432366666667","6502400","平溪區"
"226001","7418-A5","2017/10/30 08:56:18","新北市平溪區東勢里番仔坑36號","121.748653333333","24.9807466666667","6502400","平溪區"
"226003","AGD-0702","2017/10/30 08:59:50","新北市平溪區新寮里新寮路1號","121.793","25.059295","6502400","平溪區"
"223002","198-BX","2017/10/30 08:59:45","新北市石碇區靜安路一段102號","121.64818","25.00897","6501900","石碇區"
"223003","205-TH","2017/10/30 08:59:53","新北市石碇區北宜路六段水底寮巷1-1號","121.660328333333","24.9490266666667","6501900","石碇區"
"223008","406-TH","2017/10/30 08:59:57","新北市石碇區碇南路二段松柏崎巷45號","121.678016666667","25.0255","6501900","石碇區"
"223001","437-BY","2017/10/30 08:59:53","新北市石碇區北宜路六段水底寮巷3號","121.655421666667","24.9451933333333","6501900","石碇區"
"223004","660-BX","2017/10/30 08:59:43","新北市石碇區崩山51-2號","121.680796666667","24.968985","6501900","石碇區"
"223007","661-BX","2017/10/30 08:59:48","新北市石碇區碇南路二段鹿窟巷8號","121.670241666667","25.026705","6501900","石碇區"
"223005","677-TV","2017/10/30 08:59:45","新北市石碇區崩山54號","121.682436666667","24.96763","6501900","石碇區"
"227005","282-VK","2017/10/30 08:59:36","新北市雙溪區泰平里泰平54號","121.829713333333","24.976285","6502500","雙溪區"
"253003","6232-TK","2017/10/30 08:59:50","新北市石門區尖子鹿7-2號","121.575041666667","25.2798266666667","6502200","石門區"
"253001","6251-TK","2017/10/30 08:59:56","新北市石門區八甲61號","121.527445","25.2715916666667","6502200","石門區"
"253002","637-UY","2017/10/30 08:59:36","新北市石門區七股60號","121.554031666667","25.251865","6502200","石門區"
"253004","8270-PC","2017/10/30 08:59:54","新北市石門區草埔尾34號","121.603425","25.26611","6502200","石門區"
"252006","073-UM","2017/10/30 08:59:55","新北市三芝區樂全街6號","121.487345","25.25887","6502100","三芝區"
"252004","249-BX","2017/10/30 08:59:56","新北市三芝區興華里田心子16號","121.493358333333","25.2043183333333","6502100","三芝區"
"237001","159-UY","2017/10/30 08:59:49","新北市三峽區隆恩街245號","121.357733333333","24.9408516666667","6500900","三峽區"
"236007","165-UM","2017/10/30 08:43:27","新北市土城區石門路85-6號","121.468633333333","24.95666","6501300","土城區"
"236001","339-SR","2017/10/30 09:00:00","新北市土城區金城路一段33號","121.440175","24.9692066666667","6501300","土城區"
"236005","498-BY","2017/10/30 08:59:53","新北市土城區承天路4巷25-1號","121.437266666667","24.9599866666667","6501300","土城區"
"242030","AAC-296","2017/10/30 08:59:48","新北市新莊區新泰路213巷41號","121.44437","25.0383716666667","6500500","新莊區"
"242028","986-R7","2017/10/30 08:59:42","新北市新莊區中榮街89號","121.4452","25.0526766666667","6500500","新莊區"
"242049","751-BX","2017/10/30 08:59:58","新北市新莊區民安西路252巷31號","121.425168333333","25.0136016666667","6500500","新莊區"
"242024","615-BX","2017/10/30 08:59:56","新北市新莊區五工三路80號","121.458971666667","25.0651616666667","6500500","新莊區"
"242022","613-BX","2017/10/30 08:59:40","新北市新莊區化成路411號","121.46506","25.05903","6500500","新莊區"
"242026","612-BX","2017/10/30 08:59:54","新北市新莊區立信五街3號","121.44439","25.051385","6500500","新莊區"
"242038","566-BX","2017/10/30 08:59:43","新北市新莊區民安西路90-2號","121.42693","25.0191266666667","6500500","新莊區"
"242043","497-BY","2017/10/30 08:59:41","新北市新莊區青山路一段6號","121.412008333333","25.0277233333333","6500500","新莊區"
"242047","441-UM","2017/10/30 08:59:51","新北市新莊區民安路49號","121.423871666667","25.0261916666667","6500500","新莊區"
"242052","440-UM","2017/10/30 08:59:45","新北市新莊區西盛街386號","121.427885","25.0129883333333","6500500","新莊區"
"242033","415-TV","2017/10/30 09:00:00","新北市新莊區建中街81巷10弄4號","121.44722","25.0360866666667","6500500","新莊區"
"242003","413-TV","2017/10/30 08:59:49","新北市新莊區化成路63巷24弄7號","121.46285","25.045885","6500500","新莊區"
"242040","400-BY","2017/10/30 08:59:43","新北市新莊區新北大道七段295號","121.412205","25.0277733333333","6500500","新莊區"
"242059","362-BY","2017/10/30 08:59:47","新北市新莊區瓊林路63-2號","121.438188333333","25.02096","6500500","新莊區"
"242057","353-BY","2017/10/30 08:59:46","新北市新莊區八德街56號","121.425041666667","25.022525","6500500","新莊區"
"242006","132-UY","2017/10/30 08:59:52","新北市新莊區福壽街94巷14號","121.458913333333","25.0499466666667","6500500","新莊區"
"242035","133-UY","2017/10/30 08:59:54","新北市新莊區民安路207巷32弄4號","121.428208333333","25.0241066666667","6500500","新莊區"
"242020","135-UY","2017/10/30 08:59:57","新北市新莊區建中街36號","121.448825","25.0375833333333","6500500","新莊區"
"242045","172-VK","2017/10/30 08:59:44","新北市新莊區民安路16-9號","121.422791666667","25.0280333333333","6500500","新莊區"
"242008","173-VK","2017/10/30 08:59:50","新北市新莊區昌隆街118號","121.457195","25.0509716666667","6500500","新莊區"
"242014","175-VK","2017/10/30 08:59:52","新北市新莊區中和街31巷30號","121.447015","25.0438483333333","6500500","新莊區"
"242001","176-VK","2017/10/30 08:59:46","新北市三重區重新路五段657號","121.4667","25.0429133333333","6500500","新莊區"
"242001","233-RS","2017/10/30 08:59:41","新北市板橋區大觀路三段36巷54弄20號","121.435241666667","24.9968266666667","6500500","新莊區"
"242012","347-TH","2017/10/30 08:58:14","新北市新莊區新泰路413巷18號","121.442638333333","25.04452","6500500","新莊區"
"242018","348-TH","2017/10/30 08:59:50","新北市新莊區博愛路7巷1號","121.456103333333","25.0437916666667","6500500","新莊區"
"242055","349-TH","2017/10/30 08:59:56","新北市新莊區新豐街30號","121.448031666667","25.034125","6500500","新莊區"
"242016","350-TH","2017/10/30 08:59:55","新北市新莊區中港三街118號","121.447976666667","25.04604","6500500","新莊區"
"242010","280-VK","2017/10/30 08:59:44","新北市新莊區中和街204巷7弄6號","121.448426666667","25.050555","6500500","新莊區"
