"lineid","car","time","location","longitude","latitude","cityid","cityname"
"232017","705-BZ","2017/10/30 09:19:49","新北市坪林區乾溪8號","121.748763333333","24.9658683333333","6502000","坪林區"
"244012","069-UM","2017/10/30 09:19:56","新北市林口區中正路514巷6弄1號","121.382195","25.07806","6501700","林口區"
"244006","080-UY","2017/10/30 09:19:50","新北市林口區後湖9鄰9號","121.388756666667","25.0981316666667","6501700","林口區"
"244018","403-UM","2017/10/30 09:19:41","新北市林口區文化一路一段97號","121.37234","25.0704933333333","6501700","林口區"
"244024","742-UY","2017/10/30 09:18:42","新北市林口區中山路1號","121.396963333333","25.0778666666667","6501700","林口區"
"244008","410-SL","2017/10/30 09:19:48","新北市林口區竹林路320巷3號","121.391121666667","25.0823916666667","6501700","林口區"
"244022","483-VK","2017/10/30 09:19:57","新北市林口區仁愛路二段8號","121.3859","25.0763183333333","6501700","林口區"
"244016","485-VK","2017/10/30 09:19:50","新北市林口區公園路90號","121.369531666667","25.0704383333333","6501700","林口區"
"244010","701-TV","2017/10/30 09:19:54","新北市林口區仁愛路一段384號","121.387745","25.0767616666667","6501700","林口區"
"244020","838-TS","2017/10/30 09:18:12","新北市林口區粉寮69號","121.405115","25.090925","6501700","林口區"
"222005","289-BY","2017/10/30 09:06:50","新北市深坑區土庫尖路75-1號","121.631178333333","25.018215","6501800","深坑區"
"231007","189-VK","2017/10/30 09:19:42","新北市新店區新潭路三段215巷25號","121.50816","24.90429","6500600","新店區"
"231008","192-VK","2017/10/30 09:19:55","新北市新店區廣興路101號","121.537745","24.91284","6500600","新店區"
"226005","5620-A6","2017/10/30 09:19:46","新北市平溪區南山里南山坪15號","121.768181666667","25.0336666666667","6502400","平溪區"
"226001","7418-A5","2017/10/30 09:15:18","新北市平溪區東勢里番仔坑34-3號","121.749481666667","24.9831333333333","6502400","平溪區"
"223002","198-BX","2017/10/30 09:19:45","新北市石碇區員潭子坑11-1號","121.639868333333","24.992185","6501900","石碇區"
"223003","205-TH","2017/10/30 09:19:53","新北市石碇區北宜路五段坑內巷2號","121.635985","24.9526983333333","6501900","石碇區"
"223008","406-TH","2017/10/30 09:19:37","新北市石碇區光明路13號","121.680075","25.0336533333333","6501900","石碇區"
"223001","437-BY","2017/10/30 09:19:53","新北市石碇區北宜路五段坑內巷7號","121.636523333333","24.9531533333333","6501900","石碇區"
"223004","660-BX","2017/10/30 09:19:43","新北市石碇區大崙16-5號","121.691333333333","24.9778016666667","6501900","石碇區"
"223007","661-BX","2017/10/30 09:19:48","新北市石碇區光明路10號","121.680893333333","25.0283283333333","6501900","石碇區"
"223005","677-TV","2017/10/30 09:19:45","新北市石碇區大崙16-2號","121.690786666667","24.978475","6501900","石碇區"
"227005","282-VK","2017/10/30 09:19:56","新北市雙溪區泰平里料角坑9號","121.812056666667","24.9744683333333","6502500","雙溪區"
"253003","6232-TK","2017/10/30 09:19:50","新北市石門區尖子鹿42號","121.5801","25.26705","6502200","石門區"
"253001","6251-TK","2017/10/30 09:19:56","新北市石門區八甲73-1號","121.531458333333","25.268865","6502200","石門區"
"253002","637-UY","2017/10/30 09:19:55","新北市石門區大丘田51-3號","121.55015","25.2713016666667","6502200","石門區"
"253004","8270-PC","2017/10/30 09:19:54","新北市石門區坪林21號","121.593195","25.2686966666667","6502200","石門區"
"252004","249-BX","2017/10/30 09:19:56","新北市三芝區興華里車埕69-3號","121.493335","25.1936933333333","6502100","三芝區"
"236007","165-UM","2017/10/30 09:19:53","新北市土城區石門路67-2號","121.459748333333","24.9592016666667","6501300","土城區"
"236001","339-SR","2017/10/30 09:19:40","新北市土城區員林街10號","121.44297","24.9778016666667","6501300","土城區"
"236005","498-BY","2017/10/30 09:19:53","新北市土城區中央路三段74-1號","121.436193333333","24.9673783333333","6501300","土城區"
"242030","AAC-296","2017/10/30 09:19:39","新北市新莊區公園一路55號","121.443023333333","25.035995","6500500","新莊區"
"242028","986-R7","2017/10/30 09:20:02","新北市新莊區中華路二段159號","121.452646666667","25.051685","6500500","新莊區"
"242049","751-BX","2017/10/30 09:19:58","新北市新莊區民安西路52號","121.427346666667","25.02064","6500500","新莊區"
"242024","615-BX","2017/10/30 09:19:56","新北市新莊區五工一路72巷17號","121.461768333333","25.0662133333333","6500500","新莊區"
"242022","613-BX","2017/10/30 09:20:00","新北市新莊區化成路428號","121.465966666667","25.0511416666667","6500500","新莊區"
"242026","612-BX","2017/10/30 09:19:54","新北市新莊區思源路123號","121.459825","25.0427383333333","6500500","新莊區"
"242038","566-BX","2017/10/30 09:19:43","新北市新莊區民安西路6號","121.4265","25.0218066666667","6500500","新莊區"
"242043","497-BY","2017/10/30 09:19:41","新北市新莊區中正路新建巷28弄63號","121.413803333333","25.0211816666667","6500500","新莊區"
"242047","441-UM","2017/10/30 09:19:56","新北市新莊區成功街200號","121.421803333333","25.0175583333333","6500500","新莊區"
"242052","440-UM","2017/10/30 09:19:45","新北市新莊區民安西路189巷36弄14號","121.427251666667","25.0149766666667","6500500","新莊區"
"242033","415-TV","2017/10/30 09:19:40","新北市新莊區新泰路100-1號","121.448501666667","25.0360066666667","6500500","新莊區"
"242003","413-TV","2017/10/30 09:19:52","新北市新莊區頭興街10號","121.465246666667","25.053605","6500500","新莊區"
"242040","400-BY","2017/10/30 09:19:43","新北市新莊區天祥街15巷11號","121.41667","25.0275966666667","6500500","新莊區"
"242059","362-BY","2017/10/30 09:19:47","新北市新莊區瓊林路206號","121.436598333333","25.0217166666667","6500500","新莊區"
"242057","353-BY","2017/10/30 09:19:46","新北市新莊區龍安路266巷4號","121.421593333333","25.019115","6500500","新莊區"
"242006","132-UY","2017/10/30 09:19:52","新北市新莊區碧江街27號","121.453615","25.0336433333333","6500500","新莊區"
"242035","133-UY","2017/10/30 09:19:54","新北市新莊區建安街28號","121.428258333333","25.0252633333333","6500500","新莊區"
"242020","135-UY","2017/10/30 09:19:58","新北市新莊區公園路90號","121.450468333333","25.0397233333333","6500500","新莊區"
"242045","172-VK","2017/10/30 09:19:40","新北市新莊區中正路新生巷62號","121.417383333333","25.0228733333333","6500500","新莊區"
"242001","176-VK","2017/10/30 09:19:46","新北市新莊區明中街43巷19號","121.457301666667","25.038745","6500500","新莊區"
"242001","233-RS","2017/10/30 09:08:54","新北市新莊區環河路48-7號","121.436911666667","25.0097733333333","6500500","新莊區"
"242018","348-TH","2017/10/30 09:19:42","新北市新莊區銘德街143號","121.454746666667","25.0427483333333","6500500","新莊區"
"242055","349-TH","2017/10/30 09:19:58","新北市新莊區新莊路649巷28號","121.444958333333","25.0319383333333","6500500","新莊區"
"242016","350-TH","2017/10/30 09:19:55","新北市五股區成泰路三段544-1號","121.454085","25.1021016666667","6500500","新莊區"
"242010","280-VK","2017/10/30 09:19:44","新北市新莊區中榮街106號","121.447168333333","25.05289","6500500","新莊區"
