"lineid","car","time","location","longitude","latitude","cityid","cityname"
"244024","742-UY","2017/10/30 09:32:50","新北市林口區粉寮路二段160巷28號","121.405115","25.0907283333333","6501700","林口區"
"244020","838-TS","2017/10/30 09:21:43","新北市林口區粉寮69號","121.404823333333","25.0908083333333","6501700","林口區"
"231008","192-VK","2017/10/30 11:13:42","新北市新店區成功路120-1號","121.53552","24.8942216666667","6500600","新店區"
"227005","282-VK","2017/10/30 11:19:56","新北市雙溪區泰平里泰平1-5號","121.847098333333","24.9957166666667","6502500","雙溪區"
"242001","233-RS","2017/10/30 09:08:54","新北市新莊區環河路48-7號","121.436911666667","25.0097733333333","6500500","新莊區"
