"lineid","car","time","location","longitude","latitude","cityid","cityname"
"244024","742-UY","2017/10/30 09:32:50","新北市林口區粉寮路二段160巷28號","121.405115","25.0907283333333","6501700","林口區"
"244020","838-TS","2017/10/30 09:21:43","新北市林口區粉寮69號","121.404823333333","25.0908083333333","6501700","林口區"
"243007","380-SR","2017/10/30 03:27:15","新北市泰山區黎明路35號","121.421768333333","25.0604333333333","6501600","泰山區"
"231008","192-VK","2017/10/30 12:09:41","新北市新店區新烏路二段42號","121.54562","24.929405","6500600","新店區"
"235031","255-BX","2017/10/30 11:57:11","新北市中和區和城路一段271巷1號","121.485481666667","24.99195","6500300","中和區"
"227005","282-VK","2017/10/30 12:09:56","新北市雙溪區三貂里政光路3-1號","121.850255","25.0618683333333","6502500","雙溪區"
"207002","749-BX","2017/10/30 12:09:50","新北市萬里區中幅里大湖路3號","121.662175","25.1709533333333","6502800","萬里區"
"242001","233-RS","2017/10/30 09:08:54","新北市新莊區環河路48-7號","121.436911666667","25.0097733333333","6500500","新莊區"
