"lineid","car","time","location","longitude","latitude","cityid","cityname"
"234044","148-BY","2017/10/30 12:59:49","新北市永和區得和路373巷14號","121.525143333333","25.0002333333333","6500400","永和區"
"234012","149-BY","2017/10/30 12:59:52","新北市永和區信義路17巷2號","121.514003333333","25.01195","6500400","永和區"
"234005","207-UY","2017/10/30 12:59:52","新北市永和區中山路一段54號","121.513095","25.0107016666667","6500400","永和區"
"234078","298-R6","2017/10/30 12:59:58","新北市永和區永貞路31號","121.520993333333","25.0065766666667","6500400","永和區"
"234062","337-UY","2017/10/30 12:59:57","新北市永和區秀朗路一段164號","121.518501666667","25.00332","6500400","永和區"
"234084","338-UY","2017/10/30 12:59:57","新北市永和區永利路20號","121.518081666667","25.005835","6500400","永和區"
"234068","552-UM","2017/10/30 13:00:01","新北市永和區中興街84巷8號","121.518546666667","25.0116616666667","6500400","永和區"
"234052","553-UM","2017/10/30 12:59:50","新北市永和區竹林路66巷5號","121.518255","25.0133","6500400","永和區"
"234015","745-BX","2017/10/30 12:59:48","新北市永和區永和路二段285號","121.516058333333","25.01585","6500400","永和區"
"234028","746-BX","2017/10/30 12:59:40","新北市永和區秀朗路二段289號","121.526186666667","24.99808","6500400","永和區"
"234060","AAD-866","2017/10/30 12:59:44","新北市永和區福和路307號","121.51627","25.0072366666667","6500400","永和區"
"234040","862-TW","2017/10/30 12:59:55","新北市永和區永貞路312號","121.51176","25.0049183333333","6500400","永和區"
"234048","863-TW","2017/10/30 12:59:44","新北市永和區文化路194號","121.51084","25.01629","6500400","永和區"
"234025","9371-KE","2017/10/30 13:00:00","新北市永和區永和路一段41號","121.512763333333","25.0062033333333","6500400","永和區"
"234010","9373-KE","2017/10/30 12:59:47","新北市永和區文化路9巷22弄60號","121.513823333333","25.014485","6500400","永和區"
"248015","026-BX","2017/10/30 12:59:45","新北市五股區中興路二段83巷26-6號","121.460053333333","25.0752133333333","6501500","五股區"
"248005","077-UY","2017/10/30 12:59:45","新北市五股區中興路二段37巷28號","121.460136666667","25.0749616666667","6501500","五股區"
"248007","095-VK","2017/10/30 12:59:53","新北市五股區更洲路10號","121.458391666667","25.078745","6501500","五股區"
"248019","225-UY","2017/10/30 12:59:58","新北市五股區中興路二段83巷26-6號","121.460041666667","25.07526","6501500","五股區"
"248011","247-BX","2017/10/30 12:59:45","新北市五股區中興路二段83巷26-6號","121.460103333333","25.075105","6501500","五股區"
"248013","261-SL","2017/10/30 12:59:53","新北市五股區中興路二段83巷26-6號","121.45972","25.0751583333333","6501500","五股區"
"248009","272-BY","2017/10/30 03:05:28","新北市五股區中興路二段37巷28號","121.460118333333","25.07504","6501500","五股區"
"248003","677-BX","2017/10/28 20:37:29","新北市五股區中興路二段37巷28號","121.460251666667","25.0749416666667","6501500","五股區"
"248001","678-BX","2017/10/30 12:53:58","新北市五股區中興路二段37巷28號","121.460076666667","25.0745066666667","6501500","五股區"
"234076","969-R7","2017/10/30 12:59:58","新北市永和區民享街21號","121.515638333333","24.9950233333333","6500400","永和區"
"234072","AAC-211","2017/10/30 12:59:43","新北市永和區環河東路二段98號","121.524126666667","25.010345","6500400","永和區"
"234066","AAC-212","2017/10/30 12:59:56","新北市永和區中和路625號","121.513008333333","25.004945","6500400","永和區"
"244024","742-UY","2017/10/30 09:32:50","新北市林口區粉寮路二段160巷28號","121.405115","25.0907283333333","6501700","林口區"
"244020","838-TS","2017/10/30 09:21:43","新北市林口區粉寮69號","121.404823333333","25.0908083333333","6501700","林口區"
"243007","380-SR","2017/10/30 03:27:15","新北市泰山區黎明路35號","121.421768333333","25.0604333333333","6501600","泰山區"
"231002","002-UM","2017/10/30 12:59:41","新北市新店區安華路28-1號","121.519825","24.9608816666667","6500600","新店區"
"231028","046-UY","2017/10/30 12:59:58","新北市新店區安華路28-1號","121.519583333333","24.9607616666667","6500600","新店區"
"231030","047-UY","2017/10/30 12:59:48","新北市新店區安華路28-1號","121.519148333333","24.960965","6500600","新店區"
"231029","106-UY","2017/10/30 12:59:54","新北市新店區安華路28-1號","121.519608333333","24.96086","6500600","新店區"
"231011","108-UY","2017/10/30 12:59:56","新北市新店區安華路28-1號","121.51954","24.9608116666667","6500600","新店區"
"231021","187-VK","2017/10/30 12:59:57","新北市新店區安華路28-1號","121.519606666667","24.961115","6500600","新店區"
"231014","KEA-2219","2017/10/30 12:59:53","新北市新店區安華路28-1號","121.519833333333","24.96135","6500600","新店區"
"231010","278-BY","2017/10/30 12:59:50","新北市新店區安華路28-1號","121.519415","24.961105","6500600","新店區"
"231027","3712-VJ","2017/10/30 13:00:00","新北市新店區安華路28-1號","121.519216666667","24.9606116666667","6500600","新店區"
"231024","3713-VJ","2017/10/30 12:59:39","新北市新店區安華路28-1號","121.519113333333","24.9606616666667","6500600","新店區"
"231038","4715-K9","2017/10/30 12:59:47","新北市新店區安華路1-1號","121.519196666667","24.9605266666667","6500600","新店區"
"231036","512-UM","2017/10/30 12:59:57","新北市新店區安華路28-1號","121.519191666667","24.9612033333333","6500600","新店區"
"231023","513-UM","2017/10/30 12:59:42","新北市新店區安華路28-1號","121.519708333333","24.9610883333333","6500600","新店區"
"231001","619-UM","2017/10/30 12:59:46","新北市新店區安華路28-1號","121.519681666667","24.960785","6500600","新店區"
"231034","645-TV","2017/10/30 13:00:00","新北市新店區安華路28-1號","121.519393333333","24.9605983333333","6500600","新店區"
"231013","719-UM","2017/10/30 12:59:50","新北市新店區安華路28-1號","121.51949","24.9611066666667","6500600","新店區"
"231031","720-UM","2017/10/30 12:59:53","新北市新店區安華路28-1號","121.519208333333","24.961155","6500600","新店區"
"231005","897-TW","2017/10/30 12:59:43","新北市新店區安華路28-1號","121.519881666667","24.9608383333333","6500600","新店區"
"231006","898-TW","2017/10/30 12:59:41","新北市新店區安華路28-1號","121.519413333333","24.9609866666667","6500600","新店區"
"231004","899-TW","2017/10/30 12:59:43","新北市新店區安華路28-1號","121.519398333333","24.960885","6500600","新店區"
"231037","AKT-0513","2017/10/30 12:59:44","新北市新店區安華路28-1號","121.51957","24.9605933333333","6500600","新店區"
"235028","005-UY","2017/10/30 12:59:40","新北市中和區員山路36巷16-3號","121.4851","24.991455","6500300","中和區"
"235027","006-UY","2017/10/30 12:59:54","新北市中和區員山路36巷16-3號","121.485008333333","24.9912366666667","6500300","中和區"
"235029","098-UM","2017/10/30 12:59:46","新北市中和區錦和路216號","121.4904","24.9941216666667","6500300","中和區"
"235022","151-BY","2017/10/30 12:59:52","新北市中和區錦和路350-1號","121.490378333333","24.993545","6500300","中和區"
"235002","185-VK","2017/10/30 12:59:47","新北市中和區成功路25號","121.52621","24.9934933333333","6500300","中和區"
"235031","255-BX","2017/10/30 12:59:53","新北市中和區中山路二段552號","121.483803333333","25.005145","6500300","中和區"
"235036","301-VK","2017/10/30 12:59:55","新北市中和區員山路36巷13號","121.483953333333","24.9911966666667","6500300","中和區"
"235015","376-QA","2017/10/30 12:59:54","新北市中和區錦和路350-1號","121.49013","24.9933933333333","6500300","中和區"
"235025","378-QA","2017/10/30 12:24:18","新北市中和區員山路36巷16-2號","121.485333333333","24.9917316666667","6500300","中和區"
"235035","269-TV","2017/10/30 12:59:45","新北市中和區建八路1號","121.485395","24.9986283333333","6500300","中和區"
"235021","801-TS","2017/10/30 12:59:57","新北市中和區員山路36巷16-3號","121.484931666667","24.991845","6500300","中和區"
"235005","802-TS","2017/10/30 12:59:57","新北市中和區建八路1號","121.485633333333","24.9985833333333","6500300","中和區"
"208004","AAC-292","2017/10/30 12:59:55","新北市金山區磺港里磺港路328號","121.6478","25.229785","6502700","金山區"
"207002","749-BX","2017/10/30 12:59:50","新北市萬里區雙興里大坪路37-1號","121.627771666667","25.1703783333333","6502800","萬里區"
"252005","249-BX","2017/10/30 12:59:52","新北市三芝區埔頭里埔頭4號","121.505815","25.2508166666667","6502100","三芝區"
"207001","662-BX","2017/10/30 12:59:53","新北市萬里區萬里里獅頭路22-1號","121.693088333333","25.1782916666667","6502800","萬里區"
"236005","498-BY","2017/10/30 12:59:58","新北市土城區亞洲路16號","121.436546666667","24.974735","6501300","土城區"
"242001","233-RS","2017/10/30 09:08:54","新北市新莊區環河路48-7號","121.436911666667","25.0097733333333","6500500","新莊區"
"238020","308-TH","2017/10/30 12:59:49","新北市樹林區八德街1146號","121.391045","24.9681866666667","6500700","樹林區"
"221032","280-BY","2017/10/30 12:59:45","新北市汐止區建成路60號","121.66343","25.072955","6501100","汐止區"
"220011","609-BX","2017/10/30 12:59:41","新北市板橋區民生路二段175號","121.469686666667","25.0201466666667","6500100","板橋區"
