"lineid","car","time","location","longitude","latitude","cityid","cityname"
"234044","148-BY","2017/10/30 14:19:49","新北市永和區永元路122號","121.522805","25.00275","6500400","永和區"
"234012","149-BY","2017/10/30 14:19:52","新北市永和區保生路3號","121.506316666667","25.0073416666667","6500400","永和區"
"234005","207-UY","2017/10/30 14:19:52","新北市永和區保平路196號","121.510295","25.0063416666667","6500400","永和區"
"234078","298-R6","2017/10/30 14:19:58","新北市永和區國中路146號","121.523083333333","25.00696","6500400","永和區"
"234062","337-UY","2017/10/30 14:19:52","新北市永和區得和路124號","121.518746666667","25.0001516666667","6500400","永和區"
"234084","338-UY","2017/10/30 14:19:58","新北市永和區中正路613號","121.516268333333","25.0097833333333","6500400","永和區"
"234068","552-UM","2017/10/30 14:20:00","新北市永和區福和路235號","121.518456666667","25.007385","6500400","永和區"
"234052","553-UM","2017/10/30 14:19:50","新北市永和區永和路二段302號","121.516396666667","25.0158216666667","6500400","永和區"
"234028","746-BX","2017/10/30 14:19:40","新北市永和區民有街25巷12號","121.517453333333","24.99658","6500400","永和區"
"234060","AAD-866","2017/10/30 14:19:44","新北市永和區安樂路166號","121.514638333333","25.000865","6500400","永和區"
"234040","862-TW","2017/10/30 14:19:55","新北市中和區安平路220號","121.513898333333","24.9999933333333","6500400","永和區"
"234048","863-TW","2017/10/30 14:19:44","新北市永和區新生路18號","121.508945","25.0164266666667","6500400","永和區"
"234025","9371-KE","2017/10/30 14:20:00","新北市永和區安樂路144巷31號","121.515286666667","24.999685","6500400","永和區"
"248015","026-BX","2017/10/30 14:19:45","新北市五股區成洲五路12號","121.452371666667","25.1015766666667","6501500","五股區"
"248019","225-UY","2017/10/30 14:00:24","新北市五股區凌雲路三段57號","121.425323333333","25.1250266666667","6501500","五股區"
"248011","247-BX","2017/10/30 14:19:44","新北市五股區工商路85巷1號","121.437895","25.0847466666667","6501500","五股區"
"248009","272-BY","2017/10/30 14:19:47","新北市五股區水碓一路23號","121.430615","25.07127","6501500","五股區"
"248003","677-BX","2017/10/30 14:19:52","新北市五股區五福路73號","121.432545","25.090165","6501500","五股區"
"248001","678-BX","2017/10/30 14:19:58","新北市五股區成泰路三段625-2號","121.452773333333","25.1043733333333","6501500","五股區"
"234023","9380-KE","2017/10/30 14:19:43","新北市永和區博愛街32巷17-1號","121.518861666667","25.0151516666667","6500400","永和區"
"234076","969-R7","2017/10/30 14:19:58","新北市永和區民權路100號","121.519816666667","24.996575","6500400","永和區"
"234072","AAC-211","2017/10/30 14:19:43","新北市永和區竹林路119巷30弄2號","121.522036666667","25.0116066666667","6500400","永和區"
"234066","AAC-212","2017/10/30 14:19:56","新北市永和區保平路292巷13弄10號","121.50694","25.0055033333333","6500400","永和區"
"244024","742-UY","2017/10/30 09:32:50","新北市林口區粉寮路二段160巷28號","121.405115","25.0907283333333","6501700","林口區"
"244001","657-BX","2017/10/30 14:16:34","新北市林口區嘉寶里89-1號","121.33317","25.1217783333333","6501700","林口區"
"244020","838-TS","2017/10/30 09:21:43","新北市林口區粉寮69號","121.404823333333","25.0908083333333","6501700","林口區"
"243005","AAD-798","2017/10/30 14:19:47","新北市泰山區明志路三段145巷53弄1號","121.42667","25.03936","6501600","泰山區"
"243001","297-R6","2017/10/30 14:19:55","新北市泰山區明志路一段21號","121.433911666667","25.0657033333333","6501600","泰山區"
"243007","380-SR","2017/10/30 14:19:50","新北市泰山區公園路2號","121.430011666667","25.05401","6501600","泰山區"
"243006","421-VK","2017/10/30 14:19:47","新北市泰山區泰林路二段150號","121.434293333333","25.06012","6501600","泰山區"
"243002","KEA-2215","2017/10/30 14:19:53","新北市泰山區明志路二段7巷9號","121.430588333333","25.0534","6501600","泰山區"
"243003","KEA-2216","2017/10/30 14:20:00","新北市泰山區貴子路44號","121.426258333333","25.0416433333333","6501600","泰山區"
"243004","646-TV","2017/10/30 14:19:54","新北市泰山區仁義路220巷6號","121.432758333333","25.0538383333333","6501600","泰山區"
"243008","680-BX","2017/10/30 14:20:00","新北市泰山區工專路43號","121.42301","25.0401116666667","6501600","泰山區"
"231002","002-UM","2017/10/30 14:20:01","新北市新店區中正路487號","121.533913333333","24.982075","6500600","新店區"
"231028","046-UY","2017/10/30 14:19:58","新北市新店區安民街2號","121.515356666667","24.9637216666667","6500600","新店區"
"231030","047-UY","2017/10/30 14:19:48","新北市新店區安民街11號","121.515313333333","24.9644783333333","6500600","新店區"
"231029","106-UY","2017/10/30 14:19:54","新北市新店區安康路二段161號","121.510065","24.9593566666667","6500600","新店區"
"231011","108-UY","2017/10/30 14:19:55","新北市新店區五峰路57-1號","121.547323333333","24.970735","6500600","新店區"
"231019","187-VK","2017/10/30 14:19:53","新北市新店區新烏路二段198巷2弄2號","121.547775","24.917015","6500600","新店區"
"231014","KEA-2219","2017/10/30 14:19:53","新北市新店區北宜路二段470號","121.570031666667","24.95563","6500600","新店區"
"231027","3712-VJ","2017/10/30 14:19:40","新北市新店區光明街286巷14號","121.540833333333","24.9635483333333","6500600","新店區"
"231025","4716-K9","2017/10/30 14:19:53","新北市新店區二十張路129巷5弄3號","121.536578333333","24.9787383333333","6500600","新店區"
"231038","4715-K9","2017/10/30 14:19:47","新北市新店區安康路一段17號","121.53326","24.960225","6500600","新店區"
"231036","512-UM","2017/10/30 14:19:57","新北市新店區安祥路109巷90弄46號","121.476741666667","24.95905","6500600","新店區"
"231023","513-UM","2017/10/30 14:19:42","新北市新店區光明街105號","121.539173333333","24.9612183333333","6500600","新店區"
"231035","515-UM","2017/10/30 14:19:42","新北市新店區光華街5巷19號","121.517723333333","24.9683166666667","6500600","新店區"
"231001","619-UM","2017/10/30 14:19:46","新北市新店區北新路一段40號","121.540953333333","24.96606","6500600","新店區"
"231003","641-BX","2017/10/30 14:19:43","新北市新店區中興路一段216號","121.543941666667","24.9658266666667","6500600","新店區"
"231034","645-TV","2017/10/30 14:20:00","新北市新店區黎明路3號","121.503525","24.9524683333333","6500600","新店區"
"231013","719-UM","2017/10/30 14:19:50","新北市新店區民權路108-2號","121.536131666667","24.9835066666667","6500600","新店區"
"231018","719-UY","2017/10/30 14:19:59","新北市新店區中央四街47號","121.527881666667","24.9749966666667","6500600","新店區"
"231031","720-UM","2017/10/30 14:19:54","新北市新店區溪洲路202-7號","121.528933333333","24.9681783333333","6500600","新店區"
"231005","897-TW","2017/10/30 14:19:43","新北市新店區中興路三段216號","121.543566666667","24.98247","6500600","新店區"
"231006","898-TW","2017/10/30 14:19:41","新北市新店區北宜路二段599號","121.56814","24.955625","6500600","新店區"
"231004","899-TW","2017/10/30 14:19:43","新北市新店區中正路138號","121.541966666667","24.9715266666667","6500600","新店區"
"231037","AKT-0513","2017/10/30 14:19:44","新北市新店區車子路57號","121.503905","24.9516433333333","6500600","新店區"
"235030","003-UY","2017/10/30 14:19:58","新北市中和區景新街48號","121.50372","24.9992466666667","6500300","中和區"
"235028","005-UY","2017/10/30 14:20:00","新北市中和區中和路26巷15號","121.49937","25.00144","6500300","中和區"
"235027","006-UY","2017/10/30 14:19:54","新北市中和區圓通路198巷7號","121.495656666667","24.9943016666667","6500300","中和區"
"235020","096-UM","2017/10/30 14:19:56","新北市中和區員山路575號","121.479286666667","25.0081216666667","6500300","中和區"
"235003","097-UM","2017/10/30 14:19:56","新北市中和區秀峰街103巷8弄14號","121.519638333333","24.9896933333333","6500300","中和區"
"235029","098-UM","2017/10/30 14:19:46","新北市中和區中山路二段2巷5弄7號","121.504405","25.0061883333333","6500300","中和區"
"235004","150-BY","2017/10/30 14:19:57","新北市中和區保健路106巷73號","121.511285","24.9945516666667","6500300","中和區"
"235022","151-BY","2017/10/30 14:19:52","新北市中和區連城路469巷91號","121.483678333333","24.9933816666667","6500300","中和區"
"235019","183-VK","2017/10/30 14:19:52","新北市中和區中山路三段209號","121.471885","25.00632","6500300","中和區"
"235002","185-VK","2017/10/30 14:19:47","新北市中和區大仁街10巷27弄4號","121.519248333333","24.9926983333333","6500300","中和區"
"235013","186-VK","2017/10/30 14:19:44","新北市中和區景新街230巷2號","121.508095","24.9941883333333","6500300","中和區"
"235031","255-BX","2017/10/30 14:19:52","新北市中和區新生街191號","121.483716666667","25.00028","6500300","中和區"
"235008","293-VK","2017/10/30 14:19:47","新北市中和區中興街262號","121.498946666667","24.98757","6500300","中和區"
"235036","301-VK","2017/10/30 14:19:55","新北市中和區福美路302號","121.4971","25.0048866666667","6500300","中和區"
"235007","352-BY","2017/10/30 14:19:47","新北市中和區景平路310號","121.512528333333","24.99277","6500300","中和區"
"235015","376-QA","2017/10/30 14:19:52","新北市中和區和平街54巷1弄1號","121.508696666667","24.990925","6500300","中和區"
"235032","377-QA","2017/10/30 14:19:55","新北市中和區圓通路158巷2號","121.497628333333","24.996055","6500300","中和區"
"235025","378-QA","2017/10/30 14:20:00","新北市中和區民利街61巷9號","121.479146666667","24.99846","6500300","中和區"
"235035","269-TV","2017/10/30 14:19:45","新北市中和區連城路517號","121.482125","24.99531","6500300","中和區"
"235014","4979-A6","2017/10/30 14:19:52","新北市中和區中正路194號","121.497306666667","24.9939733333333","6500300","中和區"
"235033","4980-A6","2017/10/30 14:19:44","新北市中和區連城路134巷18號","121.495231666667","25.0001333333333","6500300","中和區"
"235006","551-UM","2017/10/30 14:19:45","新北市永和區中正路198號","121.515706666667","24.997285","6500300","中和區"
"235034","558-UM","2017/10/30 14:19:42","新北市中和區中和路102號","121.502735","24.99976","6500300","中和區"
"235009","565-BX","2017/10/30 14:19:50","新北市中和區景新街423巷28號","121.514438333333","24.989705","6500300","中和區"
"235018","640-BX","2017/10/30 14:19:41","新北市中和區民德路136號","121.468693333333","25.0005983333333","6500300","中和區"
"235011","732-UM","2017/10/30 14:19:49","新北市中和區景平路241巷55號","121.508095","24.9921","6500300","中和區"
"235010","733-UM","2017/10/30 14:19:45","新北市中和區忠孝街1巷2-1號","121.509133333333","24.9830733333333","6500300","中和區"
"235026","800-TS","2017/10/30 14:19:49","新北市中和區中山路二段380-1號","121.491188333333","25.0034733333333","6500300","中和區"
"235021","801-TS","2017/10/30 14:19:57","新北市中和區員山路220號","121.481253333333","25.0009383333333","6500300","中和區"
"235005","802-TS","2017/10/30 14:19:57","新北市中和區中安街178巷13弄11號","121.510685","24.9986483333333","6500300","中和區"
"235016","805-TS","2017/10/30 14:19:49","新北市中和區興南路二段128巷1弄6號","121.503663333333","24.98362","6500300","中和區"
"235012","896-TW","2017/10/30 14:19:57","新北市中和區華新街109巷22號","121.508433333333","24.9808716666667","6500300","中和區"
"235017","900-TW","2017/10/30 14:19:44","新北市中和區華安街21巷6號","121.467581666667","24.99729","6500300","中和區"
"235030","911-UM","2017/10/30 14:19:45","新北市中和區新生街114巷37弄3號","121.48242","25.002085","6500300","中和區"
"235001","AAC-213","2017/10/30 14:19:48","新北市中和區秀朗路三段10巷37弄4號","121.524046666667","24.9958783333333","6500300","中和區"
"235023","AAC-215","2017/10/30 14:19:57","新北市中和區圓通路286巷22號","121.491881666667","24.9915866666667","6500300","中和區"
"220016","013-TV","2017/10/30 14:19:46","新北市板橋區萬安街101號","121.483528333333","25.0247083333333","6500100","板橋區"
"220013","072-UY","2017/10/30 14:19:52","新北市板橋區國泰街76巷34號","121.467098333333","25.0071666666667","6500100","板橋區"
"220034","073-UY","2017/10/30 14:19:54","新北市板橋區中正路216巷92號","121.458568333333","25.0189616666667","6500100","板橋區"
"220105","075-UY","2017/10/30 14:20:00","新北市板橋區江寧路三段29號","121.471156666667","25.03177","6500100","板橋區"
"220017","AAD-861","2017/10/30 14:19:50","新北市板橋區大華街182巷2號","121.459046666667","25.0035683333333","6500100","板橋區"
"247021","893-R6","2017/10/30 14:19:54","新北市蘆洲區民族路500號","121.469585","25.090495","6501400","蘆洲區"
"247011","546-UM","2017/10/30 14:20:00","新北市蘆洲區民權路3巷26號","121.475178333333","25.0855383333333","6501400","蘆洲區"
"247019","500-BY","2017/10/30 14:19:59","新北市蘆洲區仁愛街35巷12號","121.471525","25.0926166666667","6501400","蘆洲區"
"247009","339-TH","2017/10/30 14:19:56","新北市蘆洲區三民路26巷26弄3號","121.477788333333","25.0829583333333","6501400","蘆洲區"
"247001","337-TH","2017/10/30 14:19:57","新北市蘆洲區永樂街34號","121.458236666667","25.0882933333333","6501400","蘆洲區"
"247003","336-TH","2017/10/30 14:20:00","新北市蘆洲區中原路85號","121.457948333333","25.0816383333333","6501400","蘆洲區"
"247015","057-VK","2017/10/30 14:18:35","新北市蘆洲區光華路70巷9號","121.467646666667","25.0831983333333","6501400","蘆洲區"
"247005","056-VK","2017/10/30 14:19:53","新北市蘆洲區永安南路二段100號","121.463251666667","25.0781733333333","6501400","蘆洲區"
"247007","053-VK","2017/10/30 14:19:57","新北市蘆洲區中山一路197巷4弄21號","121.474056666667","25.0805466666667","6501400","蘆洲區"
"247013","007-UY","2017/10/30 14:19:51","新北市蘆洲區中山一路165號","121.475375","25.081635","6501400","蘆洲區"
"247023","002-UY","2017/10/30 14:19:51","新北市蘆洲區長榮路750號","121.4606","25.09239","6501400","蘆洲區"
"247017","001-UY","2017/10/30 14:19:50","新北市蘆洲區民權路132-2號","121.473231666667","25.0887916666667","6501400","蘆洲區"
"208004","AAC-292","2017/10/30 14:19:55","新北市金山區六股里下六股65號","121.614441666667","25.22362","6502700","金山區"
"207002","749-BX","2017/10/30 14:19:30","新北市萬里區溪底里瑞泉路3號","121.609476666667","25.1435616666667","6502800","萬里區"
"252005","249-BX","2017/10/30 14:19:52","新北市三芝區橫山里大坑26號","121.525363333333","25.2545083333333","6502100","三芝區"
"207001","662-BX","2017/10/30 14:19:53","新北市萬里區磺潭里清水18號","121.637831666667","25.1976716666667","6502800","萬里區"
"236064","105-UM","2017/10/30 14:19:44","新北市土城區明德路一段130號","121.463626666667","24.9791283333333","6501300","土城區"
"236040","107-UM","2017/10/30 14:19:57","新北市土城區裕生路21巷6弄25號","121.44871","24.98677","6501300","土城區"
"236074","166-UM","2017/10/30 14:19:51","新北市土城區中央路三段281巷23弄19號","121.426345","24.9615516666667","6501300","土城區"
"236028","253-BX","2017/10/30 14:19:59","新北市土城區順風路66號","121.440375","24.977575","6501300","土城區"
"236024","269-VK","2017/10/30 14:19:54","新北市土城區承天路18號","121.43954","24.96346","6501300","土城區"
"236012","270-VK","2017/10/30 14:19:57","新北市土城區青雲路39巷7號","121.460391666667","24.9875966666667","6501300","土城區"
"236032","271-VK","2017/10/30 14:19:54","新北市土城區青雲路451巷8弄2號","121.459541666667","24.9744583333333","6501300","土城區"
"236016","401-BY","2017/10/30 14:19:59","新北市土城區明峰街50號","121.467771666667","24.986555","6501300","土城區"
"236005","498-BY","2017/10/30 14:19:57","新北市土城區中華路一段56巷26-1號","121.44419","24.9899","6501300","土城區"
"236056","912-UM","2017/10/30 14:19:39","新北市土城區中央路四段286-1號","121.414345","24.956365","6501300","土城區"
"236044","913-UM","2017/10/30 14:19:59","新北市土城區明德路一段288號","121.456663333333","24.9776583333333","6501300","土城區"
"236060","915-UM","2017/10/30 14:19:49","新北市土城區金城路三段195號","121.470065","24.988985","6501300","土城區"
"236052","AAC-216","2017/10/30 14:19:43","新北市土城區中華路二段92號","121.43825","24.9747733333333","6501300","土城區"
"242001","233-RS","2017/10/30 09:08:54","新北市新莊區環河路48-7號","121.436911666667","25.0097733333333","6500500","新莊區"
"238020","308-TH","2017/10/30 13:40:14","新北市樹林區中山路三段204號","121.38693","24.9684","6500700","樹林區"
"220027","145-BY","2017/10/30 14:19:51","新北市板橋區民權路259號","121.457108333333","25.016045","6500100","板橋區"
"220028","200-UY","2017/10/30 14:19:50","新北市板橋區大觀路二段19巷100號","121.449611666667","25.0027483333333","6500100","板橋區"
"220030","610-BX","2017/10/30 14:20:01","新北市板橋區溪崑二街138號","121.425885","24.9876116666667","6500100","板橋區"
"220050","245-BX","2017/10/30 14:19:43","新北市板橋區雙十路二段6-11號","121.47671","25.0264383333333","6500100","板橋區"
"220004","276-BY","2017/10/30 14:19:45","新北市板橋區信義路91-2號","121.457351666667","24.9937566666667","6500100","板橋區"
"220020","277-BY","2017/10/30 14:19:58","新北市板橋區金門街317巷1-1號","121.429905","24.986005","6500100","板橋區"
"220043","283-UM","2017/10/30 14:19:54","新北市板橋區吳鳳路82號","121.466948333333","25.0312566666667","6500100","板橋區"
"220019","283-VK","2017/10/30 14:19:56","新北市板橋區忠孝路48巷7弄1-3號","121.461046666667","25.00044","6500100","板橋區"
"220001","285-VK","2017/10/30 14:19:53","新北市板橋區縣民大道三段270巷8號","121.4782","25.0230883333333","6500100","板橋區"
"220031","286-VK","2017/10/30 14:19:46","新北市板橋區龍興街95巷16號","121.443383333333","25.0027833333333","6500100","板橋區"
"220029","287-VK","2017/10/30 14:19:58","新北市板橋區南雅西路二段130號","121.451986666667","25.0126866666667","6500100","板橋區"
"220039","288-VK","2017/10/30 14:19:49","新北市板橋區四維路349巷16號","121.461556666667","25.0296516666667","6500100","板橋區"
"220009","293-UM","2017/10/30 14:19:47","新北市板橋區中山路二段255巷7號","121.477003333333","25.017985","6500100","板橋區"
"220032","296-UM","2017/10/30 14:19:49","新北市板橋區溪崑二街16巷18號","121.428211666667","24.99201","6500100","板橋區"
"220023","297-UM","2017/10/30 14:19:56","新北市板橋區館前西路92號","121.457326666667","25.0073366666667","6500100","板橋區"
"220010","305-R5","2017/10/30 14:19:39","新北市板橋區三民路二段居仁巷1弄22號","121.47995","25.0135966666667","6500100","板橋區"
"220041","307-R5","2017/10/30 14:20:02","新北市板橋區松江街72巷35號","121.469783333333","25.028","6500100","板橋區"
"220047","317-R6","2017/10/30 14:19:54","新北市板橋區民有街91號","121.464716666667","25.0276333333333","6500100","板橋區"
"220012","486-VK","2017/10/30 14:19:55","新北市板橋區板新路223號","121.468058333333","25.015915","6500100","板橋區"
"220038","487-VK","2017/10/30 14:20:01","新北市板橋區文化路二段82號","121.469665","25.0258366666667","6500100","板橋區"
"220037","491-VK","2017/10/30 14:19:51","新北市板橋區雙十路二段231號","121.47278","25.0290633333333","6500100","板橋區"
"220104","560-BX","2017/10/30 14:19:52","新北市板橋區中正路360巷14號","121.455076666667","25.0236233333333","6500100","板橋區"
"220052","561-BX","2017/10/30 14:19:46","新北市板橋區介壽街84巷2號","121.470026666667","25.01864","6500100","板橋區"
"220011","609-BX","2017/10/30 14:19:41","新北市板橋區三民路二段203-4號","121.479021666667","25.013515","6500100","板橋區"
"220040","637-BX","2017/10/30 14:19:44","新北市板橋區文聖街206號","121.480303333333","25.025775","6500100","板橋區"
"220005","686-BX","2017/10/30 14:19:47","新北市板橋區和平路143巷10號","121.463208333333","24.9959516666667","6500100","板橋區"
"220025","687-BX","2017/10/30 14:19:56","新北市板橋區龍興街2號","121.442758333333","24.999375","6500100","板橋區"
"220042","689-BX","2017/10/30 14:19:54","新北市板橋區漢生西路25號","121.463315","25.018295","6500100","板橋區"
"220002","741-BX","2017/10/30 14:19:58","新北市板橋區校前街35號","121.460855","25.0032016666667","6500100","板橋區"
"220003","827-TW","2017/10/30 14:19:56","新北市板橋區館前東路156巷12號","121.464255","25.0070266666667","6500100","板橋區"
"220014","829-TW","2017/10/30 14:19:51","新北市板橋區長安街138巷7弄44號","121.474021666667","25.0089616666667","6500100","板橋區"
"220051","830-TW","2017/10/30 14:19:53","新北市板橋區松柏街15巷3-2號","121.47401","25.029995","6500100","板橋區"
"220045","831-TW","2017/10/30 14:20:01","新北市板橋區大同街50巷28號","121.478816666667","25.02669","6500100","板橋區"
"220022","895-R6","2017/10/30 14:19:57","新北市板橋區北門街23-2號","121.456818333333","25.0110483333333","6500100","板橋區"
"220021","985-R7","2017/10/30 14:19:43","新北市板橋區中正路154號","121.456685","25.0166516666667","6500100","板橋區"
"220046","AAC-210","2017/10/30 14:19:59","新北市板橋區幸福路49號","121.461188333333","25.0199333333333","6500100","板橋區"
"220018","AAC-253","2017/10/30 14:20:02","新北市板橋區忠孝路147號","121.463491666667","25.0024183333333","6500100","板橋區"
