"lineid","car","time","location","longitude","latitude","cityid","cityname"
"234012","149-BY","2017/10/30 14:29:52","新北市中和區橋和路281巷1號","121.495973333333","25.007885","6500400","永和區"
"234005","207-UY","2017/10/30 14:29:52","新北市永和區中正路682號","121.516753333333","25.00935","6500400","永和區"
"234078","298-R6","2017/10/30 14:29:58","新北市永和區永貞路80號","121.520203333333","25.00507","6500400","永和區"
"234062","337-UY","2017/10/30 14:29:50","新北市永和區中正路433號","121.517113333333","25.0050716666667","6500400","永和區"
"234084","338-UY","2017/10/30 14:30:02","新北市永和區永和路二段330號","121.516203333333","25.016555","6500400","永和區"
"234068","552-UM","2017/10/30 14:29:41","新北市永和區永亨路7號","121.519398333333","25.0057566666667","6500400","永和區"
"234052","553-UM","2017/10/30 14:29:50","新北市永和區光復街60巷25號","121.517796666667","25.017555","6500400","永和區"
"234028","746-BX","2017/10/30 14:30:00","新北市中和區中正路406號","121.49241","24.994105","6500400","永和區"
"234060","AAD-866","2017/10/30 14:29:47","新北市永和區秀安街1號","121.515243333333","25.0024033333333","6500400","永和區"
"234040","862-TW","2017/10/30 14:29:55","新北市永和區安樂路330號","121.514438333333","25.0058766666667","6500400","永和區"
"234048","863-TW","2017/10/30 14:29:44","新北市永和區保福路三段1號","121.508485","25.0154916666667","6500400","永和區"
"234025","9371-KE","2017/10/30 14:30:00","新北市中和區中安街80號","121.512285","25.0017866666667","6500400","永和區"
"248015","026-BX","2017/10/30 14:29:45","新北市五股區成泰路3段651-1號","121.452856666667","25.1053683333333","6501500","五股區"
"248007","095-VK","2017/10/30 14:29:52","新北市五股區中興路一段95巷15號","121.466625","25.0721916666667","6501500","五股區"
"248019","225-UY","2017/10/30 14:00:24","新北市五股區凌雲路三段57號","121.425323333333","25.1250266666667","6501500","五股區"
"248011","247-BX","2017/10/30 14:29:44","新北市五股區蓬萊路24號","121.433876666667","25.079955","6501500","五股區"
"248013","261-SL","2017/10/30 14:29:53","新北市五股區民義路一段183巷5-1號","121.430456666667","25.0871583333333","6501500","五股區"
"248009","272-BY","2017/10/30 14:29:47","新北市五股區水碓一路23號","121.430666666667","25.07132","6501500","五股區"
"248003","677-BX","2017/10/30 14:29:52","新北市五股區五福路43號","121.433226666667","25.0894616666667","6501500","五股區"
"248001","678-BX","2017/10/30 14:27:58","新北市五股區成泰路三段436號","121.450796666667","25.0995516666667","6501500","五股區"
"234072","AAC-211","2017/10/30 14:29:43","新北市永和區環河東路一段124號","121.520693333333","25.015385","6500400","永和區"
"234066","AAC-212","2017/10/30 14:29:56","新北市永和區仁愛路307號","121.503621666667","25.008005","6500400","永和區"
"244024","742-UY","2017/10/30 09:32:50","新北市林口區粉寮路二段160巷28號","121.405115","25.0907283333333","6501700","林口區"
"244001","657-BX","2017/10/30 14:29:53","新北市林口區文化一路二段303號","121.385736666667","25.085665","6501700","林口區"
"244020","838-TS","2017/10/30 09:21:43","新北市林口區粉寮69號","121.404823333333","25.0908083333333","6501700","林口區"
"243005","AAD-798","2017/10/30 14:29:50","新北市泰山區民國街34號","121.425778333333","25.0432033333333","6501600","泰山區"
"243001","297-R6","2017/10/30 14:29:54","新北市泰山區明志路一段122巷28號","121.43151","25.0642566666667","6501600","泰山區"
"243007","380-SR","2017/10/30 14:29:50","新北市泰山區民權街91號","121.428591666667","25.049585","6501600","泰山區"
"243006","421-VK","2017/10/30 14:29:55","新北市泰山區仁義路220巷53號","121.432215","25.0526466666667","6501600","泰山區"
"243002","KEA-2215","2017/10/30 14:29:53","新北市泰山區中華街10巷1號","121.427903333333","25.0524966666667","6501600","泰山區"
"243003","KEA-2216","2017/10/30 14:29:39","新北市泰山區中山路二段567號","121.429655","25.040195","6501600","泰山區"
"243004","646-TV","2017/10/30 14:29:54","新北市泰山區全興路13號","121.432295","25.05897","6501600","泰山區"
"243008","680-BX","2017/10/30 14:29:57","新北市泰山區中山路三段79號","121.418306666667","25.032105","6501600","泰山區"
"231002","002-UM","2017/10/30 14:29:40","新北市新店區中央路196號","121.530758333333","24.9745166666667","6500600","新店區"
"231028","046-UY","2017/10/30 14:29:58","新北市新店區安康路二段147-1號","121.511351666667","24.959675","6500600","新店區"
"231030","047-UY","2017/10/30 14:29:48","新北市新店區安民街65巷6號","121.51609","24.966955","6500600","新店區"
"231029","106-UY","2017/10/30 14:29:54","新北市新店區安康路二段382號","121.50045","24.95706","6500600","新店區"
"231011","108-UY","2017/10/30 14:29:55","新北市新店區中興路二段199號","121.54819","24.974","6500600","新店區"
"231019","187-VK","2017/10/30 14:29:53","新北市新店區桂山路51巷6-1號","121.562445","24.9013966666667","6500600","新店區"
"231014","KEA-2219","2017/10/30 14:29:53","新北市新店區北宜路三段108號","121.579831666667","24.9504533333333","6500600","新店區"
"231027","3712-VJ","2017/10/30 14:29:51","新北市新店區北新路二段228巷13號","121.543456666667","24.9771733333333","6500600","新店區"
"231025","4716-K9","2017/10/30 14:29:53","新北市新店區民族路161號","121.53775","24.9767833333333","6500600","新店區"
"231038","4715-K9","2017/10/30 14:29:47","新北市新店區溪洲路8巷40號","121.533433333333","24.9621383333333","6500600","新店區"
"231036","512-UM","2017/10/30 14:29:57","新北市新店區安祥路109巷1弄6號","121.475425","24.9588966666667","6500600","新店區"
"231023","513-UM","2017/10/30 14:29:42","新北市新店區光明街159號","121.539655","24.9624116666667","6500600","新店區"
"231035","515-UM","2017/10/30 14:29:42","新北市新店區安民街3巷1號","121.514633333333","24.9642333333333","6500600","新店區"
"231001","619-UM","2017/10/30 14:29:46","新北市新店區北新路一段96巷23號","121.543015","24.968925","6500600","新店區"
"231003","641-BX","2017/10/30 14:29:57","新北市新店區中興路一段268-3號","121.545288333333","24.9679366666667","6500600","新店區"
"231034","645-TV","2017/10/30 14:29:46","新北市新店區黎明路11號","121.502068333333","24.9500333333333","6500600","新店區"
"231013","719-UM","2017/10/30 14:29:50","新北市新店區建國路257號","121.537428333333","24.98305","6500600","新店區"
"231018","719-UY","2017/10/30 14:29:59","新北市新店區中央三街65號","121.52681","24.9751666666667","6500600","新店區"
"231031","720-UM","2017/10/30 14:29:53","新北市新店區安業街33號","121.517463333333","24.9771966666667","6500600","新店區"
"231005","897-TW","2017/10/30 14:29:43","新北市新店區北新路二段268號","121.542888333333","24.9786366666667","6500600","新店區"
"231006","898-TW","2017/10/30 14:29:41","新北市新店區北宜路二段483號","121.562326666667","24.9539366666667","6500600","新店區"
"231004","899-TW","2017/10/30 14:29:43","新北市新店區中正路282-11號","121.538498333333","24.9738666666667","6500600","新店區"
"231037","AKT-0513","2017/10/30 14:29:44","新北市新店區安德街60巷9-3號","121.509101666667","24.962085","6500600","新店區"
"235030","003-UY","2017/10/30 14:29:58","新北市中和區景新街140-1號","121.505481666667","24.997815","6500300","中和區"
"235028","005-UY","2017/10/30 14:30:00","新北市中和區連城路2號","121.499288333333","25.002425","6500300","中和區"
"235027","006-UY","2017/10/30 14:29:54","新北市中和區連城路219巷22弄1號","121.49483","24.9964483333333","6500300","中和區"
"235020","096-UM","2017/10/30 14:29:56","新北市中和區民富街37號","121.476465","25.0080616666667","6500300","中和區"
"235003","097-UM","2017/10/30 14:29:56","新北市中和區秀峰街103巷7弄4號","121.519436666667","24.9889616666667","6500300","中和區"
"235029","098-UM","2017/10/30 14:29:46","新北市中和區永和路9巷1號","121.499193333333","25.0040033333333","6500300","中和區"
"235004","150-BY","2017/10/30 14:29:57","新北市中和區安樂路83號","121.512658333333","24.9944566666667","6500300","中和區"
"235022","151-BY","2017/10/30 14:29:52","新北市中和區連城路469巷7號","121.48362","24.9956183333333","6500300","中和區"
"235019","183-VK","2017/10/30 14:29:59","新北市中和區德光路27巷1弄1號","121.470868333333","25.0039666666667","6500300","中和區"
"235002","185-VK","2017/10/30 14:29:47","新北市中和區景平路126巷2弄15號","121.519733333333","24.992355","6500300","中和區"
"235013","186-VK","2017/10/30 14:29:44","新北市中和區景新街295巷29號","121.511161666667","24.9934616666667","6500300","中和區"
"235031","255-BX","2017/10/30 14:29:52","新北市中和區連城路340巷10弄1號","121.482705","24.9965833333333","6500300","中和區"
"235008","293-VK","2017/10/30 14:29:47","新北市中和區景安路206號","121.504061666667","24.9910083333333","6500300","中和區"
"235036","301-VK","2017/10/30 14:29:55","新北市中和區中山路二段3巷22弄1號","121.506501666667","25.0055133333333","6500300","中和區"
"235007","352-BY","2017/10/30 14:29:47","新北市中和區景平路372號","121.510791666667","24.992775","6500300","中和區"
"235015","376-QA","2017/10/30 14:29:52","新北市中和區板南路102號","121.503631666667","24.9924983333333","6500300","中和區"
"235032","377-QA","2017/10/30 14:29:55","新北市中和區景平路493號","121.500103333333","24.99779","6500300","中和區"
"235025","378-QA","2017/10/30 14:29:39","新北市中和區員山路325-5號","121.481055","25.0010033333333","6500300","中和區"
"235035","269-TV","2017/10/30 14:29:45","新北市中和區連城路469巷40號","121.483503333333","24.9946166666667","6500300","中和區"
"235014","4979-A6","2017/10/30 14:29:52","新北市中和區員山路36巷13號","121.484391666667","24.9910633333333","6500300","中和區"
"235006","551-UM","2017/10/30 14:29:45","新北市中和區中和路378巷14弄2-8號","121.511271666667","25.00175","6500300","中和區"
"235034","558-UM","2017/10/30 14:29:42","新北市中和區連城路71號","121.49736","25.0010416666667","6500300","中和區"
"235009","565-BX","2017/10/30 14:29:50","新北市中和區景新街399巷9號","121.512903333333","24.9899283333333","6500300","中和區"
"235018","640-BX","2017/10/30 14:29:41","新北市中和區國光街112巷2弄1號","121.469998333333","25.0007716666667","6500300","中和區"
"235011","732-UM","2017/10/30 14:29:49","新北市中和區景平路259巷18號","121.507815","24.9926783333333","6500300","中和區"
"235010","733-UM","2017/10/30 14:29:45","新北市中和區忠孝街37巷52號","121.511126666667","24.98493","6500300","中和區"
"235026","800-TS","2017/10/30 14:29:49","新北市中和區中山路二段422號","121.489671666667","25.0038916666667","6500300","中和區"
"235021","801-TS","2017/10/30 14:29:57","新北市中和區中山路三段37巷25號","121.479348333333","25.0049816666667","6500300","中和區"
"235005","802-TS","2017/10/30 14:29:57","新北市中和區安平路120號","121.511788333333","24.9976783333333","6500300","中和區"
"235016","805-TS","2017/10/30 14:29:49","新北市中和區華新街143巷71弄27號","121.507891666667","24.9791033333333","6500300","中和區"
"235012","896-TW","2017/10/30 14:29:57","新北市中和區忠孝街42號","121.510923333333","24.9833733333333","6500300","中和區"
"235017","900-TW","2017/10/30 14:29:44","新北市中和區華順街2巷10號","121.467535","24.9990616666667","6500300","中和區"
"235030","911-UM","2017/10/30 14:29:45","新北市中和區新生街114巷1號","121.483508333333","25.0024566666667","6500300","中和區"
"235001","AAC-213","2017/10/30 14:29:48","新北市中和區秀朗路三段10巷12弄2號","121.525525","24.996625","6500300","中和區"
"235023","AAC-215","2017/10/30 14:29:57","新北市中和區圓通路321號","121.492628333333","24.990725","6500300","中和區"
"220016","013-TV","2017/10/30 14:29:55","新北市板橋區萬安街54號","121.48431","25.0233","6500100","板橋區"
"220013","072-UY","2017/10/30 14:29:57","新北市板橋區實踐路93巷71號","121.46708","25.00504","6500100","板橋區"
"220034","073-UY","2017/10/30 14:29:59","新北市板橋區中正路250巷73號","121.458485","25.0198716666667","6500100","板橋區"
"220105","075-UY","2017/10/30 14:29:58","新北市板橋區文化路二段417巷38號","121.473793333333","25.03363","6500100","板橋區"
"220017","AAD-861","2017/10/30 14:29:53","新北市板橋區貴興路49號","121.457328333333","25.0033833333333","6500100","板橋區"
"247021","893-R6","2017/10/30 14:29:54","新北市蘆洲區水湳街72號","121.470558333333","25.0897516666667","6501400","蘆洲區"
"247011","546-UM","2017/10/30 14:29:40","新北市蘆洲區復興路206號","121.47842","25.0889916666667","6501400","蘆洲區"
"247019","500-BY","2017/10/30 14:29:39","新北市蘆洲區仁愛街92號","121.470568333333","25.0945583333333","6501400","蘆洲區"
"247009","339-TH","2017/10/30 14:29:56","新北市蘆洲區鷺江街36號","121.477745","25.0826466666667","6501400","蘆洲區"
"247001","337-TH","2017/10/30 14:29:42","新北市蘆洲區永樂街38巷19弄19-1號","121.457258333333","25.08897","6501400","蘆洲區"
"247003","336-TH","2017/10/30 14:29:40","新北市蘆洲區長安街194巷12-1號","121.459348333333","25.0842616666667","6501400","蘆洲區"
"247015","057-VK","2017/10/30 14:29:55","新北市蘆洲區中正路185巷23弄15號","121.467383333333","25.0842333333333","6501400","蘆洲區"
"247005","056-VK","2017/10/30 14:30:00","新北市蘆洲區長安街46巷10號","121.463815","25.0800183333333","6501400","蘆洲區"
"247007","053-VK","2017/10/30 14:29:57","新北市蘆洲區中山一路61巷34號","121.477398333333","25.0807783333333","6501400","蘆洲區"
"247013","007-UY","2017/10/30 14:29:48","新北市蘆洲區中山二路100號","121.47253","25.0818066666667","6501400","蘆洲區"
"247023","002-UY","2017/10/30 14:29:51","新北市蘆洲區中正路263巷2號","121.467356666667","25.0874","6501400","蘆洲區"
"247017","001-UY","2017/10/30 14:29:50","新北市蘆洲區復興路216號","121.47894","25.0891566666667","6501400","蘆洲區"
"208004","AAC-292","2017/10/30 14:29:54","新北市金山區重和里六股林口9-3號","121.606985","25.2205","6502700","金山區"
"207002","749-BX","2017/10/30 14:29:30","新北市萬里區溪底里福德坑路24-1號","121.621351666667","25.1537833333333","6502800","萬里區"
"252005","249-BX","2017/10/30 14:29:52","新北市三芝區埔坪里埔頭坑92號","121.50867","25.2510183333333","6502100","三芝區"
"207001","662-BX","2017/10/30 14:29:33","新北市萬里區磺潭里清水13號","121.639163333333","25.1991033333333","6502800","萬里區"
"236064","105-UM","2017/10/30 14:29:55","新北市土城區永豐路356-1號","121.474375","24.9752616666667","6501300","土城區"
"236040","107-UM","2017/10/30 14:29:54","新北市土城區裕民路67巷4弄2號","121.44984","24.9879166666667","6501300","土城區"
"236074","166-UM","2017/10/30 14:29:57","新北市土城區大暖路42號","121.423285","24.959495","6501300","土城區"
"236028","253-BX","2017/10/30 14:29:45","新北市土城區順風路9號","121.440226666667","24.976245","6501300","土城區"
"236024","269-VK","2017/10/30 14:29:54","新北市土城區承天路18號","121.439408333333","24.96344","6501300","土城區"
"236012","270-VK","2017/10/30 14:29:57","新北市土城區青雲路39巷7號","121.460431666667","24.987565","6501300","土城區"
"236032","271-VK","2017/10/30 14:29:54","新北市土城區青雲路451巷13號","121.459501666667","24.9747766666667","6501300","土城區"
"236016","401-BY","2017/10/30 14:29:39","新北市土城區永豐路202巷7號","121.466315","24.983305","6501300","土城區"
"236005","498-BY","2017/10/30 14:29:58","新北市土城區日新街50號","121.443515","24.9881916666667","6501300","土城區"
"236056","912-UM","2017/10/30 14:29:58","新北市土城區中央路四段466號","121.410135","24.95053","6501300","土城區"
"236044","913-UM","2017/10/30 14:29:59","新北市土城區青雲路457號","121.458733333333","24.9744416666667","6501300","土城區"
"236060","915-UM","2017/10/30 14:29:49","新北市土城區延壽路44巷15號","121.471483333333","24.9930083333333","6501300","土城區"
"236052","AAC-216","2017/10/30 14:29:43","新北市土城區中華路二段61號","121.439508333333","24.978805","6501300","土城區"
"242001","233-RS","2017/10/30 09:08:54","新北市新莊區環河路48-7號","121.436911666667","25.0097733333333","6500500","新莊區"
"238020","308-TH","2017/10/30 13:40:14","新北市樹林區中山路三段204號","121.38693","24.9684","6500700","樹林區"
"220027","145-BY","2017/10/30 14:29:56","新北市板橋區民權路202巷24號","121.460716666667","25.017165","6500100","板橋區"
"220028","200-UY","2017/10/30 14:29:54","新北市板橋區大觀路二段37巷300號","121.450175","25.0020316666667","6500100","板橋區"
"220030","610-BX","2017/10/30 14:29:41","新北市板橋區溪城路85號","121.426911666667","24.9834883333333","6500100","板橋區"
"220050","245-BX","2017/10/30 14:29:51","新北市板橋區縣民大道三段127巷19號","121.47673","25.0236216666667","6500100","板橋區"
"220004","276-BY","2017/10/30 14:29:45","新北市板橋區國慶路27號","121.458761666667","24.99566","6500100","板橋區"
"220020","277-BY","2017/10/30 14:29:58","新北市板橋區篤行路二段151巷4號","121.429923333333","24.9877833333333","6500100","板橋區"
"220043","283-UM","2017/10/30 14:29:55","新北市板橋區吳鳳路50巷21弄2號","121.468468333333","25.0304383333333","6500100","板橋區"
"220019","283-VK","2017/10/30 14:29:56","新北市板橋區四川路一段283巷7號","121.459808333333","25.0012316666667","6500100","板橋區"
"220001","285-VK","2017/10/30 14:29:53","新北市板橋區富山街61-2號","121.477211666667","25.0218583333333","6500100","板橋區"
"220031","286-VK","2017/10/30 14:29:47","新北市板橋區龍興街71巷40號","121.442148333333","25.0025733333333","6500100","板橋區"
"220029","287-VK","2017/10/30 14:29:58","新北市板橋區南雅西路一段5巷1號","121.454653333333","25.0043916666667","6500100","板橋區"
"220039","288-VK","2017/10/30 14:29:49","新北市板橋區裕民街92號","121.460235","25.0282","6500100","板橋區"
"220009","293-UM","2017/10/30 14:29:47","新北市板橋區中山路一段265巷36弄1號","121.469091666667","25.0152216666667","6500100","板橋區"
"220032","296-UM","2017/10/30 14:29:44","新北市板橋區滿平街136巷2弄2號","121.428411666667","24.9878033333333","6500100","板橋區"
"220023","297-UM","2017/10/30 14:29:56","新北市板橋區南雅西路一段7巷9號","121.454221666667","25.0041283333333","6500100","板橋區"
"220010","305-R5","2017/10/30 14:29:59","新北市板橋區三民路二段153巷4弄2號","121.479625","25.014575","6500100","板橋區"
"220041","307-R5","2017/10/30 14:29:42","新北市板橋區松江街14號","121.46921","25.0263083333333","6500100","板橋區"
"220047","317-R6","2017/10/30 14:29:54","新北市板橋區民生路三段263巷2弄4號","121.463925","25.0294783333333","6500100","板橋區"
"220012","486-VK","2017/10/30 14:29:55","新北市板橋區館前西路50號","121.458461666667","25.0069666666667","6500100","板橋區"
"220038","487-VK","2017/10/30 14:30:01","新北市板橋區文化路一段203號","121.463361666667","25.016735","6500100","板橋區"
"220037","491-VK","2017/10/30 14:29:51","新北市板橋區雙十路二段4-7號","121.476961666667","25.025885","6500100","板橋區"
"220104","560-BX","2017/10/30 14:29:48","新北市板橋區中正路399巷34號","121.452933333333","25.0229716666667","6500100","板橋區"
"220052","561-BX","2017/10/30 14:29:46","新北市板橋區文化路一段188巷11號","121.466498333333","25.0193883333333","6500100","板橋區"
"220011","609-BX","2017/10/30 14:30:01","新北市板橋區三民路二段204-2號","121.478796666667","25.0123016666667","6500100","板橋區"
"220040","637-BX","2017/10/30 14:29:44","新北市板橋區文聖街149巷25號","121.479516666667","25.0286066666667","6500100","板橋區"
"220005","686-BX","2017/10/30 14:29:47","新北市中和區和平路250號","121.464731666667","24.997085","6500100","板橋區"
"220025","687-BX","2017/10/30 14:29:55","新北市板橋區大觀路二段113號","121.446066666667","25.0015816666667","6500100","板橋區"
"220042","689-BX","2017/10/30 14:29:54","新北市板橋區雨農路27巷2號","121.461123333333","25.0241483333333","6500100","板橋區"
"220002","741-BX","2017/10/30 14:29:49","新北市板橋區光明街3號","121.460261666667","25.0025416666667","6500100","板橋區"
"220003","827-TW","2017/10/30 14:30:00","新北市板橋區重慶路290巷18號","121.462525","24.9989183333333","6500100","板橋區"
"220014","829-TW","2017/10/30 14:29:59","新北市板橋區漢生東路299巷16號","121.472296666667","25.0086616666667","6500100","板橋區"
"220051","830-TW","2017/10/30 14:29:53","新北市板橋區文化路二段410巷40號","121.47452","25.0304716666667","6500100","板橋區"
"220045","831-TW","2017/10/30 14:29:59","新北市板橋區民生路二段226巷38號","121.471301666667","25.0222016666667","6500100","板橋區"
"220022","895-R6","2017/10/30 14:29:54","新北市板橋區大東街24號","121.456558333333","25.0089833333333","6500100","板橋區"
"220021","985-R7","2017/10/30 14:29:42","新北市板橋區英士路190巷2號","121.457841666667","25.0225116666667","6500100","板橋區"
"220046","AAC-210","2017/10/30 14:29:59","新北市板橋區陽明街129巷1號","121.463238333333","25.0235316666667","6500100","板橋區"
"220018","AAC-253","2017/10/30 14:29:49","新北市板橋區四川路一段89號","121.459693333333","25.005595","6500100","板橋區"
