"lineid","car","time","location","longitude","latitude","cityid","cityname"
"234012","149-BY","2017/10/30 14:49:52","新北市八里區商港路88-1號","121.393108333333","25.14973","6500400","永和區"
"234005","207-UY","2017/10/30 14:49:52","新北市永和區安樂路218號","121.514968333333","25.0021316666667","6500400","永和區"
"234025","9371-KE","2017/10/30 14:50:00","新北市永和區水源街46號","121.510688333333","25.004415","6500400","永和區"
"248015","026-BX","2017/10/30 14:49:45","新北市五股區成泰路三段577巷80弄25號","121.449608333333","25.10464","6501500","五股區"
"248007","095-VK","2017/10/30 14:49:52","新北市五股區四維路185巷1號","121.468246666667","25.0758616666667","6501500","五股區"
"248011","247-BX","2017/10/30 14:49:44","新北市五股區六合街91號","121.43029","25.0896733333333","6501500","五股區"
"248013","261-SL","2017/10/30 14:49:53","新北市五股區五福路22巷1號","121.434406666667","25.08896","6501500","五股區"
"248009","272-BY","2017/10/30 14:49:47","新北市五股區成泰路一段15號","121.433753333333","25.06663","6501500","五股區"
"248003","677-BX","2017/10/30 14:49:52","新北市五股區成泰路一段197號","121.43518","25.0766766666667","6501500","五股區"
"248001","678-BX","2017/10/30 14:49:58","新北市五股區成泰路三段101-1號","121.444151666667","25.090185","6501500","五股區"
"234072","AAC-211","2017/10/30 14:49:43","新北市永和區豫溪街191巷7弄2號","121.523888333333","25.010805","6500400","永和區"
"234066","AAC-212","2017/10/30 14:49:56","新北市八里區荖阡坑路15-66號","121.398686666667","25.1406383333333","6500400","永和區"
"244024","742-UY","2017/10/30 09:32:50","新北市林口區粉寮路二段160巷28號","121.405115","25.0907283333333","6501700","林口區"
"244001","657-BX","2017/10/30 14:49:53","新北市林口區竹林路266號","121.389716666667","25.0807516666667","6501700","林口區"
"244020","838-TS","2017/10/30 09:21:43","新北市林口區粉寮69號","121.404823333333","25.0908083333333","6501700","林口區"
"243005","AAD-798","2017/10/30 14:49:47","新北市泰山區應化街13號","121.423641666667","25.0435416666667","6501600","泰山區"
"243001","297-R6","2017/10/30 14:49:54","新北市泰山區泰林路二段120號","121.434563333333","25.0593366666667","6501600","泰山區"
"243007","380-SR","2017/10/30 14:50:00","新北市泰山區明志路一段353號","121.431025","25.0585516666667","6501600","泰山區"
"243006","421-VK","2017/10/30 14:49:47","新北市泰山區明志路一段168號","121.433176666667","25.062545","6501600","泰山區"
"243002","KEA-2215","2017/10/30 14:49:53","新北市泰山區明志路二段273巷16弄21號","121.427805","25.0466733333333","6501600","泰山區"
"243003","KEA-2216","2017/10/30 14:50:00","新北市泰山區明志路三段196巷37號","121.421885","25.0398116666667","6501600","泰山區"
"243004","646-TV","2017/10/30 14:49:54","新北市泰山區楓江路95號","121.43799","25.063765","6501600","泰山區"
"243008","680-BX","2017/10/30 14:49:57","新北市泰山區明志路三段399號","121.421335","25.0342166666667","6501600","泰山區"
"231002","002-UM","2017/10/30 14:49:40","新北市新店區民權路82號","121.537111666667","24.983105","6500600","新店區"
"231028","046-UY","2017/10/30 14:49:58","新北市新店區安德街138號","121.508428333333","24.9600833333333","6500600","新店區"
"231030","047-UY","2017/10/30 14:49:48","新北市新店區安民街298號","121.517631666667","24.9736616666667","6500600","新店區"
"231029","106-UY","2017/10/30 14:49:54","新北市新店區錦秀路1-3號","121.479021666667","24.9454666666667","6500600","新店區"
"231011","108-UY","2017/10/30 14:49:55","新北市新店區永華街24號","121.544151666667","24.9759516666667","6500600","新店區"
"231019","187-VK","2017/10/30 14:49:53","新北市新店區金興路24-2號","121.551601666667","24.92967","6500600","新店區"
"231014","KEA-2219","2017/10/30 14:49:53","新北市新店區北宜路三段132號","121.583856666667","24.9499766666667","6500600","新店區"
"231024","3713-VJ","2017/10/30 14:49:48","新北市新店區新生街1號","121.540323333333","24.965605","6500600","新店區"
"231025","4716-K9","2017/10/30 14:49:53","新北市新店區民族路161號","121.537808333333","24.976805","6500600","新店區"
"231036","512-UM","2017/10/30 14:49:57","新北市新店區安祥路104巷6弄36號","121.483125","24.9629466666667","6500600","新店區"
"231023","513-UM","2017/10/30 14:49:42","新北市新店區檳榔路109號","121.544438333333","24.9616883333333","6500600","新店區"
"231035","515-UM","2017/10/30 14:49:42","新北市新店區安樂街16號","121.52086","24.973295","6500600","新店區"
"231001","619-UM","2017/10/30 14:49:46","新北市新店區三民路149-1號","121.533893333333","24.9731183333333","6500600","新店區"
"231003","641-BX","2017/10/30 14:49:43","新北市新店區中興路二段121巷1號","121.547496666667","24.9721083333333","6500600","新店區"
"231034","645-TV","2017/10/30 14:49:40","新北市新店區安康路二段387-1號","121.49465","24.9544483333333","6500600","新店區"
"231039","718-UY","2017/10/30 14:49:48","新北市新店區中興路三段6號","121.546591666667","24.9772583333333","6500600","新店區"
"231013","719-UM","2017/10/30 14:49:50","新北市新店區北新路二段68號","121.54292","24.9724633333333","6500600","新店區"
"231018","719-UY","2017/10/30 14:49:59","新北市新店區中央六街7號","121.53026","24.97454","6500600","新店區"
"231031","720-UM","2017/10/30 14:49:53","新北市新店區安泰路7巷16號","121.485678333333","24.9509766666667","6500600","新店區"
"231005","897-TW","2017/10/30 14:49:43","新北市新店區復興路2號","121.532366666667","24.9883083333333","6500600","新店區"
"231006","898-TW","2017/10/30 14:49:41","新北市新店區北宜路一段12-1號","121.542111666667","24.952995","6500600","新店區"
"231004","899-TW","2017/10/30 14:49:54","新北市新店區民族路104號","121.539136666667","24.9780833333333","6500600","新店區"
"235030","003-UY","2017/10/30 14:49:58","新北市中和區中山路二段4號","121.505231666667","25.0057066666667","6500300","中和區"
"235028","005-UY","2017/10/30 14:50:00","新北市中和區南華路43號","121.503653333333","24.9967266666667","6500300","中和區"
"235027","006-UY","2017/10/30 14:49:54","新北市中和區連城路263巷20號","121.492593333333","24.994755","6500300","中和區"
"235020","096-UM","2017/10/30 14:49:56","新北市中和區中山路三段116號","121.476111666667","25.0062566666667","6500300","中和區"
"235003","097-UM","2017/10/30 14:49:56","新北市中和區安樂路247號","121.514048333333","24.9996083333333","6500300","中和區"
"235029","098-UM","2017/10/30 14:49:46","新北市中和區福美路269號","121.498121666667","25.0050833333333","6500300","中和區"
"235004","150-BY","2017/10/30 14:49:57","新北市中和區安和路47號","121.50916","24.9948116666667","6500300","中和區"
"235022","151-BY","2017/10/30 14:49:52","新北市中和區員山路146-1號","121.481426666667","24.9968883333333","6500300","中和區"
"235019","183-VK","2017/10/30 14:49:59","新北市中和區德光路84號","121.468985","25.0035966666667","6500300","中和區"
"235002","185-VK","2017/10/30 14:49:47","新北市中和區自立路139巷8號","121.522498333333","24.9936866666667","6500300","中和區"
"235013","186-VK","2017/10/30 14:49:44","新北市中和區中正路58號","121.501633333333","24.993695","6500300","中和區"
"235031","255-BX","2017/10/30 14:49:52","新北市中和區新生街186巷1弄31號","121.483471666667","24.9986116666667","6500300","中和區"
"235008","293-VK","2017/10/30 14:49:47","新北市中和區南山路148號","121.504225","24.9922233333333","6500300","中和區"
"235036","301-VK","2017/10/30 14:49:55","新北市中和區連城路160-1號","121.494213333333","24.99794","6500300","中和區"
"235007","352-BY","2017/10/30 14:49:47","新北市中和區景平路177號","121.511826666667","24.9924566666667","6500300","中和區"
"235015","376-QA","2017/10/30 14:49:52","新北市中和區景安路247號","121.504008333333","24.9907","6500300","中和區"
"235032","377-QA","2017/10/30 14:49:55","新北市中和區福美路258號","121.498256666667","25.005275","6500300","中和區"
"235025","378-QA","2017/10/30 14:50:00","新北市中和區興南路二段399巷35-2號","121.501375","24.9787066666667","6500300","中和區"
"235035","269-TV","2017/10/30 14:49:45","新北市中和區建康路101號","121.488196666667","25.00026","6500300","中和區"
"235014","4979-A6","2017/10/30 14:49:52","新北市中和區景平路237號","121.510075","24.992845","6500300","中和區"
"235033","4980-A6","2017/10/30 14:49:44","新北市中和區中和路98號","121.501391666667","25.0003366666667","6500300","中和區"
"235034","558-UM","2017/10/30 14:49:42","新北市中和區景平路565號","121.49807","24.9999166666667","6500300","中和區"
"235018","640-BX","2017/10/30 14:49:41","新北市中和區莒光路135號","121.472623333333","25.001665","6500300","中和區"
"235011","732-UM","2017/10/30 14:49:49","新北市中和區和平街80號","121.507721666667","24.991245","6500300","中和區"
"235010","733-UM","2017/10/30 14:49:45","新北市中和區仁愛街30號","121.510895","24.9885366666667","6500300","中和區"
"235026","800-TS","2017/10/30 14:49:56","新北市中和區建六路57號","121.486646666667","25.0021466666667","6500300","中和區"
"235021","801-TS","2017/10/30 14:49:59","新北市中和區員山路146號","121.481286666667","24.9968716666667","6500300","中和區"
"235005","802-TS","2017/10/30 14:49:57","新北市中和區安平路38號","121.509841666667","24.9951016666667","6500300","中和區"
"235016","805-TS","2017/10/30 14:49:49","新北市中和區華新街93號","121.508698333333","24.9831583333333","6500300","中和區"
"235012","896-TW","2017/10/30 14:49:57","新北市中和區四維街37巷2號","121.512338333333","24.9868833333333","6500300","中和區"
"235017","900-TW","2017/10/30 14:49:44","新北市中和區國光街215巷4弄1號","121.466378333333","25.0017983333333","6500300","中和區"
"235030","911-UM","2017/10/30 14:49:45","新北市中和區員山路370-2號","121.480856666667","25.0040066666667","6500300","中和區"
"235001","AAC-213","2017/10/30 14:49:48","新北市中和區秀朗路三段177號","121.524358333333","24.9911766666667","6500300","中和區"
"235023","AAC-215","2017/10/30 14:49:57","新北市中和區圓通路305巷5弄30號","121.494203333333","24.990245","6500300","中和區"
"220016","013-TV","2017/10/30 14:50:00","新北市板橋區中山路二段412巷29弄26號","121.484676666667","25.0201666666667","6500100","板橋區"
"220013","072-UY","2017/10/30 14:49:52","新北市板橋區民族路270巷51號","121.469165","25.0060583333333","6500100","板橋區"
"220105","075-UY","2017/10/30 14:49:58","新北市板橋區文化路二段604號","121.476968333333","25.03494","6500100","板橋區"
"220017","AAD-861","2017/10/30 14:49:50","新北市板橋區南雅南路二段7巷12號","121.454371666667","25.00291","6500100","板橋區"
"247021","893-R6","2017/10/30 14:49:54","新北市蘆洲區中正路472號","121.462295","25.0953483333333","6501400","蘆洲區"
"247011","546-UM","2017/10/30 14:49:40","新北市蘆洲區集賢路224巷1號","121.482148333333","25.0867433333333","6501400","蘆洲區"
"247019","500-BY","2017/10/30 14:49:39","新北市蘆洲區民義街70號","121.473226666667","25.0898433333333","6501400","蘆洲區"
"247009","339-TH","2017/10/30 14:49:56","新北市蘆洲區永安南路二段96號","121.463453333333","25.0777283333333","6501400","蘆洲區"
"247001","337-TH","2017/10/30 14:49:42","新北市蘆洲區長安街258號","121.457558333333","25.08651","6501400","蘆洲區"
"247015","057-VK","2017/10/30 14:49:22","新北市蘆洲區正和街96巷12號","121.46789","25.0810083333333","6501400","蘆洲區"
"247007","053-VK","2017/10/30 14:49:57","新北市蘆洲區民生街2巷7號","121.475458333333","25.079705","6501400","蘆洲區"
"247013","007-UY","2017/10/30 14:49:48","新北市蘆洲區成功路137號","121.472291666667","25.0824233333333","6501400","蘆洲區"
"247023","002-UY","2017/10/30 14:49:51","新北市蘆洲區中山二路291號","121.469223333333","25.0787266666667","6501400","蘆洲區"
"208004","AAC-292","2017/10/30 14:49:54","新北市金山區兩湖里倒照湖33號","121.591796666667","25.2377033333333","6502700","金山區"
"207002","749-BX","2017/10/30 14:49:50","新北市萬里區崁腳里崁腳路73號","121.647628333333","25.1596216666667","6502800","萬里區"
"207001","662-BX","2017/10/30 14:43:13","新北市萬里區雙興里豐稟路21-1號","121.640405","25.1859516666667","6502800","萬里區"
"236064","105-UM","2017/10/30 14:49:44","新北市土城區明德路一段398-1號","121.453518333333","24.979185","6501300","土城區"
"236040","107-UM","2017/10/30 14:49:54","新北市土城區裕民路114巷1-2號","121.450785","24.98619","6501300","土城區"
"236074","166-UM","2017/10/30 14:49:51","新北市土城區中央路四段67巷42號","121.418016666667","24.957115","6501300","土城區"
"236028","253-BX","2017/10/30 14:49:45","新北市土城區忠義路26巷19號","121.439706666667","24.9698083333333","6501300","土城區"
"236024","269-VK","2017/10/30 14:49:54","新北市土城區慶安街62號","121.44088","24.973045","6501300","土城區"
"236012","270-VK","2017/10/30 14:49:57","新北市土城區金城路二段364號","121.46235","24.985305","6501300","土城區"
"236032","271-VK","2017/10/30 14:49:54","新北市土城區明德路一段195巷3弄5號","121.464285","24.9785683333333","6501300","土城區"
"236016","401-BY","2017/10/30 14:49:59","新北市土城區延吉街253巷1號","121.467705","24.9847633333333","6501300","土城區"
"236056","912-UM","2017/10/30 14:49:59","新北市土城區中央路三段93號","121.437555","24.9676716666667","6501300","土城區"
"236044","913-UM","2017/10/30 14:49:39","新北市板橋區廣權路2號","121.460263333333","24.9907016666667","6501300","土城區"
"236060","915-UM","2017/10/30 14:49:49","新北市土城區延和路177巷18號","121.470065","24.9907583333333","6501300","土城區"
"236052","AAC-216","2017/10/30 14:49:43","新北市土城區裕民路202號","121.453263333333","24.9847283333333","6501300","土城區"
"242001","233-RS","2017/10/30 09:08:54","新北市新莊區環河路48-7號","121.436911666667","25.0097733333333","6500500","新莊區"
"238018","571-TV","2017/10/30 14:49:44","新北市樹林區育德街78號","121.387875","24.968315","6500700","樹林區"
"238020","308-TH","2017/10/30 14:49:58","新北市樹林區中山路三段204號","121.386838333333","24.9682483333333","6500700","樹林區"
"220027","145-BY","2017/10/30 14:50:01","新北市板橋區建國街54巷12號","121.459433333333","25.0168683333333","6500100","板橋區"
"220028","200-UY","2017/10/30 14:49:50","新北市板橋區大觀路二段37巷26號","121.447631666667","25.0026783333333","6500100","板橋區"
"220030","610-BX","2017/10/30 14:49:41","新北市板橋區大觀路三段236-15號","121.429548333333","24.992145","6500100","板橋區"
"220050","245-BX","2017/10/30 14:49:47","新北市板橋區莊敬路255號","121.473535","25.0215766666667","6500100","板橋區"
"220004","276-BY","2017/10/30 14:49:45","新北市板橋區四川路二段99巷2弄2-3號","121.452698333333","24.9944433333333","6500100","板橋區"
"220020","277-BY","2017/10/30 14:49:58","新北市板橋區金門街215巷6號","121.43304","24.9897433333333","6500100","板橋區"
"220043","283-UM","2017/10/30 14:49:54","新北市板橋區長江路二段41號","121.463871666667","25.0310716666667","6500100","板橋區"
"220019","283-VK","2017/10/30 14:49:56","新北市板橋區五權街30巷9號","121.464393333333","24.9932883333333","6500100","板橋區"
"220001","285-VK","2017/10/30 14:49:53","新北市板橋區中山路二段60巷6號","121.474151666667","25.0152933333333","6500100","板橋區"
"220031","286-VK","2017/10/30 14:49:46","新北市板橋區僑中一街125巷6弄2號","121.44551","25.011445","6500100","板橋區"
"220029","287-VK","2017/10/30 14:49:58","新北市板橋區大觀路一段29巷91號","121.450518333333","25.0063716666667","6500100","板橋區"
"220039","288-VK","2017/10/30 14:49:49","新北市板橋區龍泉街82巷14弄23號","121.456043333333","25.0262483333333","6500100","板橋區"
"220009","293-UM","2017/10/30 14:49:47","新北市板橋區板新路128號","121.470958333333","25.01569","6500100","板橋區"
"220032","296-UM","2017/10/30 14:49:44","新北市板橋區溪崑二街118巷2號","121.426121666667","24.98833","6500100","板橋區"
"220023","297-UM","2017/10/30 14:49:56","新北市板橋區大勇街15號","121.454683333333","25.0172416666667","6500100","板橋區"
"220010","305-R5","2017/10/30 14:49:58","新北市板橋區光復街52巷1號","121.482126666667","25.0180783333333","6500100","板橋區"
"220041","307-R5","2017/10/30 14:49:42","新北市板橋區四維路259巷66號","121.460435","25.0266966666667","6500100","板橋區"
"220047","317-R6","2017/10/30 14:49:54","新北市板橋區四維路269巷94弄18號","121.45938","25.0269866666667","6500100","板橋區"
"220012","486-VK","2017/10/30 14:49:55","新北市板橋區公園街36-1號","121.462325","25.0083533333333","6500100","板橋區"
"220038","487-VK","2017/10/30 14:49:40","新北市板橋區龍泉街133號","121.457673333333","25.0238533333333","6500100","板橋區"
"220037","491-VK","2017/10/30 14:49:51","新北市板橋區文化路二段528號","121.475981666667","25.0340033333333","6500100","板橋區"
"220104","560-BX","2017/10/30 14:49:48","新北市板橋區金華街101號","121.458643333333","25.0208516666667","6500100","板橋區"
"220052","561-BX","2017/10/30 14:49:46","新北市板橋區陽明街23巷8弄24號","121.465178333333","25.0208966666667","6500100","板橋區"
"220011","609-BX","2017/10/30 14:50:01","新北市板橋區三民路一段31巷17弄4號","121.48022","25.0235116666667","6500100","板橋區"
"220040","637-BX","2017/10/30 14:49:49","新北市板橋區懷德街131號","121.479136666667","25.0305716666667","6500100","板橋區"
"220005","686-BX","2017/10/30 14:49:47","新北市板橋區廣和街79號","121.462695","24.99213","6500100","板橋區"
"220025","687-BX","2017/10/30 14:49:55","新北市板橋區僑中三街40號","121.445313333333","25.00499","6500100","板橋區"
"220042","689-BX","2017/10/30 14:49:54","新北市板橋區長江路一段93-3號","121.45917","25.0294583333333","6500100","板橋區"
"220002","741-BX","2017/10/30 14:49:50","新北市板橋區忠孝路忠義巷18弄1號","121.466363333333","25.0038233333333","6500100","板橋區"
"220003","827-TW","2017/10/30 14:49:50","新北市板橋區仁愛路76巷3弄1號","121.46059","24.99928","6500100","板橋區"
"220014","829-TW","2017/10/30 14:49:59","新北市板橋區漢生東路193巷69弄6號","121.472401666667","25.0121533333333","6500100","板橋區"
"220051","830-TW","2017/10/30 14:49:53","新北市板橋區仁化街64巷14號","121.475736666667","25.031525","6500100","板橋區"
"220045","831-TW","2017/10/30 14:49:59","新北市板橋區莊敬路137號","121.47178","25.0251333333333","6500100","板橋區"
"220022","895-R6","2017/10/30 14:49:54","新北市板橋區府中路5號","121.459875","25.0096583333333","6500100","板橋區"
"220021","985-R7","2017/10/30 14:49:56","新北市板橋區大仁街52號","121.454861666667","25.0166433333333","6500100","板橋區"
"220046","AAC-210","2017/10/30 14:49:44","新北市板橋區文化路一段307巷3號","121.464693333333","25.0192683333333","6500100","板橋區"
"220018","AAC-253","2017/10/30 14:50:02","新北市板橋區民族路233號","121.469858333333","25.0071166666667","6500100","板橋區"
