"lineid","car","time","location","longitude","latitude","cityid","cityname"
"234012","149-BY","2017/10/30 15:59:55","新北市永和區環河西路二段7-11號","121.509176666667","25.0169133333333","6500400","永和區"
"234005","207-UY","2017/10/30 15:59:52","新北市八里區荖阡坑路15-66號","121.398538333333","25.13987","6500400","永和區"
"248010","272-BY","2017/10/30 15:17:46","新北市五股區中興路二段83巷26-6號","121.460063333333","25.0750383333333","6501500","五股區"
"234066","AAC-212","2017/10/30 15:59:56","新北市永和區環河東路一段122號","121.520596666667","25.0155916666667","6500400","永和區"
"244024","742-UY","2017/10/30 09:32:50","新北市林口區粉寮路二段160巷28號","121.405115","25.0907283333333","6501700","林口區"
"244020","838-TS","2017/10/30 09:21:43","新北市林口區粉寮69號","121.404823333333","25.0908083333333","6501700","林口區"
"243009","297-R6","2017/10/30 15:44:50","新北市泰山區黎明路25號","121.421986666667","25.06097","6501600","泰山區"
"231030","047-UY","2017/10/30 15:59:48","新北市新店區永平街27號","121.51689","24.9834366666667","6500600","新店區"
"231011","108-UY","2017/10/30 15:59:55","新北市新店區中央路127巷2號","121.530698333333","24.9739133333333","6500600","新店區"
"231019","187-VK","2017/10/30 15:59:53","新北市新店區安康路一段20號","121.531135","24.9610616666667","6500600","新店區"
"231014","KEA-2219","2017/10/30 15:59:53","新北市新店區中華路143號","121.538211666667","24.970125","6500600","新店區"
"231026","256-BX","2017/10/30 15:59:46","新北市新店區民生路23號","121.53278","24.98646","6500600","新店區"
"231046","278-BY","2017/10/30 15:59:51","新北市新店區安華路28-1號","121.519686666667","24.96116","6500600","新店區"
"231025","4716-K9","2017/10/30 15:59:53","新北市新店區安華路30巷1號","121.519098333333","24.9593416666667","6500600","新店區"
"231038","4715-K9","2017/10/30 15:59:47","新北市新店區安康路二段228巷35弄5號","121.509386666667","24.9601166666667","6500600","新店區"
"231035","515-UM","2017/10/30 15:59:42","新北市新店區安民街231號","121.516721666667","24.9724966666667","6500600","新店區"
"231034","645-TV","2017/10/30 16:00:00","新北市新店區吉祥街5巷2號","121.497325","24.94759","6500600","新店區"
"231013","719-UM","2017/10/30 15:59:58","新北市新店區安康路一段258號","121.520443333333","24.963945","6500600","新店區"
"231018","719-UY","2017/10/30 15:59:59","新北市新店區中正路663巷7弄15號","121.532955","24.9901566666667","6500600","新店區"
"231037","AKT-0513","2017/10/30 15:59:44","新北市新店區吉安街9號","121.516765","24.9656983333333","6500600","新店區"
"241011","013-R5","2017/10/30 15:59:51","新北市三重區雙園街1巷1號","121.496976666667","25.0680416666667","6500200","三重區"
"241028","022-UY","2017/10/30 15:59:57","新北市三重區電信街75-1號","121.496051666667","25.05829","6500200","三重區"
"241008","059-VK","2017/10/30 15:59:42","新北市三重區重新路四段121號","121.485241666667","25.05061","6500200","三重區"
"241015","062-VK","2017/10/30 15:59:45","新北市三重區重新路四段121號","121.485148333333","25.052055","6500200","三重區"
"241017","063-VK","2017/10/30 15:59:44","新北市三重區大仁街48巷51號","121.49055","25.0643633333333","6500200","三重區"
"241024","065-VK","2017/10/30 15:59:57","新北市三重區中正北路145巷5弄10號","121.484806666667","25.0671866666667","6500200","三重區"
"241026","066-VK","2017/10/30 15:59:42","新北市三重區重新路三段52號","121.494013333333","25.0613383333333","6500200","三重區"
"241002","090-VK","2017/10/30 15:59:43","新北市三重區自強路四段32-2號","121.489011666667","25.0769066666667","6500200","三重區"
"241003","091-VK","2017/10/30 15:59:42","新北市三重區自強路五段100號","121.496718333333","25.083675","6500200","三重區"
"241005","262-UM","2017/10/30 15:59:59","新北市三重區五華街182號","121.48885","25.08634","6500200","三重區"
"241032","265-UM","2017/10/30 15:59:33","新北市三重區重新路四段121號","121.484651666667","25.0521233333333","6500200","三重區"
"241016","266-UM","2017/10/30 15:59:51","新北市三重區重新路四段121號","121.485138333333","25.0521133333333","6500200","三重區"
"241022","267-UM","2017/10/30 15:59:54","新北市三重區中正北路176巷16號","121.482758333333","25.0658183333333","6500200","三重區"
"241013","270-UM","2017/10/30 15:59:54","新北市三重區三和路三段16巷34號","121.49607","25.069865","6500200","三重區"
"241025","271-UM","2017/10/30 15:59:46","新北市三重區三民街166號","121.482328333333","25.0654916666667","6500200","三重區"
"241007","398-BY","2017/10/30 15:59:52","新北市三重區力行路二段49-1號","121.481918333333","25.074085","6500200","三重區"
"241020","413-TH","2017/10/30 15:59:57","新北市三重區車路頭街4巷23號","121.483165","25.070245","6500200","三重區"
"241014","543-UM","2017/10/30 15:59:48","新北市三重區重新路四段121號","121.485096666667","25.0520683333333","6500200","三重區"
"241023","545-UM","2017/10/30 15:59:44","新北市三重區中正北路119號","121.483351666667","25.0669816666667","6500200","三重區"
"241001","547-UM","2017/10/30 15:59:46","新北市三重區新北大道一段250號","121.479891666667","25.06141","6500200","三重區"
"241006","AAD-863","2017/10/30 15:59:14","新北市三重區過圳街7巷1號","121.48953","25.0585233333333","6500200","三重區"
"241012","941-UM","2017/10/30 15:59:46","新北市三重區正義北路107巷5號","121.497356666667","25.0657116666667","6500200","三重區"
"241029","942-UM","2017/10/30 15:59:42","新北市三重區大同南路212巷11號","121.497215","25.0565533333333","6500200","三重區"
"241033","AAC-255","2017/10/30 15:59:49","新北市三重區重新路五段440號","121.474843333333","25.047455","6500200","三重區"
"235026","800-TS","2017/10/30 15:59:49","新北市中和區永和路191巷5號","121.491383333333","25.00699","6500300","中和區"
"247007","053-VK","2017/10/30 15:59:57","新北市五股區中興路二段182巷3號","121.456866666667","25.078275","6501400","蘆洲區"
"224007","273-VK","2017/10/30 15:59:43","新北市瑞芳區粗坑口路1巷1-3號","121.762593333333","25.0966783333333","6501200","瑞芳區"
"224005","271-BY","2017/10/30 16:00:02","新北市瑞芳區明燈路二段66號","121.809308333333","25.1077033333333","6501200","瑞芳區"
"227001","642-TC","2017/10/30 15:59:59","新北市雙溪區平林里外平林71號","121.842115","25.0349316666667","6502500","雙溪區"
"227008","400-TW","2017/10/30 15:59:50","新北市雙溪區三港里雙澳路40號","121.872976666667","25.051595","6502500","雙溪區"
"236064","105-UM","2017/10/30 15:59:43","新北市土城區福安街102巷5弄15號","121.417013333333","24.9650733333333","6501300","土城區"
"236040","107-UM","2017/10/30 15:59:54","新北市樹林區環河路600號","121.404673333333","24.96892","6501300","土城區"
"236056","912-UM","2017/10/30 15:59:58","新北市土城區中央路二段225號","121.44045","24.97272","6501300","土城區"
"236052","AAC-216","2017/10/30 15:59:43","新北市土城區中華路二段62號","121.438831666667","24.9765433333333","6501300","土城區"
"242001","233-RS","2017/10/30 09:08:54","新北市新莊區環河路48-7號","121.436911666667","25.0097733333333","6500500","新莊區"
"238002","755-BX","2017/10/30 15:59:54","新北市樹林區文德街29號","121.418128333333","24.9920233333333","6500700","樹林區"
"238010","601-UM","2017/10/30 15:59:59","新北市樹林區福興街31號","121.404265","25.0157083333333","6500700","樹林區"
"238006","599-UM","2017/10/30 15:59:45","新北市樹林區國凱街140巷6號","121.42388","24.9804266666667","6500700","樹林區"
"238005","571-TV","2017/10/30 15:59:44","新北市樹林區鎮前街132號","121.424765","24.9907016666667","6500700","樹林區"
"238011","5061-A6","2017/10/30 15:59:43","新北市樹林區山佳街57號","121.392996666667","24.9726716666667","6500700","樹林區"
"238008","KEA-2217","2017/10/30 15:59:55","新北市樹林區柑園街二段149巷27號","121.382856666667","24.953035","6500700","樹林區"
"238009","KEA-2213","2017/10/30 15:59:49","新北市樹林區太順街86-2號","121.417141666667","24.9787216666667","6500700","樹林區"
"238003","308-TH","2017/10/30 15:59:58","新北市樹林區日新街143號","121.420606666667","24.9885916666667","6500700","樹林區"
"238012","303-VK","2017/10/30 15:59:44","新北市樹林區保安街一段68號","121.425001666667","24.9942233333333","6500700","樹林區"
"238004","283-BY","2017/10/30 15:59:53","新北市樹林區保安街二段197巷4號","121.4138","25.003305","6500700","樹林區"
"238001","282-BY","2017/10/30 15:59:50","新北市樹林區千歲街6巷7號","121.42531","24.9955916666667","6500700","樹林區"
"238007","268-VK","2017/10/30 15:59:59","新北市樹林區三俊街199巷10-9號","121.420163333333","25.0164333333333","6500700","樹林區"
"238013","172-UY","2017/10/30 15:59:59","新北市樹林區佳園路一段50號","121.392818333333","24.9706383333333","6500700","樹林區"
"220010","305-R5","2017/10/30 15:58:19","新北市林口區太平里180號","121.368213333333","25.134785","6500100","板橋區"
