"lineid","car","time","location","longitude","latitude","cityid","cityname"
"234012","149-BY","2017/10/30 16:29:38","新北市永和區福和路1號","121.526601666667","25.01009","6500400","永和區"
"234005","207-UY","2017/10/30 16:28:28","新北市永和區福和路1號","121.526663333333","25.0100433333333","6500400","永和區"
"249002","305-UY","2017/10/30 16:29:48","新北市八里區挖子尾街12號","121.415485","25.1644466666667","6502300","八里區"
"248010","272-BY","2017/10/30 15:17:46","新北市五股區中興路二段83巷26-6號","121.460063333333","25.0750383333333","6501500","五股區"
"234066","AAC-212","2017/10/30 16:29:56","新北市永和區福和路1號","121.52636","25.009685","6500400","永和區"
"244024","742-UY","2017/10/30 09:32:50","新北市林口區粉寮路二段160巷28號","121.405115","25.0907283333333","6501700","林口區"
"244020","838-TS","2017/10/30 09:21:43","新北市林口區粉寮69號","121.404823333333","25.0908083333333","6501700","林口區"
"243009","297-R6","2017/10/30 15:44:50","新北市泰山區黎明路25號","121.421986666667","25.06097","6501600","泰山區"
"231014","KEA-2219","2017/10/30 16:29:53","新北市新店區薏仁坑路自強巷1號","121.497426666667","24.9576116666667","6500600","新店區"
"231046","278-BY","2017/10/30 16:29:51","新北市新店區灣潭路3-3號","121.53823","24.950815","6500600","新店區"
"241011","013-R5","2017/10/30 16:29:51","新北市三重區秀江街49號","121.5011","25.07265","6500200","三重區"
"241028","022-UY","2017/10/30 16:29:57","新北市三重區中正南路188號","121.493911666667","25.0561233333333","6500200","三重區"
"241008","059-VK","2017/10/30 16:29:42","新北市三重區力行路二段136巷45弄16號","121.479123333333","25.0755283333333","6500200","三重區"
"241031","061-VK","2017/10/30 16:29:47","新北市三重區重陽路一段59號","121.486706666667","25.0585866666667","6500200","三重區"
"241015","062-VK","2017/10/30 16:29:45","新北市三重區福德北路40號","121.501758333333","25.0652333333333","6500200","三重區"
"241017","063-VK","2017/10/30 16:29:51","新北市三重區大同北路27號","121.495368333333","25.0626516666667","6500200","三重區"
"241024","065-VK","2017/10/30 16:29:57","新北市三重區中正北路193巷39號","121.47569","25.0708916666667","6500200","三重區"
"241026","066-VK","2017/10/30 16:29:41","新北市三重區文化南路42號","121.500361666667","25.0603883333333","6500200","三重區"
"241002","090-VK","2017/10/30 16:29:43","新北市三重區五華街10號","121.495021666667","25.0800616666667","6500200","三重區"
"241003","091-VK","2017/10/30 16:30:01","新北市三重區仁義街220巷31號","121.494221666667","25.0835966666667","6500200","三重區"
"241005","262-UM","2017/10/30 16:29:59","新北市三重區溪尾街289號","121.487501666667","25.08301","6500200","三重區"
"241032","265-UM","2017/10/30 16:29:53","新北市三重區三陽路100巷3弄13號","121.483003333333","25.0581233333333","6500200","三重區"
"241016","266-UM","2017/10/30 16:29:51","新北市三重區大智街23號","121.494215","25.0659183333333","6500200","三重區"
"241022","267-UM","2017/10/30 16:29:54","新北市三重區新北大道一段86巷9號","121.486036666667","25.061925","6500200","三重區"
"241018","268-UM","2017/10/30 16:29:59","新北市三重區重陽路四段18號","121.490848333333","25.0690883333333","6500200","三重區"
"241013","270-UM","2017/10/30 16:29:54","新北市三重區三和路三段83巷120號","121.49784","25.0731933333333","6500200","三重區"
"241025","271-UM","2017/10/30 16:30:02","新北市三重區中正北路560巷100弄17-1號","121.47267","25.0683233333333","6500200","三重區"
"241007","398-BY","2017/10/30 16:29:52","新北市三重區三和路四段167巷170號","121.487775","25.0802866666667","6500200","三重區"
"241009","KEA-2210","2017/10/30 16:29:57","新北市三重區仁美街96巷5號","121.485398333333","25.08009","6500200","三重區"
"241020","413-TH","2017/10/30 16:29:57","新北市三重區車路頭街50號","121.483901666667","25.0721416666667","6500200","三重區"
"241004","475-VK","2017/10/30 16:29:55","新北市三重區仁愛街377巷26號","121.492053333333","25.080695","6500200","三重區"
"241019","478-VK","2017/10/30 16:29:52","新北市三重區重陽路三段180號","121.490133333333","25.068075","6500200","三重區"
"241030","480-VK","2017/10/30 16:29:46","新北市三重區成功路90號","121.488088333333","25.05125","6500200","三重區"
"241014","543-UM","2017/10/30 16:29:48","新北市三重區河邊北街70-3號","121.504388333333","25.068395","6500200","三重區"
"241023","545-UM","2017/10/30 16:29:44","新北市三重區忠孝路三段50巷53號","121.483196666667","25.06424","6500200","三重區"
"241001","547-UM","2017/10/30 16:29:52","新北市三重區福隆路52號","121.492578333333","25.0786533333333","6500200","三重區"
"241006","AAD-863","2017/10/30 16:29:46","新北市三重區永福街10巷7-1號","121.483241666667","25.0777566666667","6500200","三重區"
"241012","941-UM","2017/10/30 16:30:01","新北市三重區河邊北街379-1號","121.501753333333","25.0765283333333","6500200","三重區"
"241029","942-UM","2017/10/30 16:29:41","新北市三重區集美街128號","121.489085","25.053485","6500200","三重區"
"241033","AAC-255","2017/10/30 16:29:49","新北市三重區五谷王北街2巷14號","121.474235","25.047845","6500200","三重區"
"235064","005-UY","2017/10/30 16:29:11","新北市中和區員山路36巷16-3號","121.48513","24.9912866666667","6500300","中和區"
"235026","800-TS","2017/10/30 16:29:49","新北市中和區連城路263-2號","121.49154","24.99647","6500300","中和區"
"224006","676-BX","2017/10/30 16:29:48","新北市瑞芳區明燈路二段66號","121.809491666667","25.107545","6501200","瑞芳區"
"224008","275-VK","2017/10/30 16:29:55","新北市瑞芳區逢甲路20-1號","121.809325","25.1084083333333","6501200","瑞芳區"
"224007","273-VK","2017/10/30 16:29:43","新北市瑞芳區瑞竹路91-1號","121.76397","25.1030066666667","6501200","瑞芳區"
"224005","271-BY","2017/10/30 16:29:42","新北市瑞芳區瑞芳街32-10號","121.822048333333","25.1207566666667","6501200","瑞芳區"
"227001","642-TC","2017/10/30 16:29:39","新北市雙溪區上林里內平林120-2號","121.824468333333","25.0262783333333","6502500","雙溪區"
"227008","400-TW","2017/10/30 16:29:50","新北市雙溪區三港里雙澳路38號","121.87143","25.050575","6502500","雙溪區"
"251008","181-VK","2017/10/30 16:30:01","新北市淡水區樹梅坑10-1號","121.474283333333","25.14174","6501000","淡水區"
"251013","182-VK","2017/10/30 16:29:46","新北市淡水區行忠路332號","121.4637","25.199335","6501000","淡水區"
"251015","442-VK","2017/10/30 16:29:50","新北市淡水區忠愛街2-3號","121.455945","25.1717116666667","6501000","淡水區"
"242001","233-RS","2017/10/30 09:08:54","新北市新莊區環河路48-7號","121.436911666667","25.0097733333333","6500500","新莊區"
"238004","283-BY","2017/10/30 16:29:53","新北市樹林區中正路433-2號","121.414921666667","25.0083616666667","6500700","樹林區"
"238001","282-BY","2017/10/30 16:29:50","新北市樹林區大慶街99-1號","121.427705","24.9998383333333","6500700","樹林區"
"220010","305-R5","2017/10/30 16:29:58","新北市板橋區民生路二段120號","121.470443333333","25.01967","6500100","板橋區"
