"lineid","car","time","location","longitude","latitude","cityid","cityname"
"234012","149-BY","2017/10/30 16:49:58","新北市永和區福和路1號","121.526516666667","25.0099933333333","6500400","永和區"
"234005","207-UY","2017/10/30 16:49:50","新北市永和區福和路1號","121.526668333333","25.0100466666667","6500400","永和區"
"249005","172-UM","2017/10/30 16:49:51","新北市八里區大堀湖2-3號","121.42261","25.153775","6502300","八里區"
"249001","173-UM","2017/10/30 16:49:51","新北市八里區挖子尾街10號","121.415425","25.164235","6502300","八里區"
"249002","305-UY","2017/10/30 16:49:48","新北市八里區牛寮埔31號","121.429878333333","25.1457516666667","6502300","八里區"
"249003","593-UM","2017/10/30 16:49:41","新北市八里區博物館路201號","121.405056666667","25.156215","6502300","八里區"
"248010","272-BY","2017/10/30 15:17:46","新北市五股區中興路二段83巷26-6號","121.460063333333","25.0750383333333","6501500","五股區"
"234066","AAC-212","2017/10/30 16:49:56","新北市永和區福和路1號","121.52635","25.009675","6500400","永和區"
"244007","080-UY","2017/10/30 16:49:38","新北市林口區林口路92-1號","121.388898333333","25.0810283333333","6501700","林口區"
"244024","742-UY","2017/10/30 09:32:50","新北市林口區粉寮路二段160巷28號","121.405115","25.0907283333333","6501700","林口區"
"244011","701-TV","2017/10/30 16:49:55","新北市林口區粉寮路二段160巷28號","121.405156666667","25.090775","6501700","林口區"
"244020","838-TS","2017/10/30 16:49:42","新北市林口區粉寮69號","121.404836666667","25.0908183333333","6501700","林口區"
"243009","297-R6","2017/10/30 15:44:50","新北市泰山區黎明路25號","121.421986666667","25.06097","6501600","泰山區"
"231046","278-BY","2017/10/30 16:49:51","新北市新店區灣潭路15-8號","121.54122","24.9393316666667","6500600","新店區"
"241011","013-R5","2017/10/30 16:49:51","新北市三重區仁愛街53巷180號","121.500215","25.0729133333333","6500200","三重區"
"241028","022-UY","2017/10/30 16:49:57","新北市三重區光興街93號","121.497318333333","25.05995","6500200","三重區"
"241008","059-VK","2017/10/30 16:49:42","新北市三重區永福街179巷31號","121.477791666667","25.0751433333333","6500200","三重區"
"241031","061-VK","2017/10/30 16:49:47","新北市三重區新北大道一段15巷2號","121.487978333333","25.0605266666667","6500200","三重區"
"241015","062-VK","2017/10/30 16:49:45","新北市三重區長元西街1號","121.498743333333","25.0656383333333","6500200","三重區"
"241017","063-VK","2017/10/30 16:49:44","新北市三重區國隆路2巷24號","121.492611666667","25.063135","6500200","三重區"
"241024","065-VK","2017/10/30 16:49:57","新北市三重區中正北路317巷1號","121.473933333333","25.0720566666667","6500200","三重區"
"241026","066-VK","2017/10/30 16:50:01","新北市三重區文化南路7號","121.500013333333","25.0623483333333","6500200","三重區"
"241002","090-VK","2017/10/30 16:49:43","新北市三重區仁義街241巷4號","121.496448333333","25.08277","6500200","三重區"
"241003","091-VK","2017/10/30 16:50:01","新北市三重區五華街87巷16號","121.492511666667","25.083775","6500200","三重區"
"241005","262-UM","2017/10/30 16:49:39","新北市三重區仁華街80巷14號","121.484541666667","25.0835433333333","6500200","三重區"
"241032","265-UM","2017/10/30 16:49:55","新北市三重區重陽路一段120巷39號","121.484973333333","25.060325","6500200","三重區"
"241016","266-UM","2017/10/30 16:49:51","新北市三重區大同北路117號","121.494095","25.0643716666667","6500200","三重區"
"241022","267-UM","2017/10/30 16:49:54","新北市三重區中華路111巷20號","121.484328333333","25.0634783333333","6500200","三重區"
"241018","268-UM","2017/10/30 16:49:39","新北市三重區安慶街149巷11號","121.494476666667","25.0692333333333","6500200","三重區"
"241013","270-UM","2017/10/30 16:49:54","新北市三重區三和路三段101巷98號","121.497236666667","25.0733033333333","6500200","三重區"
"241025","271-UM","2017/10/30 16:49:42","新北市三重區中正北路530巷11號","121.471938333333","25.0706733333333","6500200","三重區"
"241007","398-BY","2017/10/30 16:49:52","新北市三重區三和路四段181巷80號","121.484381666667","25.07954","6500200","三重區"
"241009","KEA-2210","2017/10/30 16:49:57","新北市三重區三和路四段203巷211號","121.486545","25.080715","6500200","三重區"
"241020","413-TH","2017/10/30 16:49:57","新北市三重區忠孝路二段34號","121.485823333333","25.0708883333333","6500200","三重區"
"241004","475-VK","2017/10/30 16:49:55","新北市三重區仁愛街397巷22號","121.491576666667","25.0812533333333","6500200","三重區"
"241019","478-VK","2017/10/30 16:49:52","新北市三重區力行路一段179巷17弄2號","121.485298333333","25.07","6500200","三重區"
"241030","480-VK","2017/10/30 16:49:45","新北市三重區新興路2巷3號","121.492611666667","25.0527066666667","6500200","三重區"
"241014","543-UM","2017/10/30 16:49:48","新北市三重區長榮路75號","121.502548333333","25.06909","6500200","三重區"
"241023","545-UM","2017/10/30 16:49:44","新北市三重區中華路76巷27號","121.482471666667","25.0625716666667","6500200","三重區"
"241001","547-UM","2017/10/30 16:49:46","新北市三重區仁政街54巷7號","121.492663333333","25.0769066666667","6500200","三重區"
"241006","AAD-863","2017/10/30 16:49:52","新北市三重區力行路二段164號","121.482916666667","25.0766133333333","6500200","三重區"
"241012","941-UM","2017/10/30 16:49:41","新北市三重區仁興街11巷28號","121.500488333333","25.0743383333333","6500200","三重區"
"241029","942-UM","2017/10/30 16:49:41","新北市三重區集美街175號","121.491421666667","25.0541633333333","6500200","三重區"
"241033","AAC-255","2017/10/30 16:49:49","新北市三重區新北大道二段95號","121.467273333333","25.0614866666667","6500200","三重區"
"235064","005-UY","2017/10/30 16:29:11","新北市中和區員山路36巷16-3號","121.48513","24.9912866666667","6500300","中和區"
"235062","800-TS","2017/10/30 16:45:15","新北市中和區員山路36巷16-3號","121.484843333333","24.991535","6500300","中和區"
"247012","546-UM","2017/10/30 16:49:56","新北市蘆洲區中正路520巷18號","121.464993333333","25.0995083333333","6501400","蘆洲區"
"247010","339-TH","2017/10/30 16:49:56","新北市蘆洲區信義路222巷2號","121.479281666667","25.0852233333333","6501400","蘆洲區"
"247004","336-TH","2017/10/30 16:49:49","新北市蘆洲區長榮路151號","121.46178","25.08398","6501400","蘆洲區"
"247016","057-VK","2017/10/30 16:49:50","新北市蘆洲區正和街3號","121.470393333333","25.0827016666667","6501400","蘆洲區"
"247006","056-VK","2017/10/30 16:49:58","新北市蘆洲區永安南路二段132-1號","121.462593333333","25.078595","6501400","蘆洲區"
"247014","007-UY","2017/10/30 16:49:54","新北市蘆洲區三民路89號","121.47422","25.084655","6501400","蘆洲區"
"247018","001-UY","2017/10/30 16:49:48","新北市蘆洲區民族路422巷82弄19號","121.474123333333","25.0952516666667","6501400","蘆洲區"
"228003","097-TW","2017/10/30 16:49:56","新北市貢寮區貢寮里朝陽街1-2號","121.912353333333","25.0212283333333","6502600","貢寮區"
"228002","585-TW","2017/10/30 16:49:56","新北市貢寮區貢寮里朝陽街124號","121.907921666667","25.022465","6502600","貢寮區"
"228001","670-TC","2017/10/30 16:49:48","新北市貢寮區貢寮里朝陽街1-2號","121.912348333333","25.0213466666667","6502600","貢寮區"
"224010","AGQ-8101","2017/10/30 08:51:26","新北市瑞芳區民權街3-1號","121.80921","25.10797","6501200","瑞芳區"
"224006","676-BX","2017/10/30 16:49:59","新北市瑞芳區大寮路356-1號","121.78486","25.1032583333333","6501200","瑞芳區"
"224009","285-BY","2017/10/30 16:49:52","新北市瑞芳區中山路340號","121.796168333333","25.1101616666667","6501200","瑞芳區"
"224008","275-VK","2017/10/30 16:49:55","新北市瑞芳區逢甲路20-1號","121.809368333333","25.1084533333333","6501200","瑞芳區"
"224007","273-VK","2017/10/30 16:49:43","新北市瑞芳區中央路48巷吉祥園8號","121.759515","25.10365","6501200","瑞芳區"
"224005","271-BY","2017/10/30 16:49:50","新北市瑞芳區洞頂路8-1號","121.862281666667","25.1215766666667","6501200","瑞芳區"
"227001","642-TC","2017/10/30 16:49:39","新北市雙溪區外柑里外柑腳71號","121.80712","25.0176083333333","6502500","雙溪區"
"227008","400-TW","2017/10/30 16:49:50","新北市雙溪區牡丹里石6-1號","121.865116666667","25.0554183333333","6502500","雙溪區"
"251007","179-VK","2017/10/30 16:49:52","新北市淡水區中正路二段31號","121.419585","25.1815583333333","6501000","淡水區"
"251008","181-VK","2017/10/30 16:49:41","台北市北投區中央北路四段30巷150-1號","121.473878333333","25.1402783333333","6501000","淡水區"
"251013","182-VK","2017/10/30 16:49:46","新北市淡水區北新路三段171-1號","121.491566666667","25.1921283333333","6501000","淡水區"
"251010","413-VK","2017/10/30 16:50:00","新北市淡水區中正路二段31號","121.419438333333","25.18145","6501000","淡水區"
"251012","441-VK","2017/10/30 16:49:57","新北市淡水區中正路二段31號","121.419666666667","25.1815183333333","6501000","淡水區"
"251015","442-VK","2017/10/30 16:49:50","新北市淡水區忠愛街5-2號","121.4606","25.1716766666667","6501000","淡水區"
"251005","443-VK","2017/10/30 16:49:46","新北市淡水區中正路二段31號","121.419585","25.18146","6501000","淡水區"
"251011","650-BX","2017/10/30 16:49:42","新北市淡水區中正路二段31號","121.419438333333","25.1817683333333","6501000","淡水區"
"252002","178-VK","2017/10/30 16:49:42","新北市三芝區忠孝街173號","121.505418333333","25.2613933333333","6502100","三芝區"
"252001","292-VK","2017/10/30 16:49:58","新北市三芝區淡金路二段76-2號","121.504211666667","25.261155","6502100","三芝區"
"242050","751-BX","2017/10/30 16:49:48","新北市新莊區新泰路357巷3弄57號","121.442056666667","25.039285","6500500","新莊區"
"242034","415-TV","2017/10/30 16:49:44","新北市新莊區新泰路357巷3弄57號","121.441891666667","25.0395066666667","6500500","新莊區"
"242042","400-BY","2017/10/30 16:49:53","新北市新莊區新泰路357巷3弄57號","121.44224","25.0395716666667","6500500","新莊區"
"242060","362-BY","2017/10/30 16:49:48","新北市新莊區三和路12-21號","121.441905","25.0385516666667","6500500","新莊區"
"242001","233-RS","2017/10/30 09:08:54","新北市新莊區環河路48-7號","121.436911666667","25.0097733333333","6500500","新莊區"
"242013","347-TH","2017/10/30 16:49:47","新北市新莊區三和路12-16號","121.441896666667","25.0374216666667","6500500","新莊區"
"238019","599-UM","2017/10/30 16:49:45","新北市樹林區育德街78-1號","121.387713333333","24.968135","6500700","樹林區"
"238004","283-BY","2017/10/30 16:49:53","新北市樹林區中正路439-1號","121.415041666667","25.0087183333333","6500700","樹林區"
"238001","282-BY","2017/10/30 16:49:50","新北市樹林區中正路22-1號","121.427818333333","24.9997183333333","6500700","樹林區"
"239007","AAC-297","2017/10/30 04:09:41","新北市鶯歌區二甲路13-16號","121.345031666667","24.93508","6500800","鶯歌區"
"239008","527-UM","2017/10/30 16:49:56","新北市鶯歌區二甲路13-16號","121.345193333333","24.9352666666667","6500800","鶯歌區"
"239005","526-UM","2017/10/30 10:52:30","新北市鶯歌區二甲路13-16號","121.345048333333","24.9351733333333","6500800","鶯歌區"
"239001","417-VK","2017/10/30 10:59:11","新北市鶯歌區二甲路13號","121.344035","24.9354966666667","6500800","鶯歌區"
"239002","359-BY","2017/10/30 01:33:33","新北市鶯歌區二甲路171-1號","121.34378","24.9356766666667","6500800","鶯歌區"
