"lineid","car","time","location","longitude","latitude","cityid","cityname"
"234012","149-BY","2017/10/30 17:19:58","新北市永和區福和路1號","121.526431666667","25.0099633333333","6500400","永和區"
"234005","207-UY","2017/10/30 17:19:50","新北市永和區福和路1號","121.526601666667","25.0100283333333","6500400","永和區"
"249005","172-UM","2017/10/30 17:19:51","新北市五股區中直路70號","121.414875","25.122665","6502300","八里區"
"249001","173-UM","2017/10/30 17:19:51","新北市八里區中華路二段165巷2-1號","121.407635","25.1508583333333","6502300","八里區"
"249004","303-UY","2017/10/30 17:19:40","新北市八里區文化街39號","121.423473333333","25.159875","6502300","八里區"
"249002","305-UY","2017/10/30 17:19:48","新北市八里區龍米路二段117巷30弄2號","121.444598333333","25.1426966666667","6502300","八里區"
"249003","593-UM","2017/10/30 17:19:41","新北市八里區商港路80號","121.395468333333","25.1463966666667","6502300","八里區"
"248010","272-BY","2017/10/30 15:17:46","新北市五股區中興路二段83巷26-6號","121.460063333333","25.0750383333333","6501500","五股區"
"234066","AAC-212","2017/10/30 17:19:56","新北市永和區福和路1號","121.526405","25.00954","6500400","永和區"
"244013","069-UM","2017/10/30 17:19:59","新北市林口區粉寮69號","121.405045","25.0908733333333","6501700","林口區"
"244007","080-UY","2017/10/30 17:19:58","新北市林口區湖子17號","121.385828333333","25.0908483333333","6501700","林口區"
"244019","403-UM","2017/10/30 17:19:48","新北市林口區文化一路一段190巷7弄2-1號","121.38018","25.0748816666667","6501700","林口區"
"244025","742-UY","2017/10/30 17:19:57","新北市林口區中山路568號","121.37778","25.08399","6501700","林口區"
"244009","410-SL","2017/10/30 17:19:47","新北市林口區文化北路二段550巷20弄37號","121.377928333333","25.091325","6501700","林口區"
"244023","483-VK","2017/10/30 17:19:50","新北市林口區仁愛路一段665號","121.387735","25.0764983333333","6501700","林口區"
"244017","485-VK","2017/10/30 17:19:51","新北市林口區粉寮69號","121.40499","25.0909116666667","6501700","林口區"
"244011","701-TV","2017/10/30 17:19:55","新北市林口區仁愛路一段278號","121.393328333333","25.076135","6501700","林口區"
"244021","838-TS","2017/10/30 17:19:42","新北市林口區粉寮路二段281號","121.404566666667","25.0933833333333","6501700","林口區"
"243009","297-R6","2017/10/30 15:44:50","新北市泰山區黎明路25號","121.421986666667","25.06097","6501600","泰山區"
"231046","278-BY","2017/10/30 17:19:51","新北市新店區直潭路92號","121.530905","24.9375916666667","6500600","新店區"
"241011","013-R5","2017/10/30 17:19:51","新北市三重區長壽街120巷113號","121.501811666667","25.0713983333333","6500200","三重區"
"241028","022-UY","2017/10/30 17:19:57","新北市三重區仁化商場15號","121.49378","25.0592216666667","6500200","三重區"
"241008","059-VK","2017/10/30 17:20:02","新北市三重區永福街72巷37-6號","121.480701666667","25.076145","6500200","三重區"
"241015","062-VK","2017/10/30 17:19:45","新北市三重區長元街82-1號","121.501986666667","25.0663816666667","6500200","三重區"
"241017","063-VK","2017/10/30 17:19:44","新北市三重區大同北路91號","121.494783333333","25.0636766666667","6500200","三重區"
"241024","065-VK","2017/10/30 17:19:57","新北市三重區中正北路193巷11弄36號","121.47831","25.0705633333333","6500200","三重區"
"241026","066-VK","2017/10/30 17:20:01","新北市三重區福裕街7號","121.499763333333","25.061745","6500200","三重區"
"241002","090-VK","2017/10/30 17:19:43","新北市三重區自強路五段15-1號","121.492798333333","25.0805966666667","6500200","三重區"
"241003","091-VK","2017/10/30 17:20:01","新北市三重區富福街52號","121.491685","25.084435","6500200","三重區"
"241005","262-UM","2017/10/30 17:20:01","新北市三重區永安北路二段13號","121.482105","25.0814216666667","6500200","三重區"
"241032","265-UM","2017/10/30 17:19:53","新北市三重區興華街142號","121.483051666667","25.059825","6500200","三重區"
"241016","266-UM","2017/10/30 17:19:51","新北市三重區大同北路54巷1號","121.4942","25.063555","6500200","三重區"
"241022","267-UM","2017/10/30 17:19:54","新北市三重區中正北路64巷24號","121.486048333333","25.06368","6500200","三重區"
"241018","268-UM","2017/10/30 17:19:39","新北市三重區安慶街123號","121.494838333333","25.068935","6500200","三重區"
"241013","270-UM","2017/10/30 17:19:54","新北市三重區仁福街24號","121.496625","25.0745283333333","6500200","三重區"
"241025","271-UM","2017/10/30 17:19:42","新北市三重區中正北路203號","121.476781666667","25.06983","6500200","三重區"
"241007","398-BY","2017/10/30 17:19:52","新北市三重區慈愛街8號","121.484431666667","25.078385","6500200","三重區"
"241009","KEA-2210","2017/10/30 17:19:57","新北市三重區仁愛街606號","121.483865","25.08081","6500200","三重區"
"241020","413-TH","2017/10/30 17:19:57","新北市三重區自強路三段72號","121.486818333333","25.0735716666667","6500200","三重區"
"241004","475-VK","2017/10/30 17:19:55","新北市三重區五華街116號","121.492008333333","25.08297","6500200","三重區"
"241019","478-VK","2017/10/30 17:19:52","新北市三重區自強路二段74巷6號","121.488288333333","25.0697516666667","6500200","三重區"
"241030","480-VK","2017/10/30 17:19:45","新北市三重區成功路73巷9號","121.489508333333","25.0517883333333","6500200","三重區"
"241014","543-UM","2017/10/30 17:19:48","新北市三重區長榮路6號","121.500091666667","25.06852","6500200","三重區"
"241023","545-UM","2017/10/30 17:19:50","新北市三重區三民街148號","121.482525","25.065345","6500200","三重區"
"241006","AAD-863","2017/10/30 17:19:46","新北市三重區三和路四段109號","121.48619","25.0769766666667","6500200","三重區"
"241012","941-UM","2017/10/30 17:19:41","新北市三重區河邊北街248巷21號","121.501128333333","25.0757933333333","6500200","三重區"
"241029","942-UM","2017/10/30 17:19:41","新北市三重區重新路四段120號","121.486925","25.0568166666667","6500200","三重區"
"241033","AAC-255","2017/10/30 17:19:49","新北市三重區中興北街136巷43號","121.4673","25.0560316666667","6500200","三重區"
"235064","005-UY","2017/10/30 16:29:11","新北市中和區員山路36巷16-3號","121.48513","24.9912866666667","6500300","中和區"
"235061","378-QA","2017/10/30 15:21:20","新北市中和區員山路36巷13號","121.484101666667","24.9912733333333","6500300","中和區"
"235062","800-TS","2017/10/30 16:45:15","新北市中和區員山路36巷16-3號","121.484843333333","24.991535","6500300","中和區"
"247022","893-R6","2017/10/30 17:19:47","新北市蘆洲區民族路504號","121.469508333333","25.0902433333333","6501400","蘆洲區"
"247012","546-UM","2017/10/30 17:19:56","新北市蘆洲區信義路319巷10弄17號","121.477426666667","25.0864983333333","6501400","蘆洲區"
"247020","500-BY","2017/10/30 17:19:45","新北市蘆洲區民族路426巷2號","121.473838333333","25.0919966666667","6501400","蘆洲區"
"247010","339-TH","2017/10/30 17:19:56","新北市蘆洲區中山一路120巷7弄20號","121.477485","25.082095","6501400","蘆洲區"
"247002","337-TH","2017/10/30 17:19:43","新北市蘆洲區永樂街38巷33弄16號","121.457383333333","25.0897466666667","6501400","蘆洲區"
"247004","336-TH","2017/10/30 17:19:49","新北市蘆洲區中原路5巷2號","121.461201666667","25.083435","6501400","蘆洲區"
"247016","057-VK","2017/10/30 17:19:50","新北市蘆洲區正和街96巷16號","121.467811666667","25.0811133333333","6501400","蘆洲區"
"247006","056-VK","2017/10/30 17:19:58","新北市蘆洲區長安街73巷28號","121.461746666667","25.0792483333333","6501400","蘆洲區"
"247008","053-VK","2017/10/30 17:20:00","新北市蘆洲區信義路34巷152號","121.475908333333","25.0761466666667","6501400","蘆洲區"
"247014","007-UY","2017/10/30 17:19:54","新北市蘆洲區中正路79-3號","121.470233333333","25.08344","6501400","蘆洲區"
"247024","002-UY","2017/10/30 17:19:59","新北市蘆洲區光明路1號","121.460166666667","25.0866033333333","6501400","蘆洲區"
"247018","001-UY","2017/10/30 17:19:48","新北市蘆洲區民權路96巷1弄1號","121.474235","25.08818","6501400","蘆洲區"
"228003","097-TW","2017/10/30 17:19:56","新北市貢寮區福隆里興隆街4-1號","121.945451666667","25.01688","6502600","貢寮區"
"228002","585-TW","2017/10/30 17:19:56","新北市貢寮區雙玉里下雙溪街26號","121.923936666667","25.0101216666667","6502600","貢寮區"
"228001","670-TC","2017/10/30 17:19:48","新北市貢寮區仁理村尖山腳街18-3號","121.925476666667","25.0483616666667","6502600","貢寮區"
"224010","AGQ-8101","2017/10/30 17:19:47","新北市瑞芳區逢甲路6號","121.81199","25.10824","6501200","瑞芳區"
"224006","676-BX","2017/10/30 17:19:59","新北市瑞芳區大寮路45號","121.78212","25.09843","6501200","瑞芳區"
"224009","285-BY","2017/10/30 17:19:52","新北市瑞芳區汽車路101-2號","121.841441666667","25.1084683333333","6501200","瑞芳區"
"224008","275-VK","2017/10/30 17:19:59","新北市瑞芳區侯硐路308號","121.83158","25.0901766666667","6501200","瑞芳區"
"224005","271-BY","2017/10/30 17:20:02","","121.90086","25.1202483333333","6501200","瑞芳區"
"227001","642-TC","2017/10/30 17:19:39","新北市雙溪區上林里內平林90號","121.827565","25.0274983333333","6502500","雙溪區"
"227008","400-TW","2017/10/30 17:19:50","新北市雙溪區三貂里定福路1-2號","121.850603333333","25.063695","6502500","雙溪區"
"251009","008-UM","2017/10/30 17:19:49","新北市淡水區三民街20號","121.43899","25.1717583333333","6501000","淡水區"
"251004","009-UM","2017/10/30 17:19:49","新北市淡水區中正東路二段88巷15號","121.459083333333","25.1505733333333","6501000","淡水區"
"251007","179-VK","2017/10/30 17:19:52","新北市淡水區民生路47-4號","121.46213","25.1380133333333","6501000","淡水區"
"251008","181-VK","2017/10/30 17:20:01","新北市淡水區大同路269號","121.467286666667","25.1422466666667","6501000","淡水區"
"251013","182-VK","2017/10/30 17:19:46","新北市淡水區破瓦厝子3-3號","121.472316666667","25.1974633333333","6501000","淡水區"
"251010","413-VK","2017/10/30 17:19:40","新北市淡水區中正路二段211號","121.42621","25.18916","6501000","淡水區"
"251012","441-VK","2017/10/30 17:19:57","新北市淡水區中山北路一段158號","121.444251666667","25.17793","6501000","淡水區"
"251015","442-VK","2017/10/30 17:19:50","新北市淡水區樹林口16號","121.478636666667","25.1670183333333","6501000","淡水區"
"251005","443-VK","2017/10/30 17:19:47","新北市淡水區鄧公路19-1號","121.45028","25.1699166666667","6501000","淡水區"
"251006","561-UM","2017/10/30 17:19:43","新北市淡水區中山路190號","121.441511666667","25.1745366666667","6501000","淡水區"
"251011","650-BX","2017/10/30 17:19:42","新北市淡水區坪頂路128號","121.465178333333","25.1610866666667","6501000","淡水區"
"251002","672-BX","2017/10/30 17:19:55","新北市淡水區中正路二段31號","121.41939","25.181605","6501000","淡水區"
"251003","766-UM","2017/10/30 17:19:47","新北市淡水區中正路二段31號","121.41933","25.1817433333333","6501000","淡水區"
"207003","550-UM","2017/10/30 17:20:01","新北市萬里區龜吼里美崙路53-1號","121.687501666667","25.1836066666667","6502800","萬里區"
"252002","178-VK","2017/10/30 17:20:02","新北市三芝區忠孝街1-14號","121.505493333333","25.2539283333333","6502100","三芝區"
"252001","292-VK","2017/10/30 17:19:48","新北市三芝區長安街119號","121.498046666667","25.259705","6502100","三芝區"
"237013","252-BX","2017/10/30 17:19:44","新北市三峽區中山路459巷137號","121.349758333333","24.9338083333333","6500900","三峽區"
"242031","AAC-296","2017/10/30 17:19:45","新北市新莊區中環路二段392-1號","121.44241","25.0456766666667","6500500","新莊區"
"242029","986-R7","2017/10/30 17:19:57","新北市泰山區泰林路一段4號","121.442478333333","25.04836","6500500","新莊區"
"242050","751-BX","2017/10/30 17:16:28","新北市新莊區瓊林路182-5號","121.439861666667","25.0214716666667","6500500","新莊區"
"242025","615-BX","2017/10/30 17:19:52","新北市新莊區中港一街161號","121.44713","25.0449783333333","6500500","新莊區"
"242023","613-BX","2017/10/30 17:20:00","新北市新莊區中港一街149號","121.447688333333","25.0450483333333","6500500","新莊區"
"242027","612-BX","2017/10/30 17:20:01","新北市新莊區復興路一段161號","121.450878333333","25.0434316666667","6500500","新莊區"
"242039","566-BX","2017/10/30 17:19:53","新北市新莊區民安路426-9號","121.432995","25.02285","6500500","新莊區"
"242044","497-BY","2017/10/30 17:19:53","新北市新莊區富國路101-1號","121.421266666667","25.02558","6500500","新莊區"
"242048","441-UM","2017/10/30 17:19:58","新北市新莊區龍安路253號","121.41969","25.02011","6500500","新莊區"
"242053","440-UM","2017/10/30 17:19:53","新北市新莊區瓊林路59-82號","121.441718333333","25.0233183333333","6500500","新莊區"
"242034","415-TV","2017/10/30 17:19:44","新北市新莊區瓊林路96-8號","121.443785","25.0268383333333","6500500","新莊區"
"242004","413-TV","2017/10/30 17:19:46","新北市新莊區新泰路502巷2號","121.442615","25.0463066666667","6500500","新莊區"
"242042","400-BY","2017/10/30 17:19:53","新北市新莊區新樹路113巷33號","121.439511666667","25.0264016666667","6500500","新莊區"
"242060","362-BY","2017/10/30 17:19:48","新北市新莊區三和路10號","121.441995","25.0357466666667","6500500","新莊區"
"242058","353-BY","2017/10/30 17:19:50","新北市新莊區三和路12-13號","121.441781666667","25.0371816666667","6500500","新莊區"
"242007","132-UY","2017/10/30 17:19:59","新北市新莊區中港一街130號","121.448238333333","25.045235","6500500","新莊區"
"242036","133-UY","2017/10/30 17:19:57","新北市新莊區新樹路207-7號","121.435801666667","25.023805","6500500","新莊區"
"242021","135-UY","2017/10/30 17:19:52","新北市新莊區中港路306號","121.45265","25.04503","6500500","新莊區"
"242046","172-VK","2017/10/30 17:19:45","新北市新莊區新樹路67巷5號","121.442001666667","25.0307233333333","6500500","新莊區"
"242009","173-VK","2017/10/30 11:00:00","新北市新莊區三和路12-21號","121.441821666667","25.0387883333333","6500500","新莊區"
"242015","175-VK","2017/10/30 17:19:55","新北市新莊區新泰路478號","121.442811666667","25.045335","6500500","新莊區"
"242002","176-VK","2017/10/30 17:19:44","新北市新莊區新莊路773號","121.441918333333","25.03279","6500500","新莊區"
"242001","233-RS","2017/10/30 09:08:54","新北市新莊區環河路48-7號","121.436911666667","25.0097733333333","6500500","新莊區"
"242013","347-TH","2017/10/30 17:17:47","新北市新莊區新泰路401巷28-1號","121.44229","25.04401","6500500","新莊區"
"242019","348-TH","2017/10/30 17:19:43","新北市新莊區中港路308號","121.452615","25.0451616666667","6500500","新莊區"
"242056","349-TH","2017/10/30 17:19:59","新北市新莊區中正路400號","121.44194","25.0342466666667","6500500","新莊區"
"242017","350-TH","2017/10/30 17:19:46","新北市新莊區新泰路500號","121.442363333333","25.0461233333333","6500500","新莊區"
"238015","755-BX","2017/10/30 17:19:46","新北市樹林區中山路二段89號","121.411525","24.9829633333333","6500700","樹林區"
"238023","601-UM","2017/10/30 17:19:59","新北市樹林區中正路433號","121.415091666667","25.0085883333333","6500700","樹林區"
"238019","599-UM","2017/10/30 17:19:45","新北市樹林區八德街115號","121.4206","24.98067","6500700","樹林區"
"238018","571-TV","2017/10/30 17:19:44","新北市樹林區博愛街215號","121.423985","24.9868233333333","6500700","樹林區"
"238024","5061-A6","2017/10/30 17:19:49","新北市樹林區樹新路79巷1號","121.427216666667","24.995575","6500700","樹林區"
"238021","KEA-2217","2017/10/30 17:19:55","新北市樹林區西圳街一段165巷20弄16號","121.395438333333","24.960515","6500700","樹林區"
"238022","KEA-2213","2017/10/30 17:19:49","新北市樹林區和平街65號","121.424343333333","24.9825483333333","6500700","樹林區"
"238003","308-TH","2017/10/30 17:19:55","新北市樹林區中山路二段10號","121.417566666667","24.9850083333333","6500700","樹林區"
"238025","303-VK","2017/10/30 17:19:46","新北市樹林區保安街一段29號","121.4248","24.9942566666667","6500700","樹林區"
"238017","283-BY","2017/10/30 17:19:53","新北市樹林區光武街28號","121.415828333333","25.0054716666667","6500700","樹林區"
"238014","282-BY","2017/10/30 17:19:50","新北市樹林區千歲街35號","121.425173333333","24.9959533333333","6500700","樹林區"
"238020","268-VK","2017/10/30 17:19:57","新北市樹林區中正路22-1號","121.42792","24.99931","6500700","樹林區"
"238026","172-UY","2017/10/30 17:19:59","新北市樹林區東順街86號","121.408308333333","24.97567","6500700","樹林區"
"239007","AAC-297","2017/10/30 17:19:55","新北市鶯歌區中正一路55號","121.352128333333","24.9540883333333","6500800","鶯歌區"
"239006","891-R6","2017/10/30 17:19:55","新北市鶯歌區福昌街32號","121.332676666667","24.961065","6500800","鶯歌區"
"239008","527-UM","2017/10/30 17:19:56","新北市鶯歌區西湖街243巷27號","121.33926","24.9651283333333","6500800","鶯歌區"
"239005","526-UM","2017/10/30 17:19:48","新北市鶯歌區鶯桃路543號","121.330478333333","24.9678166666667","6500800","鶯歌區"
"239001","417-VK","2017/10/30 17:19:58","新北市鶯歌區尖山路246號","121.342685","24.9465433333333","6500800","鶯歌區"
"239003","360-BY","2017/10/30 17:19:48","新北市鶯歌區德昌街84號","121.332613333333","24.960085","6500800","鶯歌區"
"239002","359-BY","2017/10/30 17:19:41","新北市鶯歌區南雅路39號","121.348725","24.9542","6500800","鶯歌區"
"239004","193-VK","2017/10/30 17:19:57","新北市鶯歌區文化路501-13號","121.353501666667","24.9487416666667","6500800","鶯歌區"
"242011","280-VK","2017/10/30 17:19:44","新北市新莊區中港路397號","121.451858333333","25.0468733333333","6500500","新莊區"
