"lineid","car","time","location","longitude","latitude","cityid","cityname"
"234046","148-BY","2017/10/30 19:39:42","新北市永和區秀朗路二段80號","121.523125","25.0015633333333","6500400","永和區"
"234012","149-BY","2017/10/30 19:39:58","新北市永和區永平路246號","121.508713333333","25.01102","6500400","永和區"
"234005","207-UY","2017/10/30 19:39:56","新北市中和區中和路454號","121.512105","25.0036766666667","6500400","永和區"
"234081","298-R6","2017/10/30 19:39:52","新北市永和區林森路20巷24號","121.525686666667","25.0059966666667","6500400","永和區"
"234038","336-UY","2017/10/30 19:39:50","新北市永和區民樂街21號","121.527666666667","25.0019583333333","6500400","永和區"
"234064","337-UY","2017/10/30 19:39:51","新北市永和區秀朗路一段192巷6弄10號","121.519103333333","25.0023483333333","6500400","永和區"
"234086","338-UY","2017/10/30 19:39:39","新北市永和區永亨路165巷1-5號","121.526078333333","25.0041033333333","6500400","永和區"
"234070","552-UM","2017/10/30 19:39:45","新北市永和區永和路二段241號","121.5157","25.0145583333333","6500400","永和區"
"234054","553-UM","2017/10/30 19:40:02","新北市永和區竹林路39巷18號","121.518681666667","25.0146483333333","6500400","永和區"
"234017","745-BX","2017/10/30 19:40:01","新北市永和區永和路二段425巷75弄5號","121.513433333333","25.0170733333333","6500400","永和區"
"234030","746-BX","2017/10/30 19:39:52","新北市永和區民生路65號","121.522848333333","24.997245","6500400","永和區"
"234061","AAD-866","2017/10/30 19:40:01","新北市永和區中正路397號","121.517203333333","25.004155","6500400","永和區"
"234042","862-TW","2017/10/30 19:39:42","新北市永和區中和路373號","121.508323333333","24.9998766666667","6500400","永和區"
"234050","863-TW","2017/10/30 19:39:49","新北市永和區保安路132號","121.508971666667","25.0153816666667","6500400","永和區"
"234026","9371-KE","2017/10/30 19:39:46","新北市永和區中和路497號","121.510533333333","25.0024216666667","6500400","永和區"
"234011","9373-KE","2017/10/30 19:39:48","新北市永和區保生路55-1號","121.504506666667","25.0109","6500400","永和區"
"249004","303-UY","2017/10/30 19:39:52","新北市八里區博物館路23號","121.41453","25.1631083333333","6502300","八里區"
"249002","305-UY","2017/10/30 19:39:48","新北市八里區頂寮二街42號","121.450425","25.1251983333333","6502300","八里區"
"249003","593-UM","2017/10/30 19:39:45","新北市八里區中華路二段540號","121.399056666667","25.1456816666667","6502300","八里區"
"248016","026-BX","2017/10/30 19:39:54","新北市五股區成泰路三段514號","121.452238333333","25.1023216666667","6501500","五股區"
"248008","095-VK","2017/10/30 19:39:52","新北市五股區四維路118巷15號","121.469353333333","25.0741783333333","6501500","五股區"
"248018","225-UY","2017/10/30 19:34:48","新北市五股區壟路17-7號","121.414343333333","25.085135","6501500","五股區"
"248012","247-BX","2017/10/30 19:39:50","新北市五股區工商路99巷22號","121.436841666667","25.0848266666667","6501500","五股區"
"248014","261-SL","2017/10/30 19:39:53","新北市五股區工商路166號","121.433505","25.0880783333333","6501500","五股區"
"248010","272-BY","2017/10/30 19:39:57","新北市五股區自強路99號","121.432215","25.0712166666667","6501500","五股區"
"248004","677-BX","2017/10/30 19:40:01","新北市五股區成泰路二段112號","121.437891666667","25.083285","6501500","五股區"
"248002","678-BX","2017/10/30 19:39:55","新北市五股區成泰路三段577巷56號","121.450606666667","25.1032266666667","6501500","五股區"
"234077","969-R7","2017/10/30 19:39:51","新北市永和區民權路82號","121.519833333333","24.997115","6500400","永和區"
"234074","AAC-211","2017/10/30 19:39:58","新北市永和區福和路67號","121.522813333333","25.007915","6500400","永和區"
"234067","AAC-212","2017/10/30 19:39:56","新北市永和區中山路一段201號","121.509075","25.0086033333333","6500400","永和區"
"244019","403-UM","2017/10/30 19:39:48","新北市林口區仁愛路二段201-1號","121.377493333333","25.0743316666667","6501700","林口區"
"243013","AAD-798","2017/10/30 19:39:51","新北市泰山區應化街7號","121.423861666667","25.043715","6501600","泰山區"
"243009","297-R6","2017/10/30 19:39:55","新北市泰山區美寧街76號","121.431485","25.064625","6501600","泰山區"
"243015","380-SR","2017/10/30 19:39:54","新北市泰山區民權街51號","121.429003333333","25.0505216666667","6501600","泰山區"
"243014","421-VK","2017/10/30 19:39:53","新北市泰山區泰林路二段33-7號","121.435213333333","25.056405","6501600","泰山區"
"243010","KEA-2215","2017/10/30 19:39:39","新北市泰山區民生路33號","121.430641666667","25.0521433333333","6501600","泰山區"
"243011","KEA-2216","2017/10/30 19:39:58","新北市泰山區明志路三段204巷1號","121.421485","25.0382233333333","6501600","泰山區"
"243012","646-TV","2017/10/30 19:39:44","新北市泰山區仁愛路100巷32號","121.433293333333","25.0550483333333","6501600","泰山區"
"243016","680-BX","2017/10/30 19:39:58","新北市泰山區新北大道七段30號","121.419816666667","25.0321633333333","6501600","泰山區"
"222003","436-BY","2017/10/30 19:33:08","新北市深坑區深南路51-1號","121.621136666667","25.0100483333333","6501800","深坑區"
"222002","659-BX","2017/10/30 19:39:46","新北市深坑區北深路一段177號","121.632543333333","25.010885","6501800","深坑區"
"231041","002-UM","2017/10/30 19:39:51","新北市新店區中正路500-1號","121.53438","24.9819283333333","6500600","新店區"
"231059","046-UY","2017/10/30 19:39:45","新北市新店區安和路二段197號","121.518","24.975045","6500600","新店區"
"231061","047-UY","2017/10/30 19:39:54","新北市新店區安民街189-7號","121.517058333333","24.9714166666667","6500600","新店區"
"231060","106-UY","2017/10/30 19:39:52","新北市新店區安康路二段161號","121.510211666667","24.9594533333333","6500600","新店區"
"231047","108-UY","2017/10/30 19:39:59","新北市新店區五峰路63巷22號","121.546485","24.968935","6500600","新店區"
"231052","187-VK","2017/10/30 19:39:47","新北市新店區新烏路二段482號","121.55293","24.9079883333333","6500600","新店區"
"231050","KEA-2219","2017/10/30 19:39:48","新北市新店區郵政路93號","121.554646666667","24.9514183333333","6500600","新店區"
"231057","256-BX","2017/10/30 19:39:54","新北市新店區橘園一路11號","121.54796","24.93403","6500600","新店區"
"231046","278-BY","2017/10/30 19:39:51","新北市新店區自由街31號","121.535083333333","24.9741466666667","6500600","新店區"
"231058","3712-VJ","2017/10/30 19:39:54","新北市新店區中正路76巷11弄20號","121.543731666667","24.9717066666667","6500600","新店區"
"231067","4772-VM","2017/10/30 19:39:50","新北市新店區精忠路10-1號","121.532695","24.9590183333333","6500600","新店區"
"231065","512-UM","2017/10/30 19:40:02","新北市新店區安祥路109巷61號","121.47729","24.95995","6500600","新店區"
"231054","513-UM","2017/10/30 19:39:42","新北市新店區北宜路一段37號","121.538455","24.957405","6500600","新店區"
"231064","515-UM","2017/10/30 19:39:41","新北市新店區安和路一段52巷2-1號","121.51767","24.9663266666667","6500600","新店區"
"231040","619-UM","2017/10/30 19:39:45","新北市新店區北新路一段96巷23號","121.542956666667","24.9687916666667","6500600","新店區"
"231042","641-BX","2017/10/30 19:39:42","新北市新店區中興路一段216號","121.543998333333","24.9657816666667","6500600","新店區"
"231063","645-TV","2017/10/30 19:39:38","新北市新店區達觀路41號","121.502793333333","24.9382783333333","6500600","新店區"
"231049","719-UM","2017/10/30 19:39:58","新北市新店區大豐路72號","121.538935","24.9793816666667","6500600","新店區"
"231051","719-UY","2017/10/30 19:39:51","新北市新店區中央四街69號","121.526826666667","24.9755383333333","6500600","新店區"
"231062","720-UM","2017/10/30 19:39:58","新北市新店區永業路7-1號","121.533678333333","24.95597","6500600","新店區"
"231044","897-TW","2017/10/30 19:39:50","新北市新店區北新路三段41號","121.541935","24.9803516666667","6500600","新店區"
"231045","898-TW","2017/10/30 19:39:54","新北市新店區北宜路二段423-1號","121.560408333333","24.9545066666667","6500600","新店區"
"231043","899-TW","2017/10/30 19:39:58","新北市新店區北新路二段1號","121.542678333333","24.9712216666667","6500600","新店區"
"241011","013-R5","2017/10/30 19:39:51","新北市三重區秀江街196號","121.497663333333","25.07163","6500200","三重區"
"241028","022-UY","2017/10/30 19:39:51","新北市三重區中正南路157號","121.49385","25.05605","6500200","三重區"
"241008","059-VK","2017/10/30 19:39:58","新北市三重區永福街137號","121.478676666667","25.076725","6500200","三重區"
"241031","061-VK","2017/10/30 19:39:47","新北市三重區重新路四段248號","121.486155","25.0534233333333","6500200","三重區"
"241015","062-VK","2017/10/30 19:39:58","新北市三重區福德北路34號","121.50205","25.06525","6500200","三重區"
"241017","063-VK","2017/10/30 19:39:44","新北市三重區大同北路184巷10號","121.491453333333","25.065665","6500200","三重區"
"241026","066-VK","2017/10/30 19:39:41","新北市三重區文化南路65巷46弄9號","121.498673333333","25.0603783333333","6500200","三重區"
"241032","265-UM","2017/10/30 19:39:53","新北市三重區三陽路116巷2號","121.48302","25.05841","6500200","三重區"
"241022","267-UM","2017/10/30 19:39:48","新北市三重區中正北路154號","121.484826666667","25.0658533333333","6500200","三重區"
"241018","268-UM","2017/10/30 19:39:51","新北市三重區大智街61號","121.492665","25.0679266666667","6500200","三重區"
"241013","270-UM","2017/10/30 19:39:42","新北市三重區仁愛街129巷4號","121.49585","25.0750983333333","6500200","三重區"
"241025","271-UM","2017/10/30 19:39:49","新北市三重區大有街1-10號","121.477563333333","25.0661133333333","6500200","三重區"
"241007","398-BY","2017/10/30 19:39:52","新北市三重區仁美街63號","121.486665","25.0783966666667","6500200","三重區"
"241009","KEA-2210","2017/10/30 19:39:56","新北市三重區三和路四段402號","121.481153333333","25.0797083333333","6500200","三重區"
"241020","413-TH","2017/10/30 19:39:57","新北市三重區自強路三段99號","121.487683333333","25.07533","6500200","三重區"
"241019","478-VK","2017/10/30 19:39:53","新北市三重區安慶街297巷3弄2號","121.488615","25.06818","6500200","三重區"
"241030","480-VK","2017/10/30 19:39:45","新北市三重區新興路28巷12號","121.491833333333","25.0529116666667","6500200","三重區"
"241014","543-UM","2017/10/30 19:39:48","新北市三重區河邊北街80號","121.5042","25.0687116666667","6500200","三重區"
"241023","545-UM","2017/10/30 19:39:44","新北市三重區忠孝路三段99巷21號","121.47946","25.0643033333333","6500200","三重區"
"241001","547-UM","2017/10/30 19:39:49","新北市三重區仁愛街315巷37號","121.494108333333","25.0800016666667","6500200","三重區"
"241006","AAD-863","2017/10/30 19:39:50","新北市三重區聯華街118號","121.485051666667","25.0751","6500200","三重區"
"241035","743-BX","2017/10/30 19:39:46","新北市三重區正義北路63號","121.49751","25.06456","6500200","三重區"
"241012","941-UM","2017/10/30 19:40:01","新北市三重區河邊北街256巷29號","121.500631666667","25.0759866666667","6500200","三重區"
"241029","942-UM","2017/10/30 19:39:44","新北市三重區同安街145號","121.493086666667","25.0560066666667","6500200","三重區"
"235066","003-UY","2017/10/30 19:39:59","新北市中和區南工路18號","121.505423333333","25.0004016666667","6500300","中和區"
"235064","005-UY","2017/10/30 19:40:01","新北市中和區南山路81巷50號","121.503681666667","24.9983366666667","6500300","中和區"
"235063","006-UY","2017/10/30 19:39:59","新北市中和區連城路203巷7號","121.494978333333","24.99755","6500300","中和區"
"235056","096-UM","2017/10/30 19:39:59","新北市中和區員山路581巷31弄31號","121.476491666667","25.01038","6500300","中和區"
"235039","097-UM","2017/10/30 19:39:52","新北市中和區秀峰街103巷7弄1號","121.52024","24.98956","6500300","中和區"
"235065","098-UM","2017/10/30 19:39:56","新北市中和區福美路242號","121.498731666667","25.0051933333333","6500300","中和區"
"235040","150-BY","2017/10/30 19:39:43","新北市中和區保健路44巷11號","121.509083333333","24.99662","6500300","中和區"
"235058","151-BY","2017/10/30 19:39:47","新北市中和區連城路525號","121.481586666667","24.99516","6500300","中和區"
"235055","183-VK","2017/10/30 19:39:53","新北市中和區莒光路3巷6號","121.472498333333","25.00602","6500300","中和區"
"235038","185-VK","2017/10/30 19:39:55","新北市中和區立人街41號","121.520773333333","24.9941416666667","6500300","中和區"
"235049","186-VK","2017/10/30 19:39:49","新北市中和區景安路167巷31號","121.506871666667","24.995125","6500300","中和區"
"235067","255-BX","2017/10/30 19:39:43","新北市中和區新生街186巷2號","121.483505","24.99969","6500300","中和區"
"235044","293-VK","2017/10/30 19:39:46","新北市中和區興南路一段109號","121.50932","24.988085","6500300","中和區"
"235072","301-VK","2017/10/30 19:39:56","新北市中和區中正路488-5號","121.488941666667","24.9944333333333","6500300","中和區"
"235043","352-BY","2017/10/30 19:39:56","新北市中和區興南路一段25號","121.51118","24.99075","6500300","中和區"
"235051","376-QA","2017/10/30 19:39:53","新北市中和區景平路419號","121.501896666667","24.9950083333333","6500300","中和區"
"235068","377-QA","2017/10/30 19:39:58","新北市中和區廟美街5號","121.50083","25.00146","6500300","中和區"
"235061","378-QA","2017/10/30 19:39:56","新北市中和區民安街2巷1號","121.480715","25.00115","6500300","中和區"
"235071","269-TV","2017/10/30 19:39:54","新北市中和區中正路839巷29號","121.483528333333","25.0023583333333","6500300","中和區"
"235050","4979-A6","2017/10/30 19:39:40","新北市中和區中正路589巷15號","121.485623333333","24.9934816666667","6500300","中和區"
"235042","551-UM","2017/10/30 19:39:47","新北市中和區保健路19巷4弄16號","121.508963333333","24.9982116666667","6500300","中和區"
"235070","558-UM","2017/10/30 19:39:54","新北市中和區景平路577號","121.497831666667","25.000115","6500300","中和區"
"235045","565-BX","2017/10/30 19:39:51","新北市中和區景新街383巷62號","121.514696666667","24.990445","6500300","中和區"
"235054","640-BX","2017/10/30 19:39:44","新北市中和區國光街102巷10號","121.470411666667","25.0005466666667","6500300","中和區"
"235047","732-UM","2017/10/30 19:39:58","新北市中和區和平街194號","121.50473","24.9924666666667","6500300","中和區"
"235046","733-UM","2017/10/30 19:39:58","新北市中和區忠孝街104號","121.512011666667","24.9848666666667","6500300","中和區"
"235062","800-TS","2017/10/30 19:39:45","新北市林口區太平里180號","121.368233333333","25.1344883333333","6500300","中和區"
"235057","801-TS","2017/10/30 19:40:00","新北市中和區員山路370-1號","121.48085","25.00396","6500300","中和區"
"235041","802-TS","2017/10/30 19:39:45","新北市中和區中和路400巷27-3號","121.51184","25.0022383333333","6500300","中和區"
"235052","805-TS","2017/10/30 19:39:59","新北市中和區華新街206巷16號","121.506253333333","24.98255","6500300","中和區"
"235048","896-TW","2017/10/30 19:39:48","新北市中和區忠孝街1巷2-1號","121.509106666667","24.9830116666667","6500300","中和區"
"235053","900-TW","2017/10/30 19:39:44","新北市中和區民德路198號","121.468246666667","24.998815","6500300","中和區"
"235060","911-UM","2017/10/30 19:40:00","新北市中和區中山路二段523巷22號","121.481665","25.0040883333333","6500300","中和區"
"235037","AAC-213","2017/10/30 19:39:47","新北市中和區秀朗路三段10巷21弄8號","121.525186666667","24.9960416666667","6500300","中和區"
"235059","AAC-215","2017/10/30 19:39:59","新北市中和區圓通路337號","121.49178","24.9906016666667","6500300","中和區"
"220068","013-TV","2017/10/30 19:39:45","新北市板橋區萬安街2號","121.484798333333","25.0223816666667","6500100","板橋區"
"220065","072-UY","2017/10/30 19:39:49","新北市板橋區國泰街22號","121.46906","25.006825","6500100","板橋區"
"220086","073-UY","2017/10/30 19:39:49","新北市板橋區國光路75號","121.459545","25.018085","6500100","板橋區"
"220106","075-UY","2017/10/30 19:39:42","新北市板橋區雙十路三段10巷1弄40號","121.471445","25.0318266666667","6500100","板橋區"
"220069","AAD-861","2017/10/30 19:39:56","新北市板橋區縣民大道一段64巷2號","121.455208333333","25.00398","6500100","板橋區"
"247004","336-TH","2017/10/30 19:39:57","新北市蘆洲區長安街109號","121.461415","25.0810183333333","6501400","蘆洲區"
"247008","053-VK","2017/10/30 19:39:52","新北市蘆洲區中山二路45巷30號","121.474276666667","25.0811466666667","6501400","蘆洲區"
"226004","312-R5","2017/10/30 19:39:49","新北市平溪區靜安路三段392巷3號","121.78366","25.04924","6502400","平溪區"
"228003","097-TW","2017/10/30 19:39:56","新北市貢寮區真理里美艷山街15-3號","121.923703333333","25.0680166666667","6502600","貢寮區"
"228001","670-TC","2017/10/30 19:39:48","新北市貢寮區真理里延平街79號","121.924581666667","25.0560866666667","6502600","貢寮區"
"224010","AGQ-8101","2017/10/30 19:39:47","新北市瑞芳區基山街31巷17號","121.845855","25.109755","6501200","瑞芳區"
"224002","639-TC","2017/10/30 19:39:53","新北市瑞芳區民享新村7號","121.817115","25.1054383333333","6501200","瑞芳區"
"227001","642-TC","2017/10/30 19:39:39","新北市雙溪區雙溪里太平路54號","121.864691666667","25.035445","6502500","雙溪區"
"227008","400-TW","2017/10/30 19:39:53","新北市雙溪區新基里新基北街22號","121.86722","25.0389133333333","6502500","雙溪區"
"222001","KEA-2212","2017/10/30 19:39:44","新北市深坑區深坑街148號","121.613005","25.00151","6501800","深坑區"
"208002","742-BX","2017/10/30 19:39:55","新北市金山區中正路50號","121.634831666667","25.2222666666667","6502700","金山區"
"208003","665-BX","2017/10/30 19:40:01","新北市金山區仁愛路37-4號","121.636231666667","25.2197833333333","6502700","金山區"
"208001","761-BX","2017/10/30 19:39:57","新北市金山區重和里六股林口5-1號","121.609025","25.2222016666667","6502700","金山區"
"251009","008-UM","2017/10/30 19:39:58","新北市淡水區中山北路一段217號","121.444425","25.1792133333333","6501000","淡水區"
"251007","179-VK","2017/10/30 19:39:52","新北市淡水區坪頂路19號","121.45553","25.1605816666667","6501000","淡水區"
"251008","181-VK","2017/10/30 19:40:01","新北市淡水區中正路一段8巷1弄3號","121.428065","25.1771283333333","6501000","淡水區"
"251013","182-VK","2017/10/30 19:39:45","新北市淡水區頂田寮路141號","121.46088","25.2173166666667","6501000","淡水區"
"251010","413-VK","2017/10/30 19:40:00","新北市淡水區崁頂92號","121.429365","25.2019666666667","6501000","淡水區"
"251015","442-VK","2017/10/30 19:39:50","新北市淡水區北新路三段165號","121.489505","25.1905233333333","6501000","淡水區"
"251005","443-VK","2017/10/30 19:39:47","新北市淡水區水源街一段47巷48號","121.444155","25.1739683333333","6501000","淡水區"
"251001","559-UM","2017/10/30 19:39:49","新北市淡水區民權路59號","121.459785","25.1387983333333","6501000","淡水區"
"251011","650-BX","2017/10/30 19:39:42","新北市淡水區八勢一街30巷5號","121.46095","25.1557933333333","6501000","淡水區"
"207003","550-UM","2017/10/30 19:40:00","新北市萬里區大鵬里下社36號","121.649143333333","25.2164566666667","6502800","萬里區"
"207004","225-TW","2017/10/30 19:40:01","新北市萬里區萬里里瑪鋉路21號","121.687373333333","25.17537","6502800","萬里區"
"252002","178-VK","2017/10/30 19:39:51","新北市三芝區中正路一段36巷25號","121.504163333333","25.2588116666667","6502100","三芝區"
"252001","292-VK","2017/10/30 19:39:48","新北市三芝區公正街66號","121.499815","25.25747","6502100","三芝區"
"237004","078-UY","2017/10/30 19:39:40","新北市三峽區插角6號","121.399493333333","24.8735266666667","6500900","三峽區"
"237007","153-BY","2017/10/30 19:39:44","新北市三峽區二鬮路136巷18弄42號","121.358953333333","24.9092833333333","6500900","三峽區"
"237009","210-TH","2017/10/30 19:40:02","新北市三峽區民權街193號","121.367781666667","24.9290983333333","6500900","三峽區"
"237013","252-BX","2017/10/30 19:39:44","新北市三峽區介壽路一段318巷13號","121.381006666667","24.929565","6500900","三峽區"
"237012","275-BY","2017/10/30 19:39:54","新北市三峽區民生街3號","121.374555","24.935405","6500900","三峽區"
"237008","302-VK","2017/10/30 19:39:54","新北市三峽區永安街210號","121.373146666667","24.9271983333333","6500900","三峽區"
"237014","433-BY","2017/10/30 19:39:40","新北市三峽區大埔路14-11號","121.37422","24.900865","6500900","三峽區"
"237006","5529-G3","2017/10/30 19:39:43","新北市三峽區中正路一段336巷15弄2號","121.369946666667","24.92494","6500900","三峽區"
"237015","649-BX","2017/10/30 19:39:53","新北市三峽區成福路75號","121.418675","24.9292866666667","6500900","三峽區"
"237010","706-TV","2017/10/30 19:14:51","新北市三峽區民生街68號","121.374661666667","24.9359183333333","6500900","三峽區"
"237005","AKY-6261","2017/10/30 19:39:40","新北市三峽區中山路217-1號","121.363573333333","24.93687","6500900","三峽區"
"236069","105-UM","2017/10/30 19:39:50","新北市土城區學士路12巷2號","121.453773333333","24.9831016666667","6501300","土城區"
"236042","107-UM","2017/10/30 19:40:00","新北市土城區學士路11號","121.453698333333","24.9829816666667","6501300","土城區"
"236078","166-UM","2017/10/30 19:39:51","新北市土城區中州路27巷76號","121.412643333333","24.9564133333333","6501300","土城區"
"236030","253-BX","2017/10/30 19:39:57","新北市土城區福祥街64號","121.441573333333","24.9815616666667","6501300","土城區"
"236026","269-VK","2017/10/30 19:39:46","新北市土城區中央路二段61巷20號","121.443121666667","24.978765","6501300","土城區"
"236036","271-VK","2017/10/30 19:39:55","新北市土城區清水路98巷3弄31號","121.458488333333","24.980885","6501300","土城區"
"236020","401-BY","2017/10/30 19:39:44","新北市土城區峰廷街3號","121.469178333333","24.98739","6501300","土城區"
"236048","913-UM","2017/10/30 19:39:47","新北市土城區明德路一段95號","121.465591666667","24.9829966666667","6501300","土城區"
"236062","915-UM","2017/10/30 19:39:49","新北市土城區延平街65號","121.467753333333","24.9927883333333","6501300","土城區"
"236053","AAC-216","2017/10/30 19:39:47","新北市土城區學府路一段135號","121.453831666667","24.9863266666667","6501300","土城區"
"242031","AAC-296","2017/10/30 19:39:45","新北市新莊區新泰路213巷44號","121.445421666667","25.0386566666667","6500500","新莊區"
"242027","612-BX","2017/10/30 19:39:45","新北市新莊區三和路18-23號","121.441851666667","25.0389366666667","6500500","新莊區"
"242004","413-TV","2017/10/30 19:39:46","新北市新莊區化成路29巷36號","121.46368","25.0439483333333","6500500","新莊區"
"242009","173-VK","2017/10/30 19:40:01","新北市新莊區三和路18-25號","121.44176","25.0391166666667","6500500","新莊區"
"242001","233-RS","2017/10/30 09:08:54","新北市新莊區環河路48-7號","121.436911666667","25.0097733333333","6500500","新莊區"
"242013","347-TH","2017/10/30 19:39:41","新北市新莊區中誠街125號","121.449271666667","25.04752","6500500","新莊區"
"242019","348-TH","2017/10/30 19:39:58","新北市新莊區新泰路277巷37號","121.444426666667","25.04019","6500500","新莊區"
"238015","755-BX","2017/10/30 19:39:44","新北市樹林區日新街117號","121.421278333333","24.98961","6500700","樹林區"
"238023","601-UM","2017/10/30 19:39:38","新北市樹林區三福街75號","121.407501666667","25.0163483333333","6500700","樹林區"
"238018","571-TV","2017/10/30 19:39:44","新北市樹林區八德街588號","121.397848333333","24.9692066666667","6500700","樹林區"
"238024","5061-A6","2017/10/30 19:39:43","新北市樹林區八德街1262號","121.39012","24.9689233333333","6500700","樹林區"
"238021","KEA-2217","2017/10/30 19:39:55","新北市樹林區學府路208號","121.377586666667","24.9498466666667","6500700","樹林區"
"238022","KEA-2213","2017/10/30 19:39:49","新北市樹林區名園街57號","121.420063333333","24.978185","6500700","樹林區"
"238016","308-TH","2017/10/30 19:39:55","新北市樹林區東和街35號","121.40185","24.982575","6500700","樹林區"
"238025","303-VK","2017/10/30 19:39:46","新北市樹林區中山路二段44號","121.417008333333","24.9847916666667","6500700","樹林區"
"238017","283-BY","2017/10/30 19:39:53","新北市樹林區保安街二段24-1號","121.415346666667","25.0019116666667","6500700","樹林區"
"238014","282-BY","2017/10/30 19:39:50","新北市樹林區千歲街28巷2號","121.425651666667","24.995885","6500700","樹林區"
"238020","268-VK","2017/10/30 19:39:57","新北市樹林區俊英街121巷53號","121.423636666667","25.0094583333333","6500700","樹林區"
"238026","172-UY","2017/10/30 19:39:59","新北市樹林區佳園路二段91號","121.390696666667","24.9593966666667","6500700","樹林區"
"239006","891-R6","2017/10/30 19:39:54","新北市鶯歌區尖山埔路114號","121.34437","24.9500983333333","6500800","鶯歌區"
"221008","489-VK","2017/10/30 19:40:00","新北市汐止區康寧街61巷31號","121.619543333333","25.06752","6501100","汐止區"
"221036","130-UY","2017/10/30 19:39:57","新北市汐止區汐萬路一段256巷1號","121.651796666667","25.074805","6501100","汐止區"
"221015","131-UY","2017/10/30 19:39:56","新北市汐止區汐萬路一段266號","121.650975","25.0738333333333","6501100","汐止區"
"221010","269-BY","2017/10/30 19:39:42","新北市汐止區汐萬路二段59號","121.649308333333","25.0821733333333","6501100","汐止區"
"221012","278-VK","2017/10/30 19:39:45","新北市汐止區大同路三段382號","121.681428333333","25.0714533333333","6501100","汐止區"
"221023","279-VK","2017/10/30 19:39:48","新北市汐止區民族六街21-2號","121.63009","25.0689616666667","6501100","汐止區"
"221032","280-BY","2017/10/30 19:39:45","新北市汐止區南興路9號","121.651953333333","25.06265","6501100","汐止區"
"221027","281-BY","2017/10/30 19:39:53","新北市汐止區忠孝東路9號","121.658345","25.0659183333333","6501100","汐止區"
"221029","298-VK","2017/10/30 19:39:50","新北市汐止區康寧街901號","121.651598333333","25.074945","6501100","汐止區"
"221021","299-VK","2017/10/30 19:39:55","新北市汐止區南興路6巷3號","121.651758333333","25.0632866666667","6501100","汐止區"
"221031","353-TW","2017/10/30 19:39:53","新北市汐止區樟樹二路339號","121.640118333333","25.0730016666667","6501100","汐止區"
"221025","623-UM","2017/10/30 19:39:50","新北市汐止區福安街20巷5號","121.662465","25.06491","6501100","汐止區"
"221038","646-BX","2017/10/30 19:39:51","新北市汐止區忠孝東路240號","121.66263","25.0671383333333","6501100","汐止區"
"221033","647-BX","2017/10/30 19:39:51","台北市南港區舊莊街二段10巷1號","121.626588333333","25.037545","6501100","汐止區"
"221018","753-BX","2017/10/30 19:39:26","新北市汐止區康寧街901號","121.65152","25.0748966666667","6501100","汐止區"
"220079","145-BY","2017/10/30 19:40:00","新北市板橋區復興街30號","121.458123333333","25.0173966666667","6500100","板橋區"
"220080","200-UY","2017/10/30 19:39:43","新北市板橋區大觀路二段37巷244號","121.449725","25.0018","6500100","板橋區"
"220082","610-BX","2017/10/30 19:39:59","新北市板橋區大觀路三段133巷12號","121.433236666667","24.9939166666667","6500100","板橋區"
"220101","245-BX","2017/10/30 19:39:51","新北市板橋區莊敬路231號","121.472548333333","25.021515","6500100","板橋區"
"220056","276-BY","2017/10/30 19:39:55","新北市板橋區四川路二段47巷2弄1號","121.45411","24.9949266666667","6500100","板橋區"
"220072","277-BY","2017/10/30 19:39:39","新北市板橋區金門街253巷17弄9號","121.43346","24.9890316666667","6500100","板橋區"
"220094","283-UM","2017/10/30 19:40:00","新北市板橋區宏國路96號","121.470096666667","25.03195","6500100","板橋區"
"220071","283-VK","2017/10/30 19:40:01","新北市板橋區信義路182號","121.459521666667","24.99136","6500100","板橋區"
"220053","285-VK","2017/10/30 19:39:58","新北市板橋區民享街91號","121.477021666667","25.0158283333333","6500100","板橋區"
"220083","286-VK","2017/10/30 19:39:55","新北市板橋區龍興街71巷1號","121.443783333333","25.0018416666667","6500100","板橋區"
"220081","287-VK","2017/10/30 19:39:53","新北市板橋區大觀路一段29巷131弄23號","121.450596666667","25.0047566666667","6500100","板橋區"
"220090","288-VK","2017/10/30 19:39:59","新北市板橋區長江路一段48巷1弄2號","121.459025","25.0287516666667","6500100","板橋區"
"220061","293-UM","2017/10/30 19:39:50","新北市板橋區中山路一段210號","121.469936666667","25.0139366666667","6500100","板橋區"
"220084","296-UM","2017/10/30 19:39:41","新北市板橋區滿平二街10巷2弄13號","121.425391666667","24.9874633333333","6500100","板橋區"
"220075","297-UM","2017/10/30 19:39:47","新北市板橋區大勇街79號","121.452785","25.0165533333333","6500100","板橋區"
"220062","305-R5","2017/10/30 19:39:49","新北市板橋區三民路二段29巷8-1號","121.481666666667","25.0180833333333","6500100","板橋區"
"220092","307-R5","2017/10/30 19:39:54","新北市板橋區文化路一段387巷4號","121.466838333333","25.0219516666667","6500100","板橋區"
"220098","317-R6","2017/10/30 19:39:48","新北市板橋區四維路269巷62號","121.460776666667","25.0272066666667","6500100","板橋區"
"220064","486-VK","2017/10/30 19:39:57","新北市板橋區民族路19號","121.461788333333","25.0096866666667","6500100","板橋區"
"220089","487-VK","2017/10/30 19:40:01","新北市板橋區英士路151號","121.459908333333","25.0240983333333","6500100","板橋區"
"220088","491-VK","2017/10/30 19:39:44","新北市板橋區民治街9號","121.477443333333","25.0344566666667","6500100","板橋區"
"220035","560-BX","2017/10/30 19:39:53","新北市板橋區金華街85巷19號","121.458393333333","25.0214433333333","6500100","板橋區"
"220103","561-BX","2017/10/30 19:40:00","新北市板橋區文化路一段286巷10-2號","121.467883333333","25.0213766666667","6500100","板橋區"
"220063","609-BX","2017/10/30 19:39:48","新北市板橋區中山路二段368號","121.481788333333","25.0203033333333","6500100","板橋區"
"220091","637-BX","2017/10/30 19:39:50","新北市板橋區懷德街139巷20弄1號","121.480085","25.030745","6500100","板橋區"
"220057","686-BX","2017/10/30 19:39:55","新北市板橋區和平路安樂巷36號","121.461758333333","24.9933733333333","6500100","板橋區"
"220077","687-BX","2017/10/30 19:40:01","新北市板橋區僑中一街82號","121.447508333333","25.0116816666667","6500100","板橋區"
"220093","689-BX","2017/10/30 19:39:46","新北市板橋區長江路一段9號","121.457946666667","25.028775","6500100","板橋區"
"220054","741-BX","2017/10/30 19:39:56","新北市板橋區忠孝路239巷17號","121.466393333333","25.0032116666667","6500100","板橋區"
"220055","827-TW","2017/10/30 19:39:52","新北市板橋區國慶路149巷13弄13號","121.460441666667","24.997035","6500100","板橋區"
"220067","829-TW","2017/10/30 19:39:38","新北市板橋區長安街251巷16號","121.472368333333","25.010665","6500100","板橋區"
"220102","830-TW","2017/10/30 19:39:55","新北市板橋區雙十路二段44號","121.475835","25.0277133333333","6500100","板橋區"
"220096","831-TW","2017/10/30 19:39:41","新北市板橋區文化路二段2號","121.468705","25.0238783333333","6500100","板橋區"
"220074","895-R6","2017/10/30 19:39:44","新北市板橋區館前西路150-4號","121.455613333333","25.008565","6500100","板橋區"
"220073","985-R7","2017/10/30 19:39:53","新北市板橋區國光路67巷14號","121.458961666667","25.0187383333333","6500100","板橋區"
"220097","AAC-210","2017/10/30 19:39:52","新北市板橋區新海路61號","121.461896666667","25.021495","6500100","板橋區"
"220070","AAC-253","2017/10/30 19:39:54","新北市板橋區民族路257號","121.470393333333","25.0069216666667","6500100","板橋區"
