"lineid","car","time","location","longitude","latitude","cityid","cityname"
"234012","149-BY","2017/10/30 20:49:58","新北市八里區下罟子8-10號","121.38395","25.1447","6500400","永和區"
"234005","207-UY","2017/10/30 20:49:56","新北市八里區中山路三段132號","121.385421666667","25.1452466666667","6500400","永和區"
"234086","338-UY","2017/10/30 20:49:39","新北市五股區成泰路四段22巷10-2號","121.454355","25.1045216666667","6500400","永和區"
"234030","746-BX","2017/10/30 20:49:52","新北市五股區凌雲路二段18巷62-2號","121.44282","25.1066366666667","6500400","永和區"
"234050","863-TW","2017/10/30 20:49:49","新北市永和區保安路77號","121.508615","25.0148583333333","6500400","永和區"
"234074","AAC-211","2017/10/30 20:49:58","新北市永和區環河東路二段36號","121.522668333333","25.0125166666667","6500400","永和區"
"243011","KEA-2216","2017/10/30 20:49:58","新北市泰山區泰林路三段745巷145號","121.406218333333","25.0693883333333","6501600","泰山區"
"222003","436-BY","2017/10/30 20:50:00","新北市深坑區北深路三段25巷15-1號","121.608823333333","25.0001566666667","6501800","深坑區"
"222002","659-BX","2017/10/30 20:46:36","新北市深坑區北深路三段93巷61號","121.603898333333","25.000835","6501800","深坑區"
"231041","002-UM","2017/10/30 20:49:51","台北市文山區景文街146巷30號","121.53264","24.9912083333333","6500600","新店區"
"231059","046-UY","2017/10/30 20:49:45","新北市新店區僑信路102巷42號","121.498811666667","24.9468316666667","6500600","新店區"
"231061","047-UY","2017/10/30 20:49:45","新北市新店區永安街83巷14號","121.520668333333","24.9867616666667","6500600","新店區"
"231060","106-UY","2017/10/30 20:49:52","新北市新店區安康路三段740號","121.473795","24.9419666666667","6500600","新店區"
"231047","108-UY","2017/10/30 20:49:59","新北市新店區寶元路二段1巷2號","121.55065","24.9840883333333","6500600","新店區"
"231052","187-VK","2017/10/30 20:49:47","新北市新店區新烏路一段247號","121.547283333333","24.9304366666667","6500600","新店區"
"231050","KEA-2219","2017/10/30 20:49:48","新北市新店區中正路247巷6弄2號","121.538671666667","24.9727333333333","6500600","新店區"
"231057","256-BX","2017/10/30 20:49:58","新北市新店區新烏路一段205-2號","121.547585","24.93259","6500600","新店區"
"231056","4716-K9","2017/10/30 20:49:49","新北市新店區中央七街61巷28號","121.529408333333","24.9758166666667","6500600","新店區"
"231065","512-UM","2017/10/30 20:49:42","新北市新店區安祥路69巷1號","121.482125","24.9619766666667","6500600","新店區"
"231054","513-UM","2017/10/30 20:49:42","新北市新店區北新路一段126巷27號","121.543285","24.9695283333333","6500600","新店區"
"231064","515-UM","2017/10/30 20:50:01","新北市新店區永平街16巷37號","121.517171666667","24.9845483333333","6500600","新店區"
"231040","619-UM","2017/10/30 20:49:45","新北市新店區中正路274號","121.538925","24.9736683333333","6500600","新店區"
"231042","641-BX","2017/10/30 20:49:42","新北市新店區寶高路118號","121.55453","24.9759616666667","6500600","新店區"
"231063","645-TV","2017/10/30 20:49:58","新北市新店區如意街11號","121.495035","24.94843","6500600","新店區"
"231068","718-UY","2017/10/30 20:50:00","新北市新店區寶元路一段84巷1號","121.544566666667","24.9837083333333","6500600","新店區"
"231049","719-UM","2017/10/30 20:49:38","新北市新店區華城路6-1號","121.529335","24.9586383333333","6500600","新店區"
"231051","719-UY","2017/10/30 20:49:51","新北市新店區中央路117號","121.530763333333","24.974415","6500600","新店區"
"231062","720-UM","2017/10/30 20:49:58","新北市新店區裕合街359號","121.489138333333","24.9483483333333","6500600","新店區"
"231044","897-TW","2017/10/30 20:49:44","新北市新店區中正路348號","121.536368333333","24.9755016666667","6500600","新店區"
"231043","899-TW","2017/10/30 20:49:58","新北市新店區建國路62號","121.540588333333","24.975815","6500600","新店區"
"231066","AKT-0513","2017/10/30 20:49:45","新北市新店區安興路105-1號","121.514613333333","24.9777183333333","6500600","新店區"
"241011","013-R5","2017/10/30 20:49:51","新北市三重區龍濱路128號","121.50176","25.0716533333333","6500200","三重區"
"241028","022-UY","2017/10/30 20:49:51","新北市三重區中正南路41巷1號","121.493778333333","25.0599683333333","6500200","三重區"
"241008","059-VK","2017/10/30 20:49:58","新北市三重區永福街72巷11號","121.47949","25.076785","6500200","三重區"
"241031","061-VK","2017/10/30 20:49:47","新北市三重區重陽路一段113巷3號","121.487508333333","25.05982","6500200","三重區"
"241015","062-VK","2017/10/30 20:49:58","新北市三重區自強路一段10-2號","121.498946666667","25.0681533333333","6500200","三重區"
"241017","063-VK","2017/10/30 20:49:44","新北市三重區民生街18號","121.49201","25.0673116666667","6500200","三重區"
"241024","065-VK","2017/10/30 20:49:57","新北市三重區國道路一段58巷20號","121.481271666667","25.07201","6500200","三重區"
"241026","066-VK","2017/10/30 20:49:41","新北市三重區文化南路7號","121.500018333333","25.06229","6500200","三重區"
"241002","090-VK","2017/10/30 20:49:43","新北市三重區仁義街211巷64號","121.4985","25.082945","6500200","三重區"
"241005","262-UM","2017/10/30 20:49:39","新北市三重區五華街141巷45號","121.49284","25.0860466666667","6500200","三重區"
"241032","265-UM","2017/10/30 20:49:53","新北市三重區三光街30巷1號","121.484808333333","25.0604566666667","6500200","三重區"
"241016","266-UM","2017/10/30 20:49:51","新北市三重區正義北路184號","121.496493333333","25.0667216666667","6500200","三重區"
"241022","267-UM","2017/10/30 20:49:48","新北市三重區過圳街27-5號","121.48797","25.0623933333333","6500200","三重區"
"241018","268-UM","2017/10/30 20:49:51","新北市三重區正義北路281-1號","121.495101666667","25.0703183333333","6500200","三重區"
"241013","270-UM","2017/10/30 20:50:02","新北市三重區仁賢街6號","121.49567","25.0747683333333","6500200","三重區"
"241025","271-UM","2017/10/30 20:49:49","新北市三重區貴陽街18號","121.484115","25.0618683333333","6500200","三重區"
"241007","398-BY","2017/10/30 20:49:52","新北市三重區慈愛街1號","121.484586666667","25.0783883333333","6500200","三重區"
"241009","KEA-2210","2017/10/30 20:49:56","新北市三重區三和路四段388-2號","121.482008333333","25.079205","6500200","三重區"
"241020","413-TH","2017/10/30 20:49:56","新北市三重區忠孝路一段101號","121.489381666667","25.0720833333333","6500200","三重區"
"241004","475-VK","2017/10/30 20:49:45","新北市三重區分子尾街36-1號","121.489246666667","25.0809066666667","6500200","三重區"
"241019","478-VK","2017/10/30 20:49:53","新北市三重區自強路二段74巷21號","121.487965","25.0698866666667","6500200","三重區"
"241030","480-VK","2017/10/30 20:49:45","新北市三重區昌隆街26號","121.491988333333","25.0523183333333","6500200","三重區"
"241014","543-UM","2017/10/30 20:49:48","新北市三重區萬全街76號","121.501478333333","25.070225","6500200","三重區"
"241023","545-UM","2017/10/30 20:49:44","新北市三重區忠孝路三段84巷1號","121.480243333333","25.0644166666667","6500200","三重區"
"241001","547-UM","2017/10/30 20:49:49","新北市三重區自強路三段95號","121.487555","25.0750866666667","6500200","三重區"
"241006","AAD-863","2017/10/30 20:49:30","新北市三重區車路頭街139巷12號","121.484255","25.07625","6500200","三重區"
"241012","941-UM","2017/10/30 20:50:00","新北市三重區龍門路274巷45號","121.501226666667","25.07555","6500200","三重區"
"241029","942-UM","2017/10/30 20:49:44","新北市三重區中正南路216號","121.49369","25.0550583333333","6500200","三重區"
"241033","AAC-255","2017/10/30 20:49:42","新北市三重區光復路二段1號","121.472201666667","25.0533183333333","6500200","三重區"
"235069","4980-A6","2017/10/30 20:49:45","新北市中和區新生街277號","121.483806666667","24.997925","6500300","中和區"
"235026","800-TS","2017/10/30 20:25:29","新北市中和區員山路36巷16-3號","121.484701666667","24.9916033333333","6500300","中和區"
"247022","893-R6","2017/10/30 20:49:55","新北市蘆洲區中正路185巷46弄14號","121.467058333333","25.0852983333333","6501400","蘆洲區"
"247012","546-UM","2017/10/30 20:49:50","新北市蘆洲區復興路340巷4號","121.482328333333","25.0902266666667","6501400","蘆洲區"
"247020","500-BY","2017/10/30 20:49:43","新北市蘆洲區仁愛街64號","121.47147","25.0938916666667","6501400","蘆洲區"
"247010","339-TH","2017/10/30 20:49:42","新北市蘆洲區鷺江街76號","121.476923333333","25.0838533333333","6501400","蘆洲區"
"247002","337-TH","2017/10/30 20:49:42","新北市蘆洲區長安街315號","121.457538333333","25.0860516666667","6501400","蘆洲區"
"247004","336-TH","2017/10/30 20:49:51","新北市蘆洲區長安街100號","121.461595","25.0809283333333","6501400","蘆洲區"
"247016","057-VK","2017/10/30 20:50:01","新北市蘆洲區中山二路173號","121.471061666667","25.081","6501400","蘆洲區"
"247006","056-VK","2017/10/30 20:49:51","新北市蘆洲區永安南路二段28號","121.467206666667","25.0771266666667","6501400","蘆洲區"
"247008","053-VK","2017/10/30 20:49:52","新北市蘆洲區集賢路269巷13號","121.482021666667","25.0834283333333","6501400","蘆洲區"
"247014","007-UY","2017/10/30 20:49:53","新北市蘆洲區三民路33號","121.475378333333","25.08298","6501400","蘆洲區"
"247024","002-UY","2017/10/30 20:49:45","新北市蘆洲區長樂路136號","121.462125","25.0901466666667","6501400","蘆洲區"
"222001","KEA-2212","2017/10/30 20:49:56","新北市深坑區北深路三段71號","121.607016666667","25.00152","6501800","深坑區"
"251007","179-VK","2017/10/30 20:49:52","新北市淡水區學府路102巷34號","121.452228333333","25.17175","6501000","淡水區"
"251013","182-VK","2017/10/30 20:49:45","新北市淡水區行忠路100號","121.451988333333","25.1984383333333","6501000","淡水區"
"251010","413-VK","2017/10/30 20:50:00","新北市淡水區沙崙路141-1號","121.423343333333","25.1829683333333","6501000","淡水區"
"251012","441-VK","2017/10/30 20:49:57","新北市淡水區興仁路162號","121.451585","25.2208516666667","6501000","淡水區"
"251015","442-VK","2017/10/30 20:49:50","新北市淡水區淡金路四段542巷17號","121.452705","25.2270566666667","6501000","淡水區"
"251005","443-VK","2017/10/30 20:49:47","新北市淡水區埤島3-20號","121.446823333333","25.1913983333333","6501000","淡水區"
"251001","559-UM","2017/10/30 20:49:48","新北市淡水區淡金路218號","121.4606","25.1671283333333","6501000","淡水區"
"251011","650-BX","2017/10/30 20:49:42","新北市淡水區沙崙路一段106號","121.432955","25.1865766666667","6501000","淡水區"
"251002","672-BX","2017/10/30 20:49:57","新北市淡水區英專路26號","121.445563333333","25.1699533333333","6501000","淡水區"
"251003","766-UM","2017/10/30 20:49:46","新北市淡水區中山北路一段207巷50號","121.442436666667","25.1792933333333","6501000","淡水區"
"252002","178-VK","2017/10/30 20:49:42","新北市三芝區淡金路二段93號","121.504125","25.2609766666667","6502100","三芝區"
"242031","AAC-296","2017/10/30 20:49:45","新北市新莊區新莊路658號","121.442425","25.032875","6500500","新莊區"
"242029","986-R7","2017/10/30 20:49:52","新北市新莊區昌隆街60號","121.454966666667","25.0509566666667","6500500","新莊區"
"242050","751-BX","2017/10/30 20:49:43","新北市新莊區民安西路50號","121.427401666667","25.0206816666667","6500500","新莊區"
"242025","615-BX","2017/10/30 20:49:51","新北市新莊區中原路656號","121.443843333333","25.0543266666667","6500500","新莊區"
"242023","613-BX","2017/10/30 20:49:46","新北市新莊區復興路三段2號","121.460435","25.0444433333333","6500500","新莊區"
"242027","612-BX","2017/10/30 20:49:45","新北市三重區光復路二段175號","121.472576666667","25.061775","6500500","新莊區"
"242039","566-BX","2017/10/30 20:49:42","新北市新莊區瓊林路59-38號","121.441215","25.0235616666667","6500500","新莊區"
"242048","441-UM","2017/10/30 20:49:58","新北市新莊區中正路596號","121.426791666667","25.0302633333333","6500500","新莊區"
"242053","440-UM","2017/10/30 20:49:53","新北市新莊區新樹路69號","121.438838333333","25.0298766666667","6500500","新莊區"
"242034","415-TV","2017/10/30 20:49:44","新北市新莊區中正路222號","121.448661666667","25.0354183333333","6500500","新莊區"
"242060","362-BY","2017/10/30 20:49:49","新北市新莊區中正路455-3號","121.442453333333","25.0340183333333","6500500","新莊區"
"242007","132-UY","2017/10/30 20:49:59","新北市三重區重新路五段283號","121.479245","25.0498566666667","6500500","新莊區"
"242036","133-UY","2017/10/30 20:49:57","新北市新莊區福營路103號","121.433961666667","25.0324133333333","6500500","新莊區"
"242002","176-VK","2017/10/30 20:49:48","新北市新莊區中港路五守新村23巷2號","121.455006666667","25.0384333333333","6500500","新莊區"
"242001","233-RS","2017/10/30 09:08:54","新北市新莊區環河路48-7號","121.436911666667","25.0097733333333","6500500","新莊區"
"221036","130-UY","2017/10/30 20:49:56","新北市汐止區新昌路88號","121.663836666667","25.0690866666667","6501100","汐止區"
"221015","131-UY","2017/10/30 20:49:56","新北市汐止區大同路二段605號","121.664008333333","25.0706433333333","6501100","汐止區"
"221027","281-BY","2017/10/30 20:49:53","新北市汐止區大同路二段477號","121.660541666667","25.0682066666667","6501100","汐止區"
"221029","298-VK","2017/10/30 20:49:50","新北市汐止區樟樹二路349號","121.642341666667","25.0734983333333","6501100","汐止區"
"221031","353-TW","2017/10/30 20:49:53","新北市汐止區福德一路2巷6號","121.639341666667","25.0704266666667","6501100","汐止區"
"221002","358-BY","2017/10/30 20:49:44","新北市汐止區福德二路138號","121.630745","25.0652433333333","6501100","汐止區"
"221035","622-UM","2017/10/30 20:49:56","新北市汐止區汐萬路一段312號","121.650523333333","25.075185","6501100","汐止區"
"221038","646-BX","2017/10/30 20:49:51","新北市汐止區汐萬路一段256巷1號","121.652031666667","25.0748233333333","6501100","汐止區"
"221033","647-BX","2017/10/30 20:49:51","台北市南港區合順街8巷7弄38號","121.620243333333","25.0418866666667","6501100","汐止區"
"221018","753-BX","2017/10/30 20:49:46","新北市汐止區大同路二段364號","121.657471666667","25.0671883333333","6501100","汐止區"
"220062","305-R5","2017/10/30 20:49:49","新北市板橋區民生路二段161巷1號","121.469923333333","25.0199933333333","6500100","板橋區"
"242011","280-VK","2017/10/30 20:49:44","新北市五股區成泰路一段8巷9-9號","121.437631666667","25.0686833333333","6500500","新莊區"
"220103","561-BX","2017/10/30 20:49:40","新北市板橋區漢生東路53巷2號","121.465871666667","25.0166683333333","6500100","板橋區"
"220070","AAC-253","2017/10/30 20:49:54","新北市八里區下罟子30-35號","121.36746","25.1351683333333","6500100","板橋區"
