"lineid","car","time","location","longitude","latitude","cityid","cityname"
"244009","656-BX","2017/07/08 08:37:51","新北市林口區麗園路77號","121.373698333333","25.0691516666667","6501700","林口區"
"244018","657-BX","2017/07/08 08:37:50","新北市林口區粉寮路一段105號","121.39798","25.080385","6501700","林口區"
"231008","188-VK","2017/07/08 08:37:54","新北市新店區新烏路三段165巷22號","121.552746666667","24.9012466666667","6500600","新店區"
"231007","189-VK","2017/07/08 08:38:06","新北市新店區新潭路三段115-1號","121.50679","24.912135","6500600","新店區"
"235001","783-BX","2017/07/08 08:38:00","新北市中和區圓通路435巷2-11號","121.48751","24.9859333333333","6500300","中和區"
"247002","402-BY","2017/07/08 08:35:33","新北市蘆洲區民族路422巷114弄55號","121.472076666667","25.0951183333333","6501400","蘆洲區"
"226005","5620-A6","2017/07/08 08:37:55","新北市平溪區十分里十分街249號","121.777785","25.044705","6502400","平溪區"
"226003","AGD-0702","2017/07/08 08:37:51","新北市平溪區十分里十分街236號","121.778106666667","25.0440666666667","6502400","平溪區"
"223006","022-BY","2017/07/08 08:38:00","新北市深坑區昇高坑路30號","121.626628333333","25.0005183333333","6501900","石碇區"
"223002","198-BX","2017/07/08 07:54:15","新北市石碇區烏塗窟26-2號","121.657581666667","24.9758916666667","6501900","石碇區"
"223003","205-TH","2017/07/08 08:37:58","新北市石碇區北宜路五段66號","121.638378333333","24.9536816666667","6501900","石碇區"
"223008","406-TH","2017/07/08 08:38:03","新北市石碇區十八重溪13號","121.677851666667","25.0112383333333","6501900","石碇區"
"223001","592-UM","2017/07/08 08:38:10","新北市石碇區北宜路五段十股寮巷9號","121.642736666667","24.9531616666667","6501900","石碇區"
"223004","660-BX","2017/07/08 08:38:01","新北市石碇區崩山24-2號","121.678596666667","24.967835","6501900","石碇區"
"223007","661-BX","2017/07/08 08:38:05","新北市石碇區番子坑79號","121.67604","25.0105533333333","6501900","石碇區"
"223005","677-TV","2017/07/08 08:38:02","新北市石碇區崩山24-2號","121.678578333333","24.9678333333333","6501900","石碇區"
"227006","282-VK","2017/07/08 08:37:52","新北市雙溪區上林里大瀨1號","121.830028333333","25.0252766666667","6502500","雙溪區"
"253003","6232-TK","2017/07/08 08:37:25","新北市石門區石崩山20-7號","121.56779","25.2755183333333","6502200","石門區"
"253001","6251-TK","2017/07/08 08:37:51","新北市石門區白沙灣別墅12號","121.509143333333","25.2781966666667","6502200","石門區"
"253002","637-UY","2017/07/08 08:38:01","新北市石門區內石門79號","121.56629","25.26025","6502200","石門區"
"253004","8270-PC","2017/07/08 08:37:50","新北市石門區竹子湖11號","121.617825","25.2583933333333","6502200","石門區"
"252004","249-BX","2017/07/08 08:38:07","新北市三芝區興華里田心子16號","121.49341","25.2043716666667","6502100","三芝區"
"252007","AAC-283","2017/07/08 00:27:08","新北市三芝區埔坪里埔頭坑41號","121.504463333333","25.2644833333333","6502100","三芝區"
"237001","159-UY","2017/07/08 08:38:06","新北市三峽區學勤路162-1號","121.375276666667","24.946215","6500900","三峽區"
"236011","165-UM","2017/07/08 08:37:52","新北市土城區金城路二段46巷1-24號","121.453675","24.9755433333333","6501300","土城區"
"236002","339-SR","2017/07/08 08:37:53","新北市土城區永寧路1號","121.430608333333","24.9648266666667","6501300","土城區"
"236006","498-BY","2017/07/08 08:37:57","新北市土城區中央路三段231-1號","121.428828333333","24.96426","6501300","土城區"
