"lineid","car","time","location","longitude","latitude","cityid","cityname"
"244009","656-BX","2017/07/08 10:07:51","新北市林口區麗園路77號","121.373671666667","25.0692316666667","6501700","林口區"
"244018","657-BX","2017/07/08 10:07:50","新北市林口區文化一路一段15巷8-1號","121.36879","25.069335","6501700","林口區"
"231008","188-VK","2017/07/08 09:42:54","新北市新店區平廣路一段256號","121.507376666667","24.8880616666667","6500600","新店區"
"231007","189-VK","2017/07/08 09:10:46","新北市新店區新潭路三段215巷36號","121.509385","24.9042683333333","6500600","新店區"
"247002","402-BY","2017/07/08 10:07:55","新北市蘆洲區三民路88號","121.47362","25.0858633333333","6501400","蘆洲區"
"227006","282-VK","2017/07/08 10:07:51","新北市雙溪區長源里柑腳18號","121.804638333333","25.0143516666667","6502500","雙溪區"
"253003","6232-TK","2017/07/08 10:05:44","新北市石門區小坑9號","121.594358333333","25.2886066666667","6502200","石門區"
"253001","6251-TK","2017/07/08 09:47:46","新北市石門區崁子腳35-2號","121.539706666667","25.269945","6502200","石門區"
"253002","637-UY","2017/07/08 10:07:01","新北市石門區尖子鹿76號","121.572348333333","25.2969233333333","6502200","石門區"
"253004","8270-PC","2017/07/08 10:08:10","新北市石門區茂林社區86-1號","121.592753333333","25.2693083333333","6502200","石門區"
"252004","249-BX","2017/07/08 10:08:07","新北市三芝區埔坪里埔頭坑41號","121.504436666667","25.264535","6502100","三芝區"
"252007","AAC-283","2017/07/08 00:27:08","新北市三芝區埔坪里埔頭坑41號","121.504463333333","25.2644833333333","6502100","三芝區"
