"lineid","car","time","location","longitude","latitude","cityid","cityname"
"244009","656-BX","2017/07/08 10:57:51","新北市林口區麗園路77號","121.373708333333","25.0691883333333","6501700","林口區"
"244018","657-BX","2017/07/08 10:58:10","新北市林口區文化一路一段15巷8-1號","121.368828333333","25.0693633333333","6501700","林口區"
"231008","188-VK","2017/07/08 10:57:54","新北市新店區小坑一路35巷1號","121.52913","24.9096066666667","6500600","新店區"
"231007","189-VK","2017/07/08 10:58:06","新北市新店區新潭路一段200號","121.52969","24.930995","6500600","新店區"
"247002","402-BY","2017/07/08 10:41:43","新北市五股區中興路三段3-6號","121.449533333333","25.0787633333333","6501400","蘆洲區"
"227006","282-VK","2017/07/08 10:57:51","新北市雙溪區魚行里坤溪11-2號","121.871136666667","25.0224033333333","6502500","雙溪區"
