"lineid","car","time","location","longitude","latitude","cityid","cityname"
"234044","148-BY","2017/07/08 13:00:10","新北市永和區得和路373巷16弄9號","121.52551","25.0000783333333","6500400","永和區"
"234012","149-BY","2017/07/08 12:59:58","新北市永和區信義路17巷9弄2號","121.513773333333","25.0115683333333","6500400","永和區"
"234005","207-UY","2017/07/08 12:59:48","新北市永和區中山路一段51號","121.512988333333","25.0104583333333","6500400","永和區"
"234078","298-R6","2017/07/08 13:00:05","新北市永和區永亨路61號","121.521065","25.0061183333333","6500400","永和區"
"234036","336-UY","2017/07/08 12:59:55","新北市永和區民樂街73巷1號","121.527401666667","24.9972283333333","6500400","永和區"
"234062","337-UY","2017/07/08 13:00:02","新北市永和區秀朗路一段205號","121.51907","25.0032983333333","6500400","永和區"
"234084","338-UY","2017/07/08 12:59:55","新北市永和區永寧街129巷2號","121.518065","25.0053833333333","6500400","永和區"
"234068","552-UM","2017/07/08 13:00:09","新北市永和區豫溪街57巷16號","121.517148333333","25.0107","6500400","永和區"
"234052","553-UM","2017/07/08 13:00:05","新北市永和區竹林路66巷2號","121.51828","25.013345","6500400","永和區"
"234015","745-BX","2017/07/08 12:59:57","新北市永和區永和路二段283號","121.515921666667","25.0158016666667","6500400","永和區"
"234028","746-BX","2017/07/08 13:00:07","新北市永和區四維街73號","121.525351666667","24.9980033333333","6500400","永和區"
"234060","AAD-866","2017/07/08 12:59:52","新北市永和區中正路497巷10號","121.516295","25.0067416666667","6500400","永和區"
"234040","862-TW","2017/07/08 13:00:06","新北市永和區永貞路326號","121.51137","25.005275","6500400","永和區"
"234048","863-TW","2017/07/08 12:59:59","新北市永和區文化路147號","121.510785","25.0161883333333","6500400","永和區"
"234025","9371-KE","2017/07/08 12:59:54","新北市永和區水源街2巷12號","121.51236","25.0055866666667","6500400","永和區"
"234010","9373-KE","2017/07/08 13:00:09","新北市永和區文化路9巷20號","121.515176666667","25.0145916666667","6500400","永和區"
"248017","225-UY","2017/07/08 12:59:52","新北市五股區中興路二段83巷26-6號","121.46003","25.075195","6501500","五股區"
"234022","9380-KE","2017/07/08 13:00:06","新北市永和區竹林路39巷32弄22號","121.520935","25.0152333333333","6500400","永和區"
"234076","969-R7","2017/07/08 13:00:01","新北市永和區民享街13號","121.51544","24.9952866666667","6500400","永和區"
"234072","AAC-211","2017/07/08 12:59:51","新北市永和區豫溪街217巷15號","121.524525","25.00978","6500400","永和區"
"234066","AAC-212","2017/07/08 12:59:58","新北市永和區中和路625號","121.513013333333","25.0048966666667","6500400","永和區"
"234001","AAC-295","2017/07/08 12:58:32","新北市永和區永平路28號","121.513241666667","25.0088466666667","6500400","永和區"
"244005","248-BX","2017/07/08 13:00:04","新北市林口區中山路6號","121.396735","25.0782333333333","6501700","林口區"
"231030","001-UM","2017/07/08 12:59:57","新北市新店區安華路28-1號","121.519451666667","24.961045","6500600","新店區"
"231029","106-UY","2017/07/08 13:00:06","新北市新店區安華路28-1號","121.519615","24.9607066666667","6500600","新店區"
"231018","107-UY","2017/07/08 13:00:05","新北市新店區安華路28-1號","121.51935","24.9613733333333","6500600","新店區"
"231020","110-UY","2017/07/08 12:59:52","新北市新店區安華路28-1號","121.519456666667","24.9612483333333","6500600","新店區"
"231034","268-BY","2017/07/08 13:00:07","新北市新店區安華路28-1號","121.519333333333","24.9608066666667","6500600","新店區"
"231010","278-BY","2017/07/08 13:00:07","新北市新店區安華路28-1號","121.519468333333","24.9610133333333","6500600","新店區"
"231017","AAD-862","2017/07/08 01:21:22","新北市新店區安華路28-1號","121.519796666667","24.9612133333333","6500600","新店區"
"231028","355-BY","2017/07/08 12:59:51","新北市新店區安華路28-1號","121.519276666667","24.9609616666667","6500600","新店區"
"231027","3712-VJ","2017/07/08 12:59:56","新北市新店區安華路28-1號","121.51926","24.960695","6500600","新店區"
"231024","3713-VJ","2017/07/08 13:00:07","新北市新店區安華路28-1號","121.51919","24.9606166666667","6500600","新店區"
"231038","4715-K9","2017/07/08 12:59:50","新北市新店區安華路1-1號","121.51944","24.96051","6500600","新店區"
"231036","512-UM","2017/07/08 12:59:50","新北市新店區安華路28-1號","121.5194","24.9613216666667","6500600","新店區"
"231023","513-UM","2017/07/08 12:59:51","新北市新店區安華路28-1號","121.51969","24.9610933333333","6500600","新店區"
"231035","515-UM","2017/07/08 13:00:07","新北市新店區安華路28-1號","121.51963","24.9611733333333","6500600","新店區"
"231003","616-UM","2017/07/08 12:59:59","新北市新店區安華路1-1號","121.519503333333","24.9604366666667","6500600","新店區"
"231006","617-UM","2017/07/08 13:00:05","新北市新店區安華路28-1號","121.519396666667","24.9609466666667","6500600","新店區"
"231001","619-UM","2017/07/08 13:00:07","新北市新店區安華路28-1號","121.519648333333","24.960955","6500600","新店區"
"231013","719-UM","2017/07/08 13:00:07","新北市新店區安華路28-1號","121.519391666667","24.9611883333333","6500600","新店區"
"231033","720-UM","2017/07/08 13:00:03","新北市新店區安華路28-1號","121.519156666667","24.961175","6500600","新店區"
"231005","897-TW","2017/07/08 12:59:57","新北市新店區安華路28-1號","121.5197","24.960715","6500600","新店區"
"231004","899-TW","2017/07/08 12:59:55","新北市新店區安華路28-1號","121.519276666667","24.9611166666667","6500600","新店區"
"231037","AKT-0513","2017/07/08 12:59:37","新北市新店區安華路1-1號","121.519316666667","24.96053","6500600","新店區"
"235030","003-UY","2017/07/08 12:59:56","新北市中和區中和路98號","121.501463333333","25.000315","6500300","中和區"
"235029","098-UM","2017/07/08 13:00:04","新北市中和區中正路637巷52弄1號","121.485596666667","24.99356","6500300","中和區"
"235004","150-BY","2017/07/08 12:59:58","新北市中和區和城路一段271巷1號","121.485436666667","24.9918583333333","6500300","中和區"
"235022","151-BY","2017/07/08 13:00:02","新北市中和區錦和路350-1號","121.490468333333","24.9935216666667","6500300","中和區"
"235002","185-VK","2017/07/08 12:59:52","新北市中和區成功路9號","121.526256666667","24.993915","6500300","中和區"
"235031","255-BX","2017/07/08 12:59:58","新北市中和區中正路899號","121.48411","25.0051383333333","6500300","中和區"
"235035","783-BX","2017/07/08 13:00:02","新北市中和區中正路637巷52弄11號","121.484718333333","24.9937266666667","6500300","中和區"
"235005","802-TS","2017/07/08 12:59:52","新北市中和區和城路一段271巷1號","121.485378333333","24.9917516666667","6500300","中和區"
"235027","911-UM","2017/07/08 12:59:49","新北市中和區員山路36巷16-3號","121.484993333333","24.991135","6500300","中和區"
"235023","AAC-215","2017/07/08 13:00:04","新北市中和區員山路36巷16-3號","121.485151666667","24.9914183333333","6500300","中和區"
"220013","072-UY","2017/07/08 12:59:55","新北市板橋區民生路二段36-1號","121.472655","25.016745","6500100","板橋區"
"247002","402-BY","2017/07/08 12:59:57","新北市五股區中興路三段3-6號","121.449538333333","25.0787866666667","6501400","蘆洲區"
"228005","097-TW","2017/07/08 12:59:51","新北市貢寮區仁理村仁和路78號","121.922776666667","25.0502516666667","6502600","貢寮區"
"228004","212-TW","2017/07/08 13:00:01","新北市貢寮區吉林里內寮街57號","121.886493333333","24.9867366666667","6502600","貢寮區"
"208004","AAC-292","2017/07/08 12:59:52","新北市金山區磺港里青年路1號","121.639811666667","25.225445","6502700","金山區"
"208003","665-BX","2017/07/08 13:00:00","新北市萬里區龜吼里美崙路53-1號","121.687396666667","25.183485","6502700","金山區"
"207002","749-BX","2017/07/08 12:59:58","新北市萬里區雙興里大坪路32號","121.635093333333","25.1685466666667","6502800","萬里區"
"207001","463-BY","2017/07/08 13:00:02","新北市萬里區萬里里獅頭路22-1號","121.692985","25.1781983333333","6502800","萬里區"
"252005","073-UM","2017/07/08 12:59:50","新北市三芝區埔坪里埔頭坑41號","121.504713333333","25.2639933333333","6502100","三芝區"
"236006","498-BY","2017/07/08 13:00:11","新北市土城區亞洲路34號","121.435873333333","24.9743516666667","6501300","土城區"
"238021","311-TH","2017/07/08 12:57:51","新北市樹林區八德街236號","121.412171666667","24.9704783333333","6500700","樹林區"
"221010","276-VK","2017/07/08 12:59:56","新北市汐止區信義路7號","121.662081666667","25.0692933333333","6501100","汐止區"
"221032","280-BY","2017/07/08 13:00:00","新北市汐止區建成路57巷1號","121.662338333333","25.0726","6501100","汐止區"
"221002","646-BX","2017/07/08 13:00:07","新北市汐止區連興街16號","121.655786666667","25.0637616666667","6501100","汐止區"
"221002","753-BX","2017/07/08 12:59:53","新北市汐止區中興路152-3號","121.632513333333","25.0647416666667","6501100","汐止區"
"220003","827-TW","2017/07/08 13:00:00","新北市板橋區民生路二段15-1號","121.472738333333","25.01644","6500100","板橋區"
