"lineid","car","time","location","longitude","latitude","cityid","cityname"
"234044","148-BY","2017/07/08 14:17:50","新北市永和區永元路68號","121.522463333333","25.0016466666667","6500400","永和區"
"234012","149-BY","2017/07/08 14:17:38","新北市永和區保生路3號","121.506206666667","25.0073583333333","6500400","永和區"
"234005","207-UY","2017/07/08 14:17:48","新北市永和區中正路403號","121.517201666667","25.0046983333333","6500400","永和區"
"234078","298-R6","2017/07/08 14:17:50","新北市永和區福和路7巷10弄7號","121.52484","25.00756","6500400","永和區"
"234036","336-UY","2017/07/08 14:17:54","新北市永和區成功路一段74號","121.526715","25.0035066666667","6500400","永和區"
"234062","337-UY","2017/07/08 14:18:07","新北市永和區得和路196號","121.520206666667","25.00004","6500400","永和區"
"234084","338-UY","2017/07/08 14:17:55","新北市永和區中正路541號","121.516866666667","25.00793","6500400","永和區"
"234068","552-UM","2017/07/08 14:18:09","新北市永和區永寧街67號","121.519928333333","25.00684","6500400","永和區"
"234052","553-UM","2017/07/08 14:18:05","新北市永和區光復街2巷39號","121.517548333333","25.0166766666667","6500400","永和區"
"234015","745-BX","2017/07/08 14:17:57","新北市永和區仁愛路55號","121.513678333333","25.0132683333333","6500400","永和區"
"234028","746-BX","2017/07/08 14:18:07","新北市永和區中正路81號","121.515178333333","24.9969166666667","6500400","永和區"
"234060","AAD-866","2017/07/08 14:17:52","新北市永和區安樂路194巷7號","121.515381666667","25.001165","6500400","永和區"
"234040","862-TW","2017/07/08 14:18:05","新北市中和區中和路350巷4號","121.510521666667","25.0007783333333","6500400","永和區"
"234048","863-TW","2017/07/08 14:17:59","新北市永和區新生路53巷2弄7號","121.50897","25.0161133333333","6500400","永和區"
"234025","9371-KE","2017/07/08 14:17:54","新北市永和區中正路5號","121.513828333333","24.9956016666667","6500400","永和區"
"248017","225-UY","2017/07/08 14:16:12","新北市五股區壟路16號","121.41551","25.0854516666667","6501500","五股區"
"234022","9380-KE","2017/07/08 14:18:06","新北市永和區竹林路23號","121.517171666667","25.014655","6500400","永和區"
"234072","AAC-211","2017/07/08 14:17:51","新北市永和區豫溪街191巷7弄26號","121.523156666667","25.0112333333333","6500400","永和區"
"234066","AAC-212","2017/07/08 14:18:02","新北市永和區保平路214巷8弄1號","121.509486666667","25.0063166666667","6500400","永和區"
"234001","AAC-295","2017/07/08 14:15:52","新北市永和區中正路609巷1號","121.516155","25.00947","6500400","永和區"
"231030","001-UM","2017/07/08 14:17:59","新北市新店區安民街12號","121.515403333333","24.9643833333333","6500600","新店區"
"231002","002-UM","2017/07/08 14:17:58","新北市新店區中正路468號","121.533866666667","24.9796266666667","6500600","新店區"
"231025","0291-UT","2017/07/08 14:18:01","新北市新店區自立街45巷7號","121.536631666667","24.9795466666667","6500600","新店區"
"231029","106-UY","2017/07/08 14:18:06","新北市新店區安康路二段161號","121.51022","24.95929","6500600","新店區"
"231018","107-UY","2017/07/08 14:18:04","新北市新店區中央四街54號","121.527603333333","24.97505","6500600","新店區"
"231012","108-UY","2017/07/08 14:18:00","新北市新店區中興路一段288巷7號","121.546333333333","24.9688183333333","6500600","新店區"
"231020","110-UY","2017/07/08 14:18:06","新北市新店區桂山路51巷6-1號","121.562356666667","24.9013833333333","6500600","新店區"
"231034","268-BY","2017/07/08 14:18:06","新北市新店區黎明路3號","121.50352","24.9524033333333","6500600","新店區"
"231017","AAD-862","2017/07/08 14:18:10","新北市新店區北宜路二段392巷2號","121.565045","24.953245","6500600","新店區"
"231028","355-BY","2017/07/08 14:17:51","新北市新店區安和路二段173號","121.518535","24.9745166666667","6500600","新店區"
"231027","3712-VJ","2017/07/08 14:17:56","新北市新店區光明街286巷19號","121.541038333333","24.96353","6500600","新店區"
"231038","4715-K9","2017/07/08 14:18:10","新北市新店區溪洲路6巷16號","121.533996666667","24.9619233333333","6500600","新店區"
"231036","512-UM","2017/07/08 14:17:50","新北市新店區安祥路109巷106號","121.477471666667","24.9588766666667","6500600","新店區"
"231023","513-UM","2017/07/08 14:17:59","新北市新店區光明街73號","121.538935","24.960585","6500600","新店區"
"231035","515-UM","2017/07/08 14:18:07","新北市新店區碧安街6巷1號","121.51702","24.9677733333333","6500600","新店區"
"231003","616-UM","2017/07/08 14:17:58","新北市新店區中興路一段216號","121.543841666667","24.9656833333333","6500600","新店區"
"231006","617-UM","2017/07/08 14:18:05","新北市新店區北宜路二段599號","121.56864","24.9557633333333","6500600","新店區"
"231001","619-UM","2017/07/08 14:18:07","新北市新店區北新路一段327號","121.54174","24.968375","6500600","新店區"
"231013","719-UM","2017/07/08 14:18:07","新北市新店區大豐路53號","121.53995","24.9797333333333","6500600","新店區"
"231033","720-UM","2017/07/08 14:18:03","新北市新店區溪洲路201-1號","121.52993","24.9671916666667","6500600","新店區"
"231005","897-TW","2017/07/08 14:18:10","新北市新店區中興路三段200號","121.54391","24.9819266666667","6500600","新店區"
"231004","899-TW","2017/07/08 14:17:55","新北市新店區北新路二段94號","121.543048333333","24.9730616666667","6500600","新店區"
"235030","003-UY","2017/07/08 14:17:56","新北市中和區枋寮街43號","121.501743333333","25.0007516666667","6500300","中和區"
"235020","096-UM","2017/07/08 14:18:08","新北市中和區中山路三段100號","121.477018333333","25.0058366666667","6500300","中和區"
"235003","097-UM","2017/07/08 14:18:08","新北市中和區秀峰街103巷2弄13號","121.519941666667","24.9904716666667","6500300","中和區"
"235029","098-UM","2017/07/08 14:18:03","新北市中和區中山路二段64巷12弄16號","121.504121666667","25.0054083333333","6500300","中和區"
"235004","150-BY","2017/07/08 14:17:58","新北市中和區保健路106巷6弄19號","121.511208333333","24.99582","6500300","中和區"
"235022","151-BY","2017/07/08 14:18:02","新北市中和區中正路637巷60弄61號","121.485488333333","24.9931866666667","6500300","中和區"
"235019","183-VK","2017/07/08 14:18:01","新北市中和區中山路三段179巷2號","121.473218333333","25.0057733333333","6500300","中和區"
"235002","185-VK","2017/07/08 14:17:52","新北市中和區大仁街20巷34號","121.519306666667","24.993095","6500300","中和區"
"235013","186-VK","2017/07/08 14:17:48","新北市中和區景新街175號","121.506686666667","24.9955083333333","6500300","中和區"
"235031","255-BX","2017/07/08 14:17:58","新北市中和區新生街164號","121.483656666667","25.00028","6500300","中和區"
"235001","293-VK","2017/07/08 14:18:08","新北市中和區中興街202巷2號","121.499355","24.99012","6500300","中和區"
"235036","301-VK","2017/07/08 14:18:09","新北市中和區莊敬路33巷24號","121.50023","25.0056083333333","6500300","中和區"
"235007","352-BY","2017/07/08 14:17:56","新北市中和區景平路274號","121.51416","24.9926333333333","6500300","中和區"
"235015","376-QA","2017/07/08 14:18:00","新北市中和區興南路一段93巷58弄4號","121.510575","24.9859366666667","6500300","中和區"
"235032","377-QA","2017/07/08 14:18:07","新北市中和區景平路523號","121.499021666667","24.9988916666667","6500300","中和區"
"235025","378-QA","2017/07/08 14:18:03","新北市中和區員山路143巷42號","121.478858333333","24.9954716666667","6500300","中和區"
"235014","4979-A6","2017/07/08 14:17:37","新北市中和區景安路220巷4弄8號","121.503615","24.99098","6500300","中和區"
"235033","4980-A6","2017/07/08 14:17:51","新北市中和區連城路67號","121.497578333333","25.0013366666667","6500300","中和區"
"235006","551-UM","2017/07/08 14:18:06","新北市中和區大勇街60巷14弄2號","121.518633333333","24.99459","6500300","中和區"
"235034","558-UM","2017/07/08 14:17:52","新北市中和區中和路116號","121.503071666667","24.9997533333333","6500300","中和區"
"235009","565-BX","2017/07/08 14:18:06","新北市中和區景新街467巷15弄12號","121.513801666667","24.9887283333333","6500300","中和區"
"235018","640-BX","2017/07/08 14:17:55","新北市中和區民德路189巷7號","121.469201666667","24.99899","6500300","中和區"
"235024","647-TV","2017/07/08 14:18:01","新北市中和區中山路三段101號","121.475096666667","25.0059383333333","6500300","中和區"
"235011","732-UM","2017/07/08 14:18:05","新北市中和區興南路一段56巷28號","121.510295","24.9913683333333","6500300","中和區"
"235010","733-UM","2017/07/08 14:17:54","新北市中和區忠孝街1巷18號","121.50859","24.9838183333333","6500300","中和區"
"235035","783-BX","2017/07/08 14:18:11","新北市中和區永和路363巷8號","121.482085","25.010985","6500300","中和區"
"235026","800-TS","2017/07/08 14:18:00","新北市中和區中山路二段480號","121.487571666667","25.0049216666667","6500300","中和區"
"235021","801-TS","2017/07/08 14:18:06","新北市中和區民利街50號","121.479295","24.99877","6500300","中和區"
"235005","802-TS","2017/07/08 14:17:52","新北市中和區景安路35號","121.507745","24.9985166666667","6500300","中和區"
"235016","805-TS","2017/07/08 14:17:51","新北市中和區興南路二段142巷31弄28號","121.501991666667","24.9834316666667","6500300","中和區"
"235012","896-TW","2017/07/08 14:17:51","新北市中和區華新街109巷22號","121.508501666667","24.9805383333333","6500300","中和區"
"235017","900-TW","2017/07/08 14:17:58","新北市中和區華福街57巷8號","121.466821666667","24.9970283333333","6500300","中和區"
"235027","911-UM","2017/07/08 14:18:09","新北市中和區圓通路198巷7號","121.49568","24.9943733333333","6500300","中和區"
"235001","AAC-213","2017/07/08 14:17:59","新北市中和區自強路52號","121.520175","24.9948283333333","6500300","中和區"
"235023","AAC-215","2017/07/08 14:18:03","新北市中和區錦和路195巷14號","121.49138","24.990975","6500300","中和區"
"220016","013-TV","2017/07/08 14:18:06","新北市板橋區萬安街103巷12號","121.483013333333","25.0246216666667","6500100","板橋區"
"220013","072-UY","2017/07/08 14:17:55","新北市板橋區國泰街76巷21號","121.467076666667","25.00703","6500100","板橋區"
"220034","073-UY","2017/07/08 14:18:06","新北市板橋區中正路216巷100號","121.458773333333","25.0191483333333","6500100","板橋區"
"220017","AAD-861","2017/07/08 14:18:07","新北市板橋區四川路一段104號","121.459553333333","25.0046383333333","6500100","板橋區"
"220105","120-SR","2017/07/08 14:18:01","新北市板橋區雙十路三段68巷2號","121.470488333333","25.0319716666667","6500100","板橋區"
"247019","893-R6","2017/07/08 14:17:56","新北市蘆洲區仁愛街37號","121.472196666667","25.0927433333333","6501400","蘆洲區"
"247009","546-UM","2017/07/08 14:18:03","新北市蘆洲區中山一路122巷52號","121.47661","25.08276","6501400","蘆洲區"
"247017","500-BY","2017/07/08 14:17:56","新北市蘆洲區民權路80號","121.474606666667","25.08758","6501400","蘆洲區"
"247002","402-BY","2017/07/08 14:18:09","新北市三重區永安北路二段171號","121.483928333333","25.0850333333333","6501400","蘆洲區"
"247005","341-TH","2017/07/08 14:17:58","新北市蘆洲區長安街22巷24號","121.464713333333","25.0798516666667","6501400","蘆洲區"
"247007","339-TH","2017/07/08 14:17:53","新北市蘆洲區中山一路223巷10號","121.473955","25.08052","6501400","蘆洲區"
"247023","337-TH","2017/07/08 14:18:10","新北市蘆洲區長興路415號","121.461571666667","25.0930816666667","6501400","蘆洲區"
"247001","336-TH","2017/07/08 14:17:51","新北市蘆洲區永樂街83號","121.455875","25.0887066666667","6501400","蘆洲區"
"247013","057-VK","2017/07/08 14:17:35","新北市蘆洲區成功路58號","121.472583333333","25.0803233333333","6501400","蘆洲區"
"247003","056-VK","2017/07/08 14:18:03","新北市蘆洲區長安街170號","121.459231666667","25.0833316666667","6501400","蘆洲區"
"247011","007-UY","2017/07/08 14:18:09","新北市蘆洲區民權路38巷2號","121.47622","25.08649","6501400","蘆洲區"
"247021","002-UY","2017/07/08 14:18:05","新北市蘆洲區仁愛街212巷38號","121.46415","25.0945433333333","6501400","蘆洲區"
"247015","001-UY","2017/07/08 14:17:57","新北市蘆洲區中正路185巷31弄22號","121.466778333333","25.0837616666667","6501400","蘆洲區"
"228005","097-TW","2017/07/08 14:17:51","新北市貢寮區美豐里雞母嶺街60號","121.897396666667","25.0617616666667","6502600","貢寮區"
"228004","212-TW","2017/07/08 14:18:01","新北市貢寮區雙玉里下雙溪街26號","121.924531666667","25.0110816666667","6502600","貢寮區"
"208004","AAC-292","2017/07/08 14:17:52","新北市金山區六股里下六股65號","121.613865","25.22314","6502700","金山區"
"208003","665-BX","2017/07/08 14:18:00","新北市土城區大暖路41號","121.424463333333","24.9587216666667","6502700","金山區"
"207002","749-BX","2017/07/08 14:17:38","新北市萬里區溪底里瑞泉路2-6號","121.609875","25.1428016666667","6502800","萬里區"
"207001","463-BY","2017/07/08 14:18:02","新北市萬里區磺潭里清水18號","121.637836666667","25.19776","6502800","萬里區"
"252005","073-UM","2017/07/08 14:17:50","新北市三芝區圓山里二坪頂47號","121.536976666667","25.245525","6502100","三芝區"
"236068","105-UM","2017/07/08 14:17:54","新北市土城區明德路一段325號","121.45878","24.9770433333333","6501300","土城區"
"236041","107-UM","2017/07/08 14:18:07","新北市土城區樂利街3巷16號","121.448556666667","24.9863716666667","6501300","土城區"
"236075","166-UM","2017/07/08 14:17:50","新北市土城區永安街115巷38弄2號","121.428631666667","24.9627366666667","6501300","土城區"
"236029","253-BX","2017/07/08 14:18:06","新北市土城區中央路二段180巷10號","121.44128","24.9764233333333","6501300","土城區"
"236025","269-VK","2017/07/08 14:17:53","新北市土城區承天路18號","121.439456666667","24.963485","6501300","土城區"
"236013","270-VK","2017/07/08 14:17:56","新北市土城區青雲路39巷7號","121.460265","24.9873633333333","6501300","土城區"
"236035","271-VK","2017/07/08 14:18:01","新北市土城區青雲路483巷2號","121.459101666667","24.973725","6501300","土城區"
"236017","401-BY","2017/07/08 14:17:57","新北市土城區金城路二段396號","121.46381","24.9857266666667","6501300","土城區"
"236061","752-BX","2017/07/08 14:18:00","新北市土城區金城路三段157號","121.468873333333","24.98832","6501300","土城區"
"236057","912-UM","2017/07/08 14:18:09","新北市土城區中央路四段159-3號","121.415226666667","24.9569","6501300","土城區"
"236045","913-UM","2017/07/08 14:18:03","新北市土城區明德路一段280-1號","121.45732","24.9774966666667","6501300","土城區"
"236054","AAC-216","2017/07/08 14:17:59","新北市土城區中華路二段100號","121.43811","24.974365","6501300","土城區"
"221010","276-VK","2017/07/08 13:24:24","新北市汐止區汐萬路一段256巷3號","121.653448333333","25.07461","6501100","汐止區"
"221032","280-BY","2017/07/08 14:18:00","新北市新店區薏仁坑路自強巷1號","121.497095","24.9582066666667","6501100","汐止區"
"221002","646-BX","2017/07/08 14:17:02","台北市文山區新光路二段74巷1號","121.593198333333","24.9948383333333","6501100","汐止區"
"220027","145-BY","2017/07/08 14:18:01","新北市板橋區民權路202巷13弄25號","121.458513333333","25.0163466666667","6500100","板橋區"
"220030","610-BX","2017/07/08 14:18:01","新北市板橋區溪崑二街134號","121.425891666667","24.9877083333333","6500100","板橋區"
"220052","257-TC","2017/07/08 14:18:05","新北市板橋區文化路一段188巷9弄108號","121.468433333333","25.019435","6500100","板橋區"
"220040","267-BY","2017/07/08 14:17:59","新北市板橋區縣民大道三段187巷13號","121.479065","25.0251766666667","6500100","板橋區"
"220004","276-BY","2017/07/08 14:18:00","新北市板橋區國慶路8號","121.458271666667","24.99441","6500100","板橋區"
"220020","277-BY","2017/07/08 14:17:50","新北市板橋區金門街282號","121.429205","24.9861616666667","6500100","板橋區"
"220043","283-UM","2017/07/08 14:18:09","新北市板橋區光武街110巷12號","121.466341666667","25.02962","6500100","板橋區"
"220019","283-VK","2017/07/08 14:18:00","新北市板橋區重慶路353巷3號","121.464671666667","24.9980333333333","6500100","板橋區"
"220050","285-UM","2017/07/08 14:18:02","新北市板橋區莒光路165巷22號","121.474103333333","25.0246533333333","6500100","板橋區"
"220001","285-VK","2017/07/08 14:17:56","新北市板橋區富山街10號","121.47863","25.0218366666667","6500100","板橋區"
"220031","286-VK","2017/07/08 14:18:02","新北市板橋區大觀路二段174巷186弄7號","121.442711666667","25.0035783333333","6500100","板橋區"
"220029","287-VK","2017/07/08 14:18:11","新北市板橋區南雅西路一段59號","121.453645","25.005125","6500100","板橋區"
"220039","288-VK","2017/07/08 14:17:58","新北市板橋區長江路一段106巷13弄29號","121.461148333333","25.0296866666667","6500100","板橋區"
"220009","293-UM","2017/07/08 14:17:55","新北市板橋區中山路二段318巷20弄19號","121.480916666667","25.0188566666667","6500100","板橋區"
"220032","296-UM","2017/07/08 14:17:55","新北市板橋區溪崑一街30巷28號","121.429306666667","24.991425","6500100","板橋區"
"220023","297-UM","2017/07/08 14:18:01","新北市板橋區館前西路85號","121.457111666667","25.0069966666667","6500100","板橋區"
"220041","299-UM","2017/07/08 14:18:06","新北市板橋區光武街46巷1-2號","121.467285","25.02621","6500100","板橋區"
"220010","303-R5","2017/07/08 14:17:56","新北市板橋區三民路二段153巷3弄17號","121.479773333333","25.015015","6500100","板橋區"
"220047","317-R6","2017/07/08 14:18:02","新北市板橋區民有街88號","121.464955","25.027405","6500100","板橋區"
"220028","461-BY","2017/07/08 14:18:03","新北市板橋區大觀路二段1巷28號","121.449445","25.00373","6500100","板橋區"
"220012","486-VK","2017/07/08 14:17:47","新北市板橋區漢生東路83巷2-1號","121.46702","25.0157716666667","6500100","板橋區"
"220038","487-VK","2017/07/08 14:18:06","新北市板橋區文化路二段159號","121.470285","25.0271966666667","6500100","板橋區"
"220037","491-VK","2017/07/08 14:17:48","新北市板橋區文化路二段182巷3弄29號","121.472176666667","25.0283133333333","6500100","板橋區"
"220104","560-BX","2017/07/08 14:18:08","新北市板橋區中正路362號","121.454616666667","25.0239","6500100","板橋區"
"220014","568-UM","2017/07/08 14:18:08","新北市板橋區長安街138巷1弄56號","121.474028333333","25.0101583333333","6500100","板橋區"
"220011","609-BX","2017/07/08 14:18:03","新北市板橋區三民路二段251號","121.479003333333","25.0123","6500100","板橋區"
"220005","686-BX","2017/07/08 14:18:04","新北市板橋區重慶路237號","121.463061666667","25.0008083333333","6500100","板橋區"
"220025","687-BX","2017/07/08 14:18:02","新北市板橋區大觀路二段157號","121.445425","25.0007066666667","6500100","板橋區"
"220042","689-BX","2017/07/08 14:18:05","新北市板橋區文化路一段383號","121.467363333333","25.0218716666667","6500100","板橋區"
"220002","741-BX","2017/07/08 14:17:55","新北市板橋區重慶路64號","121.461806666667","25.0067033333333","6500100","板橋區"
"220003","827-TW","2017/07/08 14:18:00","新北市板橋區館前東路156巷42號","121.464506666667","25.0067583333333","6500100","板橋區"
"220051","830-TW","2017/07/08 14:17:59","新北市板橋區松柏街15巷12號","121.474126666667","25.0301316666667","6500100","板橋區"
"220045","831-TW","2017/07/08 14:17:58","新北市板橋區大同街26巷4號","121.478015","25.0271533333333","6500100","板橋區"
"220022","895-R6","2017/07/08 14:17:51","新北市板橋區北門街8號","121.457731666667","25.0105433333333","6500100","板橋區"
"220021","985-R7","2017/07/08 14:18:00","新北市板橋區中正路148號","121.456805","25.01625","6500100","板橋區"
"220046","AAC-210","2017/07/08 14:18:00","新北市板橋區漢生西路89巷3弄1號","121.461356666667","25.0192483333333","6500100","板橋區"
"220018","AAC-253","2017/07/08 14:18:02","新北市板橋區四川路一段256號","121.459091666667","25.0012916666667","6500100","板橋區"
