"lineid","car","time","location","longitude","latitude","cityid","cityname"
"249005","172-UM","2017/07/08 16:48:09","新北市八里區渡船頭9-2號","121.426983333333","25.15299","6502300","八里區"
"249001","173-UM","2017/07/08 16:47:54","新北市八里區挖子尾街10號","121.41545","25.1642683333333","6502300","八里區"
"249004","303-UY","2017/07/08 16:48:02","新北市八里區博物館路9號","121.415398333333","25.1641333333333","6502300","八里區"
"249002","305-UY","2017/07/08 16:48:09","新北市八里區牛寮埔33號","121.429886666667","25.1457066666667","6502300","八里區"
"249003","593-UM","2017/07/08 16:47:51","新北市八里區博物館路181號","121.405893333333","25.1568016666667","6502300","八里區"
"244007","080-UY","2017/07/08 16:45:23","新北市林口區粉寮路二段167-1號","121.404485","25.0885866666667","6501700","林口區"
"231046","278-BY","2017/07/08 16:47:50","新北市新店區灣潭路29-5號","121.539611666667","24.9386666666667","6500600","新店區"
"241011","013-R5","2017/07/08 16:48:02","新北市三重區公園街7號","121.499521666667","25.0727283333333","6500200","三重區"
"241028","022-UY","2017/07/08 16:47:57","新北市三重區光興街79號","121.497735","25.0599833333333","6500200","三重區"
"241008","059-VK","2017/07/08 16:47:55","新北市三重區永安北路一段17巷24號","121.477461666667","25.0751266666667","6500200","三重區"
"241009","060-VK","2017/07/08 16:47:49","新北市三重區三和路四段203巷242號","121.487055","25.0809133333333","6500200","三重區"
"241031","061-VK","2017/07/08 16:48:06","新北市三重區新北大道一段15巷2弄2號","121.487751666667","25.0606483333333","6500200","三重區"
"241015","062-VK","2017/07/08 16:47:59","新北市三重區文化北路43巷28號","121.499613333333","25.06562","6500200","三重區"
"241017","063-VK","2017/07/08 16:47:52","新北市三重區大同北路60巷10號","121.493898333333","25.0638183333333","6500200","三重區"
"241024","065-VK","2017/07/08 16:48:04","新北市三重區中正北路317巷34號","121.476085","25.0731416666667","6500200","三重區"
"241026","066-VK","2017/07/08 16:48:05","新北市三重區文化南路8-2號","121.500356666667","25.0621983333333","6500200","三重區"
"241003","091-VK","2017/07/08 16:48:03","新北市三重區五華街87巷29號","121.493085","25.083905","6500200","三重區"
"241002","156-TC","2017/07/08 16:48:07","新北市三重區仁義街235號","121.496395","25.082475","6500200","三重區"
"241005","262-UM","2017/07/08 16:47:58","新北市三重區仁華街80巷20號","121.484483333333","25.0836816666667","6500200","三重區"
"241032","265-UM","2017/07/08 16:48:05","新北市三重區三光街30巷1號","121.48481","25.0605033333333","6500200","三重區"
"241016","266-UM","2017/07/08 16:48:06","新北市三重區大同北路91號","121.494658333333","25.0635966666667","6500200","三重區"
"241022","267-UM","2017/07/08 16:47:52","新北市三重區貴陽街47巷2弄15號","121.484818333333","25.0632816666667","6500200","三重區"
"241018","268-UM","2017/07/08 16:48:04","新北市三重區正義北路261號","121.49556","25.0697583333333","6500200","三重區"
"241013","270-UM","2017/07/08 16:47:52","新北市三重區仁愛街73號","121.496266666667","25.0729683333333","6500200","三重區"
"241025","271-UM","2017/07/08 16:47:50","新北市三重區中正北路530巷27號","121.471933333333","25.0702233333333","6500200","三重區"
"241007","398-BY","2017/07/08 16:48:01","新北市三重區三和路四段177-1號","121.482828333333","25.0788816666667","6500200","三重區"
"241020","413-TH","2017/07/08 16:47:52","新北市三重區忠孝路二段34號","121.485818333333","25.07096","6500200","三重區"
"241004","475-VK","2017/07/08 16:47:52","新北市三重區仁愛街399號","121.491155","25.0809616666667","6500200","三重區"
"241019","478-VK","2017/07/08 16:48:09","新北市三重區力行路一段179巷17弄2號","121.485278333333","25.0700033333333","6500200","三重區"
"241030","480-VK","2017/07/08 16:48:00","新北市三重區新興路2巷6號","121.492405","25.0522733333333","6500200","三重區"
"241014","543-UM","2017/07/08 16:47:58","新北市三重區長榮路77號","121.502693333333","25.0691316666667","6500200","三重區"
"241023","545-UM","2017/07/08 16:47:56","新北市三重區中華路76巷37-1號","121.482086666667","25.062585","6500200","三重區"
"241001","547-UM","2017/07/08 16:48:09","新北市三重區仁政街86巷17號","121.491715","25.0774233333333","6500200","三重區"
"241006","AAD-863","2017/07/08 16:47:56","新北市三重區力行路二段184號","121.483293333333","25.07723","6500200","三重區"
"241012","941-UM","2017/07/08 16:47:52","新北市三重區三和路三段101巷179號","121.499573333333","25.07398","6500200","三重區"
"241029","942-UM","2017/07/08 16:47:55","新北市三重區集美街175號","121.491335","25.0540416666667","6500200","三重區"
"241033","AAC-255","2017/07/08 16:47:52","新北市三重區新北大道二段139巷12號","121.466225","25.060765","6500200","三重區"
"235067","255-BX","2017/07/08 16:25:00","新北市中和區員山路36巷13號","121.484381666667","24.9912516666667","6500300","中和區"
"235062","800-TS","2017/07/08 15:40:34","新北市中和區員山路36巷16-3號","121.48508","24.9914616666667","6500300","中和區"
"247006","341-TH","2017/07/08 16:48:00","新北市蘆洲區永安南路二段132-1號","121.462528333333","25.0785433333333","6501400","蘆洲區"
"247008","339-TH","2017/07/08 16:47:55","新北市蘆洲區中山二路45巷30號","121.474293333333","25.0811416666667","6501400","蘆洲區"
"247002","336-TH","2017/07/08 16:48:03","新北市五股區凌雲路一段21號","121.452403333333","25.1004966666667","6501400","蘆洲區"
"247014","057-VK","2017/07/08 16:48:11","新北市蘆洲區三民路91號","121.474175","25.08432","6501400","蘆洲區"
"247004","056-VK","2017/07/08 16:47:49","新北市蘆洲區長榮路201號","121.460871666667","25.0846733333333","6501400","蘆洲區"
"247016","001-UY","2017/07/08 16:47:54","新北市蘆洲區正和街10號","121.470151666667","25.0827183333333","6501400","蘆洲區"
"228003","097-TW","2017/07/08 16:47:54","新北市貢寮區貢寮里朝陽街1-2號","121.912335","25.0212366666667","6502600","貢寮區"
"228001","212-TW","2017/07/08 16:48:06","新北市貢寮區貢寮里朝陽街1-2號","121.912185","25.0212216666667","6502600","貢寮區"
"228002","663-BX","2017/07/08 16:48:03","新北市貢寮區貢寮里朝陽街27號","121.909335","25.0220016666667","6502600","貢寮區"
"224009","285-BY","2017/07/08 16:48:05","新北市瑞芳區傑魚坑路183號","121.788563333333","25.1082833333333","6501200","瑞芳區"
"224008","275-VK","2017/07/08 16:48:04","新北市瑞芳區民權街3-1號","121.809306666667","25.1083933333333","6501200","瑞芳區"
"224007","273-VK","2017/07/08 16:48:07","新北市瑞芳區中央路48巷162號","121.759395","25.1035233333333","6501200","瑞芳區"
"224005","271-BY","2017/07/08 16:47:55","新北市瑞芳區洞頂路61號","121.861663333333","25.1204166666667","6501200","瑞芳區"
"227010","642-TC","2017/07/08 16:47:54","新北市雙溪區牡丹里石1-1號","121.864396666667","25.0480666666667","6502500","雙溪區"
"227002","400-TW","2017/07/08 16:48:04","新北市雙溪區外柑里外柑腳71號","121.80711","25.017555","6502500","雙溪區"
"251014","180-VK","2017/07/08 16:48:07","新北市淡水區淡金路三段161號","121.448488333333","25.2021966666667","6501000","淡水區"
"251008","181-VK","2017/07/08 16:48:05","新北市淡水區樹梅坑9號","121.472755","25.1426916666667","6501000","淡水區"
"251016","442-VK","2017/07/08 16:47:53","新北市淡水區水頭41號","121.478163333333","25.1850066666667","6501000","淡水區"
"251011","650-BX","2017/07/08 16:47:49","新北市淡水區中正路二段31號","121.419351666667","25.1817","6501000","淡水區"
"252002","178-VK","2017/07/08 16:47:55","新北市三芝區茂長里陳厝坑12-1號","121.514343333333","25.255355","6502100","三芝區"
"252001","292-VK","2017/07/08 16:48:01","新北市三芝區埔坪里埔頭坑52號","121.507721666667","25.26529","6502100","三芝區"
"242048","751-BX","2017/07/08 16:47:59","新北市新莊區新泰路357巷3弄57號","121.442131666667","25.0394066666667","6500500","新莊區"
"242031","415-TV","2017/07/08 16:47:54","新北市新莊區新泰路357巷3弄57號","121.442103333333","25.0393516666667","6500500","新莊區"
"242039","400-BY","2017/07/08 16:48:09","新北市新莊區新泰路357巷3弄57號","121.44206","25.0396333333333","6500500","新莊區"
"242013","346-TH","2017/07/08 16:47:50","新北市新莊區三和路12-18號","121.442073333333","25.037615","6500500","新莊區"
"242017","348-TH","2017/07/08 01:24:30","新北市新莊區新泰路357巷3弄57號","121.442131666667","25.0394633333333","6500500","新莊區"
"238021","311-TH","2017/07/08 16:48:09","新北市樹林區中山路三段204號","121.386796666667","24.9682116666667","6500700","樹林區"
"239007","AAC-297","2017/07/08 16:47:58","新北市鶯歌區環河路177-23號","121.345216666667","24.9355516666667","6500800","鶯歌區"
"239006","891-R6","2017/07/08 10:50:00","新北市鶯歌區二甲路13-16號","121.344795","24.9352383333333","6500800","鶯歌區"
"239008","527-UM","2017/07/08 16:47:55","新北市鶯歌區二甲路175號","121.345078333333","24.9357083333333","6500800","鶯歌區"
"239005","526-UM","2017/07/08 16:47:57","新北市鶯歌區二甲路13-16號","121.34525","24.935375","6500800","鶯歌區"
"221010","276-VK","2017/07/08 13:24:24","新北市汐止區汐萬路一段256巷3號","121.653448333333","25.07461","6501100","汐止區"
"220030","610-BX","2017/07/08 15:50:39","新北市板橋區華東街1-10號","121.448273333333","24.9949366666667","6500100","板橋區"
