"lineid","car","time","location","longitude","latitude","cityid","cityname"
"234046","148-BY","2017/07/08 18:37:54","新北市永和區林森路92號","121.523295","25.0036583333333","6500400","永和區"
"234013","149-BY","2017/07/08 18:37:54","新北市永和區保福路二段105號","121.510268333333","25.013255","6500400","永和區"
"234007","207-UY","2017/07/08 18:37:51","新北市永和區保生路55-1號","121.504921666667","25.0114766666667","6500400","永和區"
"234081","298-R6","2017/07/08 18:37:57","新北市永和區林森路65號","121.524043333333","25.0040366666667","6500400","永和區"
"234038","336-UY","2017/07/08 18:37:53","新北市永和區福和路1號","121.526528333333","25.009925","6500400","永和區"
"234086","338-UY","2017/07/08 18:38:04","新北市中和區安樂路65號","121.512306666667","24.993835","6500400","永和區"
"234070","552-UM","2017/07/08 18:38:04","新北市永和區福和路1號","121.525918333333","25.00945","6500400","永和區"
"234017","745-BX","2017/07/08 18:37:51","新北市永和區福和路1號","121.526476666667","25.009925","6500400","永和區"
"234030","746-BX","2017/07/08 18:38:06","新北市永和區環河東路三段60號","121.527011666667","25.0058733333333","6500400","永和區"
"234061","AAD-866","2017/07/08 18:38:10","新北市永和區福和路1號","121.52609","25.0098616666667","6500400","永和區"
"234042","862-TW","2017/07/08 18:38:07","新北市永和區永貞路298號","121.51236","25.00465","6500400","永和區"
"234050","863-TW","2017/07/08 18:27:39","新北市永和區福和路1號","121.526426666667","25.0098916666667","6500400","永和區"
"234026","9371-KE","2017/07/08 18:37:56","新北市永和區自由街52號","121.513583333333","25.006095","6500400","永和區"
"234011","9373-KE","2017/07/08 18:38:05","新北市永和區文化路9巷22弄4號","121.515075","25.0146716666667","6500400","永和區"
"249005","172-UM","2017/07/08 18:38:08","新北市八里區中華路三段236號","121.38978","25.1261966666667","6502300","八里區"
"249001","173-UM","2017/07/08 18:37:54","新北市八里區龍米路一段213號","121.451495","25.1315516666667","6502300","八里區"
"249004","303-UY","2017/07/08 18:38:02","新北市八里區忠四街9號","121.424968333333","25.1606633333333","6502300","八里區"
"249002","305-UY","2017/07/08 18:37:49","新北市八里區龍形一街31號","121.449688333333","25.1303883333333","6502300","八里區"
"248014","025-BX","2017/07/08 18:37:53","新北市五股區成泰路一段237-9號","121.4365","25.08012","6501500","五股區"
"248016","026-BX","2017/07/08 18:37:59","新北市五股區凌雲路一段149巷5-1號","121.448955","25.1017383333333","6501500","五股區"
"248008","095-VK","2017/07/08 18:37:47","新北市五股區中興路一段155號","121.464951666667","25.0736516666667","6501500","五股區"
"248020","225-UY","2017/07/08 18:37:33","新北市五股區孝義路102號","121.445286666667","25.1196516666667","6501500","五股區"
"248012","247-BX","2017/07/08 18:31:37","新北市五股區御成路139號","121.440566666667","25.0942833333333","6501500","五股區"
"248010","272-BY","2017/07/08 18:38:04","新北市五股區明德路31號","121.434471666667","25.0713716666667","6501500","五股區"
"248004","677-BX","2017/07/08 18:37:59","新北市五股區民義路一段206號","121.430343333333","25.0890533333333","6501500","五股區"
"248002","678-BX","2017/07/08 18:38:04","新北市五股區西雲路206號","121.447813333333","25.0956783333333","6501500","五股區"
"234022","9380-KE","2017/07/08 18:37:59","新北市永和區福和路76巷5弄16號","121.52226","25.008385","6500400","永和區"
"234077","969-R7","2017/07/08 18:38:00","新北市中和區安樂路101-3號","121.513493333333","24.99512","6500400","永和區"
"234067","AAC-212","2017/07/08 18:38:08","新北市永和區福和路95號","121.522096666667","25.0077933333333","6500400","永和區"
"234003","AAC-295","2017/07/08 18:35:40","新北市永和區福和路1號","121.526463333333","25.00986","6500400","永和區"
"244013","069-UM","2017/07/08 18:38:06","新北市林口區文化一路二段192號","121.382816666667","25.0803133333333","6501700","林口區"
"244007","080-UY","2017/07/08 18:37:09","新北市林口區後湖18-3號","121.387406666667","25.0977783333333","6501700","林口區"
"244019","742-UY","2017/07/08 18:37:51","新北市林口區麗園路89號","121.373106666667","25.06868","6501700","林口區"
"244009","410-SL","2017/07/08 18:38:02","新北市林口區文林一街12巷1號","121.37705","25.0854833333333","6501700","林口區"
"244023","483-VK","2017/07/08 18:37:53","新北市林口區四維路156-2號","121.381116666667","25.0756183333333","6501700","林口區"
"244017","485-VK","2017/07/08 18:37:51","新北市林口區文化二路一段281號","121.368028333333","25.07119","6501700","林口區"
"244011","701-TV","2017/07/08 18:37:59","新北市林口區興林路17巷5弄6號","121.390635","25.0771933333333","6501700","林口區"
"244025","837-TS","2017/07/08 18:38:05","新北市林口區南勢三街31號","121.358383333333","25.0782183333333","6501700","林口區"
"244021","838-TS","2017/07/08 18:38:05","新北市林口區自強四街17號","121.399321666667","25.07646","6501700","林口區"
"243013","AAD-798","2017/07/08 18:38:04","新北市泰山區明志路三段206巷1號","121.42332","25.0379016666667","6501600","泰山區"
"243012","646-TV","2017/07/08 18:38:06","新北市泰山區泰林路二段152號","121.43407","25.0600533333333","6501600","泰山區"
"243016","680-BX","2017/07/08 18:37:50","新北市泰山區黎明路3號","121.421165","25.06326","6501600","泰山區"
"222003","436-BY","2017/07/08 18:38:10","新北市深坑區翠谷街81巷10號","121.627975","25.0093","6501800","深坑區"
"222001","628-TS","2017/07/08 18:38:07","新北市深坑區北深路一段100號","121.635686666667","25.0107383333333","6501800","深坑區"
"222002","659-BX","2017/07/08 18:38:04","新北市深坑區雲鄉路2號","121.620946666667","24.999685","6501800","深坑區"
"231061","001-UM","2017/07/08 18:37:53","新北市新店區安華路28-1號","121.519448333333","24.96101","6500600","新店區"
"231041","002-UM","2017/07/08 18:38:05","新北市新店區安華路28-1號","121.519743333333","24.9608066666667","6500600","新店區"
"231056","0291-UT","2017/07/08 18:37:56","新北市新店區自立街33號","121.537383333333","24.979615","6500600","新店區"
"231060","106-UY","2017/07/08 18:38:03","新北市新店區安華路28-1號","121.519595","24.96077","6500600","新店區"
"231051","107-UY","2017/07/08 18:38:02","新北市新店區安華路28-1號","121.519938333333","24.9614583333333","6500600","新店區"
"231048","108-UY","2017/07/08 18:37:54","新北市新店區環河路29巷1號","121.53644","24.96118","6500600","新店區"
"231052","110-UY","2017/07/08 18:37:54","新北市新店區新烏路一段65號","121.546201666667","24.9446833333333","6500600","新店區"
"231057","256-BX","2017/07/08 18:38:10","新北市新店區新烏路一段201號","121.547503333333","24.93224","6500600","新店區"
"231063","268-BY","2017/07/08 18:38:09","新北市新店區安華路1-1號","121.51934","24.9604983333333","6500600","新店區"
"231046","278-BY","2017/07/08 18:38:10","新北市新店區直潭一街36號","121.535888333333","24.9416083333333","6500600","新店區"
"231050","AAD-862","2017/07/08 18:38:05","新北市新店區安華路28-1號","121.519765","24.9612466666667","6500600","新店區"
"231059","355-BY","2017/07/08 18:37:56","新北市新店區安華路28-1號","121.519085","24.9608266666667","6500600","新店區"
"231058","3712-VJ","2017/07/08 18:37:58","新北市新店區國校路32-3號","121.537788333333","24.9541166666667","6500600","新店區"
"231055","3713-VJ","2017/07/08 18:37:51","新北市新店區華興街38巷3號","121.537146666667","24.969175","6500600","新店區"
"231067","4772-VM","2017/07/08 18:37:51","新北市新店區安華路1-1號","121.519235","24.96047","6500600","新店區"
"231065","512-UM","2017/07/08 18:37:48","新北市新店區安康路一段359-27號","121.518968333333","24.96128","6500600","新店區"
"231054","513-UM","2017/07/08 18:37:57","新北市新店區安華路28-1號","121.51963","24.9610933333333","6500600","新店區"
"231064","515-UM","2017/07/08 18:38:00","新北市新店區安華路28-1號","121.519548333333","24.9609833333333","6500600","新店區"
"231042","616-UM","2017/07/08 18:38:04","新北市新店區安華路28-1號","121.519395","24.9605583333333","6500600","新店區"
"231045","617-UM","2017/07/08 18:38:03","新北市新店區安華路28-1號","121.519391666667","24.9608766666667","6500600","新店區"
"231040","619-UM","2017/07/08 18:37:52","新北市新店區安康路一段229號","121.525578333333","24.9631433333333","6500600","新店區"
"231049","719-UM","2017/07/08 18:38:06","新北市新店區安康路一段164-1號","121.525941666667","24.9630083333333","6500600","新店區"
"231062","720-UM","2017/07/08 18:37:58","新北市新店區安康路一段359-27號","121.518928333333","24.9613383333333","6500600","新店區"
"231043","899-TW","2017/07/08 18:37:49","新北市新店區安華路28-1號","121.519243333333","24.9608433333333","6500600","新店區"
"231066","AKT-0513","2017/07/08 18:34:40","新北市新店區安康路二段362號","121.501805","24.95744","6500600","新店區"
"235066","003-UY","2017/07/08 18:37:52","新北市中和區水源路7巷7號","121.503615","25.0036483333333","6500300","中和區"
"235056","096-UM","2017/07/08 18:37:52","新北市中和區員山路611巷1號","121.477918333333","25.0112633333333","6500300","中和區"
"235039","097-UM","2017/07/08 18:37:59","新北市中和區安平路147號","121.512135","24.9980466666667","6500300","中和區"
"235065","098-UM","2017/07/08 18:37:57","新北市中和區莊敬路49巷20弄18號","121.50252","25.0055933333333","6500300","中和區"
"235040","150-BY","2017/07/08 18:37:57","新北市中和區安平路38號","121.509801666667","24.9949033333333","6500300","中和區"
"235058","151-BY","2017/07/08 18:38:07","新北市中和區圓通路369巷30弄16號","121.489628333333","24.985095","6500300","中和區"
"235055","183-VK","2017/07/08 18:37:55","新北市中和區中山路三段229巷57-1號","121.469035","25.0053083333333","6500300","中和區"
"235038","185-VK","2017/07/08 18:38:02","新北市中和區自強路2號","121.520255","24.9959816666667","6500300","中和區"
"235049","186-VK","2017/07/08 18:38:03","新北市中和區景安路179號","121.505196666667","24.9940083333333","6500300","中和區"
"235067","255-BX","2017/07/08 18:38:06","新北市中和區新生街115號","121.483523333333","25.0017833333333","6500300","中和區"
"235044","293-VK","2017/07/08 18:37:58","新北市中和區復興路301巷2弄1號","121.50151","24.989865","6500300","中和區"
"235072","301-VK","2017/07/08 18:38:05","新北市中和區連城路185號","121.495063333333","24.9982366666667","6500300","中和區"
"235043","352-BY","2017/07/08 18:37:59","新北市中和區景平路217號","121.510486666667","24.9926683333333","6500300","中和區"
"235051","376-QA","2017/07/08 18:37:49","新北市中和區興南路二段114巷10弄13號","121.504218333333","24.9851866666667","6500300","中和區"
"235068","377-QA","2017/07/08 18:38:03","新北市中和區中正路269號","121.495823333333","24.9935416666667","6500300","中和區"
"235061","378-QA","2017/07/08 18:38:00","新北市中和區民享街90巷14號","121.473981666667","25.0003333333333","6500300","中和區"
"235050","4979-A6","2017/07/08 18:38:02","新北市中和區忠孝街124巷10號","121.512893333333","24.9860633333333","6500300","中和區"
"235069","4980-A6","2017/07/08 18:37:58","新北市中和區連城路87號","121.496755","25.0003783333333","6500300","中和區"
"235042","551-UM","2017/07/08 18:37:58","新北市中和區成功路127巷21號","121.527216666667","24.9910133333333","6500300","中和區"
"235070","558-UM","2017/07/08 18:36:06","新北市中和區景平路604號","121.500835","24.9965716666667","6500300","中和區"
"235045","565-BX","2017/07/08 18:38:09","新北市中和區南山路236巷22弄37號","121.504363333333","24.9891783333333","6500300","中和區"
"235054","640-BX","2017/07/08 18:38:01","新北市中和區民享街89巷4弄11號","121.475165","25.0013083333333","6500300","中和區"
"235060","647-TV","2017/07/08 18:38:03","新北市中和區中山路二段569號","121.480546666667","25.0056433333333","6500300","中和區"
"235047","732-UM","2017/07/08 18:38:05","新北市中和區南山路320巷3號","121.507631666667","24.9864483333333","6500300","中和區"
"235046","733-UM","2017/07/08 18:37:58","新北市中和區南山路409號","121.506966666667","24.9897866666667","6500300","中和區"
"235062","800-TS","2017/07/08 18:37:57","新北市中和區中山路二段312巷12號","121.495348333333","25.00369","6500300","中和區"
"235057","801-TS","2017/07/08 18:38:05","新北市中和區民享街97巷19號","121.475323333333","24.9995733333333","6500300","中和區"
"235041","802-TS","2017/07/08 18:37:59","新北市中和區景平路381號","121.503945","24.9934416666667","6500300","中和區"
"235052","805-TS","2017/07/08 18:38:03","新北市中和區興南路二段342-10號","121.499756666667","24.9801","6500300","中和區"
"235048","896-TW","2017/07/08 18:38:05","新北市中和區南山路231號","121.503435","24.9932366666667","6500300","中和區"
"235053","900-TW","2017/07/08 18:37:54","新北市中和區莒光路211-39號","121.470346666667","24.99317","6500300","中和區"
"235063","911-UM","2017/07/08 18:37:56","新北市中和區連城路347巷16號","121.48836","24.9950616666667","6500300","中和區"
"235037","AAC-213","2017/07/08 18:38:04","新北市中和區景平路151巷59號","121.514855","24.990035","6500300","中和區"
"235059","AAC-215","2017/07/08 18:38:07","新北市中和區錦和路350-1號","121.490411666667","24.9935283333333","6500300","中和區"
"220068","013-TV","2017/07/08 18:37:56","新北市板橋區民生路二段36-1號","121.472545","25.0165666666667","6500100","板橋區"
"220065","072-UY","2017/07/08 18:38:08","新北市板橋區民生路二段36-1號","121.47246","25.0168","6500100","板橋區"
"220086","073-UY","2017/07/08 18:37:49","新北市板橋區南雅西路二段175巷2號","121.45154","25.0125383333333","6500100","板橋區"
"247006","341-TH","2017/07/08 18:38:00","新北市八里區中山路三段382號","121.368636666667","25.1358633333333","6501400","蘆洲區"
"247014","057-VK","2017/07/08 18:37:51","新北市五股區中興路三段177號","121.444005","25.0809216666667","6501400","蘆洲區"
"226004","312-R5","2017/07/08 18:37:54","新北市平溪區平溪里三坑路50號","121.733565","25.0303716666667","6502400","平溪區"
"228003","097-TW","2017/07/08 18:37:54","新北市貢寮區和美里龍洞街53號","121.91247","25.1135483333333","6502600","貢寮區"
"228001","212-TW","2017/07/08 18:38:06","新北市貢寮區仁理村仁和路106巷2號","121.924683333333","25.0507966666667","6502600","貢寮區"
"228002","663-BX","2017/07/08 18:38:00","新北市貢寮區福連里香蘭街2-1號","121.970126666667","25.0239416666667","6502600","貢寮區"
"224010","AGQ-8101","2017/07/08 18:38:04","新北市瑞芳區九份中山巷10號","121.843885","25.10744","6501200","瑞芳區"
"224006","676-BX","2017/07/08 18:37:59","新北市瑞芳區明燈路三段84號","121.805726666667","25.1082783333333","6501200","瑞芳區"
"224002","639-TC","2017/07/08 18:37:57","新北市瑞芳區三爪子坑路8號","121.810275","25.1067366666667","6501200","瑞芳區"
"224011","420-VK","2017/07/08 18:37:59","新北市瑞芳區崙頂路3-1號","121.84704","25.1046866666667","6501200","瑞芳區"
"224009","285-BY","2017/07/08 18:38:04","新北市瑞芳區五號路276號","121.856161666667","25.1103016666667","6501200","瑞芳區"
"224008","275-VK","2017/07/08 18:38:04","新北市瑞芳區逢甲路189號","121.804758333333","25.1106","6501200","瑞芳區"
"224007","273-VK","2017/07/08 18:38:05","新北市瑞芳區大埔路67巷3-1號","121.764385","25.1014933333333","6501200","瑞芳區"
"224005","271-BY","2017/07/08 18:37:55","新北市瑞芳區建基新村5-1號","121.812141666667","25.1313083333333","6501200","瑞芳區"
"227010","642-TC","2017/07/08 18:38:01","新北市雙溪區牡丹里牡丹216號","121.85069","25.0564216666667","6502500","雙溪區"
"227002","400-TW","2017/07/08 18:37:49","新北市雙溪區魚行里坤溪3-5號","121.87621","25.0207766666667","6502500","雙溪區"
"253006","032-BX","2017/07/08 18:38:04","新北市石門區楓林28-1號","121.542333333333","25.2894266666667","6502200","石門區"
"253005","295-VK","2017/07/08 18:37:48","新北市石門區中央路4-2號","121.565476666667","25.2913366666667","6502200","石門區"
"208003","665-BX","2017/07/08 18:37:59","新北市金山區中山路359號","121.634666666667","25.2244883333333","6502700","金山區"
"208001","761-BX","2017/07/08 18:37:53","新北市金山區文化三路36號","121.635545","25.2247333333333","6502700","金山區"
"251004","009-UM","2017/07/08 18:37:57","新北市淡水區竹林路120號","121.462681666667","25.1444116666667","6501000","淡水區"
"251001","011-UM","2017/07/08 18:38:01","新北市淡水區自強路415巷2號","121.465501666667","25.1341966666667","6501000","淡水區"
"251002","012-UM","2017/07/08 18:38:00","新北市淡水區中正東路一段3巷2號","121.45068","25.1645283333333","6501000","淡水區"
"251014","180-VK","2017/07/08 18:38:07","新北市淡水區南平21-1號","121.496858333333","25.216535","6501000","淡水區"
"251008","181-VK","2017/07/08 18:38:05","新北市淡水區北投子83號","121.466815","25.1790416666667","6501000","淡水區"
"251010","413-VK","2017/07/08 18:37:53","新北市淡水區沙崙路126號","121.423458333333","25.182965","6501000","淡水區"
"251012","441-VK","2017/07/08 18:38:06","新北市淡水區北新路188號","121.449758333333","25.17892","6501000","淡水區"
"251016","442-VK","2017/07/08 18:37:52","新北市淡水區下圭柔山102號","121.440996666667","25.2086666666667","6501000","淡水區"
"251005","443-VK","2017/07/08 18:37:58","新北市淡水區馬偕街28-9號","121.437596666667","25.1729366666667","6501000","淡水區"
"251006","561-UM","2017/07/08 18:37:51","新北市淡水區崁頂64號","121.438941666667","25.2009083333333","6501000","淡水區"
"251011","650-BX","2017/07/08 18:37:48","新北市淡水區學府路32巷37號","121.448211666667","25.1679233333333","6501000","淡水區"
"251003","673-BX","2017/07/08 18:37:49","新北市淡水區北新路69巷26號","121.446676666667","25.1800166666667","6501000","淡水區"
"207003","550-UM","2017/07/08 18:37:47","新北市萬里區野柳里港西路98號","121.684358333333","25.20637","6502800","萬里區"
"207004","225-TW","2017/07/08 18:38:06","新北市萬里區萬里里獅頭路12-4號","121.692653333333","25.1793383333333","6502800","萬里區"
"252002","178-VK","2017/07/08 18:37:54","新北市三芝區民生街54巷4號","121.503876666667","25.2554233333333","6502100","三芝區"
"252003","249-BX","2017/07/08 18:37:54","新北市三芝區後厝里北勢子54-2號","121.46713","25.249985","6502100","三芝區"
"252001","292-VK","2017/07/08 18:38:01","新北市三芝區中興街二段121號","121.499498333333","25.25486","6502100","三芝區"
"208002","170-UY","2017/07/08 18:37:50","新北市金山區忠孝一路19巷17號","121.637298333333","25.217645","6502700","金山區"
"237004","078-UY","2017/07/08 18:38:01","新北市三峽區金敏17號","121.39088","24.8745066666667","6500900","三峽區"
"237007","153-BY","2017/07/08 18:38:02","新北市三峽區中正路三段194號","121.350671666667","24.9032733333333","6500900","三峽區"
"237009","210-TH","2017/07/08 18:37:49","新北市三峽區大同路275號","121.366195","24.925455","6500900","三峽區"
"237013","252-BX","2017/07/08 18:37:53","新北市三峽區光明路69巷31號","121.376901666667","24.929255","6500900","三峽區"
"237012","275-BY","2017/07/08 18:38:01","新北市三峽區三樹路300號","121.380718333333","24.9438266666667","6500900","三峽區"
"237008","302-VK","2017/07/08 18:37:57","新北市三峽區白雞68-237號","121.39129","24.9085366666667","6500900","三峽區"
"237014","433-BY","2017/07/08 18:38:09","新北市三峽區復興路480巷21號","121.358935","24.93979","6500900","三峽區"
"237006","5529-G3","2017/07/08 18:38:02","新北市三峽區溪東路315巷42號","121.411246666667","24.9312116666667","6500900","三峽區"
"237011","572-TV","2017/07/08 18:37:55","新北市三峽區溪北街78號","121.397823333333","24.9354733333333","6500900","三峽區"
"237016","649-BX","2017/07/08 18:38:03","新北市三峽區竹崙路90-1號","121.432631666667","24.917895","6500900","三峽區"
"237010","706-TV","2017/07/08 18:38:10","新北市三峽區復興路257號","121.366725","24.938915","6500900","三峽區"
"237005","AKY-6261","2017/07/08 18:37:49","新北市三峽區民生街121號","121.373501666667","24.9352483333333","6500900","三峽區"
"236073","105-UM","2017/07/08 18:37:55","新北市土城區永豐路185號","121.470051666667","24.9783616666667","6501300","土城區"
"236043","107-UM","2017/07/08 18:38:05","新北市土城區學成路108巷9號","121.450103333333","24.989545","6501300","土城區"
"236079","166-UM","2017/07/08 18:37:55","新北市土城區大暖路80號","121.422655","24.958855","6501300","土城區"
"236031","253-BX","2017/07/08 18:38:08","新北市土城區中央路二段278巷12號","121.439948333333","24.9749583333333","6501300","土城區"
"236027","269-VK","2017/07/08 18:37:57","新北市土城區忠承路14號","121.44161","24.9678616666667","6501300","土城區"
"236015","270-VK","2017/07/08 18:38:09","新北市土城區青雲路183巷14號","121.459566666667","24.9828483333333","6501300","土城區"
"236038","271-VK","2017/07/08 18:37:52","新北市土城區青山路35號","121.46392","24.9751283333333","6501300","土城區"
"236023","401-BY","2017/07/08 18:37:58","新北市土城區延吉街252號","121.466433333333","24.9846566666667","6501300","土城區"
"236059","912-UM","2017/07/08 18:38:04","新北市土城區中央路四段208號","121.415983333333","24.9574983333333","6501300","土城區"
"236049","913-UM","2017/07/08 18:37:51","新北市土城區青雲路98號","121.459338333333","24.98655","6501300","土城區"
"236063","915-UM","2017/07/08 18:38:06","新北市土城區延壽路13巷17號","121.470021666667","24.991315","6501300","土城區"
"236055","AAC-216","2017/07/08 18:38:04","新北市土城區中華路一段157號","121.443906666667","24.9861983333333","6501300","土城區"
"242046","441-UM","2017/07/08 18:37:54","新北市樹林區中正路19號","121.427693333333","24.9991816666667","6500500","新莊區"
"242002","413-TV","2017/07/08 18:37:59","新北市新莊區中正路457巷19號","121.442421666667","25.0332566666667","6500500","新莊區"
"242061","362-BY","2017/07/08 18:37:55","新北市新莊區中正路473-1號","121.442","25.0329166666667","6500500","新莊區"
"242058","353-BY","2017/07/08 18:38:04","新北市新莊區中正路879-6號","121.417763333333","25.0261733333333","6500500","新莊區"
"242034","133-UY","2017/07/08 18:37:56","新北市板橋區大觀路三段6-1號","121.435246666667","24.99591","6500500","新莊區"
"242044","172-VK","2017/07/08 18:38:07","新北市新莊區天祥街116號","121.414675","25.0298733333333","6500500","新莊區"
"242053","349-TH","2017/07/08 18:37:51","新北市板橋區大觀路三段50巷55號","121.431923333333","24.9959516666667","6500500","新莊區"
"238015","755-BX","2017/07/08 18:37:54","新北市樹林區大安路515號","121.414111666667","24.9861533333333","6500700","樹林區"
"238023","601-UM","2017/07/08 18:38:01","新北市樹林區忠愛街1號","121.40953","25.0155166666667","6500700","樹林區"
"238018","571-TV","2017/07/08 18:37:59","新北市樹林區樹新路30號","121.427061666667","24.9945333333333","6500700","樹林區"
"238024","5061-A6","2017/07/08 18:37:59","新北市樹林區大安路593號","121.411858333333","24.98291","6500700","樹林區"
"238025","303-VK","2017/07/08 18:38:05","新北市樹林區東佳路218號","121.410885","24.9819033333333","6500700","樹林區"
"238017","283-BY","2017/07/08 18:37:54","新北市樹林區光興街44號","121.40989","25.0027733333333","6500700","樹林區"
"238014","282-BY","2017/07/08 18:37:54","新北市樹林區大安路109號","121.422953333333","24.9977083333333","6500700","樹林區"
"238020","268-VK","2017/07/08 18:38:09","新北市樹林區俊安街66巷8號","121.418545","25.0136033333333","6500700","樹林區"
"238026","172-UY","2017/07/08 18:38:00","新北市樹林區佳園路一段75巷202號","121.397108333333","24.9706433333333","6500700","樹林區"
"238016","169-UY","2017/07/08 18:37:58","新北市樹林區文化街28號","121.419291666667","24.9876933333333","6500700","樹林區"
"239007","AAC-297","2017/07/08 18:37:58","新北市鶯歌區中正一路345巷42號","121.357773333333","24.9577266666667","6500800","鶯歌區"
"239006","891-R6","2017/07/08 18:37:50","新北市鶯歌區鶯桃路296巷53號","121.33586","24.9613633333333","6500800","鶯歌區"
"239008","527-UM","2017/07/08 18:37:55","新北市鶯歌區國際一路179號","121.336218333333","24.976505","6500800","鶯歌區"
"239005","526-UM","2017/07/08 18:37:57","新北市鶯歌區鶯桃路二段60號","121.325145","24.97328","6500800","鶯歌區"
"239001","417-VK","2017/07/08 18:37:56","新北市鶯歌區二橋街25號","121.33669","24.9394733333333","6500800","鶯歌區"
"239003","360-BY","2017/07/08 18:37:54","新北市鶯歌區鶯桃路524號","121.331678333333","24.966865","6500800","鶯歌區"
"239002","359-BY","2017/07/08 18:38:09","新北市鶯歌區中山路315號","121.343966666667","24.9569333333333","6500800","鶯歌區"
"239004","193-VK","2017/07/08 18:38:04","新北市鶯歌區中正三路194巷34-4號","121.330951666667","24.94204","6500800","鶯歌區"
"221008","489-VK","2017/07/08 18:37:54","新北市汐止區康寧街901號","121.651381666667","25.0750166666667","6501100","汐止區"
"221036","130-UY","2017/07/08 18:38:01","新北市汐止區南昌街25號","121.663285","25.0692383333333","6501100","汐止區"
"221015","131-UY","2017/07/08 18:38:07","新北市汐止區吉祥街11巷6號","121.667815","25.0808066666667","6501100","汐止區"
"221010","269-BY","2017/07/08 18:38:05","新北市汐止區汐萬路三段221號","121.64391","25.1040916666667","6501100","汐止區"
"221010","276-VK","2017/07/08 13:24:24","新北市汐止區汐萬路一段256巷3號","121.653448333333","25.07461","6501100","汐止區"
"221031","277-VK","2017/07/08 00:10:50","新北市汐止區汐萬路一段256巷3號","121.65254","25.0744633333333","6501100","汐止區"
"221012","278-VK","2017/07/08 18:37:56","新北市汐止區長興街二段4巷21號","121.673161666667","25.0806883333333","6501100","汐止區"
"221023","279-VK","2017/07/08 18:37:49","新北市汐止區明峰街2巷1號","121.635636666667","25.0712483333333","6501100","汐止區"
"221032","280-BY","2017/07/08 18:37:50","新北市汐止區民權街二段79號","121.61925","25.0480116666667","6501100","汐止區"
"221027","281-BY","2017/07/08 18:38:04","新北市汐止區和平街84號","121.661438333333","25.070795","6501100","汐止區"
"221038","297-VK","2017/07/08 18:38:05","新北市汐止區汐萬路一段256巷3號","121.653355","25.07465","6501100","汐止區"
"221029","298-VK","2017/07/08 18:38:01","新北市汐止區樟樹一路150號","121.642243333333","25.065085","6501100","汐止區"
"221021","299-VK","2017/07/08 18:29:10","新北市汐止區新台五路一段165號","121.654321666667","25.0626783333333","6501100","汐止區"
"221035","622-UM","2017/07/08 18:37:54","新北市汐止區大同路二段348號","121.656823333333","25.0670666666667","6501100","汐止區"
"221025","623-UM","2017/07/08 18:38:01","新北市汐止區仁愛路119巷18號","121.662206666667","25.0643066666667","6501100","汐止區"
"221033","647-BX","2017/07/08 18:38:02","新北市汐止區宜興街1號","121.62087","25.0412366666667","6501100","汐止區"
"221002","707-TV","2017/07/08 18:38:03","新北市汐止區中興路130-1號","121.632998333333","25.0642533333333","6501100","汐止區"
"221018","753-BX","2017/07/08 18:38:07","新北市汐止區茄苳路250巷30號","121.671826666667","25.06756","6501100","汐止區"
"220082","610-BX","2017/07/08 18:37:57","新北市板橋區華東街1-10號","121.448276666667","24.9948966666667","6500100","板橋區"
"220056","276-BY","2017/07/08 18:38:00","新北市土城區四川路20號","121.45539","24.9960183333333","6500100","板橋區"
"220072","277-BY","2017/07/08 18:37:48","新北市板橋區華東街1-10號","121.448338333333","24.99504","6500100","板橋區"
"220094","283-UM","2017/07/08 18:38:10","新北市板橋區民生路二段161巷1號","121.47019","25.0201766666667","6500100","板橋區"
"220071","283-VK","2017/07/08 18:38:00","新北市板橋區民生路二段36-1號","121.472593333333","25.0167066666667","6500100","板橋區"
"220053","285-VK","2017/07/08 18:38:00","新北市板橋區民生路二段56-1號","121.472465","25.0169716666667","6500100","板橋區"
"220083","286-VK","2017/07/08 18:38:05","新北市板橋區華東街1-9號","121.448243333333","24.9949","6500100","板橋區"
"220081","287-VK","2017/07/08 18:37:50","新北市板橋區華東街1-10號","121.448293333333","24.9949933333333","6500100","板橋區"
"220061","293-UM","2017/07/08 18:37:53","新北市板橋區民生路二段36-1號","121.472563333333","25.0167566666667","6500100","板橋區"
"220084","296-UM","2017/07/08 18:38:10","新北市板橋區華東街1-9號","121.448118333333","24.9949466666667","6500100","板橋區"
"220075","297-UM","2017/07/08 18:37:51","新北市板橋區華東街1-9號","121.44814","24.99496","6500100","板橋區"
"220098","317-R6","2017/07/08 18:37:33","新北市板橋區民生路二段120號","121.470355","25.0197633333333","6500100","板橋區"
"220064","486-VK","2017/07/08 18:37:55","新北市板橋區民生路二段36-1號","121.472568333333","25.0169066666667","6500100","板橋區"
"220035","560-BX","2017/07/08 18:37:53","新北市板橋區南雅西路二段145巷6號","121.451618333333","25.011885","6500100","板橋區"
"220063","609-BX","2017/07/08 18:38:02","新北市板橋區民生路二段56-2號","121.472403333333","25.0171816666667","6500100","板橋區"
"220077","687-BX","2017/07/08 18:37:54","新北市板橋區華東街1-10號","121.448268333333","24.9950066666667","6500100","板橋區"
"220054","741-BX","2017/07/08 18:38:06","新北市板橋區民生路二段56-3號","121.472348333333","25.0173966666667","6500100","板橋區"
"220055","827-TW","2017/07/08 18:38:04","新北市板橋區民生路二段22號","121.472693333333","25.0165583333333","6500100","板橋區"
"220102","830-TW","2017/07/08 16:28:59","新北市板橋區民生路二段161巷7號","121.470298333333","25.0197133333333","6500100","板橋區"
"220096","831-TW","2017/07/08 16:22:09","新北市板橋區民生路二段161巷5號","121.470278333333","25.0197483333333","6500100","板橋區"
"220074","895-R6","2017/07/08 18:37:51","新北市板橋區華東街1-9號","121.448176666667","24.9949733333333","6500100","板橋區"
"220073","985-R7","2017/07/08 18:38:06","新北市板橋區華東街1-10號","121.448313333333","24.9949883333333","6500100","板橋區"
"220097","AAC-210","2017/07/08 18:37:58","新北市板橋區民生路二段161巷1號","121.470108333333","25.0200683333333","6500100","板橋區"
"220070","AAC-253","2017/07/08 18:38:00","新北市板橋區民生路二段36-1號","121.472555","25.0168016666667","6500100","板橋區"
