"lineid","car","time","location","longitude","latitude","cityid","cityname"
"234046","148-BY","2017/07/08 19:19:54","新北市永和區得和路375號","121.524706666667","24.9996233333333","6500400","永和區"
"234013","149-BY","2017/07/08 19:20:08","新北市永和區信義路36號","121.513521666667","25.0123716666667","6500400","永和區"
"234007","207-UY","2017/07/08 19:19:51","新北市永和區中山路一段151號","121.509958333333","25.0095066666667","6500400","永和區"
"234081","298-R6","2017/07/08 19:19:57","新北市永和區福和路38號","121.52383","25.0082833333333","6500400","永和區"
"234038","336-UY","2017/07/08 19:19:53","新北市永和區成功路二段69號","121.527398333333","24.99985","6500400","永和區"
"234064","337-UY","2017/07/08 19:19:51","新北市永和區永元路17巷8號","121.52157","25.0005533333333","6500400","永和區"
"234086","338-UY","2017/07/08 19:20:05","新北市永和區永利路86號","121.520736666667","25.0040766666667","6500400","永和區"
"234070","552-UM","2017/07/08 19:20:08","新北市永和區豫溪街33號","121.516446666667","25.00984","6500400","永和區"
"234054","553-UM","2017/07/08 19:20:08","新北市永和區中興街31號","121.516125","25.0118866666667","6500400","永和區"
"234017","745-BX","2017/07/08 19:19:59","新北市永和區文化路144巷19弄12號","121.512238333333","25.01677","6500400","永和區"
"234030","746-BX","2017/07/08 19:20:06","新北市永和區四維街48號","121.525025","24.9981033333333","6500400","永和區"
"234061","AAD-866","2017/07/08 19:19:50","新北市永和區中正路381號","121.517113333333","25.00368","6500400","永和區"
"234042","862-TW","2017/07/08 19:20:07","新北市永和區保平路151巷5號","121.510171666667","25.0055616666667","6500400","永和區"
"234050","863-TW","2017/07/08 19:19:59","新北市永和區信義路81號","121.512275","25.0134116666667","6500400","永和區"
"234026","9371-KE","2017/07/08 19:19:56","新北市中和區安平路222號","121.514021666667","25.0001516666667","6500400","永和區"
"234011","9373-KE","2017/07/08 19:20:04","新北市永和區信義路25巷53號","121.512308333333","25.01156","6500400","永和區"
"249005","172-UM","2017/07/08 19:20:08","新北市八里區中華路三段170-1號","121.392188333333","25.1303966666667","6502300","八里區"
"249001","173-UM","2017/07/08 19:19:54","新北市八里區中華路二段103-1號","121.409408333333","25.1522533333333","6502300","八里區"
"249003","593-UM","2017/07/08 19:20:03","新北市八里區中山路二段462號","121.399028333333","25.1472033333333","6502300","八里區"
"248014","025-BX","2017/07/08 19:19:57","新北市五股區民義路一段107巷32號","121.432656666667","25.0845766666667","6501500","五股區"
"248016","026-BX","2017/07/08 19:19:59","新北市五股區成洲五路12號","121.452401666667","25.101535","6501500","五股區"
"248020","225-UY","2017/07/08 19:19:53","新北市五股區凌雲路三段57號","121.425206666667","25.1250233333333","6501500","五股區"
"248012","247-BX","2017/07/08 18:31:37","新北市五股區御成路139號","121.440566666667","25.0942833333333","6501500","五股區"
"248010","272-BY","2017/07/08 19:20:03","新北市五股區自強路90巷72號","121.430703333333","25.0712466666667","6501500","五股區"
"248004","677-BX","2017/07/08 19:19:59","新北市五股區五福路18號","121.434275","25.08876","6501500","五股區"
"248002","678-BX","2017/07/08 19:20:04","新北市五股區凌雲路一段158巷6號","121.447785","25.1030283333333","6501500","五股區"
"234023","9380-KE","2017/07/08 19:19:59","新北市永和區竹林路102號","121.519648333333","25.0119666666667","6500400","永和區"
"234077","969-R7","2017/07/08 19:20:00","新北市永和區民治街70號","121.517808333333","24.99819","6500400","永和區"
"234074","AAC-211","2017/07/08 19:19:48","新北市永和區竹林路29號","121.517583333333","25.014515","6500400","永和區"
"234067","AAC-212","2017/07/08 19:19:58","新北市永和區保平路30巷6號","121.51182","25.007505","6500400","永和區"
"234003","AAC-295","2017/07/08 19:18:00","新北市永和區永平路161號","121.510775","25.00887","6500400","永和區"
"244013","069-UM","2017/07/08 19:20:06","新北市林口區麗園一街5號","121.37625","25.0720183333333","6501700","林口區"
"244019","742-UY","2017/07/08 19:19:50","新北市林口區麗園二街60巷80號","121.381396666667","25.0674766666667","6501700","林口區"
"244023","483-VK","2017/07/08 19:19:53","新北市林口區文化三路一段555巷50號","121.369831666667","25.07683","6501700","林口區"
"244011","701-TV","2017/07/08 19:19:59","新北市林口區中山路97巷12號","121.389521666667","25.078245","6501700","林口區"
"244025","837-TS","2017/07/08 19:20:05","新北市林口區湖南里70-9號","121.375866666667","25.08961","6501700","林口區"
"243013","AAD-798","2017/07/08 19:20:04","新北市泰山區明志路三段170號","121.424316666667","25.039105","6501600","泰山區"
"243009","297-R6","2017/07/08 19:20:06","新北市泰山區和平街13巷22號","121.43446","25.0651333333333","6501600","泰山區"
"243015","380-SR","2017/07/08 19:19:48","新北市泰山區公園路42號","121.428845","25.0544583333333","6501600","泰山區"
"243014","421-VK","2017/07/08 19:20:04","新北市泰山區泰林路二段138號","121.434365","25.0597616666667","6501600","泰山區"
"243010","548-UM","2017/07/08 19:20:00","新北市泰山區明志路一段494號","121.43023","25.0546183333333","6501600","泰山區"
"243011","549-UM","2017/07/08 19:19:55","新北市泰山區貴子路15巷6弄2號","121.42676","25.0424316666667","6501600","泰山區"
"243012","646-TV","2017/07/08 19:20:06","新北市泰山區仁愛路100巷11號","121.433481666667","25.0551883333333","6501600","泰山區"
"243016","680-BX","2017/07/08 19:20:10","新北市泰山區工專路53號","121.422728333333","25.0401866666667","6501600","泰山區"
"222003","436-BY","2017/07/08 19:19:50","新北市深坑區深南路204號","121.6267","25.0160666666667","6501800","深坑區"
"222001","628-TS","2017/07/08 19:20:07","新北市深坑區北深路二段59號","121.61868","25.0039233333333","6501800","深坑區"
"222002","659-BX","2017/07/08 19:20:04","新北市深坑區北深路一段177號","121.632566666667","25.010845","6501800","深坑區"
"231061","001-UM","2017/07/08 19:19:53","新北市新店區安康路一段266巷4號","121.520076666667","24.9640083333333","6500600","新店區"
"231041","002-UM","2017/07/08 19:20:05","新北市新店區溪園路245-6號","121.525411666667","24.9832883333333","6500600","新店區"
"231060","106-UY","2017/07/08 19:20:03","新北市新店區安康路二段140號","121.512448333333","24.9617916666667","6500600","新店區"
"231051","107-UY","2017/07/08 19:20:02","新北市新店區中央路75號","121.532341666667","24.976825","6500600","新店區"
"231048","108-UY","2017/07/08 19:19:54","新北市新店區中興路二段77號","121.546813333333","24.9710566666667","6500600","新店區"
"231052","110-UY","2017/07/08 19:19:54","新北市新店區自強路251號","121.548125","24.9191916666667","6500600","新店區"
"231063","268-BY","2017/07/08 19:20:09","新北市新店區達觀路16號","121.503243333333","24.94074","6500600","新店區"
"231046","278-BY","2017/07/08 19:20:10","新北市新店區華城路6號","121.530221666667","24.9604733333333","6500600","新店區"
"231050","AAD-862","2017/07/08 19:20:05","新北市新店區竹林路157-1號","121.55656","24.9477733333333","6500600","新店區"
"231059","355-BY","2017/07/08 19:19:56","新北市新店區安和路三段14號","121.51795","24.9810766666667","6500600","新店區"
"231058","3712-VJ","2017/07/08 19:19:58","新北市新店區北新路一段72號","121.541286666667","24.9668316666667","6500600","新店區"
"231067","4772-VM","2017/07/08 19:19:51","新北市新店區安康路二段320巷6號","121.505046666667","24.960025","6500600","新店區"
"231065","512-UM","2017/07/08 19:20:08","新北市新店區安祥路108巷35號","121.47497","24.957","6500600","新店區"
"231054","513-UM","2017/07/08 19:19:57","新北市新店區國校路47號","121.537976666667","24.9548033333333","6500600","新店區"
"231064","515-UM","2017/07/08 19:20:00","新北市新店區安忠路57巷26弄3號","121.513108333333","24.9587633333333","6500600","新店區"
"231042","616-UM","2017/07/08 19:20:04","新北市新店區中興路一段24號","121.538636666667","24.95837","6500600","新店區"
"231045","617-UM","2017/07/08 19:20:03","新北市新店區北宜路一段262號","121.545826666667","24.9527466666667","6500600","新店區"
"231040","619-UM","2017/07/08 19:19:52","新北市新店區三民路43號","121.537211666667","24.9709566666667","6500600","新店區"
"231049","719-UM","2017/07/08 19:20:06","新北市新店區明德路64號","121.541546666667","24.979415","6500600","新店區"
"231062","720-UM","2017/07/08 19:19:58","新北市新店區莒光路70號","121.52294","24.9547266666667","6500600","新店區"
"231044","897-TW","2017/07/08 19:20:06","新北市新店區中興路三段301號","121.542071666667","24.9853833333333","6500600","新店區"
"231043","899-TW","2017/07/08 19:19:49","新北市新店區北新路二段108號","121.543016666667","24.974385","6500600","新店區"
"231066","AKT-0513","2017/07/08 19:19:57","新北市新店區安康路三段355巷15號","121.484846666667","24.9504016666667","6500600","新店區"
"241009","060-VK","2017/07/08 19:19:49","新北市三重區溪尾街230巷59號","121.486403333333","25.081265","6500200","三重區"
"241031","061-VK","2017/07/08 19:20:06","新北市三重區重新路四段230號","121.48578","25.0539983333333","6500200","三重區"
"241017","063-VK","2017/07/08 19:19:52","新北市三重區大同北路213號","121.491803333333","25.0656366666667","6500200","三重區"
"241026","066-VK","2017/07/08 19:20:05","新北市三重區環河南路125號","121.496921666667","25.05518","6500200","三重區"
"241032","265-UM","2017/07/08 19:20:07","新北市三重區新生街68號","121.484406666667","25.0593666666667","6500200","三重區"
"241022","267-UM","2017/07/08 19:20:07","新北市三重區重陽路二段72號","121.487233333333","25.0641116666667","6500200","三重區"
"241025","271-UM","2017/07/08 19:19:54","新北市三重區中正北路408巷4號","121.47528","25.0702866666667","6500200","三重區"
"241007","398-BY","2017/07/08 19:20:01","新北市三重區慈愛街49號","121.486076666667","25.079115","6500200","三重區"
"241020","413-TH","2017/07/08 19:19:54","新北市三重區大智街240號","121.4893","25.0729283333333","6500200","三重區"
"241035","462-BY","2017/07/08 19:20:04","新北市三重區大仁街126號","121.493636666667","25.06609","6500200","三重區"
"241030","480-VK","2017/07/08 19:19:59","新北市三重區新興路40號","121.491595","25.0534583333333","6500200","三重區"
"241006","AAD-863","2017/07/08 19:19:56","新北市三重區車路頭街149-2號","121.483748333333","25.07686","6500200","三重區"
"241029","942-UM","2017/07/08 19:20:01","新北市三重區重安街27號","121.491206666667","25.057025","6500200","三重區"
"235066","003-UY","2017/07/08 19:19:52","新北市中和區景新街8號","121.502673333333","24.9995366666667","6500300","中和區"
"235056","096-UM","2017/07/08 19:19:52","新北市中和區員山路535號","121.479648333333","25.0070833333333","6500300","中和區"
"235039","097-UM","2017/07/08 19:19:59","新北市中和區景平路64巷13弄22號","121.521455","24.991515","6500300","中和區"
"235065","098-UM","2017/07/08 19:19:57","新北市中和區中山路二段136巷40號","121.501221666667","25.0044516666667","6500300","中和區"
"235040","150-BY","2017/07/08 19:19:59","新北市中和區保健路50巷10號","121.510153333333","24.99672","6500300","中和區"
"235058","151-BY","2017/07/08 19:20:06","新北市中和區連城路477巷6弄4號","121.482986666667","24.9951116666667","6500300","中和區"
"235055","183-VK","2017/07/08 19:19:55","新北市中和區德光路40號","121.470186666667","25.004225","6500300","中和區"
"235038","185-VK","2017/07/08 19:20:02","新北市中和區大仁街20巷34號","121.519315","24.9931466666667","6500300","中和區"
"235049","186-VK","2017/07/08 19:20:03","新北市中和區景新街235號","121.508126666667","24.9945016666667","6500300","中和區"
"235067","255-BX","2017/07/08 19:20:06","新北市中和區中正路797-1號","121.484586666667","25.000455","6500300","中和區"
"235044","293-VK","2017/07/08 19:19:58","新北市中和區中興街222-5號","121.50066","24.9895283333333","6500300","中和區"
"235072","301-VK","2017/07/08 19:20:04","新北市中和區連城路126號","121.49608","24.9992933333333","6500300","中和區"
"235043","352-BY","2017/07/08 19:19:59","新北市中和區景平路183號","121.511755","24.992605","6500300","中和區"
"235051","376-QA","2017/07/08 19:19:54","新北市中和區和平街24巷4號","121.509998333333","24.9904816666667","6500300","中和區"
"235068","377-QA","2017/07/08 19:20:03","新北市中和區圓通路158巷1弄9號","121.497275","24.9961","6500300","中和區"
"235061","378-QA","2017/07/08 19:19:54","新北市中和區中山路二段523巷32弄6號","121.48142","25.0038416666667","6500300","中和區"
"235050","4979-A6","2017/07/08 19:20:02","新北市中和區復興路262號","121.50333","24.99043","6500300","中和區"
"235069","4980-A6","2017/07/08 19:19:58","新北市中和區景平路736巷1弄9號","121.497486666667","25.00405","6500300","中和區"
"235042","551-UM","2017/07/08 19:19:58","新北市中和區大勇街60巷8號","121.518616666667","24.994665","6500300","中和區"
"235070","558-UM","2017/07/08 19:20:06","新北市中和區中和路169號","121.503051666667","24.9999683333333","6500300","中和區"
"235045","565-BX","2017/07/08 19:19:57","新北市中和區景新街447-1號","121.513125","24.9886116666667","6500300","中和區"
"235054","640-BX","2017/07/08 19:20:01","新北市中和區民德路155號","121.46867","25.0000566666667","6500300","中和區"
"235060","647-TV","2017/07/08 19:20:03","新北市中和區員山路294巷5號","121.481836666667","25.0024266666667","6500300","中和區"
"235047","732-UM","2017/07/08 19:20:05","新北市中和區和平街42號","121.50902","24.9905083333333","6500300","中和區"
"235046","733-UM","2017/07/08 19:19:58","新北市中和區忠孝街5巷2號","121.509755","24.9829966666667","6500300","中和區"
"235071","783-BX","2017/07/08 19:20:06","新北市中和區中正路637巷52弄9號","121.484995","24.99364","6500300","中和區"
"235057","801-TS","2017/07/08 19:20:05","新北市中和區民利街80號","121.47816","24.9981416666667","6500300","中和區"
"235041","802-TS","2017/07/08 19:19:59","新北市中和區中和路232號","121.5067","24.9994816666667","6500300","中和區"
"235052","805-TS","2017/07/08 19:20:03","新北市中和區興南路二段142巷17弄15號","121.50326","24.9831166666667","6500300","中和區"
"235048","896-TW","2017/07/08 19:20:05","新北市中和區忠孝街54號","121.511418333333","24.983635","6500300","中和區"
"235053","900-TW","2017/07/08 19:19:54","新北市中和區華福街57巷10號","121.46684","24.9970316666667","6500300","中和區"
"235063","911-UM","2017/07/08 19:20:05","新北市中和區連城路249巷17弄2號","121.493825","24.9964583333333","6500300","中和區"
"235037","AAC-213","2017/07/08 19:20:04","新北市中和區自立路14號","121.522223333333","24.99625","6500300","中和區"
"235059","AAC-215","2017/07/08 19:20:07","新北市中和區錦和路195巷1弄1號","121.490858333333","24.99074","6500300","中和區"
"220068","013-TV","2017/07/08 19:20:07","新北市板橋區翠華街6巷109號","121.481825","25.025265","6500100","板橋區"
"220065","072-UY","2017/07/08 19:20:08","新北市板橋區民族路129巷10號","121.467775","25.0083733333333","6500100","板橋區"
"220086","073-UY","2017/07/08 19:20:00","新北市板橋區中正路216巷142號","121.46036","25.0194566666667","6500100","板橋區"
"220106","120-SR","2017/07/08 19:20:03","新北市板橋區雙十路三段43號","121.470508333333","25.0318933333333","6500100","板橋區"
"247006","341-TH","2017/07/08 19:07:14","新北市五股區中興路三段163號","121.449223333333","25.0808283333333","6501400","蘆洲區"
"247002","336-TH","2017/07/08 18:57:15","新北市五股區中興路三段163號","121.449155","25.08089","6501400","蘆洲區"
"247014","057-VK","2017/07/08 19:20:06","新北市蘆洲區中央路153號","121.472423333333","25.08464","6501400","蘆洲區"
"226004","312-R5","2017/07/08 19:19:54","新北市平溪區十分里十分街132-1號","121.777368333333","25.04329","6502400","平溪區"
"228003","097-TW","2017/07/08 19:19:54","新北市貢寮區和美里和美街19-2號","121.912836666667","25.082595","6502600","貢寮區"
"228001","212-TW","2017/07/08 19:20:06","新北市貢寮區真理里新港街10號","121.925546666667","25.0543783333333","6502600","貢寮區"
"228002","663-BX","2017/07/08 19:20:00","新北市貢寮區龍門里復興街8-1號","121.926775","25.02679","6502600","貢寮區"
"224010","AGQ-8101","2017/07/08 19:17:24","新北市瑞芳區烏勢巷145號","121.847915","25.1092316666667","6501200","瑞芳區"
"224006","676-BX","2017/07/08 19:20:05","新北市瑞芳區中山路219號","121.80097","25.1067383333333","6501200","瑞芳區"
"224011","420-VK","2017/07/08 19:19:59","新北市瑞芳區崙頂路3-1號","121.847018333333","25.1046733333333","6501200","瑞芳區"
"224009","285-BY","2017/07/08 19:19:45","新北市瑞芳區洞頂路148號","121.859578333333","25.1183183333333","6501200","瑞芳區"
"224008","275-VK","2017/07/08 19:20:11","新北市瑞芳區一坑路173-1號","121.801453333333","25.1080716666667","6501200","瑞芳區"
"224005","271-BY","2017/07/08 19:19:55","新北市瑞芳區明燈路二段66號","121.809393333333","25.1075233333333","6501200","瑞芳區"
"227010","642-TC","2017/07/08 19:19:53","新北市雙溪區新基里新基北街40號","121.868553333333","25.03803","6502500","雙溪區"
"227002","400-TW","2017/07/08 19:19:49","新北市雙溪區平林里梅竹蹊66-1號","121.860163333333","25.0358266666667","6502500","雙溪區"
"253006","032-BX","2017/07/08 19:20:04","新北市石門區楓林19號","121.536628333333","25.2909283333333","6502200","石門區"
"253005","295-VK","2017/07/08 19:19:48","新北市石門區阿里荖13號","121.608303333333","25.2802733333333","6502200","石門區"
"208003","665-BX","2017/07/08 19:19:59","新北市金山區忠孝一路27號","121.638468333333","25.2194183333333","6502700","金山區"
"208001","761-BX","2017/07/08 19:20:10","新北市金山區金包里街1-5號","121.640093333333","25.2206666666667","6502700","金山區"
"251009","008-UM","2017/07/08 19:13:58","新北市淡水區中正路114號","121.441828333333","25.1695633333333","6501000","淡水區"
"251001","011-UM","2017/07/08 19:20:01","新北市淡水區自強路201巷43號","121.462095","25.12688","6501000","淡水區"
"251002","012-UM","2017/07/08 19:20:00","新北市淡水區中正路356號","121.43429","25.174205","6501000","淡水區"
"251014","180-VK","2017/07/08 19:20:07","新北市淡水區小中寮19-7號","121.484783333333","25.229615","6501000","淡水區"
"251010","413-VK","2017/07/08 19:19:53","新北市淡水區沙崙路27號","121.421508333333","25.1815533333333","6501000","淡水區"
"251016","442-VK","2017/07/08 19:19:52","新北市淡水區淡金路三段350巷18號","121.450801666667","25.2083666666667","6501000","淡水區"
"251005","443-VK","2017/07/08 19:19:58","新北市淡水區水源街一段42號","121.443765","25.17225","6501000","淡水區"
"251007","577-R6","2017/07/08 19:20:04","新北市淡水區八勢路50巷18號","121.462988333333","25.1507666666667","6501000","淡水區"
"251011","650-BX","2017/07/08 19:20:08","新北市淡水區中正東路二段143巷2弄1號","121.460671666667","25.1473566666667","6501000","淡水區"
"251003","673-BX","2017/07/08 19:20:09","新北市淡水區中山北路一段305號","121.444516666667","25.18288","6501000","淡水區"
"207003","550-UM","2017/07/08 19:20:07","新北市萬里區大鵬里萬里加投79-3號","121.647405","25.21235","6502800","萬里區"
"207004","225-TW","2017/07/08 19:20:06","新北市萬里區萬里里瑪鋉路4號","121.687655","25.1750233333333","6502800","萬里區"
"252002","178-VK","2017/07/08 19:19:54","新北市三芝區淡金路二段8號","121.502548333333","25.25937","6502100","三芝區"
"252001","292-VK","2017/07/08 19:20:01","新北市三芝區長勤街9巷9弄2號","121.50174","25.2549316666667","6502100","三芝區"
"208002","170-UY","2017/07/08 19:19:57","新北市金山區中正路134號","121.632106666667","25.221535","6502700","金山區"
"237004","078-UY","2017/07/08 19:20:01","新北市三峽區有木205-1號","121.438756666667","24.85149","6500900","三峽區"
"237007","153-BY","2017/07/08 19:20:02","新北市三峽區中正路二段42巷84號","121.364306666667","24.9205366666667","6500900","三峽區"
"237009","210-TH","2017/07/08 19:20:09","新北市三峽區信義街14號","121.370811666667","24.935735","6500900","三峽區"
"237013","252-BX","2017/07/08 19:20:01","新北市三峽區光明路75巷14號","121.377493333333","24.9279483333333","6500900","三峽區"
"237012","275-BY","2017/07/08 19:20:01","新北市三峽區三樹路222巷236弄69-3號","121.394261666667","24.9433333333333","6500900","三峽區"
"237008","302-VK","2017/07/08 19:19:57","新北市三峽區大同路174巷12號","121.372706666667","24.9272883333333","6500900","三峽區"
"237014","433-BY","2017/07/08 19:19:49","新北市三峽區中園街22號","121.368063333333","24.9271216666667","6500900","三峽區"
"237006","5529-G3","2017/07/08 19:20:02","新北市三峽區大同路147巷7號","121.371156666667","24.926485","6500900","三峽區"
"237011","572-TV","2017/07/08 19:19:54","新北市三峽區中正路二段1號","121.367373333333","24.91971","6500900","三峽區"
"237016","649-BX","2017/07/08 19:20:03","新北市三峽區成福路257號","121.427865","24.923575","6500900","三峽區"
"237010","706-TV","2017/07/08 19:19:52","新北市三峽區復興路36-5號","121.374118333333","24.9367066666667","6500900","三峽區"
"237005","AKY-6261","2017/07/08 19:20:09","新北市三峽區中山路459巷42號","121.35708","24.93744","6500900","三峽區"
"236073","105-UM","2017/07/08 19:19:55","新北市土城區學成路141號","121.448991666667","24.98953","6501300","土城區"
"236043","107-UM","2017/07/08 19:20:00","新北市土城區學府路一段278號","121.449761666667","24.982965","6501300","土城區"
"236079","166-UM","2017/07/08 19:19:55","新北市土城區中央路四段464號","121.409771666667","24.9503383333333","6501300","土城區"
"236031","253-BX","2017/07/08 19:20:08","新北市土城區城林路6巷80號","121.43853","24.9795766666667","6501300","土城區"
"236027","269-VK","2017/07/08 19:19:56","新北市土城區中央路二段151號","121.442078333333","24.9765916666667","6501300","土城區"
"236015","270-VK","2017/07/08 19:19:54","新北市土城區學府路一段23巷25弄46號","121.457648333333","24.9861633333333","6501300","土城區"
"236023","401-BY","2017/07/08 19:19:58","新北市土城區峰廷街3號","121.469148333333","24.9873416666667","6501300","土城區"
"236059","912-UM","2017/07/08 19:19:53","新北市土城區中央路二段247號","121.440075","24.9716183333333","6501300","土城區"
"236049","913-UM","2017/07/08 19:19:51","新北市土城區明德路一段398-1號","121.453635","24.97908","6501300","土城區"
"238015","755-BX","2017/07/08 19:20:03","新北市樹林區備內街9-1號","121.412791666667","24.98701","6500700","樹林區"
"238023","601-UM","2017/07/08 19:20:01","新北市樹林區大慶街17號","121.396973333333","25.0144016666667","6500700","樹林區"
"238019","599-UM","2017/07/08 19:20:07","新北市樹林區東榮街91巷1弄9號","121.416416666667","24.9827566666667","6500700","樹林區"
"238018","571-TV","2017/07/08 19:19:58","新北市樹林區太平路56巷19號","121.418481666667","24.9817133333333","6500700","樹林區"
"238024","5061-A6","2017/07/08 19:19:59","新北市樹林區福德街17號","121.401038333333","24.9760383333333","6500700","樹林區"
"238022","312-TH","2017/07/08 19:20:02","新北市樹林區中山路二段147號","121.406445","24.9787916666667","6500700","樹林區"
"238021","311-TH","2017/07/08 19:04:08","新北市樹林區柑園街二段278號","121.374511666667","24.9522033333333","6500700","樹林區"
"238025","303-VK","2017/07/08 19:20:05","新北市樹林區中山路二段89號","121.411488333333","24.982815","6500700","樹林區"
"238017","283-BY","2017/07/08 19:20:04","新北市樹林區光華街14巷2號","121.413425","25.0032333333333","6500700","樹林區"
"238014","282-BY","2017/07/08 19:19:54","新北市樹林區千歲街57號","121.42574","24.9968466666667","6500700","樹林區"
"238020","268-VK","2017/07/08 19:19:55","新北市樹林區俊英街155巷37號","121.423035","25.0122216666667","6500700","樹林區"
"238026","172-UY","2017/07/08 19:20:00","新北市樹林區佳園路一段39號","121.393136666667","24.97081","6500700","樹林區"
"238016","169-UY","2017/07/08 19:19:59","新北市樹林區復興路385號","121.416615","24.9866916666667","6500700","樹林區"
"239007","AAC-297","2017/07/08 19:19:58","新北市鶯歌區大湖路326巷61弄1號","121.345963333333","24.9693666666667","6500800","鶯歌區"
"239006","891-R6","2017/07/08 19:19:50","新北市鶯歌區鶯桃路268巷16弄15號","121.336418333333","24.960155","6500800","鶯歌區"
"239008","527-UM","2017/07/08 19:19:55","新北市鶯歌區大湖路466號","121.339643333333","24.9723516666667","6500800","鶯歌區"
"239005","526-UM","2017/07/08 19:19:57","新北市鶯歌區中湖街269號","121.348605","24.9757666666667","6500800","鶯歌區"
"239001","417-VK","2017/07/08 19:20:07","新北市鶯歌區建國路375號","121.338816666667","24.949785","6500800","鶯歌區"
"239003","360-BY","2017/07/08 19:19:54","新北市鶯歌區中正二路9號","121.351633333333","24.951545","6500800","鶯歌區"
"239002","359-BY","2017/07/08 19:19:48","新北市鶯歌區大湖路281號","121.345203333333","24.9733183333333","6500800","鶯歌區"
"239004","193-VK","2017/07/08 19:20:04","新北市鶯歌區國中街148號","121.338835","24.9396383333333","6500800","鶯歌區"
"221008","489-VK","2017/07/08 19:20:02","新北市汐止區康寧街332號","121.627598333333","25.067265","6501100","汐止區"
"221036","130-UY","2017/07/08 19:19:54","新北市汐止區汐萬路一段256巷1號","121.65191","25.0747766666667","6501100","汐止區"
"221015","131-UY","2017/07/08 19:19:59","新北市汐止區汐萬路一段256巷1號","121.651788333333","25.0749083333333","6501100","汐止區"
"221010","269-BY","2017/07/08 19:19:49","新北市汐止區康寧街901號","121.651358333333","25.0749966666667","6501100","汐止區"
"221010","276-VK","2017/07/08 13:24:24","新北市汐止區汐萬路一段256巷3號","121.653448333333","25.07461","6501100","汐止區"
"221031","277-VK","2017/07/08 00:10:50","新北市汐止區汐萬路一段256巷3號","121.65254","25.0744633333333","6501100","汐止區"
"221012","278-VK","2017/07/08 19:19:56","新北市汐止區汐萬路一段160號","121.652595","25.07154","6501100","汐止區"
"221023","279-VK","2017/07/08 19:20:09","新北市汐止區康寧街901號","121.650986666667","25.075165","6501100","汐止區"
"221027","281-BY","2017/07/08 19:20:00","新北市汐止區康寧街901號","121.65089","25.075195","6501100","汐止區"
"221038","297-VK","2017/07/08 18:40:33","新北市汐止區康寧街901號","121.650715","25.07528","6501100","汐止區"
"221029","298-VK","2017/07/08 19:20:01","新北市汐止區康寧街901號","121.651608333333","25.0749516666667","6501100","汐止區"
"221021","299-VK","2017/07/08 19:19:50","新北市汐止區康寧街901號","121.651391666667","25.0750633333333","6501100","汐止區"
"221025","623-UM","2017/07/08 19:20:01","新北市汐止區汐萬路一段312號","121.650456666667","25.0750983333333","6501100","汐止區"
"221033","647-BX","2017/07/08 19:20:02","新北市汐止區南勢街1巷1號","121.62702","25.03744","6501100","汐止區"
"221002","707-TV","2017/07/08 19:20:03","新北市汐止區大同路一段351-6號","121.639521666667","25.0598366666667","6501100","汐止區"
"220079","145-BY","2017/07/08 19:20:05","新北市板橋區民權路202巷21弄1號","121.460616666667","25.017105","6500100","板橋區"
"220082","610-BX","2017/07/08 19:19:56","新北市板橋區溪崑二街136號","121.425906666667","24.9876616666667","6500100","板橋區"
"220103","257-TC","2017/07/08 19:19:54","新北市板橋區介壽街17號","121.467736666667","25.0201866666667","6500100","板橋區"
"220091","267-BY","2017/07/08 19:19:53","新北市板橋區萬板路478號","121.47995","25.0261866666667","6500100","板橋區"
"220056","276-BY","2017/07/08 19:20:00","新北市板橋區信義路60號","121.457236666667","24.9937833333333","6500100","板橋區"
"220072","277-BY","2017/07/08 19:20:09","新北市板橋區金門街260巷2號","121.429783333333","24.986935","6500100","板橋區"
"220094","283-UM","2017/07/08 19:19:50","新北市板橋區吳鳳路19-5號","121.467085","25.0309833333333","6500100","板橋區"
"220071","283-VK","2017/07/08 19:20:00","新北市板橋區重慶路349-3號","121.464066666667","24.99785","6500100","板橋區"
"220101","285-UM","2017/07/08 19:20:10","新北市板橋區莒光路223號","121.474181666667","25.0226266666667","6500100","板橋區"
"220053","285-VK","2017/07/08 19:20:00","新北市板橋區富山街23號","121.477901666667","25.021765","6500100","板橋區"
"220083","286-VK","2017/07/08 19:20:07","新北市板橋區大觀路二段174巷165弄14號","121.441436666667","25.00355","6500100","板橋區"
"220081","287-VK","2017/07/08 19:20:10","新北市板橋區南雅西路一段82號","121.453391666667","25.005685","6500100","板橋區"
"220090","288-VK","2017/07/08 19:20:04","新北市板橋區長江路一段106巷13弄35號","121.461406666667","25.02979","6500100","板橋區"
"220061","293-UM","2017/07/08 19:19:53","新北市板橋區三民路二段29巷9弄36號","121.480695","25.0181616666667","6500100","板橋區"
"220062","295-UM","2017/07/08 19:20:06","新北市板橋區三民路二段居仁巷1弄55-1號","121.481146666667","25.01389","6500100","板橋區"
"220084","296-UM","2017/07/08 19:19:50","新北市板橋區溪崑二街56巷36號","121.428326666667","24.9915116666667","6500100","板橋區"
"220075","297-UM","2017/07/08 19:19:51","新北市板橋區南雅南路一段3巷25-11號","121.456635","25.0057333333333","6500100","板橋區"
"220092","299-UM","2017/07/08 19:20:01","新北市板橋區松江街54號","121.468675","25.02727","6500100","板橋區"
"220098","317-R6","2017/07/08 19:19:54","新北市板橋區民有街70號","121.465343333333","25.026595","6500100","板橋區"
"220080","461-BY","2017/07/08 19:20:08","新北市板橋區大觀路二段7巷35號","121.448108333333","25.0034233333333","6500100","板橋區"
"220064","486-VK","2017/07/08 19:19:55","新北市板橋區板新路236號","121.468263333333","25.01611","6500100","板橋區"
"220089","487-VK","2017/07/08 19:20:02","新北市板橋區文化路一段357號","121.466866666667","25.0209316666667","6500100","板橋區"
"220088","491-VK","2017/07/08 19:19:07","新北市板橋區文化路二段262號","121.471405","25.0286466666667","6500100","板橋區"
"220035","560-BX","2017/07/08 19:19:53","新北市板橋區瑞安街31巷1號","121.455776666667","25.0228366666667","6500100","板橋區"
"220067","568-UM","2017/07/08 19:19:52","新北市板橋區長安街138巷7弄55號","121.474051666667","25.00934","6500100","板橋區"
"220063","609-BX","2017/07/08 19:20:01","新北市板橋區三民路二段81巷9號","121.479945","25.0168166666667","6500100","板橋區"
"220057","686-BX","2017/07/08 19:20:05","新北市板橋區重慶路275號","121.463385","24.9997583333333","6500100","板橋區"
"220077","687-BX","2017/07/08 19:20:02","新北市板橋區大觀路一段28巷28號","121.44993","25.0093466666667","6500100","板橋區"
"220093","689-BX","2017/07/08 19:19:49","新北市板橋區民生路二段236號","121.46807","25.0231933333333","6500100","板橋區"
"220054","741-BX","2017/07/08 19:20:06","新北市板橋區成都街23號","121.460678333333","25.004875","6500100","板橋區"
"220055","827-TW","2017/07/08 19:20:04","新北市板橋區實踐路65巷6-7號","121.464405","25.0064816666667","6500100","板橋區"
"220102","830-TW","2017/07/08 19:20:09","新北市板橋區文聖街176號","121.479173333333","25.02699","6500100","板橋區"
"220096","831-TW","2017/07/08 19:19:57","新北市板橋區大同街14-4號","121.477493333333","25.0269516666667","6500100","板橋區"
"220074","895-R6","2017/07/08 19:19:51","新北市板橋區中正路自強新村45-1號","121.454663333333","25.0139933333333","6500100","板橋區"
"220073","985-R7","2017/07/08 19:20:06","新北市板橋區新生街64-1號","121.457188333333","25.0208383333333","6500100","板橋區"
"220097","AAC-210","2017/07/08 19:19:58","新北市板橋區漢生西路89巷3弄28號","121.46131","25.0198333333333","6500100","板橋區"
"220070","AAC-253","2017/07/08 19:20:08","新北市板橋區四川路一段327號","121.45868","25.000515","6500100","板橋區"
