"lineid","car","time","location","longitude","latitude","cityid","cityname"
"234046","148-BY","2017/07/08 19:57:54","新北市永和區林森路39巷2號","121.525453333333","25.0047333333333","6500400","永和區"
"234013","149-BY","2017/07/08 19:57:54","新北市永和區保生路55號","121.504765","25.0106166666667","6500400","永和區"
"234007","207-UY","2017/07/08 19:57:51","新北市永和區保生路22巷8號","121.50724","25.00811","6500400","永和區"
"234081","298-R6","2017/07/08 19:58:04","新北市永和區永利路85-1號","121.52146","25.0034266666667","6500400","永和區"
"234038","336-UY","2017/07/08 19:57:53","新北市永和區成功路二段115號","121.526633333333","24.99861","6500400","永和區"
"234064","337-UY","2017/07/08 19:57:51","新北市永和區中正路368巷15號","121.518201666667","25.0009116666667","6500400","永和區"
"234086","338-UY","2017/07/08 19:58:05","新北市永和區福和路200號","121.519876666667","25.0076816666667","6500400","永和區"
"234070","552-UM","2017/07/08 19:58:04","新北市永和區國光路59巷6號","121.518575","25.0080116666667","6500400","永和區"
"234054","553-UM","2017/07/08 19:57:48","新北市永和區環河東路一段122號","121.520608333333","25.0157483333333","6500400","永和區"
"234017","745-BX","2017/07/08 19:57:51","新北市永和區文化路85號","121.513578333333","25.0151416666667","6500400","永和區"
"234030","746-BX","2017/07/08 19:58:09","新北市永和區民權路49巷5弄4號","121.520503333333","24.9974533333333","6500400","永和區"
"234061","AAD-866","2017/07/08 19:57:50","新北市永和區中正路283巷11號","121.51688","25.0005583333333","6500400","永和區"
"234042","862-TW","2017/07/08 19:58:07","新北市永和區中和路335巷8號","121.507541666667","24.9999966666667","6500400","永和區"
"234050","863-TW","2017/07/08 19:57:59","新北市永和區保安路262巷2號","121.505906666667","25.012505","6500400","永和區"
"234026","9371-KE","2017/07/08 19:57:06","新北市永和區水源街21巷14弄3號","121.511513333333","25.0035616666667","6500400","永和區"
"249005","172-UM","2017/07/08 19:57:48","新北市八里區楓林路1-11號","121.385468333333","25.1312716666667","6502300","八里區"
"249001","173-UM","2017/07/08 19:57:53","新北市八里區中華路二段312號","121.403713333333","25.148445","6502300","八里區"
"249004","303-UY","2017/07/08 19:57:51","新北市八里區中山路一段452號","121.410535","25.1568816666667","6502300","八里區"
"249002","305-UY","2017/07/08 19:57:48","新北市八里區龍米路一段87巷31-12號","121.453348333333","25.1232","6502300","八里區"
"249003","593-UM","2017/07/08 19:58:03","新北市八里區中華路二段560巷19號","121.398368333333","25.1453666666667","6502300","八里區"
"248014","025-BX","2017/07/08 19:57:56","新北市五股區五福路26號","121.434158333333","25.0889516666667","6501500","五股區"
"248016","026-BX","2017/07/08 19:57:59","新北市五股區成泰路三段577巷80弄7號","121.449501666667","25.1042516666667","6501500","五股區"
"248008","095-VK","2017/07/08 19:58:07","新北市五股區四維路30巷29號","121.468558333333","25.071485","6501500","五股區"
"248020","225-UY","2017/07/08 19:57:53","新北市五股區凌雲路三段46號","121.430733333333","25.1087","6501500","五股區"
"248012","247-BX","2017/07/08 18:31:37","新北市五股區御成路139號","121.440566666667","25.0942833333333","6501500","五股區"
"248010","272-BY","2017/07/08 19:58:03","新北市五股區登林路104號","121.427173333333","25.07055","6501500","五股區"
"248004","677-BX","2017/07/08 19:57:59","新北市五股區成泰路一段120號","121.43537","25.073865","6501500","五股區"
"248002","678-BX","2017/07/08 19:58:04","新北市五股區成泰路三段621號","121.452726666667","25.1038383333333","6501500","五股區"
"234023","9380-KE","2017/07/08 19:57:59","新北市永和區中正路702巷20弄1號","121.516583333333","25.0105166666667","6500400","永和區"
"234077","969-R7","2017/07/08 19:58:00","新北市永和區中正路73號","121.51496","24.9968116666667","6500400","永和區"
"234074","AAC-211","2017/07/08 19:58:07","新北市永和區豫溪街211號","121.524138333333","25.0095716666667","6500400","永和區"
"234067","AAC-212","2017/07/08 19:58:07","新北市永和區永貞路422號","121.508661666667","25.0082683333333","6500400","永和區"
"234003","AAC-295","2017/07/08 19:55:19","新北市永和區永和路一段136號","121.514168333333","25.0079166666667","6500400","永和區"
"244019","742-UY","2017/07/08 19:58:10","新北市林口區四維路114號","121.37744","25.078275","6501700","林口區"
"243013","AAD-798","2017/07/08 19:58:04","新北市泰山區明志路三段6巷16號","121.4239","25.0436483333333","6501600","泰山區"
"243009","297-R6","2017/07/08 19:58:06","新北市泰山區楓江路16巷7號","121.43393","25.0619533333333","6501600","泰山區"
"243015","380-SR","2017/07/08 19:58:08","新北市泰山區明志路二段214巷9號","121.426823333333","25.0487883333333","6501600","泰山區"
"243014","421-VK","2017/07/08 19:58:04","新北市泰山區泰林路二段148號","121.434125","25.05995","6501600","泰山區"
"243010","548-UM","2017/07/08 19:58:00","新北市泰山區明志路二段81號","121.42894","25.05234","6501600","泰山區"
"243011","549-UM","2017/07/08 19:57:57","新北市泰山區明志路三段196巷54號","121.42155","25.039975","6501600","泰山區"
"243012","646-TV","2017/07/08 19:58:07","新北市泰山區全興路85號","121.433245","25.0577783333333","6501600","泰山區"
"243016","680-BX","2017/07/08 19:57:50","新北市泰山區新北大道六段391號","121.421575","25.0324","6501600","泰山區"
"222003","436-BY","2017/07/08 19:57:54","新北市深坑區北深路二段16號","121.62081","25.0044483333333","6501800","深坑區"
"222001","628-TS","2017/07/08 19:58:07","新北市深坑區北深路三段111號","121.604991666667","25.0020816666667","6501800","深坑區"
"222002","659-BX","2017/07/08 19:58:04","新北市深坑區北深路二段55巷12弄23號","121.618418333333","25.0030866666667","6501800","深坑區"
"231061","001-UM","2017/07/08 19:57:53","新北市新店區安興路102號","121.515115","24.9766666666667","6500600","新店區"
"231041","002-UM","2017/07/08 19:58:05","新北市新店區民族路192號","121.536045","24.975465","6500600","新店區"
"231060","106-UY","2017/07/08 19:58:03","新北市新店區安豐路30號","121.501105","24.957115","6500600","新店區"
"231051","107-UY","2017/07/08 19:58:02","新北市新店區中央路137號","121.530246666667","24.97356","6500600","新店區"
"231048","108-UY","2017/07/08 19:57:54","新北市新店區寶宏路40巷1號","121.54932","24.97543","6500600","新店區"
"231052","110-UY","2017/07/08 19:57:54","新北市新店區新烏路三段寶島巷4號","121.551585","24.899255","6500600","新店區"
"231057","256-BX","2017/07/08 19:58:05","新北市新店區花園二路一段11號","121.555528333333","24.9324466666667","6500600","新店區"
"231063","268-BY","2017/07/08 19:57:49","新北市新店區黎明路3號","121.503496666667","24.9524066666667","6500600","新店區"
"231050","AAD-862","2017/07/08 19:57:05","新北市新店區北宜路二段579巷34號","121.56488","24.9551566666667","6500600","新店區"
"231059","355-BY","2017/07/08 19:57:56","新北市新店區安康路二段66號","121.514756666667","24.9636","6500600","新店區"
"231055","3713-VJ","2017/07/08 19:57:51","新北市新店區力行路92號","121.538346666667","24.9665316666667","6500600","新店區"
"231067","4772-VM","2017/07/08 19:57:51","新北市新店區精忠路10-1號","121.532671666667","24.9590583333333","6500600","新店區"
"231065","512-UM","2017/07/08 19:57:48","新北市新店區安祥路106-1號","121.47872","24.9620283333333","6500600","新店區"
"231054","513-UM","2017/07/08 19:57:57","新北市新店區北宜路一段3號","121.538436666667","24.95851","6500600","新店區"
"231064","515-UM","2017/07/08 19:58:00","新北市新店區安民街139號","121.516438333333","24.96939","6500600","新店區"
"231042","616-UM","2017/07/08 19:58:04","新北市新店區中興路一段278號","121.545531666667","24.9682983333333","6500600","新店區"
"231045","617-UM","2017/07/08 19:58:03","新北市新店區北宜路二段172號","121.558416666667","24.9540833333333","6500600","新店區"
"231040","619-UM","2017/07/08 19:57:52","新北市新店區中正路60號","121.544315","24.9701166666667","6500600","新店區"
"231049","719-UM","2017/07/08 19:58:06","新北市新店區建國路217號","121.53766","24.9809166666667","6500600","新店區"
"231062","720-UM","2017/07/08 19:57:58","新北市新店區華城路36巷1-1號","121.528151666667","24.95547","6500600","新店區"
"231044","897-TW","2017/07/08 19:58:06","新北市新店區復興路43-1號","121.536961666667","24.98699","6500600","新店區"
"231043","899-TW","2017/07/08 19:58:09","新北市新店區中正路282-11號","121.53857","24.974025","6500600","新店區"
"231066","AKT-0513","2017/07/08 19:57:57","新北市新店區薏仁坑路6-1號","121.499835","24.9585333333333","6500600","新店區"
"241011","013-R5","2017/07/08 19:57:56","新北市三重區三和路三段13號","121.496335","25.070745","6500200","三重區"
"241028","022-UY","2017/07/08 19:57:57","新北市三重區重新路三段60巷2-1號","121.493975","25.0609466666667","6500200","三重區"
"241008","059-VK","2017/07/08 19:57:55","新北市三重區永福街181號","121.479013333333","25.0750433333333","6500200","三重區"
"241009","060-VK","2017/07/08 19:58:09","新北市三重區三和路四段390巷45號","121.479998333333","25.0785533333333","6500200","三重區"
"241031","061-VK","2017/07/08 19:58:06","新北市三重區重新路四段184巷16號","121.487005","25.0549483333333","6500200","三重區"
"241015","062-VK","2017/07/08 19:57:59","新北市三重區三和路二段6-1號","121.501281666667","25.0666066666667","6500200","三重區"
"241017","063-VK","2017/07/08 19:57:52","新北市三重區重陽路三段97號","121.490253333333","25.0680816666667","6500200","三重區"
"241024","065-VK","2017/07/08 19:58:04","新北市三重區力行路一段178巷9號","121.481593333333","25.0714166666667","6500200","三重區"
"241026","066-VK","2017/07/08 19:58:05","新北市三重區中央南路1號","121.501181666667","25.063075","6500200","三重區"
"241003","091-VK","2017/07/08 19:58:02","新北市三重區五華街95號","121.491855","25.0836466666667","6500200","三重區"
"241002","156-TC","2017/07/08 19:58:03","新北市三重區仁愛街274號","121.492703333333","25.078805","6500200","三重區"
"241005","262-UM","2017/07/08 19:57:58","新北市三重區溪尾街325巷25號","121.488608333333","25.08333","6500200","三重區"
"241032","265-UM","2017/07/08 19:58:07","新北市三重區朝陽街26巷1弄19號","121.483181666667","25.0570233333333","6500200","三重區"
"241016","266-UM","2017/07/08 19:58:06","新北市三重區正義北路36巷17號","121.496726666667","25.06338","6500200","三重區"
"241022","267-UM","2017/07/08 19:58:07","新北市三重區新北大道一段9號","121.489356666667","25.0614433333333","6500200","三重區"
"241018","268-UM","2017/07/08 19:58:04","新北市三重區正義北路185號","121.496211666667","25.0679916666667","6500200","三重區"
"241013","270-UM","2017/07/08 19:58:03","新北市三重區三和路三段115號","121.49308","25.07309","6500200","三重區"
"241025","271-UM","2017/07/08 19:57:54","新北市三重區頂崁街210巷7號","121.476598333333","25.067765","6500200","三重區"
"241007","398-BY","2017/07/08 19:58:01","新北市三重區慈愛街3號","121.48477","25.0785233333333","6500200","三重區"
"241020","413-TH","2017/07/08 19:57:54","新北市三重區忠孝路一段101號","121.489495","25.072115","6500200","三重區"
"241035","462-BY","2017/07/08 19:58:04","新北市三重區大榮街7號","121.498208333333","25.0631133333333","6500200","三重區"
"241004","475-VK","2017/07/08 19:58:11","新北市三重區五華街74號","121.49332","25.082045","6500200","三重區"
"241019","478-VK","2017/07/08 19:58:10","新北市三重區重陽路四段38號","121.49139","25.0698366666667","6500200","三重區"
"241030","480-VK","2017/07/08 19:57:59","新北市三重區成功路151號","121.486651666667","25.0522833333333","6500200","三重區"
"241014","543-UM","2017/07/08 19:57:57","新北市三重區三和路二段36號","121.500133333333","25.06782","6500200","三重區"
"241023","545-UM","2017/07/08 19:57:55","新北市三重區頂崁街172號","121.47756","25.0659583333333","6500200","三重區"
"241001","547-UM","2017/07/08 19:57:59","新北市三重區仁愛街283巷25號","121.493905","25.0795916666667","6500200","三重區"
"241006","AAD-863","2017/07/08 19:57:56","新北市三重區力行路二段78號","121.481728333333","25.0736133333333","6500200","三重區"
"241012","941-UM","2017/07/08 19:58:02","新北市三重區仁厚街92號","121.501008333333","25.0768583333333","6500200","三重區"
"241029","942-UM","2017/07/08 19:58:01","新北市三重區重新路三段204號","121.490146666667","25.0585816666667","6500200","三重區"
"241033","AAC-255","2017/07/08 19:57:57","新北市三重區中興北街21號","121.469583333333","25.0466116666667","6500200","三重區"
"235066","003-UY","2017/07/08 19:57:52","新北市中和區光華街33號","121.505151666667","25.003855","6500300","中和區"
"235056","096-UM","2017/07/08 19:58:07","新北市中和區漢民路411號","121.472293333333","25.0069366666667","6500300","中和區"
"235039","097-UM","2017/07/08 19:57:59","新北市中和區大勇街25巷2號","121.517245","24.9933283333333","6500300","中和區"
"235065","098-UM","2017/07/08 19:57:57","新北市中和區莊敬路31巷13號","121.500046666667","25.0051616666667","6500300","中和區"
"235040","150-BY","2017/07/08 19:57:57","新北市中和區保健路10巷3弄1號","121.507731666667","24.99764","6500300","中和區"
"235058","151-BY","2017/07/08 19:58:06","新北市中和區員山路150-31號","121.481475","24.9983233333333","6500300","中和區"
"235055","183-VK","2017/07/08 19:57:55","新北市中和區德光路29號","121.47073","25.0042333333333","6500300","中和區"
"235038","185-VK","2017/07/08 19:58:02","新北市中和區大智街55巷30弄32號","121.52166","24.993225","6500300","中和區"
"235049","186-VK","2017/07/08 19:58:03","新北市中和區景平路385巷42-1號","121.5016","24.9944433333333","6500300","中和區"
"235067","255-BX","2017/07/08 19:58:06","新北市中和區新生街186巷1弄16號","121.483368333333","24.9990533333333","6500300","中和區"
"235044","293-VK","2017/07/08 19:57:58","新北市中和區興南路一段106號","121.509756666667","24.988825","6500300","中和區"
"235072","301-VK","2017/07/08 19:58:04","新北市新店區薏仁坑路自強巷1號","121.497761666667","24.9577416666667","6500300","中和區"
"235043","352-BY","2017/07/08 19:57:59","新北市中和區興南路二段159巷12號","121.505158333333","24.98304","6500300","中和區"
"235051","376-QA","2017/07/08 19:58:08","新北市中和區中興街180巷52弄1號","121.498633333333","24.9885033333333","6500300","中和區"
"235068","377-QA","2017/07/08 19:58:03","新北市中和區莊敬路16巷14號","121.499996666667","25.0037133333333","6500300","中和區"
"235061","378-QA","2017/07/08 19:58:00","新北市中和區新生街148巷16號","121.482538333333","25.00072","6500300","中和區"
"235050","4979-A6","2017/07/08 19:47:22","新北市中和區景平路329巷1弄5號","121.506078333333","24.9926166666667","6500300","中和區"
"235069","4980-A6","2017/07/08 19:58:00","新北市中和區景新街64巷5號","121.504093333333","24.9986266666667","6500300","中和區"
"235042","551-UM","2017/07/08 19:57:57","新北市中和區保健路7巷5號","121.508138333333","24.9987283333333","6500300","中和區"
"235070","558-UM","2017/07/08 19:58:06","新北市中和區景平路634-3號","121.499451666667","24.9991333333333","6500300","中和區"
"235054","640-BX","2017/07/08 19:58:01","新北市中和區莒光路65號","121.472483333333","25.00364","6500300","中和區"
"235047","732-UM","2017/07/08 19:58:05","新北市中和區和平街22號","121.50985","24.9903616666667","6500300","中和區"
"235046","733-UM","2017/07/08 19:57:58","新北市中和區興南路一段63號","121.510446666667","24.9893616666667","6500300","中和區"
"235071","783-BX","2017/07/08 19:58:06","新北市三重區後埔街82-1號","121.478816666667","25.04591","6500300","中和區"
"235057","801-TS","2017/07/08 19:58:05","新北市中和區員山路243號","121.481278333333","24.9985133333333","6500300","中和區"
"235041","802-TS","2017/07/08 19:57:59","新北市中和區中安街40巷2號","121.512821666667","25.0028916666667","6500300","中和區"
"235052","805-TS","2017/07/08 19:58:03","新北市中和區員山路36巷16-8號","121.485361666667","24.992225","6500300","中和區"
"235048","896-TW","2017/07/08 19:58:05","新北市中和區興南路一段80號","121.510286666667","24.989815","6500300","中和區"
"235053","900-TW","2017/07/08 19:57:54","新北市中和區國光街150號","121.468128333333","25.0014866666667","6500300","中和區"
"235037","AAC-213","2017/07/08 19:58:06","新北市中和區秀朗路三段50巷17號","121.524903333333","24.9951533333333","6500300","中和區"
"235059","AAC-215","2017/07/08 19:58:06","新北市中和區圓通路305巷5弄30號","121.494218333333","24.99027","6500300","中和區"
"220068","013-TV","2017/07/08 19:57:56","新北市板橋區中山路二段401號","121.480503333333","25.0194566666667","6500100","板橋區"
"220065","072-UY","2017/07/08 19:58:08","新北市板橋區海山路39號","121.467233333333","25.0096816666667","6500100","板橋區"
"220086","073-UY","2017/07/08 19:58:09","新北市板橋區林園街1號","121.453793333333","25.0091216666667","6500100","板橋區"
"220069","AAD-861","2017/07/08 19:57:50","新北市板橋區南雅南路二段11-21號","121.454281666667","25.0014783333333","6500100","板橋區"
"220106","120-SR","2017/07/08 19:58:03","新北市板橋區民治街71巷33號","121.480536666667","25.0333366666667","6500100","板橋區"
"247020","893-R6","2017/07/08 19:57:49","新北市蘆洲區民權路113號","121.472445","25.089425","6501400","蘆洲區"
"247018","500-BY","2017/07/08 19:57:55","新北市蘆洲區民族路298巷12號","121.478528333333","25.0901483333333","6501400","蘆洲區"
"247006","341-TH","2017/07/08 19:58:05","新北市蘆洲區九芎街115號","121.465635","25.0794666666667","6501400","蘆洲區"
"247008","339-TH","2017/07/08 19:58:08","新北市蘆洲區中山一路97巷32弄7號","121.47577","25.0810383333333","6501400","蘆洲區"
"247024","337-TH","2017/07/08 19:58:03","新北市蘆洲區光榮路120巷8弄3號","121.465533333333","25.088265","6501400","蘆洲區"
"247002","336-TH","2017/07/08 19:57:52","新北市蘆洲區永樂街31巷7-1號","121.4582","25.0872466666667","6501400","蘆洲區"
"247014","057-VK","2017/07/08 19:58:06","新北市蘆洲區成功路156號","121.471558333333","25.0832216666667","6501400","蘆洲區"
"247004","056-VK","2017/07/08 19:57:55","新北市蘆洲區永安南路二段356號","121.45616","25.082775","6501400","蘆洲區"
"247012","007-UY","2017/07/08 19:57:59","新北市蘆洲區民族路155號","121.479476666667","25.088035","6501400","蘆洲區"
"247016","001-UY","2017/07/08 19:58:07","新北市蘆洲區光華路77號","121.467908333333","25.08261","6501400","蘆洲區"
"226004","312-R5","2017/07/08 19:57:54","新北市平溪區靜安路二段561號","121.748156666667","25.0249383333333","6502400","平溪區"
"228003","097-TW","2017/07/08 19:57:54","新北市貢寮區仁理村仁和路224號","121.923888333333","25.05355","6502600","貢寮區"
"224010","AGQ-8101","2017/07/08 19:50:24","新北市瑞芳區山尖路172-1號","121.848648333333","25.1118783333333","6501200","瑞芳區"
"224011","420-VK","2017/07/08 19:57:59","新北市瑞芳區崙頂路3-1號","121.847003333333","25.104715","6501200","瑞芳區"
"227010","642-TC","2017/07/08 19:57:53","新北市雙溪區新基里朝陽街3號","121.866265","25.0383083333333","6502500","雙溪區"
"227002","400-TW","2017/07/08 19:57:49","新北市雙溪區雙溪里長安街16號","121.864975","25.0347166666667","6502500","雙溪區"
"208003","665-BX","2017/07/08 19:57:58","新北市金山區永興里忠義路29-1號","121.630575","25.263765","6502700","金山區"
"208001","761-BX","2017/07/08 19:58:10","新北市金山區南勢湖30號","121.613871666667","25.2179533333333","6502700","金山區"
"251009","008-UM","2017/07/08 19:46:18","新北市淡水區中正路42-1號","121.443585","25.1693616666667","6501000","淡水區"
"251004","009-UM","2017/07/08 19:57:57","新北市淡水區民權路177巷9號","121.460783333333","25.135405","6501000","淡水區"
"251001","011-UM","2017/07/08 19:58:01","新北市淡水區忠愛街4-1號","121.459266666667","25.1723716666667","6501000","淡水區"
"251014","180-VK","2017/07/08 19:58:07","新北市淡水區石頭厝14-53號","121.464155","25.23667","6501000","淡水區"
"251010","413-VK","2017/07/08 19:57:53","新北市淡水區崁頂99號","121.434513333333","25.20375","6501000","淡水區"
"251012","441-VK","2017/07/08 19:57:57","新北市淡水區下圭柔山61-6號","121.447833333333","25.2047683333333","6501000","淡水區"
"251016","442-VK","2017/07/08 19:57:52","新北市淡水區淡金路五段14-8號","121.4527","25.2320266666667","6501000","淡水區"
"251005","443-VK","2017/07/08 19:57:58","新北市淡水區學府路136巷32號","121.451775","25.172665","6501000","淡水區"
"251006","561-UM","2017/07/08 19:58:02","新北市淡水區水碓街34號","121.444205","25.1773466666667","6501000","淡水區"
"251011","650-BX","2017/07/08 19:57:48","新北市淡水區崁頂55-3號","121.442338333333","25.1966083333333","6501000","淡水區"
"207003","550-UM","2017/07/08 19:57:47","新北市萬里區大鵬里萬里加投41-2號","121.637771666667","25.20721","6502800","萬里區"
"207004","225-TW","2017/07/08 19:58:06","新北市萬里區北基里忠二街35號","121.685663333333","25.17573","6502800","萬里區"
"252002","178-VK","2017/07/08 19:57:55","新北市三芝區三民街39巷10號","121.505186666667","25.2579983333333","6502100","三芝區"
"252001","292-VK","2017/07/08 19:58:01","新北市三芝區公正街9號","121.499755","25.2574833333333","6502100","三芝區"
"208002","170-UY","2017/07/08 19:57:57","新北市金山區環金路59號","121.63872","25.2172433333333","6502700","金山區"
"237004","078-UY","2017/07/08 19:58:01","新北市三峽區添福1-1號","121.370851666667","24.9086416666667","6500900","三峽區"
"237007","153-BY","2017/07/08 19:58:02","新北市三峽區二鬮路136巷18弄1號","121.359036666667","24.90787","6500900","三峽區"
"237009","210-TH","2017/07/08 19:58:09","新北市三峽區民族街78巷3號","121.368935","24.92999","6500900","三峽區"
"237013","252-BX","2017/07/08 19:57:53","新北市三峽區溪北街47號","121.397125","24.9360466666667","6500900","三峽區"
"237012","275-BY","2017/07/08 19:58:01","新北市三峽區光明路3巷38-1號","121.373271666667","24.9326633333333","6500900","三峽區"
"237008","302-VK","2017/07/08 19:57:57","新北市三峽區永安街143-2號","121.373518333333","24.9281033333333","6500900","三峽區"
"237006","5529-G3","2017/07/08 19:58:02","新北市三峽區正義街59巷9號","121.370156666667","24.9186633333333","6500900","三峽區"
"237011","572-TV","2017/07/08 19:57:55","新北市鶯歌區文化路322號","121.352533333333","24.9464833333333","6500900","三峽區"
"237016","649-BX","2017/07/08 19:58:03","新北市三峽區介壽路二段138巷6號","121.394955","24.93544","6500900","三峽區"
"237005","AKY-6261","2017/07/08 19:58:09","新北市三峽區長泰街18巷1號","121.379138333333","24.9316883333333","6500900","三峽區"
"236073","105-UM","2017/07/08 19:57:55","新北市土城區千歲路11號","121.440848333333","24.9697516666667","6501300","土城區"
"236043","107-UM","2017/07/08 19:58:00","新北市土城區學府路一段145號","121.453573333333","24.9861733333333","6501300","土城區"
"236079","166-UM","2017/07/08 19:57:55","新北市土城區民生街15號","121.412616666667","24.9621566666667","6501300","土城區"
"236031","253-BX","2017/07/08 19:58:08","新北市土城區中央路一段248-2號","121.444503333333","24.984675","6501300","土城區"
"236027","269-VK","2017/07/08 19:57:56","新北市土城區員林街88號","121.444855","24.9769366666667","6501300","土城區"
"236015","270-VK","2017/07/08 19:57:54","新北市土城區廣福街123號","121.456233333333","24.992865","6501300","土城區"
"236038","271-VK","2017/07/08 19:57:52","新北市土城區國際路139巷54號","121.468518333333","24.9775433333333","6501300","土城區"
"236023","401-BY","2017/07/08 19:57:58","新北市土城區延吉街137巷2弄25號","121.470128333333","24.98553","6501300","土城區"
"236059","912-UM","2017/07/08 19:57:53","新北市土城區中央路一段134號","121.4463","24.9876566666667","6501300","土城區"
"236049","913-UM","2017/07/08 19:57:51","新北市中和區連城路631-2號","121.475508333333","24.991245","6501300","土城區"
"236063","915-UM","2017/07/08 19:58:06","新北市土城區延和路112號","121.467275","24.9898666666667","6501300","土城區"
"236055","AAC-216","2017/07/08 19:58:04","新北市土城區延和路256號","121.469965","24.9894666666667","6501300","土城區"
"242021","AAC-296","2017/07/08 19:58:00","新北市新莊區建中街16巷18號","121.449381666667","25.0383483333333","6500500","新莊區"
"242029","986-R7","2017/07/08 19:58:04","新北市新莊區中平路300號","121.444731666667","25.0517783333333","6500500","新莊區"
"242025","615-BX","2017/07/08 19:57:58","新北市新莊區五工二路86巷22號","121.46029","25.0669766666667","6500500","新莊區"
"242023","613-BX","2017/07/08 19:58:05","新北市新莊區化成路159號","121.465783333333","25.0492666666667","6500500","新莊區"
"242027","612-BX","2017/07/08 19:58:06","新北市新莊區立信三街46號","121.443256666667","25.0508816666667","6500500","新莊區"
"242036","566-BX","2017/07/08 19:57:53","新北市新莊區民安路207巷34弄3號","121.428525","25.0246216666667","6500500","新莊區"
"242042","497-BY","2017/07/08 19:57:58","新北市新莊區青山路一段8號","121.411805","25.027545","6500500","新莊區"
"242004","442-UM","2017/07/08 19:57:56","新北市新莊區化成路63巷105號","121.461586666667","25.0458333333333","6500500","新莊區"
"242051","440-UM","2017/07/08 19:58:05","新北市新莊區西盛街137號","121.428255","25.0185283333333","6500500","新莊區"
"242031","415-TV","2017/07/08 19:57:58","新北市新莊區中正路352號","121.443988333333","25.0342933333333","6500500","新莊區"
"242002","413-TV","2017/07/08 19:57:59","新北市新莊區中正路170號","121.450911666667","25.0358983333333","6500500","新莊區"
"242039","400-BY","2017/07/08 19:57:52","新北市新莊區民安路312號","121.428461666667","25.0219416666667","6500500","新莊區"
"242061","362-BY","2017/07/08 19:58:09","新北市新莊區瓊林路92號","121.444516666667","25.027805","6500500","新莊區"
"242058","353-BY","2017/07/08 19:57:52","新北市新莊區八德街114號","121.424068333333","25.02101","6500500","新莊區"
"242011","132-UY","2017/07/08 19:57:57","新北市新莊區中港路531巷54號","121.450105","25.0516","6500500","新莊區"
"242034","133-UY","2017/07/08 19:57:56","新北市新莊區建中街106號","121.44628","25.0365566666667","6500500","新莊區"
"242019","135-UY","2017/07/08 19:58:04","新北市新莊區民生街15巷6弄1號","121.45553","25.0425416666667","6500500","新莊區"
"242044","172-VK","2017/07/08 19:58:07","新北市新莊區新北大道七段716號","121.412486666667","25.0262866666667","6500500","新莊區"
"242007","173-VK","2017/07/08 19:58:04","新北市新莊區中央路100號","121.457316666667","25.0595283333333","6500500","新莊區"
"242056","176-VK","2017/07/08 19:57:50","新北市新莊區中正路347巷17弄8號","121.447428333333","25.0343433333333","6500500","新莊區"
"242013","346-TH","2017/07/08 19:57:55","新北市新莊區中港路447號","121.452595","25.0484016666667","6500500","新莊區"
"242017","348-TH","2017/07/08 19:57:59","新北市新莊區中港路360-7號","121.452423333333","25.04642","6500500","新莊區"
"242015","350-TH","2017/07/08 19:57:56","新北市新莊區復興路一段47巷4號","121.446958333333","25.042365","6500500","新莊區"
"242009","351-TH","2017/07/08 19:57:57","新北市新莊區昌盛街4號","121.453063333333","25.04999","6500500","新莊區"
"238015","755-BX","2017/07/08 19:58:03","新北市樹林區中山路三段125-7號","121.397946666667","24.9738066666667","6500700","樹林區"
"238023","601-UM","2017/07/08 19:58:00","新北市樹林區中正路755號","121.410538333333","25.0152183333333","6500700","樹林區"
"238021","311-TH","2017/07/08 19:54:08","新北市樹林區佳園路三段205號","121.38517","24.947175","6500700","樹林區"
"238025","303-VK","2017/07/08 19:58:05","新北市樹林區中山路三段361號","121.389541666667","24.97023","6500700","樹林區"
"238020","268-VK","2017/07/08 19:57:55","新北市樹林區環河路10號","121.427193333333","24.9782166666667","6500700","樹林區"
"239006","891-R6","2017/07/08 19:57:50","新北市鶯歌區文化路110號","121.352335","24.952295","6500800","鶯歌區"
"221008","489-VK","2017/07/08 19:57:54","台北市內湖區康樂街65號","121.6184","25.068685","6501100","汐止區"
"221036","130-UY","2017/07/08 19:57:54","新北市汐止區仁愛路321號","121.664375","25.0675333333333","6501100","汐止區"
"221015","131-UY","2017/07/08 19:57:54","新北市汐止區忠孝東路397號","121.665708333333","25.0707833333333","6501100","汐止區"
"221010","269-BY","2017/07/08 19:58:10","新北市汐止區連峰街128號","121.646108333333","25.079125","6501100","汐止區"
"221010","276-VK","2017/07/08 13:24:24","新北市汐止區汐萬路一段256巷3號","121.653448333333","25.07461","6501100","汐止區"
"221031","277-VK","2017/07/08 00:10:50","新北市汐止區汐萬路一段256巷3號","121.65254","25.0744633333333","6501100","汐止區"
"221012","278-VK","2017/07/08 19:57:56","新北市汐止區大同路三段331號","121.674916666667","25.07376","6501100","汐止區"
"221023","279-VK","2017/07/08 19:57:49","新北市汐止區明峰街194號","121.628033333333","25.0694883333333","6501100","汐止區"
"221032","280-BY","2017/07/08 19:57:50","新北市汐止區力行街59巷9弄2號","121.61738","25.0497266666667","6501100","汐止區"
"221027","281-BY","2017/07/08 19:58:00","新北市汐止區中正路49號","121.66192","25.069965","6501100","汐止區"
"221038","297-VK","2017/07/08 19:57:58","新北市汐止區忠孝東路443號","121.666041666667","25.0723266666667","6501100","汐止區"
"221029","298-VK","2017/07/08 19:58:00","新北市汐止區樟樹一路137巷26號","121.641005","25.0659666666667","6501100","汐止區"
"221021","299-VK","2017/07/08 19:57:10","新北市汐止區水源路一段137號","121.656121666667","25.0622216666667","6501100","汐止區"
"221035","622-UM","2017/07/08 19:57:54","新北市汐止區長江街39巷23號","121.655261666667","25.0721533333333","6501100","汐止區"
"221025","623-UM","2017/07/08 19:58:01","新北市汐止區秀峰路107號","121.660313333333","25.063385","6501100","汐止區"
"221033","647-BX","2017/07/08 19:58:02","新北市汐止區東勢街62號","121.632595","25.0394666666667","6501100","汐止區"
"221018","753-BX","2017/07/08 19:58:07","新北市汐止區茄苳路44號","121.66599","25.070725","6501100","汐止區"
"220079","145-BY","2017/07/08 19:58:04","新北市板橋區南雅西路二段175巷2號","121.451613333333","25.012505","6500100","板橋區"
"220082","610-BX","2017/07/08 19:57:57","新北市板橋區溪北路74號","121.428","24.98963","6500100","板橋區"
"220103","257-TC","2017/07/08 19:57:55","新北市板橋區陽明街29巷1弄15號","121.464431666667","25.0217816666667","6500100","板橋區"
"220091","267-BY","2017/07/08 19:57:59","新北市板橋區懷德街174巷3號","121.47886","25.02941","6500100","板橋區"
"220072","277-BY","2017/07/08 19:58:09","新北市板橋區金門街215巷41號","121.433388333333","24.989595","6500100","板橋區"
"220094","283-UM","2017/07/08 19:57:50","新北市板橋區雨農路10號","121.462226666667","25.0247966666667","6500100","板橋區"
"220071","283-VK","2017/07/08 19:58:01","新北市板橋區五權街30巷37弄16-2號","121.463488333333","24.9923033333333","6500100","板橋區"
"220101","285-UM","2017/07/08 19:58:02","新北市板橋區縣民大道三段69號","121.475041666667","25.021485","6500100","板橋區"
"220053","285-VK","2017/07/08 19:58:02","新北市板橋區成功路41巷15號","121.474398333333","25.0173966666667","6500100","板橋區"
"220083","286-VK","2017/07/08 19:58:05","新北市板橋區龍興街63巷26號","121.442531666667","25.00155","6500100","板橋區"
"220081","287-VK","2017/07/08 19:57:49","新北市板橋區僑中一街80巷6弄1號","121.44772","25.0121583333333","6500100","板橋區"
"220090","288-VK","2017/07/08 19:58:05","新北市板橋區綠堤街25號","121.456001666667","25.0263383333333","6500100","板橋區"
"220061","293-UM","2017/07/08 19:57:52","新北市板橋區中山路一段283巷2弄30號","121.470705","25.0151916666667","6500100","板橋區"
"220062","295-UM","2017/07/08 19:58:05","新北市板橋區中山路二段416巷60號","121.48291","25.0188666666667","6500100","板橋區"
"220084","296-UM","2017/07/08 19:58:10","新北市板橋區溪崑二街145號","121.42632","24.98824","6500100","板橋區"
"220075","297-UM","2017/07/08 19:57:51","新北市板橋區中正路202號","121.456053333333","25.017965","6500100","板橋區"
"220092","299-UM","2017/07/08 19:58:01","新北市板橋區新海路330號","121.460523333333","25.0242166666667","6500100","板橋區"
"220098","317-R6","2017/07/08 19:57:53","新北市板橋區新海路385巷20號","121.458061666667","25.02558","6500100","板橋區"
"220080","461-BY","2017/07/08 19:58:06","新北市板橋區大觀路二段37巷296號","121.450023333333","25.0018716666667","6500100","板橋區"
"220064","486-VK","2017/07/08 19:57:55","新北市板橋區實踐路92號","121.463928333333","25.0049583333333","6500100","板橋區"
"220089","487-VK","2017/07/08 19:57:55","新北市板橋區龍泉街82巷9號","121.455941666667","25.02545","6500100","板橋區"
"220088","491-VK","2017/07/08 19:56:47","新北市板橋區文聖街115號","121.477925","25.0291366666667","6500100","板橋區"
"220035","560-BX","2017/07/08 19:57:53","新北市板橋區新生街29巷2弄2號","121.456516666667","25.02146","6500100","板橋區"
"220067","568-UM","2017/07/08 19:57:52","新北市板橋區板新路66號","121.473148333333","25.0140833333333","6500100","板橋區"
"220063","609-BX","2017/07/08 19:58:02","新北市板橋區三民路一段175號","121.479241666667","25.0195516666667","6500100","板橋區"
"220057","686-BX","2017/07/08 19:58:05","新北市板橋區和平路安樂巷39-4號","121.461903333333","24.993295","6500100","板橋區"
"220077","687-BX","2017/07/08 19:57:54","新北市板橋區僑中一街124巷19弄2號","121.446118333333","25.0141233333333","6500100","板橋區"
"220093","689-BX","2017/07/08 19:58:09","新北市板橋區長江路三段133號","121.475571666667","25.0347116666667","6500100","板橋區"
"220054","741-BX","2017/07/08 19:58:06","新北市板橋區實踐路93巷14號","121.464588333333","25.005385","6500100","板橋區"
"220055","827-TW","2017/07/08 19:58:04","新北市板橋區仁愛路62巷14弄1-3號","121.45994","24.9984816666667","6500100","板橋區"
"220102","830-TW","2017/07/08 19:58:02","新北市板橋區仁化街42巷13號","121.475523333333","25.0310816666667","6500100","板橋區"
"220096","831-TW","2017/07/08 19:57:57","新北市板橋區莊敬路167號","121.471041666667","25.0240183333333","6500100","板橋區"
"220074","895-R6","2017/07/08 19:58:11","新北市板橋區府中路29-2號","121.458548333333","25.008035","6500100","板橋區"
"220073","985-R7","2017/07/08 19:58:09","新北市板橋區南雅西路二段224號","121.452241666667","25.0153966666667","6500100","板橋區"
"220097","AAC-210","2017/07/08 19:57:58","新北市板橋區國光路200號","121.461691666667","25.0184833333333","6500100","板橋區"
"220070","AAC-253","2017/07/08 19:58:03","新北市板橋區民族路182號","121.46785","25.0077483333333","6500100","板橋區"
