"lineid","car","time","location","longitude","latitude","cityid","cityname"
"234064","337-UY","2017/07/08 20:37:50","新北市永和區中正路748號","121.514925","25.0102516666667","6500400","永和區"
"234030","746-BX","2017/07/08 20:38:06","新北市板橋區長江路二段75號","121.464021666667","25.0333933333333","6500400","永和區"
"234061","AAD-866","2017/07/08 20:37:50","新北市永和區安樂路194巷24號","121.516478333333","25.0011516666667","6500400","永和區"
"234042","862-TW","2017/07/08 20:38:07","新北市永和區永和路一段123巷5號","121.513878333333","25.0082083333333","6500400","永和區"
"234050","863-TW","2017/07/08 20:37:59","新北市中和區橋和路300號","121.496535","25.007995","6500400","永和區"
"249001","173-UM","2017/07/08 20:37:53","新北市八里區中山路三段382號","121.368645","25.13618","6502300","八里區"
"249004","303-UY","2017/07/08 20:37:51","新北市八里區中山路一段153號","121.412666666667","25.1589016666667","6502300","八里區"
"249002","305-UY","2017/07/08 20:38:08","新北市八里區龍米路二段123號","121.44649","25.1445","6502300","八里區"
"234023","9380-KE","2017/07/08 20:37:59","新北市永和區竹林路23號","121.51719","25.0147266666667","6500400","永和區"
"234077","969-R7","2017/07/08 20:38:00","新北市五股區中直路3-19號","121.428163333333","25.1090733333333","6500400","永和區"
"234074","AAC-211","2017/07/08 20:38:08","新北市永和區竹林路39巷14號","121.518528333333","25.0145383333333","6500400","永和區"
"234067","AAC-212","2017/07/08 20:38:07","新北市永和區保平路268巷51弄22號","121.506673333333","25.0060416666667","6500400","永和區"
"243009","297-R6","2017/07/08 20:38:06","新北市泰山區泰林路二段538號","121.423413333333","25.0641233333333","6501600","泰山區"
"243014","421-VK","2017/07/08 20:37:44","新北市泰山區泰林路三段745巷145號","121.405601666667","25.0677716666667","6501600","泰山區"
"243010","548-UM","2017/07/08 20:38:00","新北市泰山區黎明路23-1號","121.421408333333","25.06129","6501600","泰山區"
"222003","436-BY","2017/07/08 20:38:10","新北市深坑區深坑街163-1號","121.612736666667","25.001105","6501800","深坑區"
"222001","628-TS","2017/07/08 20:37:47","新北市深坑區北深路三段256號","121.599888333333","25.004325","6501800","深坑區"
"222002","659-BX","2017/07/08 20:38:04","新北市深坑區萬福路47號","121.599618333333","25.0068066666667","6501800","深坑區"
"231061","001-UM","2017/07/08 20:37:53","新北市新店區新和街46號","121.519336666667","24.9849466666667","6500600","新店區"
"231041","002-UM","2017/07/08 20:38:05","新北市新店區中正路543-4號","121.533708333333","24.9875483333333","6500600","新店區"
"231056","0291-UT","2017/07/08 20:37:56","新北市新店區民生路75巷225-2號","121.533233333333","24.9809583333333","6500600","新店區"
"231060","106-UY","2017/07/08 20:38:03","新北市新店區錦秀路1-1號","121.479066666667","24.9457066666667","6500600","新店區"
"231051","107-UY","2017/07/08 20:38:02","新北市新店區中央七街9號","121.530326666667","24.9748983333333","6500600","新店區"
"231048","108-UY","2017/07/08 20:38:00","新北市新店區順安街69號","121.540665","24.9867166666667","6500600","新店區"
"231052","110-UY","2017/07/08 20:37:54","新北市新店區廣興路7-10號","121.545686666667","24.9116933333333","6500600","新店區"
"231057","256-BX","2017/07/08 20:38:05","新北市新店區花園十路一段5號","121.554055","24.9337566666667","6500600","新店區"
"231063","268-BY","2017/07/08 20:37:49","新北市新店區玫瑰路4-1號","121.493618333333","24.9513683333333","6500600","新店區"
"231050","AAD-862","2017/07/08 20:38:05","新北市新店區建興街9巷1號","121.539938333333","24.97631","6500600","新店區"
"231059","355-BY","2017/07/08 20:37:56","新北市新店區僑信路82號","121.49967","24.94825","6500600","新店區"
"231058","3712-VJ","2017/07/08 20:37:58","新北市新店區自由街27號","121.535018333333","24.9743766666667","6500600","新店區"
"231065","512-UM","2017/07/08 20:38:08","新北市新店區安祥路102巷119號","121.486325","24.964285","6500600","新店區"
"231054","513-UM","2017/07/08 20:37:57","新北市新店區北新路一段64巷39弄2號","121.542493333333","24.9658866666667","6500600","新店區"
"231064","515-UM","2017/07/08 20:38:00","新北市新店區安和路三段110巷9號","121.517456666667","24.9856966666667","6500600","新店區"
"231042","616-UM","2017/07/08 20:38:04","新北市新店區寶橋路198號","121.550715","24.9784133333333","6500600","新店區"
"231045","617-UM","2017/07/08 20:38:03","新北市新店區長春路213號","121.559386666667","24.9620016666667","6500600","新店區"
"231040","619-UM","2017/07/08 20:38:05","新北市新店區中正路267號","121.537916666667","24.974235","6500600","新店區"
"231068","718-UY","2017/07/08 20:37:54","新北市新店區寶慶街35巷1弄2號","121.543168333333","24.986345","6500600","新店區"
"231049","719-UM","2017/07/08 20:38:06","新北市新店區永業路81巷5弄7號","121.530413333333","24.9492","6500600","新店區"
"231062","720-UM","2017/07/08 20:37:58","新北市新店區安泰路11巷1號","121.485528333333","24.9501933333333","6500600","新店區"
"231044","897-TW","2017/07/08 20:38:06","新北市新店區建國路239號","121.537621666667","24.9821433333333","6500600","新店區"
"231043","899-TW","2017/07/08 20:38:08","新北市新店區建國路80號","121.54062","24.976625","6500600","新店區"
"231066","AKT-0513","2017/07/08 20:37:57","新北市新店區安興路112號","121.514768333333","24.977445","6500600","新店區"
"241011","013-R5","2017/07/08 20:37:56","新北市三重區龍濱路217號","121.50186","25.0720016666667","6500200","三重區"
"241028","022-UY","2017/07/08 20:37:57","新北市三重區光興街91號","121.497385","25.0599716666667","6500200","三重區"
"241008","059-VK","2017/07/08 20:37:55","新北市三重區下竹圍街42號","121.481001666667","25.0749983333333","6500200","三重區"
"241009","060-VK","2017/07/08 20:38:09","新北市三重區三和路四段420-1號","121.480506666667","25.0799033333333","6500200","三重區"
"241031","061-VK","2017/07/08 20:38:06","新北市三重區重陽路一段113巷1弄49號","121.48815","25.058595","6500200","三重區"
"241015","062-VK","2017/07/08 20:37:59","新北市三重區文化北路97號","121.497988333333","25.0681683333333","6500200","三重區"
"241017","063-VK","2017/07/08 20:37:52","新北市三重區安慶街270號","121.490726666667","25.06753","6500200","三重區"
"241024","065-VK","2017/07/08 20:38:04","新北市三重區三民街270號","121.479056666667","25.0680583333333","6500200","三重區"
"241026","066-VK","2017/07/08 20:38:05","新北市三重區和平街5號","121.500246666667","25.06235","6500200","三重區"
"241003","091-VK","2017/07/08 20:38:02","新北市三重區集賢路87-1號","121.493663333333","25.0869916666667","6500200","三重區"
"241002","156-TC","2017/07/08 20:38:03","新北市三重區仁義街211巷57號","121.498471666667","25.0827866666667","6500200","三重區"
"241005","262-UM","2017/07/08 20:37:58","新北市三重區碧華街383號","121.492816666667","25.0855266666667","6500200","三重區"
"241032","265-UM","2017/07/08 20:37:47","新北市三重區重陽路一段120巷48號","121.485065","25.06016","6500200","三重區"
"241016","266-UM","2017/07/08 20:38:06","新北市三重區長壽西街143-3號","121.494341666667","25.066705","6500200","三重區"
"241022","267-UM","2017/07/08 20:38:08","新北市三重區新北大道一段46巷18弄3號","121.488176666667","25.06199","6500200","三重區"
"241018","268-UM","2017/07/08 20:38:04","新北市三重區自強路一段217號","121.491323333333","25.0685816666667","6500200","三重區"
"241013","270-UM","2017/07/08 20:38:03","新北市三重區溪尾街2號","121.491595","25.07423","6500200","三重區"
"241025","271-UM","2017/07/08 20:37:53","新北市三重區頂崁街210巷23弄1號","121.475856666667","25.0682583333333","6500200","三重區"
"241007","398-BY","2017/07/08 20:38:01","新北市三重區三和路四段101巷1號","121.487456666667","25.076675","6500200","三重區"
"241020","413-TH","2017/07/08 20:37:54","新北市三重區忠孝路一段101號","121.489443333333","25.0721316666667","6500200","三重區"
"241035","462-BY","2017/07/08 20:38:04","新北市三重區正義北路300-3號","121.495288333333","25.0699216666667","6500200","三重區"
"241004","475-VK","2017/07/08 20:37:51","新北市三重區仁愛街465號","121.48938","25.0819533333333","6500200","三重區"
"241019","478-VK","2017/07/08 20:38:09","新北市三重區忠孝路一段10巷36號","121.491201666667","25.0712883333333","6500200","三重區"
"241030","480-VK","2017/07/08 20:37:59","新北市三重區成功路73巷12號","121.489423333333","25.051895","6500200","三重區"
"241014","543-UM","2017/07/08 20:37:57","新北市三重區三和路二段178號","121.498855","25.0688716666667","6500200","三重區"
"241023","545-UM","2017/07/08 20:37:55","新北市三重區自由街35巷2號","121.478936666667","25.0668866666667","6500200","三重區"
"241001","547-UM","2017/07/08 20:37:59","新北市三重區三和路四段160巷87號","121.485461666667","25.074885","6500200","三重區"
"241012","941-UM","2017/07/08 20:37:57","新北市三重區河邊北街174巷1號","121.50294","25.0735166666667","6500200","三重區"
"241029","942-UM","2017/07/08 20:38:00","新北市三重區集美街126巷27號","121.490075","25.05378","6500200","三重區"
"241033","AAC-255","2017/07/08 20:37:52","新北市三重區光復路二段3-1號","121.474213333333","25.053835","6500200","三重區"
"235039","097-UM","2017/07/08 20:37:59","新北市中和區大勇街27巷6號","121.517113333333","24.9938116666667","6500300","中和區"
"235040","150-BY","2017/07/08 20:37:56","新北市新店區薏仁坑路自強巷1號","121.49786","24.9577083333333","6500300","中和區"
"235072","301-VK","2017/07/08 20:38:04","新北市中和區員山路36巷13號","121.483991666667","24.9910666666667","6500300","中和區"
"235069","4980-A6","2017/07/08 20:37:58","新北市中和區員山路383-2號","121.480941666667","25.0024183333333","6500300","中和區"
"235071","783-BX","2017/07/08 20:38:06","新北市三重區光復路二段206號","121.46966","25.063435","6500300","中和區"
"235026","800-TS","2017/07/08 20:37:56","新北市中和區員山路36巷16-3號","121.48504","24.991385","6500300","中和區"
"235037","AAC-213","2017/07/08 20:38:04","新北市中和區自立路99巷22弄32號","121.523203333333","24.9939216666667","6500300","中和區"
"235059","AAC-215","2017/07/08 20:38:06","新北市中和區員山路37-9號","121.48216","24.990375","6500300","中和區"
"247020","893-R6","2017/07/08 20:37:49","新北市蘆洲區民族路424號","121.473863333333","25.0917366666667","6501400","蘆洲區"
"247010","546-UM","2017/07/08 20:37:49","新北市蘆洲區集賢路224巷27號","121.481805","25.0870133333333","6501400","蘆洲區"
"247006","341-TH","2017/07/08 20:38:05","新北市蘆洲區和平路136號","121.467083333333","25.0805333333333","6501400","蘆洲區"
"247008","339-TH","2017/07/08 20:38:08","新北市蘆洲區永安北路二段12巷10號","121.48058","25.08122","6501400","蘆洲區"
"247024","337-TH","2017/07/08 20:38:02","新北市蘆洲區長樂路125-1號","121.462041666667","25.0880383333333","6501400","蘆洲區"
"247002","336-TH","2017/07/08 20:37:52","新北市蘆洲區長安街375巷10號","121.456743333333","25.087875","6501400","蘆洲區"
"247014","057-VK","2017/07/08 20:38:06","新北市蘆洲區中山一路196號","121.473795","25.0808866666667","6501400","蘆洲區"
"247004","056-VK","2017/07/08 20:37:55","新北市蘆洲區長安街297號","121.458096666667","25.0848233333333","6501400","蘆洲區"
"247012","007-UY","2017/07/08 20:38:08","新北市蘆洲區中興街114號","121.482318333333","25.0889066666667","6501400","蘆洲區"
"247022","002-UY","2017/07/08 20:37:51","新北市蘆洲區中正路243巷7弄50號","121.467623333333","25.0856533333333","6501400","蘆洲區"
"247016","001-UY","2017/07/08 20:37:47","新北市蘆洲區中山二路288號","121.4689","25.07776","6501400","蘆洲區"
"224011","420-VK","2017/07/08 20:37:59","新北市瑞芳區汽車路120號","121.837623333333","25.1104866666667","6501200","瑞芳區"
"251001","011-UM","2017/07/08 20:38:01","新北市淡水區忠愛街12號","121.457325","25.1748566666667","6501000","淡水區"
"251002","012-UM","2017/07/08 20:37:50","新北市淡水區中正路38-1號","121.443721666667","25.1693","6501000","淡水區"
"251014","180-VK","2017/07/08 20:38:07","新北市淡水區桂竹圍12-1號","121.47216","25.2322533333333","6501000","淡水區"
"251010","413-VK","2017/07/08 20:37:53","新北市淡水區沙崙路181巷15號","121.423908333333","25.1843683333333","6501000","淡水區"
"251012","441-VK","2017/07/08 20:37:57","新北市淡水區興仁路108號","121.451695","25.2181833333333","6501000","淡水區"
"251016","442-VK","2017/07/08 20:37:52","新北市淡水區後洲子16-1號","121.449535","25.224055","6501000","淡水區"
"251006","561-UM","2017/07/08 20:37:50","新北市淡水區商工路196巷2號","121.450965","25.1874683333333","6501000","淡水區"
"251011","650-BX","2017/07/08 20:37:48","新北市淡水區新市一路一段361號","121.4363","25.1861866666667","6501000","淡水區"
"251003","673-BX","2017/07/08 20:38:09","新北市淡水區新民街152巷6弄22號","121.438741666667","25.1784566666667","6501000","淡水區"
"252001","292-VK","2017/07/08 20:38:01","新北市三芝區中山路一段120號","121.502433333333","25.2560466666667","6502100","三芝區"
"242021","AAC-296","2017/07/08 20:38:00","新北市新莊區公園路78號","121.450106666667","25.0396566666667","6500500","新莊區"
"242029","986-R7","2017/07/08 20:38:04","新北市新莊區昌隆街62號","121.455015","25.050855","6500500","新莊區"
"242025","615-BX","2017/07/08 20:37:58","新北市新莊區五工一路72巷13號","121.462126666667","25.0664033333333","6500500","新莊區"
"242023","613-BX","2017/07/08 20:38:05","新北市新莊區頭前路82號","121.466213333333","25.0526066666667","6500500","新莊區"
"242027","612-BX","2017/07/08 20:38:05","新北市新莊區思源路123號","121.459815","25.0422883333333","6500500","新莊區"
"242036","566-BX","2017/07/08 20:37:53","新北市新莊區後港一路94巷1弄2號","121.42782","25.0264533333333","6500500","新莊區"
"242042","497-BY","2017/07/08 20:37:58","新北市新莊區中正路700-38號","121.417528333333","25.0278","6500500","新莊區"
"242004","442-UM","2017/07/08 20:37:56","新北市新莊區化成路746巷3弄2號","121.466106666667","25.0577766666667","6500500","新莊區"
"242046","441-UM","2017/07/08 20:37:54","新北市新莊區中正路879-18號","121.418188333333","25.0256716666667","6500500","新莊區"
"242051","440-UM","2017/07/08 20:38:05","新北市新莊區民安西路154號","121.42608","25.0164116666667","6500500","新莊區"
"242031","415-TV","2017/07/08 20:38:10","新北市新莊區三和路6號","121.440401666667","25.0345083333333","6500500","新莊區"
"242002","413-TV","2017/07/08 20:38:04","新北市新莊區中正路159-1號","121.455583333333","25.0366966666667","6500500","新莊區"
"242039","400-BY","2017/07/08 20:37:52","新北市新莊區民安路285-8號","121.428968333333","25.022215","6500500","新莊區"
"242061","362-BY","2017/07/08 20:37:51","新北市新莊區新樹路244巷52號","121.431283333333","25.019375","6500500","新莊區"
"242058","353-BY","2017/07/08 20:38:00","新北市新莊區四維路152巷1號","121.42287","25.0228483333333","6500500","新莊區"
"242011","132-UY","2017/07/08 20:38:06","新北市新莊區中榮街122巷22號","121.446676666667","25.0537866666667","6500500","新莊區"
"242034","133-UY","2017/07/08 20:37:56","新北市新莊區中正路321號","121.447828333333","25.0350133333333","6500500","新莊區"
"242019","135-UY","2017/07/08 20:38:04","新北市新莊區銘德街95號","121.455963333333","25.0433916666667","6500500","新莊區"
"242044","172-VK","2017/07/08 20:38:07","新北市新莊區龍安路92號","121.417661666667","25.0207316666667","6500500","新莊區"
"242007","173-VK","2017/07/08 20:38:04","新北市新莊區福壽街54號","121.458298333333","25.0487716666667","6500500","新莊區"
"242056","176-VK","2017/07/08 20:38:10","新北市新莊區新莊路751巷82號","121.442748333333","25.0307783333333","6500500","新莊區"
"242013","346-TH","2017/07/08 20:37:55","新北市新莊區中平路292巷1弄2號","121.445488333333","25.0521083333333","6500500","新莊區"
"242017","348-TH","2017/07/08 20:37:59","新北市新莊區中港三街79號","121.44961","25.0462533333333","6500500","新莊區"
"242053","349-TH","2017/07/08 20:37:51","新北市新莊區西盛街323巷24號","121.428921666667","25.014685","6500500","新莊區"
"242015","350-TH","2017/07/08 20:37:56","新北市新莊區中和街56號","121.448098333333","25.04469","6500500","新莊區"
"242009","351-TH","2017/07/08 20:37:57","新北市新莊區幸福路64巷4弄5號","121.457326666667","25.05002","6500500","新莊區"
"238023","601-UM","2017/07/08 20:38:00","新北市樹林區育德街78-1號","121.387618333333","24.9682883333333","6500700","樹林區"
"221008","489-VK","2017/07/08 20:37:54","新北市汐止區康寧街706-2號","121.638453333333","25.073055","6501100","汐止區"
"221036","130-UY","2017/07/08 20:37:54","新北市汐止區新昌路25號","121.662071666667","25.0677283333333","6501100","汐止區"
"221015","131-UY","2017/07/08 20:37:54","新北市汐止區建成路80號","121.662688333333","25.0732883333333","6501100","汐止區"
"221010","269-BY","2017/07/08 20:37:49","新北市汐止區八連路二段494號","121.628938333333","25.1059716666667","6501100","汐止區"
"221010","276-VK","2017/07/08 13:24:24","新北市汐止區汐萬路一段256巷3號","121.653448333333","25.07461","6501100","汐止區"
"221031","277-VK","2017/07/08 00:10:50","新北市汐止區汐萬路一段256巷3號","121.65254","25.0744633333333","6501100","汐止區"
"221012","278-VK","2017/07/08 20:37:56","新北市汐止區大同路二段373號","121.657341666667","25.067295","6501100","汐止區"
"221023","279-VK","2017/07/08 20:37:49","新北市汐止區明峰街14號","121.634968333333","25.0715683333333","6501100","汐止區"
"221032","280-BY","2017/07/08 20:37:50","新北市汐止區橫科路221巷19-1號","121.6215","25.04951","6501100","汐止區"
"221027","281-BY","2017/07/08 20:38:00","新北市汐止區大同路二段492號","121.660575","25.0680933333333","6501100","汐止區"
"221038","297-VK","2017/07/08 20:37:58","新北市汐止區秀峰路9號","121.65925","25.06622","6501100","汐止區"
"221029","298-VK","2017/07/08 20:38:05","新北市汐止區大同路一段515巷22號","121.645101666667","25.0625116666667","6501100","汐止區"
"221021","299-VK","2017/07/08 20:38:10","新北市汐止區水源路一段291巷9號","121.6546","25.0585983333333","6501100","汐止區"
"221035","622-UM","2017/07/08 20:37:53","新北市汐止區長江街101-5號","121.65866","25.0731183333333","6501100","汐止區"
"221025","623-UM","2017/07/08 20:38:00","新北市汐止區水源路二段183號","121.657805","25.0536083333333","6501100","汐止區"
"221033","647-BX","2017/07/08 20:38:02","新北市汐止區合順街18巷8弄5號","121.62031","25.0419083333333","6501100","汐止區"
"221002","707-TV","2017/07/08 20:38:03","新北市汐止區中興路135號","121.631818333333","25.0654533333333","6501100","汐止區"
"221018","753-BX","2017/07/08 20:37:47","新北市汐止區茄苳路158號","121.669235","25.0698016666667","6501100","汐止區"
"220103","257-TC","2017/07/08 20:37:54","新北市板橋區漢生東路31號","121.46534","25.0169583333333","6500100","板橋區"
"220083","286-VK","2017/07/08 20:38:05","新北市板橋區僑中二街102巷1-4號","121.44595","25.0082433333333","6500100","板橋區"
"220089","487-VK","2017/07/08 20:37:55","新北市板橋區互助街11號","121.463148333333","25.0275416666667","6500100","板橋區"
"220070","AAC-253","2017/07/08 20:38:00","新北市板橋區金門街337巷14弄18號","121.431385","24.9822","6500100","板橋區"
