"lineid","car","time","location","longitude","latitude","cityid","cityname"
"231007","189-VK","2017/10/07 10:29:48","新北市新店區小坑三路81號","121.513503333333","24.9085383333333","6500600","新店區"
"231008","192-VK","2017/10/07 10:29:17","新北市新店區小坑一路71號","121.530538333333","24.9102916666667","6500600","新店區"
"227006","282-VK","2017/10/07 10:29:45","新北市雙溪區平林里外平林36號","121.854355","25.03671","6502500","雙溪區"
"253003","6232-TK","2017/10/07 10:29:41","新北市石門區小坑9號","121.594046666667","25.28867","6502200","石門區"
"253005","6251-TK","2017/10/07 10:29:47","新北市石門區尖子鹿76號","121.572538333333","25.2970233333333","6502200","石門區"
"253002","637-UY","2017/10/07 10:29:47","新北市石門區小坑9號","121.59437","25.28837","6502200","石門區"
"253004","8270-PC","2017/10/07 10:29:47","新北市石門區小坑9號","121.594336666667","25.2886166666667","6502200","石門區"
"252007","AAC-283","2017/10/07 10:29:56","新北市三芝區古庄里古庄99-1號","121.49351","25.267185","6502100","三芝區"
