"lineid","car","time","location","longitude","latitude","cityid","cityname"
"231008","192-VK","2017/10/07 11:49:37","新北市新店區松林路16巷41號","121.545196666667","24.9060583333333","6500600","新店區"
"235031","255-BX","2017/10/06 21:26:04","新北市中和區員山路36巷16-3號","121.484616666667","24.99154","6500300","中和區"
"223002","198-BX","2017/10/07 11:49:40","新北市石碇區小粗坑(潭邊里)9-2號","121.679088333333","24.986225","6501900","石碇區"
"228004","212-TW","2017/10/07 11:49:50","新北市貢寮區貢寮里朝陽街1-2號","121.912155","25.0212566666667","6502600","貢寮區"
"227006","282-VK","2017/10/07 11:49:45","新北市雙溪區魚行里魚杭1號","121.883715","25.0266766666667","6502500","雙溪區"
