"lineid","car","time","location","longitude","latitude","cityid","cityname"
"234040","862-TW","2017/10/07 11:59:43","新北市永和區福和路1號","121.526483333333","25.0096433333333","6500400","永和區"
"231008","192-VK","2017/10/07 11:59:37","新北市新店區自強路156號","121.546208333333","24.9213816666667","6500600","新店區"
"235031","255-BX","2017/10/06 21:26:04","新北市中和區員山路36巷16-3號","121.484616666667","24.99154","6500300","中和區"
"228005","097-TW","2017/10/07 11:59:45","新北市貢寮區貢寮里朝陽街1-2號","121.912345","25.0212416666667","6502600","貢寮區"
"228004","212-TW","2017/10/07 11:59:50","新北市貢寮區貢寮里朝陽街1-2號","121.912205","25.02127","6502600","貢寮區"
"227006","282-VK","2017/10/07 11:59:45","新北市雙溪區雙溪里太平路50號","121.864543333333","25.0352233333333","6502500","雙溪區"
"221012","276-VK","2017/10/07 11:59:40","新北市汐止區康寧街901號","121.651021666667","25.0752383333333","6501100","汐止區"
