"lineid","car","time","location","longitude","latitude","cityid","cityname"
"234046","148-BY","2017/10/07 19:41:40","新北市永和區得和路423號","121.526231666667","24.99917","6500400","永和區"
"234013","149-BY","2017/10/07 19:29:32","新北市永和區中山路一段184巷9弄1號","121.508576666667","25.0092616666667","6500400","永和區"
"234007","207-UY","2017/10/07 19:32:07","新北市永和區永和路一段112-1號","121.513596666667","25.0074666666667","6500400","永和區"
"234081","298-R6","2017/10/07 19:28:28","新北市永和區環河東路三段60號","121.526976666667","25.0060366666667","6500400","永和區"
"234038","336-UY","2017/10/07 19:19:31","新北市永和區民樂街70號","121.527436666667","24.99837","6500400","永和區"
"234064","337-UY","2017/10/07 19:25:37","新北市永和區秀朗路二段15號","121.521008333333","25.0027366666667","6500400","永和區"
"234086","338-UY","2017/10/07 19:37:25","新北市永和區永亨路165巷1-4號","121.526211666667","25.0041966666667","6500400","永和區"
"234070","552-UM","2017/10/07 19:26:28","新北市永和區中正路666巷59號","121.519123333333","25.0091383333333","6500400","永和區"
"234054","553-UM","2017/10/07 19:36:58","新北市永和區竹林路54號","121.517853333333","25.0141066666667","6500400","永和區"
"234017","745-BX","2017/10/07 19:20:24","新北市永和區文化路144巷31弄8號","121.512415","25.0167933333333","6500400","永和區"
"234061","AAD-866","2017/10/07 19:21:12","新北市永和區秀朗路一段84號","121.515951666667","25.00514","6500400","永和區"
"234030","847-RS","2017/10/07 19:24:58","新北市永和區四維街121號","121.523241666667","24.9983266666667","6500400","永和區"
"234042","862-TW","2017/10/07 19:17:51","新北市永和區保平路177巷6弄8號","121.509473333333","25.0045983333333","6500400","永和區"
"234050","863-TW","2017/10/07 19:34:47","新北市永和區保福路二段152號","121.5096","25.0149866666667","6500400","永和區"
"234026","9371-KE","2017/10/07 20:04:33","新北市永和區中和路547巷3弄1號","121.51141","25.003405","6500400","永和區"
"249005","172-UM","2017/10/07 20:05:06","新北市八里區長坑口43號","121.3863","25.133455","6502300","八里區"
"249001","173-UM","2017/10/07 20:03:38","新北市八里區中華路二段310號","121.403775","25.148415","6502300","八里區"
"249002","305-UY","2017/10/07 20:01:13","新北市八里區龍米路一段63號","121.455586666667","25.1208916666667","6502300","八里區"
"249003","593-UM","2017/10/07 19:52:44","新北市八里區中華路二段560巷3號","121.398515","25.1450833333333","6502300","八里區"
"248014","025-BX","2017/10/07 20:04:15","新北市五股區五福路14巷25號","121.435238333333","25.0889183333333","6501500","五股區"
"248016","026-BX","2017/10/07 19:59:19","新北市五股區成泰路三段577巷92號","121.449413333333","25.104275","6501500","五股區"
"248006","077-UY","2017/10/07 19:12:13","新北市五股區中興路二段9巷30號","121.462555","25.0724966666667","6501500","五股區"
"248008","095-VK","2017/10/07 19:52:10","新北市五股區四維路155巷36弄17號","121.466806666667","25.0747166666667","6501500","五股區"
"248020","225-UY","2017/10/07 19:55:20","新北市五股區中直路崩山巷1-11號","121.425","25.1131583333333","6501500","五股區"
"248012","247-BX","2017/10/07 19:56:56","新北市五股區民義路一段52號","121.436605","25.08428","6501500","五股區"
"248010","272-BY","2017/10/07 19:56:05","新北市五股區登林路98號","121.428306666667","25.0699783333333","6501500","五股區"
"248004","677-BX","2017/10/07 19:39:35","新北市五股區工商路151號","121.434936666667","25.0865666666667","6501500","五股區"
"248002","678-BX","2017/10/07 19:44:14","新北市五股區成泰路三段581號","121.45219","25.10276","6501500","五股區"
"234077","969-R7","2017/10/07 19:17:35","新北市永和區民治街72巷12號","121.518148333333","24.9986","6500400","永和區"
"234074","AAC-211","2017/10/07 19:32:06","新北市永和區光復街60巷25號","121.517775","25.017535","6500400","永和區"
"234067","AAC-212","2017/10/07 19:21:48","新北市永和區保平路50巷18號","121.510741666667","25.0077966666667","6500400","永和區"
"234003","AAC-295","2017/10/07 19:35:24","新北市永和區秀朗路一段14號","121.513935","25.0068816666667","6500400","永和區"
"243013","AAD-798","2017/10/07 19:51:52","新北市泰山區應化街7號","121.423908333333","25.0437216666667","6501600","泰山區"
"243009","297-R6","2017/10/07 19:50:36","新北市泰山區美寧街76號","121.431498333333","25.064605","6501600","泰山區"
"243015","380-SR","2017/10/07 19:42:43","新北市泰山區民權街25號","121.428698333333","25.0506883333333","6501600","泰山區"
"243014","421-VK","2017/10/07 19:50:27","新北市泰山區泰林路二段33-8號","121.4352","25.0565733333333","6501600","泰山區"
"243010","KEA-2215","2017/10/07 19:45:53","新北市泰山區民生路33號","121.430685","25.052245","6501600","泰山區"
"243011","KEA-2216","2017/10/07 19:49:49","新北市泰山區明志路三段196巷52號","121.421811666667","25.0399433333333","6501600","泰山區"
"243012","646-TV","2017/10/07 19:39:00","新北市泰山區全興路237號","121.435431666667","25.0538433333333","6501600","泰山區"
"243016","680-BX","2017/10/07 19:24:18","新北市泰山區工專路74號","121.42252","25.0405383333333","6501600","泰山區"
"222003","436-BY","2017/10/07 19:58:41","新北市深坑區埔新街14號","121.620746666667","25.0039783333333","6501800","深坑區"
"222001","628-TS","2017/10/07 19:58:10","新北市深坑區北深路三段83號","121.606506666667","25.0014633333333","6501800","深坑區"
"222002","659-BX","2017/10/07 20:04:03","新北市深坑區文化街98號","121.616963333333","25.00191","6501800","深坑區"
"231041","002-UM","2017/10/07 19:45:04","新北市新店區中央路2號","121.53394","24.979275","6500600","新店區"
"231059","046-UY","2017/10/07 19:41:44","新北市新店區安和路二段173號","121.518621666667","24.9745233333333","6500600","新店區"
"231061","047-UY","2017/10/07 19:33:00","新北市新店區安民街47號","121.516038333333","24.9657066666667","6500600","新店區"
"231060","106-UY","2017/10/07 19:33:25","新北市新店區安康路二段109號","121.51261","24.9620416666667","6500600","新店區"
"231051","107-UY","2017/10/07 20:04:37","新北市新店區中央二街37號","121.527845","24.9739716666667","6500600","新店區"
"231048","108-UY","2017/10/07 19:38:27","新北市新店區五峰路61巷2-1號","121.54716","24.9703083333333","6500600","新店區"
"231052","187-VK","2017/10/07 20:05:06","新北市新店區新烏路三段寶島巷2弄3號","121.55198","24.8986416666667","6500600","新店區"
"231064","188-VK","2017/10/07 19:53:31","新北市新店區光華街8巷23號","121.51807","24.96981","6500600","新店區"
"231050","215-TC","2017/10/07 19:52:22","新北市新店區北宜路二段579巷1-1號","121.565303333333","24.95381","6500600","新店區"
"231057","256-BX","2017/10/07 19:54:33","新北市新店區花園二路三段17號","121.55608","24.9316816666667","6500600","新店區"
"231054","AAD-862","2017/10/07 19:49:19","新北市新店區北新路一段2-19號","121.53864","24.96003","6500600","新店區"
"231058","3712-VJ","2017/10/07 19:44:51","新北市新店區中正路102巷8弄2號","121.54339","24.9710866666667","6500600","新店區"
"231055","3713-VJ","2017/10/07 19:58:29","新北市新店區中華路83巷67號","121.53835","24.9672716666667","6500600","新店區"
"231056","4716-K9","2017/10/07 20:04:41","新北市新店區明德路26巷1號","121.54201","24.9776983333333","6500600","新店區"
"231065","513-UM","2017/10/07 19:43:30","新北市新店區安祥路109巷90弄12號","121.477608333333","24.9595833333333","6500600","新店區"
"231045","617-UM","2017/10/07 19:53:22","新北市新店區北宜路二段210號","121.559366666667","24.9544016666667","6500600","新店區"
"231040","619-UM","2017/10/07 19:52:12","新北市新店區北新路一段96巷23號","121.543","24.9688566666667","6500600","新店區"
"231042","641-BX","2017/10/07 19:46:38","新北市新店區中興路一段266-5號","121.544993333333","24.967615","6500600","新店區"
"231063","645-TV","2017/10/07 19:52:21","新北市新店區黎明路3號","121.50365","24.9525133333333","6500600","新店區"
"231068","718-UY","2017/10/07 20:04:56","新北市新店區安康路一段92-1號","121.527863333333","24.96205","6500600","新店區"
"231049","719-UM","2017/10/07 19:37:34","新北市新店區大豐路60號","121.539645","24.9796283333333","6500600","新店區"
"231062","720-UM","2017/10/07 19:51:55","新北市新店區永業路81巷1弄13號","121.530196666667","24.9501183333333","6500600","新店區"
"231044","897-TW","2017/10/07 19:17:31","新北市新店區中興路三段301號","121.542096666667","24.9853766666667","6500600","新店區"
"231043","899-TW","2017/10/07 19:38:12","新北市新店區中正路143號","121.541556666667","24.9715033333333","6500600","新店區"
"241011","013-R5","2017/10/07 19:57:20","新北市三重區秀江街256號","121.496078333333","25.0712866666667","6500200","三重區"
"241028","022-UY","2017/10/07 20:03:07","新北市三重區中正南路75號","121.494291666667","25.0588433333333","6500200","三重區"
"241008","059-VK","2017/10/07 19:57:01","新北市三重區力行路二段136巷49弄12號","121.479621666667","25.07535","6500200","三重區"
"241009","060-VK","2017/10/07 19:55:17","新北市三重區三和路四段396巷40號","121.479583333333","25.0787483333333","6500200","三重區"
"241015","062-VK","2017/10/07 20:03:06","新北市三重區長元街100-1號","121.502741666667","25.0669033333333","6500200","三重區"
"241017","063-VK","2017/10/07 19:55:58","新北市三重區重陽路三段89號","121.490035","25.06771","6500200","三重區"
"241024","065-VK","2017/10/07 20:04:09","新北市三重區力行路一段265號","121.482325","25.0711916666667","6500200","三重區"
"241002","090-VK","2017/10/07 20:04:55","新北市三重區仁忠街81號","121.493126666667","25.08043","6500200","三重區"
"241003","091-VK","2017/10/07 20:04:47","新北市三重區仁愛街445巷1號","121.490045","25.08238","6500200","三重區"
"241026","156-TC","2017/10/07 19:55:52","新北市三重區中央南路25號","121.50127","25.0623416666667","6500200","三重區"
"241005","262-UM","2017/10/07 20:04:54","新北市三重區五華街180巷28號","121.488166666667","25.085445","6500200","三重區"
"241016","266-UM","2017/10/07 19:57:25","新北市三重區正義北路46號","121.497365","25.0637883333333","6500200","三重區"
"241022","267-UM","2017/10/07 19:53:39","新北市三重區過圳街31巷2號","121.489251666667","25.0606266666667","6500200","三重區"
"241018","268-UM","2017/10/07 20:05:12","新北市三重區正義北路256巷89號","121.493923333333","25.0680416666667","6500200","三重區"
"241032","269-UM","2017/10/07 20:05:10","新北市三重區捷運路65號","121.483418333333","25.0556","6500200","三重區"
"241013","270-UM","2017/10/07 19:57:13","新北市三重區三和路三段121號","121.492895","25.0732416666667","6500200","三重區"
"241025","271-UM","2017/10/07 20:03:36","新北市三重區頂崁街210巷41號","121.475063333333","25.06808","6500200","三重區"
"241007","398-BY","2017/10/07 20:05:07","新北市三重區溪尾街108巷46弄1-1號","121.487805","25.0779133333333","6500200","三重區"
"241031","KEA-2210","2017/10/07 19:54:00","新北市三重區重新路四段184巷25弄5號","121.487551666667","25.0546016666667","6500200","三重區"
"241020","413-TH","2017/10/07 19:52:58","新北市三重區後竹圍街83號","121.489691666667","25.07309","6500200","三重區"
"241004","475-VK","2017/10/07 20:04:33","新北市三重區仁愛街425巷4號","121.490658333333","25.0817466666667","6500200","三重區"
"241019","478-VK","2017/10/07 19:54:26","新北市三重區自強路二段67巷35號","121.489733333333","25.0701983333333","6500200","三重區"
"241030","480-VK","2017/10/07 20:03:26","新北市三重區重新路四段244巷7弄6號","121.48638","25.0531316666667","6500200","三重區"
"241014","543-UM","2017/10/07 19:57:08","新北市三重區三和路二段49號","121.500611666667","25.0675783333333","6500200","三重區"
"241023","545-UM","2017/10/07 19:59:45","新北市三重區大有街1-1號","121.477643333333","25.0655983333333","6500200","三重區"
"241001","547-UM","2017/10/07 19:59:56","新北市三重區仁愛街269巷41號","121.494121666667","25.0793166666667","6500200","三重區"
"241033","557-UM","2017/10/07 20:04:55","新北市三重區光復路一段68巷2號","121.471823333333","25.049165","6500200","三重區"
"241035","743-BX","2017/10/07 19:49:31","新北市三重區文化北路31-1號","121.49938","25.0640616666667","6500200","三重區"
"241006","887-TS","2017/10/07 20:04:53","新北市三重區力行路二段93號","121.482643333333","25.0758666666667","6500200","三重區"
"241012","941-UM","2017/10/07 19:55:55","新北市三重區仁興街39巷91號","121.500868333333","25.076425","6500200","三重區"
"241029","942-UM","2017/10/07 19:47:17","新北市三重區光明路55號","121.491616666667","25.0579883333333","6500200","三重區"
"235066","003-UY","2017/10/07 20:02:45","新北市中和區水源路99號","121.50725","25.00347","6500300","中和區"
"235064","005-UY","2017/10/07 19:47:08","新北市中和區南山路127巷34弄2號","121.504273333333","24.9977233333333","6500300","中和區"
"235056","096-UM","2017/10/07 19:36:50","新北市中和區員山路581巷31弄22號","121.476683333333","25.0104416666667","6500300","中和區"
"235039","097-UM","2017/10/07 20:04:52","新北市中和區大勇街25巷39弄13號","121.514676666667","24.99402","6500300","中和區"
"235065","098-UM","2017/10/07 19:48:01","新北市中和區永和路7號","121.49925","25.0037216666667","6500300","中和區"
"235040","150-BY","2017/10/07 19:51:36","新北市中和區安和路159號","121.506283333333","24.9972166666667","6500300","中和區"
"235058","151-BY","2017/10/07 19:46:47","新北市中和區員山路148巷22號","121.481975","24.99702","6500300","中和區"
"235055","183-VK","2017/10/07 19:36:01","新北市中和區民享街5號","121.473933333333","25.00567","6500300","中和區"
"235038","185-VK","2017/10/07 20:02:08","新北市中和區自強路52號","121.520206666667","24.9948233333333","6500300","中和區"
"235049","186-VK","2017/10/07 19:41:48","新北市中和區中興街53號","121.500735","24.9938683333333","6500300","中和區"
"235067","255-BX","2017/10/07 19:54:28","新北市中和區中正路751巷3弄16號","121.484113333333","24.999205","6500300","中和區"
"235008","293-VK","2017/10/07 20:05:09","新北市中和區復興路282號","121.502076666667","24.99036","6500300","中和區"
"235072","301-VK","2017/10/07 20:04:06","新北市樹林區中山路三段214號","121.380096666667","24.9679066666667","6500300","中和區"
"235043","352-BY","2017/10/07 19:49:35","新北市中和區華新街230號","121.506065","24.9817116666667","6500300","中和區"
"235068","375-QA","2017/10/07 19:57:05","新北市中和區福美路299號","121.497233333333","25.0047416666667","6500300","中和區"
"235051","376-QA","2017/10/07 19:55:53","新北市中和區復興路323號","121.50085","24.9901833333333","6500300","中和區"
"235061","378-QA","2017/10/07 19:44:16","新北市中和區員山路263號","121.481233333333","24.9992083333333","6500300","中和區"
"235050","4979-A6","2017/10/07 19:58:02","新北市中和區景平路276-1號","121.513845","24.99239","6500300","中和區"
"235069","4980-A6","2017/10/07 20:04:40","新北市中和區圓通路6號","121.501818333333","24.9980683333333","6500300","中和區"
"235042","551-UM","2017/10/07 19:48:31","新北市中和區景安路79巷37弄25號","121.507638333333","24.9964366666667","6500300","中和區"
"235070","558-UM","2017/10/07 19:35:13","新北市中和區中山路二段226號","121.499155","25.0028216666667","6500300","中和區"
"235054","640-BX","2017/10/07 19:50:12","新北市中和區德光路72號","121.469306666667","25.0038333333333","6500300","中和區"
"235060","647-TV","2017/10/07 19:58:14","新北市中和區民樂路81號","121.484546666667","25.0013933333333","6500300","中和區"
"235047","732-UM","2017/10/07 19:46:08","新北市中和區捷運路8-7號","121.509448333333","24.9897883333333","6500300","中和區"
"235046","733-UM","2017/10/07 19:57:03","新北市中和區興南路一段93巷63號","121.510325","24.9870433333333","6500300","中和區"
"235062","800-TS","2017/10/07 20:05:01","新北市中和區中正路571巷2弄11號","121.486096666667","24.9937266666667","6500300","中和區"
"235057","801-TS","2017/10/07 19:41:28","新北市中和區員山路391號","121.481215","25.00282","6500300","中和區"
"235041","802-TS","2017/10/07 19:49:32","新北市永和區中和路603號","121.512481666667","25.00436","6500300","中和區"
"235052","805-TS","2017/10/07 19:58:42","新北市中和區興南路二段159巷19號","121.506018333333","24.98371","6500300","中和區"
"235048","896-TW","2017/10/07 20:01:10","新北市中和區景新街426號","121.512961666667","24.9888383333333","6500300","中和區"
"235053","900-TW","2017/10/07 19:56:58","新北市中和區民德路146巷14號","121.467856666667","25.0005666666667","6500300","中和區"
"235037","AAC-213","2017/10/07 19:58:48","新北市中和區自立路26號","121.52252","24.9929083333333","6500300","中和區"
"235059","AAC-215","2017/10/07 20:00:11","新北市中和區圓通路282號","121.491561666667","24.9905866666667","6500300","中和區"
"220065","072-UY","2017/10/07 19:21:20","新北市板橋區國泰街75巷9號","121.467585","25.00605","6500100","板橋區"
"220086","073-UY","2017/10/07 19:17:14","新北市板橋區中正路216巷150弄2號","121.46068","25.0193","6500100","板橋區"
"220106","075-UY","2017/10/07 19:30:44","新北市板橋區文化路二段441巷6-1號","121.47436","25.0336566666667","6500100","板橋區"
"220069","AAD-861","2017/10/07 19:19:47","新北市板橋區華興街31巷16號","121.45835","25.0039366666667","6500100","板橋區"
"220068","120-SR","2017/10/07 19:21:01","新北市板橋區翠華街6巷94號","121.481851666667","25.024305","6500100","板橋區"
"247022","893-R6","2017/10/07 20:05:02","新北市蘆洲區中正路174巷32號","121.46878","25.088215","6501400","蘆洲區"
"247012","546-UM","2017/10/07 20:02:34","新北市蘆洲區民族路236巷17號","121.479898333333","25.08856","6501400","蘆洲區"
"247020","500-BY","2017/10/07 20:02:58","新北市蘆洲區民義街68巷23號","121.47406","25.0900166666667","6501400","蘆洲區"
"247010","339-TH","2017/10/07 20:04:52","新北市蘆洲區集賢路360號","121.480806666667","25.0837133333333","6501400","蘆洲區"
"247002","337-TH","2017/10/07 19:58:45","新北市蘆洲區長安街274巷2號","121.457648333333","25.086865","6501400","蘆洲區"
"247004","336-TH","2017/10/07 19:45:26","新北市蘆洲區長安街108巷5弄20號","121.46081","25.0824583333333","6501400","蘆洲區"
"247016","057-VK","2017/10/07 20:03:17","新北市蘆洲區光華路95號","121.467498333333","25.08243","6501400","蘆洲區"
"247006","056-VK","2017/10/07 20:04:52","新北市蘆洲區九芎街2-4號","121.468636666667","25.07858","6501400","蘆洲區"
"247008","053-VK","2017/10/07 19:59:39","新北市蘆洲區信義路73巷8號","121.476088333333","25.0803833333333","6501400","蘆洲區"
"247014","007-UY","2017/10/07 20:01:31","新北市蘆洲區中山二路106號","121.472335","25.08174","6501400","蘆洲區"
"247024","002-UY","2017/10/07 20:05:05","新北市蘆洲區長樂路56巷10號","121.46364","25.08649","6501400","蘆洲區"
"247018","001-UY","2017/10/07 20:03:37","新北市蘆洲區民族路292號","121.477903333333","25.089735","6501400","蘆洲區"
"226004","312-R5","2017/10/07 19:55:28","新北市平溪區十分里十分街252號","121.778036666667","25.0451833333333","6502400","平溪區"
"228001","212-TW","2017/10/07 19:50:52","新北市貢寮區真理里新港街118號","121.92692","25.05657","6502600","貢寮區"
"224010","AGQ-8101","2017/10/07 19:34:45","新北市瑞芳區基山街145號","121.843881666667","25.1082316666667","6501200","瑞芳區"
"224006","676-BX","2017/10/07 19:20:36","新北市瑞芳區中山路230號","121.800351666667","25.10704","6501200","瑞芳區"
"224005","271-BY","2017/10/07 19:12:40","新北市瑞芳區國中新村18號","121.817221666667","25.1073566666667","6501200","瑞芳區"
"227002","642-TC","2017/10/07 19:52:50","新北市雙溪區雙溪里太平路77號","121.865251666667","25.0360216666667","6502500","雙溪區"
"227010","400-TW","2017/10/07 19:51:28","新北市雙溪區新基里新基南街24號","121.866273333333","25.038185","6502500","雙溪區"
"208002","742-BX","2017/10/07 19:34:57","新北市金山區中山路313巷25號","121.63507","25.22298","6502700","金山區"
"208003","665-BX","2017/10/07 19:16:24","新北市金山區中山路174-1號","121.638296666667","25.2210933333333","6502700","金山區"
"208001","761-BX","2017/10/07 19:34:12","新北市金山區中正路168號","121.630356666667","25.2211383333333","6502700","金山區"
"251004","009-UM","2017/10/07 20:04:44","新北市淡水區民族路29巷26號","121.46145","25.1368966666667","6501000","淡水區"
"251008","181-VK","2017/10/07 19:54:00","新北市淡水區中正路一段130-7號","121.422288333333","25.1795433333333","6501000","淡水區"
"251014","182-VK","2017/10/07 20:05:11","新北市淡水區石頭厝3號","121.458721666667","25.235565","6501000","淡水區"
"251010","413-VK","2017/10/07 19:43:20","新北市淡水區崁頂92號","121.429631666667","25.2025866666667","6501000","淡水區"
"251012","441-VK","2017/10/07 19:56:45","新北市淡水區下圭柔山70巷1號","121.446536666667","25.2074816666667","6501000","淡水區"
"251016","442-VK","2017/10/07 20:05:07","新北市淡水區番子田16-13號","121.453745","25.2316633333333","6501000","淡水區"
"251005","443-VK","2017/10/07 19:44:15","新北市淡水區原德路40號","121.442418333333","25.1722066666667","6501000","淡水區"
"251001","559-UM","2017/10/07 19:51:39","新北市淡水區中正東路二段37號","121.459253333333","25.15624","6501000","淡水區"
"251006","561-UM","2017/10/07 19:58:10","新北市淡水區北新路10號","121.444533333333","25.1774466666667","6501000","淡水區"
"251009","575-R6","2017/10/07 20:03:42","新北市淡水區英專路28巷2弄40號","121.44576","25.16901","6501000","淡水區"
"251007","577-R6","2017/10/07 19:54:03","新北市淡水區淡金路二段599號","121.446195","25.1924883333333","6501000","淡水區"
"251011","650-BX","2017/10/07 19:38:15","新北市淡水區八勢路22巷3號","121.461326666667","25.15392","6501000","淡水區"
"251002","672-BX","2017/10/07 20:04:01","新北市淡水區中正路382號","121.429353333333","25.1752816666667","6501000","淡水區"
"207003","550-UM","2017/10/07 19:20:03","新北市萬里區大鵬里萬里加投79-3號","121.647331666667","25.2123583333333","6502800","萬里區"
"207004","225-TW","2017/10/07 19:25:32","新北市萬里區萬里里成功新村93號","121.689165","25.1751383333333","6502800","萬里區"
"252002","178-VK","2017/10/07 20:05:09","新北市三芝區三民街39巷36號","121.505351666667","25.2575283333333","6502100","三芝區"
"252003","249-BX","2017/10/07 19:30:56","新北市三芝區埔坪里埔頭坑41號","121.504465","25.2644333333333","6502100","三芝區"
"252001","292-VK","2017/10/07 20:04:41","新北市三芝區公正街66號","121.4998","25.2575016666667","6502100","三芝區"
"237004","078-UY","2017/10/07 20:04:34","新北市三峽區嘉添179號","121.369501666667","24.9115633333333","6500900","三峽區"
"237009","210-TH","2017/10/07 19:55:03","新北市三峽區民族街78巷16號","121.368313333333","24.9295916666667","6500900","三峽區"
"237012","275-BY","2017/10/07 20:03:37","新北市三峽區中華路3巷8-1號","121.374918333333","24.9311916666667","6500900","三峽區"
"237008","302-VK","2017/10/07 19:47:56","新北市三峽區永安街183號","121.373165","24.9269566666667","6500900","三峽區"
"237006","5529-G3","2017/10/07 20:05:08","新北市三峽區中正路二段176巷79-1號","121.364953333333","24.91273","6500900","三峽區"
"237005","AKY-6261","2017/10/07 20:02:10","新北市三峽區三樹路16號","121.377466666667","24.9372433333333","6500900","三峽區"
"236073","105-UM","2017/10/07 19:39:31","新北市土城區學士路1號","121.453986666667","24.9831666666667","6501300","土城區"
"236043","107-UM","2017/10/07 19:52:08","新北市土城區裕民路259巷5-1號","121.455218333333","24.9830733333333","6501300","土城區"
"236079","166-UM","2017/10/07 19:34:15","新北市土城區中州路24巷24號","121.415218333333","24.9578016666667","6501300","土城區"
"236031","253-BX","2017/10/07 19:54:18","新北市土城區中央路一段303號","121.443951666667","24.983615","6501300","土城區"
"236027","269-VK","2017/10/07 19:18:25","新北市土城區中正路69號","121.444631666667","24.9756483333333","6501300","土城區"
"236015","270-VK","2017/10/07 19:50:51","新北市土城區廣福街121號","121.456323333333","24.9927133333333","6501300","土城區"
"236038","271-VK","2017/10/07 19:49:58","新北市土城區國際路52號","121.466425","24.9783083333333","6501300","土城區"
"236023","401-BY","2017/10/07 19:30:29","新北市土城區峰廷街3號","121.469211666667","24.98736","6501300","土城區"
"236049","913-UM","2017/10/07 19:41:09","新北市土城區明德路一段219號","121.463255","24.9785633333333","6501300","土城區"
"236063","915-UM","2017/10/07 19:49:19","新北市土城區延和路105巷5弄2號","121.467198333333","24.9912766666667","6501300","土城區"
"236055","AAC-216","2017/10/07 19:46:55","新北市土城區延和路46號","121.465225","24.988835","6501300","土城區"
"242031","AAC-296","2017/10/07 19:43:00","新北市新莊區新泰路213巷18號","121.446085","25.038795","6500500","新莊區"
"242029","986-R7","2017/10/07 20:03:41","新北市新莊區中平路303號","121.444621666667","25.0514116666667","6500500","新莊區"
"242051","751-BX","2017/10/07 20:03:01","新北市新莊區民安西路146號","121.426183333333","25.0166183333333","6500500","新莊區"
"242025","615-BX","2017/10/07 19:56:23","新北市新莊區五工二路86巷20號","121.460075","25.0669083333333","6500500","新莊區"
"242023","613-BX","2017/10/07 19:55:34","新北市新莊區化成路324號","121.465733333333","25.048545","6500500","新莊區"
"242027","612-BX","2017/10/07 19:55:52","新北市新莊區立信三街35巷1號","121.442971666667","25.05066","6500500","新莊區"
"242039","566-BX","2017/10/07 19:55:47","新北市新莊區民安路299巷55弄4號","121.429345","25.0238916666667","6500500","新莊區"
"242044","497-BY","2017/10/07 20:03:29","新北市新莊區萬壽路一段21巷17弄1號","121.410855","25.0204716666667","6500500","新莊區"
"242004","442-UM","2017/10/07 19:45:59","新北市新莊區化成路63巷19號","121.464386666667","25.04581","6500500","新莊區"
"242048","441-UM","2017/10/07 19:53:58","新北市新莊區建安街123號","121.426041666667","25.0239333333333","6500500","新莊區"
"242053","440-UM","2017/10/07 20:04:23","新北市新莊區西盛街385號","121.428045","25.01296","6500500","新莊區"
"242034","413-TV","2017/10/07 19:51:16","新北市新莊區新泰路199巷19號","121.445616666667","25.0377216666667","6500500","新莊區"
"242042","400-BY","2017/10/07 20:02:03","新北市新莊區天泉路50號","121.39993","25.030545","6500500","新莊區"
"242061","362-BY","2017/10/07 20:03:17","新北市新莊區瓊泰路26號","121.444361666667","25.0286933333333","6500500","新莊區"
"242058","353-BY","2017/10/07 20:00:32","新北市新莊區八德街122號","121.423976666667","25.0207866666667","6500500","新莊區"
"242007","132-UY","2017/10/07 19:54:32","新北市新莊區思源路593巷5弄33號","121.457751666667","25.0592166666667","6500500","新莊區"
"242036","133-UY","2017/10/07 19:55:28","新北市新莊區民安路207巷32弄2號","121.428148333333","25.0242733333333","6500500","新莊區"
"242021","135-UY","2017/10/07 19:53:20","新北市新莊區建中街8-1號","121.449611666667","25.0377433333333","6500500","新莊區"
"242046","172-VK","2017/10/07 20:04:55","新北市新莊區富國路66巷8號","121.419563333333","25.0254616666667","6500500","新莊區"
"242009","173-VK","2017/10/07 20:05:08","新北市新莊區昌盛街4號","121.453246666667","25.0499566666667","6500500","新莊區"
"242015","175-VK","2017/10/07 20:00:28","新北市新莊區中平路6巷37號","121.446105","25.04279","6500500","新莊區"
"242002","176-VK","2017/10/07 19:59:37","新北市新莊區中正路285號","121.448833333333","25.035245","6500500","新莊區"
"242013","346-TH","2017/10/07 19:46:10","新北市新莊區中泰街62巷13號","121.449983333333","25.0474066666667","6500500","新莊區"
"242019","348-TH","2017/10/07 19:56:00","新北市新莊區民生街15巷3號","121.455571666667","25.0424283333333","6500500","新莊區"
"242056","349-TH","2017/10/07 20:03:26","新北市新莊區中正路361-7號","121.446743333333","25.0339133333333","6500500","新莊區"
"242017","350-TH","2017/10/07 19:56:12","新北市新莊區中華路二段45巷3號","121.45314","25.0465866666667","6500500","新莊區"
"238015","755-BX","2017/10/07 19:38:08","新北市樹林區日新街90號","121.421516666667","24.9902183333333","6500700","樹林區"
"238023","601-UM","2017/10/07 19:32:51","新北市樹林區三福街13號","121.40895","25.0167766666667","6500700","樹林區"
"238019","599-UM","2017/10/07 19:29:15","新北市樹林區大同街3號","121.418691666667","24.9828233333333","6500700","樹林區"
"238018","571-TV","2017/10/07 19:46:45","新北市樹林區八德街437-1號","121.40532","24.96938","6500700","樹林區"
"238024","5061-A6","2017/10/07 19:42:55","新北市樹林區育德街78-1號","121.388433333333","24.9680816666667","6500700","樹林區"
"238021","KEA-2217","2017/10/07 19:56:24","新北市樹林區佳園路三段145巷30號","121.388425","24.9490933333333","6500700","樹林區"
"238022","KEA-2213","2017/10/07 19:39:23","新北市樹林區名園街63號","121.420176666667","24.977875","6500700","樹林區"
"238018","308-TH","2017/10/07 13:30:56","新北市樹林區育德街76巷1號","121.388761666667","24.9683133333333","6500700","樹林區"
"238025","303-VK","2017/10/07 19:39:28","新北市樹林區中山路一段238號","121.421151666667","24.9876516666667","6500700","樹林區"
"238017","283-BY","2017/10/07 19:46:41","新北市樹林區保安街二段107巷2號","121.415173333333","25.0010516666667","6500700","樹林區"
"238014","282-BY","2017/10/07 19:41:22","新北市樹林區保安二街40號","121.424748333333","24.99514","6500700","樹林區"
"238020","268-VK","2017/10/07 19:39:08","新北市樹林區俊英街7號","121.429631666667","25.000355","6500700","樹林區"
"238026","172-UY","2017/10/07 19:44:16","新北市樹林區佳園路二段138號","121.389373333333","24.9560383333333","6500700","樹林區"
"238016","169-UY","2017/10/07 19:21:19","新北市樹林區備前街56巷2-2號","121.41651","24.986275","6500700","樹林區"
"239007","AAC-297","2017/10/07 19:53:40","新北市樹林區中山路三段214號","121.379746666667","24.9676416666667","6500800","鶯歌區"
"239006","891-R6","2017/10/07 19:49:47","新北市鶯歌區中正一路470號","121.364943333333","24.9564833333333","6500800","鶯歌區"
"239008","527-UM","2017/10/07 19:44:05","新北市樹林區中山路三段214號","121.379773333333","24.9673966666667","6500800","鶯歌區"
"239003","360-BY","2017/10/07 19:57:31","新北市鶯歌區二甲路171-1號","121.344036666667","24.9355033333333","6500800","鶯歌區"
"221008","489-VK","2017/10/07 19:39:34","新北市汐止區康寧街61巷42號","121.62014","25.067745","6501100","汐止區"
"221036","130-UY","2017/10/07 20:01:56","新北市汐止區忠孝東路258巷10號","121.663386666667","25.067375","6501100","汐止區"
"221015","131-UY","2017/10/07 20:04:41","新北市汐止區建成路26號","121.664555","25.0727016666667","6501100","汐止區"
"221010","269-BY","2017/10/07 19:46:00","新北市汐止區汐萬路一段353號","121.650158333333","25.0772833333333","6501100","汐止區"
"221012","276-VK","2017/10/07 13:32:16","新北市汐止區汐萬路一段256巷3號","121.653445","25.0746833333333","6501100","汐止區"
"221012","278-VK","2017/10/07 19:55:19","新北市汐止區大同路三段457號","121.678703333333","25.0712833333333","6501100","汐止區"
"221023","279-VK","2017/10/07 19:49:22","新北市汐止區民族六街3巷2號","121.629568333333","25.0702166666667","6501100","汐止區"
"221032","280-BY","2017/10/07 20:04:07","新北市汐止區橫科路18巷33弄2號","121.61727","25.049515","6501100","汐止區"
"221027","281-BY","2017/10/07 20:04:30","新北市汐止區和平街101號","121.66087","25.0700683333333","6501100","汐止區"
"221029","298-VK","2017/10/07 20:04:33","新北市汐止區樟樹一路135巷17號","121.641406666667","25.0654316666667","6501100","汐止區"
"221021","299-VK","2017/10/07 19:55:27","新北市汐止區莊敬街25號","121.657116666667","25.0613916666667","6501100","汐止區"
"221031","353-TW","2017/10/07 20:04:38","新北市汐止區福德一路260號","121.633038333333","25.0644033333333","6501100","汐止區"
"221027","567-BX","2017/10/07 14:58:19","新北市汐止區汐萬路一段256巷3號","121.652436666667","25.0747","6501100","汐止區"
"221035","622-UM","2017/10/07 19:58:03","新北市汐止區長江街39巷16號","121.65549","25.0720283333333","6501100","汐止區"
"221025","623-UM","2017/10/07 20:04:22","新北市汐止區秀峰路71號","121.659921666667","25.06439","6501100","汐止區"
"221038","646-BX","2017/10/07 19:47:10","新北市汐止區忠孝東路305號","121.664348333333","25.0691333333333","6501100","汐止區"
"221033","647-BX","2017/10/07 20:01:26","新北市汐止區東勢街201巷133號","121.63337","25.04305","6501100","汐止區"
"221018","753-BX","2017/10/07 20:05:06","新北市汐止區茄福街35巷11號","121.672955","25.0667766666667","6501100","汐止區"
"220079","145-BY","2017/10/07 19:15:16","新北市板橋區民權路202巷13弄30號","121.458791666667","25.016405","6500100","板橋區"
"220082","610-BX","2017/10/07 19:18:19","新北市板橋區溪崑二街136號","121.425916666667","24.9876533333333","6500100","板橋區"
"220101","245-BX","2017/10/07 19:25:27","新北市板橋區雙十路一段25號","121.47763","25.0244833333333","6500100","板橋區"
"220091","267-BY","2017/10/07 19:17:03","新北市板橋區縣民大道三段201號","121.479896666667","25.0248633333333","6500100","板橋區"
"220056","276-BY","2017/10/07 19:29:36","新北市板橋區信義路1巷26弄37號","121.458953333333","24.9967466666667","6500100","板橋區"
"220072","277-BY","2017/10/07 19:21:17","新北市板橋區金門街337巷9弄1號","121.430433333333","24.9846666666667","6500100","板橋區"
"220071","283-VK","2017/10/07 19:21:38","新北市板橋區重慶路238號","121.46287","25.0014533333333","6500100","板橋區"
"220094","285-UM","2017/10/07 19:14:26","新北市板橋區吳鳳路81巷28號","121.465873333333","25.0310333333333","6500100","板橋區"
"220053","285-VK","2017/10/07 19:14:04","新北市板橋區富山街53巷35號","121.47757","25.0208833333333","6500100","板橋區"
"220083","286-VK","2017/10/07 19:22:18","新北市板橋區大觀路二段174巷186弄4號","121.442463333333","25.0036316666667","6500100","板橋區"
"220081","287-VK","2017/10/07 20:05:03","新北市板橋區民權路101巷2號","121.45883","25.0133033333333","6500100","板橋區"
"220090","288-VK","2017/10/07 19:23:19","新北市板橋區長江路一段106巷13弄20號","121.460873333333","25.0294666666667","6500100","板橋區"
"220061","293-UM","2017/10/07 19:35:08","新北市板橋區中山路一段275號","121.469135","25.0136","6500100","板橋區"
"220062","295-UM","2017/10/07 19:16:34","新北市板橋區三民路二段居仁巷21號","121.479891666667","25.0133516666667","6500100","板橋區"
"220084","296-UM","2017/10/07 19:25:03","新北市板橋區滿平街136巷6弄11號","121.427568333333","24.9877816666667","6500100","板橋區"
"220075","297-UM","2017/10/07 19:27:07","新北市板橋區中正路289巷14號","121.454806666667","25.0191266666667","6500100","板橋區"
"220092","299-UM","2017/10/07 19:20:57","新北市板橋區松江街72巷12號","121.469215","25.0278633333333","6500100","板橋區"
"220096","303-R5","2017/10/07 19:27:31","新北市板橋區大同街35巷54號","121.4768","25.02777","6500100","板橋區"
"220098","317-R6","2017/10/07 19:27:25","新北市板橋區四維路266巷5弄1號","121.463718333333","25.0286466666667","6500100","板橋區"
"220080","461-BY","2017/10/07 19:17:44","新北市板橋區大觀路二段3巷1號","121.447255","25.00393","6500100","板橋區"
"220064","486-VK","2017/10/07 19:17:23","新北市板橋區民權路41號","121.462081666667","25.0110733333333","6500100","板橋區"
"220089","487-VK","2017/10/07 19:18:10","新北市板橋區文化路一段295號","121.464896666667","25.0187433333333","6500100","板橋區"
"242011","280-VK","2017/10/07 19:55:26","新北市新莊區中港路531巷16號","121.450811666667","25.05167","6500500","新莊區"
"220088","491-VK","2017/10/07 19:28:02","新北市板橋區雙十路二段43號","121.476628333333","25.0261033333333","6500100","板橋區"
"220035","560-BX","2017/10/07 19:15:46","新北市板橋區新生街23巷17號","121.456488333333","25.022445","6500100","板橋區"
"220103","561-BX","2017/10/07 19:19:00","新北市板橋區介壽街37號","121.46857","25.0198383333333","6500100","板橋區"
"220054","568-UM","2017/10/07 19:18:16","新北市板橋區成都街18-1號","121.46075","25.0046216666667","6500100","板橋區"
"220063","609-BX","2017/10/07 19:12:07","新北市板橋區三民路二段189號","121.479096666667","25.0141133333333","6500100","板橋區"
"220057","686-BX","2017/10/07 19:26:49","新北市板橋區五權街20號","121.464388333333","24.9938583333333","6500100","板橋區"
"220077","687-BX","2017/10/07 19:23:55","新北市板橋區僑中二街12巷2號","121.446778333333","25.0105766666667","6500100","板橋區"
"220093","689-BX","2017/10/07 19:10:27","新北市板橋區民生路三段223號","121.464785","25.02834","6500100","板橋區"
"220055","827-TW","2017/10/07 19:16:40","新北市板橋區館前東路156巷10號","121.464343333333","25.00725","6500100","板橋區"
"220067","829-TW","2017/10/07 19:26:57","新北市板橋區長安街138巷7弄30號","121.473796666667","25.0086733333333","6500100","板橋區"
"220102","830-TW","2017/10/07 19:21:51","新北市板橋區文聖街127號","121.478025","25.0287366666667","6500100","板橋區"
"220074","895-R6","2017/10/07 19:35:11","新北市板橋區文化路一段18號","121.458346666667","25.0107216666667","6500100","板橋區"
"220073","985-R7","2017/10/07 19:20:38","新北市板橋區新生街45號","121.457075","25.0210383333333","6500100","板橋區"
"220097","AAC-210","2017/10/07 19:28:47","新北市板橋區漢生西路181號","121.463258333333","25.023635","6500100","板橋區"
"220070","AAC-253","2017/10/07 19:27:20","新北市板橋區忠孝路41-1號","121.461221666667","25.0020083333333","6500100","板橋區"
