"lineid","car","time","location","longitude","latitude","cityid","cityname"
"248006","077-UY","2017/10/07 19:12:13","新北市五股區中興路二段9巷30號","121.462555","25.0724966666667","6501500","五股區"
"244024","742-UY","2017/10/07 20:47:57","新北市林口區粉寮路二段160巷28號","121.405198333333","25.0907683333333","6501700","林口區"
"235072","301-VK","2017/10/07 20:49:46","新北市中和區員山路36巷13號","121.48398","24.9911516666667","6500300","中和區"
"235026","800-TS","2017/10/07 20:37:31","新北市中和區員山路36巷16-3號","121.484801666667","24.991905","6500300","中和區"
"247008","053-VK","2017/10/07 21:59:39","新北市林口區太平里180號","121.367813333333","25.1337766666667","6501400","蘆洲區"
"226004","312-R5","2017/10/07 20:16:11","新北市平溪區石底里公園街18-3號","121.733801666667","25.02529","6502400","平溪區"
"224006","676-BX","2017/10/07 20:15:52","新北市瑞芳區大寮路356-1號","121.784688333333","25.1031966666667","6501200","瑞芳區"
"224005","271-BY","2017/10/07 19:12:40","新北市瑞芳區國中新村18號","121.817221666667","25.1073566666667","6501200","瑞芳區"
"208001","761-BX","2017/10/07 20:15:19","新北市金山區磺清路135號","121.639521666667","25.2276416666667","6502700","金山區"
"251004","009-UM","2017/10/07 21:59:44","新北市淡水區民權路175-3號","121.459855","25.1356933333333","6501000","淡水區"
"251008","181-VK","2017/10/07 21:59:40","新北市淡水區學府路104號","121.449878333333","25.1717866666667","6501000","淡水區"
"251016","442-VK","2017/10/07 21:59:47","新北市淡水區水碓街7號","121.443143333333","25.177105","6501000","淡水區"
"251005","443-VK","2017/10/07 21:59:34","新北市淡水區鄧公路30巷2弄6號","121.452666666667","25.1692166666667","6501000","淡水區"
"251007","577-R6","2017/10/07 21:59:43","新北市淡水區北新路139號","121.449466666667","25.1788816666667","6501000","淡水區"
"251002","672-BX","2017/10/07 21:59:40","新北市淡水區北新路145號","121.449581666667","25.1788966666667","6501000","淡水區"
"252003","249-BX","2017/10/07 19:30:56","新北市三芝區埔坪里埔頭坑41號","121.504465","25.2644333333333","6502100","三芝區"
"238024","5061-A6","2017/10/07 20:05:05","新北市樹林區育德街78-1號","121.387703333333","24.9682283333333","6500700","樹林區"
"238018","308-TH","2017/10/07 13:30:56","新北市樹林區育德街76巷1號","121.388761666667","24.9683133333333","6500700","樹林區"
"238016","169-UY","2017/10/07 20:08:43","新北市樹林區中山路三段204號","121.386858333333","24.9683433333333","6500700","樹林區"
"239003","360-BY","2017/10/07 19:57:31","新北市鶯歌區二甲路171-1號","121.344036666667","24.9355033333333","6500800","鶯歌區"
"221012","276-VK","2017/10/07 13:32:16","新北市汐止區汐萬路一段256巷3號","121.653445","25.0746833333333","6501100","汐止區"
"221027","567-BX","2017/10/07 14:58:19","新北市汐止區汐萬路一段256巷3號","121.652436666667","25.0747","6501100","汐止區"
"220070","AAC-253","2017/10/07 21:59:39","新北市板橋區華東街1-9號","121.44824","24.9948516666667","6500100","板橋區"
