"lineid","car","time","location","longitude","latitude","cityid","cityname"
"244008","410-SL","2017/10/14 08:39:36","新北市林口區文化一路一段133號","121.37398","25.0718083333333","6501700","林口區"
"222004","289-BY","2017/10/14 08:38:54","新北市深坑區大崙尾1-1號","121.615565","24.9752116666667","6501800","深坑區"
"231007","189-VK","2017/10/14 08:39:40","新北市新店區新潭路三段256號","121.508545","24.9039883333333","6500600","新店區"
"231008","192-VK","2017/10/14 08:39:38","新北市新店區新烏路三段165巷23號","121.553188333333","24.9019266666667","6500600","新店區"
"226005","5620-A6","2017/10/14 08:39:31","新北市平溪區十分里十分街240號","121.77802","25.044205","6502400","平溪區"
"226002","7418-A5","2017/10/14 08:39:42","新北市平溪區東勢里芊蓁林9-1號","121.735718333333","24.9904216666667","6502400","平溪區"
"226003","AGD-0702","2017/10/14 08:39:37","新北市平溪區靜安路三段400號","121.784048333333","25.0508783333333","6502400","平溪區"
"223006","022-BY","2017/10/14 08:39:49","新北市深坑區昇高坑路51-1號","121.630548333333","24.9942366666667","6501900","石碇區"
"223002","198-BX","2017/10/14 07:19:46","新北市石碇區烏塗窟16-2號","121.656275","24.9756316666667","6501900","石碇區"
"223003","205-TH","2017/10/14 08:39:36","新北市石碇區二格路11號","121.629191666667","24.9636316666667","6501900","石碇區"
"223008","406-TH","2017/10/14 08:39:37","新北市石碇區石碇子埔97-4號","121.668506666667","25.0046533333333","6501900","石碇區"
"223001","592-UM","2017/10/14 08:39:34","新北市石碇區北宜路四段3號","121.611443333333","24.9575683333333","6501900","石碇區"
"223004","660-BX","2017/10/14 08:39:43","新北市石碇區崩山45號","121.679978333333","24.9684016666667","6501900","石碇區"
"223007","661-BX","2017/10/14 08:39:32","新北市石碇區番子坑103號","121.674655","25.0102383333333","6501900","石碇區"
"223005","677-TV","2017/10/14 08:36:27","新北市石碇區崩山57-3號","121.681651666667","24.96601","6501900","石碇區"
"227006","282-VK","2017/10/14 08:39:51","新北市雙溪區上林里大瀨1號","121.829915","25.0252133333333","6502500","雙溪區"
"253003","6232-TK","2017/10/14 08:39:31","新北市石門區尖子鹿5號","121.571925","25.28175","6502200","石門區"
"253001","6251-TK","2017/10/14 08:39:35","新北市三芝區新庄里新庄子48-7號","121.5073","25.2792033333333","6502200","石門區"
"253002","637-UY","2017/10/14 08:39:39","新北市石門區尖山湖55號","121.56631","25.247605","6502200","石門區"
"253004","8270-PC","2017/10/14 08:37:53","新北市石門區竹子湖13號","121.617511666667","25.2556816666667","6502200","石門區"
"252004","249-BX","2017/10/14 08:39:35","新北市三芝區興華里田心子16號","121.493285","25.2042766666667","6502100","三芝區"
"252007","AAC-283","2017/10/14 08:39:35","新北市三芝區後厝里番子崙17-2號","121.482451666667","25.23713","6502100","三芝區"
"237001","159-UY","2017/10/14 08:39:42","新北市三峽區大義路9號","121.378883333333","24.9438183333333","6500900","三峽區"
"236011","165-UM","2017/10/14 08:39:40","新北市土城區金城路二段48號","121.451605","24.9789866666667","6501300","土城區"
"236002","339-SR","2017/10/14 08:39:48","新北市土城區中央路三段85-4號","121.437965","24.968125","6501300","土城區"
"236006","498-BY","2017/10/14 08:39:40","新北市土城區永和街35號","121.434625","24.96122","6501300","土城區"
"220064","282-UM","2017/10/14 08:39:40","新北市板橋區華東街1-9號","121.448163333333","24.9948466666667","6500100","板橋區"
