"lineid","car","time","location","longitude","latitude","cityid","cityname"
"244008","410-SL","2017/10/14 09:39:36","新北市林口區文化一路一段15巷8-1號","121.368715","25.0693266666667","6501700","林口區"
"222004","289-BY","2017/10/14 09:39:34","新北市深坑區阿柔洋64號","121.607371666667","24.99867","6501800","深坑區"
"231007","189-VK","2017/10/14 09:39:40","新北市新店區新潭路三段215巷25號","121.508156666667","24.9040916666667","6500600","新店區"
"231008","192-VK","2017/10/14 09:39:38","新北市新店區平廣路一段170巷1-1號","121.519776666667","24.8896516666667","6500600","新店區"
"223008","406-TH","2017/10/14 09:39:37","新北市石碇區碇坪路一段130號","121.659463333333","24.991455","6501900","石碇區"
"227006","282-VK","2017/10/14 09:23:51","新北市雙溪區長源里柑腳58-1號","121.793893333333","25.0068533333333","6502500","雙溪區"
"253003","6232-TK","2017/10/14 09:39:51","新北市石門區尖子鹿51-1號","121.578136666667","25.27428","6502200","石門區"
"253001","6251-TK","2017/10/14 09:39:15","新北市石門區崁子腳65號","121.53198","25.28613","6502200","石門區"
"253002","637-UY","2017/10/14 09:39:39","新北市石門區楓林55號","121.54228","25.2742366666667","6502200","石門區"
"253004","8270-PC","2017/10/14 09:39:45","新北市石門區內阿里磅37-2號","121.582896666667","25.23767","6502200","石門區"
"252004","249-BX","2017/10/14 09:39:34","新北市三芝區福德里大水堀32-2號","121.512333333333","25.21716","6502100","三芝區"
"252007","AAC-283","2017/10/14 09:39:35","新北市三芝區古庄里山豬堀13-1號","121.493168333333","25.2570516666667","6502100","三芝區"
"236006","498-BY","2017/10/14 09:39:45","新北市土城區中央路二段396巷30號","121.438288333333","24.97111","6501300","土城區"
"220064","282-UM","2017/10/14 09:39:40","新北市板橋區華東街1-9號","121.448138333333","24.99488","6500100","板橋區"
