"lineid","car","time","location","longitude","latitude","cityid","cityname"
"231007","189-VK","2017/10/14 11:19:40","新北市新店區新潭路一段118號","121.528206666667","24.936205","6500600","新店區"
"231008","192-VK","2017/10/14 11:08:32","新北市新店區成功路50巷1號","121.540413333333","24.9002116666667","6500600","新店區"
"235031","255-BX","2017/10/14 10:57:39","新北市中和區和城路一段271巷1號","121.485605","24.9919516666667","6500300","中和區"
"227006","282-VK","2017/10/14 11:19:51","新北市雙溪區魚行里八股3號","121.887036666667","25.0210583333333","6502500","雙溪區"
"220064","282-UM","2017/10/14 11:19:40","新北市板橋區華東街1-9號","121.44814","24.9948483333333","6500100","板橋區"
