"lineid","car","time","location","longitude","latitude","cityid","cityname"
"231008","192-VK","2017/10/14 11:18:17","新北市新店區成功路148號","121.532523333333","24.89166","6500600","新店區"
"235031","255-BX","2017/10/14 10:57:39","新北市中和區和城路一段271巷1號","121.485605","24.9919516666667","6500300","中和區"
"228005","097-TW","2017/10/14 11:39:42","新北市貢寮區貢寮里朝陽街1-2號","121.91237","25.0212433333333","6502600","貢寮區"
"227006","282-VK","2017/10/14 11:39:51","新北市雙溪區魚行里魚杭1號","121.883876666667","25.026625","6502500","雙溪區"
"220064","282-UM","2017/10/14 11:39:40","新北市板橋區華東街1-9號","121.448143333333","24.9948616666667","6500100","板橋區"
