"lineid","car","time","location","longitude","latitude","cityid","cityname"
"234040","862-TW","2017/10/14 11:49:48","新北市永和區福和路1號","121.526113333333","25.0096283333333","6500400","永和區"
"231008","192-VK","2017/10/14 11:46:38","新北市新店區松林路81號","121.546526666667","24.9047233333333","6500600","新店區"
"235031","255-BX","2017/10/14 10:57:39","新北市中和區和城路一段271巷1號","121.485605","24.9919516666667","6500300","中和區"
"228005","097-TW","2017/10/14 11:49:42","新北市貢寮區貢寮里朝陽街1-2號","121.912393333333","25.0212516666667","6502600","貢寮區"
"228004","212-TW","2017/10/14 11:49:41","新北市貢寮區貢寮里朝陽街1-2號","121.911938333333","25.021265","6502600","貢寮區"
"227006","282-VK","2017/10/14 11:49:51","新北市雙溪區魚行里魚杭1號","121.883783333333","25.0266516666667","6502500","雙溪區"
"220064","282-UM","2017/10/14 11:49:40","新北市板橋區華東街1-9號","121.448151666667","24.9947916666667","6500100","板橋區"
