"lineid","car","time","location","longitude","latitude","cityid","cityname"
"234044","148-BY","2017/10/14 12:39:41","新北市永和區林森路44巷6弄6號","121.525356666667","25.0049983333333","6500400","永和區"
"234005","207-UY","2017/10/14 12:39:47","新北市永和區福和路1號","121.526181666667","25.0097433333333","6500400","永和區"
"234078","298-R6","2017/10/14 12:39:38","新北市永和區林森路81號","121.523931666667","25.003875","6500400","永和區"
"234036","336-UY","2017/10/14 12:39:42","新北市永和區福和路1號","121.526085","25.00913","6500400","永和區"
"234062","337-UY","2017/10/14 12:39:40","新北市永和區福和路1號","121.5263","25.0098633333333","6500400","永和區"
"234084","338-UY","2017/10/14 12:39:36","新北市中和區安平路38號","121.509721666667","24.9949983333333","6500400","永和區"
"234052","553-UM","2017/10/14 12:39:46","新北市永和區福和路1號","121.525953333333","25.009645","6500400","永和區"
"234015","745-BX","2017/10/14 12:39:38","新北市永和區福和路1號","121.525418333333","25.00964","6500400","永和區"
"234028","746-BX","2017/10/14 12:39:45","新北市永和區成功路一段89號","121.526856666667","25.0028833333333","6500400","永和區"
"234012","847-RS","2017/10/14 12:39:37","新北市永和區福和路1號","121.525756666667","25.009525","6500400","永和區"
"234040","862-TW","2017/10/14 12:39:48","新北市永和區永貞路306號","121.511865","25.0048216666667","6500400","永和區"
"234048","863-TW","2017/10/14 12:39:50","新北市永和區保安路2號","121.510866666667","25.0177666666667","6500400","永和區"
"234025","9371-KE","2017/10/14 12:39:41","新北市永和區福和路1號","121.526031666667","25.009695","6500400","永和區"
"234010","9373-KE","2017/10/14 12:39:50","新北市永和區福和路1號","121.525608333333","25.009385","6500400","永和區"
"234022","9380-KE","2017/10/14 12:39:43","新北市永和區豫溪街191巷3弄22號","121.523276666667","25.0106466666667","6500400","永和區"
"234076","969-R7","2017/10/14 12:39:49","新北市中和區安樂路101-2號","121.513423333333","24.9950333333333","6500400","永和區"
"234066","AAC-212","2017/10/14 12:39:39","新北市永和區福和路26號","121.523928333333","25.008355","6500400","永和區"
"234001","AAC-295","2017/10/14 12:39:36","新北市永和區福和路1號","121.525595","25.0093933333333","6500400","永和區"
"231028","046-UY","2017/10/14 12:39:47","新北市新店區安華路28-1號","121.51951","24.960905","6500600","新店區"
"231030","047-UY","2017/10/14 12:39:40","新北市新店區安華路28-1號","121.519323333333","24.960895","6500600","新店區"
"231010","278-BY","2017/10/14 12:39:38","新北市新店區安華路28-1號","121.519623333333","24.961275","6500600","新店區"
"231023","AAD-862","2017/10/14 12:39:46","新北市新店區安華路28-1號","121.519703333333","24.9612366666667","6500600","新店區"
"231036","513-UM","2017/10/14 12:39:31","新北市新店區安華路28-1號","121.519373333333","24.9613083333333","6500600","新店區"
"231006","617-UM","2017/10/14 12:39:46","新北市新店區安華路28-1號","121.519396666667","24.9608433333333","6500600","新店區"
"231013","719-UM","2017/10/14 12:39:43","新北市新店區安華路28-1號","121.519498333333","24.961185","6500600","新店區"
"231004","899-TW","2017/10/14 12:39:47","新北市新店區安華路28-1號","121.520145","24.9607133333333","6500600","新店區"
"235031","255-BX","2017/10/14 12:39:50","新北市中和區新生街42號","121.483243333333","25.00343","6500300","中和區"
"235025","378-QA","2017/10/14 03:56:11","新北市中和區員山路36巷13號","121.484081666667","24.991445","6500300","中和區"
"228005","097-TW","2017/10/14 12:39:42","新北市貢寮區福連里馬崗街45號","122.00304","25.00704","6502600","貢寮區"
"228004","212-TW","2017/10/14 12:39:41","新北市貢寮區吉林里枋腳街6-2號","121.887381666667","25.0070916666667","6502600","貢寮區"
"227010","030-BX","2017/10/14 12:36:54","新北市雙溪區三貂里政光路3-1號","121.850941666667","25.06312","6502500","雙溪區"
"207002","749-BX","2017/10/14 12:39:34","新北市萬里區雙興里太和路7-2號","121.658605","25.17413","6502800","萬里區"
"221012","276-VK","2017/10/14 12:39:34","新北市汐止區中正路189號","121.6588","25.06901","6501100","汐止區"
"221032","280-BY","2017/10/14 12:39:36","新北市汐止區汐萬路一段312號","121.65062","25.07542","6501100","汐止區"
"221018","753-BX","2017/10/14 12:39:39","新北市汐止區康寧街753巷1-1號","121.638851666667","25.0737933333333","6501100","汐止區"
"220064","282-UM","2017/10/14 12:39:40","新北市板橋區華東街1-9號","121.448135","24.9948666666667","6500100","板橋區"
