"lineid","car","time","location","longitude","latitude","cityid","cityname"
"234044","148-BY","2017/10/14 13:09:41","新北市永和區永元路52巷33號","121.523973333333","25.0009416666667","6500400","永和區"
"234005","207-UY","2017/10/14 13:09:47","新北市永和區中山路一段145號","121.510233333333","25.0096533333333","6500400","永和區"
"234078","298-R6","2017/10/14 13:09:38","新北市永和區永貞路39巷9弄1號","121.521841666667","25.00656","6500400","永和區"
"234036","336-UY","2017/10/14 13:09:42","新北市永和區民樂街69巷2號","121.527365","24.9976366666667","6500400","永和區"
"234062","337-UY","2017/10/14 13:09:40","新北市永和區秀朗路二段35巷1-1號","121.521346666667","25.0026716666667","6500400","永和區"
"234084","338-UY","2017/10/14 13:09:36","新北市永和區永貞路90號","121.519465","25.004615","6500400","永和區"
"234070","552-UM","2017/10/14 13:09:43","新北市永和區豫溪街137巷1弄10號","121.519183333333","25.0105366666667","6500400","永和區"
"234052","553-UM","2017/10/14 13:09:46","新北市永和區竹林路72巷2號","121.519008333333","25.0129333333333","6500400","永和區"
"234015","745-BX","2017/10/14 13:09:43","新北市永和區文化路90巷17號","121.513745","25.0161866666667","6500400","永和區"
"234028","746-BX","2017/10/14 13:09:45","新北市永和區民生路23號","121.522888333333","24.9988433333333","6500400","永和區"
"234060","AAD-866","2017/10/14 13:09:51","新北市永和區安樂路304巷7號","121.514495","25.0051733333333","6500400","永和區"
"234012","847-RS","2017/10/14 13:09:37","新北市永和區中山路一段50號","121.513163333333","25.0106166666667","6500400","永和區"
"234040","862-TW","2017/10/14 13:09:48","新北市永和區永貞路330號","121.511293333333","25.005515","6500400","永和區"
"234048","863-TW","2017/10/14 13:09:53","新北市永和區仁愛路104巷7弄56號","121.510998333333","25.01432","6500400","永和區"
"234025","9371-KE","2017/10/14 13:09:41","新北市永和區秀朗路一段10巷21號","121.513285","25.006165","6500400","永和區"
"234010","9373-KE","2017/10/14 13:09:50","新北市永和區仁愛路31巷2弄14號","121.513575","25.01293","6500400","永和區"
"248017","225-UY","2017/10/14 13:09:48","新北市五股區成泰路三段101-1號","121.444211666667","25.090295","6501500","五股區"
"234022","9380-KE","2017/10/14 13:09:43","新北市永和區中興街10巷17號","121.515856666667","25.011235","6500400","永和區"
"234076","969-R7","2017/10/14 13:09:49","新北市永和區中正路160號","121.515145","24.99644","6500400","永和區"
"234072","AAC-211","2017/10/14 13:09:39","新北市永和區竹林路160號","121.520245","25.0105933333333","6500400","永和區"
"234066","AAC-212","2017/10/14 13:09:39","新北市永和區保平路4號","121.513023333333","25.0076416666667","6500400","永和區"
"234001","AAC-295","2017/10/14 13:09:36","新北市永和區永和路二段8號","121.514605","25.0101666666667","6500400","永和區"
"244005","657-BX","2017/10/14 13:09:37","新北市林口區中山路319號","121.383528333333","25.0806983333333","6501700","林口區"
"231002","002-UM","2017/10/14 13:09:51","新北市新店區安華路28-1號","121.519561666667","24.9609416666667","6500600","新店區"
"231028","046-UY","2017/10/14 13:09:47","新北市新店區安華路28-1號","121.519555","24.9609083333333","6500600","新店區"
"231030","047-UY","2017/10/14 13:09:40","新北市新店區安華路28-1號","121.519308333333","24.9610066666667","6500600","新店區"
"231029","106-UY","2017/10/14 13:09:37","新北市新店區安華路28-1號","121.519633333333","24.9608866666667","6500600","新店區"
"231012","108-UY","2017/10/14 13:09:46","新北市新店區安華路28-1號","121.51951","24.96125","6500600","新店區"
"231018","110-UY","2017/10/14 13:09:49","新北市新店區安康路一段238-1號","121.522196666667","24.96375","6500600","新店區"
"231020","187-VK","2017/10/14 13:09:45","新北市新店區安華路28-1號","121.519543333333","24.9612333333333","6500600","新店區"
"231017","KEA-2219","2017/10/14 13:09:48","新北市新店區安華路28-1號","121.51975","24.9613033333333","6500600","新店區"
"231026","256-BX","2017/10/14 13:09:48","新北市新店區安華路28-1號","121.519735","24.9611866666667","6500600","新店區"
"231010","278-BY","2017/10/14 13:09:38","新北市新店區安華路28-1號","121.51938","24.96129","6500600","新店區"
"231023","AAD-862","2017/10/14 13:09:46","新北市新店區安華路28-1號","121.519683333333","24.9612433333333","6500600","新店區"
"231027","3712-VJ","2017/10/14 13:09:43","新北市新店區安華路28-1號","121.519333333333","24.960735","6500600","新店區"
"231024","3713-VJ","2017/10/14 13:09:36","新北市新店區安華路28-1號","121.51928","24.9607366666667","6500600","新店區"
"231025","4716-K9","2017/10/14 13:09:46","新北市新店區安華路28-1號","121.519678333333","24.9610816666667","6500600","新店區"
"231038","4715-K9","2017/10/14 13:09:45","新北市新店區安華路28-1號","121.51941","24.9606966666667","6500600","新店區"
"231036","513-UM","2017/10/14 13:09:52","新北市新店區安華路28-1號","121.519295","24.961365","6500600","新店區"
"231035","515-UM","2017/10/14 13:09:49","新北市新店區安華路28-1號","121.519605","24.9614183333333","6500600","新店區"
"231006","617-UM","2017/10/14 13:09:46","新北市新店區安華路28-1號","121.519453333333","24.9608983333333","6500600","新店區"
"231005","618-UM","2017/10/14 13:09:54","新北市新店區安華路28-1號","121.519523333333","24.9609433333333","6500600","新店區"
"231001","619-UM","2017/10/14 13:09:48","新北市新店區安華路28-1號","121.519566666667","24.9609466666667","6500600","新店區"
"231003","641-BX","2017/10/14 13:09:46","新北市新店區安華路28-1號","121.519511666667","24.9605783333333","6500600","新店區"
"231034","645-TV","2017/10/14 13:09:34","新北市新店區安華路28-1號","121.519368333333","24.96068","6500600","新店區"
"231013","719-UM","2017/10/14 13:09:43","新北市新店區安華路28-1號","121.519545","24.961355","6500600","新店區"
"231033","720-UM","2017/10/14 13:09:43","新北市新店區安華路28-1號","121.51939","24.9613166666667","6500600","新店區"
"231004","899-TW","2017/10/14 13:09:47","新北市新店區安華路28-1號","121.519341666667","24.9608933333333","6500600","新店區"
"231037","AKT-0513","2017/10/14 13:09:39","新北市新店區安華路28-1號","121.519431666667","24.9607283333333","6500600","新店區"
"235030","003-UY","2017/10/14 13:09:42","新北市中和區景平路511號","121.4994","24.9988733333333","6500300","中和區"
"235028","005-UY","2017/10/14 13:09:39","新北市中和區中正路277號","121.495366666667","24.9937533333333","6500300","中和區"
"235027","006-UY","2017/10/14 13:09:55","新北市中和區員山路36巷16-3號","121.48505","24.9913516666667","6500300","中和區"
"235003","097-UM","2017/10/14 13:09:44","新北市中和區中正路589巷15號","121.48567","24.993635","6500300","中和區"
"235029","098-UM","2017/10/14 13:09:53","新北市中和區橋和路270號","121.49573","25.0066366666667","6500300","中和區"
"235004","150-BY","2017/10/14 13:09:44","新北市中和區和城路一段271巷1號","121.485496666667","24.9918633333333","6500300","中和區"
"235022","151-BY","2017/10/14 13:09:38","新北市中和區圓通路367巷33弄1號","121.493896666667","24.985545","6500300","中和區"
"235002","185-VK","2017/10/14 13:09:40","新北市中和區大仁街20巷25弄39號","121.519608333333","24.9938633333333","6500300","中和區"
"235031","255-BX","2017/10/14 13:09:50","新北市中和區中正路751巷14弄13號","121.483998333333","25.0002266666667","6500300","中和區"
"235036","301-VK","2017/10/14 13:09:35","新北市中和區員山路36巷12號","121.483911666667","24.991015","6500300","中和區"
"235007","352-BY","2017/10/14 13:09:50","新北市中和區錦和路350-1號","121.490608333333","24.99359","6500300","中和區"
"235015","376-QA","2017/10/14 13:09:14","新北市中和區中正路368號","121.493153333333","24.994385","6500300","中和區"
"235025","378-QA","2017/10/14 13:09:42","新北市中和區員山路36巷16-2號","121.48525","24.9918483333333","6500300","中和區"
"235035","269-TV","2017/10/14 13:09:53","新北市中和區板南路520巷1號","121.484058333333","25.00887","6500300","中和區"
"235033","4980-A6","2017/10/14 13:09:45","新北市中和區中正路589巷15號","121.485623333333","24.9935683333333","6500300","中和區"
"235006","551-UM","2017/10/14 13:09:55","新北市中和區景平路159巷31號","121.512998333333","24.99118","6500300","中和區"
"235018","640-BX","2017/10/14 13:09:52","新北市中和區連城路526-1號","121.476208333333","24.9917816666667","6500300","中和區"
"235010","733-UM","2017/10/14 13:09:52","新北市中和區員山路36巷13號","121.48416","24.9909083333333","6500300","中和區"
"235026","800-TS","2017/10/14 13:09:39","新北市中和區建一路66號","121.488006666667","25.003495","6500300","中和區"
"235005","802-TS","2017/10/14 13:09:55","新北市中和區中正路266-1號","121.495391666667","24.9939983333333","6500300","中和區"
"235016","805-TS","2017/10/14 13:09:35","新北市中和區中正路637巷52弄1號","121.485533333333","24.9933766666667","6500300","中和區"
"235012","896-TW","2017/10/14 13:09:51","新北市中和區員山路36巷16-5號","121.484865","24.9919933333333","6500300","中和區"
"235023","AAC-215","2017/10/14 00:30:01","新北市中和區員山路36巷16-3號","121.485083333333","24.9913166666667","6500300","中和區"
"228005","097-TW","2017/10/14 13:09:42","新北市貢寮區仁理村研海街62-2號","121.92573","25.0447733333333","6502600","貢寮區"
"228004","212-TW","2017/10/14 13:09:21","新北市貢寮區吉林里內寮街75號","121.891325","24.97241","6502600","貢寮區"
"227010","030-BX","2017/10/14 12:36:54","新北市雙溪區三貂里政光路3-1號","121.850941666667","25.06312","6502500","雙溪區"
"208004","AAC-292","2017/10/14 13:09:33","新北市金山區中山路192號","121.637793333333","25.22156","6502700","金山區"
"207002","749-BX","2017/10/14 13:09:54","新北市萬里區崁腳里崁腳路131號","121.646283333333","25.1570266666667","6502800","萬里區"
"252005","073-UM","2017/10/14 13:09:43","新北市三芝區八賢里八連溪13號","121.510513333333","25.24351","6502100","三芝區"
"207001","662-BX","2017/10/14 13:09:48","新北市萬里區萬里里瑪鋉路20號","121.688601666667","25.17682","6502800","萬里區"
"236006","498-BY","2017/10/14 13:09:47","新北市土城區亞洲路156號","121.433226666667","24.971195","6501300","土城區"
"238018","308-TH","2017/10/14 13:09:43","新北市樹林區東豐街49巷24號","121.415338333333","24.974705","6500700","樹林區"
"221012","276-VK","2017/10/14 13:09:34","新北市汐止區長江街一段100巷1號","121.656398333333","25.0699033333333","6501100","汐止區"
"221032","280-BY","2017/10/14 13:09:56","新北市汐止區龍安路202巷14號","121.652866666667","25.063275","6501100","汐止區"
"221018","753-BX","2017/10/14 13:09:39","新北市汐止區福德一路342巷3弄2號","121.628773333333","25.0628833333333","6501100","汐止區"
"220064","282-UM","2017/10/14 13:09:40","新北市板橋區華東街1-9號","121.448148333333","24.994875","6500100","板橋區"
