"lineid","car","time","location","longitude","latitude","cityid","cityname"
"234044","148-BY","2017/10/14 14:09:41","新北市永和區成功路一段32號","121.527008333333","25.00464","6500400","永和區"
"234005","207-UY","2017/10/14 14:09:47","新北市中和區南工路6號","121.505435","25.0001983333333","6500400","永和區"
"234078","298-R6","2017/10/14 14:09:38","新北市永和區國中路109巷3弄2號","121.523803333333","25.00552","6500400","永和區"
"234036","336-UY","2017/10/14 14:09:42","新北市永和區成功路一段112號","121.526798333333","25.00257","6500400","永和區"
"234062","337-UY","2017/10/14 14:09:40","新北市永和區永利路156號","121.52264","25.0028316666667","6500400","永和區"
"234084","338-UY","2017/10/14 14:09:49","新北市永和區福和路130號","121.52191","25.0079","6500400","永和區"
"234070","552-UM","2017/10/14 14:09:43","新北市永和區福和路227號","121.518671666667","25.00755","6500400","永和區"
"234052","553-UM","2017/10/14 14:09:46","新北市永和區博愛街45巷2號","121.519215","25.0158783333333","6500400","永和區"
"234015","745-BX","2017/10/14 14:09:38","新北市永和區仁愛路17號","121.514613333333","25.0134333333333","6500400","永和區"
"234028","746-BX","2017/10/14 14:09:45","新北市永和區民生路22巷33號","121.520828333333","24.9969116666667","6500400","永和區"
"234060","AAD-866","2017/10/14 14:09:51","新北市永和區安樂路100巷19號","121.514653333333","24.9991183333333","6500400","永和區"
"234012","847-RS","2017/10/14 14:09:37","新北市永和區永貞路435號","121.506891666667","25.00988","6500400","永和區"
"234040","862-TW","2017/10/14 14:09:48","新北市永和區雙和街60號","121.508958333333","25.0034183333333","6500400","永和區"
"234048","863-TW","2017/10/14 14:09:50","新北市永和區環河西路二段89號","121.506555","25.015005","6500400","永和區"
"234025","9371-KE","2017/10/14 14:09:41","新北市永和區安樂路272巷9弄7號","121.515061666667","25.0046183333333","6500400","永和區"
"234010","9373-KE","2017/10/14 14:09:50","新北市永和區環河西路二段241號","121.50062","25.0092233333333","6500400","永和區"
"248017","225-UY","2017/10/14 14:09:48","新北市五股區民義路一段242號","121.426673333333","25.0919566666667","6501500","五股區"
"234022","9380-KE","2017/10/14 14:09:50","新北市永和區博愛街31巷8號","121.51835","25.0160983333333","6500400","永和區"
"234076","969-R7","2017/10/14 14:09:49","新北市永和區民族街81巷60號","121.52012","24.9964916666667","6500400","永和區"
"234072","AAC-211","2017/10/14 14:09:39","新北市永和區竹林路201巷24弄3號","121.522478333333","25.0096716666667","6500400","永和區"
"234066","AAC-212","2017/10/14 14:09:39","新北市永和區保平路236巷15弄1號","121.508561666667","25.0062933333333","6500400","永和區"
"234001","AAC-295","2017/10/14 14:09:41","新北市永和區中正路708號","121.515986666667","25.010035","6500400","永和區"
"231002","002-UM","2017/10/14 14:09:50","新北市新店區中正路487號","121.533938333333","24.9821533333333","6500600","新店區"
"231028","046-UY","2017/10/14 14:09:47","新北市新店區安和路二段227號","121.517163333333","24.9761066666667","6500600","新店區"
"231030","047-UY","2017/10/14 14:09:40","新北市新店區安民街65巷21-2號","121.515283333333","24.9674283333333","6500600","新店區"
"231029","106-UY","2017/10/14 14:09:37","新北市新店區安康路二段161號","121.510226666667","24.9593983333333","6500600","新店區"
"231012","108-UY","2017/10/14 14:09:50","新北市新店區五峰路63巷8弄106號","121.547806666667","24.968655","6500600","新店區"
"231018","110-UY","2017/10/14 14:09:49","新北市新店區中央五街22號","121.52922","24.97445","6500600","新店區"
"231020","187-VK","2017/10/14 14:09:45","新北市新店區屈尺路161-1號","121.543198333333","24.9237466666667","6500600","新店區"
"231017","KEA-2219","2017/10/14 14:09:48","新北市新店區中生路171號","121.577146666667","24.949575","6500600","新店區"
"231023","AAD-862","2017/10/14 14:09:46","新北市新店區文中路45號","121.539566666667","24.9565683333333","6500600","新店區"
"231027","3712-VJ","2017/10/14 14:09:43","新北市新店區北宜路一段9號","121.538085","24.9581983333333","6500600","新店區"
"231025","4716-K9","2017/10/14 14:09:46","新北市新店區中正路328巷19號","121.537405","24.97563","6500600","新店區"
"231038","4715-K9","2017/10/14 14:09:45","新北市新店區溪洲路121號","121.531188333333","24.9628116666667","6500600","新店區"
"231036","513-UM","2017/10/14 14:09:55","新北市新店區安祥路109巷85弄1號","121.477775","24.9603383333333","6500600","新店區"
"231035","515-UM","2017/10/14 14:09:49","新北市新店區安和路一段52巷2-1號","121.51761","24.9662766666667","6500600","新店區"
"231006","617-UM","2017/10/14 14:09:46","新北市新店區北宜路二段168號","121.558168333333","24.9540966666667","6500600","新店區"
"231005","618-UM","2017/10/14 14:09:53","新北市新店區寶元路一段74巷21號","121.543086666667","24.9837883333333","6500600","新店區"
"231001","619-UM","2017/10/14 14:09:48","新北市新店區中華路52號","121.539611666667","24.96856","6500600","新店區"
"231003","641-BX","2017/10/14 14:09:46","新北市新店區中興路一段171號","121.54275","24.9644233333333","6500600","新店區"
"231034","645-TV","2017/10/14 14:09:54","新北市新店區車子路1-1號","121.504771666667","24.9578483333333","6500600","新店區"
"231013","719-UM","2017/10/14 14:09:43","新北市新店區北新路三段65巷30號","121.54032","24.9811166666667","6500600","新店區"
"231033","720-UM","2017/10/14 14:09:43","新北市新店區溪洲路44號","121.532956666667","24.961185","6500600","新店區"
"231004","899-TW","2017/10/14 14:09:47","新北市新店區北新路二段226號","121.542896666667","24.9772533333333","6500600","新店區"
"231037","AKT-0513","2017/10/14 14:09:39","新北市新店區安康路二段341巷21號","121.497143333333","24.9545766666667","6500600","新店區"
"235030","003-UY","2017/10/14 14:09:42","新北市中和區廣福路112號","121.502245","25.00115","6500300","中和區"
"235028","005-UY","2017/10/14 14:09:39","新北市中和區中和路26巷8號","121.499425","25.001595","6500300","中和區"
"235027","006-UY","2017/10/14 14:09:55","新北市中和區連城路249巷26弄8號","121.494268333333","24.995595","6500300","中和區"
"235020","096-UM","2017/10/14 14:09:52","新北市中和區新民街94巷18號","121.481478333333","25.0093016666667","6500300","中和區"
"235003","097-UM","2017/10/14 14:09:44","新北市中和區景平路3號","121.523613333333","24.9902866666667","6500300","中和區"
"235029","098-UM","2017/10/14 14:09:53","新北市中和區中山路二段64巷7弄25號","121.50277","25.0046","6500300","中和區"
"235004","150-BY","2017/10/14 14:09:44","新北市中和區保健路46巷20弄8號","121.508713333333","24.9964566666667","6500300","中和區"
"235022","151-BY","2017/10/14 14:09:38","新北市中和區員山路143巷34弄2號","121.479668333333","24.9957816666667","6500300","中和區"
"235019","183-VK","2017/10/14 14:09:46","新北市中和區德光路98號","121.46862","25.00344","6500300","中和區"
"235002","185-VK","2017/10/14 14:09:40","新北市中和區大仁街10巷46號","121.519323333333","24.9924433333333","6500300","中和區"
"235013","186-VK","2017/10/14 14:09:41","新北市中和區南華路46號","121.503965","24.9965383333333","6500300","中和區"
"235031","255-BX","2017/10/14 14:09:50","新北市中和區新生街233巷10號","121.48438","24.998545","6500300","中和區"
"235008","293-VK","2017/10/14 14:09:48","新北市中和區中興街214號","121.499476666667","24.9899266666667","6500300","中和區"
"235036","301-VK","2017/10/14 14:09:35","新北市中和區景平路723號","121.49646","25.0040366666667","6500300","中和區"
"235007","352-BY","2017/10/14 14:09:50","新北市中和區景平路28號","121.523493333333","24.9907216666667","6500300","中和區"
"235032","375-QA","2017/10/14 14:09:38","新北市中和區連勝街38巷16號","121.49777","24.9979","6500300","中和區"
"235015","376-QA","2017/10/14 14:09:54","新北市中和區忠孝街101巷9號","121.511416666667","24.9860733333333","6500300","中和區"
"235025","378-QA","2017/10/14 14:09:42","新北市中和區中山路三段35-2號","121.47862","25.0057416666667","6500300","中和區"
"235035","269-TV","2017/10/14 14:09:44","新北市中和區立德街112號","121.487343333333","25.0086283333333","6500300","中和區"
"235014","4979-A6","2017/10/14 14:09:51","新北市中和區復興路263巷9弄3號","121.503026666667","24.98977","6500300","中和區"
"235033","4980-A6","2017/10/14 14:09:45","新北市中和區中山路二段181巷5號","121.501116666667","25.0019916666667","6500300","中和區"
"235006","551-UM","2017/10/14 14:09:54","新北市中和區自立路139巷8號","121.522521666667","24.99365","6500300","中和區"
"235034","558-UM","2017/10/14 14:09:38","新北市中和區景安路77號","121.506415","24.997275","6500300","中和區"
"235009","565-BX","2017/10/14 14:09:42","新北市中和區景新街467巷38弄2號","121.51452","24.9885433333333","6500300","中和區"
"235018","640-BX","2017/10/14 14:09:32","新北市中和區國光街6巷1號","121.471838333333","25.0001983333333","6500300","中和區"
"235024","647-TV","2017/10/14 14:09:51","新北市中和區民治街5巷1號","121.475006666667","25.0050633333333","6500300","中和區"
"235011","732-UM","2017/10/14 14:09:48","新北市中和區興南路一段56巷3弄2號","121.510505","24.9910816666667","6500300","中和區"
"235010","733-UM","2017/10/14 14:09:52","新北市中和區忠孝街1巷78號","121.508218333333","24.9848666666667","6500300","中和區"
"235026","800-TS","2017/10/14 14:09:39","新北市中和區橋安街17號","121.492771666667","25.0039966666667","6500300","中和區"
"235021","801-TS","2017/10/14 14:09:42","新北市中和區民利街100巷7號","121.477073333333","24.998345","6500300","中和區"
"235005","802-TS","2017/10/14 14:09:34","新北市中和區中安街122號","121.511226666667","25.0006583333333","6500300","中和區"
"235016","805-TS","2017/10/14 14:09:55","新北市中和區興南路二段128巷7弄2號","121.503201666667","24.9840783333333","6500300","中和區"
"235012","896-TW","2017/10/14 14:09:51","新北市中和區工專路147號","121.508408333333","24.9787733333333","6500300","中和區"
"235017","900-TW","2017/10/14 14:09:49","新北市中和區和平路252號","121.464801666667","24.997055","6500300","中和區"
"235001","AAC-213","2017/10/14 14:09:44","新北市中和區秀朗路三段60巷42號","121.524943333333","24.9949783333333","6500300","中和區"
"235023","AAC-215","2017/10/14 14:09:50","新北市中和區圓通路294巷17-5號","121.488618333333","24.9904283333333","6500300","中和區"
"220016","013-TV","2017/10/14 14:09:55","新北市板橋區翠華街6巷27號","121.481426666667","25.0244066666667","6500100","板橋區"
"220013","072-UY","2017/10/14 14:09:52","新北市板橋區民族路219巷23號","121.46925","25.0080616666667","6500100","板橋區"
"220034","073-UY","2017/10/14 14:09:35","新北市板橋區中正路236巷36號","121.457053333333","25.01919","6500100","板橋區"
"220105","075-UY","2017/10/14 14:09:53","新北市板橋區雙十路三段14號","121.471663333333","25.0303333333333","6500100","板橋區"
"220017","AAD-861","2017/10/14 14:09:47","新北市板橋區四川路一段110號","121.459476666667","25.00446","6500100","板橋區"
"247021","893-R6","2017/10/14 14:09:54","新北市蘆洲區三民路209號","121.47024","25.0879633333333","6501400","蘆洲區"
"247011","546-UM","2017/10/14 14:09:38","新北市蘆洲區信義路252號","121.478363333333","25.0865483333333","6501400","蘆洲區"
"247019","500-BY","2017/10/14 14:09:43","新北市蘆洲區民族路422巷15弄23號","121.473028333333","25.0929183333333","6501400","蘆洲區"
"247009","339-TH","2017/10/14 14:09:46","新北市蘆洲區信義路178號","121.479306666667","25.08406","6501400","蘆洲區"
"247001","337-TH","2017/10/14 14:09:41","新北市蘆洲區永平街62號","121.457351666667","25.091705","6501400","蘆洲區"
"247003","336-TH","2017/10/14 14:09:35","新北市蘆洲區長安街150號","121.459913333333","25.0822733333333","6501400","蘆洲區"
"247015","057-VK","2017/10/14 14:09:26","新北市蘆洲區光華路22巷48號","121.46817","25.085065","6501400","蘆洲區"
"247005","056-VK","2017/10/14 14:09:38","新北市蘆洲區九芎街75號","121.466845","25.0789616666667","6501400","蘆洲區"
"247007","053-VK","2017/10/14 14:09:37","新北市蘆洲區中山一路266號","121.471853333333","25.0795683333333","6501400","蘆洲區"
"247013","007-UY","2017/10/14 14:09:35","新北市蘆洲區忠孝路78號","121.4715","25.0855616666667","6501400","蘆洲區"
"247023","002-UY","2017/10/14 14:09:46","新北市蘆洲區光榮路118-2號","121.464988333333","25.088965","6501400","蘆洲區"
"247017","001-UY","2017/10/14 14:09:39","新北市蘆洲區復興路111-11號","121.477041666667","25.08866","6501400","蘆洲區"
"228005","097-TW","2017/10/14 14:09:22","新北市貢寮區美豐里雞母嶺街52號","121.890906666667","25.0669183333333","6502600","貢寮區"
"228004","212-TW","2017/10/14 14:09:41","新北市貢寮區雙玉里德心街11-1號","121.918788333333","25.0156266666667","6502600","貢寮區"
"227010","030-BX","2017/10/14 12:36:54","新北市雙溪區三貂里政光路3-1號","121.850941666667","25.06312","6502500","雙溪區"
"207002","749-BX","2017/10/14 14:09:33","新北市萬里區溪底里瑞泉路13-1號","121.604941666667","25.144985","6502800","萬里區"
"252005","073-UM","2017/10/14 14:09:43","新北市三芝區橫山里大坑43號","121.535365","25.246265","6502100","三芝區"
"207001","662-BX","2017/10/14 14:09:48","新北市萬里區磺潭里清水18號","121.637953333333","25.1976283333333","6502800","萬里區"
"208004","170-UY","2017/10/14 14:09:40","新北市金山區重和里磺溪頭16-2號","121.596923333333","25.2116116666667","6502700","金山區"
"236068","105-UM","2017/10/14 14:09:53","新北市土城區金城路一段141號","121.445538333333","24.974265","6501300","土城區"
"236041","107-UM","2017/10/14 14:09:41","新北市土城區裕生路64號","121.447585","24.9861666666667","6501300","土城區"
"236075","166-UM","2017/10/14 14:09:52","新北市土城區永寧路32巷33號","121.428305","24.9608083333333","6501300","土城區"
"236029","253-BX","2017/10/14 14:09:36","新北市土城區城林路6巷80號","121.43841","24.9798566666667","6501300","土城區"
"236025","269-VK","2017/10/14 14:09:43","新北市土城區承天路18號","121.439446666667","24.9633133333333","6501300","土城區"
"236013","270-VK","2017/10/14 14:09:36","新北市土城區學府路一段74號","121.45664","24.9882233333333","6501300","土城區"
"236035","271-VK","2017/10/14 14:09:38","新北市土城區青雲路449號","121.458856666667","24.9752116666667","6501300","土城區"
"236017","401-BY","2017/10/14 14:09:39","新北市土城區城林路6巷80號","121.438595","24.9797866666667","6501300","土城區"
"236006","498-BY","2017/10/14 14:09:47","新北市土城區中華路一段110號","121.444001666667","24.9865333333333","6501300","土城區"
"236057","912-UM","2017/10/14 14:09:40","新北市土城區中央路四段38號","121.420763333333","24.9608316666667","6501300","土城區"
"236045","913-UM","2017/10/14 14:09:10","新北市土城區中正路82-1號","121.44496","24.9756766666667","6501300","土城區"
"236061","915-UM","2017/10/14 14:09:49","新北市土城區金城路三段176-2號","121.467798333333","24.9876983333333","6501300","土城區"
"236054","AAC-216","2017/10/14 14:09:42","新北市土城區城林路6巷80號","121.438638333333","24.9797666666667","6501300","土城區"
"238001","282-BY","2017/10/14 14:08:57","新北市樹林區中山路三段204號","121.386791666667","24.9682033333333","6500700","樹林區"
"221012","276-VK","2017/10/14 13:23:34","新北市汐止區汐萬路一段256巷3號","121.653436666667","25.0746766666667","6501100","汐止區"
"220027","145-BY","2017/10/14 14:09:41","新北市板橋區民權路260巷39號","121.459318333333","25.0152766666667","6500100","板橋區"
"220028","200-UY","2017/10/14 14:09:37","新北市板橋區大觀路二段37巷300號","121.450245","25.0019716666667","6500100","板橋區"
"220030","610-BX","2017/10/14 14:09:48","新北市板橋區溪北路2號","121.426495","24.9905716666667","6500100","板橋區"
"220050","245-BX","2017/10/14 14:09:54","新北市板橋區莊敬路142-3號","121.471206666667","25.0232616666667","6500100","板橋區"
"220040","267-BY","2017/10/14 14:09:42","新北市板橋區萬板路408號","121.478981666667","25.0255533333333","6500100","板橋區"
"220004","276-BY","2017/10/14 14:09:47","新北市板橋區信義路110巷2弄1號","121.457978333333","24.9923116666667","6500100","板橋區"
"220020","277-BY","2017/10/14 14:09:47","新北市板橋區金門街372巷10號","121.426838333333","24.9841433333333","6500100","板橋區"
"220043","280-UM","2017/10/14 14:09:35","新北市板橋區光武街50巷1號","121.466826666667","25.0270133333333","6500100","板橋區"
"220064","282-UM","2017/10/14 14:09:40","新北市板橋區華東街1-9號","121.44812","24.9948816666667","6500100","板橋區"
"220019","283-VK","2017/10/14 14:09:45","新北市中和區華安街2號","121.465353333333","24.9986433333333","6500100","板橋區"
"220001","285-VK","2017/10/14 14:09:49","新北市板橋區懷仁街16號","121.476026666667","25.0198233333333","6500100","板橋區"
"220031","286-VK","2017/10/14 14:09:47","新北市板橋區龍興街99巷27-1號","121.44344","25.0033483333333","6500100","板橋區"
"220029","287-VK","2017/10/14 13:42:31","新北市板橋區大觀路288號","121.449463333333","24.99837","6500100","板橋區"
"220039","288-VK","2017/10/14 14:09:51","新北市板橋區裕民街31號","121.46181","25.0287916666667","6500100","板橋區"
"220009","293-UM","2017/10/14 14:09:50","新北市板橋區中山路二段268號","121.47907","25.0185366666667","6500100","板橋區"
"220045","295-UM","2017/10/14 14:09:36","新北市板橋區雙十路二段47巷5-1號","121.476191666667","25.0260533333333","6500100","板橋區"
"220032","296-UM","2017/10/14 14:09:38","新北市板橋區篤行路二段90巷8號","121.431126666667","24.991835","6500100","板橋區"
"220023","297-UM","2017/10/14 14:09:37","新北市板橋區大智街7號","121.455986666667","25.0147816666667","6500100","板橋區"
"220047","299-UM","2017/10/14 14:09:45","新北市板橋區自由路58號","121.465756666667","25.0236166666667","6500100","板橋區"
"220010","305-R5","2017/10/14 14:09:33","新北市板橋區三民路二段245巷69弄2號","121.48111","25.0128916666667","6500100","板橋區"
"220041","307-R5","2017/10/14 14:09:47","新北市板橋區文化路二段225巷62號","121.469258333333","25.0284766666667","6500100","板橋區"
"220012","486-VK","2017/10/14 14:09:46","新北市板橋區中山路一段293-1號","121.470835","25.0142866666667","6500100","板橋區"
"220038","487-VK","2017/10/14 14:09:50","新北市板橋區文化路二段486號","121.475236666667","25.032995","6500100","板橋區"
"220037","491-VK","2017/10/14 14:09:32","新北市板橋區文化路二段182巷3弄18號","121.471868333333","25.0278183333333","6500100","板橋區"
"220104","560-BX","2017/10/14 14:09:37","新北市板橋區中正路413巷2弄2號","121.45398","25.0226366666667","6500100","板橋區"
"220052","561-BX","2017/10/14 14:09:42","新北市板橋區文化路一段188巷9弄19號","121.468023333333","25.019185","6500100","板橋區"
"220011","609-BX","2017/10/14 14:09:48","新北市板橋區三民路二段163號","121.479156666667","25.0146816666667","6500100","板橋區"
"220005","686-BX","2017/10/14 14:09:44","新北市板橋區重慶路265號","121.463298333333","25.000125","6500100","板橋區"
"220025","687-BX","2017/10/14 14:09:46","新北市板橋區龍興街59號","121.443176666667","25.0011733333333","6500100","板橋區"
"220042","689-BX","2017/10/14 14:09:48","新北市板橋區民生路三段239號","121.46478","25.0288316666667","6500100","板橋區"
"220002","741-BX","2017/10/14 14:09:54","新北市板橋區重慶路93巷17號","121.462723333333","25.0058383333333","6500100","板橋區"
"220003","827-TW","2017/10/14 14:09:36","新北市板橋區新民街43號","121.463983333333","25.0107833333333","6500100","板橋區"
"220014","829-TW","2017/10/14 14:09:51","新北市板橋區中山路二段90巷43弄12號","121.476753333333","25.01505","6500100","板橋區"
"220051","830-TW","2017/10/14 14:09:48","新北市板橋區田單街51號","121.482586666667","25.0279366666667","6500100","板橋區"
"220022","895-R6","2017/10/14 14:09:49","新北市板橋區林園街32號","121.453763333333","25.010115","6500100","板橋區"
"220021","985-R7","2017/10/14 14:09:46","新北市板橋區民權路258-2號","121.458016666667","25.0150683333333","6500100","板橋區"
"220046","AAC-210","2017/10/14 14:09:54","新北市板橋區新海路135巷4號","121.459881666667","25.0228933333333","6500100","板橋區"
"220018","AAC-253","2017/10/14 14:09:37","新北市板橋區四川路一段467號","121.457296666667","24.9976183333333","6500100","板橋區"
