"lineid","car","time","location","longitude","latitude","cityid","cityname"
"234044","148-BY","2017/10/14 14:19:41","新北市永和區得和路324號","121.523131666667","24.9996083333333","6500400","永和區"
"234005","207-UY","2017/10/14 14:19:47","新北市永和區中山路一段9號","121.514148333333","25.0103733333333","6500400","永和區"
"234078","298-R6","2017/10/14 14:19:48","新北市永和區國中路132巷14號","121.524008333333","25.00754","6500400","永和區"
"234036","336-UY","2017/10/14 14:19:42","新北市永和區成功路一段93巷21弄2號","121.528321666667","25.0026766666667","6500400","永和區"
"234062","337-UY","2017/10/14 14:19:40","新北市永和區得和路120號","121.51867","25.0001433333333","6500400","永和區"
"234084","338-UY","2017/10/14 14:19:46","新北市永和區中正路672號","121.516791666667","25.0091716666667","6500400","永和區"
"234070","552-UM","2017/10/14 14:19:51","新北市永和區福和路263巷11號","121.51798","25.0067866666667","6500400","永和區"
"234052","553-UM","2017/10/14 14:19:46","新北市永和區光復街2巷5號","121.51683","25.0166133333333","6500400","永和區"
"234015","745-BX","2017/10/14 14:19:38","新北市永和區仁愛路101號","121.512603333333","25.0131216666667","6500400","永和區"
"234028","746-BX","2017/10/14 14:19:45","新北市永和區民權路49巷16號","121.520905","24.9972166666667","6500400","永和區"
"234060","AAD-866","2017/10/14 14:19:51","新北市永和區安樂路194巷7號","121.515366666667","25.0011833333333","6500400","永和區"
"234012","847-RS","2017/10/14 14:19:41","新北市永和區保生路46號","121.50562","25.0084983333333","6500400","永和區"
"234040","862-TW","2017/10/14 14:19:48","新北市中和區中安街132號","121.51081","25.0003983333333","6500400","永和區"
"234048","863-TW","2017/10/14 14:19:50","新北市永和區新生路24巷3號","121.508785","25.0163966666667","6500400","永和區"
"234025","9371-KE","2017/10/14 14:19:48","新北市中和區安樂路167號","121.514758333333","24.99754","6500400","永和區"
"248017","225-UY","2017/10/14 14:19:28","新北市五股區壟路16號","121.415356666667","25.0856366666667","6501500","五股區"
"234076","969-R7","2017/10/14 14:19:49","新北市永和區民族街81巷48號","121.519891666667","24.9965316666667","6500400","永和區"
"234072","AAC-211","2017/10/14 14:19:39","新北市永和區豫溪街191巷7弄24號","121.523206666667","25.0111116666667","6500400","永和區"
"234066","AAC-212","2017/10/14 14:19:39","新北市永和區保平路268巷51弄2號","121.50696","25.0063383333333","6500400","永和區"
"234001","AAC-295","2017/10/14 14:19:36","新北市永和區中正路628號","121.516981666667","25.0079816666667","6500400","永和區"
"231002","002-UM","2017/10/14 14:19:50","新北市新店區中央路153號","121.529888333333","24.9731016666667","6500600","新店區"
"231028","046-UY","2017/10/14 14:19:47","新北市新店區安康路二段38號","121.515545","24.9637833333333","6500600","新店區"
"231030","047-UY","2017/10/14 14:19:40","新北市新店區安民街11號","121.51528","24.9645233333333","6500600","新店區"
"231029","106-UY","2017/10/14 14:19:37","新北市新店區安康路二段161號","121.510263333333","24.9593383333333","6500600","新店區"
"231012","108-UY","2017/10/14 14:19:46","新北市新店區寶興路42巷31號","121.547828333333","24.972015","6500600","新店區"
"231018","110-UY","2017/10/14 14:19:49","新北市新店區中央四街52號","121.527633333333","24.975035","6500600","新店區"
"231020","187-VK","2017/10/14 14:19:45","新北市新店區桂山路2-1號","121.555948333333","24.9042083333333","6500600","新店區"
"231017","KEA-2219","2017/10/14 14:19:48","新北市新店區北宜路二段579巷1-1號","121.565273333333","24.9534433333333","6500600","新店區"
"231023","AAD-862","2017/10/14 14:19:46","新北市新店區光明街136號","121.539396666667","24.9612983333333","6500600","新店區"
"231027","3712-VJ","2017/10/14 14:19:43","新北市新店區光明街286巷6-3號","121.54075","24.9636583333333","6500600","新店區"
"231025","4716-K9","2017/10/14 14:19:46","新北市新店區二十張路129巷5弄7號","121.536753333333","24.9789","6500600","新店區"
"231038","4715-K9","2017/10/14 14:19:44","新北市新店區溪洲路6巷28號","121.533958333333","24.9623533333333","6500600","新店區"
"231036","513-UM","2017/10/14 14:19:52","新北市新店區安祥路109巷151弄12-1號","121.477986666667","24.958895","6500600","新店區"
"231035","515-UM","2017/10/14 14:19:49","新北市新店區光華街5巷26號","121.517528333333","24.9681616666667","6500600","新店區"
"231006","617-UM","2017/10/14 14:19:46","新北市新店區玉山路22號","121.568093333333","24.9555516666667","6500600","新店區"
"231005","618-UM","2017/10/14 14:19:53","新北市新店區中興路三段165號","121.544276666667","24.980525","6500600","新店區"
"231001","619-UM","2017/10/14 14:19:48","新北市新店區北新路一段337號","121.541833333333","24.9686833333333","6500600","新店區"
"231003","641-BX","2017/10/14 14:19:47","新北市新店區中興路一段216號","121.543868333333","24.9657216666667","6500600","新店區"
"231034","645-TV","2017/10/14 14:19:34","新北市新店區安康路二段362號","121.501665","24.9574816666667","6500600","新店區"
"231013","719-UM","2017/10/14 14:19:43","新北市新店區民權路100-1號","121.536273333333","24.983385","6500600","新店區"
"231033","720-UM","2017/10/14 14:19:43","新北市新店區安業街215巷12號","121.523261666667","24.971925","6500600","新店區"
"231004","899-TW","2017/10/14 14:19:47","新北市新店區中正路152號","121.541581666667","24.9717283333333","6500600","新店區"
"231037","AKT-0513","2017/10/14 14:19:39","新北市新店區車子路52號","121.50399","24.9518516666667","6500600","新店區"
"235030","003-UY","2017/10/14 14:19:42","新北市中和區景新街52號","121.503938333333","24.9991166666667","6500300","中和區"
"235028","005-UY","2017/10/14 14:19:39","新北市中和區中和路139號","121.501943333333","24.99976","6500300","中和區"
"235027","006-UY","2017/10/14 14:19:35","新北市中和區連勝街122號","121.494555","24.9962983333333","6500300","中和區"
"235020","096-UM","2017/10/14 14:19:52","新北市中和區員山路502號","121.479708333333","25.0073133333333","6500300","中和區"
"235003","097-UM","2017/10/14 14:19:44","新北市中和區秀峰街119巷8弄14號","121.519068333333","24.9899483333333","6500300","中和區"
"235029","098-UM","2017/10/14 14:19:53","新北市中和區中山路二段2巷5弄2號","121.504481666667","25.0063733333333","6500300","中和區"
"235004","150-BY","2017/10/14 14:19:44","新北市中和區保健路106巷20弄1號","121.51149","24.9949316666667","6500300","中和區"
"235022","151-BY","2017/10/14 14:19:38","新北市中和區連城路477巷6弄28號","121.482291666667","24.99502","6500300","中和區"
"235019","183-VK","2017/10/14 14:19:47","新北市中和區中山路三段209號","121.471935","25.0064083333333","6500300","中和區"
"235002","185-VK","2017/10/14 14:19:40","新北市中和區大仁街10巷25號","121.519005","24.9925466666667","6500300","中和區"
"235013","186-VK","2017/10/14 14:19:41","新北市中和區景新街228-6號","121.508145","24.9941466666667","6500300","中和區"
"235031","255-BX","2017/10/14 14:19:50","新北市中和區新生街233巷10號","121.484426666667","24.9985516666667","6500300","中和區"
"235008","293-VK","2017/10/14 14:19:48","新北市中和區中興街266巷2號","121.49847","24.9875666666667","6500300","中和區"
"235036","301-VK","2017/10/14 14:19:35","新北市中和區莊敬路33巷6號","121.500511666667","25.0051233333333","6500300","中和區"
"235007","352-BY","2017/10/14 14:19:50","新北市中和區景平路296號","121.513095","24.9926933333333","6500300","中和區"
"235032","375-QA","2017/10/14 14:19:38","新北市中和區圓通路158巷16號","121.498111666667","24.9965516666667","6500300","中和區"
"235015","376-QA","2017/10/14 14:19:34","新北市中和區興南路一段20-1號","121.511213333333","24.99097","6500300","中和區"
"235025","378-QA","2017/10/14 14:19:43","新北市中和區連城路454號","121.479075","24.9947033333333","6500300","中和區"
"235035","269-TV","2017/10/14 14:19:44","新北市中和區中正路673號","121.485126666667","24.9967","6500300","中和區"
"235014","4979-A6","2017/10/14 14:19:51","新北市中和區景安路206號","121.504053333333","24.99092","6500300","中和區"
"235033","4980-A6","2017/10/14 14:19:45","新北市中和區永和路39巷8號","121.497655","25.00502","6500300","中和區"
"235006","551-UM","2017/10/14 14:19:34","新北市中和區立人街69巷2號","121.51989","24.9940716666667","6500300","中和區"
"235034","558-UM","2017/10/14 14:19:38","新北市中和區中和路92號","121.501138333333","25.0002733333333","6500300","中和區"
"235009","565-BX","2017/10/14 14:19:42","新北市中和區景新街437巷31號","121.514748333333","24.989505","6500300","中和區"
"235018","640-BX","2017/10/14 14:19:52","新北市中和區民德路136號","121.468728333333","25.0006266666667","6500300","中和區"
"235024","647-TV","2017/10/14 14:19:51","新北市中和區中山路三段145號","121.473796666667","25.0060083333333","6500300","中和區"
"235011","732-UM","2017/10/14 14:19:48","新北市中和區景平路239巷73號","121.508138333333","24.9921033333333","6500300","中和區"
"235010","733-UM","2017/10/14 14:19:32","新北市中和區華新街115號","121.507235","24.9820183333333","6500300","中和區"
"235026","800-TS","2017/10/14 14:19:39","新北市中和區中山路二段365號","121.487668333333","25.0045566666667","6500300","中和區"
"235021","801-TS","2017/10/14 14:19:42","新北市中和區民利街48號","121.479326666667","24.998855","6500300","中和區"
"235005","802-TS","2017/10/14 14:19:34","新北市中和區中安街196號","121.511625","24.9992283333333","6500300","中和區"
"235016","805-TS","2017/10/14 14:19:35","新北市中和區興南路二段142巷17弄4號","121.503373333333","24.9833466666667","6500300","中和區"
"235012","896-TW","2017/10/14 14:19:51","新北市中和區忠孝街2-6號","121.509133333333","24.9829616666667","6500300","中和區"
"235017","900-TW","2017/10/14 14:19:49","新北市中和區華安街19巷10號","121.467453333333","24.997915","6500300","中和區"
"235001","AAC-213","2017/10/14 14:19:44","新北市中和區秀朗路三段50巷12弄2號","121.524243333333","24.9951216666667","6500300","中和區"
"235023","AAC-215","2017/10/14 14:19:50","新北市中和區圓通路286巷10號","121.491548333333","24.991225","6500300","中和區"
"220016","013-TV","2017/10/14 14:19:42","新北市板橋區林森街1巷6號","121.482265","25.0241366666667","6500100","板橋區"
"220013","072-UY","2017/10/14 14:19:52","新北市板橋區國泰街76巷21號","121.467091666667","25.007085","6500100","板橋區"
"220034","073-UY","2017/10/14 14:19:35","新北市板橋區中正路236巷77號","121.45906","25.019625","6500100","板橋區"
"220105","075-UY","2017/10/14 14:19:43","新北市板橋區雙十路三段87號","121.470123333333","25.0326333333333","6500100","板橋區"
"220017","AAD-861","2017/10/14 14:19:47","新北市板橋區華興街46號","121.458373333333","25.0047533333333","6500100","板橋區"
"247021","893-R6","2017/10/14 14:19:51","新北市蘆洲區三民路368-3號","121.465496666667","25.092375","6501400","蘆洲區"
"247011","546-UM","2017/10/14 14:19:38","新北市蘆洲區信義路351巷18號","121.476705","25.086855","6501400","蘆洲區"
"247019","500-BY","2017/10/14 14:19:43","新北市蘆洲區仁愛街35巷14弄2號","121.471471666667","25.0927333333333","6501400","蘆洲區"
"247009","339-TH","2017/10/14 14:19:46","新北市蘆洲區中山一路122巷54號","121.47652","25.0827216666667","6501400","蘆洲區"
"247001","337-TH","2017/10/14 14:19:41","新北市蘆洲區永樂街78號","121.456946666667","25.08858","6501400","蘆洲區"
"247003","336-TH","2017/10/14 14:19:35","新北市蘆洲區中原路69號","121.458543333333","25.0820166666667","6501400","蘆洲區"
"247015","057-VK","2017/10/14 14:18:11","新北市蘆洲區光華路70巷4號","121.467955","25.0831916666667","6501400","蘆洲區"
"247005","056-VK","2017/10/14 14:19:38","新北市蘆洲區長安街22巷38號","121.464991666667","25.0801666666667","6501400","蘆洲區"
"247007","053-VK","2017/10/14 14:19:37","新北市蘆洲區中山一路225號","121.473925","25.0806266666667","6501400","蘆洲區"
"247013","007-UY","2017/10/14 14:19:35","新北市蘆洲區中山一路225號","121.473815","25.0807966666667","6501400","蘆洲區"
"247023","002-UY","2017/10/14 14:19:54","新北市蘆洲區三民路577號","121.46196","25.0927016666667","6501400","蘆洲區"
"247017","001-UY","2017/10/14 14:19:40","新北市蘆洲區民權路116號","121.473476666667","25.088505","6501400","蘆洲區"
"228005","097-TW","2017/10/14 14:19:42","新北市貢寮區美豐里雞母嶺街60號","121.897321666667","25.06384","6502600","貢寮區"
"228004","212-TW","2017/10/14 14:19:41","新北市貢寮區雙玉里田寮洋街39號","121.924886666667","25.01387","6502600","貢寮區"
"227010","030-BX","2017/10/14 12:36:54","新北市雙溪區三貂里政光路3-1號","121.850941666667","25.06312","6502500","雙溪區"
"207002","749-BX","2017/10/14 14:19:33","新北市萬里區溪底里瑞泉路3號","121.609331666667","25.1435883333333","6502800","萬里區"
"252005","073-UM","2017/10/14 14:19:03","新北市三芝區橫山里橫山45-1號","121.53708","25.25755","6502100","三芝區"
"207001","662-BX","2017/10/14 14:19:48","新北市萬里區磺潭里清水18號","121.637886666667","25.1976566666667","6502800","萬里區"
"208004","170-UY","2017/10/14 14:19:40","新北市金山區六股里下六股65號","121.614411666667","25.223635","6502700","金山區"
"236068","105-UM","2017/10/14 14:19:53","新北市土城區明德路一段126號","121.4638","24.97902","6501300","土城區"
"236041","107-UM","2017/10/14 14:19:42","新北市土城區裕生路21巷6弄23號","121.448716666667","24.9868266666667","6501300","土城區"
"236075","166-UM","2017/10/14 14:19:26","新北市土城區中央路三段235巷7號","121.42922","24.96374","6501300","土城區"
"236029","253-BX","2017/10/14 14:19:36","新北市土城區順風路63號","121.440166666667","24.977335","6501300","土城區"
"236025","269-VK","2017/10/14 14:19:43","新北市土城區承天路18號","121.439503333333","24.96351","6501300","土城區"
"236013","270-VK","2017/10/14 14:19:36","新北市土城區立清街69號","121.460336666667","24.9873316666667","6501300","土城區"
"236035","271-VK","2017/10/14 14:19:47","新北市土城區青雲路451巷8弄9號","121.45958","24.9744483333333","6501300","土城區"
"236017","401-BY","2017/10/14 14:19:39","新北市土城區金城路二段204號","121.454975","24.9818866666667","6501300","土城區"
"236057","912-UM","2017/10/14 14:19:40","新北市土城區中央路四段356號","121.413213333333","24.95503","6501300","土城區"
"236045","913-UM","2017/10/14 14:19:51","新北市土城區明德路一段361-3號","121.456193333333","24.9777583333333","6501300","土城區"
"236061","915-UM","2017/10/14 14:19:49","新北市土城區延壽路30號","121.471255","24.9909933333333","6501300","土城區"
"236054","AAC-216","2017/10/14 14:19:42","新北市土城區中華路二段100號","121.43803","24.9744216666667","6501300","土城區"
"238001","282-BY","2017/10/14 14:08:57","新北市樹林區中山路三段204號","121.386791666667","24.9682033333333","6500700","樹林區"
"221012","276-VK","2017/10/14 13:23:34","新北市汐止區汐萬路一段256巷3號","121.653436666667","25.0746766666667","6501100","汐止區"
"220027","145-BY","2017/10/14 14:19:50","新北市板橋區民權路202巷17弄22號","121.45992","25.016655","6500100","板橋區"
"220028","200-UY","2017/10/14 14:19:49","新北市板橋區大觀路二段7巷109-4號","121.450573333333","25.0027983333333","6500100","板橋區"
"220030","610-BX","2017/10/14 14:19:49","新北市板橋區滿平街84巷114號","121.426821666667","24.9865433333333","6500100","板橋區"
"220050","245-BX","2017/10/14 14:19:51","新北市板橋區莒光路170號","121.474125","25.0231","6500100","板橋區"
"220040","267-BY","2017/10/14 14:19:42","新北市板橋區萬板路408號","121.47897","25.0255433333333","6500100","板橋區"
"220004","276-BY","2017/10/14 14:19:47","新北市板橋區國慶路8號","121.458123333333","24.994485","6500100","板橋區"
"220020","277-BY","2017/10/14 14:19:48","新北市板橋區金門街337巷8弄1號","121.429765","24.985235","6500100","板橋區"
"220043","280-UM","2017/10/14 14:19:35","新北市板橋區光武街110巷29號","121.46677","25.029985","6500100","板橋區"
"220064","282-UM","2017/10/14 14:19:40","新北市板橋區華東街1-9號","121.448101666667","24.9948933333333","6500100","板橋區"
"220019","283-VK","2017/10/14 14:19:45","新北市板橋區大豐街31號","121.46197","25.0013116666667","6500100","板橋區"
"220001","285-VK","2017/10/14 14:19:49","新北市板橋區富山街5號","121.478595","25.0216583333333","6500100","板橋區"
"220031","286-VK","2017/10/14 14:19:47","新北市板橋區大觀路二段174巷186弄6號","121.442535","25.0035916666667","6500100","板橋區"
"220029","287-VK","2017/10/14 13:42:31","新北市板橋區大觀路288號","121.449463333333","24.99837","6500100","板橋區"
"220039","288-VK","2017/10/14 14:19:51","新北市板橋區長江路一段106巷13弄12號","121.460518333333","25.0292233333333","6500100","板橋區"
"220009","293-UM","2017/10/14 14:19:50","新北市板橋區中山路二段417號","121.480853333333","25.0197316666667","6500100","板橋區"
"220045","295-UM","2017/10/14 14:19:36","新北市板橋區大同街50巷55號","121.478686666667","25.0263416666667","6500100","板橋區"
"220032","296-UM","2017/10/14 14:19:38","新北市板橋區溪北路106號","121.428706666667","24.9892","6500100","板橋區"
"220023","297-UM","2017/10/14 14:19:37","新北市板橋區南雅南路一段1巷36號","121.457161666667","25.0064616666667","6500100","板橋區"
"220047","299-UM","2017/10/14 14:19:45","新北市板橋區四維路251號","121.463666666667","25.0277283333333","6500100","板橋區"
"220010","305-R5","2017/10/14 14:19:53","新北市板橋區三民路二段居仁巷1弄55-1號","121.481186666667","25.0137583333333","6500100","板橋區"
"220041","307-R5","2017/10/14 14:19:47","新北市板橋區松江街70號","121.468641666667","25.027715","6500100","板橋區"
"220012","486-VK","2017/10/14 14:19:46","新北市板橋區板新路161號","121.469593333333","25.01572","6500100","板橋區"
"220038","487-VK","2017/10/14 14:19:38","新北市板橋區文化路二段15號","121.468681666667","25.02437","6500100","板橋區"
"220037","491-VK","2017/10/14 14:19:52","新北市板橋區雙十路二段143號","121.474971666667","25.0279916666667","6500100","板橋區"
"220104","560-BX","2017/10/14 14:19:37","新北市板橋區中正路413巷2弄4號","121.45395","25.02281","6500100","板橋區"
"220052","561-BX","2017/10/14 14:19:42","新北市板橋區介壽街35號","121.468526666667","25.019855","6500100","板橋區"
"220011","609-BX","2017/10/14 14:19:38","新北市板橋區三民路二段247號","121.479101666667","25.01231","6500100","板橋區"
"220005","686-BX","2017/10/14 14:19:44","新北市板橋區和平路161巷24號","121.463361666667","24.9967816666667","6500100","板橋區"
"220025","687-BX","2017/10/14 14:19:46","新北市板橋區大觀路二段113號","121.446043333333","25.0015516666667","6500100","板橋區"
"220042","689-BX","2017/10/14 14:19:48","新北市板橋區漢生西路17號","121.463576666667","25.01814","6500100","板橋區"
"220002","741-BX","2017/10/14 14:19:46","新北市板橋區四川路一段193號","121.460943333333","25.0037733333333","6500100","板橋區"
"220003","827-TW","2017/10/14 14:19:36","新北市板橋區新民街13號","121.46396","25.0098516666667","6500100","板橋區"
"220014","829-TW","2017/10/14 14:19:31","新北市板橋區長安街138巷3弄37號","121.473948333333","25.0096933333333","6500100","板橋區"
"220051","830-TW","2017/10/14 14:19:48","新北市板橋區松柏街25-4號","121.475003333333","25.030095","6500100","板橋區"
"220022","895-R6","2017/10/14 14:19:36","新北市板橋區西門街9號","121.455711666667","25.01093","6500100","板橋區"
"220021","985-R7","2017/10/14 14:19:46","新北市板橋區中正路328號","121.454446666667","25.021355","6500100","板橋區"
"220046","AAC-210","2017/10/14 14:19:43","新北市板橋區漢生西路89巷3弄28號","121.4613","25.0197866666667","6500100","板橋區"
"220018","AAC-253","2017/10/14 14:19:50","新北市板橋區忠孝路120號","121.463021666667","25.0022833333333","6500100","板橋區"
