"lineid","car","time","location","longitude","latitude","cityid","cityname"
"234044","148-BY","2017/10/14 14:39:41","新北市三重區頂崁街23號","121.476673333333","25.0565116666667","6500400","永和區"
"234005","207-UY","2017/10/14 14:39:47","新北市永和區安樂路218號","121.514995","25.0021133333333","6500400","永和區"
"234070","552-UM","2017/10/14 14:39:43","新北市永和區永和路一段105號","121.513728333333","25.0076933333333","6500400","永和區"
"234028","746-BX","2017/10/14 14:39:45","新北市中和區自立路14號","121.52215","24.9961433333333","6500400","永和區"
"234025","9371-KE","2017/10/14 14:39:41","新北市永和區中和路501巷5號","121.510488333333","25.002615","6500400","永和區"
"248017","225-UY","2017/10/14 14:19:28","新北市五股區壟路16號","121.415356666667","25.0856366666667","6501500","五股區"
"234072","AAC-211","2017/10/14 14:39:39","新北市永和區環河東路一段124號","121.520691666667","25.0153933333333","6500400","永和區"
"231002","002-UM","2017/10/14 14:39:50","新北市新店區中正路468號","121.533993333333","24.9794433333333","6500600","新店區"
"231028","046-UY","2017/10/14 14:39:47","新北市新店區安德街60巷35號","121.511196666667","24.9637033333333","6500600","新店區"
"231030","047-UY","2017/10/14 14:39:40","新北市新店區安民街192號","121.517153333333","24.9715916666667","6500600","新店區"
"231029","106-UY","2017/10/14 14:39:37","新北市新店區安康路三段432號","121.485156666667","24.9515266666667","6500600","新店區"
"231012","108-UY","2017/10/14 14:39:45","新北市新店區寶橋路78巷2號","121.54693","24.97493","6500600","新店區"
"231018","110-UY","2017/10/14 14:39:49","新北市新店區中央五街30號","121.528783333333","24.9746116666667","6500600","新店區"
"231020","187-VK","2017/10/14 14:39:49","新北市新店區桂山路37號","121.56312","24.904435","6500600","新店區"
"231017","KEA-2219","2017/10/14 14:37:48","新北市新店區北宜路三段221號","121.592325","24.9532816666667","6500600","新店區"
"231023","AAD-862","2017/10/14 14:39:46","新北市新店區中興路一段138號","121.542266666667","24.9635316666667","6500600","新店區"
"231027","3712-VJ","2017/10/14 14:39:45","新北市新店區中正路76巷11弄13號","121.543885","24.97148","6500600","新店區"
"231025","4716-K9","2017/10/14 14:39:46","新北市新店區民族路161號","121.53761","24.9767683333333","6500600","新店區"
"231038","4715-K9","2017/10/14 14:39:44","新北市新店區安康路一段194號","121.52462","24.9633583333333","6500600","新店區"
"231036","513-UM","2017/10/14 14:39:51","新北市新店區安祥路106巷202號","121.474245","24.9602783333333","6500600","新店區"
"231035","515-UM","2017/10/14 14:39:49","新北市新店區安光路10號","121.513831666667","24.9638333333333","6500600","新店區"
"231006","617-UM","2017/10/14 14:39:46","新北市新店區北宜路二段103號","121.550268333333","24.9524283333333","6500600","新店區"
"231005","618-UM","2017/10/14 14:39:13","新北市新店區復興路102號","121.531668333333","24.9889183333333","6500600","新店區"
"231001","619-UM","2017/10/14 14:39:48","新北市新店區中正路86號","121.543495","24.9703416666667","6500600","新店區"
"231003","641-BX","2017/10/14 14:39:46","新北市新店區中正路2號","121.545883333333","24.9692733333333","6500600","新店區"
"231034","645-TV","2017/10/14 14:39:34","新北市新店區黎明路57巷1號","121.502406666667","24.9479116666667","6500600","新店區"
"231013","719-UM","2017/10/14 14:39:42","新北市新店區北新路二段139巷12弄2號","121.542161666667","24.9760283333333","6500600","新店區"
"231004","899-TW","2017/10/14 14:39:51","新北市新店區中正路296號","121.537668333333","24.9744083333333","6500600","新店區"
"235030","003-UY","2017/10/14 14:39:42","新北市中和區南工路50號","121.505853333333","25.001445","6500300","中和區"
"235028","005-UY","2017/10/14 14:39:39","新北市中和區圓通路40號","121.500913333333","24.9977366666667","6500300","中和區"
"235027","006-UY","2017/10/14 14:39:35","新北市中和區連城路263巷11弄1號","121.492505","24.99531","6500300","中和區"
"235020","096-UM","2017/10/14 14:39:32","新北市中和區員山路510號","121.479505","25.0091416666667","6500300","中和區"
"235003","097-UM","2017/10/14 14:39:44","新北市永和區中正路78號","121.513665","24.995215","6500300","中和區"
"235029","098-UM","2017/10/14 14:39:32","新北市中和區福祥路90巷5號","121.499531666667","25.0059433333333","6500300","中和區"
"235004","150-BY","2017/10/14 14:39:44","新北市中和區宜安路13號","121.513115","24.9954833333333","6500300","中和區"
"235022","151-BY","2017/10/14 14:39:38","新北市中和區員山路124巷9號","121.481808333333","24.9960333333333","6500300","中和區"
"235019","183-VK","2017/10/14 14:39:46","新北市中和區民生街12巷2號","121.470701666667","25.0056283333333","6500300","中和區"
"235002","185-VK","2017/10/14 14:39:41","新北市中和區自立路99巷1號","121.522041666667","24.9951083333333","6500300","中和區"
"235013","186-VK","2017/10/14 14:39:41","新北市中和區景新街267號","121.508913333333","24.9939016666667","6500300","中和區"
"235031","255-BX","2017/10/14 14:39:30","新北市中和區新生街186巷5弄3號","121.482925","24.9994366666667","6500300","中和區"
"235008","293-VK","2017/10/14 14:39:51","新北市中和區捷運路1號","121.509721666667","24.9893333333333","6500300","中和區"
"235036","301-VK","2017/10/14 14:39:42","新北市中和區中和路98號","121.501318333333","25.0003216666667","6500300","中和區"
"235007","352-BY","2017/10/14 14:39:50","新北市中和區南山路90號","121.502788333333","24.9949216666667","6500300","中和區"
"235032","375-QA","2017/10/14 14:39:38","新北市中和區中山路二段136巷3弄4號","121.501186666667","25.0035883333333","6500300","中和區"
"235015","376-QA","2017/10/14 14:39:34","新北市中和區南山路146巷7號","121.503461666667","24.992265","6500300","中和區"
"235025","378-QA","2017/10/14 14:39:42","新北市中和區員山路174巷9號","121.482","24.9999816666667","6500300","中和區"
"235014","4979-A6","2017/10/14 14:39:51","新北市中和區中正路273號","121.495641666667","24.993665","6500300","中和區"
"235006","551-UM","2017/10/14 14:39:34","新北市中和區中和路262巷49號","121.510153333333","25.0000333333333","6500300","中和區"
"235034","558-UM","2017/10/14 14:39:38","新北市中和區中和路139號","121.501951666667","24.99983","6500300","中和區"
"235009","565-BX","2017/10/14 14:39:42","新北市中和區景新街324號","121.511845","24.99119","6500300","中和區"
"235018","640-BX","2017/10/14 14:39:52","新北市中和區國光街102巷11弄24號","121.470643333333","25.0015466666667","6500300","中和區"
"235024","647-TV","2017/10/14 14:39:31","新北市中和區員山路294巷13號","121.48212","25.0023683333333","6500300","中和區"
"235011","732-UM","2017/10/14 14:39:48","新北市中和區南山路391號","121.50659","24.990265","6500300","中和區"
"235010","733-UM","2017/10/14 14:39:32","新北市中和區信義街113號","121.512106666667","24.9869133333333","6500300","中和區"
"235026","800-TS","2017/10/14 14:39:39","新北市中和區中山路二段329號","121.493133333333","25.00228","6500300","中和區"
"235021","801-TS","2017/10/14 14:39:42","新北市中和區員山路282號","121.481323333333","25.002165","6500300","中和區"
"235005","802-TS","2017/10/14 14:39:34","新北市中和區安平路74號","121.510941666667","24.99647","6500300","中和區"
"235016","805-TS","2017/10/14 14:39:35","新北市中和區興南路二段159巷31號","121.505601666667","24.98271","6500300","中和區"
"235012","896-TW","2017/10/14 14:39:31","新北市中和區忠孝街137號","121.512758333333","24.9882983333333","6500300","中和區"
"235017","900-TW","2017/10/14 14:39:48","新北市中和區民德路197號","121.469045","24.9983183333333","6500300","中和區"
"235035","911-UM","2017/10/14 14:39:46","新北市中和區立德街98巷109號","121.488846666667","25.0081566666667","6500300","中和區"
"235001","AAC-213","2017/10/14 14:39:44","新北市中和區秀朗路三段10巷29弄5號","121.525033333333","24.9960183333333","6500300","中和區"
"235023","AAC-215","2017/10/14 14:39:50","新北市中和區圓通路335巷1弄27號","121.49342","24.99064","6500300","中和區"
"220016","013-TV","2017/10/14 14:39:34","新北市板橋區中山路二段412巷9號","121.483321666667","25.020455","6500100","板橋區"
"220013","072-UY","2017/10/14 14:39:52","新北市板橋區實踐路93巷93號","121.467441666667","25.005885","6500100","板橋區"
"220034","073-UY","2017/10/14 14:39:35","新北市板橋區國光路181號","121.460871666667","25.0184116666667","6500100","板橋區"
"220105","075-UY","2017/10/14 14:39:33","新北市板橋區民治街26巷10號","121.477456666667","25.033825","6500100","板橋區"
"220017","AAD-861","2017/10/14 14:39:47","新北市板橋區貴興路106巷3號","121.45537","25.00258","6500100","板橋區"
"247011","546-UM","2017/10/14 14:39:38","新北市蘆洲區集賢路222-6號","121.48251","25.0866633333333","6501400","蘆洲區"
"247019","500-BY","2017/10/14 14:39:43","新北市蘆洲區民義街70號","121.473221666667","25.0898116666667","6501400","蘆洲區"
"247009","339-TH","2017/10/14 14:39:46","新北市蘆洲區中山一路40號","121.47958","25.080785","6501400","蘆洲區"
"247001","337-TH","2017/10/14 14:39:41","新北市蘆洲區長安街274巷3號","121.457731666667","25.0871033333333","6501400","蘆洲區"
"247003","336-TH","2017/10/14 14:39:35","新北市蘆洲區長安街283號","121.458268333333","25.0844016666667","6501400","蘆洲區"
"247015","057-VK","2017/10/14 14:39:46","新北市蘆洲區光華路65巷26號","121.468826666667","25.082045","6501400","蘆洲區"
"247005","056-VK","2017/10/14 14:39:38","新北市蘆洲區中華街40號","121.462308333333","25.0809666666667","6501400","蘆洲區"
"247007","053-VK","2017/10/14 14:39:36","新北市蘆洲區成功路52號","121.473028333333","25.07977","6501400","蘆洲區"
"247013","007-UY","2017/10/14 14:39:35","新北市蘆洲區得勝街50號","121.473245","25.0837066666667","6501400","蘆洲區"
"247023","002-UY","2017/10/14 14:39:48","新北市蘆洲區中山二路220號","121.469848333333","25.079835","6501400","蘆洲區"
"228005","097-TW","2017/10/14 14:39:42","新北市貢寮區美豐里雞母嶺街6-6號","121.902045","25.064255","6502600","貢寮區"
"228004","212-TW","2017/10/14 14:39:41","新北市貢寮區福隆里龜壽谷街30-1號","121.946991666667","25.0132033333333","6502600","貢寮區"
"227010","030-BX","2017/10/14 12:36:54","新北市雙溪區三貂里政光路3-1號","121.850941666667","25.06312","6502500","雙溪區"
"207002","749-BX","2017/10/14 14:39:33","新北市萬里區崁腳里崁腳路73號","121.647533333333","25.159625","6502800","萬里區"
"252005","073-UM","2017/10/14 14:39:43","新北市三芝區橫山里大坑98-1號","121.52609","25.2620066666667","6502100","三芝區"
"207001","662-BX","2017/10/14 14:39:48","新北市萬里區雙興里豐稟路26號","121.641291666667","25.1869416666667","6502800","萬里區"
"208004","170-UY","2017/10/14 14:39:40","新北市金山區兩湖里倒照湖37號","121.590513333333","25.2362516666667","6502700","金山區"
"236068","105-UM","2017/10/14 14:39:32","新北市土城區永豐路211-2號","121.474663333333","24.9759683333333","6501300","土城區"
"236041","107-UM","2017/10/14 14:39:44","新北市土城區裕民路55巷16號","121.449478333333","24.988625","6501300","土城區"
"236075","166-UM","2017/10/14 14:39:46","新北市土城區中央路四段52巷38號","121.41983","24.9608516666667","6501300","土城區"
"236029","253-BX","2017/10/14 14:39:36","新北市土城區中華路二段199號","121.43803","24.9741183333333","6501300","土城區"
"236025","269-VK","2017/10/14 14:39:43","新北市土城區千歲路13號","121.440906666667","24.969565","6501300","土城區"
"236013","270-VK","2017/10/14 14:39:36","新北市土城區清水路221號","121.460768333333","24.9822016666667","6501300","土城區"
"236035","271-VK","2017/10/14 14:39:38","新北市土城區明德路一段313巷3弄7號","121.4599","24.9765283333333","6501300","土城區"
"236017","401-BY","2017/10/14 14:39:39","新北市土城區永豐路8號","121.465541666667","24.9846966666667","6501300","土城區"
"236057","912-UM","2017/10/14 14:39:40","新北市土城區中央路三段205號","121.429961666667","24.964645","6501300","土城區"
"236045","913-UM","2017/10/14 14:39:47","新北市土城區明德路一段30號","121.465141666667","24.9847","6501300","土城區"
"236061","915-UM","2017/10/14 14:39:49","新北市土城區延壽路23號","121.471216666667","24.990855","6501300","土城區"
"236054","AAC-216","2017/10/14 14:39:42","新北市土城區中華路一段25號","121.44642","24.9891233333333","6501300","土城區"
"238001","282-BY","2017/10/14 14:08:57","新北市樹林區中山路三段204號","121.386791666667","24.9682033333333","6500700","樹林區"
"221012","276-VK","2017/10/14 13:23:34","新北市汐止區汐萬路一段256巷3號","121.653436666667","25.0746766666667","6501100","汐止區"
"220027","145-BY","2017/10/14 14:39:41","新北市板橋區復興街121號","121.460555","25.017955","6500100","板橋區"
"220028","200-UY","2017/10/14 14:39:41","新北市板橋區大觀路二段37巷182號","121.449755","25.0020883333333","6500100","板橋區"
"220030","610-BX","2017/10/14 14:39:48","新北市板橋區金門街65號","121.433173333333","24.992795","6500100","板橋區"
"220050","245-BX","2017/10/14 14:39:43","新北市板橋區莊敬路220巷31號","121.472431666667","25.0204616666667","6500100","板橋區"
"220040","267-BY","2017/10/14 14:39:42","新北市板橋區懷德街209巷16號","121.482028333333","25.02975","6500100","板橋區"
"220004","276-BY","2017/10/14 14:39:52","新北市板橋區四川路二段47巷3弄3號","121.454401666667","24.9947733333333","6500100","板橋區"
"220020","277-BY","2017/10/14 14:39:47","新北市板橋區金門街215巷85弄5號","121.433918333333","24.9889633333333","6500100","板橋區"
"220043","280-UM","2017/10/14 14:39:48","新北市板橋區宏國路103號","121.470051666667","25.0322716666667","6500100","板橋區"
"220064","282-UM","2017/10/14 14:39:40","新北市板橋區華東街1-9號","121.448165","24.9949133333333","6500100","板橋區"
"220019","283-VK","2017/10/14 14:39:45","新北市板橋區信義路69號","121.457093333333","24.9954683333333","6500100","板橋區"
"220001","285-VK","2017/10/14 14:39:51","新北市板橋區中山路二段148巷8號","121.476888333333","25.0166616666667","6500100","板橋區"
"220031","286-VK","2017/10/14 14:39:47","新北市板橋區龍興街65巷36號","121.442866666667","25.0017066666667","6500100","板橋區"
"220029","287-VK","2017/10/14 13:42:31","新北市板橋區大觀路288號","121.449463333333","24.99837","6500100","板橋區"
"220039","288-VK","2017/10/14 14:39:51","新北市板橋區龍泉街54巷8弄16號","121.45757","25.02702","6500100","板橋區"
"220009","293-UM","2017/10/14 14:39:50","新北市板橋區漢生東路113巷6弄2號","121.467648333333","25.01522","6500100","板橋區"
"220045","295-UM","2017/10/14 14:39:49","新北市板橋區莒光路40巷20號","121.470223333333","25.0234383333333","6500100","板橋區"
"220032","296-UM","2017/10/14 14:39:38","新北市板橋區滿平二街2巷1弄26號","121.424843333333","24.986985","6500100","板橋區"
"220023","297-UM","2017/10/14 14:39:37","新北市板橋區中正路253巷40號","121.454161666667","25.0177566666667","6500100","板橋區"
"220047","299-UM","2017/10/14 14:39:45","新北市板橋區裕民街95號","121.460275","25.027915","6500100","板橋區"
"220010","305-R5","2017/10/14 14:39:33","新北市板橋區三民路二段81巷25號","121.480438333333","25.0167483333333","6500100","板橋區"
"220041","307-R5","2017/10/14 14:39:47","新北市板橋區文化路一段387巷9號","121.466476666667","25.0219683333333","6500100","板橋區"
"220012","486-VK","2017/10/14 14:39:46","新北市板橋區縣民大道二段3號","121.462588333333","25.0122","6500100","板橋區"
"220038","487-VK","2017/10/14 14:39:38","新北市板橋區英士路194號","121.458411666667","25.02279","6500100","板橋區"
"220037","491-VK","2017/10/14 14:39:33","新北市板橋區文化路二段443號","121.475245","25.0331466666667","6500100","板橋區"
"220104","560-BX","2017/10/14 14:39:37","新北市板橋區金華街112號","121.458895","25.020835","6500100","板橋區"
"220052","561-BX","2017/10/14 14:39:42","新北市板橋區文化路一段288號","121.467361666667","25.0214683333333","6500100","板橋區"
"220011","609-BX","2017/10/14 14:39:38","新北市板橋區三民路一段31巷13號","121.479898333333","25.0231866666667","6500100","板橋區"
"220005","686-BX","2017/10/14 14:39:44","新北市板橋區國慶路160-3號","121.462013333333","24.99606","6500100","板橋區"
"220025","687-BX","2017/10/14 14:39:48","新北市板橋區僑中三街23號","121.445863333333","25.0046066666667","6500100","板橋區"
"220042","689-BX","2017/10/14 14:39:47","新北市板橋區新海路387號","121.45891","25.0262066666667","6500100","板橋區"
"220002","741-BX","2017/10/14 14:39:46","新北市板橋區忠孝路147號","121.46339","25.002405","6500100","板橋區"
"220003","827-TW","2017/10/14 14:39:36","新北市板橋區國慶路149巷1弄1-3號","121.46129","24.99655","6500100","板橋區"
"220014","829-TW","2017/10/14 14:39:31","新北市板橋區長安街140號","121.472716666667","25.01002","6500100","板橋區"
"220051","830-TW","2017/10/14 14:39:48","新北市板橋區雙十路二段46巷37號","121.476163333333","25.0290266666667","6500100","板橋區"
"220022","895-R6","2017/10/14 14:39:35","新北市板橋區府中路29-2號","121.458535","25.0080566666667","6500100","板橋區"
"220021","985-R7","2017/10/14 14:39:46","新北市板橋區中正路178號","121.45631","25.017455","6500100","板橋區"
"220046","AAC-210","2017/10/14 14:39:45","新北市板橋區漢生西路89巷2弄26號","121.46166","25.0198883333333","6500100","板橋區"
"220018","AAC-253","2017/10/14 14:39:38","新北市板橋區民族路171號","121.468455","25.0075416666667","6500100","板橋區"
