"lineid","car","time","location","longitude","latitude","cityid","cityname"
"234044","148-BY","2017/10/14 14:49:41","新北市八里區荖阡坑路34號","121.402488333333","25.1287816666667","6500400","永和區"
"234070","552-UM","2017/10/14 14:49:43","新北市中和區中和路472號","121.512346666667","25.0040283333333","6500400","永和區"
"234028","746-BX","2017/10/14 14:49:45","新北市永和區民族街178巷5弄2號","121.517506666667","24.9966916666667","6500400","永和區"
"234025","9371-KE","2017/10/14 14:49:41","新北市永和區雙和街25巷4號","121.508888333333","25.001895","6500400","永和區"
"248017","225-UY","2017/10/14 14:19:28","新北市五股區壟路16號","121.415356666667","25.0856366666667","6501500","五股區"
"231002","002-UM","2017/10/14 14:49:51","新北市新店區民權路46號","121.540143333333","24.9829783333333","6500600","新店區"
"231028","046-UY","2017/10/14 14:49:46","新北市新店區安德街173號","121.508741666667","24.9589216666667","6500600","新店區"
"231030","047-UY","2017/10/14 14:49:40","新北市新店區安民街325號","121.517366666667","24.9746316666667","6500600","新店區"
"231029","106-UY","2017/10/14 14:49:37","新北市新店區錦秀路11巷103號","121.480801666667","24.9445816666667","6500600","新店區"
"231012","108-UY","2017/10/14 14:49:45","新北市新店區永華街33巷2號","121.543808333333","24.976345","6500600","新店區"
"231018","110-UY","2017/10/14 14:49:49","新北市新店區中央路216-1號","121.529863333333","24.9732666666667","6500600","新店區"
"231020","187-VK","2017/10/14 14:49:45","新北市新店區新烏路二段50巷3號","121.548058333333","24.9284216666667","6500600","新店區"
"231017","KEA-2219","2017/10/14 14:49:48","新北市新店區北宜路三段86號","121.57773","24.9514316666667","6500600","新店區"
"231023","AAD-862","2017/10/14 14:49:46","新北市新店區檳榔路109號","121.544535","24.9615816666667","6500600","新店區"
"231027","3712-VJ","2017/10/14 14:49:43","新北市新店區中正路389號","121.534613333333","24.9771833333333","6500600","新店區"
"231024","3713-VJ","2017/10/14 14:49:36","新北市新店區新生街1號","121.540326666667","24.96561","6500600","新店區"
"231025","4716-K9","2017/10/14 14:49:46","新北市新店區建國路140號","121.538836666667","24.979015","6500600","新店區"
"231036","513-UM","2017/10/14 14:49:51","新北市新店區安祥路104巷6弄34號","121.483053333333","24.9629733333333","6500600","新店區"
"231035","515-UM","2017/10/14 14:49:49","新北市新店區安樂街1號","121.51973","24.973825","6500600","新店區"
"231006","617-UM","2017/10/14 14:49:54","新北市新店區北宜路一段170號","121.540723333333","24.9530183333333","6500600","新店區"
"231005","618-UM","2017/10/14 14:49:53","新北市新店區復興路2號","121.532368333333","24.9881983333333","6500600","新店區"
"231001","619-UM","2017/10/14 14:49:48","新北市新店區三民路189號","121.535335","24.9754616666667","6500600","新店區"
"231003","641-BX","2017/10/14 14:49:46","新北市新店區中興路二段33號","121.546218333333","24.9697616666667","6500600","新店區"
"231034","645-TV","2017/10/14 14:49:54","新北市新店區車子路1-1號","121.50471","24.9577","6500600","新店區"
"231039","718-UY","2017/10/14 14:49:49","新北市新店區安康路一段355號","121.519881666667","24.9634433333333","6500600","新店區"
"231004","899-TW","2017/10/14 14:49:47","新北市新店區建國路131號","121.539403333333","24.978145","6500600","新店區"
"235030","003-UY","2017/10/14 14:49:41","新北市中和區中山路二段12號","121.504975","25.0055966666667","6500300","中和區"
"235020","096-UM","2017/10/14 14:49:52","新北市中和區員山路581巷31弄1號","121.477203333333","25.010225","6500300","中和區"
"235003","097-UM","2017/10/14 14:49:44","新北市中和區安平路186號","121.512976666667","24.9990216666667","6500300","中和區"
"235029","098-UM","2017/10/14 14:49:53","新北市中和區莊敬路4號","121.499508333333","25.0043033333333","6500300","中和區"
"235004","150-BY","2017/10/14 14:49:44","新北市中和區安平路59號","121.509608333333","24.9950533333333","6500300","中和區"
"235022","151-BY","2017/10/14 14:49:49","新北市中和區員山路173號","121.481151666667","24.9970233333333","6500300","中和區"
"235019","183-VK","2017/10/14 14:49:46","新北市中和區民德路12號","121.468805","25.0027433333333","6500300","中和區"
"235002","185-VK","2017/10/14 14:49:40","新北市中和區大智街55巷30弄30號","121.521531666667","24.9932266666667","6500300","中和區"
"235013","186-VK","2017/10/14 14:49:41","新北市中和區中正路68-1號","121.501015","24.9936983333333","6500300","中和區"
"235031","255-BX","2017/10/14 14:49:50","新北市中和區新生街220巷31號","121.482263333333","24.9985283333333","6500300","中和區"
"235008","293-VK","2017/10/14 14:49:48","新北市中和區南山路359號","121.505951666667","24.99062","6500300","中和區"
"235036","301-VK","2017/10/14 14:49:55","新北市中和區連城路144巷4弄11號","121.495691666667","24.9989233333333","6500300","中和區"
"235007","352-BY","2017/10/14 14:49:50","新北市中和區安和路5-1號","121.511708333333","24.99355","6500300","中和區"
"235032","375-QA","2017/10/14 14:49:58","新北市中和區景平路736巷5弄11號","121.49774","25.0035083333333","6500300","中和區"
"235015","376-QA","2017/10/14 14:49:54","新北市中和區中興街180巷52弄3號","121.49844","24.98831","6500300","中和區"
"235025","378-QA","2017/10/14 14:49:42","新北市中和區員山路150-19號","121.481358333333","24.9978883333333","6500300","中和區"
"235014","4979-A6","2017/10/14 14:49:51","新北市中和區景平路241巷70號","121.507565","24.9921883333333","6500300","中和區"
"235033","4980-A6","2017/10/14 14:49:45","新北市中和區南山路37巷3弄15號","121.50255","24.9989016666667","6500300","中和區"
"235006","551-UM","2017/10/14 14:49:54","新北市中和區保健路7巷9號","121.508173333333","24.998885","6500300","中和區"
"235034","558-UM","2017/10/14 14:49:38","新北市中和區景平路666號","121.497295","25.0007566666667","6500300","中和區"
"235018","640-BX","2017/10/14 14:49:52","新北市中和區莒光路97號","121.472535","25.0030383333333","6500300","中和區"
"235024","647-TV","2017/10/14 14:49:51","新北市中和區員山路314巷7弄6號","121.482163333333","25.0031466666667","6500300","中和區"
"235011","732-UM","2017/10/14 14:49:48","新北市中和區和平街106號","121.507195","24.9913833333333","6500300","中和區"
"235010","733-UM","2017/10/14 14:49:52","新北市中和區仁愛街29號","121.510886666667","24.9887083333333","6500300","中和區"
"235026","800-TS","2017/10/14 14:49:39","新北市中和區立德街26巷15號","121.490176666667","25.00751","6500300","中和區"
"235021","801-TS","2017/10/14 14:49:42","新北市中和區員山路153-1號","121.481145","24.9963816666667","6500300","中和區"
"235016","805-TS","2017/10/14 14:49:55","新北市中和區興南路二段86號","121.505623333333","24.9845","6500300","中和區"
"235012","896-TW","2017/10/14 14:49:51","新北市中和區忠孝街1巷2-1號","121.509148333333","24.9830266666667","6500300","中和區"
"235017","900-TW","2017/10/14 14:49:49","新北市中和區國光街140巷7號","121.468465","25.0015383333333","6500300","中和區"
"235035","911-UM","2017/10/14 14:49:46","新北市中和區連城路280號","121.484458333333","24.9962983333333","6500300","中和區"
"235001","AAC-213","2017/10/14 14:49:44","新北市中和區秀朗路三段134-1號","121.52445","24.9917633333333","6500300","中和區"
"235023","AAC-215","2017/10/14 14:49:50","新北市中和區圓通路305巷5弄41號","121.494815","24.99032","6500300","中和區"
"220016","013-TV","2017/10/14 14:49:53","新北市板橋區中山路二段412巷34號","121.483893333333","25.0195733333333","6500100","板橋區"
"220013","072-UY","2017/10/14 14:49:52","新北市板橋區民族路222巷15號","121.468823333333","25.006765","6500100","板橋區"
"220034","073-UY","2017/10/14 14:49:55","新北市板橋區中正路166號","121.45647","25.0169533333333","6500100","板橋區"
"220105","075-UY","2017/10/14 14:49:53","新北市板橋區民治街61巷27號","121.480533333333","25.0335533333333","6500100","板橋區"
"220017","AAD-861","2017/10/14 14:49:47","新北市板橋區貴興路62號","121.45663","25.0029983333333","6500100","板橋區"
"247011","546-UM","2017/10/14 14:49:38","新北市五股區中興路二段182巷18-1號","121.456456666667","25.0818816666667","6501400","蘆洲區"
"247009","339-TH","2017/10/14 14:49:46","新北市五股區新城三路61號","121.449438333333","25.0945266666667","6501400","蘆洲區"
"247001","337-TH","2017/10/14 14:49:47","新北市蘆洲區永康街2巷10號","121.459343333333","25.086325","6501400","蘆洲區"
"247015","057-VK","2017/10/14 14:49:46","新北市蘆洲區和平路178號","121.466396666667","25.0814","6501400","蘆洲區"
"247023","002-UY","2017/10/14 14:49:46","新北市蘆洲區中山二路262號","121.469178333333","25.0787283333333","6501400","蘆洲區"
"228005","097-TW","2017/10/14 14:49:42","新北市貢寮區美豐里丹裡街59-2號","121.910616666667","25.058545","6502600","貢寮區"
"228004","212-TW","2017/10/14 14:49:41","新北市貢寮區福隆里裕隆街5號","121.946143333333","25.0159383333333","6502600","貢寮區"
"227010","400-TW","2017/10/14 14:44:52","新北市雙溪區三貂里政光路3-1號","121.850845","25.0632216666667","6502500","雙溪區"
"227010","030-BX","2017/10/14 12:36:54","新北市雙溪區三貂里政光路3-1號","121.850941666667","25.06312","6502500","雙溪區"
"207002","749-BX","2017/10/14 14:49:53","新北市萬里區崁腳里崁腳路73號","121.647521666667","25.1596666666667","6502800","萬里區"
"252005","073-UM","2017/10/14 14:49:43","新北市三芝區茂長里陳厝坑16號","121.518168333333","25.2555216666667","6502100","三芝區"
"207001","662-BX","2017/10/14 14:49:48","新北市萬里區雙興里二坪路5-1號","121.649131666667","25.1753883333333","6502800","萬里區"
"208004","170-UY","2017/10/14 14:49:50","新北市金山區半嶺3號","121.616593333333","25.2348583333333","6502700","金山區"
"236068","105-UM","2017/10/14 14:49:53","新北市土城區金城路二段354巷4號","121.460976666667","24.984995","6501300","土城區"
"236041","107-UM","2017/10/14 14:49:42","新北市土城區裕民路136巷2弄2號","121.451323333333","24.9860433333333","6501300","土城區"
"236075","166-UM","2017/10/14 14:49:45","新北市土城區中央路四段185巷32弄1號","121.415831666667","24.9558266666667","6501300","土城區"
"236029","253-BX","2017/10/14 14:49:36","新北市土城區忠義路26巷10號","121.439795","24.9698916666667","6501300","土城區"
"236025","269-VK","2017/10/14 14:49:43","新北市土城區慶安街24號","121.441608333333","24.9734166666667","6501300","土城區"
"236013","270-VK","2017/10/14 14:49:56","新北市土城區清水路276號","121.46204","24.9834633333333","6501300","土城區"
"236035","271-VK","2017/10/14 14:49:38","新北市土城區明德路一段221巷9號","121.463738333333","24.9780366666667","6501300","土城區"
"236017","401-BY","2017/10/14 14:49:39","新北市土城區延安街25號","121.46761","24.9852816666667","6501300","土城區"
"236057","912-UM","2017/10/14 14:49:40","新北市土城區金城路一段118號","121.445831666667","24.9744983333333","6501300","土城區"
"236045","913-UM","2017/10/14 14:49:50","新北市土城區青雲路35號","121.4601","24.9886716666667","6501300","土城區"
"236061","915-UM","2017/10/14 14:49:52","新北市土城區金城路三段207巷8弄7號","121.470071666667","24.99041","6501300","土城區"
"236054","AAC-216","2017/10/14 14:49:42","新北市土城區裕民路177號","121.453328333333","24.984735","6501300","土城區"
"238001","282-BY","2017/10/14 14:08:57","新北市樹林區中山路三段204號","121.386791666667","24.9682033333333","6500700","樹林區"
"221012","276-VK","2017/10/14 13:23:34","新北市汐止區汐萬路一段256巷3號","121.653436666667","25.0746766666667","6501100","汐止區"
"220027","145-BY","2017/10/14 14:49:41","新北市板橋區中正路183巷48號","121.4549","25.0160016666667","6500100","板橋區"
"220028","200-UY","2017/10/14 14:49:39","新北市板橋區大觀路二段37巷29號","121.448225","25.002665","6500100","板橋區"
"220030","610-BX","2017/10/14 14:49:56","新北市板橋區篤行路一段22號","121.431936666667","24.9942766666667","6500100","板橋區"
"220050","245-BX","2017/10/14 14:49:58","新北市板橋區莊敬路256號","121.474018333333","25.02165","6500100","板橋區"
"220040","267-BY","2017/10/14 14:49:42","新北市板橋區懷德街127巷21號","121.479556666667","25.0312733333333","6500100","板橋區"
"220020","277-BY","2017/10/14 14:49:54","新北市板橋區金門街131號","121.433091666667","24.9912566666667","6500100","板橋區"
"220043","280-UM","2017/10/14 14:49:55","新北市板橋區長江路一段103號","121.459495","25.029615","6500100","板橋區"
"220064","282-UM","2017/10/14 14:49:40","新北市板橋區華東街1-9號","121.448138333333","24.9949066666667","6500100","板橋區"
"220019","283-VK","2017/10/14 14:49:45","新北市板橋區五權街32巷5號","121.464663333333","24.99307","6500100","板橋區"
"220001","285-VK","2017/10/14 14:49:49","新北市板橋區中山路二段60巷1弄11號","121.474653333333","25.0155733333333","6500100","板橋區"
"220031","286-VK","2017/10/14 14:49:47","新北市板橋區僑中二街10巷2號","121.447038333333","25.0109583333333","6500100","板橋區"
"220029","287-VK","2017/10/14 13:42:31","新北市板橋區大觀路288號","121.449463333333","24.99837","6500100","板橋區"
"220039","288-VK","2017/10/14 14:49:51","新北市板橋區龍泉街127號","121.457303333333","25.0239766666667","6500100","板橋區"
"220009","293-UM","2017/10/14 14:49:50","新北市板橋區觀光街1巷2號","121.472108333333","25.0154916666667","6500100","板橋區"
"220045","295-UM","2017/10/14 14:49:56","新北市板橋區莒光路39巷22號","121.471171666667","25.0251916666667","6500100","板橋區"
"220032","296-UM","2017/10/14 14:49:59","新北市板橋區滿平街2巷4號","121.425988333333","24.9901483333333","6500100","板橋區"
"220023","297-UM","2017/10/14 14:49:43","新北市板橋區大勇街4號","121.455623333333","25.0177066666667","6500100","板橋區"
"220047","299-UM","2017/10/14 14:49:45","新北市板橋區新海路385巷20號","121.458025","25.0256733333333","6500100","板橋區"
"220010","305-R5","2017/10/14 14:49:53","新北市板橋區三民路二段81巷27弄31號","121.481345","25.017675","6500100","板橋區"
"220041","307-R5","2017/10/14 14:49:56","新北市板橋區四維路259巷4號","121.462958333333","25.0280533333333","6500100","板橋區"
"220012","486-VK","2017/10/14 14:49:06","新北市板橋區中山路一段1號","121.459555","25.007525","6500100","板橋區"
"220038","487-VK","2017/10/14 14:49:38","新北市板橋區龍泉街137號","121.457741666667","25.0239916666667","6500100","板橋區"
"220037","491-VK","2017/10/14 14:49:52","新北市板橋區文聖街42號","121.476516666667","25.0313016666667","6500100","板橋區"
"220104","560-BX","2017/10/14 14:49:57","新北市板橋區新生街28號","121.456121666667","25.0211633333333","6500100","板橋區"
"220052","561-BX","2017/10/14 14:49:43","新北市板橋區陽明街29巷10號","121.464838333333","25.0219616666667","6500100","板橋區"
"220011","609-BX","2017/10/14 14:49:38","新北市板橋區林森街3巷2弄5號","121.482541666667","25.0236283333333","6500100","板橋區"
"220005","686-BX","2017/10/14 14:49:44","新北市板橋區干城路167號","121.461146666667","24.9915983333333","6500100","板橋區"
"220025","687-BX","2017/10/14 14:49:55","新北市板橋區僑中一街102巷1弄16號","121.445955","25.01219","6500100","板橋區"
"220042","689-BX","2017/10/14 14:49:47","新北市板橋區長江路一段405號","121.462561666667","25.030955","6500100","板橋區"
"220002","741-BX","2017/10/14 14:49:46","新北市板橋區實踐路106號","121.464058333333","25.00468","6500100","板橋區"
"220003","827-TW","2017/10/14 14:49:36","新北市板橋區仁愛路62巷15弄1號","121.459948333333","24.99852","6500100","板橋區"
"220014","829-TW","2017/10/14 14:49:51","新北市板橋區長安街331巷91-2號","121.472","25.0127","6500100","板橋區"
"220051","830-TW","2017/10/14 14:49:48","新北市板橋區仁化街67號","121.475618333333","25.0318466666667","6500100","板橋區"
"220022","895-R6","2017/10/14 14:49:43","新北市板橋區縣民大道一段297號","121.460991666667","25.01081","6500100","板橋區"
"220021","985-R7","2017/10/14 14:49:56","新北市板橋區南雅西路二段160號","121.451776666667","25.013515","6500100","板橋區"
"220046","AAC-210","2017/10/14 14:49:54","新北市板橋區文化路一段285巷2號","121.464463333333","25.0189066666667","6500100","板橋區"
"220018","AAC-253","2017/10/14 14:49:50","新北市板橋區民族路99號","121.466558333333","25.0082233333333","6500100","板橋區"
