"lineid","car","time","location","longitude","latitude","cityid","cityname"
"231018","110-UY","2017/10/14 16:19:49","新北市新店區中正路700巷26號","121.535503333333","24.9912166666667","6500600","新店區"
"231046","278-BY","2017/10/14 16:19:36","新北市新店區灣潭路3-3號","121.538218333333","24.95079","6500600","新店區"
"241011","013-R5","2017/10/14 16:19:31","新北市三重區三和路三段11巷3弄2號","121.496496666667","25.0706866666667","6500200","三重區"
"241028","022-UY","2017/10/14 16:19:42","新北市三重區正義南路169號","121.498946666667","25.0574966666667","6500200","三重區"
"241008","059-VK","2017/10/14 16:19:37","新北市三重區永福街122-2號","121.478995","25.0753516666667","6500200","三重區"
"241031","061-VK","2017/10/14 16:19:42","新北市三重區重陽路一段49號","121.486788333333","25.058195","6500200","三重區"
"241015","062-VK","2017/10/14 16:19:51","新北市三重區福德北路89號","121.501911666667","25.0662283333333","6500200","三重區"
"241017","063-VK","2017/10/14 16:19:47","新北市三重區大同北路83號","121.494915","25.0636516666667","6500200","三重區"
"241024","065-VK","2017/10/14 16:19:44","新北市三重區中正北路206號","121.482563333333","25.0673416666667","6500200","三重區"
"241026","066-VK","2017/10/14 16:19:45","新北市三重區正義南路38號","121.498215","25.0609","6500200","三重區"
"241002","090-VK","2017/10/14 16:19:38","新北市三重區仁義街101巷12號","121.498581666667","25.0797183333333","6500200","三重區"
"241003","091-VK","2017/10/14 16:19:52","新北市三重區五華街63巷18號","121.493906666667","25.0833183333333","6500200","三重區"
"241009","156-TC","2017/10/14 16:19:46","新北市三重區三和路四段384號","121.48251","25.0788366666667","6500200","三重區"
"241005","262-UM","2017/10/14 16:19:38","新北市三重區溪尾街300-2號","121.487436666667","25.0837183333333","6500200","三重區"
"241016","266-UM","2017/10/14 16:19:32","新北市三重區大仁街37號","121.492935","25.0654266666667","6500200","三重區"
"241022","267-UM","2017/10/14 16:19:49","新北市三重區新北大道一段7號","121.4899","25.0616283333333","6500200","三重區"
"241018","268-UM","2017/10/14 16:19:34","新北市三重區重陽路三段142-1號","121.489465","25.0672516666667","6500200","三重區"
"241013","270-UM","2017/10/14 16:19:52","新北市三重區三和路三段83巷9-2號","121.495245","25.072275","6500200","三重區"
"241025","271-UM","2017/10/14 16:19:45","新北市三重區中正北路560巷100弄2號","121.472446666667","25.06824","6500200","三重區"
"241007","398-BY","2017/10/14 16:19:39","新北市三重區三和路四段163巷83號","121.486135","25.0794433333333","6500200","三重區"
"241020","413-TH","2017/10/14 16:19:34","新北市三重區車路頭街17巷16號","121.484341666667","25.0705716666667","6500200","三重區"
"241019","478-VK","2017/10/14 16:19:37","新北市三重區重陽路三段180號","121.49008","25.06801","6500200","三重區"
"241014","543-UM","2017/10/14 16:19:43","新北市三重區龍濱路64號","121.50255","25.0692783333333","6500200","三重區"
"241023","545-UM","2017/10/14 16:19:34","新北市三重區忠孝路二段148號","121.482623333333","25.0681016666667","6500200","三重區"
"241001","547-UM","2017/10/14 16:19:34","新北市三重區自強路四段87號","121.491078333333","25.07936","6500200","三重區"
"241006","AAD-863","2017/10/14 16:19:36","新北市三重區永福街46巷29號","121.482193333333","25.0775483333333","6500200","三重區"
"241004","887-TS","2017/10/14 16:19:34","新北市三重區自強路五段65號","121.494831666667","25.0819366666667","6500200","三重區"
"241012","941-UM","2017/10/14 16:19:46","新北市三重區文化北路248號","121.49734","25.07002","6500200","三重區"
"241029","942-UM","2017/10/14 16:19:50","新北市三重區泉州街96巷14號","121.495496666667","25.0541283333333","6500200","三重區"
"241033","AAC-255","2017/10/14 16:19:36","新北市三重區五谷王南街2號","121.474945","25.0471483333333","6500200","三重區"
"247012","546-UM","2017/10/14 15:51:23","新北市五股區中興路三段163號","121.4492","25.080775","6501400","蘆洲區"
"224008","275-VK","2017/10/14 16:19:54","新北市瑞芳區傑魚坑路8號","121.794928333333","25.1104566666667","6501200","瑞芳區"
"224007","273-VK","2017/10/14 16:19:21","新北市瑞芳區大埔路176號","121.762285","25.10226","6501200","瑞芳區"
"224005","271-BY","2017/10/14 16:19:35","新北市瑞芳區瑞濱路185號","121.81644","25.1135883333333","6501200","瑞芳區"
"227002","642-TC","2017/10/14 16:19:50","新北市雙溪區上林里內平林80號","121.828253333333","25.0279333333333","6502500","雙溪區"
"227010","400-TW","2017/10/14 16:19:39","新北市雙溪區三港里雙澳路80號","121.883801666667","25.0538783333333","6502500","雙溪區"
"227010","030-BX","2017/10/14 12:36:54","新北市雙溪區三貂里政光路3-1號","121.850941666667","25.06312","6502500","雙溪區"
"251008","181-VK","2017/10/14 16:19:49","新北市淡水區中正東路二段88巷41號","121.45963","25.1427133333333","6501000","淡水區"
"252007","AAC-283","2017/10/14 16:19:00","新北市三芝區埔坪里埔頭坑41號","121.504518333333","25.2644316666667","6502100","三芝區"
"238001","282-BY","2017/10/14 14:08:57","新北市樹林區中山路三段204號","121.386791666667","24.9682033333333","6500700","樹林區"
"221012","276-VK","2017/10/14 13:23:34","新北市汐止區汐萬路一段256巷3號","121.653436666667","25.0746766666667","6501100","汐止區"
"220050","245-BX","2017/10/14 16:19:34","新北市板橋區溪城路90-2號","121.429251666667","24.9804266666667","6500100","板橋區"
"220064","282-UM","2017/10/14 16:19:40","新北市板橋區華東街1-9號","121.448163333333","24.9948383333333","6500100","板橋區"
"220001","285-VK","2017/10/14 16:19:35","新北市五股區芳洲八路98號","121.447615","25.0870583333333","6500100","板橋區"
