"lineid","car","time","location","longitude","latitude","cityid","cityname"
"249005","172-UM","2017/10/14 16:49:56","新北市八里區大堀湖2-3號","121.422453333333","25.1537216666667","6502300","八里區"
"249001","173-UM","2017/10/14 16:49:45","新北市八里區中山路一段5號","121.422781666667","25.1589266666667","6502300","八里區"
"249004","303-UY","2017/10/14 16:49:46","新北市八里區中路50-1號","121.4047","25.1564433333333","6502300","八里區"
"249002","305-UY","2017/10/14 16:40:33","新北市八里區牛寮埔31號","121.429828333333","25.145685","6502300","八里區"
"249003","593-UM","2017/10/14 16:49:39","新北市八里區博物館路201號","121.40499","25.1561283333333","6502300","八里區"
"231018","110-UY","2017/10/14 16:49:49","新北市新店區安華路16號","121.516965","24.95809","6500600","新店區"
"231046","278-BY","2017/10/14 16:49:55","新北市新店區灣潭路15-8號","121.54103","24.93917","6500600","新店區"
"241011","013-R5","2017/10/14 16:49:51","新北市三重區仁愛街53巷135號","121.499316666667","25.07255","6500200","三重區"
"241028","022-UY","2017/10/14 16:49:42","新北市三重區光興街91號","121.497405","25.0599316666667","6500200","三重區"
"241008","059-VK","2017/10/14 16:49:57","新北市三重區永安北路一段11巷18弄4號","121.47718","25.0750516666667","6500200","三重區"
"241031","061-VK","2017/10/14 16:49:42","新北市三重區過圳街42-1號","121.488345","25.05966","6500200","三重區"
"241015","062-VK","2017/10/14 16:49:51","新北市三重區文化北路43巷22號","121.499475","25.06559","6500200","三重區"
"241017","063-VK","2017/10/14 16:49:47","新北市三重區國隆路8巷25號","121.492841666667","25.0634816666667","6500200","三重區"
"241024","065-VK","2017/10/14 16:49:44","新北市三重區國道路一段139號","121.475546666667","25.0737066666667","6500200","三重區"
"241026","066-VK","2017/10/14 16:49:45","新北市三重區文化南路8-4號","121.500335","25.0620716666667","6500200","三重區"
"241002","090-VK","2017/10/14 16:49:58","新北市三重區仁義街180號","121.496721666667","25.0812966666667","6500200","三重區"
"241003","091-VK","2017/10/14 16:49:52","新北市三重區五華街87巷40-1號","121.493325","25.0841516666667","6500200","三重區"
"241009","156-TC","2017/10/14 16:49:45","新北市三重區三和路四段203巷120號","121.485376666667","25.0804016666667","6500200","三重區"
"241005","262-UM","2017/10/14 16:49:53","新北市三重區仁華街62巷6號","121.483883333333","25.082995","6500200","三重區"
"241016","266-UM","2017/10/14 16:49:52","新北市三重區大同北路89號","121.494665","25.063935","6500200","三重區"
"241022","267-UM","2017/10/14 16:49:49","新北市三重區貴陽街47巷2弄9號","121.484875","25.0631416666667","6500200","三重區"
"241018","268-UM","2017/10/14 16:49:54","新北市三重區安慶街149巷15號","121.494263333333","25.069275","6500200","三重區"
"241032","269-UM","2017/10/14 16:49:41","新北市三重區三光街30巷1號","121.484818333333","25.0604633333333","6500200","三重區"
"241013","270-UM","2017/10/14 16:49:52","新北市三重區三和路三段101巷88號","121.496945","25.07322","6500200","三重區"
"241025","271-UM","2017/10/14 16:49:44","新北市三重區中正北路532號","121.471956666667","25.0717616666667","6500200","三重區"
"241007","398-BY","2017/10/14 16:49:39","新北市三重區三和路四段181巷62號","121.48402","25.0794316666667","6500200","三重區"
"241020","413-TH","2017/10/14 16:49:55","新北市三重區忠孝路二段51號","121.485633333333","25.0709816666667","6500200","三重區"
"241019","478-VK","2017/10/14 16:49:37","新北市三重區忠孝路二段38巷18號","121.485701666667","25.0700783333333","6500200","三重區"
"241030","480-VK","2017/10/14 16:49:37","新北市三重區環河南路222號","121.492513333333","25.05176","6500200","三重區"
"241014","543-UM","2017/10/14 16:49:43","新北市三重區長榮路75號","121.502646666667","25.0691033333333","6500200","三重區"
"241023","545-UM","2017/10/14 16:49:53","新北市三重區新北大道一段206巷15號","121.482463333333","25.062535","6500200","三重區"
"241001","547-UM","2017/10/14 16:49:54","新北市三重區仁政街54巷39號","121.492021666667","25.0766816666667","6500200","三重區"
"241006","AAD-863","2017/10/14 16:49:56","新北市三重區力行路二段182-3號","121.483436666667","25.07749","6500200","三重區"
"241004","887-TS","2017/10/14 16:49:54","新北市三重區仁愛街397巷1號","121.491393333333","25.0810833333333","6500200","三重區"
"241012","941-UM","2017/10/14 16:49:46","新北市三重區仁興街11巷40號","121.50078","25.0743883333333","6500200","三重區"
"241029","942-UM","2017/10/14 16:49:50","新北市三重區集美街207巷22號","121.492328333333","25.0541266666667","6500200","三重區"
"241033","AAC-255","2017/10/14 16:49:56","新北市三重區新北大道二段121號","121.466513333333","25.06124","6500200","三重區"
"247012","546-UM","2017/10/14 16:49:42","新北市蘆洲區民族路422巷82弄11-2號","121.474073333333","25.0945883333333","6501400","蘆洲區"
"247010","339-TH","2017/10/14 16:49:51","新北市蘆洲區信義路233號","121.479161666667","25.0839616666667","6501400","蘆洲區"
"247004","336-TH","2017/10/14 16:49:54","新北市蘆洲區長榮路151號","121.461793333333","25.0839766666667","6501400","蘆洲區"
"247016","057-VK","2017/10/14 16:49:44","新北市蘆洲區中正路147號","121.469135","25.0846533333333","6501400","蘆洲區"
"247006","056-VK","2017/10/14 16:49:57","新北市蘆洲區永安南路二段150號","121.461991666667","25.078805","6501400","蘆洲區"
"247008","053-VK","2017/10/14 16:49:52","新北市蘆洲區中山二路45巷30號","121.474301666667","25.081205","6501400","蘆洲區"
"247014","007-UY","2017/10/14 16:49:47","新北市蘆洲區三民路89號","121.474233333333","25.0846","6501400","蘆洲區"
"228003","097-TW","2017/10/14 16:49:58","新北市貢寮區貢寮里朝陽街1-2號","121.912328333333","25.021265","6502600","貢寮區"
"228002","585-TW","2017/10/14 16:49:50","新北市貢寮區貢寮里長潭街25號","121.89893","25.0238916666667","6502600","貢寮區"
"224010","AGQ-8101","2017/10/14 08:43:09","新北市瑞芳區民權街3-1號","121.809456666667","25.108255","6501200","瑞芳區"
"224006","676-BX","2017/10/14 16:49:44","新北市瑞芳區大寮路356號","121.784691666667","25.1029966666667","6501200","瑞芳區"
"224009","285-BY","2017/10/14 16:49:49","新北市瑞芳區中山路157號","121.802106666667","25.1064983333333","6501200","瑞芳區"
"224008","275-VK","2017/10/14 16:49:54","新北市瑞芳區逢甲路20-1號","121.80935","25.1084166666667","6501200","瑞芳區"
"224007","273-VK","2017/10/14 16:49:41","新北市瑞芳區中央路48巷174號","121.759115","25.1033266666667","6501200","瑞芳區"
"224005","271-BY","2017/10/14 16:49:55","新北市瑞芳區明里路90號","121.867701666667","25.1220033333333","6501200","瑞芳區"
"227002","642-TC","2017/10/14 16:49:50","新北市雙溪區外柑里外柑腳71號","121.80712","25.0176216666667","6502500","雙溪區"
"227010","400-TW","2017/10/14 16:49:39","新北市雙溪區牡丹里五分10號","121.86658","25.0471","6502500","雙溪區"
"227010","030-BX","2017/10/14 12:36:54","新北市雙溪區三貂里政光路3-1號","121.850941666667","25.06312","6502500","雙溪區"
"251014","180-VK","2017/10/14 16:49:56","新北市淡水區淡金路三段446號","121.450716666667","25.2144283333333","6501000","淡水區"
"251008","181-VK","2017/10/14 16:49:49","新北市淡水區樹梅坑24號","121.474555","25.1430666666667","6501000","淡水區"
"251010","413-VK","2017/10/14 16:49:37","新北市淡水區中正路二段31號","121.419396666667","25.1815283333333","6501000","淡水區"
"251012","441-VK","2017/10/14 16:49:40","新北市淡水區中正路二段31號","121.419678333333","25.18156","6501000","淡水區"
"251016","442-VK","2017/10/14 16:49:44","新北市淡水區水頭42號","121.478118333333","25.1850883333333","6501000","淡水區"
"251007","577-R6","2017/10/14 16:49:45","新北市淡水區中正路二段31號","121.419183333333","25.18191","6501000","淡水區"
"252002","178-VK","2017/10/14 16:49:41","新北市三芝區忠孝街173號","121.505415","25.261365","6502100","三芝區"
"252001","292-VK","2017/10/14 16:49:46","新北市三芝區淡金路二段76-1號","121.503921666667","25.2608466666667","6502100","三芝區"
"252007","AAC-283","2017/10/14 16:19:00","新北市三芝區埔坪里埔頭坑41號","121.504518333333","25.2644316666667","6502100","三芝區"
"242002","442-UM","2017/10/14 15:30:47","新北市新莊區三和路12-21號","121.441966666667","25.03877","6500500","新莊區"
"242046","172-VK","2017/10/14 04:38:09","新北市新莊區三和路12-21號","121.442051666667","25.03878","6500500","新莊區"
"238025","303-VK","2017/10/14 16:49:58","新北市樹林區育德街78-1號","121.387433333333","24.9683033333333","6500700","樹林區"
"238001","282-BY","2017/10/14 16:49:42","新北市樹林區中山路三段204號","121.386745","24.9681666666667","6500700","樹林區"
"239007","AAC-297","2017/10/14 04:40:24","新北市鶯歌區二甲路13-16號","121.344886666667","24.9352566666667","6500800","鶯歌區"
"239008","527-UM","2017/10/14 02:31:50","新北市鶯歌區二甲路13-16號","121.344675","24.9354233333333","6500800","鶯歌區"
"239005","526-UM","2017/10/14 11:24:55","新北市鶯歌區二甲路13-16號","121.345111666667","24.9353033333333","6500800","鶯歌區"
"239002","359-BY","2017/10/13 20:40:44","新北市鶯歌區二甲路13-16號","121.345186666667","24.9349933333333","6500800","鶯歌區"
"221012","276-VK","2017/10/14 13:23:34","新北市汐止區汐萬路一段256巷3號","121.653436666667","25.0746766666667","6501100","汐止區"
"220064","282-UM","2017/10/14 16:49:40","新北市板橋區華東街1-9號","121.448175","24.9948566666667","6500100","板橋區"
