"lineid","car","time","location","longitude","latitude","cityid","cityname"
"234026","9371-KE","2017/10/14 18:09:48","新北市永和區秀朗路一段10巷19號","121.513453333333","25.0061233333333","6500400","永和區"
"234011","9373-KE","2017/10/14 18:09:52","新北市永和區福和路1號","121.525468333333","25.0093733333333","6500400","永和區"
"249005","172-UM","2017/10/14 18:09:36","新北市八里區荖阡坑路15號","121.401633333333","25.1398033333333","6502300","八里區"
"249001","173-UM","2017/10/14 18:09:44","新北市八里區龍米路二段36號","121.448545","25.1401683333333","6502300","八里區"
"249004","303-UY","2017/10/14 18:09:46","新北市八里區龍米路二段200巷3號","121.433755","25.1587933333333","6502300","八里區"
"249002","305-UY","2017/10/14 18:09:53","新北市八里區龍米路一段356巷40號","121.452178333333","25.1305533333333","6502300","八里區"
"249003","593-UM","2017/10/14 18:09:39","新北市八里區中華路二段165巷21號","121.408768333333","25.150455","6502300","八里區"
"248014","025-BX","2017/10/14 18:09:38","新北市五股區成泰路一段189巷32弄1號","121.43346","25.07645","6501500","五股區"
"248006","077-UY","2017/10/14 18:09:46","新北市五股區中興路二段89號","121.460483333333","25.0774283333333","6501500","五股區"
"248008","095-VK","2017/10/14 18:09:39","新北市五股區更洲路32巷8弄35-9號","121.459866666667","25.0794816666667","6501500","五股區"
"248020","225-UY","2017/10/14 18:09:37","新北市五股區成泰路三段436號","121.455315","25.0972883333333","6501500","五股區"
"248004","677-BX","2017/10/14 18:09:53","新北市五股區新五路二段258號","121.440926666667","25.0823616666667","6501500","五股區"
"248002","678-BX","2017/10/14 18:09:51","新北市五股區新五路二段367號","121.44435","25.0880166666667","6501500","五股區"
"232011","375-UM","2017/10/14 18:09:52","新北市坪林區水柳腳1號","121.711683333333","24.9352083333333","6502000","坪林區"
"244013","069-UM","2017/10/14 18:09:48","新北市林口區中山路32號","121.395855","25.0784466666667","6501700","林口區"
"244007","080-UY","2017/10/14 18:09:33","新北市林口區林口路124巷10弄11號","121.389286666667","25.081485","6501700","林口區"
"244019","403-UM","2017/10/14 18:09:46","新北市林口區文化一路一段22巷17號","121.371283333333","25.06768","6501700","林口區"
"244025","742-UY","2017/10/14 18:09:48","新北市林口區文化北路一段299巷69號","121.358963333333","25.0725483333333","6501700","林口區"
"244009","410-SL","2017/10/14 18:09:53","新北市林口區佳林路56巷6弄5號","121.38575","25.0820666666667","6501700","林口區"
"244023","483-VK","2017/10/14 18:09:50","新北市林口區隆林街215巷23號","121.3835","25.0736233333333","6501700","林口區"
"244017","485-VK","2017/10/14 18:09:42","新北市林口區忠孝路496號","121.370555","25.07029","6501700","林口區"
"244011","656-BX","2017/10/14 18:09:48","新北市林口區中正路74巷5弄4號","121.39451","25.0780083333333","6501700","林口區"
"244021","838-TS","2017/10/14 18:09:51","新北市林口區自強三街21號","121.397685","25.07735","6501700","林口區"
"243013","AAD-798","2017/10/14 18:09:43","新北市泰山區犁頭窠18號","121.420253333333","25.049925","6501600","泰山區"
"222003","436-BY","2017/10/14 18:09:50","新北市深坑區腳坑2-3號","121.611225","24.9961383333333","6501800","深坑區"
"222001","628-TS","2017/10/14 18:09:52","新北市深坑區深南路88巷1號","121.621165","25.0117083333333","6501800","深坑區"
"222002","659-BX","2017/10/14 18:09:47","新北市深坑區文化街42號","121.619046666667","25.0016033333333","6501800","深坑區"
"231041","002-UM","2017/10/14 18:09:35","新北市新店區安華路28-1號","121.519671666667","24.9608183333333","6500600","新店區"
"231060","106-UY","2017/10/14 18:09:45","新北市新店區安華路28-1號","121.519848333333","24.960725","6500600","新店區"
"231048","108-UY","2017/10/14 18:09:54","新北市新店區安華路28-1號","121.519441666667","24.9610083333333","6500600","新店區"
"231052","187-VK","2017/10/14 18:09:49","新北市新店區安華路28-1號","121.519533333333","24.9610833333333","6500600","新店區"
"231046","278-BY","2017/10/14 18:09:36","新北市新店區直潭七街60號","121.532263333333","24.9399","6500600","新店區"
"231058","3712-VJ","2017/10/14 18:09:39","新北市新店區安華路1-1號","121.519041666667","24.96054","6500600","新店區"
"231056","4716-K9","2017/10/14 18:09:40","新北市新店區安康路一段355-3號","121.519735","24.9618016666667","6500600","新店區"
"231065","513-UM","2017/10/14 18:09:41","新北市新店區安華路28-1號","121.519276666667","24.96114","6500600","新店區"
"231045","617-UM","2017/10/14 18:09:53","新北市新店區安華路28-1號","121.519451666667","24.9610316666667","6500600","新店區"
"231044","618-UM","2017/10/14 16:36:13","新北市新店區安華路28-1號","121.5198","24.9605483333333","6500600","新店區"
"231063","645-TV","2017/10/14 18:09:49","新北市新店區安華路28-1號","121.519338333333","24.960615","6500600","新店區"
"231049","719-UM","2017/10/14 18:09:51","新北市新店區安華路28-1號","121.519438333333","24.9613433333333","6500600","新店區"
"231062","720-UM","2017/10/14 18:09:51","新北市新店區安華路28-1號","121.519315","24.96131","6500600","新店區"
"231043","899-TW","2017/10/14 18:09:38","新北市新店區安華路28-1號","121.519293333333","24.9608633333333","6500600","新店區"
"231066","AKT-0513","2017/10/14 18:09:42","新北市新店區安華路1-1號","121.51947","24.9604316666667","6500600","新店區"
"241024","065-VK","2017/10/14 18:09:44","新北市三重區重陽路二段72號","121.48734","25.064135","6500200","三重區"
"241004","887-TS","2017/10/14 18:09:54","新北市三重區仁義街101巷2號","121.498011666667","25.0802116666667","6500200","三重區"
"241033","AAC-255","2017/10/14 18:09:35","新北市三重區中興北街56-1號","121.469056666667","25.051375","6500200","三重區"
"235066","003-UY","2017/10/14 18:09:40","新北市中和區連城路75巷13號","121.498746666667","24.9982866666667","6500300","中和區"
"235064","005-UY","2017/10/14 18:09:34","新北市中和區中正路133號","121.499651666667","24.99354","6500300","中和區"
"235063","006-UY","2017/10/14 18:09:43","新北市中和區員山路36巷16-3號","121.485085","24.991295","6500300","中和區"
"235056","096-UM","2017/10/14 18:09:42","新北市中和區連城路469巷79弄30號","121.484531666667","24.993705","6500300","中和區"
"235065","098-UM","2017/10/14 18:09:41","新北市中和區橋和路170號","121.494491666667","25.0063366666667","6500300","中和區"
"235040","150-BY","2017/10/14 18:09:34","新北市中和區錦和路350-1號","121.490341666667","24.9936083333333","6500300","中和區"
"235058","151-BY","2017/10/14 18:09:34","新北市中和區圓通路367巷33弄59號","121.495563333333","24.98615","6500300","中和區"
"235038","185-VK","2017/10/14 18:09:48","新北市中和區景平路149號","121.513823333333","24.99223","6500300","中和區"
"235067","255-BX","2017/10/14 18:02:26","新北市中和區和城路一段271巷1號","121.485483333333","24.9918666666667","6500300","中和區"
"235072","301-VK","2017/10/14 18:09:53","新北市中和區員山路36巷12號","121.484058333333","24.9907616666667","6500300","中和區"
"235043","352-BY","2017/10/14 18:09:32","新北市中和區和城路一段271巷1號","121.485556666667","24.9916","6500300","中和區"
"235051","376-QA","2017/10/14 18:09:40","新北市中和區中正路158號","121.498596666667","24.9939766666667","6500300","中和區"
"235061","378-QA","2017/10/14 18:09:37","新北市中和區連城路569巷9弄24號","121.479673333333","24.9935116666667","6500300","中和區"
"235050","4979-A6","2017/10/14 18:09:44","新北市中和區錦和路350-1號","121.490516666667","24.9935883333333","6500300","中和區"
"235069","4980-A6","2017/10/14 18:09:52","新北市中和區錦和路216號","121.4903","24.9941","6500300","中和區"
"235042","551-UM","2017/10/14 18:09:54","新北市中和區景平路349號","121.505015","24.99334","6500300","中和區"
"235070","558-UM","2017/10/14 18:08:55","新北市中和區和城路一段271巷1號","121.485925","24.9922916666667","6500300","中和區"
"235045","565-BX","2017/10/14 18:09:41","新北市中和區中正路637巷52弄1號","121.485536666667","24.99349","6500300","中和區"
"235054","640-BX","2017/10/14 18:09:44","新北市中和區連城路607號","121.478186666667","24.993145","6500300","中和區"
"235047","732-UM","2017/10/14 18:09:48","新北市中和區中正路637巷52弄1號","121.485566666667","24.9935533333333","6500300","中和區"
"235062","800-TS","2017/10/14 18:09:38","新北市中和區中山路二段478號","121.487916666667","25.0048266666667","6500300","中和區"
"235057","801-TS","2017/10/14 18:09:50","新北市中和區員山路36巷16-2號","121.485256666667","24.9914833333333","6500300","中和區"
"235052","805-TS","2017/10/14 18:09:44","新北市中和區中正路273號","121.495571666667","24.9937516666667","6500300","中和區"
"235048","896-TW","2017/10/14 18:09:37","新北市中和區員山路36巷13號","121.484391666667","24.99113","6500300","中和區"
"235053","900-TW","2017/10/14 18:09:39","新北市中和區員山路36巷16-2號","121.485328333333","24.9915433333333","6500300","中和區"
"235037","AAC-213","2017/10/14 18:09:41","新北市中和區景平路363號","121.50449","24.9933483333333","6500300","中和區"
"247012","546-UM","2017/10/14 18:09:42","新北市蘆洲區中山一路210號","121.473285","25.0806683333333","6501400","蘆洲區"
"247010","339-TH","2017/10/14 18:09:51","新北市五股區中興路三段163號","121.449291666667","25.0805583333333","6501400","蘆洲區"
"247002","337-TH","2017/10/14 18:09:44","新北市蘆洲區永平街32巷69弄27號","121.458891666667","25.0936583333333","6501400","蘆洲區"
"247004","336-TH","2017/10/14 18:09:34","新北市八里區商港路96號","121.394465","25.1476483333333","6501400","蘆洲區"
"226004","312-R5","2017/10/14 18:09:36","新北市平溪區白石里白石腳3號","121.722065","25.0215016666667","6502400","平溪區"
"228003","097-TW","2017/10/14 18:09:38","新北市貢寮區真理里美艷山街6-2號","121.928916666667","25.060735","6502600","貢寮區"
"228001","212-TW","2017/10/14 18:09:55","新北市貢寮區真理里新港街26巷55弄2-1號","121.92737","25.052905","6502600","貢寮區"
"228002","585-TW","2017/10/14 18:09:50","新北市貢寮區福連里馬崗街2-5號","121.999351666667","25.0136683333333","6502600","貢寮區"
"224010","AGQ-8101","2017/10/14 17:58:51","新北市瑞芳區金光路372號","121.848971666667","25.1109583333333","6501200","瑞芳區"
"224006","676-BX","2017/10/14 18:09:44","新北市瑞芳區中正路2號","121.809295","25.1070566666667","6501200","瑞芳區"
"224002","639-TC","2017/10/14 18:09:56","新北市瑞芳區三爪子坑路62號","121.810095","25.1056166666667","6501200","瑞芳區"
"224009","285-BY","2017/10/14 18:09:49","新北市瑞芳區金光路115號","121.85351","25.106255","6501200","瑞芳區"
"224008","275-VK","2017/10/14 18:09:54","新北市瑞芳區國中新村34號","121.816263333333","25.108015","6501200","瑞芳區"
"224007","273-VK","2017/10/14 18:09:42","新北市瑞芳區四腳亭坑路3-1號","121.776906666667","25.10935","6501200","瑞芳區"
"224005","271-BY","2017/10/14 18:09:35","新北市瑞芳區深澳路1號","121.816511666667","25.12862","6501200","瑞芳區"
"227010","030-BX","2017/10/14 12:36:54","新北市雙溪區三貂里政光路3-1號","121.850941666667","25.06312","6502500","雙溪區"
"253005","032-BX","2017/10/14 18:09:34","新北市石門區福安街19號","121.568636666667","25.2926066666667","6502200","石門區"
"253006","295-VK","2017/10/14 18:09:53","新北市石門區老梅路52巷21號","121.546365","25.2885783333333","6502200","石門區"
"208002","742-BX","2017/10/14 18:09:50","新北市金山區法鼓路93號","121.624611666667","25.2338483333333","6502700","金山區"
"208003","665-BX","2017/10/14 18:09:39","新北市金山區磺港里磺港路312號","121.644146666667","25.2278383333333","6502700","金山區"
"208001","761-BX","2017/10/14 18:09:54","新北市金山區磺港里磺港路71號","121.647361666667","25.2268066666667","6502700","金山區"
"251009","008-UM","2017/10/14 18:09:40","新北市淡水區大忠街34巷23號","121.444326666667","25.17591","6501000","淡水區"
"251004","009-UM","2017/10/14 18:09:36","新北市淡水區民族路51號","121.462786666667","25.1352366666667","6501000","淡水區"
"251001","011-UM","2017/10/14 18:09:39","新北市淡水區自立路10號","121.463061666667","25.1297983333333","6501000","淡水區"
"251014","180-VK","2017/10/14 18:09:36","新北市淡水區南平14-3號","121.487143333333","25.2201516666667","6501000","淡水區"
"251008","181-VK","2017/10/14 18:09:49","新北市淡水區坪頂路70巷35號","121.460106666667","25.1608066666667","6501000","淡水區"
"251010","413-VK","2017/10/14 18:09:37","新北市淡水區中正路二段50巷10號","121.419871666667","25.1833616666667","6501000","淡水區"
"251012","441-VK","2017/10/14 18:09:40","新北市淡水區泉洲厝20-1號","121.490681666667","25.1910083333333","6501000","淡水區"
"251016","442-VK","2017/10/14 18:09:44","新北市淡水區下圭柔山15號","121.452941666667","25.2021283333333","6501000","淡水區"
"251005","443-VK","2017/10/14 18:09:52","新北市淡水區水源街一段141號","121.447233333333","25.17192","6501000","淡水區"
"251006","561-UM","2017/10/14 18:09:50","新北市淡水區真理街3巷26-2號","121.437933333333","25.1765966666667","6501000","淡水區"
"251011","650-BX","2017/10/14 18:09:38","新北市淡水區三空泉9-2號","121.47413","25.163575","6501000","淡水區"
"251002","672-BX","2017/10/14 18:09:51","新北市淡水區中正東路一段125號","121.455388333333","25.1594033333333","6501000","淡水區"
"251003","673-BX","2017/10/14 18:09:36","新北市淡水區北新路182巷30號","121.448836666667","25.177965","6501000","淡水區"
"207003","550-UM","2017/10/14 18:09:52","新北市萬里區野柳里港西路70-3號","121.685401666667","25.2047383333333","6502800","萬里區"
"207004","225-TW","2017/10/14 18:09:45","新北市萬里區中幅里中福路115號","121.676236666667","25.1680933333333","6502800","萬里區"
"252002","178-VK","2017/10/14 18:09:41","新北市三芝區中山路二段41號","121.50298","25.2550966666667","6502100","三芝區"
"252003","249-BX","2017/10/14 18:09:34","新北市三芝區埔頭里埔頭37號","121.498506666667","25.2603633333333","6502100","三芝區"
"252001","292-VK","2017/10/14 18:09:46","新北市三芝區中興街二段2號","121.498451666667","25.2566983333333","6502100","三芝區"
"252007","AAC-283","2017/10/14 16:19:00","新北市三芝區埔坪里埔頭坑41號","121.504518333333","25.2644316666667","6502100","三芝區"
"237004","078-UY","2017/10/14 18:09:44","新北市三峽區大埔路323號","121.369985","24.898665","6500900","三峽區"
"237007","153-BY","2017/10/14 18:09:39","新北市三峽區中正路二段370巷81號","121.364228333333","24.911665","6500900","三峽區"
"237009","210-TH","2017/10/14 18:09:36","新北市三峽區大仁路52號","121.365341666667","24.937505","6500900","三峽區"
"237013","252-BX","2017/10/14 18:09:42","新北市三峽區長泰街94號","121.376116666667","24.93326","6500900","三峽區"
"237012","275-BY","2017/10/14 18:09:40","新北市三峽區民生街1巷1-39號","121.377258333333","24.9356883333333","6500900","三峽區"
"237008","302-VK","2017/10/14 18:09:49","新北市三峽區白雞58-27號","121.386336666667","24.909405","6500900","三峽區"
"237014","433-BY","2017/10/14 18:09:42","新北市三峽區復興路103號","121.372011666667","24.9378716666667","6500900","三峽區"
"237006","5529-G3","2017/10/14 18:09:49","新北市三峽區介壽路三段1號","121.395101666667","24.9360966666667","6500900","三峽區"
"237011","572-TV","2017/10/14 13:26:32","新北市三峽區中山路459巷163-3號","121.34863","24.9330333333333","6500900","三峽區"
"237016","649-BX","2017/10/14 18:09:34","新北市三峽區紫新路38巷2號","121.421965","24.9225516666667","6500900","三峽區"
"237010","706-TV","2017/10/14 18:09:52","新北市三峽區中園街11號","121.368516666667","24.9271983333333","6500900","三峽區"
"237005","AKY-6261","2017/10/14 18:09:38","新北市三峽區民生街239號","121.370898333333","24.9347666666667","6500900","三峽區"
"236073","105-UM","2017/10/14 18:09:41","新北市土城區石門路12號","121.459385","24.9680866666667","6501300","土城區"
"236043","107-UM","2017/10/14 18:09:51","新北市土城區裕生路61號","121.447625","24.9860933333333","6501300","土城區"
"236079","166-UM","2017/10/14 18:09:50","新北市土城區永寧路32巷32號","121.428358333333","24.96085","6501300","土城區"
"236031","253-BX","2017/10/14 18:09:56","新北市土城區城林路6巷80號","121.438478333333","24.979805","6501300","土城區"
"236027","269-VK","2017/10/14 18:09:34","新北市土城區承天路18號","121.439415","24.963505","6501300","土城區"
"236015","270-VK","2017/10/14 18:09:42","新北市土城區學府路一段232號","121.451896666667","24.9848833333333","6501300","土城區"
"236038","271-VK","2017/10/14 18:09:34","新北市土城區明德路一段325號","121.458745","24.9770833333333","6501300","土城區"
"236023","401-BY","2017/10/14 18:09:35","新北市土城區城林路6巷80號","121.438576666667","24.9797933333333","6501300","土城區"
"236059","912-UM","2017/10/14 18:09:33","新北市土城區中央路四段48號","121.420498333333","24.9606383333333","6501300","土城區"
"236049","913-UM","2017/10/14 18:09:52","新北市土城區明德路一段398-1號","121.453598333333","24.9790633333333","6501300","土城區"
"236063","915-UM","2017/10/14 18:09:35","新北市土城區學士路123號","121.446738333333","24.975845","6501300","土城區"
"236055","AAC-216","2017/10/14 18:09:35","新北市土城區中華路二段82-1號","121.438748333333","24.97606","6501300","土城區"
"242031","AAC-296","2017/10/14 18:09:49","新北市新莊區新泰路289巷46號","121.443411666667","25.0404383333333","6500500","新莊區"
"242029","986-R7","2017/10/14 18:09:45","新北市新莊區中平路110巷9號","121.44556","25.0461166666667","6500500","新莊區"
"242051","751-BX","2017/10/14 18:09:54","新北市新莊區民本街29巷22號","121.429078333333","25.0188433333333","6500500","新莊區"
"242025","615-BX","2017/10/14 18:09:45","新北市新莊區五工三路94巷1號","121.458216666667","25.065625","6500500","新莊區"
"242023","613-BX","2017/10/14 18:09:39","新北市新莊區幸福路769號","121.446986666667","25.0490216666667","6500500","新莊區"
"242027","612-BX","2017/10/14 18:09:49","新北市新莊區幸福路558號","121.454675","25.0493133333333","6500500","新莊區"
"242039","566-BX","2017/10/14 18:09:54","新北市新莊區民安西路38巷8號","121.426918333333","25.0208633333333","6500500","新莊區"
"242044","497-BY","2017/10/14 18:09:50","新北市新莊區中正路702-3號","121.417343333333","25.026185","6500500","新莊區"
"242002","442-UM","2017/10/14 18:09:51","新北市新莊區新莊路28號","121.458376666667","25.0372433333333","6500500","新莊區"
"242048","441-UM","2017/10/14 18:09:51","新北市新莊區萬安街59號","121.421416666667","25.0243566666667","6500500","新莊區"
"242053","440-UM","2017/10/14 18:09:42","新北市新莊區民安西路313號","121.427378333333","25.01125","6500500","新莊區"
"242004","413-TV","2017/10/14 18:09:45","新北市新莊區自由街22號","121.455888333333","25.0470483333333","6500500","新莊區"
"242042","400-BY","2017/10/14 18:09:42","新北市新莊區天祥街135巷8弄2號","121.413675","25.029415","6500500","新莊區"
"242061","362-BY","2017/10/14 18:09:51","新北市新莊區新樹路138-1號","121.435518333333","25.0234083333333","6500500","新莊區"
"242058","353-BY","2017/10/14 18:09:51","新北市新莊區新北大道七段490號","121.412956666667","25.02992","6500500","新莊區"
"242007","132-UY","2017/10/14 18:09:40","新北市新莊區自重街2號","121.453405","25.0473683333333","6500500","新莊區"
"242036","133-UY","2017/10/14 18:09:42","新北市新莊區後港一路49巷1弄1號","121.425861666667","25.02645","6500500","新莊區"
"242021","135-UY","2017/10/14 18:09:51","新北市新莊區建興街58號","121.449968333333","25.0387766666667","6500500","新莊區"
"242046","172-VK","2017/10/14 18:09:50","新北市新莊區福營路226號","121.427281666667","25.0292633333333","6500500","新莊區"
"242009","173-VK","2017/10/14 18:09:54","新北市新莊區昌平街59巷11弄25號","121.453931666667","25.0525733333333","6500500","新莊區"
"242015","175-VK","2017/10/14 18:09:40","新北市新莊區中平路132巷5號","121.44549","25.0467716666667","6500500","新莊區"
"242019","348-TH","2017/10/14 18:09:40","新北市新莊區民樂街17巷1號","121.457666666667","25.0404583333333","6500500","新莊區"
"242056","349-TH","2017/10/14 18:09:43","新北市新莊區豐年街豐1巷24號","121.447393333333","25.0312033333333","6500500","新莊區"
"242017","350-TH","2017/10/14 18:09:54","新北市新莊區永樂街40號","121.4515","25.0450566666667","6500500","新莊區"
"242011","351-TH","2017/10/14 18:09:45","新北市新莊區中榮街56巷13弄2號","121.449168333333","25.0534883333333","6500500","新莊區"
"238015","755-BX","2017/10/14 18:09:41","新北市樹林區大安路320號","121.417071666667","24.991645","6500700","樹林區"
"238023","601-UM","2017/10/14 18:09:53","新北市樹林區龍興街51號","121.403186666667","25.0153983333333","6500700","樹林區"
"238019","599-UM","2017/10/14 18:09:46","新北市樹林區忠孝街101巷37號","121.425126666667","24.9812","6500700","樹林區"
"238018","571-TV","2017/10/14 18:09:46","新北市樹林區樹新路211-1號","121.430815","24.999885","6500700","樹林區"
"238021","KEA-2217","2017/10/14 18:09:34","新北市樹林區柑園街一段33巷6號","121.403856666667","24.9597","6500700","樹林區"
"238022","KEA-2213","2017/10/14 18:09:48","新北市樹林區太順街54號","121.418048333333","24.9795083333333","6500700","樹林區"
"238025","303-VK","2017/10/14 18:09:38","新北市樹林區保安街二段154號","121.413356666667","25.0044983333333","6500700","樹林區"
"238014","282-BY","2017/10/14 18:09:42","新北市樹林區潭興街22號","121.425208333333","24.9988566666667","6500700","樹林區"
"238020","268-VK","2017/10/14 18:09:40","新北市樹林區三龍街144號","121.416851666667","25.0183083333333","6500700","樹林區"
"238026","172-UY","2017/10/14 18:09:53","新北市樹林區育德街93號","121.390598333333","24.9699416666667","6500700","樹林區"
"238016","169-UY","2017/10/14 18:09:53","新北市樹林區啟智街173巷10號","121.415928333333","24.9871183333333","6500700","樹林區"
"239007","AAC-297","2017/10/14 18:09:48","新北市鶯歌區育英街53號","121.347085","24.952715","6500800","鶯歌區"
"239006","891-R6","2017/10/14 18:09:39","新北市鶯歌區鶯桃路365巷116號","121.330193333333","24.9621666666667","6500800","鶯歌區"
"239008","527-UM","2017/10/14 18:09:46","新北市鶯歌區國際一路179號","121.336126666667","24.9764333333333","6500800","鶯歌區"
"239005","526-UM","2017/10/14 18:09:41","新北市鶯歌區鶯桃路668巷67號","121.32955","24.9713716666667","6500800","鶯歌區"
"239001","417-VK","2017/10/14 18:09:56","新北市鶯歌區中正三路5巷4號","121.34008","24.9427266666667","6500800","鶯歌區"
"239003","360-BY","2017/10/14 18:09:51","新北市鶯歌區福安街58號","121.335576666667","24.9652166666667","6500800","鶯歌區"
"239002","359-BY","2017/10/14 18:09:38","新北市鶯歌區國慶街77號","121.350105","24.955025","6500800","鶯歌區"
"239004","193-VK","2017/10/14 18:09:42","新北市鶯歌區尖山路166巷6-1號","121.345363333333","24.9483383333333","6500800","鶯歌區"
"221008","489-VK","2017/10/14 18:09:43","新北市汐止區康寧街393號","121.629361666667","25.0678883333333","6501100","汐止區"
"221036","130-UY","2017/10/14 18:09:49","新北市汐止區大同路三段147號","121.669663333333","25.0777366666667","6501100","汐止區"
"221015","131-UY","2017/10/14 18:09:51","新北市汐止區鄉長路二段23巷7號","121.66751","25.08252","6501100","汐止區"
"221010","269-BY","2017/10/14 18:09:51","新北市汐止區汐萬路二段275巷1弄2號","121.645601666667","25.0888183333333","6501100","汐止區"
"221012","276-VK","2017/10/14 13:23:34","新北市汐止區汐萬路一段256巷3號","121.653436666667","25.0746766666667","6501100","汐止區"
"221012","278-VK","2017/10/14 18:09:52","新北市汐止區保一街47號","121.67441","25.0801566666667","6501100","汐止區"
"221023","279-VK","2017/10/14 18:09:41","新北市汐止區明峰街180號","121.62861","25.0700416666667","6501100","汐止區"
"221032","280-BY","2017/10/14 18:09:41","新北市汐止區橫科路53號","121.618476666667","25.050915","6501100","汐止區"
"221029","298-VK","2017/10/14 18:09:45","新北市汐止區樟樹二路134號","121.63994","25.065685","6501100","汐止區"
"221031","353-TW","2017/10/14 18:09:44","新北市汐止區中興路181巷14弄10號","121.629886666667","25.0667583333333","6501100","汐止區"
"221035","622-UM","2017/10/14 18:09:46","新北市汐止區大同路二段187巷8弄9號","121.652791666667","25.0656383333333","6501100","汐止區"
"221025","623-UM","2017/10/14 18:09:45","新北市汐止區勤進路16號","121.65959","25.0613466666667","6501100","汐止區"
"221038","646-BX","2017/10/14 18:09:37","新北市汐止區南興路82巷3號","121.652706666667","25.0589633333333","6501100","汐止區"
"221033","647-BX","2017/10/14 18:09:55","新北市汐止區林森街21號","121.621795","25.04059","6501100","汐止區"
"221002","707-TV","2017/10/14 18:09:45","新北市汐止區福德一路195號","121.635536666667","25.0656533333333","6501100","汐止區"
"221018","753-BX","2017/10/14 18:09:51","新北市汐止區忠孝東路359號","121.665696666667","25.07069","6501100","汐止區"
"220064","282-UM","2017/10/14 18:09:40","新北市板橋區華東街1-9號","121.448175","24.9948766666667","6500100","板橋區"
"220064","486-VK","2017/10/14 18:09:51","新北市板橋區華東街1-9號","121.448251666667","24.9949266666667","6500100","板橋區"
"242034","280-VK","2017/10/14 18:09:39","新北市新莊區福海街24巷6號","121.445535","25.0340533333333","6500500","新莊區"
