"lineid","car","time","location","longitude","latitude","cityid","cityname"
"234046","148-BY","2017/10/14 18:49:47","新北市永和區得和路373巷31弄12號","121.524296666667","25.00043","6500400","永和區"
"234013","149-BY","2017/10/14 18:49:54","新北市永和區保福路二段133巷22號","121.509148333333","25.01357","6500400","永和區"
"234007","207-UY","2017/10/14 18:49:45","新北市永和區永和路二段245號","121.515863333333","25.01496","6500400","永和區"
"234081","298-R6","2017/10/14 18:49:38","新北市永和區永利路108號","121.521276666667","25.0033783333333","6500400","永和區"
"234038","336-UY","2017/10/14 18:49:50","新北市永和區環河東路三段40號","121.526621666667","25.006665","6500400","永和區"
"234064","337-UY","2017/10/14 18:49:50","新北市永和區環河東路二段102號","121.52457","25.0105483333333","6500400","永和區"
"234086","338-UY","2017/10/14 18:49:44","新北市永和區中正路71號","121.514943333333","24.9967783333333","6500400","永和區"
"234070","552-UM","2017/10/14 18:49:38","新北市永和區豫溪街217巷27號","121.524616666667","25.0104366666667","6500400","永和區"
"234054","553-UM","2017/10/14 18:49:42","新北市永和區竹林路66巷8號","121.518075","25.0133233333333","6500400","永和區"
"234017","745-BX","2017/10/14 18:49:44","新北市永和區永和路二段299號","121.516008333333","25.0162033333333","6500400","永和區"
"234030","746-BX","2017/10/14 18:49:52","新北市永和區得和路329號","121.52355","24.9997","6500400","永和區"
"234061","AAD-866","2017/10/14 18:49:42","新北市永和區福和路309巷1號","121.516263333333","25.0070633333333","6500400","永和區"
"234042","862-TW","2017/10/14 18:49:37","新北市永和區中和路615號","121.512711666667","25.00468","6500400","永和區"
"234050","863-TW","2017/10/14 18:49:39","新北市永和區保安路2號","121.510863333333","25.0177","6500400","永和區"
"234026","9371-KE","2017/10/14 18:49:48","新北市永和區自由街56號","121.513708333333","25.0059733333333","6500400","永和區"
"234011","9373-KE","2017/10/14 18:49:52","新北市永和區文化路113巷13弄2號","121.513038333333","25.0142133333333","6500400","永和區"
"249005","172-UM","2017/10/14 18:49:56","新北市八里區長道坑15號","121.395188333333","25.1186783333333","6502300","八里區"
"249001","173-UM","2017/10/14 18:49:44","新北市八里區龍米路二段80號","121.447605","25.1424266666667","6502300","八里區"
"248016","026-BX","2017/10/14 18:49:39","新北市五股區凌雲路一段133巷18號","121.449293333333","25.10175","6501500","五股區"
"248006","077-UY","2017/10/14 18:49:46","新北市五股區四維路1巷2弄2號","121.466545","25.0701766666667","6501500","五股區"
"248008","095-VK","2017/10/14 18:49:40","新北市五股區中興路一段132號","121.465371666667","25.0735466666667","6501500","五股區"
"248020","225-UY","2017/10/14 18:40:57","新北市五股區孝義路118號","121.441266666667","25.1204833333333","6501500","五股區"
"248012","247-BX","2017/10/14 18:49:41","新北市五股區成泰路二段157號","121.439035","25.0858666666667","6501500","五股區"
"248010","272-BY","2017/10/14 18:49:37","新北市五股區水碓五路81號","121.429971666667","25.0719133333333","6501500","五股區"
"248004","677-BX","2017/10/14 18:49:54","新北市五股區民義路二段7號","121.421168333333","25.0962816666667","6501500","五股區"
"248002","678-BX","2017/10/14 18:49:51","新北市五股區成泰路三段437號","121.449781666667","25.097905","6501500","五股區"
"234023","9380-KE","2017/10/14 18:49:45","新北市永和區竹林路119巷45號","121.521906666667","25.0118783333333","6500400","永和區"
"234077","969-R7","2017/10/14 18:49:44","新北市永和區中正路42巷6弄2號","121.51328","24.994205","6500400","永和區"
"234067","AAC-212","2017/10/14 18:49:37","新北市永和區永和路一段22號","121.513001666667","25.0048616666667","6500400","永和區"
"234003","AAC-295","2017/10/14 18:49:35","新北市永和區中正路736號","121.515255","25.0101683333333","6500400","永和區"
"232011","375-UM","2017/10/14 18:49:53","新北市坪林區坪碇路83號","121.711853333333","24.93858","6502000","坪林區"
"244013","069-UM","2017/10/14 18:49:48","新北市林口區文化一路一段100巷10弄16-1號","121.374975","25.0712283333333","6501700","林口區"
"244007","080-UY","2017/10/14 18:49:53","新北市林口區太平里3鄰13號","121.378216666667","25.1147366666667","6501700","林口區"
"244019","403-UM","2017/10/14 18:49:46","新北市林口區忠孝路622巷1弄1號","121.377835","25.0679583333333","6501700","林口區"
"244025","742-UY","2017/10/14 18:49:47","新北市林口區南勢街163號","121.359506666667","25.0750416666667","6501700","林口區"
"244009","410-SL","2017/10/14 18:49:53","新北市林口區竹林路278巷4號","121.390451666667","25.0816516666667","6501700","林口區"
"244023","483-VK","2017/10/14 18:49:50","新北市林口區文化三路二段211巷85號","121.375073333333","25.0841316666667","6501700","林口區"
"244017","485-VK","2017/10/14 18:49:42","新北市林口區文化二路一段20巷9號","121.365245","25.0672","6501700","林口區"
"244011","656-BX","2017/10/14 18:49:48","新北市林口區中正路12號","121.396246666667","25.0775016666667","6501700","林口區"
"244021","838-TS","2017/10/14 18:49:51","新北市林口區自強二街66號","121.399695","25.0767416666667","6501700","林口區"
"243013","AAD-798","2017/10/14 18:49:43","新北市泰山區明志路三段206巷3號","121.42331","25.03794","6501600","泰山區"
"243010","KEA-2215","2017/10/14 18:49:43","新北市泰山區泰林路二段462號","121.425938333333","25.0642966666667","6501600","泰山區"
"243011","KEA-2216","2017/10/14 18:49:42","新北市泰山區公園路97號","121.425095","25.0562283333333","6501600","泰山區"
"243012","646-TV","2017/10/14 18:49:50","新北市泰山區福興三街11號","121.43455","25.05772","6501600","泰山區"
"243016","680-BX","2017/10/14 18:49:50","新北市泰山區明志路二段135號","121.427678333333","25.0507333333333","6501600","泰山區"
"222001","016-RS","2017/10/14 18:49:55","新北市深坑區松柏街42號","121.638783333333","25.0115616666667","6501800","深坑區"
"222003","436-BY","2017/10/14 18:49:30","新北市深坑區翠谷街17巷23號","121.626118333333","25.0089","6501800","深坑區"
"222002","659-BX","2017/10/14 18:49:47","新北市深坑區文山路一段69號","121.62695","25.0018716666667","6501800","深坑區"
"231041","002-UM","2017/10/14 18:49:55","新北市新店區安華路28-1號","121.519711666667","24.9614883333333","6500600","新店區"
"231059","046-UY","2017/10/14 18:49:40","新北市新店區安華路28-1號","121.519551666667","24.9608016666667","6500600","新店區"
"231061","047-UY","2017/10/14 18:49:36","新北市新店區安華路28-1號","121.519163333333","24.96095","6500600","新店區"
"231060","106-UY","2017/10/14 18:49:45","新北市新店區安華路28-1號","121.51967","24.960765","6500600","新店區"
"231048","108-UY","2017/10/14 18:49:54","新北市新店區寶橋路6巷4號","121.543403333333","24.973495","6500600","新店區"
"231051","110-UY","2017/10/14 18:49:52","新北市新店區中央路57號","121.532813333333","24.9773466666667","6500600","新店區"
"231052","187-VK","2017/10/14 18:49:51","新北市新店區新烏路一段105巷6號","121.545975","24.940975","6500600","新店區"
"231050","KEA-2219","2017/10/14 18:49:50","新北市新店區安康路一段85號","121.529483333333","24.9613916666667","6500600","新店區"
"231046","278-BY","2017/10/14 18:49:55","新北市新店區直潭路71號","121.53239","24.9422233333333","6500600","新店區"
"231054","AAD-862","2017/10/14 18:49:39","新北市新店區安康路一段48號","121.53047","24.961105","6500600","新店區"
"231058","3712-VJ","2017/10/14 18:49:50","新北市新店區北宜路一段105巷4弄1號","121.539893333333","24.9554816666667","6500600","新店區"
"231055","3713-VJ","2017/10/14 18:49:39","新北市新店區新生街14號","121.54011","24.96624","6500600","新店區"
"231056","4716-K9","2017/10/14 18:49:40","新北市新店區大豐路68巷2號","121.539183333333","24.9796583333333","6500600","新店區"
"231067","4772-VM","2017/10/14 18:49:45","新北市新店區安康路一段110巷2號","121.527268333333","24.96255","6500600","新店區"
"231065","513-UM","2017/10/14 18:49:41","新北市新店區安豐路48號","121.500461666667","24.9541983333333","6500600","新店區"
"231064","515-UM","2017/10/14 18:49:53","新北市新店區安康路一段319號","121.522203333333","24.963675","6500600","新店區"
"231045","617-UM","2017/10/14 18:49:53","新北市新店區安康路一段122-1號","121.526975","24.9627","6500600","新店區"
"231044","618-UM","2017/10/14 18:49:37","新北市新店區光明街227號","121.540256666667","24.96428","6500600","新店區"
"231040","619-UM","2017/10/14 18:49:52","新北市新店區中央路177-1號","121.535263333333","24.96943","6500600","新店區"
"231042","641-BX","2017/10/14 18:49:52","新北市新店區中正路69號","121.543368333333","24.9701033333333","6500600","新店區"
"231063","645-TV","2017/10/14 18:49:48","新北市新店區安華路28-1號","121.519385","24.9606583333333","6500600","新店區"
"231049","719-UM","2017/10/14 18:49:51","新北市新店區中正路454-5號","121.534475","24.9790733333333","6500600","新店區"
"231062","720-UM","2017/10/14 18:49:51","新北市新店區車子路10-3號","121.504595","24.9545716666667","6500600","新店區"
"231043","899-TW","2017/10/14 18:49:38","新北市新店區安康路一段134號","121.52671","24.962845","6500600","新店區"
"231066","AKT-0513","2017/10/14 18:49:42","新北市新店區安豐路22巷11號","121.502761666667","24.95533","6500600","新店區"
"241035","462-BY","2017/10/14 18:49:41","新北市三重區重新路四段121號","121.484796666667","25.052025","6500200","三重區"
"241004","887-TS","2017/10/14 18:49:54","新北市三重區仁義街101巷6號","121.498103333333","25.080275","6500200","三重區"
"235066","003-UY","2017/10/14 18:49:40","新北市中和區水源路18巷4弄1號","121.503986666667","25.00308","6500300","中和區"
"235064","005-UY","2017/10/14 18:49:55","新北市中和區景平路591-1號","121.497301666667","25.0003733333333","6500300","中和區"
"235063","006-UY","2017/10/14 18:49:43","新北市中和區錦和路196巷4號","121.489808333333","24.995015","6500300","中和區"
"235056","096-UM","2017/10/14 18:49:42","新北市中和區員山路611巷5弄9號","121.478615","25.011","6500300","中和區"
"235039","097-UM","2017/10/14 18:49:45","新北市中和區安樂路143巷23號","121.513468333333","24.9969966666667","6500300","中和區"
"235065","098-UM","2017/10/14 18:49:49","新北市中和區中山路二段2巷81弄8號","121.500685","25.0073516666667","6500300","中和區"
"235040","150-BY","2017/10/14 18:49:59","新北市中和區安平路38號","121.51","24.99499","6500300","中和區"
"235058","151-BY","2017/10/14 18:49:54","新北市中和區連城路532巷34弄18號","121.47518","24.9927833333333","6500300","中和區"
"235055","183-VK","2017/10/14 18:49:49","新北市中和區民生街18號","121.470233333333","25.0054483333333","6500300","中和區"
"235038","185-VK","2017/10/14 18:49:48","新北市中和區自強路62巷6號","121.519621666667","24.9945483333333","6500300","中和區"
"235049","186-VK","2017/10/14 18:49:48","新北市中和區景安路132巷38號","121.503813333333","24.994535","6500300","中和區"
"235067","255-BX","2017/10/14 18:49:48","新北市中和區中山路二段473號","121.483373333333","25.0050883333333","6500300","中和區"
"235044","293-VK","2017/10/14 18:49:45","新北市中和區中興街154號","121.499866666667","24.9918883333333","6500300","中和區"
"235072","301-VK","2017/10/14 18:49:53","新北市中和區中山路二段68號","121.503761666667","25.0045433333333","6500300","中和區"
"235043","352-BY","2017/10/14 18:49:52","新北市中和區成功路54號","121.526008333333","24.9925466666667","6500300","中和區"
"235068","375-QA","2017/10/14 18:49:57","新北市中和區中正路211巷36弄8號","121.497065","24.99274","6500300","中和區"
"235051","376-QA","2017/10/14 18:49:40","新北市中和區華新街109巷34號","121.508856666667","24.9799033333333","6500300","中和區"
"235061","378-QA","2017/10/14 18:49:56","新北市中和區民享街30巷4號","121.473645","25.0035966666667","6500300","中和區"
"235050","4979-A6","2017/10/14 18:49:43","新北市中和區景新街496巷32弄22號","121.512688333333","24.9853866666667","6500300","中和區"
"235069","4980-A6","2017/10/14 18:49:52","新北市中和區南山路81巷19號","121.502435","24.9981183333333","6500300","中和區"
"235042","551-UM","2017/10/14 18:49:54","新北市中和區秀朗路三段135巷7弄1號","121.525485","24.992005","6500300","中和區"
"235070","558-UM","2017/10/14 18:49:47","新北市中和區景平路588巷30號","121.501206666667","24.9963233333333","6500300","中和區"
"235045","565-BX","2017/10/14 18:49:41","新北市中和區復興路40號","121.504763333333","24.9900533333333","6500300","中和區"
"235054","640-BX","2017/10/14 18:49:44","新北市中和區民享街54巷14號","121.473311666667","25.0023766666667","6500300","中和區"
"235060","647-TV","2017/10/14 18:49:45","新北市中和區中山路二段584號","121.482573333333","25.005145","6500300","中和區"
"235047","732-UM","2017/10/14 18:48:08","新北市中和區興南路二段34巷56弄2號","121.50485","24.9853833333333","6500300","中和區"
"235046","733-UM","2017/10/14 18:49:35","新北市中和區仁愛街36巷30號","121.51108","24.9869116666667","6500300","中和區"
"235062","800-TS","2017/10/14 18:49:38","新北市中和區景平路701號","121.496346666667","25.00352","6500300","中和區"
"235057","801-TS","2017/10/14 18:49:50","新北市中和區民安街24號","121.480325","25.000825","6500300","中和區"
"235052","805-TS","2017/10/14 18:49:44","新北市中和區興南路二段399巷98弄70號","121.497921666667","24.97638","6500300","中和區"
"235048","896-TW","2017/10/14 18:49:56","新北市中和區南山路513號","121.507943333333","24.9875016666667","6500300","中和區"
"235053","900-TW","2017/10/14 18:49:39","新北市中和區華福街17號","121.4657","24.996805","6500300","中和區"
"235037","AAC-213","2017/10/14 18:49:41","新北市中和區秀朗路三段175巷7號","121.525028333333","24.991545","6500300","中和區"
"235059","AAC-215","2017/10/14 18:49:53","新北市中和區圓通路391-7號","121.48965","24.9889883333333","6500300","中和區"
"220068","013-TV","2017/10/14 18:49:54","新北市板橋區民生路二段89-4號","121.471285","25.0186266666667","6500100","板橋區"
"220065","072-UY","2017/10/14 18:49:41","新北市板橋區漢生東路217號","121.471045","25.0094616666667","6500100","板橋區"
"220086","073-UY","2017/10/14 18:49:33","新北市板橋區大智街71巷40號","121.452901666667","25.0143433333333","6500100","板橋區"
"220106","075-UY","2017/10/14 18:49:45","新北市板橋區民生路二段161巷9號","121.47028","25.01968","6500100","板橋區"
"220069","AAD-861","2017/10/14 18:49:49","新北市板橋區南雅南路二段4巷18號","121.453585","25.003655","6500100","板橋區"
"247004","336-TH","2017/10/14 18:42:17","新北市五股區中興路三段163號","121.44927","25.0805333333333","6501400","蘆洲區"
"226004","312-R5","2017/10/14 18:49:56","新北市平溪區平溪里平溪街53號","121.73735","25.02704","6502400","平溪區"
"228003","097-TW","2017/10/14 18:49:38","新北市瑞芳區鼻頭路127號","121.91724","25.1211233333333","6502600","貢寮區"
"228001","212-TW","2017/10/14 18:49:35","新北市貢寮區仁理村保健街73號","121.923736666667","25.05169","6502600","貢寮區"
"228002","585-TW","2017/10/14 18:49:50","新北市貢寮區福隆里東興街6-11號","121.950748333333","25.021095","6502600","貢寮區"
"224010","AGQ-8101","2017/10/14 18:49:51","新北市瑞芳區山尖路174號","121.847793333333","25.11196","6501200","瑞芳區"
"224006","676-BX","2017/10/14 18:49:44","新北市瑞芳區中正路40號","121.806905","25.1073766666667","6501200","瑞芳區"
"224009","285-BY","2017/10/14 18:49:49","新北市瑞芳區祈堂路2號","121.859798333333","25.1117066666667","6501200","瑞芳區"
"224008","275-VK","2017/10/14 18:49:54","新北市瑞芳區瑞芳街150號","121.801185","25.1117033333333","6501200","瑞芳區"
"224007","273-VK","2017/10/14 18:49:42","新北市瑞芳區大埔路東泰新村10號","121.761443333333","25.1013016666667","6501200","瑞芳區"
"224005","271-BY","2017/10/14 18:49:54","新北市瑞芳區濱二路68-1號","121.82978","25.12","6501200","瑞芳區"
"227002","642-TC","2017/10/14 18:49:52","新北市雙溪區平林里梅竹蹊28號","121.861638333333","25.0360333333333","6502500","雙溪區"
"227010","400-TW","2017/10/14 18:49:41","新北市雙溪區牡丹里聖南8號","121.859156666667","25.0524333333333","6502500","雙溪區"
"227010","030-BX","2017/10/14 12:36:54","新北市雙溪區三貂里政光路3-1號","121.850941666667","25.06312","6502500","雙溪區"
"253005","032-BX","2017/10/14 18:49:54","新北市石門區內石門2號","121.565136666667","25.2908483333333","6502200","石門區"
"253006","295-VK","2017/10/14 18:49:53","新北市石門區下員坑16號","121.510608333333","25.2837666666667","6502200","石門區"
"208002","742-BX","2017/10/14 18:49:55","新北市金山區仁愛路37-12號","121.635708333333","25.2199333333333","6502700","金山區"
"208003","665-BX","2017/10/14 18:49:39","新北市金山區中山路342號","121.63348","25.225295","6502700","金山區"
"208001","761-BX","2017/10/14 18:49:54","新北市金山區文化三路66巷2弄1號","121.634295","25.2257066666667","6502700","金山區"
"251009","008-UM","2017/10/14 18:49:40","新北市淡水區重建街172號","121.440726666667","25.17406","6501000","淡水區"
"251001","011-UM","2017/10/14 18:49:39","新北市淡水區自強路108-1號","121.461786666667","25.130415","6501000","淡水區"
"251014","180-VK","2017/10/14 18:49:36","新北市淡水區崙頂3號","121.490723333333","25.22395","6501000","淡水區"
"251010","413-VK","2017/10/14 18:49:57","新北市淡水區沙崙路11號","121.421138333333","25.181265","6501000","淡水區"
"251012","441-VK","2017/10/14 18:49:40","新北市淡水區中山北路一段189號","121.44402","25.178335","6501000","淡水區"
"251016","442-VK","2017/10/14 18:49:44","新北市淡水區下圭柔山71-3號","121.447061666667","25.20617","6501000","淡水區"
"251011","650-BX","2017/10/14 18:49:58","新北市淡水區學府路17號","121.447516666667","25.1681733333333","6501000","淡水區"
"251002","672-BX","2017/10/14 18:49:51","新北市淡水區學府路68號","121.4488","25.1704366666667","6501000","淡水區"
"251003","673-BX","2017/10/14 18:49:38","新北市淡水區中山北路一段156號","121.443906666667","25.1780383333333","6501000","淡水區"
"207003","550-UM","2017/10/14 18:49:52","新北市萬里區大鵬里頂社1號","121.656998333333","25.2097233333333","6502800","萬里區"
"207004","225-TW","2017/10/14 18:49:45","新北市萬里區萬里里獅頭路23號","121.693236666667","25.1782133333333","6502800","萬里區"
"252002","178-VK","2017/10/14 18:49:41","新北市三芝區中正路一段112號","121.504826666667","25.2564133333333","6502100","三芝區"
"252003","249-BX","2017/10/14 18:49:54","新北市三芝區後厝里大片頭81-1號","121.459171666667","25.244665","6502100","三芝區"
"252001","292-VK","2017/10/14 18:49:46","新北市三芝區中正路三段9號","121.50295","25.2539983333333","6502100","三芝區"
"252007","AAC-283","2017/10/14 16:19:00","新北市三芝區埔坪里埔頭坑41號","121.504518333333","25.2644316666667","6502100","三芝區"
"237004","078-UY","2017/10/14 18:49:44","新北市三峽區有木111-1號","121.434473333333","24.86025","6500900","三峽區"
"237007","153-BY","2017/10/14 18:49:38","新北市三峽區柑樹路2巷2號","121.361833333333","24.9056316666667","6500900","三峽區"
"237009","210-TH","2017/10/14 18:49:56","新北市三峽區文化路209號","121.366268333333","24.9355233333333","6500900","三峽區"
"237013","252-BX","2017/10/14 18:49:42","新北市三峽區光明路69巷25號","121.376626666667","24.9291733333333","6500900","三峽區"
"237012","275-BY","2017/10/14 18:49:40","新北市三峽區三樹路340號","121.383946666667","24.9433483333333","6500900","三峽區"
"237008","302-VK","2017/10/14 18:49:49","新北市三峽區白雞30-3號","121.369728333333","24.9123333333333","6500900","三峽區"
"237014","433-BY","2017/10/14 18:49:42","新北市三峽區復興路480巷53號","121.361363333333","24.9406816666667","6500900","三峽區"
"237006","5529-G3","2017/10/14 18:49:49","新北市三峽區溪東路211巷21號","121.405381666667","24.9339166666667","6500900","三峽區"
"237011","572-TV","2017/10/14 13:26:32","新北市三峽區中山路459巷163-3號","121.34863","24.9330333333333","6500900","三峽區"
"237016","649-BX","2017/10/14 18:49:54","新北市三峽區安坑13-3號","121.444315","24.9266033333333","6500900","三峽區"
"237010","706-TV","2017/10/14 18:49:11","新北市三峽區復興路315號","121.365","24.9388466666667","6500900","三峽區"
"237005","AKY-6261","2017/10/14 18:49:37","新北市三峽區中山路219巷19弄6號","121.362918333333","24.9358566666667","6500900","三峽區"
"236073","105-UM","2017/10/14 18:49:41","新北市土城區延和路19號","121.464331666667","24.9883666666667","6501300","土城區"
"236043","107-UM","2017/10/14 18:49:51","新北市土城區裕民路114巷29號","121.450335","24.985585","6501300","土城區"
"236079","166-UM","2017/10/14 18:49:50","新北市土城區中央路四段185巷23號","121.415583333333","24.9558566666667","6501300","土城區"
"236031","253-BX","2017/10/14 18:49:56","新北市土城區中央路三段4-7號","121.43885","24.9696616666667","6501300","土城區"
"236027","269-VK","2017/10/14 18:49:54","新北市土城區慶安街58號","121.440911666667","24.9731233333333","6501300","土城區"
"236015","270-VK","2017/10/14 18:49:53","新北市土城區金城路二段372號","121.462658333333","24.9851683333333","6501300","土城區"
"236038","271-VK","2017/10/14 18:49:54","新北市土城區明德路一段247巷15號","121.462875","24.977665","6501300","土城區"
"236023","401-BY","2017/10/14 18:49:54","新北市土城區延安街42-5號","121.467555","24.9851916666667","6501300","土城區"
"236059","912-UM","2017/10/14 18:49:54","新北市土城區金城路一段56號","121.44247","24.9706866666667","6501300","土城區"
"236049","913-UM","2017/10/14 18:49:52","新北市土城區青雲路42號","121.459931666667","24.988235","6501300","土城區"
"236063","915-UM","2017/10/14 18:49:55","新北市土城區金城路三段207巷6弄7號","121.470413333333","24.99015","6501300","土城區"
"236055","AAC-216","2017/10/14 18:49:35","新北市土城區裕民路163號","121.452578333333","24.9857366666667","6501300","土城區"
"238023","601-UM","2017/10/14 18:49:53","新北市樹林區三福街114號","121.406511666667","25.016345","6500700","樹林區"
"238018","571-TV","2017/10/14 18:49:52","新北市樹林區鎮前街58號","121.425835","24.9926666666667","6500700","樹林區"
"238024","5061-A6","2017/10/14 18:49:44","新北市樹林區太平路221號","121.418661666667","24.9773983333333","6500700","樹林區"
"238025","303-VK","2017/10/14 18:49:38","新北市樹林區中山路三段22號","121.39556","24.9729816666667","6500700","樹林區"
"238014","282-BY","2017/10/14 18:49:41","新北市樹林區大安路111巷41號","121.423318333333","24.9975833333333","6500700","樹林區"
"238020","268-VK","2017/10/14 18:49:40","新北市樹林區俊英街79號","121.426115","25.0075733333333","6500700","樹林區"
"238026","172-UY","2017/10/14 18:49:53","新北市樹林區八德街1010號","121.391421666667","24.9684916666667","6500700","樹林區"
"238016","169-UY","2017/10/14 18:49:53","新北市樹林區文化街28號","121.419323333333","24.9877666666667","6500700","樹林區"
"239007","AAC-297","2017/10/14 18:49:48","新北市鶯歌區成功街20巷9號","121.358823333333","24.9577533333333","6500800","鶯歌區"
"239006","891-R6","2017/10/14 18:49:39","新北市鶯歌區鶯桃路213-1號","121.336725","24.9591516666667","6500800","鶯歌區"
"239008","527-UM","2017/10/14 18:49:46","新北市鶯歌區朝陽路居易巷7號","121.336913333333","24.9765983333333","6500800","鶯歌區"
"239005","526-UM","2017/10/14 18:49:52","新北市鶯歌區大湖路361巷8號","121.330678333333","24.9778366666667","6500800","鶯歌區"
"239001","417-VK","2017/10/14 18:49:56","新北市鶯歌區永明街13號","121.338283333333","24.9552233333333","6500800","鶯歌區"
"239003","360-BY","2017/10/14 18:49:51","新北市鶯歌區鶯桃路658巷47-2號","121.330273333333","24.9700016666667","6500800","鶯歌區"
"239002","359-BY","2017/10/14 18:49:38","新北市鶯歌區中山路129號","121.349558333333","24.95707","6500800","鶯歌區"
"239004","193-VK","2017/10/14 18:49:41","新北市鶯歌區中正三路230巷12號","121.330378333333","24.93892","6500800","鶯歌區"
"221008","489-VK","2017/10/14 18:49:48","新北市汐止區康寧街901號","121.651411666667","25.0751033333333","6501100","汐止區"
"221036","130-UY","2017/10/14 18:49:44","新北市汐止區水碓街40號","121.664998333333","25.0685883333333","6501100","汐止區"
"221015","131-UY","2017/10/14 18:49:51","新北市汐止區鄉長路一段55巷14號","121.665068333333","25.0762783333333","6501100","汐止區"
"221010","269-BY","2017/10/14 18:49:50","新北市汐止區汐萬路二段67號","121.648716666667","25.0825533333333","6501100","汐止區"
"221012","276-VK","2017/10/14 13:23:34","新北市汐止區汐萬路一段256巷3號","121.653436666667","25.0746766666667","6501100","汐止區"
"221012","278-VK","2017/10/14 18:49:51","新北市汐止區康寧街901號","121.65079","25.0753183333333","6501100","汐止區"
"221023","279-VK","2017/10/14 18:49:40","新北市汐止區康寧街901號","121.650971666667","25.0752366666667","6501100","汐止區"
"221032","280-BY","2017/10/14 18:49:41","新北市汐止區民權街二段79號","121.619155","25.04808","6501100","汐止區"
"221029","298-VK","2017/10/14 18:49:45","新北市汐止區工建路48號","121.641155","25.0629866666667","6501100","汐止區"
"221021","299-VK","2017/10/14 18:49:57","新北市汐止區汐萬路一段256巷3號","121.65268","25.0745833333333","6501100","汐止區"
"221031","353-TW","2017/10/14 18:49:44","新北市汐止區福德一路300巷27號","121.630521666667","25.064235","6501100","汐止區"
"221035","622-UM","2017/10/14 18:49:46","新北市汐止區康寧街901號","121.651126666667","25.0751683333333","6501100","汐止區"
"221025","623-UM","2017/10/14 18:49:45","新北市汐止區秀峰路62號","121.659741666667","25.0646983333333","6501100","汐止區"
"221038","646-BX","2017/10/14 18:49:37","新北市汐止區康寧街901號","121.650708333333","25.0753133333333","6501100","汐止區"
"221033","647-BX","2017/10/14 18:49:55","新北市汐止區南勢街1巷1號","121.627065","25.0374283333333","6501100","汐止區"
"221002","707-TV","2017/10/14 18:49:45","新北市汐止區大同路一段161號","121.632538333333","25.0565166666667","6501100","汐止區"
"221018","753-BX","2017/10/14 18:49:51","新北市汐止區茄苳路157號","121.669665","25.0695016666667","6501100","汐止區"
"220079","145-BY","2017/10/14 18:49:49","新北市板橋區民權路202巷7弄18號","121.459471666667","25.0149633333333","6500100","板橋區"
"220080","200-UY","2017/10/14 18:49:43","新北市板橋區大觀路二段265巷72弄1號","121.442511666667","24.996825","6500100","板橋區"
"220082","610-BX","2017/10/14 18:49:46","新北市板橋區篤行路二段152號","121.429503333333","24.9879716666667","6500100","板橋區"
"220101","245-BX","2017/10/14 18:49:51","新北市板橋區民生路二段161巷3號","121.470156666667","25.0197666666667","6500100","板橋區"
"220091","267-BY","2017/10/14 18:49:47","新北市板橋區民生路二段188號","121.470181666667","25.0203083333333","6500100","板橋區"
"220056","276-BY","2017/10/14 18:49:44","新北市板橋區四川路二段14號","121.456095","24.9962816666667","6500100","板橋區"
"220072","277-BY","2017/10/14 18:49:44","新北市板橋區大觀路三段63-1號","121.433595","24.9953833333333","6500100","板橋區"
"220094","280-UM","2017/10/14 18:49:57","新北市板橋區民生路二段161巷9號","121.470303333333","25.019705","6500100","板橋區"
"220064","282-UM","2017/10/14 18:49:40","新北市板橋區華東街1-9號","121.44816","24.9948933333333","6500100","板橋區"
"220071","283-VK","2017/10/14 18:49:43","新北市板橋區四川路一段256號","121.459108333333","25.001355","6500100","板橋區"
"220053","285-VK","2017/10/14 18:49:58","新北市板橋區民生路二段107號","121.471251666667","25.0179966666667","6500100","板橋區"
"220083","286-VK","2017/10/14 18:49:40","新北市板橋區大觀路二段22巷35號","121.444875","25.0035583333333","6500100","板橋區"
"220081","287-VK","2017/10/14 18:49:45","新北市板橋區南雅西路二段90號","121.452431666667","25.0111366666667","6500100","板橋區"
"220090","288-VK","2017/10/14 18:49:50","新北市板橋區民生路二段161巷5號","121.470241666667","25.01972","6500100","板橋區"
"220061","293-UM","2017/10/14 18:49:50","新北市板橋區民生路二段89-4號","121.471023333333","25.018395","6500100","板橋區"
"220096","295-UM","2017/10/14 18:49:53","新北市板橋區民生路二段161巷3號","121.470265","25.0198366666667","6500100","板橋區"
"220084","296-UM","2017/10/14 18:49:55","新北市板橋區大觀路二段174巷102弄17號","121.441508333333","25.001295","6500100","板橋區"
"220075","297-UM","2017/10/14 18:49:41","新北市板橋區館前西路162號","121.452896666667","25.0085816666667","6500100","板橋區"
"220098","299-UM","2017/10/14 18:49:51","新北市板橋區民生路二段120號","121.470455","25.0194816666667","6500100","板橋區"
"220062","305-R5","2017/10/14 18:49:37","新北市板橋區民生路二段89-4號","121.471175","25.0181583333333","6500100","板橋區"
"220092","307-R5","2017/10/14 18:49:41","新北市板橋區民生路二段89-4號","121.470978333333","25.0184216666667","6500100","板橋區"
"220064","486-VK","2017/10/14 18:49:51","新北市板橋區觀光街12巷1弄2號","121.471831666667","25.01674","6500100","板橋區"
"220089","487-VK","2017/10/14 18:49:50","新北市板橋區民生路二段175號","121.469996666667","25.0202466666667","6500100","板橋區"
"220088","491-VK","2017/10/14 18:49:55","新北市板橋區民生路二段188號","121.470118333333","25.0202533333333","6500100","板橋區"
"220035","560-BX","2017/10/14 18:49:42","新北市板橋區中正路275巷62弄2號","121.453036666667","25.018015","6500100","板橋區"
"220103","561-BX","2017/10/14 18:49:42","新北市板橋區民生路二段120號","121.470511666667","25.0195","6500100","板橋區"
"220063","609-BX","2017/10/14 18:49:51","新北市板橋區民生路二段97號","121.471463333333","25.01776","6500100","板橋區"
"220057","686-BX","2017/10/14 18:49:40","新北市板橋區南雅南路一段7巷23號","121.456368333333","25.0051116666667","6500100","板橋區"
"220077","687-BX","2017/10/14 18:49:40","新北市板橋區大觀路一段38巷156弄4號","121.442658333333","25.0044966666667","6500100","板橋區"
"220093","689-BX","2017/10/14 18:49:37","新北市板橋區民生路二段171號","121.4699","25.0201666666667","6500100","板橋區"
"220054","741-BX","2017/10/14 18:49:58","新北市板橋區南雅南路一段3巷25-5號","121.456951666667","25.0058233333333","6500100","板橋區"
"220055","827-TW","2017/10/14 18:49:43","新北市板橋區南雅南路一段1巷42號","121.457521666667","25.0063133333333","6500100","板橋區"
"220067","829-TW","2017/10/14 18:49:47","新北市板橋區中山路二段50-1號","121.473301666667","25.0154316666667","6500100","板橋區"
"220102","830-TW","2017/10/14 15:38:48","新北市板橋區民生路二段161巷1號","121.469861666667","25.019845","6500100","板橋區"
"220074","895-R6","2017/10/14 18:49:40","新北市板橋區南門街34號","121.45709","25.00844","6500100","板橋區"
"220073","985-R7","2017/10/14 18:49:52","新北市板橋區館前西路102號","121.457175","25.0073716666667","6500100","板橋區"
"220097","AAC-210","2017/10/14 18:49:53","新北市板橋區民生路二段120號","121.47038","25.0196833333333","6500100","板橋區"
"220070","AAC-253","2017/10/14 18:49:41","新北市板橋區縣民大道一段114號","121.457236666667","25.0059866666667","6500100","板橋區"
