"lineid","car","time","location","longitude","latitude","cityid","cityname"
"234046","148-BY","2017/10/14 19:29:47","新北市永和區得和路375號","121.524678333333","24.9995","6500400","永和區"
"234013","149-BY","2017/10/14 19:29:34","新北市永和區信義路10-1號","121.51451","25.0120866666667","6500400","永和區"
"234007","207-UY","2017/10/14 19:29:45","新北市永和區永和路一段84號","121.513008333333","25.0067066666667","6500400","永和區"
"234081","298-R6","2017/10/14 19:29:41","新北市永和區福和路7巷5弄7號","121.525566666667","25.0083233333333","6500400","永和區"
"234038","336-UY","2017/10/14 19:29:50","新北市永和區民樂街41巷1號","121.527498333333","25.000115","6500400","永和區"
"234064","337-UY","2017/10/14 19:29:50","新北市永和區得和路243巷27號","121.520738333333","25.0011816666667","6500400","永和區"
"234086","338-UY","2017/10/14 19:29:44","新北市永和區林森路80號","121.523353333333","25.0037766666667","6500400","永和區"
"234070","552-UM","2017/10/14 19:29:38","新北市永和區中正路666巷40號","121.518231666667","25.0091283333333","6500400","永和區"
"234054","553-UM","2017/10/14 19:29:42","新北市永和區復興街19巷6號","121.516201666667","25.0131983333333","6500400","永和區"
"234017","745-BX","2017/10/14 19:29:44","新北市永和區環河西路一段57號","121.5136","25.0182016666667","6500400","永和區"
"234030","746-BX","2017/10/14 19:29:52","新北市永和區民生路49號","121.522738333333","24.9977866666667","6500400","永和區"
"234061","AAD-866","2017/10/14 19:29:42","新北市永和區中正路568號","121.517136666667","25.0061916666667","6500400","永和區"
"234042","862-TW","2017/10/14 19:29:37","新北市永和區永貞路302號","121.512111666667","25.0047716666667","6500400","永和區"
"234050","863-TW","2017/10/14 19:29:39","新北市永和區仁愛路130號","121.511235","25.0130833333333","6500400","永和區"
"234026","9371-KE","2017/10/14 19:29:48","新北市永和區安樂路104巷2弄2號","121.514388333333","24.9996066666667","6500400","永和區"
"234011","9373-KE","2017/10/14 19:29:52","新北市永和區仁愛路141巷3弄11號","121.512055","25.0125133333333","6500400","永和區"
"249003","593-UM","2017/10/14 19:29:42","新北市八里區中山路二段500巷58號","121.395955","25.1492066666667","6502300","八里區"
"248014","025-BX","2017/10/14 19:29:50","新北市五股區民義路一段185-20號","121.431195","25.0874483333333","6501500","五股區"
"248008","095-VK","2017/10/14 19:29:38","新北市五股區中興路一段95巷15號","121.46657","25.0723","6501500","五股區"
"248020","225-UY","2017/10/14 19:29:37","新北市五股區凌雲路三段100-2號","121.426638333333","25.123045","6501500","五股區"
"248012","247-BX","2017/10/14 19:29:41","新北市五股區成泰路二段97號","121.437926666667","25.0843716666667","6501500","五股區"
"248010","272-BY","2017/10/14 19:29:37","新北市五股區水碓一路23號","121.430625","25.0712933333333","6501500","五股區"
"248004","677-BX","2017/10/14 19:29:53","新北市五股區五福路125-1號","121.432","25.09133","6501500","五股區"
"248002","678-BX","2017/10/14 19:29:51","新北市五股區凌雲路一段158巷15號","121.447806666667","25.1035716666667","6501500","五股區"
"234023","9380-KE","2017/10/14 19:29:46","新北市永和區竹林路91巷47弄1號","121.521225","25.01286","6500400","永和區"
"234077","969-R7","2017/10/14 19:29:44","新北市永和區民族街43巷11號","121.519035","24.9984816666667","6500400","永和區"
"234074","AAC-211","2017/10/14 19:29:48","新北市永和區環河東路二段54-1號","121.523358333333","25.011535","6500400","永和區"
"234067","AAC-212","2017/10/14 19:29:37","新北市永和區永貞路360巷5號","121.510463333333","25.007045","6500400","永和區"
"234003","AAC-295","2017/10/14 19:29:35","新北市永和區福和路352號","121.514693333333","25.0074266666667","6500400","永和區"
"244019","403-UM","2017/10/14 19:29:46","新北市林口區麗園二街1巷9-1號","121.379086666667","25.0700366666667","6501700","林口區"
"244025","742-UY","2017/10/14 19:29:48","新北市林口區汕頭32號","121.366388333333","25.13529","6501700","林口區"
"244023","483-VK","2017/10/14 19:29:50","新北市林口區文化北路二段232號","121.372778333333","25.0854266666667","6501700","林口區"
"243013","AAD-798","2017/10/14 19:29:43","新北市泰山區明志路三段145巷5弄17號","121.425571666667","25.040495","6501600","泰山區"
"243009","297-R6","2017/10/14 19:29:35","新北市泰山區明志路一段17號","121.433846666667","25.0658633333333","6501600","泰山區"
"243015","380-SR","2017/10/14 19:29:16","新北市泰山區明志路二段76號","121.42869","25.052365","6501600","泰山區"
"243014","421-VK","2017/10/14 19:29:44","新北市泰山區仁愛路6巷4弄2號","121.431175","25.05372","6501600","泰山區"
"243010","KEA-2215","2017/10/14 19:29:43","新北市泰山區民生路17巷36號","121.429446666667","25.05158","6501600","泰山區"
"243011","KEA-2216","2017/10/14 19:29:42","新北市泰山區貴子路19-1號","121.4281","25.0408283333333","6501600","泰山區"
"243012","646-TV","2017/10/14 19:29:50","新北市泰山區仁愛路64號","121.432251666667","25.0548233333333","6501600","泰山區"
"243016","680-BX","2017/10/14 19:29:50","新北市泰山區明志路三段356號","121.421371666667","25.0347433333333","6501600","泰山區"
"222001","016-RS","2017/10/14 19:29:35","新北市深坑區北深路二段134號","121.615886666667","25.00292","6501800","深坑區"
"222003","436-BY","2017/10/14 19:29:50","新北市深坑區深南路51-1號","121.621146666667","25.0101016666667","6501800","深坑區"
"222002","659-BX","2017/10/14 19:29:47","新北市深坑區北深路一段210號","121.632548333333","25.01094","6501800","深坑區"
"231041","002-UM","2017/10/14 19:29:35","新北市新店區中正路622號","121.533931666667","24.9887516666667","6500600","新店區"
"231059","046-UY","2017/10/14 19:29:40","新北市新店區安和路三段151號","121.516668333333","24.9855583333333","6500600","新店區"
"231061","047-UY","2017/10/14 19:29:36","新北市新店區安民街46號","121.515936666667","24.9654116666667","6500600","新店區"
"231060","106-UY","2017/10/14 19:29:45","新北市新店區安康路二段51-1號","121.514893333333","24.963615","6500600","新店區"
"231048","108-UY","2017/10/14 19:29:34","新北市新店區五峰路137號","121.545015","24.96573","6500600","新店區"
"231051","110-UY","2017/10/14 19:29:32","新北市新店區中央五街20號","121.529418333333","24.9744416666667","6500600","新店區"
"231052","187-VK","2017/10/14 19:29:49","新北市新店區新烏路二段200巷11號","121.547708333333","24.9168066666667","6500600","新店區"
"231050","KEA-2219","2017/10/14 19:29:50","新北市新店區北宜路二段245號","121.554045","24.953495","6500600","新店區"
"231057","256-BX","2017/10/14 19:29:50","新北市新店區花園一路二段11-7號","121.550781666667","24.9334733333333","6500600","新店區"
"231046","278-BY","2017/10/14 19:29:35","新北市新店區北新路二段2號","121.542566666667","24.9706666666667","6500600","新店區"
"231054","AAD-862","2017/10/14 19:29:39","新北市新店區文中路40號","121.53968","24.9565033333333","6500600","新店區"
"231058","3712-VJ","2017/10/14 19:29:39","新北市新店區永華街5號","121.543318333333","24.9770883333333","6500600","新店區"
"231056","4716-K9","2017/10/14 19:29:40","新北市新店區安康路二段414巷2號","121.495916666667","24.95791","6500600","新店區"
"231067","4772-VM","2017/10/14 19:29:44","新北市新店區薏仁坑路自強巷1號","121.49754","24.9578816666667","6500600","新店區"
"231065","513-UM","2017/10/14 19:29:41","新北市新店區安祥路109巷1弄91號","121.478796666667","24.9602683333333","6500600","新店區"
"231064","515-UM","2017/10/14 19:29:53","新北市新店區安康路二段70號","121.514496666667","24.9635666666667","6500600","新店區"
"231045","617-UM","2017/10/14 19:29:53","新北市新店區北宜路二段211號","121.553213333333","24.9533933333333","6500600","新店區"
"231040","619-UM","2017/10/14 19:29:33","新北市新店區北新路一段60號","121.541063333333","24.966485","6500600","新店區"
"231042","641-BX","2017/10/14 19:29:32","新北市新店區中興路一段65號","121.540185","24.960765","6500600","新店區"
"231063","645-TV","2017/10/14 19:29:48","新北市新店區達觀路18-1號","121.502808333333","24.941405","6500600","新店區"
"231049","719-UM","2017/10/14 19:29:31","新北市新店區北新路三段65巷34弄1號","121.540005","24.981275","6500600","新店區"
"231062","720-UM","2017/10/14 19:29:51","新北市新店區安康路一段78號","121.52818","24.9619666666667","6500600","新店區"
"231044","897-TW","2017/10/14 19:29:49","新北市新店區中興路三段258號","121.54284","24.984265","6500600","新店區"
"231043","899-TW","2017/10/14 19:29:38","新北市新店區北新路二段198號","121.543008333333","24.97664","6500600","新店區"
"231066","AKT-0513","2017/10/14 19:29:42","新北市新店區安康路三段165巷2弄12號","121.489","24.9513883333333","6500600","新店區"
"241028","022-UY","2017/10/14 19:29:37","新北市三重區中寮街70號","121.493045","25.05828","6500200","三重區"
"241008","059-VK","2017/10/14 19:29:36","新北市蘆洲區永安北路一段72巷2號","121.476991666667","25.07717","6500200","三重區"
"241031","061-VK","2017/10/14 19:29:42","新北市三重區集美街100號","121.488541666667","25.0541183333333","6500200","三重區"
"241017","063-VK","2017/10/14 19:29:47","新北市三重區中正北路25巷2號","121.493215","25.062725","6500200","三重區"
"241026","066-VK","2017/10/14 19:29:31","新北市三重區文化南路47巷17號","121.499668333333","25.0612933333333","6500200","三重區"
"241009","156-TC","2017/10/14 19:29:45","新北市三重區溪尾街242巷45號","121.486505","25.0815933333333","6500200","三重區"
"241022","267-UM","2017/10/14 19:29:46","新北市三重區三民街175巷3號","121.483671666667","25.0653116666667","6500200","三重區"
"241013","270-UM","2017/10/14 19:29:31","新北市三重區仁愛街129巷2號","121.495668333333","25.074985","6500200","三重區"
"241025","271-UM","2017/10/14 19:29:44","新北市三重區頂崁街210巷23弄1號","121.475835","25.0681866666667","6500200","三重區"
"241007","398-BY","2017/10/14 19:29:38","新北市三重區溪尾街150號","121.488963333333","25.0799333333333","6500200","三重區"
"241020","413-TH","2017/10/14 19:29:34","新北市三重區三和路四段42號","121.490518333333","25.0745383333333","6500200","三重區"
"241035","462-BY","2017/10/14 19:29:49","新北市三重區信義西街1巷13號","121.498063333333","25.0651966666667","6500200","三重區"
"241030","480-VK","2017/10/14 19:29:36","新北市三重區成功路41巷10號","121.490273333333","25.051545","6500200","三重區"
"241023","545-UM","2017/10/14 19:29:53","新北市三重區頂崁街99號","121.477978333333","25.063895","6500200","三重區"
"241006","AAD-863","2017/10/14 19:29:46","新北市三重區車路頭街80巷2號","121.4841","25.0739116666667","6500200","三重區"
"241029","942-UM","2017/10/14 19:29:40","新北市三重區中正南路254號","121.493206666667","25.053105","6500200","三重區"
"235066","003-UY","2017/10/14 19:29:40","新北市中和區安和路159號","121.506113333333","24.9972366666667","6500300","中和區"
"235064","005-UY","2017/10/14 19:29:34","新北市中和區中和路2號","121.499375","25.0023883333333","6500300","中和區"
"235063","006-UY","2017/10/14 19:29:43","新北市中和區連城路217號","121.494308333333","24.99774","6500300","中和區"
"235056","096-UM","2017/10/14 19:29:42","新北市中和區中山路三段39-2號","121.477685","25.0054933333333","6500300","中和區"
"235039","097-UM","2017/10/14 19:29:45","新北市中和區秀峰街119巷6弄14號","121.518903333333","24.990075","6500300","中和區"
"235065","098-UM","2017/10/14 19:29:41","新北市中和區中山路二段2巷5弄6號","121.50429","25.0062083333333","6500300","中和區"
"235040","150-BY","2017/10/14 19:29:33","新北市中和區保健路46巷24弄1號","121.508513333333","24.9955733333333","6500300","中和區"
"235058","151-BY","2017/10/14 19:29:34","新北市中和區中正路637巷52弄5號","121.48518","24.99377","6500300","中和區"
"235055","183-VK","2017/10/14 19:29:49","新北市中和區莒光路120巷12號","121.471621666667","25.0017533333333","6500300","中和區"
"235038","185-VK","2017/10/14 19:29:48","新北市中和區大智街55巷31號","121.52058","24.9927666666667","6500300","中和區"
"235049","186-VK","2017/10/14 19:29:47","新北市中和區景新街285巷26號","121.51086","24.9937266666667","6500300","中和區"
"235067","255-BX","2017/10/14 19:29:48","新北市中和區連城路306號","121.483778333333","24.996235","6500300","中和區"
"235044","293-VK","2017/10/14 19:29:51","新北市中和區南山路323號","121.50502","24.991325","6500300","中和區"
"235072","301-VK","2017/10/14 19:29:34","新北市中和區連城路265巷12弄2號","121.491708333333","24.9952","6500300","中和區"
"235043","352-BY","2017/10/14 19:29:52","新北市中和區安和路127號","121.506906666667","24.9960466666667","6500300","中和區"
"235068","375-QA","2017/10/14 19:29:36","新北市中和區景平路493巷12弄4號","121.498915","24.997305","6500300","中和區"
"235051","376-QA","2017/10/14 19:29:48","新北市中和區景新街103號","121.505518333333","24.9979033333333","6500300","中和區"
"235061","378-QA","2017/10/14 19:29:37","新北市中和區連城路549號","121.48013","24.9948333333333","6500300","中和區"
"235050","4979-A6","2017/10/14 19:29:44","新北市中和區景安路251號","121.503926666667","24.9905733333333","6500300","中和區"
"235042","551-UM","2017/10/14 19:29:34","新北市中和區安樂路217巷35弄7號","121.513846666667","24.99779","6500300","中和區"
"235070","558-UM","2017/10/14 19:29:46","新北市中和區中山路二段253號","121.497733333333","25.0023433333333","6500300","中和區"
"235045","565-BX","2017/10/14 19:29:41","新北市中和區景新街423巷33弄3號","121.513743333333","24.98979","6500300","中和區"
"235054","640-BX","2017/10/14 19:29:44","新北市中和區國光街109巷7號","121.469828333333","25.0000933333333","6500300","中和區"
"235060","647-TV","2017/10/14 19:29:46","新北市中和區民有街62號","121.476013333333","25.00444","6500300","中和區"
"235047","732-UM","2017/10/14 19:05:48","新北市中和區興南路二段62號","121.506313333333","24.9848816666667","6500300","中和區"
"235046","733-UM","2017/10/14 19:29:35","新北市中和區忠孝街37巷52號","121.511195","24.98498","6500300","中和區"
"235062","800-TS","2017/10/14 19:29:38","新北市八里區商港路120號","121.392866666667","25.1500933333333","6500300","中和區"
"235057","801-TS","2017/10/14 19:29:50","新北市中和區員山路423巷14弄1-1號","121.480378333333","25.0028683333333","6500300","中和區"
"235041","802-TS","2017/10/14 19:29:35","新北市中和區中和路328號","121.509858333333","25.0011","6500300","中和區"
"235052","805-TS","2017/10/14 19:29:44","新北市中和區華新街143巷71弄35號","121.507788333333","24.979225","6500300","中和區"
"235048","896-TW","2017/10/14 19:29:37","新北市中和區四維街40號","121.51244","24.98693","6500300","中和區"
"235053","900-TW","2017/10/14 19:29:39","新北市中和區華安街17巷29號","121.467418333333","24.9983266666667","6500300","中和區"
"235071","911-UM","2017/10/14 19:29:41","新北市中和區連城路469巷21弄22號","121.48409","24.9950866666667","6500300","中和區"
"235037","AAC-213","2017/10/14 19:29:41","新北市中和區秀朗路三段10巷14弄96號","121.523463333333","24.9967133333333","6500300","中和區"
"235059","AAC-215","2017/10/14 19:29:33","新北市中和區圓通路252巷36弄2號","121.492495","24.992805","6500300","中和區"
"220068","013-TV","2017/10/14 19:29:53","新北市板橋區翠華街6巷85號","121.482188333333","25.0255083333333","6500100","板橋區"
"220065","072-UY","2017/10/14 19:29:41","新北市板橋區國泰街75巷45號","121.468236666667","25.0048566666667","6500100","板橋區"
"220086","073-UY","2017/10/14 19:29:48","新北市板橋區中正路216巷2弄11號","121.456571666667","25.01808","6500100","板橋區"
"220106","075-UY","2017/10/14 19:29:45","新北市板橋區長江路三段64號","121.473793333333","25.0340016666667","6500100","板橋區"
"220069","AAD-861","2017/10/14 19:29:49","新北市板橋區貴興路39號","121.457555","25.00372","6500100","板橋區"
"247012","546-UM","2017/10/14 19:00:38","新北市五股區中興路三段163號","121.449151666667","25.0805616666667","6501400","蘆洲區"
"247004","336-TH","2017/10/14 19:29:48","新北市蘆洲區長安街158號","121.4595","25.08277","6501400","蘆洲區"
"247008","053-VK","2017/10/14 19:29:48","新北市蘆洲區長安街73巷31號","121.462178333333","25.0786933333333","6501400","蘆洲區"
"226004","205-ST","2017/10/14 19:29:47","新北市平溪區十分里十分街191號","121.778353333333","25.043715","6502400","平溪區"
"228003","097-TW","2017/10/14 19:29:38","新北市貢寮區和美里和美街22-1號","121.912843333333","25.08264","6502600","貢寮區"
"228001","212-TW","2017/10/14 19:29:35","新北市貢寮區真理里延平街68-2號","121.925385","25.057465","6502600","貢寮區"
"228002","585-TW","2017/10/14 19:29:50","新北市貢寮區龍門里龍門街76號","121.931368333333","25.0270633333333","6502600","貢寮區"
"224010","AGQ-8101","2017/10/14 19:29:53","新北市瑞芳區基山街3號","121.84526","25.109755","6501200","瑞芳區"
"227002","642-TC","2017/10/14 19:29:33","新北市雙溪區雙溪里太平路60號","121.865085","25.0355716666667","6502500","雙溪區"
"227010","400-TW","2017/10/14 19:29:41","新北市雙溪區新基里新基北街43號","121.868178333333","25.03975","6502500","雙溪區"
"227010","030-BX","2017/10/14 12:36:54","新北市雙溪區三貂里政光路3-1號","121.850941666667","25.06312","6502500","雙溪區"
"253005","032-BX","2017/10/14 19:29:34","新北市石門區小坑9號","121.594325","25.28868","6502200","石門區"
"253006","295-VK","2017/10/14 19:29:52","新北市石門區楓林28-2號","121.542015","25.2890233333333","6502200","石門區"
"208002","742-BX","2017/10/14 19:29:35","新北市金山區仁愛路87巷1號","121.634596666667","25.2215316666667","6502700","金山區"
"208003","665-BX","2017/10/14 19:29:39","新北市金山區中山路263巷14號","121.636396666667","25.2216216666667","6502700","金山區"
"208001","761-BX","2017/10/14 19:29:42","新北市金山區南勢54號","121.628503333333","25.22078","6502700","金山區"
"251009","008-UM","2017/10/14 19:29:40","新北市淡水區大忠街5巷9號","121.443341666667","25.176545","6501000","淡水區"
"251001","011-UM","2017/10/14 19:29:39","新北市淡水區民權路177號","121.459816666667","25.1353516666667","6501000","淡水區"
"251014","180-VK","2017/10/14 19:29:36","新北市淡水區小中寮19-7號","121.484761666667","25.2297183333333","6501000","淡水區"
"251010","413-VK","2017/10/14 19:29:37","新北市淡水區中正路二段142-1號","121.422068333333","25.1875283333333","6501000","淡水區"
"251016","442-VK","2017/10/14 19:29:44","新北市淡水區下圭柔山119-51號","121.450796666667","25.2084216666667","6501000","淡水區"
"251005","443-VK","2017/10/14 19:29:33","新北市淡水區水源街一段71巷13號","121.444483333333","25.17304","6501000","淡水區"
"251006","561-UM","2017/10/14 19:29:50","新北市淡水區大義街30號","121.442476666667","25.178405","6501000","淡水區"
"251007","577-R6","2017/10/14 19:29:45","新北市淡水區坪頂路19號","121.455601666667","25.1605983333333","6501000","淡水區"
"251011","650-BX","2017/10/14 19:29:38","新北市淡水區中正東路二段143巷2弄1號","121.460728333333","25.147455","6501000","淡水區"
"251003","673-BX","2017/10/14 19:29:36","新北市淡水區中山北路二段182號","121.444376666667","25.1849233333333","6501000","淡水區"
"207003","550-UM","2017/10/14 19:29:37","新北市萬里區大鵬里萬里加投197-5號","121.644013333333","25.2150816666667","6502800","萬里區"
"207004","225-TW","2017/10/14 19:29:45","新北市萬里區萬里里瑪鋉頂街43-1號","121.689113333333","25.1786333333333","6502800","萬里區"
"252002","178-VK","2017/10/14 19:29:41","新北市三芝區淡金路二段26-1號","121.502733333333","25.2596","6502100","三芝區"
"252001","292-VK","2017/10/14 19:29:46","新北市三芝區長勤街63-4號","121.500008333333","25.25586","6502100","三芝區"
"252007","AAC-283","2017/10/14 16:19:00","新北市三芝區埔坪里埔頭坑41號","121.504518333333","25.2644316666667","6502100","三芝區"
"237004","078-UY","2017/10/14 19:29:44","新北市三峽區有木111-1號","121.434565","24.8600633333333","6500900","三峽區"
"237007","153-BY","2017/10/14 19:29:38","新北市三峽區二鬮路178號","121.359161666667","24.90684","6500900","三峽區"
"237009","210-TH","2017/10/14 19:29:36","新北市三峽區民權街58號","121.369578333333","24.933245","6500900","三峽區"
"237013","252-BX","2017/10/14 19:29:42","新北市三峽區介壽路一段276巷88弄23號","121.378826666667","24.9284983333333","6500900","三峽區"
"237012","275-BY","2017/10/14 19:29:40","新北市三峽區三樹路98巷169號","121.384605","24.9395416666667","6500900","三峽區"
"237008","302-VK","2017/10/14 19:29:49","新北市三峽區永安街95巷18號","121.374616666667","24.9284633333333","6500900","三峽區"
"237014","433-BY","2017/10/14 19:29:42","新北市三峽區中山路257巷1號","121.36247","24.9372933333333","6500900","三峽區"
"237006","5529-G3","2017/10/14 19:29:49","新北市三峽區中正路一段225號","121.372016666667","24.92716","6500900","三峽區"
"237016","649-BX","2017/10/14 19:29:34","新北市三峽區溪東路367號","121.411666666667","24.9292666666667","6500900","三峽區"
"237010","706-TV","2017/10/14 19:08:53","新北市三峽區復興路11號","121.374208333333","24.9361383333333","6500900","三峽區"
"237005","AKY-6261","2017/10/14 19:29:37","新北市三峽區復興路367巷13號","121.363843333333","24.9376283333333","6500900","三峽區"
"236073","105-UM","2017/10/14 19:29:41","新北市土城區學府路一段188號","121.453231666667","24.9861183333333","6501300","土城區"
"236079","166-UM","2017/10/14 19:29:50","新北市土城區中央路四段426-2號","121.41085","24.9517383333333","6501300","土城區"
"236027","269-VK","2017/10/14 19:29:34","新北市土城區中央路二段61巷22號","121.44321","24.978795","6501300","土城區"
"236023","401-BY","2017/10/14 19:29:35","新北市土城區峰廷街3號","121.469113333333","24.9874","6501300","土城區"
"236059","912-UM","2017/10/14 19:29:33","新北市土城區中央路二段61巷20號","121.443006666667","24.97889","6501300","土城區"
"236049","913-UM","2017/10/14 19:29:52","新北市土城區清水路224號","121.460885","24.9823083333333","6501300","土城區"
"236063","915-UM","2017/10/14 19:29:35","新北市土城區金城路三段202-3號","121.46952","24.988595","6501300","土城區"
"238015","755-BX","2017/10/14 19:29:44","新北市樹林區復興路205號","121.420333333333","24.9914383333333","6500700","樹林區"
"238023","601-UM","2017/10/14 19:29:53","新北市樹林區中正路865號","121.40882","25.0181416666667","6500700","樹林區"
"238019","599-UM","2017/10/14 19:29:46","新北市樹林區鎮前街409號","121.415103333333","24.983385","6500700","樹林區"
"238018","571-TV","2017/10/14 19:29:46","新北市樹林區中華路103號","121.422395","24.982735","6500700","樹林區"
"238024","5061-A6","2017/10/14 19:29:44","新北市樹林區福德街48-9號","121.398866666667","24.9748266666667","6500700","樹林區"
"238021","KEA-2217","2017/10/14 19:29:48","新北市樹林區柑園街二段303巷18-1號","121.372295","24.949545","6500700","樹林區"
"238022","KEA-2213","2017/10/14 19:29:48","新北市樹林區中山路二段125號","121.407885","24.97973","6500700","樹林區"
"238025","303-VK","2017/10/14 19:29:38","新北市樹林區中山路一段37號","121.42405","24.99253","6500700","樹林區"
"238014","282-BY","2017/10/14 19:29:41","新北市樹林區千歲街6巷19號","121.425786666667","24.99519","6500700","樹林區"
"238020","268-VK","2017/10/14 19:29:40","新北市樹林區俊英街121巷17號","121.423818333333","25.0101683333333","6500700","樹林區"
"238026","172-UY","2017/10/14 19:29:33","新北市樹林區佳園路三段26號","121.387965","24.953995","6500700","樹林區"
"238016","169-UY","2017/10/14 19:29:46","新北市樹林區復興路444號","121.413568333333","24.9841766666667","6500700","樹林區"
"239007","AAC-297","2017/10/14 19:29:48","新北市鶯歌區大湖路109巷1號","121.342365","24.9636966666667","6500800","鶯歌區"
"239006","891-R6","2017/10/14 19:29:39","新北市鶯歌區文化路161號","121.355728333333","24.954355","6500800","鶯歌區"
"239008","527-UM","2017/10/14 19:29:46","新北市鶯歌區國華路1-1號","121.343275","24.9569533333333","6500800","鶯歌區"
"239001","417-VK","2017/10/14 19:29:36","新北市鶯歌區尖山埔路237號","121.344428333333","24.9502266666667","6500800","鶯歌區"
"239003","360-BY","2017/10/14 19:29:31","新北市鶯歌區中山路129號","121.349511666667","24.9570283333333","6500800","鶯歌區"
"239002","359-BY","2017/10/14 19:29:38","新北市鶯歌區大湖路185巷22號","121.342478333333","24.9701716666667","6500800","鶯歌區"
"239004","193-VK","2017/10/14 19:29:41","新北市鶯歌區二甲路佳美巷13號","121.337345","24.9341166666667","6500800","鶯歌區"
"221008","489-VK","2017/10/14 19:29:48","新北市汐止區康寧街145號","121.622098333333","25.0666466666667","6501100","汐止區"
"221036","130-UY","2017/10/14 19:29:44","新北市汐止區康寧街901號","121.65181","25.0749866666667","6501100","汐止區"
"221015","131-UY","2017/10/14 19:29:51","新北市汐止區康寧街901號","121.651473333333","25.075","6501100","汐止區"
"221010","269-BY","2017/10/14 19:29:50","新北市汐止區連峰街1巷1號","121.646493333333","25.076105","6501100","汐止區"
"221012","276-VK","2017/10/14 13:23:34","新北市汐止區汐萬路一段256巷3號","121.653436666667","25.0746766666667","6501100","汐止區"
"221012","278-VK","2017/10/14 19:29:52","新北市汐止區大同路三段178號","121.674233333333","25.074795","6501100","汐止區"
"221023","279-VK","2017/10/14 19:29:35","新北市汐止區康寧街475號","121.632058333333","25.0683783333333","6501100","汐止區"
"221027","281-BY","2017/10/14 19:29:44","新北市汐止區忠孝東路9號","121.658381666667","25.06601","6501100","汐止區"
"221029","298-VK","2017/10/14 19:29:45","新北市汐止區康寧街901號","121.651691666667","25.075005","6501100","汐止區"
"221021","299-VK","2017/10/14 19:29:37","新北市汐止區康寧街901號","121.651343333333","25.07505","6501100","汐止區"
"221031","353-TW","2017/10/14 19:29:44","新北市汐止區福德三路127號","121.633593333333","25.067605","6501100","汐止區"
"221025","623-UM","2017/10/14 19:29:45","新北市汐止區新台五路二段30號","121.660785","25.06528","6501100","汐止區"
"221038","646-BX","2017/10/14 19:29:37","新北市汐止區汐萬路一段266號","121.650978333333","25.0739766666667","6501100","汐止區"
"221033","647-BX","2017/10/14 19:29:34","新北市汐止區南勢街1巷1號","121.62706","25.0375466666667","6501100","汐止區"
"221002","707-TV","2017/10/14 19:29:49","新北市汐止區中興路22號","121.63709","25.0598183333333","6501100","汐止區"
"221018","753-BX","2017/10/14 19:29:51","新北市汐止區康寧街901號","121.651591666667","25.0750283333333","6501100","汐止區"
"220079","145-BY","2017/10/14 19:29:46","新北市板橋區民權路302巷17號","121.457746666667","25.0165683333333","6500100","板橋區"
"220080","200-UY","2017/10/14 19:29:43","新北市板橋區大觀路二段19巷23號","121.447666666667","25.0031766666667","6500100","板橋區"
"220082","610-BX","2017/10/14 19:29:46","新北市板橋區金門街267號","121.431563333333","24.988555","6500100","板橋區"
"220101","245-BX","2017/10/14 19:29:51","新北市板橋區縣民大道三段133巷27號","121.477135","25.023945","6500100","板橋區"
"220091","267-BY","2017/10/14 19:29:46","新北市板橋區文聖街149巷20號","121.479355","25.0284416666667","6500100","板橋區"
"220056","276-BY","2017/10/14 19:29:44","新北市板橋區信義路1巷26弄45號","121.459553333333","24.9968366666667","6500100","板橋區"
"220072","277-BY","2017/10/14 19:29:44","新北市板橋區篤行路二段141巷23號","121.43066","24.98776","6500100","板橋區"
"220094","280-UM","2017/10/14 19:29:38","新北市板橋區吳鳳路17巷9號","121.467751666667","25.0299283333333","6500100","板橋區"
"220064","282-UM","2017/10/14 19:29:40","新北市板橋區華東街1-9號","121.44815","24.994845","6500100","板橋區"
"220071","283-VK","2017/10/14 19:29:43","新北市板橋區忠孝路48巷7弄1-3號","121.461096666667","25.0004233333333","6500100","板橋區"
"220053","285-VK","2017/10/14 19:29:38","新北市板橋區永豐街100號","121.475876666667","25.0205416666667","6500100","板橋區"
"220083","286-VK","2017/10/14 19:29:47","新北市板橋區龍興街73巷34號","121.442611666667","25.0027","6500100","板橋區"
"220081","287-VK","2017/10/14 18:52:30","新北市板橋區光華街15巷35號","121.452965","25.0114883333333","6500100","板橋區"
"220090","288-VK","2017/10/14 19:29:50","新北市板橋區裕民街96號","121.460136666667","25.028145","6500100","板橋區"
"220061","293-UM","2017/10/14 19:29:49","新北市板橋區中山路二段255巷7號","121.477008333333","25.0179916666667","6500100","板橋區"
"220096","295-UM","2017/10/14 19:29:53","新北市板橋區大同街35巷21號","121.476871666667","25.02778","6500100","板橋區"
"220084","296-UM","2017/10/14 19:29:47","新北市板橋區滿平街136巷6弄2號","121.428135","24.9875016666667","6500100","板橋區"
"220075","297-UM","2017/10/14 19:29:21","新北市板橋區中正路253巷14號","121.455003333333","25.0182133333333","6500100","板橋區"
"220098","299-UM","2017/10/14 19:29:51","新北市板橋區民生路三段263巷2弄12號","121.463851666667","25.02978","6500100","板橋區"
"220062","305-R5","2017/10/14 19:29:37","新北市板橋區三民路二段153巷35號","121.480935","25.0150816666667","6500100","板橋區"
"220092","307-R5","2017/10/14 19:29:42","新北市板橋區光武街2巷45-1號","121.468363333333","25.025985","6500100","板橋區"
"220064","486-VK","2017/10/14 19:29:36","新北市板橋區中山路一段50-5號","121.461056666667","25.0093816666667","6500100","板橋區"
"220089","487-VK","2017/10/14 19:29:47","新北市板橋區文化路一段83號","121.461045","25.01403","6500100","板橋區"
"220088","491-VK","2017/10/14 19:29:35","新北市板橋區雙十路二段95號","121.47531","25.0277583333333","6500100","板橋區"
"220035","560-BX","2017/10/14 19:29:42","新北市板橋區中正路399巷2號","121.453945","25.02229","6500100","板橋區"
"220103","561-BX","2017/10/14 19:29:42","新北市板橋區文化路一段188巷11號","121.466475","25.019435","6500100","板橋區"
"220063","609-BX","2017/10/14 19:29:51","新北市板橋區三民路一段3巷30號","121.480103333333","25.0237","6500100","板橋區"
"220057","686-BX","2017/10/14 19:29:40","新北市中和區和平路250號","121.464746666667","24.9971083333333","6500100","板橋區"
"220077","687-BX","2017/10/14 19:29:40","新北市板橋區僑中二街114巷1號","121.445791666667","25.006625","6500100","板橋區"
"220093","689-BX","2017/10/14 19:29:37","新北市板橋區英士路49-1號","121.461153333333","25.024585","6500100","板橋區"
"220054","741-BX","2017/10/14 19:29:38","新北市板橋區光明街29號","121.460886666667","25.0026783333333","6500100","板橋區"
"220055","827-TW","2017/10/14 19:29:43","新北市板橋區重慶路219號","121.46297","25.00137","6500100","板橋區"
"220067","829-TW","2017/10/14 19:29:47","新北市板橋區長安街138巷7弄8號","121.473363333333","25.00842","6500100","板橋區"
"220102","830-TW","2017/10/14 19:29:41","新北市板橋區雙十路二段130巷2弄29號","121.474978333333","25.02872","6500100","板橋區"
"220074","895-R6","2017/10/14 19:29:40","新北市板橋區中正路1巷14號","121.455231666667","25.0116466666667","6500100","板橋區"
"220073","985-R7","2017/10/14 19:29:37","新北市板橋區中正路320-1號","121.45466","25.0211883333333","6500100","板橋區"
"220097","AAC-210","2017/10/14 19:29:35","新北市板橋區漢生西路156巷2號","121.463208333333","25.0231533333333","6500100","板橋區"
"220070","AAC-253","2017/10/14 19:29:41","新北市板橋區四川路一段108號","121.459761666667","25.0045133333333","6500100","板橋區"
