"lineid","car","time","location","longitude","latitude","cityid","cityname"
"234046","148-BY","2017/10/14 19:39:47","新北市永和區秀朗路二段181巷1號","121.526003333333","25.0014816666667","6500400","永和區"
"234013","149-BY","2017/10/14 19:39:34","新北市永和區中山路一段184巷7號","121.50856","25.0093516666667","6500400","永和區"
"234007","207-UY","2017/10/14 19:39:45","新北市中和區中和路318號","121.50939","25.0005816666667","6500400","永和區"
"234081","298-R6","2017/10/14 19:39:42","新北市永和區林森路44巷15號","121.525746666667","25.0057783333333","6500400","永和區"
"234038","336-UY","2017/10/14 19:39:50","新北市永和區成功路一段117巷2號","121.527566666667","25.0020633333333","6500400","永和區"
"234064","337-UY","2017/10/14 19:39:50","新北市永和區秀朗路一段192巷6弄14號","121.519133333333","25.0022016666667","6500400","永和區"
"234086","338-UY","2017/10/14 19:39:44","新北市永和區永亨路165巷1-4號","121.526181666667","25.0042066666667","6500400","永和區"
"234070","552-UM","2017/10/14 19:39:38","新北市永和區中興街1號","121.515565","25.0121033333333","6500400","永和區"
"234054","553-UM","2017/10/14 19:39:42","新北市永和區竹林路39巷3號","121.518138333333","25.0144166666667","6500400","永和區"
"234017","745-BX","2017/10/14 19:39:44","新北市永和區永和路二段425巷70號","121.513568333333","25.017165","6500400","永和區"
"234030","746-BX","2017/10/14 19:39:36","新北市永和區民生路37巷1號","121.523008333333","24.9981983333333","6500400","永和區"
"234061","AAD-866","2017/10/14 19:39:42","新北市永和區中正路401號","121.517171666667","25.004465","6500400","永和區"
"234042","862-TW","2017/10/14 19:39:37","新北市永和區水源街46號","121.510653333333","25.0044383333333","6500400","永和區"
"234050","863-TW","2017/10/14 19:39:39","新北市永和區保安路41號","121.509695","25.01608","6500400","永和區"
"234026","9371-KE","2017/10/14 19:39:48","新北市永和區中和路501巷5號","121.510445","25.0025816666667","6500400","永和區"
"234011","9373-KE","2017/10/14 19:39:48","新北市永和區中山路一段58號","121.512953333333","25.0108033333333","6500400","永和區"
"249004","303-UY","2017/10/14 19:39:39","新北市八里區中山路一段268巷5弄38號","121.414355","25.1608783333333","6502300","八里區"
"249002","305-UY","2017/10/14 19:39:47","新北市八里區頂寮二街33-1號","121.450316666667","25.125165","6502300","八里區"
"249003","593-UM","2017/10/14 19:39:42","新北市八里區華峰三街31號","121.399308333333","25.145845","6502300","八里區"
"248014","025-BX","2017/10/14 19:39:50","新北市五股區五福路23巷9號","121.433575","25.0887283333333","6501500","五股區"
"248016","026-BX","2017/10/14 19:39:49","新北市五股區成泰路3段651-1號","121.45288","25.1053033333333","6501500","五股區"
"248008","095-VK","2017/10/14 19:39:38","新北市五股區四維路118巷13號","121.469266666667","25.0742583333333","6501500","五股區"
"248020","225-UY","2017/10/14 19:39:40","新北市五股區中直路28-3號","121.424051666667","25.1121533333333","6501500","五股區"
"248012","247-BX","2017/10/14 19:39:41","新北市五股區成泰路二段91巷23-1號","121.437368333333","25.0845666666667","6501500","五股區"
"248010","272-BY","2017/10/14 19:39:37","新北市五股區水碓一路23號","121.430626666667","25.07128","6501500","五股區"
"248004","677-BX","2017/10/14 19:39:33","新北市五股區工商路151號","121.434998333333","25.086595","6501500","五股區"
"248002","678-BX","2017/10/14 19:39:31","新北市五股區成泰路三段577巷52號","121.450755","25.103265","6501500","五股區"
"234077","969-R7","2017/10/14 19:39:44","新北市永和區民權路1巷8號","121.520635","24.9983716666667","6500400","永和區"
"234074","AAC-211","2017/10/14 19:39:47","新北市永和區福和路72號","121.523133333333","25.0080866666667","6500400","永和區"
"234067","AAC-212","2017/10/14 19:39:37","新北市永和區中山路一段213號","121.508536666667","25.0081283333333","6500400","永和區"
"234003","AAC-295","2017/10/14 19:39:35","新北市永和區永和路一段21號","121.512861666667","25.005735","6500400","永和區"
"244019","403-UM","2017/10/14 19:39:46","新北市林口區文化二路一段490-8號","121.375938333333","25.07818","6501700","林口區"
"244025","742-UY","2017/10/14 19:39:48","新北市八里區中山路三段415號","121.37081","25.136965","6501700","林口區"
"243013","AAD-798","2017/10/14 19:39:43","新北市泰山區應化街7號","121.423913333333","25.0437683333333","6501600","泰山區"
"243009","297-R6","2017/10/14 19:39:35","新北市泰山區美寧街58號","121.430628333333","25.0647266666667","6501600","泰山區"
"243015","380-SR","2017/10/14 19:39:11","新北市泰山區民權街17號","121.428488333333","25.0508383333333","6501600","泰山區"
"243014","421-VK","2017/10/14 19:39:44","新北市泰山區泰林路二段33-8號","121.435233333333","25.0566533333333","6501600","泰山區"
"243010","KEA-2215","2017/10/14 19:39:43","新北市泰山區民生路66號","121.432038333333","25.0517166666667","6501600","泰山區"
"243011","KEA-2216","2017/10/14 19:39:42","新北市泰山區中山路二段567號","121.429658333333","25.039985","6501600","泰山區"
"243012","646-TV","2017/10/14 19:39:30","新北市泰山區全興路237號","121.435378333333","25.0539333333333","6501600","泰山區"
"243016","680-BX","2017/10/14 19:39:50","新北市泰山區新北大道七段97號","121.41788","25.0319666666667","6501600","泰山區"
"222001","016-RS","2017/10/14 19:39:35","新北市深坑區北深路二段200號","121.612995","25.0015816666667","6501800","深坑區"
"222003","436-BY","2017/10/14 19:32:40","新北市深坑區深南路51-1號","121.621125","25.0100866666667","6501800","深坑區"
"222002","659-BX","2017/10/14 19:39:47","新北市深坑區北深路一段177號","121.632501666667","25.0109283333333","6501800","深坑區"
"231041","002-UM","2017/10/14 19:39:35","新北市新店區中正路487號","121.533731666667","24.9821183333333","6500600","新店區"
"231059","046-UY","2017/10/14 19:39:40","新北市新店區安業街1號","121.516653333333","24.9790416666667","6500600","新店區"
"231061","047-UY","2017/10/14 19:39:41","新北市新店區安民街141號","121.51649","24.96952","6500600","新店區"
"231060","106-UY","2017/10/14 19:39:45","新北市新店區安康路二段161號","121.51014","24.9592833333333","6500600","新店區"
"231048","108-UY","2017/10/14 19:39:34","新北市新店區五峰路63巷8弄3號","121.546973333333","24.96915","6500600","新店區"
"231051","110-UY","2017/10/14 19:39:52","新北市新店區中央四街47號","121.527791666667","24.975045","6500600","新店區"
"231052","187-VK","2017/10/14 19:39:49","新北市新店區新烏路二段454號","121.552251666667","24.908575","6500600","新店區"
"231050","KEA-2219","2017/10/14 19:39:50","新北市新店區郵政路1號","121.557665","24.9526083333333","6500600","新店區"
"231057","256-BX","2017/10/14 19:39:30","新北市新店區橘園一路11號","121.547945","24.934165","6500600","新店區"
"231046","278-BY","2017/10/14 19:39:35","新北市新店區中正路329巷3弄2號","121.53539","24.9745316666667","6500600","新店區"
"231054","AAD-862","2017/10/14 19:39:39","新北市新店區北宜路一段41號","121.538295","24.9571516666667","6500600","新店區"
"231058","3712-VJ","2017/10/14 19:39:39","新北市新店區中正路76巷11弄19號","121.543705","24.9716983333333","6500600","新店區"
"231056","4716-K9","2017/10/14 19:39:39","新北市新店區安康路二段320巷15弄2號","121.504185","24.9596533333333","6500600","新店區"
"231067","4772-VM","2017/10/14 19:39:44","新北市新店區秀山路55-1號","121.53077","24.960275","6500600","新店區"
"231065","513-UM","2017/10/14 19:39:42","新北市新店區安祥路109巷85弄39號","121.478708333333","24.9597833333333","6500600","新店區"
"231064","515-UM","2017/10/14 19:39:33","新北市新店區安和路一段52巷2-1號","121.517646666667","24.9663516666667","6500600","新店區"
"231045","617-UM","2017/10/14 19:39:45","新北市新店區北宜路二段419-2號","121.560341666667","24.9545433333333","6500600","新店區"
"231040","619-UM","2017/10/14 19:39:33","新北市新店區中正路75巷71號","121.543133333333","24.9689033333333","6500600","新店區"
"231042","641-BX","2017/10/14 19:39:32","新北市新店區中興路一段216號","121.543885","24.9657583333333","6500600","新店區"
"231063","645-TV","2017/10/14 19:39:48","新北市新店區達觀路41號","121.50225","24.9384866666667","6500600","新店區"
"231049","719-UM","2017/10/14 19:39:31","新北市新店區建國路128巷3-1號","121.539021666667","24.9793983333333","6500600","新店區"
"231062","720-UM","2017/10/14 19:39:31","新北市新店區碧潭路22號","121.53439","24.9562366666667","6500600","新店區"
"231044","897-TW","2017/10/14 19:39:49","新北市新店區中興路三段229號","121.543051666667","24.9833866666667","6500600","新店區"
"231043","899-TW","2017/10/14 19:39:38","新北市新店區北新路二段1號","121.542723333333","24.97121","6500600","新店區"
"231066","AKT-0513","2017/10/14 19:39:22","新北市新店區安康路二段341巷38號","121.496628333333","24.9543716666667","6500600","新店區"
"241011","013-R5","2017/10/14 19:39:31","新北市三重區秀江街180號","121.497965","25.07169","6500200","三重區"
"241028","022-UY","2017/10/14 19:39:37","新北市三重區中正南路151號","121.493946666667","25.0564466666667","6500200","三重區"
"241008","059-VK","2017/10/14 19:39:37","新北市三重區永福街135巷6號","121.47848","25.0768083333333","6500200","三重區"
"241031","061-VK","2017/10/14 19:39:42","新北市三重區重新路四段248號","121.486073333333","25.05353","6500200","三重區"
"241015","062-VK","2017/10/14 19:39:39","新北市三重區福德北路34號","121.502008333333","25.0651566666667","6500200","三重區"
"241017","063-VK","2017/10/14 19:39:47","新北市三重區大同北路190巷4號","121.490768333333","25.0664183333333","6500200","三重區"
"241026","066-VK","2017/10/14 19:39:31","新北市三重區光興街61號","121.498808333333","25.0602183333333","6500200","三重區"
"241009","156-TC","2017/10/14 19:39:45","新北市三重區三和路四段406巷8-1號","121.480658333333","25.079505","6500200","三重區"
"241022","267-UM","2017/10/14 19:39:46","新北市三重區中正北路60號","121.486898333333","25.064405","6500200","三重區"
"241013","270-UM","2017/10/14 19:39:31","新北市三重區仁賢街9號","121.495926666667","25.07463","6500200","三重區"
"241025","271-UM","2017/10/14 19:39:44","新北市三重區頂崁街189號","121.477503333333","25.06643","6500200","三重區"
"241007","398-BY","2017/10/14 19:39:38","新北市三重區溪尾街126巷98號","121.487525","25.0787","6500200","三重區"
"241020","413-TH","2017/10/14 19:39:38","新北市三重區三和路四段20巷107號","121.487858333333","25.07303","6500200","三重區"
"241035","462-BY","2017/10/14 19:39:41","新北市三重區正義北路61-1號","121.497211666667","25.0644866666667","6500200","三重區"
"241019","478-VK","2017/10/14 19:39:37","新北市三重區力行路一段89巷12-1號","121.487178333333","25.0691233333333","6500200","三重區"
"241030","480-VK","2017/10/14 19:39:36","新北市三重區中正南路269號","121.492923333333","25.0524316666667","6500200","三重區"
"241014","543-UM","2017/10/14 19:39:47","新北市三重區河邊北街72-6號","121.504471666667","25.068565","6500200","三重區"
"241023","545-UM","2017/10/14 19:39:33","新北市三重區忠孝路三段99巷4號","121.480046666667","25.0643066666667","6500200","三重區"
"241001","547-UM","2017/10/14 19:39:34","新北市三重區仁愛街315巷62號","121.494016666667","25.0801216666667","6500200","三重區"
"241006","AAD-863","2017/10/14 19:39:46","新北市三重區聯華街81號","121.485685","25.0753383333333","6500200","三重區"
"241012","941-UM","2017/10/14 19:39:45","新北市三重區仁興街33巷64號","121.500695","25.0760716666667","6500200","三重區"
"241029","942-UM","2017/10/14 19:39:43","新北市三重區同安街145號","121.493158333333","25.0560133333333","6500200","三重區"
"235066","003-UY","2017/10/14 19:39:40","新北市中和區景新街57巷5號","121.504601666667","24.9991266666667","6500300","中和區"
"235064","005-UY","2017/10/14 19:39:34","新北市中和區南華路17-6號","121.502485","24.99598","6500300","中和區"
"235063","006-UY","2017/10/14 19:39:43","新北市中和區連城路171巷41弄1號","121.496481666667","24.9966766666667","6500300","中和區"
"235056","096-UM","2017/10/14 19:39:42","新北市中和區員山路581巷2弄26號","121.477406666667","25.00997","6500300","中和區"
"235039","097-UM","2017/10/14 19:39:45","新北市中和區秀峰街74號","121.520361666667","24.9906233333333","6500300","中和區"
"235065","098-UM","2017/10/14 19:39:41","新北市中和區永和路62號","121.498896666667","25.0044866666667","6500300","中和區"
"235040","150-BY","2017/10/14 19:39:53","新北市中和區宜安路121號","121.509981666667","24.9979816666667","6500300","中和區"
"235058","151-BY","2017/10/14 19:39:34","新北市中和區連城路374巷13號","121.481461666667","24.995885","6500300","中和區"
"235055","183-VK","2017/10/14 19:39:49","新北市中和區民享街1號","121.473843333333","25.0058733333333","6500300","中和區"
"235038","185-VK","2017/10/14 19:39:48","新北市中和區立人街27號","121.521193333333","24.99408","6500300","中和區"
"235049","186-VK","2017/10/14 19:39:47","新北市中和區安平路17號","121.50919","24.9941466666667","6500300","中和區"
"235067","255-BX","2017/10/14 19:39:47","新北市中和區新生街186巷5弄27號","121.482918333333","24.9986733333333","6500300","中和區"
"235044","293-VK","2017/10/14 19:39:45","新北市中和區興南路一段136號","121.509303333333","24.9882283333333","6500300","中和區"
"235072","301-VK","2017/10/14 19:39:33","新北市中和區連城路281巷1弄6號","121.490693333333","24.9958433333333","6500300","中和區"
"235043","352-BY","2017/10/14 19:39:32","新北市中和區興南路一段23號","121.51131","24.99088","6500300","中和區"
"235068","375-QA","2017/10/14 19:39:36","新北市中和區廟美街56號","121.50039","25.0023933333333","6500300","中和區"
"235051","376-QA","2017/10/14 19:39:40","新北市中和區南山路146巷5號","121.503495","24.992415","6500300","中和區"
"235061","378-QA","2017/10/14 19:39:37","新北市中和區民利街31巷2弄15號","121.479758333333","24.9985366666667","6500300","中和區"
"235050","4979-A6","2017/10/14 19:39:43","新北市中和區員山路36巷16-8號","121.485325","24.992235","6500300","中和區"
"235042","551-UM","2017/10/14 19:39:40","新北市中和區中和路262巷43弄4號","121.509736666667","24.999765","6500300","中和區"
"235070","558-UM","2017/10/14 19:39:35","新北市中和區景平路493號","121.499985","24.9977516666667","6500300","中和區"
"235045","565-BX","2017/10/14 19:39:41","新北市中和區景平路151巷37號","121.51459","24.9907033333333","6500300","中和區"
"235054","640-BX","2017/10/14 19:39:44","新北市中和區國光街102巷11弄24號","121.470636666667","25.0015216666667","6500300","中和區"
"235060","647-TV","2017/10/14 19:39:45","新北市中和區員山路469巷1號","121.480123333333","25.0045766666667","6500300","中和區"
"235047","732-UM","2017/10/14 19:05:48","新北市中和區興南路二段62號","121.506313333333","24.9848816666667","6500300","中和區"
"235046","733-UM","2017/10/14 19:39:35","新北市中和區四維街20號","121.513015","24.987205","6500300","中和區"
"235062","800-TS","2017/10/14 19:39:38","新北市林口區太平里180號","121.367053333333","25.1338083333333","6500300","中和區"
"235057","801-TS","2017/10/14 19:39:30","新北市中和區員山路431號","121.480895","25.003715","6500300","中和區"
"235041","802-TS","2017/10/14 19:39:35","新北市中和區中和路400巷21號","121.511755","25.0023133333333","6500300","中和區"
"235052","805-TS","2017/10/14 19:39:44","新北市中和區華新街206巷16號","121.506275","24.982585","6500300","中和區"
"235048","896-TW","2017/10/14 19:39:36","新北市中和區忠孝街112號","121.512175","24.9854216666667","6500300","中和區"
"235053","900-TW","2017/10/14 19:39:39","新北市中和區華順街30巷7號","121.467305","24.9991566666667","6500300","中和區"
"235071","911-UM","2017/10/14 19:39:41","新北市中和區新生街114巷1號","121.483445","25.0022783333333","6500300","中和區"
"235037","AAC-213","2017/10/14 19:39:41","新北市中和區秀朗路三段10巷29弄5號","121.525083333333","24.9960733333333","6500300","中和區"
"235059","AAC-215","2017/10/14 19:39:53","新北市中和區錦和路366號","121.490571666667","24.9910716666667","6500300","中和區"
"220068","013-TV","2017/10/14 19:39:33","新北市板橋區中山路二段531巷17弄18號","121.48229","25.0219733333333","6500100","板橋區"
"220065","072-UY","2017/10/14 19:39:41","新北市板橋區國泰街38號","121.468153333333","25.00677","6500100","板橋區"
"220086","073-UY","2017/10/14 19:39:48","新北市板橋區國光路167號","121.460305","25.0182633333333","6500100","板橋區"
"220106","075-UY","2017/10/14 19:39:45","新北市板橋區文化路二段426號","121.474288333333","25.0320533333333","6500100","板橋區"
"220069","AAD-861","2017/10/14 19:39:49","新北市板橋區稚暉街19-2號","121.456538333333","25.0042983333333","6500100","板橋區"
"247012","546-UM","2017/10/14 19:39:53","新北市五股區中興路三段163號","121.449548333333","25.0808616666667","6501400","蘆洲區"
"247004","336-TH","2017/10/14 19:39:48","新北市蘆洲區長安街98巷21號","121.46302","25.0818216666667","6501400","蘆洲區"
"247008","053-VK","2017/10/14 19:39:48","新北市蘆洲區中山一路209號","121.474128333333","25.08103","6501400","蘆洲區"
"226004","205-ST","2017/10/14 19:39:47","新北市平溪區靜安路三段392巷3號","121.784996666667","25.0497216666667","6502400","平溪區"
"228003","097-TW","2017/10/14 19:39:38","新北市貢寮區真理里美艷山街19-1號","121.923461666667","25.0685","6502600","貢寮區"
"228001","212-TW","2017/10/14 19:39:36","新北市貢寮區真理里延平街61號","121.92453","25.0556683333333","6502600","貢寮區"
"224010","AGQ-8101","2017/10/14 19:38:31","新北市瑞芳區輕便路216-1號","121.844976666667","25.1096","6501200","瑞芳區"
"224002","639-TC","2017/10/14 19:39:46","新北市瑞芳區民享新村9號","121.816933333333","25.10552","6501200","瑞芳區"
"227002","642-TC","2017/10/14 19:39:33","新北市雙溪區雙溪里太平路56號","121.864845","25.0356183333333","6502500","雙溪區"
"227010","400-TW","2017/10/14 19:39:41","新北市雙溪區新基里新基北街19巷14號","121.867166666667","25.038195","6502500","雙溪區"
"227010","030-BX","2017/10/14 12:36:54","新北市雙溪區三貂里政光路3-1號","121.850941666667","25.06312","6502500","雙溪區"
"253006","295-VK","2017/10/14 19:39:32","新北市石門區阿里磅1號","121.591436666667","25.29092","6502200","石門區"
"208002","742-BX","2017/10/14 19:39:35","新北市金山區三民街5號","121.634743333333","25.2224333333333","6502700","金山區"
"208003","665-BX","2017/10/14 19:39:39","新北市金山區仁愛路9號","121.637908333333","25.2196","6502700","金山區"
"208001","761-BX","2017/10/14 19:37:14","新北市金山區重和里六股林口6號","121.609208333333","25.2220483333333","6502700","金山區"
"251009","008-UM","2017/10/14 19:39:40","新北市淡水區中山北路一段198巷5號","121.445121666667","25.1793183333333","6501000","淡水區"
"251001","011-UM","2017/10/14 19:39:42","新北市淡水區民權路59號","121.459768333333","25.1387933333333","6501000","淡水區"
"251014","180-VK","2017/10/14 19:39:36","新北市淡水區桂竹圍4-3號","121.475088333333","25.23231","6501000","淡水區"
"251008","181-VK","2017/10/14 19:39:49","新北市淡水區中正路一段8巷1弄7號","121.428355","25.1767016666667","6501000","淡水區"
"251010","413-VK","2017/10/14 19:39:37","新北市淡水區崁頂92號","121.429413333333","25.2020883333333","6501000","淡水區"
"251016","442-VK","2017/10/14 19:39:44","新北市淡水區下圭柔山119-51號","121.450793333333","25.208425","6501000","淡水區"
"251005","443-VK","2017/10/14 19:39:37","新北市淡水區原德路116巷1號","121.443698333333","25.1741933333333","6501000","淡水區"
"251006","561-UM","2017/10/14 19:39:50","新北市淡水區中山北路一段207巷36號","121.443116666667","25.1793066666667","6501000","淡水區"
"251007","577-R6","2017/10/14 19:39:45","新北市淡水區中正東路一段3巷43號","121.452305","25.1656683333333","6501000","淡水區"
"251011","650-BX","2017/10/14 19:39:38","新北市淡水區八勢一街40號","121.461398333333","25.15512","6501000","淡水區"
"207003","550-UM","2017/10/14 19:39:32","新北市萬里區大鵬里下社17-4號","121.648213333333","25.2177383333333","6502800","萬里區"
"207004","225-TW","2017/10/14 19:39:45","新北市萬里區萬里里瑪鋉路5-4號","121.68699","25.1753366666667","6502800","萬里區"
"252002","178-VK","2017/10/14 19:39:41","新北市三芝區中正路一段18巷56號","121.504255","25.2586866666667","6502100","三芝區"
"252001","292-VK","2017/10/14 19:39:46","新北市三芝區公正街66號","121.4998","25.2575016666667","6502100","三芝區"
"252007","AAC-283","2017/10/14 16:19:00","新北市三芝區埔坪里埔頭坑41號","121.504518333333","25.2644316666667","6502100","三芝區"
"237004","078-UY","2017/10/14 19:39:44","新北市三峽區金敏5號","121.386843333333","24.8734083333333","6500900","三峽區"
"237007","153-BY","2017/10/14 19:39:38","新北市三峽區二鬮路178號","121.359135","24.906815","6500900","三峽區"
"237009","210-TH","2017/10/14 19:39:36","新北市三峽區中園街62-4號","121.368036666667","24.9256266666667","6500900","三峽區"
"237013","252-BX","2017/10/14 19:39:42","新北市三峽區介壽路一段383號","121.383728333333","24.9309866666667","6500900","三峽區"
"237012","275-BY","2017/10/14 19:39:40","新北市三峽區民生街3號","121.374576666667","24.93545","6500900","三峽區"
"237008","302-VK","2017/10/14 19:39:49","新北市三峽區永安街179號","121.373193333333","24.9269783333333","6500900","三峽區"
"237014","433-BY","2017/10/14 19:39:42","新北市三峽區中山路67巷5號","121.36685","24.9343333333333","6500900","三峽區"
"237006","5529-G3","2017/10/14 19:39:29","新北市三峽區中正路一段336巷15弄2號","121.36996","24.92498","6500900","三峽區"
"237016","649-BX","2017/10/14 19:39:34","新北市三峽區橫溪路99巷70號","121.400833333333","24.9375533333333","6500900","三峽區"
"237005","AKY-6261","2017/10/14 19:39:37","新北市三峽區中山路184巷1弄1號","121.363685","24.9369366666667","6500900","三峽區"
"236073","105-UM","2017/10/14 19:39:41","新北市土城區學士路19號","121.453355","24.9827416666667","6501300","土城區"
"236043","107-UM","2017/10/14 19:39:31","新北市土城區學士路12巷2號","121.453643333333","24.983005","6501300","土城區"
"236079","166-UM","2017/10/14 19:39:50","新北市土城區中州路9號","121.414285","24.9576433333333","6501300","土城區"
"236031","253-BX","2017/10/14 19:39:36","新北市土城區福祥街58號","121.441515","24.9815083333333","6501300","土城區"
"236027","269-VK","2017/10/14 19:39:34","新北市土城區中央路二段61巷26號","121.443323333333","24.9786933333333","6501300","土城區"
"236038","271-VK","2017/10/14 19:39:50","新北市土城區青雲路230號","121.45884","24.9808966666667","6501300","土城區"
"236023","401-BY","2017/10/14 19:39:35","新北市土城區峰廷街3號","121.469125","24.987385","6501300","土城區"
"236059","912-UM","2017/10/14 19:39:33","新北市土城區中央路二段61巷20號","121.443106666667","24.9788766666667","6501300","土城區"
"236049","913-UM","2017/10/14 19:39:34","新北市土城區明德路一段38號","121.465245","24.9845016666667","6501300","土城區"
"236063","915-UM","2017/10/14 19:39:35","新北市土城區延平街22號","121.468325","24.9912666666667","6501300","土城區"
"236055","AAC-216","2017/10/14 19:39:43","新北市土城區學成路1號","121.453525","24.9862616666667","6501300","土城區"
"242031","AAC-296","2017/10/14 19:39:30","新北市新莊區新泰路213巷66號","121.444435","25.0384216666667","6500500","新莊區"
"242027","612-BX","2017/10/14 19:39:44","新北市新莊區新泰路357巷3弄57號","121.442138333333","25.03924","6500500","新莊區"
"242004","413-TV","2017/10/14 19:39:47","新北市新莊區化成路29巷68號","121.46263","25.04406","6500500","新莊區"
"242058","353-BY","2017/10/14 19:39:51","新北市新莊區新泰路357巷3弄45號","121.442013333333","25.0401716666667","6500500","新莊區"
"242013","346-TH","2017/10/14 19:39:48","新北市新莊區中誠街147巷8號","121.44882","25.0470216666667","6500500","新莊區"
"242019","348-TH","2017/10/14 19:39:38","新北市新莊區三和路12-21號","121.44218","25.038245","6500500","新莊區"
"242011","351-TH","2017/10/14 19:39:45","新北市新莊區中信街70號","121.448418333333","25.051645","6500500","新莊區"
"238015","755-BX","2017/10/14 19:39:43","新北市樹林區日新街68號","121.421906666667","24.990745","6500700","樹林區"
"238023","601-UM","2017/10/14 19:39:33","新北市樹林區三福街114號","121.406515","25.0163433333333","6500700","樹林區"
"238019","599-UM","2017/10/14 19:39:46","新北市樹林區鎮前街347巷3弄37號","121.417916666667","24.9841266666667","6500700","樹林區"
"238018","571-TV","2017/10/14 19:39:46","新北市樹林區八德街67號","121.399678333333","24.9693383333333","6500700","樹林區"
"238024","5061-A6","2017/10/14 19:39:24","新北市樹林區中山路三段155巷13號","121.39592","24.9726533333333","6500700","樹林區"
"238021","KEA-2217","2017/10/14 19:39:49","新北市樹林區學勤路558-1號","121.383826666667","24.947845","6500700","樹林區"
"238022","KEA-2213","2017/10/14 19:39:48","新北市樹林區名園街19號","121.419335","24.9793816666667","6500700","樹林區"
"238025","303-VK","2017/10/14 19:39:38","新北市樹林區中山路一段252號","121.420948333333","24.9873466666667","6500700","樹林區"
"238014","282-BY","2017/10/14 19:39:41","新北市樹林區保安二街64巷1弄1號","121.424106666667","24.99545","6500700","樹林區"
"238020","268-VK","2017/10/14 19:39:40","新北市樹林區俊英街188號","121.425968333333","25.0078883333333","6500700","樹林區"
"238026","172-UY","2017/10/14 19:39:33","新北市樹林區佳園路二段41號","121.39167","24.96266","6500700","樹林區"
"238016","169-UY","2017/10/14 19:39:33","新北市樹林區東和街40-6號","121.400546666667","24.98349","6500700","樹林區"
"239007","AAC-297","2017/10/14 19:39:48","新北市鶯歌區大湖路326巷24號","121.346165","24.9698733333333","6500800","鶯歌區"
"239006","891-R6","2017/10/14 19:39:39","新北市鶯歌區中正一路碧龍巷6號","121.367246666667","24.9570933333333","6500800","鶯歌區"
"239008","527-UM","2017/10/14 19:39:46","新北市樹林區中山路三段214號","121.380481666667","24.9679866666667","6500800","鶯歌區"
"239002","359-BY","2017/10/14 19:39:38","新北市鶯歌區中山路300號","121.342878333333","24.9570883333333","6500800","鶯歌區"
"221008","489-VK","2017/10/14 19:39:48","新北市汐止區康寧街61巷31號","121.61951","25.067495","6501100","汐止區"
"221036","130-UY","2017/10/14 19:39:44","新北市汐止區汐萬路一段256巷1號","121.651785","25.0749516666667","6501100","汐止區"
"221015","131-UY","2017/10/14 19:39:51","新北市汐止區汐萬路一段312號","121.65067","25.07536","6501100","汐止區"
"221010","269-BY","2017/10/14 19:39:30","新北市汐止區汐萬路二段23巷1號","121.64952","25.0808283333333","6501100","汐止區"
"221012","276-VK","2017/10/14 13:23:34","新北市汐止區汐萬路一段256巷3號","121.653436666667","25.0746766666667","6501100","汐止區"
"221012","278-VK","2017/10/14 19:39:32","新北市汐止區汐平路一段5號","121.68075","25.0712616666667","6501100","汐止區"
"221023","279-VK","2017/10/14 19:39:35","新北市汐止區民族六街21-2號","121.630056666667","25.06898","6501100","汐止區"
"221032","280-BY","2017/10/14 19:39:41","新北市汐止區汐萬路一段266號","121.651026666667","25.0737983333333","6501100","汐止區"
"221027","281-BY","2017/10/14 19:39:44","新北市汐止區忠孝東路9號","121.658346666667","25.06603","6501100","汐止區"
"221029","298-VK","2017/10/14 19:39:45","新北市汐止區康寧街901號","121.651615","25.0749566666667","6501100","汐止區"
"221021","299-VK","2017/10/14 19:39:46","新北市汐止區新台五路一段129號","121.652308333333","25.0618016666667","6501100","汐止區"
"221031","353-TW","2017/10/14 19:39:44","新北市汐止區福德三路127號","121.633595","25.0676383333333","6501100","汐止區"
"221025","623-UM","2017/10/14 19:39:45","新北市汐止區秀峰路81巷15弄47號","121.66178","25.0648666666667","6501100","汐止區"
"221038","646-BX","2017/10/14 19:39:37","新北市汐止區忠孝東路227號","121.662365","25.067025","6501100","汐止區"
"221033","647-BX","2017/10/14 19:39:34","新北市汐止區南勢街1巷1號","121.627083333333","25.037515","6501100","汐止區"
"221002","707-TV","2017/10/14 19:39:45","新北市汐止區大同路一段219巷27號","121.633268333333","25.0583983333333","6501100","汐止區"
"221018","753-BX","2017/10/14 19:39:52","新北市汐止區康寧街901號","121.651425","25.07505","6501100","汐止區"
"220079","145-BY","2017/10/14 19:39:46","新北市板橋區復興街129號","121.460798333333","25.01809","6500100","板橋區"
"220080","200-UY","2017/10/14 19:39:43","新北市板橋區大觀路二段37巷180號","121.44951","25.0021683333333","6500100","板橋區"
"220082","610-BX","2017/10/14 19:39:46","新北市板橋區大觀路三段207號","121.43144","24.9931433333333","6500100","板橋區"
"220101","245-BX","2017/10/14 19:39:31","新北市板橋區縣民大道三段39號","121.47399","25.0209733333333","6500100","板橋區"
"220091","267-BY","2017/10/14 19:39:46","新北市板橋區懷德街139巷20弄70號","121.480486666667","25.0304283333333","6500100","板橋區"
"220056","276-BY","2017/10/14 19:39:44","新北市板橋區四川路二段47巷2弄1號","121.454076666667","24.994885","6500100","板橋區"
"220072","277-BY","2017/10/14 19:39:48","新北市板橋區金門街215巷2弄52號","121.432988333333","24.9884766666667","6500100","板橋區"
"220094","280-UM","2017/10/14 19:39:38","新北市板橋區銘傳街27號","121.468863333333","25.0314116666667","6500100","板橋區"
"220064","282-UM","2017/10/14 19:39:40","新北市板橋區華東街1-9號","121.448135","24.9948416666667","6500100","板橋區"
"220071","283-VK","2017/10/14 19:39:52","新北市板橋區四川路一段283巷2號","121.459743333333","25.0013233333333","6500100","板橋區"
"220053","285-VK","2017/10/14 19:39:44","新北市板橋區中山路二段265號","121.477723333333","25.017865","6500100","板橋區"
"220083","286-VK","2017/10/14 19:39:40","新北市板橋區龍興街71巷4號","121.443545","25.0019616666667","6500100","板橋區"
"220081","287-VK","2017/10/14 18:52:30","新北市板橋區光華街15巷35號","121.452965","25.0114883333333","6500100","板橋區"
"220090","288-VK","2017/10/14 19:39:50","新北市板橋區長江路一段48巷9號","121.459236666667","25.028435","6500100","板橋區"
"220061","293-UM","2017/10/14 19:39:49","新北市板橋區中山路一段291-2號","121.470501666667","25.01422","6500100","板橋區"
"220096","295-UM","2017/10/14 19:39:36","新北市板橋區民生路二段226巷10弄2號","121.470578333333","25.0218866666667","6500100","板橋區"
"220084","296-UM","2017/10/14 19:39:42","新北市板橋區滿平街84巷100弄22號","121.425996666667","24.986215","6500100","板橋區"
"220075","297-UM","2017/10/14 19:39:41","新北市板橋區大勇街8巷1號","121.453946666667","25.0170883333333","6500100","板橋區"
"220098","299-UM","2017/10/14 19:39:31","新北市板橋區四維路269巷64號","121.460736666667","25.027215","6500100","板橋區"
"220062","305-R5","2017/10/14 19:39:37","新北市板橋區三民路二段123巷19號","121.480176666667","25.0156533333333","6500100","板橋區"
"220092","307-R5","2017/10/14 19:39:41","新北市板橋區文化路一段387巷18號","121.466376666667","25.0222183333333","6500100","板橋區"
"220064","486-VK","2017/10/14 19:39:31","新北市板橋區中山路一段60號","121.46134","25.0097483333333","6500100","板橋區"
"220089","487-VK","2017/10/14 19:39:50","新北市板橋區英士路151號","121.460026666667","25.0242166666667","6500100","板橋區"
"242034","280-VK","2017/10/14 19:39:42","新北市新莊區仁愛街16-5號","121.444226666667","25.0355533333333","6500500","新莊區"
"220088","491-VK","2017/10/14 19:39:48","新北市板橋區文化路二段568號","121.476385","25.034495","6500100","板橋區"
"220035","560-BX","2017/10/14 19:39:42","新北市板橋區新生街98巷24號","121.45908","25.0212816666667","6500100","板橋區"
"220103","561-BX","2017/10/14 19:39:42","新北市板橋區文化路一段268號","121.467005","25.0209816666667","6500100","板橋區"
"220063","609-BX","2017/10/14 19:39:51","新北市板橋區中山路二段505巷34號","121.482118333333","25.0223433333333","6500100","板橋區"
"220057","686-BX","2017/10/14 19:39:40","新北市板橋區國慶路158巷7-4號","121.462106666667","24.9957083333333","6500100","板橋區"
"220077","687-BX","2017/10/14 19:39:40","新北市板橋區僑中二街2號","121.447403333333","25.0113616666667","6500100","板橋區"
"220093","689-BX","2017/10/14 19:39:43","新北市板橋區新海路466號","121.45754","25.02846","6500100","板橋區"
"220054","741-BX","2017/10/14 19:39:38","新北市板橋區忠孝路239巷18號","121.466758333333","25.0033466666667","6500100","板橋區"
"220055","827-TW","2017/10/14 19:39:43","新北市板橋區國慶路149巷2弄1-3號","121.461318333333","24.9966083333333","6500100","板橋區"
"220067","829-TW","2017/10/14 19:39:46","新北市板橋區漢生東路279巷10弄11號","121.472301666667","25.0086883333333","6500100","板橋區"
"220102","830-TW","2017/10/14 19:39:41","新北市板橋區松柏街36巷8-1號","121.475313333333","25.0297183333333","6500100","板橋區"
"220074","895-R6","2017/10/14 19:39:40","新北市板橋區北門街14-1號","121.457668333333","25.0106316666667","6500100","板橋區"
"220073","985-R7","2017/10/14 19:39:37","新北市板橋區國光路49巷17號","121.458951666667","25.01878","6500100","板橋區"
"220097","AAC-210","2017/10/14 19:39:33","新北市板橋區幸福路32巷3號","121.461548333333","25.020555","6500100","板橋區"
"220070","AAC-253","2017/10/14 19:39:50","新北市板橋區民族路89-3號","121.466481666667","25.0082333333333","6500100","板橋區"
