"lineid","car","time","location","longitude","latitude","cityid","cityname"
"235031","255-BX","2017/08/13 17:14:55","新北市中和區員山路36巷13號","121.484193333333","24.9914166666667","6500300","中和區"
"251013","179-VK","2017/08/13 17:59:17","新北市淡水區泉洲厝30號","121.479666666667","25.19095","6501000","淡水區"
"251014","180-VK","2017/08/13 17:59:36","新北市淡水區公埔子16-6號","121.480993333333","25.2245716666667","6501000","淡水區"
"251015","182-VK","2017/08/13 17:59:47","新北市淡水區興福寮88巷1號","121.485415","25.1650166666667","6501000","淡水區"
"251016","442-VK","2017/08/13 17:59:52","新北市淡水區淡金路三段26號","121.447758333333","25.1982616666667","6501000","淡水區"
