"lineid","car","time","location","longitude","latitude","cityid","cityname"
"235031","255-BX","2017/08/13 17:14:55","新北市中和區員山路36巷13號","121.484193333333","24.9914166666667","6500300","中和區"
"224011","AGQ-8101","2017/08/13 18:28:31","新北市瑞芳區街頂巷41號","121.844633333333","25.10754","6501200","瑞芳區"
"251013","179-VK","2017/08/13 18:29:37","新北市淡水區椿子林19-1號","121.481348333333","25.20412","6501000","淡水區"
"251014","180-VK","2017/08/13 18:29:36","新北市淡水區南平26-2號","121.493318333333","25.2149383333333","6501000","淡水區"
"251015","182-VK","2017/08/13 18:29:47","新北市淡水區興福寮88巷228號","121.486153333333","25.166515","6501000","淡水區"
"251016","442-VK","2017/08/13 18:29:36","新北市淡水區下圭柔山105-1號","121.443893333333","25.209255","6501000","淡水區"
