"lineid","car","time","location","longitude","latitude","cityid","cityname"
"235031","255-BX","2017/08/13 17:14:55","新北市中和區員山路36巷13號","121.484193333333","24.9914166666667","6500300","中和區"
"224011","AGQ-8101","2017/08/13 18:45:11","新北市瑞芳區烏勢巷145號","121.847263333333","25.108145","6501200","瑞芳區"
"251013","179-VK","2017/08/13 18:49:37","新北市淡水區安子內5號","121.483165","25.214475","6501000","淡水區"
"251014","180-VK","2017/08/13 18:49:36","新北市淡水區崙頂15-1號","121.48976","25.22373","6501000","淡水區"
"251015","182-VK","2017/08/13 18:49:48","新北市淡水區糞箕湖20號","121.48562","25.171025","6501000","淡水區"
"251016","442-VK","2017/08/13 18:49:33","新北市淡水區下圭柔山71-3號","121.446986666667","25.2061166666667","6501000","淡水區"
