"lineid","car","time","location","longitude","latitude","cityid","cityname"
"235031","255-BX","2017/08/13 17:14:55","新北市中和區員山路36巷13號","121.484193333333","24.9914166666667","6500300","中和區"
"224011","AGQ-8101","2017/08/13 20:34:11","新北市瑞芳區金光路334號","121.84855","25.1098883333333","6501200","瑞芳區"
"251013","179-VK","2017/08/13 20:39:37","新北市淡水區下圭柔山28巷7弄6號","121.457706666667","25.2043283333333","6501000","淡水區"
"251014","180-VK","2017/08/13 20:39:48","新北市淡水區桂竹圍12-1號","121.472053333333","25.2322216666667","6501000","淡水區"
"251015","182-VK","2017/08/13 20:39:47","新北市淡水區淡金路四段542巷17號","121.452653333333","25.2271033333333","6501000","淡水區"
"251016","442-VK","2017/08/13 20:39:32","新北市淡水區後洲子8-2號","121.449548333333","25.2240266666667","6501000","淡水區"
