"lineid","car","time","location","longitude","latitude","cityid","cityname"
"235031","255-BX","2017/08/13 17:14:55","新北市中和區員山路36巷13號","121.484193333333","24.9914166666667","6500300","中和區"
"224011","AGQ-8101","2017/08/13 20:43:50","新北市瑞芳區輕便路19-1號","121.847101666667","25.1111316666667","6501200","瑞芳區"
"251013","179-VK","2017/08/13 20:43:48","新北市淡水區行忠路169號","121.456498333333","25.2011066666667","6501000","淡水區"
"251014","180-VK","2017/08/13 20:43:36","新北市淡水區公埔子38號","121.464651666667","25.2327383333333","6501000","淡水區"
"251015","182-VK","2017/08/13 20:43:47","新北市淡水區淡金路四段542巷17號","121.452651666667","25.2270733333333","6501000","淡水區"
"251016","442-VK","2017/08/13 20:43:52","新北市淡水區後洲子4-2號","121.445666666667","25.225505","6501000","淡水區"
