"lineid","car","time","location","longitude","latitude","cityid","cityname"
"235031","255-BX","2017/08/13 17:14:55","新北市中和區員山路36巷13號","121.484193333333","24.9914166666667","6500300","中和區"
"251013","179-VK","2017/08/13 21:19:37","新北市淡水區行忠路330號","121.460648333333","25.1997483333333","6501000","淡水區"
"251014","180-VK","2017/08/13 21:19:36","新北市淡水區六塊厝3-2號","121.450476666667","25.2405783333333","6501000","淡水區"
"251015","182-VK","2017/08/13 21:19:47","新北市淡水區淡金路四段542巷83弄20號","121.456476666667","25.226665","6501000","淡水區"
"251016","442-VK","2017/08/13 21:19:52","新北市淡水區前洲子28號","121.441081666667","25.2192733333333","6501000","淡水區"
