"lineid","car","time","location","longitude","latitude","cityid","cityname"
"241031","653-BX","2017/08/14 07:09:40","新北市五股區明德路8號","121.433306666667","25.0716033333333","6500200","三重區"
"232006","290-BY","2017/08/14 07:09:52","新北市坪林區魚堀50-2號","121.704213333333","24.9309266666667","6502000","坪林區"
"232001","291-BY","2017/08/14 07:09:40","新北市坪林區上坑子口13-5號","121.704168333333","24.9626683333333","6502000","坪林區"
"232010","375-UM","2017/08/14 07:09:52","新北市坪林區水聳淒坑3號","121.726303333333","24.92566","6502000","坪林區"
"232012","705-BZ","2017/08/14 07:09:35","新北市坪林區仁里10-1號","121.691986666667","24.932255","6502000","坪林區"
"232017","758-BX","2017/08/14 07:09:07","新北市坪林區九芎坑2號","121.723335","24.9663116666667","6502000","坪林區"
"244001","248-BX","2017/08/14 07:09:50","新北市林口區文化北路一段490號","121.366408333333","25.0783933333333","6501700","林口區"
"222005","289-BY","2017/08/14 07:09:34","新北市深坑區深坑街85號","121.614553333333","25.0013383333333","6501800","深坑區"
"226005","5620-A6","2017/08/14 07:09:45","新北市平溪區菁桐里菁桐街159號","121.723115","25.023755","6502400","平溪區"
"226001","7418-A5","2017/08/14 07:09:53","新北市平溪區石底里石筍尖21號","121.730358333333","25.0256383333333","6502400","平溪區"
"226003","AGD-0702","2017/08/14 07:09:42","新北市平溪區菁桐里菁桐街165號","121.722976666667","25.0236683333333","6502400","平溪區"
"223006","022-BY","2017/08/14 07:09:38","新北市石碇區新興坑1-1號","121.654065","25.0147183333333","6501900","石碇區"
"223002","198-BX","2017/08/14 07:09:52","新北市石碇區半路店1-1號","121.649008333333","24.9710783333333","6501900","石碇區"
"223003","205-TH","2017/08/14 07:09:49","新北市石碇區溪邊寮2-2號","121.657526666667","24.9761516666667","6501900","石碇區"
"241031","251-BX","2017/08/14 05:01:59","新北市石碇區小粗坑(潭邊里)9-2號","121.678858333333","24.9857766666667","6500200","三重區"
"223008","406-TH","2017/08/14 07:09:52","新北市石碇區十八重溪45號","121.675343333333","25.01264","6501900","石碇區"
"223001","437-BY","2017/08/14 07:09:46","新北市石碇區烏塗窟26-2號","121.657378333333","24.9758683333333","6501900","石碇區"
"223004","660-BX","2017/08/14 07:09:39","新北市石碇區石崁12號","121.655091666667","24.9956133333333","6501900","石碇區"
"223007","661-BX","2017/08/14 07:09:46","新北市石碇區十八重溪63號","121.67503","25.013585","6501900","石碇區"
"227005","282-VK","2017/08/14 06:59:58","新北市雙溪區新基里自強路5號","121.866323333333","25.0390583333333","6502500","雙溪區"
"252006","073-UM","2017/08/14 07:09:45","新北市三芝區錫板里小坑子1號","121.492271666667","25.2476433333333","6502100","三芝區"
"252004","249-BX","2017/08/14 07:09:45","新北市三芝區錫板里小坑子20號","121.501001666667","25.2349783333333","6502100","三芝區"
"236007","165-UM","2017/08/14 07:09:50","新北市土城區中華路二段141號","121.438955","24.97622","6501300","土城區"
"236001","339-SR","2017/08/14 07:09:48","新北市土城區中央路三段93號","121.437671666667","24.9678133333333","6501300","土城區"
"241031","233-RS","2017/08/14 07:09:44","新北市新莊區中華路二段2號","121.45296","25.044525","6500200","三重區"
