"lineid","car","time","location","longitude","latitude","cityid","cityname"
"231009","188-VK","2017/07/18 11:59:25","新北市新店區成功路100號","121.536876666667","24.8947683333333","6500600","新店區"
"235031","255-BX","2017/07/18 09:48:17","新北市中和區員山路36巷13號","121.484358333333","24.9912716666667","6500300","中和區"
"247001","402-BY","2017/07/18 11:56:51","新北市五股區中興路三段3-6號","121.44956","25.0787266666667","6501400","蘆洲區"
"228004","212-TW","2017/07/18 11:59:07","新北市貢寮區貢寮里朝陽街1-2號","121.912158333333","25.0212816666667","6502600","貢寮區"
"228005","828-UM","2017/07/18 11:59:15","新北市貢寮區雙玉里學苑街7號","121.91537","25.0215116666667","6502600","貢寮區"
