"lineid","car","time","location","longitude","latitude","cityid","cityname"
"231009","188-VK","2017/07/18 12:09:45","新北市新店區松林路16巷41號","121.545368333333","24.9069666666667","6500600","新店區"
"231069","189-VK","2017/07/18 12:02:58","新北市新店區安華路28-1號","121.519565","24.961065","6500600","新店區"
"231035","515-UM","2017/07/18 00:52:50","新北市新店區安華路28-1號","121.519511666667","24.961365","6500600","新店區"
"235031","255-BX","2017/07/18 12:03:41","新北市中和區和城路一段271巷1號","121.485481666667","24.991915","6500300","中和區"
"247001","402-BY","2017/07/18 11:56:51","新北市五股區中興路三段3-6號","121.44956","25.0787266666667","6501400","蘆洲區"
"228004","212-TW","2017/07/18 12:09:47","新北市貢寮區貢寮里長泰路14號","121.907471666667","25.0195883333333","6502600","貢寮區"
"228005","828-UM","2017/07/18 12:09:34","新北市貢寮區福連里香蘭街3號","121.971265","25.0243416666667","6502600","貢寮區"
"207002","749-BX","2017/07/18 12:09:41","新北市萬里區中幅里中福路108號","121.676725","25.1690866666667","6502800","萬里區"
