"lineid","car","time","location","longitude","latitude","cityid","cityname"
"234012","149-BY","2017/07/18 12:19:36","新北市永和區福和路1號","121.526173333333","25.00953","6500400","永和區"
"234066","AAC-212","2017/07/18 12:19:43","新北市永和區福和路1號","121.526448333333","25.0096433333333","6500400","永和區"
"231009","188-VK","2017/07/18 12:19:45","新北市新店區頂石厝路31-1號","121.53829","24.9175383333333","6500600","新店區"
"231069","189-VK","2017/07/18 12:02:58","新北市新店區安華路28-1號","121.519565","24.961065","6500600","新店區"
"231035","515-UM","2017/07/18 00:52:50","新北市新店區安華路28-1號","121.519511666667","24.961365","6500600","新店區"
"235031","255-BX","2017/07/18 12:03:41","新北市中和區和城路一段271巷1號","121.485481666667","24.991915","6500300","中和區"
"247001","402-BY","2017/07/18 11:56:51","新北市五股區中興路三段3-6號","121.44956","25.0787266666667","6501400","蘆洲區"
"228004","212-TW","2017/07/18 12:19:47","新北市貢寮區貢寮里長泰路17-2號","121.894123333333","25.0205733333333","6502600","貢寮區"
"228005","828-UM","2017/07/18 12:19:35","新北市貢寮區福連里馬崗街1號","121.998056666667","25.0155016666667","6502600","貢寮區"
"207002","749-BX","2017/07/18 12:16:01","新北市萬里區中幅里大湖路3號","121.661975","25.17112","6502800","萬里區"
