"lineid","car","time","location","longitude","latitude","cityid","cityname"
"234044","148-BY","2017/07/18 12:59:33","新北市永和區得和路373巷16弄9號","121.52551","25.0000883333333","6500400","永和區"
"234012","149-BY","2017/07/18 12:59:36","新北市永和區永和路二段86號","121.515021666667","25.0114733333333","6500400","永和區"
"234005","207-UY","2017/07/18 12:59:33","新北市永和區中山路一段47號","121.513133333333","25.0104966666667","6500400","永和區"
"234078","298-R6","2017/07/18 12:59:39","新北市永和區永亨路59號","121.520915","25.0062266666667","6500400","永和區"
"234036","336-UY","2017/07/18 12:59:29","新北市永和區民樂街75巷1號","121.527335","24.99705","6500400","永和區"
"234062","337-UY","2017/07/18 12:59:34","新北市永和區秀朗路一段205號","121.519261666667","25.003265","6500400","永和區"
"234084","338-UY","2017/07/18 12:59:24","新北市永和區永利路18號","121.517988333333","25.0057583333333","6500400","永和區"
"234068","552-UM","2017/07/18 12:59:25","新北市永和區豫溪街57巷10弄5號","121.517475","25.01069","6500400","永和區"
"234052","553-UM","2017/07/18 12:59:22","新北市永和區竹林路66巷15-7號","121.518318333333","25.01325","6500400","永和區"
"234015","745-BX","2017/07/18 12:59:33","新北市永和區永和路二段299號","121.516115","25.01613","6500400","永和區"
"234028","746-BX","2017/07/18 12:59:29","新北市永和區四維街77號","121.52509","24.9980666666667","6500400","永和區"
"234060","AAD-866","2017/07/18 12:59:24","新北市永和區福和路307號","121.516288333333","25.0073","6500400","永和區"
"234040","862-TW","2017/07/18 12:59:21","新北市永和區永貞路306號","121.511893333333","25.00483","6500400","永和區"
"234048","863-TW","2017/07/18 12:59:36","新北市永和區文化路194號","121.510861666667","25.0162633333333","6500400","永和區"
"234025","9371-KE","2017/07/18 12:59:29","新北市永和區永和路一段45-1號","121.512776666667","25.00625","6500400","永和區"
"234010","9373-KE","2017/07/18 12:59:18","新北市永和區文化路113巷21弄26號","121.51376","25.013945","6500400","永和區"
"248017","225-UY","2017/07/18 12:59:25","新北市五股區中興路二段83巷26-6號","121.459956666667","25.07515","6501500","五股區"
"234022","9380-KE","2017/07/18 12:59:31","新北市永和區竹林路72巷4號","121.51887","25.01288","6500400","永和區"
"234076","969-R7","2017/07/18 12:59:22","新北市永和區智光街128號","121.514931666667","24.9956666666667","6500400","永和區"
"234072","AAC-211","2017/07/18 12:59:29","新北市永和區豫溪街217巷21號","121.524386666667","25.00994","6500400","永和區"
"234066","AAC-212","2017/07/18 12:59:16","新北市永和區永和路一段22號","121.513083333333","25.0048266666667","6500400","永和區"
"234001","AAC-295","2017/07/18 12:59:29","新北市永和區保福路一段27號","121.512778333333","25.0086566666667","6500400","永和區"
"244002","248-BX","2017/07/18 12:59:27","新北市林口區粉寮路二段14號","121.401983333333","25.085665","6501700","林口區"
"231002","002-UM","2017/07/18 12:59:37","新北市新店區安華路28-1號","121.519655","24.9607883333333","6500600","新店區"
"231025","0293-UT","2017/07/18 12:59:35","新北市新店區安華路28-1號","121.519598333333","24.9607016666667","6500600","新店區"
"231028","046-UY","2017/07/18 12:59:25","新北市新店區安華路28-1號","121.519516666667","24.9608633333333","6500600","新店區"
"231030","047-UY","2017/07/18 12:59:33","新北市新店區安華路28-1號","121.519248333333","24.9608383333333","6500600","新店區"
"231029","106-UY","2017/07/18 12:59:38","新北市新店區安華路28-1號","121.519583333333","24.9607483333333","6500600","新店區"
"231018","107-UY","2017/07/18 12:59:31","新北市新店區安華路28-1號","121.519473333333","24.9614316666667","6500600","新店區"
"231012","108-UY","2017/07/18 12:59:21","新北市新店區安華路28-1號","121.519556666667","24.96122","6500600","新店區"
"231020","187-VK","2017/07/18 12:59:23","新北市新店區安華路28-1號","121.51954","24.96142","6500600","新店區"
"231069","189-VK","2017/07/18 12:02:58","新北市新店區安華路28-1號","121.519565","24.961065","6500600","新店區"
"231034","268-BY","2017/07/18 12:59:34","新北市新店區安華路28-1號","121.51943","24.9607316666667","6500600","新店區"
"231010","278-BY","2017/07/18 12:59:21","新北市新店區安華路28-1號","121.519918333333","24.9611","6500600","新店區"
"231015","AAD-862","2017/07/18 12:59:35","新北市新店區安華路28-1號","121.51994","24.9612283333333","6500600","新店區"
"231005","355-BY","2017/07/18 12:59:32","新北市新店區安華路28-1號","121.519188333333","24.9609683333333","6500600","新店區"
"231038","4715-K9","2017/07/18 12:59:32","新北市新店區安華路28-1號","121.51941","24.9606483333333","6500600","新店區"
"231036","512-UM","2017/07/18 12:59:28","新北市新店區安華路28-1號","121.519293333333","24.961265","6500600","新店區"
"231023","513-UM","2017/07/18 12:59:30","新北市新店區安華路28-1號","121.519558333333","24.961105","6500600","新店區"
"231035","515-UM","2017/07/18 00:52:50","新北市新店區安華路28-1號","121.519511666667","24.961365","6500600","新店區"
"231006","617-UM","2017/07/18 12:59:19","新北市新店區安華路28-1號","121.519433333333","24.9611916666667","6500600","新店區"
"231001","619-UM","2017/07/18 12:59:18","新北市新店區安華路28-1號","121.519501666667","24.9608683333333","6500600","新店區"
"231003","641-BX","2017/07/18 12:59:28","新北市新店區安華路28-1號","121.519563333333","24.9605266666667","6500600","新店區"
"231013","719-UM","2017/07/18 12:59:31","新北市新店區安華路28-1號","121.51951","24.9613783333333","6500600","新店區"
"231032","720-UM","2017/07/18 12:59:20","新北市新店區安華路28-1號","121.519166666667","24.9611766666667","6500600","新店區"
"231004","899-TW","2017/07/18 12:59:31","新北市新店區安華路28-1號","121.519263333333","24.9608233333333","6500600","新店區"
"231037","AKT-0513","2017/07/18 12:59:38","新北市新店區安華路28-1號","121.51947","24.9606816666667","6500600","新店區"
"235030","003-UY","2017/07/18 12:59:30","新北市中和區中正路637巷52弄1號","121.485455","24.9933916666667","6500300","中和區"
"235028","005-UY","2017/07/18 12:59:16","新北市中和區員山路36巷16-3號","121.485106666667","24.9913216666667","6500300","中和區"
"235029","098-UM","2017/07/18 12:59:20","新北市中和區錦和路99號","121.490058333333","24.995455","6500300","中和區"
"235004","150-BY","2017/07/18 12:59:25","新北市中和區和城路一段271巷1號","121.485533333333","24.9917833333333","6500300","中和區"
"235022","151-BY","2017/07/18 12:59:26","新北市中和區中正路525號","121.488003333333","24.9934733333333","6500300","中和區"
"235002","185-VK","2017/07/18 12:59:32","新北市永和區秀朗路二段284號","121.525986666667","24.997485","6500300","中和區"
"235031","255-BX","2017/07/18 12:59:37","新北市中和區中正路893號","121.484298333333","25.0046066666667","6500300","中和區"
"235032","377-QA","2017/07/18 12:59:21","新北市中和區員山路36巷16-3號","121.485113333333","24.99116","6500300","中和區"
"235025","378-QA","2017/07/18 12:30:39","新北市中和區員山路36巷16-2號","121.485116666667","24.99172","6500300","中和區"
"235035","783-BX","2017/07/18 12:59:28","新北市中和區新生街276號","121.483726666667","24.99691","6500300","中和區"
"235026","800-TS","2017/07/18 12:59:26","新北市中和區中正路637巷60弄61號","121.485496666667","24.9932","6500300","中和區"
"235005","802-TS","2017/07/18 12:59:34","新北市中和區員山路36巷16-2號","121.485198333333","24.9917816666667","6500300","中和區"
"235016","805-TS","2017/07/18 12:59:23","新北市中和區員山路36巷16-3號","121.484613333333","24.9911516666667","6500300","中和區"
"247001","402-BY","2017/07/18 12:59:27","新北市五股區中興路三段5號","121.44965","25.0789233333333","6501400","蘆洲區"
"228004","212-TW","2017/07/18 12:59:27","新北市貢寮區吉林里內寮街19號","121.887206666667","24.98834","6502600","貢寮區"
"228005","828-UM","2017/07/18 12:59:34","新北市貢寮區福連里香蘭街9號","121.977528333333","25.0238283333333","6502600","貢寮區"
"208004","742-BX","2017/07/18 12:59:19","新北市金山區磺清路121號","121.639721666667","25.2277066666667","6502700","金山區"
"207002","749-BX","2017/07/18 12:59:36","新北市萬里區雙興里大坪路9號","121.638121666667","25.167685","6502800","萬里區"
"207001","463-BY","2017/07/18 12:59:21","新北市萬里區萬里里獅頭路23號","121.693283333333","25.1782383333333","6502800","萬里區"
"252005","AAC-283","2017/07/18 12:59:17","新北市三芝區埔坪里埔頭坑41號","121.504633333333","25.2635216666667","6502100","三芝區"
"236006","498-BY","2017/07/18 12:59:36","新北市土城區亞洲路36號","121.43602","24.974065","6501300","土城區"
"242042","497-BY","2017/07/18 12:59:33","新北市新莊區公園一路67號","121.442418333333","25.036895","6500500","新莊區"
"221032","280-BY","2017/07/18 12:59:38","新北市汐止區建成路37巷1號","121.663658333333","25.0728216666667","6501100","汐止區"
"221002","753-BX","2017/07/18 12:59:26","新北市汐止區福德一路342巷1弄14號","121.629013333333","25.0634216666667","6501100","汐止區"
