"lineid","car","time","location","longitude","latitude","cityid","cityname"
"234044","148-BY","2017/07/18 14:19:33","新北市永和區永貞路184號","121.516208333333","25.004195","6500400","永和區"
"234012","149-BY","2017/07/18 14:19:36","新北市中和區橋和路281巷1號","121.496031666667","25.0078433333333","6500400","永和區"
"234005","207-UY","2017/07/18 14:19:54","新北市永和區中正路555號","121.516801666667","25.0083516666667","6500400","永和區"
"234078","298-R6","2017/07/18 14:19:39","新北市永和區福和路57巷2號","121.522925","25.0076283333333","6500400","永和區"
"234036","336-UY","2017/07/18 14:19:45","新北市永和區民樂街31巷17弄2號","121.528696666667","25.0020133333333","6500400","永和區"
"234062","337-UY","2017/07/18 14:19:54","新北市永和區得和路127號","121.51895","25.0002033333333","6500400","永和區"
"234084","338-UY","2017/07/18 14:19:50","新北市永和區中正路655號","121.515031666667","25.01021","6500400","永和區"
"234068","552-UM","2017/07/18 14:19:45","新北市永和區永亨路31號","121.51977","25.0061","6500400","永和區"
"234052","553-UM","2017/07/18 14:19:42","新北市永和區光復街2巷18號","121.51722","25.0166333333333","6500400","永和區"
"234028","746-BX","2017/07/18 14:19:49","新北市新店區永安街109巷27-1號","121.523013333333","24.98602","6500400","永和區"
"234060","AAD-866","2017/07/18 14:19:44","新北市永和區安樂路194巷6號","121.515705","25.000995","6500400","永和區"
"234040","862-TW","2017/07/18 14:19:53","新北市永和區中和路463號","121.509946666667","25.001695","6500400","永和區"
"234048","863-TW","2017/07/18 14:19:36","新北市永和區新生路83號","121.508513333333","25.01596","6500400","永和區"
"234025","9371-KE","2017/07/18 14:19:49","新北市中和區安平路222號","121.513948333333","25.000245","6500400","永和區"
"248017","225-UY","2017/07/18 14:18:45","新北市五股區壟路16號","121.415255","25.08555","6501500","五股區"
"234076","969-R7","2017/07/18 14:19:42","新北市永和區民族街81巷62號","121.520218333333","24.9965716666667","6500400","永和區"
"234072","AAC-211","2017/07/18 14:19:49","新北市永和區環河東路一段124號","121.52071","25.0153933333333","6500400","永和區"
"234066","AAC-212","2017/07/18 14:19:42","新北市永和區保平路214巷1弄1號","121.509636666667","25.00608","6500400","永和區"
"234001","AAC-295","2017/07/18 14:19:49","新北市永和區中正路539號","121.516908333333","25.0079133333333","6500400","永和區"
"231002","002-UM","2017/07/18 14:19:37","新北市新店區中央路153號","121.52992","24.9729916666667","6500600","新店區"
"231025","0293-UT","2017/07/18 14:19:35","新北市新店區二十張路129巷1弄1號","121.535995","24.9791416666667","6500600","新店區"
"231028","046-UY","2017/07/18 14:19:45","新北市新店區吉安街2號","121.517421666667","24.965645","6500600","新店區"
"231030","047-UY","2017/07/18 14:19:53","新北市新店區安民街3巷6弄12號","121.515173333333","24.964625","6500600","新店區"
"231029","106-UY","2017/07/18 14:19:38","新北市新店區安康路二段161號","121.510203333333","24.9592716666667","6500600","新店區"
"231018","107-UY","2017/07/18 14:19:51","新北市新店區中央四街25號","121.528906666667","24.974325","6500600","新店區"
"231012","108-UY","2017/07/18 14:19:41","新北市新店區五峰路61巷4號","121.54786","24.969765","6500600","新店區"
"231020","187-VK","2017/07/18 14:19:43","新北市新店區桂山路35號","121.559108333333","24.9028683333333","6500600","新店區"
"231069","189-VK","2017/07/18 12:02:58","新北市新店區安華路28-1號","121.519565","24.961065","6500600","新店區"
"231034","268-BY","2017/07/18 14:19:54","新北市新店區黎明路3號","121.503578333333","24.95243","6500600","新店區"
"231015","AAD-862","2017/07/18 14:19:40","新北市新店區北宜路二段392巷17號","121.566733333333","24.9535783333333","6500600","新店區"
"231005","355-BY","2017/07/18 14:19:32","新北市新店區中興路三段145號","121.544538333333","24.9799266666667","6500600","新店區"
"231027","3712-VJ","2017/07/18 14:19:40","新北市新店區光明街286巷21號","121.541193333333","24.963375","6500600","新店區"
"231038","4715-K9","2017/07/18 14:19:33","新北市新店區溪洲路6巷88號","121.533203333333","24.9636483333333","6500600","新店區"
"231036","512-UM","2017/07/18 14:19:39","新北市新店區安祥路109巷151弄12號","121.478113333333","24.9588816666667","6500600","新店區"
"231023","513-UM","2017/07/18 14:19:49","新北市新店區光明街138巷6號","121.53965","24.96123","6500600","新店區"
"231035","515-UM","2017/07/18 14:19:46","新北市新店區安民街133巷1號","121.516283333333","24.9691716666667","6500600","新店區"
"231006","617-UM","2017/07/18 14:19:39","新北市新店區北宜路二段599號","121.568166666667","24.95559","6500600","新店區"
"231001","619-UM","2017/07/18 14:19:38","新北市新店區北新路一段327號","121.541631666667","24.9684183333333","6500600","新店區"
"231003","641-BX","2017/07/18 14:19:48","新北市新店區中興路一段216號","121.543871666667","24.9658483333333","6500600","新店區"
"231013","719-UM","2017/07/18 14:19:50","新北市新店區建國路184號","121.537828333333","24.9801916666667","6500600","新店區"
"231032","720-UM","2017/07/18 14:19:40","新北市新店區溪洲路123號","121.530538333333","24.9639183333333","6500600","新店區"
"231004","899-TW","2017/07/18 14:19:51","新北市新店區中正路243號","121.539223333333","24.9733133333333","6500600","新店區"
"231037","AKT-0513","2017/07/18 14:19:38","新北市新店區車子路27號","121.504348333333","24.9522333333333","6500600","新店區"
"235030","003-UY","2017/07/18 14:19:50","新北市中和區中和路102號","121.502666666667","24.9996116666667","6500300","中和區"
"235028","005-UY","2017/07/18 14:19:35","新北市中和區中和路115號","121.501503333333","25.000315","6500300","中和區"
"235027","006-UY","2017/07/18 14:19:51","新北市中和區連勝街125號","121.494981666667","24.9951166666667","6500300","中和區"
"235020","096-UM","2017/07/18 14:19:36","新北市中和區中山路三段2號","121.479838333333","25.0061383333333","6500300","中和區"
"235003","097-UM","2017/07/18 14:19:51","新北市中和區秀峰街103巷8弄12號","121.519778333333","24.989605","6500300","中和區"
"235029","098-UM","2017/07/18 14:19:40","新北市中和區中山路二段2巷45弄7號","121.502063333333","25.006565","6500300","中和區"
"235004","150-BY","2017/07/18 14:19:46","新北市中和區保健路106巷81號","121.511333333333","24.9944566666667","6500300","中和區"
"235022","151-BY","2017/07/18 14:19:46","新北市中和區連城路469巷91號","121.48421","24.9934716666667","6500300","中和區"
"235019","183-VK","2017/07/18 14:19:54","新北市中和區莒光路3巷7號","121.472111666667","25.0060466666667","6500300","中和區"
"235002","185-VK","2017/07/18 14:19:32","新北市中和區大仁街10巷9弄29號","121.51928","24.9930066666667","6500300","中和區"
"235013","186-VK","2017/07/18 14:19:39","新北市中和區景新街230巷3號","121.508195","24.9941066666667","6500300","中和區"
"235031","255-BX","2017/07/18 14:19:37","新北市中和區新生街201號","121.4838","24.99998","6500300","中和區"
"235008","293-VK","2017/07/18 14:19:50","新北市中和區中興街214號","121.499558333333","24.989965","6500300","中和區"
"235036","301-VK","2017/07/18 14:19:37","新北市中和區光華街49號","121.505701666667","25.0037","6500300","中和區"
"235007","352-BY","2017/07/18 14:19:47","新北市中和區景平路159巷1號","121.512663333333","24.9922433333333","6500300","中和區"
"235015","376-QA","2017/07/18 14:19:45","新北市中和區景平路239巷45號","121.509056666667","24.99229","6500300","中和區"
"235032","377-QA","2017/07/18 14:19:41","新北市中和區圓通路158巷3-1號","121.497603333333","24.9961816666667","6500300","中和區"
"235025","378-QA","2017/07/18 14:19:11","新北市中和區員山路143巷48號","121.478581666667","24.995305","6500300","中和區"
"235014","4979-A6","2017/07/18 14:19:42","新北市中和區中正路190號","121.497735","24.9939516666667","6500300","中和區"
"235033","4980-A6","2017/07/18 14:19:45","新北市中和區連城路134巷6號","121.495608333333","24.9992916666667","6500300","中和區"
"235006","551-UM","2017/07/18 14:19:33","新北市永和區中正路198號","121.515573333333","24.997315","6500300","中和區"
"235009","565-BX","2017/07/18 14:19:40","新北市中和區景新街437巷22號","121.514398333333","24.9893633333333","6500300","中和區"
"235034","611-BX","2017/07/18 14:19:46","新北市中和區連城路18號","121.498755","25.002135","6500300","中和區"
"235018","640-BX","2017/07/18 14:19:50","新北市中和區民德路189巷7號","121.469201666667","24.9990333333333","6500300","中和區"
"235024","647-TV","2017/07/18 14:19:52","新北市中和區中山路三段35-1號","121.478741666667","25.0057816666667","6500300","中和區"
"235011","732-UM","2017/07/18 14:19:39","新北市中和區景平路239巷65號","121.508463333333","24.992145","6500300","中和區"
"235010","733-UM","2017/07/18 14:19:51","新北市中和區忠孝街2-9號","121.509285","24.9828666666667","6500300","中和區"
"235035","783-BX","2017/07/18 14:19:47","新北市中和區連城路519號","121.48206","24.99534","6500300","中和區"
"235026","800-TS","2017/07/18 14:19:46","新北市中和區橋安街2號","121.49286","25.0033083333333","6500300","中和區"
"235021","801-TS","2017/07/18 14:19:39","新北市中和區民利街53號","121.479351666667","24.9987516666667","6500300","中和區"
"235005","802-TS","2017/07/18 14:19:54","新北市中和區宜安路102號","121.51035","24.9978766666667","6500300","中和區"
"235016","805-TS","2017/07/18 14:19:43","新北市中和區興南路二段142巷17弄8號","121.503221666667","24.9831683333333","6500300","中和區"
"235012","896-TW","2017/07/18 14:19:51","新北市中和區華新街109巷1-2號","121.509011666667","24.9823516666667","6500300","中和區"
"235017","900-TW","2017/07/18 14:19:50","新北市中和區民德路208號","121.468276666667","24.998295","6500300","中和區"
"235001","AAC-213","2017/07/18 14:19:45","新北市中和區秀朗路三段128巷38弄1號","121.524753333333","24.994105","6500300","中和區"
"235023","AAC-215","2017/07/18 14:19:37","新北市中和區圓通路252巷18弄1號","121.492271666667","24.992525","6500300","中和區"
"220016","013-TV","2017/07/18 14:19:41","新北市板橋區翠華街8巷1號","121.482526666667","25.0252016666667","6500100","板橋區"
"220013","072-UY","2017/07/18 14:19:42","新北市板橋區民族路129巷1號","121.467425","25.0081966666667","6500100","板橋區"
"220034","073-UY","2017/07/18 14:19:54","新北市板橋區中正路216巷10號","121.456371666667","25.01831","6500100","板橋區"
"220105","075-UY","2017/07/18 14:19:52","新北市板橋區宏國路113號","121.470441666667","25.0320666666667","6500100","板橋區"
"247019","893-R6","2017/07/18 14:19:39","新北市蘆洲區仁愛街57號","121.471851666667","25.093325","6501400","蘆洲區"
"247009","546-UM","2017/07/18 14:19:52","新北市蘆洲區三民路26巷12號","121.476888333333","25.0828016666667","6501400","蘆洲區"
"247017","500-BY","2017/07/18 14:19:48","新北市蘆洲區民權路109號","121.472558333333","25.0894416666667","6501400","蘆洲區"
"247001","402-BY","2017/07/18 14:19:47","新北市蘆洲區復興路58號","121.473885","25.0861466666667","6501400","蘆洲區"
"247005","341-TH","2017/07/18 14:19:54","新北市蘆洲區九芎街88號","121.46591","25.0798766666667","6501400","蘆洲區"
"247007","339-TH","2017/07/18 14:19:50","新北市蘆洲區中山一路197巷6弄22號","121.474163333333","25.0803333333333","6501400","蘆洲區"
"247023","337-TH","2017/07/18 14:19:32","新北市蘆洲區三民路555號","121.463328333333","25.0915916666667","6501400","蘆洲區"
"247001","336-TH","2017/07/18 14:19:55","新北市蘆洲區永樂街75號","121.456205","25.0886983333333","6501400","蘆洲區"
"247013","057-VK","2017/07/18 14:19:44","新北市蘆洲區成功路55號","121.472388333333","25.0805933333333","6501400","蘆洲區"
"247003","056-VK","2017/07/18 14:19:37","新北市蘆洲區中原路53號","121.45916","25.0822433333333","6501400","蘆洲區"
"247011","007-UY","2017/07/18 14:19:38","新北市蘆洲區民權路3巷14弄15號","121.475125","25.0856083333333","6501400","蘆洲區"
"247021","002-UY","2017/07/18 14:19:48","新北市蘆洲區中正路434巷8-2號","121.463523333333","25.0947716666667","6501400","蘆洲區"
"247015","001-UY","2017/07/18 14:19:47","新北市蘆洲區中正路185巷23弄15號","121.467436666667","25.084235","6501400","蘆洲區"
"228004","212-TW","2017/07/18 14:19:47","新北市貢寮區雙玉里田寮洋街39號","121.924896666667","25.0138833333333","6502600","貢寮區"
"228005","828-UM","2017/07/18 14:19:44","新北市貢寮區美豐里土地公嶺54號","121.894826666667","25.0651866666667","6502600","貢寮區"
"208004","742-BX","2017/07/18 14:19:39","新北市金山區六股里下六股65號","121.614423333333","25.223575","6502700","金山區"
"207002","749-BX","2017/07/18 14:19:46","新北市萬里區溪底里瑞泉路4-1號","121.608823333333","25.1464616666667","6502800","萬里區"
"207001","463-BY","2017/07/18 14:19:41","新北市萬里區磺潭里清水18號","121.637818333333","25.197745","6502800","萬里區"
"252005","AAC-283","2017/07/18 14:19:37","新北市三芝區橫山里大坑34號","121.527546666667","25.25606","6502100","三芝區"
"236065","105-UM","2017/07/18 14:19:48","新北市土城區明德路一段126號","121.463758333333","24.97912","6501300","土城區"
"236041","107-UM","2017/07/18 14:19:52","新北市土城區裕生路60號","121.447621666667","24.9863833333333","6501300","土城區"
"236075","166-UM","2017/07/18 14:19:47","新北市土城區中央路三段281巷23弄1號","121.425955","24.96202","6501300","土城區"
"236029","253-BX","2017/07/18 14:19:34","新北市土城區順風路30號","121.440141666667","24.9771016666667","6501300","土城區"
"236025","269-VK","2017/07/18 14:19:36","新北市土城區承天路43巷4號","121.43916","24.96386","6501300","土城區"
"236013","270-VK","2017/07/18 14:19:48","新北市土城區青雲路39巷7號","121.460361666667","24.98755","6501300","土城區"
"236034","271-VK","2017/07/18 14:19:44","新北市土城區青雲路483巷10弄28號","121.459388333333","24.972685","6501300","土城區"
"236017","401-BY","2017/07/18 14:19:37","新北市土城區明德路一段361-1號","121.456806666667","24.9775983333333","6501300","土城區"
"236006","498-BY","2017/07/18 14:19:40","新北市土城區中華路一段70巷30號","121.443801666667","24.9894633333333","6501300","土城區"
"236057","912-UM","2017/07/18 14:19:36","新北市土城區中央路四段203號","121.414428333333","24.9561883333333","6501300","土城區"
"236045","913-UM","2017/07/18 14:19:40","新北市土城區明德路一段280-1號","121.457283333333","24.9775183333333","6501300","土城區"
"236061","915-UM","2017/07/18 14:19:43","新北市土城區延壽路44巷17號","121.47168","24.993065","6501300","土城區"
"236054","AAC-216","2017/07/18 14:19:48","新北市土城區中華路二段193號","121.438223333333","24.9743433333333","6501300","土城區"
"242042","497-BY","2017/07/18 14:19:53","新北市新莊區新泰路357巷3弄57號","121.442253333333","25.0394416666667","6500500","新莊區"
"221032","280-BY","2017/07/18 14:19:38","新北市新店區薏仁坑路5號","121.498968333333","24.9589966666667","6501100","汐止區"
"220027","145-BY","2017/07/18 14:19:50","新北市板橋區民權路202巷17弄4號","121.46059","25.0166716666667","6500100","板橋區"
"220042","146-RM","2017/07/18 14:19:45","新北市板橋區漢生西路26號","121.463606666667","25.01822","6500100","板橋區"
"220028","200-UY","2017/07/18 14:19:52","新北市板橋區大觀路二段21號","121.44697","25.0032766666667","6500100","板橋區"
"220030","610-BX","2017/07/18 14:19:38","新北市板橋區篤行路三段91號","121.426488333333","24.9849216666667","6500100","板橋區"
"220050","245-BX","2017/07/18 14:19:50","新北市板橋區雙十路二段6-10號","121.476773333333","25.0264266666667","6500100","板橋區"
"220017","258-TC","2017/07/18 14:19:37","新北市板橋區華興街1號","121.459405","25.0046433333333","6500100","板橋區"
"220004","276-BY","2017/07/18 14:19:47","新北市板橋區國慶路49巷17號","121.459583333333","24.9962366666667","6500100","板橋區"
"220020","277-BY","2017/07/18 14:19:46","新北市板橋區金門街337巷3弄2號","121.429818333333","24.9852083333333","6500100","板橋區"
"220012","280-UM","2017/07/18 14:19:48","新北市板橋區板新路227號","121.468016666667","25.0159066666667","6500100","板橋區"
"220019","283-VK","2017/07/18 14:19:33","新北市板橋區重慶路269巷29號","121.464245","24.9993066666667","6500100","板橋區"
"220043","285-UM","2017/07/18 14:19:54","新北市板橋區吳鳳路19巷18號","121.466861666667","25.0307283333333","6500100","板橋區"
"220001","285-VK","2017/07/18 14:19:35","新北市板橋區縣民大道三段270巷17號","121.478635","25.0229383333333","6500100","板橋區"
"220031","286-VK","2017/07/18 14:19:41","新北市板橋區龍興街73巷6號","121.443656666667","25.0022716666667","6500100","板橋區"
"220029","287-VK","2017/07/18 14:19:43","新北市板橋區南雅西路一段59號","121.453615","25.0051533333333","6500100","板橋區"
"220039","288-VK","2017/07/18 14:19:55","新北市板橋區長江路一段106巷13弄4號","121.460208333333","25.0290966666667","6500100","板橋區"
"220009","293-UM","2017/07/18 14:19:34","新北市板橋區中山路二段255巷7號","121.477018333333","25.0179816666667","6500100","板橋區"
"220032","296-UM","2017/07/18 14:19:42","新北市板橋區溪崑二街22巷9號","121.428173333333","24.9914866666667","6500100","板橋區"
"220023","297-UM","2017/07/18 14:19:29","新北市板橋區南雅南路一段1巷1弄12號","121.456993333333","25.0063016666667","6500100","板橋區"
"220010","303-R5","2017/07/18 14:19:42","新北市板橋區三民路二段153巷2弄4號","121.479568333333","25.0148066666667","6500100","板橋區"
"220041","307-R5","2017/07/18 14:19:47","新北市板橋區松江街74號","121.468623333333","25.0278633333333","6500100","板橋區"
"220047","317-R6","2017/07/18 14:19:55","新北市板橋區民有街105號","121.464491666667","25.0281683333333","6500100","板橋區"
"220038","487-VK","2017/07/18 14:19:44","新北市板橋區文化路二段126號","121.469918333333","25.02636","6500100","板橋區"
"220037","491-VK","2017/07/18 14:19:45","新北市板橋區雙十路二段143號","121.47494","25.0279933333333","6500100","板橋區"
"220104","560-BX","2017/07/18 14:19:45","新北市板橋區中正路399巷13弄1號","121.453396666667","25.0225366666667","6500100","板橋區"
"220052","561-BX","2017/07/18 14:19:51","新北市板橋區文化路一段188巷9弄10號","121.467888333333","25.01884","6500100","板橋區"
"220011","609-BX","2017/07/18 14:19:50","新北市板橋區三民路二段204-3號","121.47894","25.0123883333333","6500100","板橋區"
"220040","637-BX","2017/07/18 14:19:47","新北市板橋區萬板路478號","121.47997","25.0260416666667","6500100","板橋區"
"220005","686-BX","2017/07/18 14:19:56","新北市板橋區重慶路308巷4號","121.463335","24.9979533333333","6500100","板橋區"
"220025","687-BX","2017/07/18 14:19:38","新北市板橋區大觀路二段20號","121.44672","25.003385","6500100","板橋區"
"220002","741-BX","2017/07/18 14:19:47","新北市板橋區校前街72號","121.461873333333","25.0033516666667","6500100","板橋區"
"220003","827-TW","2017/07/18 14:19:49","新北市板橋區新民街6巷16號","121.465055","25.010225","6500100","板橋區"
"220014","829-TW","2017/07/18 14:19:46","新北市板橋區漢生東路313巷2弄60號","121.472855","25.0079983333333","6500100","板橋區"
"220051","830-TW","2017/07/18 14:19:34","新北市板橋區文聖街84號","121.477398333333","25.029985","6500100","板橋區"
"220045","831-TW","2017/07/18 14:19:36","新北市板橋區大同街38號","121.47852","25.0274383333333","6500100","板橋區"
"220022","895-R6","2017/07/18 14:19:33","新北市板橋區北門街25-2號","121.456431666667","25.0113516666667","6500100","板橋區"
"220046","AAC-210","2017/07/18 14:19:51","新北市板橋區幸福路51號","121.461156666667","25.0199366666667","6500100","板橋區"
"220018","AAC-253","2017/07/18 14:19:36","新北市板橋區忠孝路86號","121.461603333333","25.00199","6500100","板橋區"
