"lineid","car","time","location","longitude","latitude","cityid","cityname"
"234078","298-R6","2017/07/18 14:59:39","新北市五股區凌雲路二段18巷62-2號","121.44201","25.1064916666667","6500400","永和區"
"234062","337-UY","2017/07/18 14:59:34","新北市八里區龍米路一段205號","121.451466666667","25.1313316666667","6500400","永和區"
"234028","746-BX","2017/07/18 14:59:44","新北市新店區安和路三段119號","121.51753","24.9851716666667","6500400","永和區"
"234040","862-TW","2017/07/18 14:59:41","新北市永和區福和路1號","121.526533333333","25.0095983333333","6500400","永和區"
"234025","9371-KE","2017/07/18 14:59:49","新北市永和區永貞路100號","121.519161666667","25.0044633333333","6500400","永和區"
"248017","225-UY","2017/07/18 14:59:44","新北市五股區外寮路189巷41號","121.429246666667","25.076155","6501500","五股區"
"234066","AAC-212","2017/07/18 14:59:36","新北市五股區中興路三段2巷10號","121.447971666667","25.084125","6500400","永和區"
"231002","002-UM","2017/07/18 14:59:51","新北市新店區中正路493-2號","121.533646666667","24.9829483333333","6500600","新店區"
"231025","0293-UT","2017/07/18 14:59:35","新北市新店區大同街22號","121.539241666667","24.9801983333333","6500600","新店區"
"231028","046-UY","2017/07/18 14:59:45","新北市新店區安豐路49號","121.499986666667","24.9549283333333","6500600","新店區"
"231030","047-UY","2017/07/18 14:59:53","新北市新店區安民街339號","121.516886666667","24.9748783333333","6500600","新店區"
"231029","106-UY","2017/07/18 14:59:38","新北市新店區錦秀路53號","121.479106666667","24.9434416666667","6500600","新店區"
"231018","107-UY","2017/07/18 14:59:51","新北市新店區中央路155號","121.529658333333","24.972555","6500600","新店區"
"231012","108-UY","2017/07/18 14:59:41","新北市新店區中興路三段205巷7弄1號","121.543241666667","24.9815466666667","6500600","新店區"
"231020","187-VK","2017/07/18 14:59:43","新北市新店區永福路54號","121.558113333333","24.92869","6500600","新店區"
"231069","189-VK","2017/07/18 12:02:58","新北市新店區安華路28-1號","121.519565","24.961065","6500600","新店區"
"231026","256-BX","2017/07/18 14:59:44","新北市新店區中正路152號","121.541535","24.9716833333333","6500600","新店區"
"231034","268-BY","2017/07/18 14:59:34","新北市新店區玫瑰路4-1號","121.493676666667","24.9514083333333","6500600","新店區"
"231015","AAD-862","2017/07/18 14:59:35","新北市新店區北宜路二段579巷1號","121.56581","24.9538533333333","6500600","新店區"
"231005","355-BY","2017/07/18 14:59:52","新北市新店區寶元路一段15巷11號","121.54203","24.987055","6500600","新店區"
"231024","3713-VJ","2017/07/18 14:59:37","新北市新店區中華路83巷67號","121.538368333333","24.967285","6500600","新店區"
"231036","512-UM","2017/07/18 14:59:39","新北市新店區安祥路102巷32號","121.484173333333","24.96394","6500600","新店區"
"231023","513-UM","2017/07/18 14:59:49","新北市新店區檳榔路109號","121.544415","24.9616933333333","6500600","新店區"
"231035","515-UM","2017/07/18 14:59:46","新北市新店區安和路三段61號","121.517936666667","24.9833316666667","6500600","新店區"
"231006","617-UM","2017/07/18 14:59:39","新北市新店區新坡一街78號","121.548031666667","24.9645533333333","6500600","新店區"
"231001","619-UM","2017/07/18 14:59:38","新北市新店區中正路276號","121.538836666667","24.9736683333333","6500600","新店區"
"231003","641-BX","2017/07/18 14:59:48","新北市新店區中興路二段233號","121.547561666667","24.9751133333333","6500600","新店區"
"231039","718-UY","2017/07/18 14:59:51","新北市新店區北新路二段94號","121.542925","24.9730416666667","6500600","新店區"
"231032","720-UM","2017/07/18 14:59:40","新北市新店區安泰路60巷98號","121.484036666667","24.9451966666667","6500600","新店區"
"231004","899-TW","2017/07/18 14:59:51","新北市新店區民族路45-1號","121.540455","24.978725","6500600","新店區"
"231037","AKT-0513","2017/07/18 14:59:38","新北市新店區安興路69號","121.516043333333","24.9751666666667","6500600","新店區"
"235030","003-UY","2017/07/18 14:59:50","新北市中和區中山路二段3巷20號","121.506265","25.005435","6500300","中和區"
"235020","096-UM","2017/07/18 14:59:36","新北市中和區中山路三段114巷18號","121.475951666667","25.0067933333333","6500300","中和區"
"235003","097-UM","2017/07/18 14:59:42","新北市中和區安樂路123號","121.513818333333","24.9961883333333","6500300","中和區"
"235029","098-UM","2017/07/18 14:59:40","新北市中和區橋和路322號","121.497545","25.0071666666667","6500300","中和區"
"235004","150-BY","2017/07/18 14:59:45","新北市中和區保健路19巷4弄2號","121.508526666667","24.9984816666667","6500300","中和區"
"235022","151-BY","2017/07/18 14:59:46","新北市中和區新生街220巷37號","121.482331666667","24.998245","6500300","中和區"
"235019","183-VK","2017/07/18 14:59:36","新北市中和區民安街51號","121.479521666667","24.9999733333333","6500300","中和區"
"235002","185-VK","2017/07/18 14:59:51","新北市永和區民生路42號","121.522503333333","24.9966983333333","6500300","中和區"
"235013","186-VK","2017/07/18 14:59:39","新北市中和區景平路556號","121.50229","24.995","6500300","中和區"
"235031","255-BX","2017/07/18 14:59:37","新北市中和區新生街184號","121.4837","24.9996866666667","6500300","中和區"
"235008","293-VK","2017/07/18 14:59:50","新北市中和區南山路222號","121.506388333333","24.9902666666667","6500300","中和區"
"235036","301-VK","2017/07/18 14:59:37","新北市中和區連城路171巷41弄1號","121.496126666667","24.99663","6500300","中和區"
"235007","352-BY","2017/07/18 14:59:47","新北市中和區興南路一段137號","121.508866666667","24.9876216666667","6500300","中和區"
"235015","376-QA","2017/07/18 14:59:45","新北市中和區復興路280號","121.502305","24.9906183333333","6500300","中和區"
"235032","377-QA","2017/07/18 14:59:41","新北市中和區福祥路85巷2弄12號","121.498586666667","25.006135","6500300","中和區"
"235014","4979-A6","2017/07/18 14:59:42","新北市中和區安樂路66號","121.512251666667","24.993215","6500300","中和區"
"235033","4980-A6","2017/07/18 14:59:45","新北市中和區景新街64巷7弄6號","121.504136666667","24.9985933333333","6500300","中和區"
"235034","611-BX","2017/07/18 14:59:46","新北市中和區景平路507號","121.49957","24.9985766666667","6500300","中和區"
"235018","640-BX","2017/07/18 14:59:50","新北市土城區延壽路115巷11號","121.468393333333","24.9942266666667","6500300","中和區"
"235010","733-UM","2017/07/18 14:59:51","新北市中和區興南路一段93巷63號","121.51032","24.9871066666667","6500300","中和區"
"235035","783-BX","2017/07/18 14:59:47","新北市中和區中正路797號","121.485015","25.0003933333333","6500300","中和區"
"235016","805-TS","2017/07/18 14:59:43","新北市中和區華新街192巷22弄7號","121.506573333333","24.983285","6500300","中和區"
"235012","896-TW","2017/07/18 14:59:51","新北市中和區忠孝街5巷9號","121.509251666667","24.9830783333333","6500300","中和區"
"235017","900-TW","2017/07/18 14:59:50","新北市中和區國光街189巷12弄2號","121.467485","25.0013766666667","6500300","中和區"
"235001","AAC-213","2017/07/18 14:59:45","新北市中和區秀朗路三段10巷29弄11號","121.525158333333","24.9959933333333","6500300","中和區"
"235023","AAC-215","2017/07/18 14:59:37","新北市中和區圓通路335巷3弄3號","121.492451666667","24.9901583333333","6500300","中和區"
"220016","013-TV","2017/07/18 14:59:42","新北市板橋區中山路二段370號","121.48187","25.0202733333333","6500100","板橋區"
"220013","072-UY","2017/07/18 14:59:42","新北市板橋區海山路39號","121.467215","25.0096716666667","6500100","板橋區"
"220105","075-UY","2017/07/18 14:59:50","新北市板橋區懷德街2號","121.476678333333","25.0330383333333","6500100","板橋區"
"247001","402-BY","2017/07/18 14:59:47","新北市五股區凌雲路三段24巷21-6號","121.43474","25.1074133333333","6501400","蘆洲區"
"247005","341-TH","2017/07/18 14:59:34","新北市五股區中興路三段2巷10號","121.448811666667","25.08163","6501400","蘆洲區"
"247014","057-VK","2017/07/18 14:59:26","新北市五股區中興路三段2巷10號","121.448855","25.08184","6501400","蘆洲區"
"228004","212-TW","2017/07/18 14:59:47","新北市貢寮區福隆里興隆街21-2號","121.932993333333","25.0188683333333","6502600","貢寮區"
"208004","742-BX","2017/07/18 14:59:39","新北市金山區半嶺7-2號","121.613698333333","25.2372133333333","6502700","金山區"
"207002","749-BX","2017/07/18 14:59:44","新北市萬里區崁腳里崁腳路39號","121.651325","25.1609533333333","6502800","萬里區"
"207001","463-BY","2017/07/18 14:59:40","新北市萬里區雙興里麗水路2號","121.6535","25.1797533333333","6502800","萬里區"
"236065","105-UM","2017/07/18 14:59:48","新北市土城區中央路一段291巷14號","121.445018333333","24.9837133333333","6501300","土城區"
"236041","107-UM","2017/07/18 14:59:52","新北市土城區裕民路190號","121.453018333333","24.98502","6501300","土城區"
"236075","166-UM","2017/07/18 14:59:47","新北市土城區中州路3巷50號","121.413366666667","24.9563883333333","6501300","土城區"
"236029","253-BX","2017/07/18 14:59:34","新北市土城區中央路二段278巷11-2號","121.439681666667","24.974975","6501300","土城區"
"236025","269-VK","2017/07/18 14:59:47","新北市土城區中正路59號","121.444325","24.9755783333333","6501300","土城區"
"236013","270-VK","2017/07/18 14:59:48","新北市土城區延和路13巷12號","121.463753333333","24.9884233333333","6501300","土城區"
"236034","271-VK","2017/07/18 14:59:44","新北市土城區清水路148號","121.459233333333","24.9814716666667","6501300","土城區"
"236017","401-BY","2017/07/18 14:59:37","新北市土城區延吉街166號","121.468393333333","24.9853883333333","6501300","土城區"
"236057","912-UM","2017/07/18 14:59:36","新北市土城區清水路25巷25號","121.453098333333","24.9804233333333","6501300","土城區"
"236045","913-UM","2017/07/18 14:59:40","新北市土城區明德路一段398-1號","121.453655","24.9790816666667","6501300","土城區"
"236061","915-UM","2017/07/18 14:59:43","新北市土城區延和路41巷6弄20號","121.46662","24.9904133333333","6501300","土城區"
"236054","AAC-216","2017/07/18 14:59:48","新北市土城區學成路167號","121.44814","24.9890733333333","6501300","土城區"
"242042","497-BY","2017/07/18 14:20:24","新北市新莊區新泰路357巷3弄57號","121.442241666667","25.03946","6500500","新莊區"
"220042","146-RM","2017/07/18 14:59:54","新北市板橋區長江路三段5號","121.471966666667","25.0335366666667","6500100","板橋區"
"220028","200-UY","2017/07/18 14:59:52","新北市板橋區大觀路二段187巷15號","121.4456","24.9994483333333","6500100","板橋區"
"220030","610-BX","2017/07/18 14:59:49","新北市板橋區金門街149號","121.432738333333","24.9906783333333","6500100","板橋區"
"220050","245-BX","2017/07/18 14:59:50","新北市板橋區莒光路200巷28號","121.473085","25.0222166666667","6500100","板橋區"
"220017","258-TC","2017/07/18 14:59:17","新北市板橋區大明街19號","121.458815","25.002545","6500100","板橋區"
"220020","277-BY","2017/07/18 14:59:43","新北市板橋區金門街111-3號","121.43308","24.9921283333333","6500100","板橋區"
"220012","280-UM","2017/07/18 14:59:48","新北市板橋區忠孝路191號","121.464615","25.00268","6500100","板橋區"
"220019","283-VK","2017/07/18 14:59:53","新北市板橋區五權街30巷24弄19-3號","121.463733333333","24.9934883333333","6500100","板橋區"
"220043","285-UM","2017/07/18 14:59:54","新北市板橋區陽明街59號","121.464463333333","25.0227183333333","6500100","板橋區"
"220001","285-VK","2017/07/18 14:59:45","新北市板橋區永豐街167號","121.47565","25.0204316666667","6500100","板橋區"
"220031","286-VK","2017/07/18 14:59:41","新北市板橋區僑中二街100巷40號","121.444405","25.0087316666667","6500100","板橋區"
"220029","287-VK","2017/07/18 14:59:39","新北市板橋區僑中一街124巷18弄20號","121.446933333333","25.0135633333333","6500100","板橋區"
"220039","288-VK","2017/07/18 14:59:47","新北市板橋區新海路116號","121.461243333333","25.022715","6500100","板橋區"
"220009","293-UM","2017/07/18 14:59:34","新北市板橋區中山路一段143號","121.464728333333","25.0116966666667","6500100","板橋區"
"220032","296-UM","2017/07/18 14:59:42","新北市板橋區滿平街2巷10號","121.425206666667","24.9894266666667","6500100","板橋區"
"220023","297-UM","2017/07/18 14:59:49","新北市板橋區金華街10巷103號","121.458971666667","25.02055","6500100","板橋區"
"220010","303-R5","2017/07/18 14:59:42","新北市板橋區中山路二段613號","121.48546","25.02243","6500100","板橋區"
"220041","307-R5","2017/07/18 14:59:47","新北市板橋區裕民街130號","121.458911666667","25.0273516666667","6500100","板橋區"
"220047","317-R6","2017/07/18 14:59:36","新北市板橋區新海路72巷38號","121.462255","25.022675","6500100","板橋區"
"220038","487-VK","2017/07/18 14:59:44","新北市板橋區龍泉街106-2號","121.456735","25.0246433333333","6500100","板橋區"
"220037","491-VK","2017/07/18 14:59:45","新北市板橋區懷德街78巷1號","121.47833","25.0315016666667","6500100","板橋區"
"220052","561-BX","2017/07/18 14:59:51","新北市板橋區文化路一段435巷31弄11號","121.466941666667","25.0228633333333","6500100","板橋區"
"220011","609-BX","2017/07/18 14:59:50","新北市板橋區中山路二段463號","121.481895","25.0203716666667","6500100","板橋區"
"220040","637-BX","2017/07/18 14:59:47","新北市板橋區文聖街89巷27號","121.47849","25.0304933333333","6500100","板橋區"
"220005","686-BX","2017/07/18 14:59:48","新北市板橋區信義路19號","121.456876666667","24.9966166666667","6500100","板橋區"
"220025","687-BX","2017/07/18 14:59:38","新北市板橋區僑中一街124巷73號","121.446711666667","25.0177216666667","6500100","板橋區"
"220002","741-BX","2017/07/18 14:59:39","新北市板橋區忠孝路忠義巷9弄88號","121.465001666667","25.0056466666667","6500100","板橋區"
"220003","827-TW","2017/07/18 14:59:37","新北市板橋區仁愛路75號","121.460905","24.9996866666667","6500100","板橋區"
"220014","829-TW","2017/07/18 14:59:34","新北市板橋區縣民大道三段310號","121.478676666667","25.023915","6500100","板橋區"
"220051","830-TW","2017/07/18 14:59:54","新北市板橋區文聖街20-3號","121.476228333333","25.031565","6500100","板橋區"
"220045","831-TW","2017/07/18 14:59:51","新北市板橋區莒光路16巷20號","121.469541666667","25.0241983333333","6500100","板橋區"
"220022","895-R6","2017/07/18 14:59:53","新北市板橋區南雅南路一段1巷1弄5號","121.457283333333","25.0062183333333","6500100","板橋區"
"220046","AAC-210","2017/07/18 14:59:47","新北市板橋區光正街18巷9號","121.462565","25.0176133333333","6500100","板橋區"
"220018","AAC-253","2017/07/18 14:59:36","新北市板橋區成都街103號","121.463513333333","25.005325","6500100","板橋區"
