"lineid","car","time","location","longitude","latitude","cityid","cityname"
"234028","746-BX","2017/07/18 15:49:43","新北市中和區秀朗路三段109巷2弄12-1號","121.528025","24.994035","6500400","永和區"
"234040","862-TW","2017/07/18 15:25:18","新北市永和區福和路1號","121.526548333333","25.0095933333333","6500400","永和區"
"231028","046-UY","2017/07/18 15:49:45","新北市新店區安康路二段320巷15弄2號","121.50402","24.959535","6500600","新店區"
"231030","047-UY","2017/07/18 15:49:54","新北市新店區永安街10號","121.516881666667","24.9862683333333","6500600","新店區"
"231029","106-UY","2017/07/18 15:49:38","新北市新店區薏仁坑路自強巷1號","121.49683","24.9581633333333","6500600","新店區"
"231018","107-UY","2017/07/18 15:49:51","新北市新店區中正路663巷1弄15號","121.532798333333","24.98982","6500600","新店區"
"231012","108-UY","2017/07/18 15:49:41","新北市新店區文化路1巷1號","121.542761666667","24.979485","6500600","新店區"
"231020","187-VK","2017/07/18 15:49:43","新北市新店區新烏路一段73號","121.546393333333","24.94282","6500600","新店區"
"231069","189-VK","2017/07/18 12:02:58","新北市新店區安華路28-1號","121.519565","24.961065","6500600","新店區"
"231026","256-BX","2017/07/18 15:49:44","新北市新店區中正路487號","121.533795","24.98217","6500600","新店區"
"231034","268-BY","2017/07/18 15:49:54","新北市新店區吉祥街15巷1號","121.497758333333","24.9456066666667","6500600","新店區"
"231046","278-BY","2017/07/18 14:06:15","新北市新店區安華路28-1號","121.519768333333","24.9613166666667","6500600","新店區"
"231015","AAD-862","2017/07/18 15:49:35","新北市新店區中華路83巷2弄2號","121.539041666667","24.96857","6500600","新店區"
"231038","4715-K9","2017/07/18 15:49:53","新北市新店區安康路二段125-1號","121.512345","24.9610583333333","6500600","新店區"
"231035","515-UM","2017/07/18 15:49:47","新北市新店區安民街381號","121.516295","24.9764383333333","6500600","新店區"
"231003","641-BX","2017/07/18 15:49:48","新北市新店區寶興路60巷3號","121.549885","24.9718533333333","6500600","新店區"
"231013","719-UM","2017/07/18 15:49:42","新北市新店區永業路81巷9弄11號","121.531171666667","24.9507633333333","6500600","新店區"
"231032","720-UM","2017/07/18 15:49:40","新北市新店區雙城路60巷16弄13號","121.491733333333","24.947845","6500600","新店區"
"231037","AKT-0513","2017/07/18 15:49:38","新北市新店區安興路105-1號","121.514656666667","24.9777016666667","6500600","新店區"
"241011","013-R5","2017/07/18 15:49:41","新北市三重區文化北路149-1號","121.497565","25.06955","6500200","三重區"
"241028","022-UY","2017/07/18 15:49:45","新北市三重區中正南路43號","121.493915","25.0597216666667","6500200","三重區"
"241015","062-VK","2017/07/18 15:49:39","新北市三重區重新路四段121號","121.485073333333","25.05193","6500200","三重區"
"241017","063-VK","2017/07/18 15:49:49","新北市三重區大仁街1號","121.491698333333","25.0636433333333","6500200","三重區"
"241024","065-VK","2017/07/18 15:49:52","新北市三重區朝陽街26巷1弄2號","121.482248333333","25.0563316666667","6500200","三重區"
"241026","066-VK","2017/07/18 15:49:49","新北市三重區中央南路141巷32-2號","121.500533333333","25.0591916666667","6500200","三重區"
"241003","091-VK","2017/07/18 15:49:48","新北市三重區福德南路65巷2號","121.50261","25.060395","6500200","三重區"
"241019","156-TC","2017/07/18 15:49:40","新北市三重區新北大道一段250號","121.479886666667","25.0612516666667","6500200","三重區"
"241005","262-UM","2017/07/18 15:49:38","新北市三重區福德南路53號","121.503283333333","25.0613733333333","6500200","三重區"
"241022","267-UM","2017/07/18 15:49:39","新北市三重區重新路四段121號","121.484783333333","25.0524716666667","6500200","三重區"
"241018","268-UM","2017/07/18 15:49:43","新北市三重區成功路97號","121.487975","25.0516333333333","6500200","三重區"
"241013","270-UM","2017/07/18 15:49:51","新北市三重區六張街15號","121.495386666667","25.0706716666667","6500200","三重區"
"241007","398-BY","2017/07/18 15:49:49","新北市三重區重新路四段121號","121.485225","25.0520366666667","6500200","三重區"
"241020","413-TH","2017/07/18 15:49:46","新北市三重區忠孝路二段60號","121.48472","25.0703216666667","6500200","三重區"
"241004","475-VK","2017/07/18 15:49:52","新北市三重區重新路四段121號","121.48475","25.0524383333333","6500200","三重區"
"241014","543-UM","2017/07/18 15:49:42","新北市三重區重新路四段121號","121.485185","25.0518633333333","6500200","三重區"
"241023","545-UM","2017/07/18 15:49:37","新北市三重區新北大道一段250號","121.479881666667","25.06131","6500200","三重區"
"241033","887-TS","2017/07/18 15:49:33","新北市三重區五谷王北街58巷41號","121.474136666667","25.052055","6500200","三重區"
"241012","941-UM","2017/07/18 15:49:42","新北市三重區自強路一段61號","121.497768333333","25.0672016666667","6500200","三重區"
"241029","942-UM","2017/07/18 15:49:37","新北市三重區大同南路242號","121.496888333333","25.0559216666667","6500200","三重區"
"235023","AAC-215","2017/07/18 15:49:37","新北市中和區員山路57號","121.480823333333","24.9934383333333","6500300","中和區"
"247001","402-BY","2017/07/18 15:49:46","新北市五股區凌雲路三段26-5號","121.433493333333","25.1045283333333","6501400","蘆洲區"
"247007","339-TH","2017/07/18 15:24:03","新北市五股區中興路三段2巷10號","121.448803333333","25.0816016666667","6501400","蘆洲區"
"247014","057-VK","2017/07/18 14:59:26","新北市五股區中興路三段2巷10號","121.448855","25.08184","6501400","蘆洲區"
"224007","273-VK","2017/07/18 15:49:49","新北市瑞芳區大寮路356-1號","121.784408333333","25.103355","6501200","瑞芳區"
"227009","642-TC","2017/07/18 15:49:54","新北市雙溪區雙溪里中正路50號","121.865303333333","25.03972","6502500","雙溪區"
"227003","400-TW","2017/07/18 15:49:51","新北市雙溪區平林里外平林44號","121.852915","25.0363083333333","6502500","雙溪區"
"252005","AAC-283","2017/07/18 15:49:37","新北市三芝區埔坪里埔頭坑41號","121.504531666667","25.264435","6502100","三芝區"
"236065","105-UM","2017/07/18 15:49:48","新北市土城區中山路34號","121.4248","24.9638","6501300","土城區"
"236075","166-UM","2017/07/18 15:49:47","新北市土城區福安街30-1號","121.419436666667","24.9648283333333","6501300","土城區"
"236025","269-VK","2017/07/18 15:49:36","新北市土城區中央路一段211巷6弄5號","121.446326666667","24.98615","6501300","土城區"
"236017","401-BY","2017/07/18 15:49:37","新北市土城區延吉街111巷12弄26號","121.471498333333","24.985275","6501300","土城區"
"236057","912-UM","2017/07/18 15:49:36","新北市土城區中央路一段279號","121.444546666667","24.9847066666667","6501300","土城區"
"236045","913-UM","2017/07/18 15:49:40","新北市土城區清水路223號","121.460818333333","24.98237","6501300","土城區"
"236054","AAC-216","2017/07/18 15:49:48","新北市土城區中華路一段173號","121.443516666667","24.9859633333333","6501300","土城區"
"242042","497-BY","2017/07/18 15:26:24","新北市新莊區新泰路357巷3弄57號","121.442235","25.0394516666667","6500500","新莊區"
"221002","753-BX","2017/07/18 15:45:48","新北市汐止區汐萬路一段256巷1號","121.651951666667","25.0747916666667","6501100","汐止區"
"220001","285-VK","2017/07/18 15:49:35","新北市八里區中山路三段409號","121.368326666667","25.1347516666667","6500100","板橋區"
"220032","296-UM","2017/07/18 15:49:42","新北市八里區中山路三段409號","121.368756666667","25.1340066666667","6500100","板橋區"
"220047","317-R6","2017/07/18 15:49:35","新北市樹林區中山路三段210-2號","121.381513333333","24.9654883333333","6500100","板橋區"
"220014","829-TW","2017/07/18 15:49:54","新北市八里區荖阡坑路4-24號","121.39803","25.1429983333333","6500100","板橋區"
