"lineid","car","time","location","longitude","latitude","cityid","cityname"
"234040","862-TW","2017/07/18 15:25:18","新北市永和區福和路1號","121.526548333333","25.0095933333333","6500400","永和區"
"231030","047-UY","2017/07/18 15:59:53","新北市新店區安和路三段33-1號","121.516838333333","24.9800133333333","6500600","新店區"
"231018","107-UY","2017/07/18 15:59:51","新北市新店區中正路663巷7弄13號","121.532826666667","24.99003","6500600","新店區"
"231012","108-UY","2017/07/18 15:59:41","新北市新店區安和路三段1-1號","121.517141666667","24.97954","6500600","新店區"
"231069","189-VK","2017/07/18 12:02:58","新北市新店區安華路28-1號","121.519565","24.961065","6500600","新店區"
"231034","268-BY","2017/07/18 15:59:54","新北市新店區吉祥街5巷1號","121.497288333333","24.9477566666667","6500600","新店區"
"231046","278-BY","2017/07/18 14:06:15","新北市新店區安華路28-1號","121.519768333333","24.9613166666667","6500600","新店區"
"231015","AAD-862","2017/07/18 15:59:35","新北市新店區建安街33巷34號","121.538608333333","24.9748883333333","6500600","新店區"
"231038","4715-K9","2017/07/18 15:59:32","新北市新店區安康路二段228巷2弄9號","121.509688333333","24.9596483333333","6500600","新店區"
"231035","515-UM","2017/07/18 15:59:46","新北市新店區安民街219號","121.516816666667","24.972165","6500600","新店區"
"231013","719-UM","2017/07/18 15:59:42","新北市新店區華城路2-1號","121.53034","24.9605366666667","6500600","新店區"
"231037","AKT-0513","2017/07/18 15:59:38","新北市新店區吉安街9號","121.516616666667","24.9655816666667","6500600","新店區"
"241011","013-R5","2017/07/18 15:59:49","新北市三重區雙園街1巷4號","121.49715","25.0682683333333","6500200","三重區"
"241028","022-UY","2017/07/18 15:59:45","新北市三重區大同南路117巷3-1號","121.495716666667","25.0583216666667","6500200","三重區"
"241015","062-VK","2017/07/18 15:59:39","新北市三重區重新路四段121號","121.485068333333","25.0519366666667","6500200","三重區"
"241017","063-VK","2017/07/18 15:59:49","新北市三重區大仁街48巷4-1號","121.491318333333","25.0645283333333","6500200","三重區"
"241024","065-VK","2017/07/18 15:59:52","新北市三重區力行路一段38巷27號","121.485518333333","25.0669983333333","6500200","三重區"
"241026","066-VK","2017/07/18 15:59:49","新北市三重區中正南路196號","121.493861666667","25.056015","6500200","三重區"
"241003","091-VK","2017/07/18 15:59:48","新北市三重區自強路五段114號","121.496896666667","25.0837116666667","6500200","三重區"
"241019","156-TC","2017/07/18 15:59:40","新北市三重區重陽路三段97號","121.490266666667","25.068125","6500200","三重區"
"241005","262-UM","2017/07/18 15:59:38","新北市三重區溪尾街300-2號","121.487465","25.0836983333333","6500200","三重區"
"241016","266-UM","2017/07/18 15:59:44","新北市三重區重新路四段121號","121.484841666667","25.0518733333333","6500200","三重區"
"241022","267-UM","2017/07/18 15:59:39","新北市三重區中正北路176巷12號","121.482811666667","25.0660566666667","6500200","三重區"
"241018","268-UM","2017/07/18 15:59:44","新北市三重區中正北路35號","121.491498333333","25.0626266666667","6500200","三重區"
"241013","270-UM","2017/07/18 15:59:40","新北市三重區三和路三段18號","121.496943333333","25.0702733333333","6500200","三重區"
"241025","271-UM","2017/07/18 15:59:54","新北市三重區三民街148號","121.48269","25.0652766666667","6500200","三重區"
"241007","398-BY","2017/07/18 15:59:49","新北市三重區忠孝路二段102號","121.48343","25.0692666666667","6500200","三重區"
"241008","412-TH","2017/07/18 15:59:49","新北市三重區新北大道一段250號","121.479973333333","25.061025","6500200","三重區"
"241020","413-TH","2017/07/18 15:59:46","新北市三重區車路頭街4巷21號","121.483191666667","25.069985","6500200","三重區"
"241004","475-VK","2017/07/18 15:59:52","新北市三重區河邊北街357號","121.502441666667","25.0759766666667","6500200","三重區"
"241014","543-UM","2017/07/18 15:59:42","新北市三重區重新路四段121號","121.485205","25.0518683333333","6500200","三重區"
"241023","545-UM","2017/07/18 15:59:37","新北市三重區中正北路174號","121.483946666667","25.0666116666667","6500200","三重區"
"241006","AAD-863","2017/07/18 15:59:27","新北市三重區重安街1號","121.489675","25.058485","6500200","三重區"
"241033","887-TS","2017/07/18 15:59:53","新北市三重區中興南街80巷5號","121.471555","25.04372","6500200","三重區"
"241012","941-UM","2017/07/18 15:59:42","新北市三重區正義北路140號","121.496721666667","25.065935","6500200","三重區"
"241029","942-UM","2017/07/18 15:59:39","新北市三重區大同南路212巷11號","121.497203333333","25.0565583333333","6500200","三重區"
"235064","005-UY","2017/07/18 15:59:35","新北市中和區員山路36巷16-3號","121.485115","24.9913166666667","6500300","中和區"
"247001","402-BY","2017/07/18 15:59:46","新北市五股區新五路二段373號","121.444138333333","25.08869","6501400","蘆洲區"
"247007","339-TH","2017/07/18 15:24:03","新北市五股區中興路三段2巷10號","121.448803333333","25.0816016666667","6501400","蘆洲區"
"247014","057-VK","2017/07/18 14:59:26","新北市五股區中興路三段2巷10號","121.448855","25.08184","6501400","蘆洲區"
"224007","273-VK","2017/07/18 15:59:49","新北市瑞芳區粗坑口路48號","121.762265","25.09868","6501200","瑞芳區"
"224005","271-BY","2017/07/18 15:59:36","新北市瑞芳區傑魚坑路356號","121.790706666667","25.110125","6501200","瑞芳區"
"227009","642-TC","2017/07/18 15:59:49","新北市雙溪區三港里雙澳路38號","121.871973333333","25.0510083333333","6502500","雙溪區"
"227003","400-TW","2017/07/18 15:59:51","新北市雙溪區平林里外平林71號","121.8425","25.0350083333333","6502500","雙溪區"
"252005","AAC-283","2017/07/18 15:54:34","新北市三芝區埔坪里埔頭坑41號","121.50453","25.2644316666667","6502100","三芝區"
"236065","105-UM","2017/07/18 15:59:48","新北市土城區福安街102巷5弄15號","121.416676666667","24.9648966666667","6501300","土城區"
"236017","401-BY","2017/07/18 15:59:45","新北市土城區延吉街11號","121.47219","24.9889233333333","6501300","土城區"
"236057","912-UM","2017/07/18 15:59:36","新北市土城區中央路二段231號","121.440278333333","24.9724733333333","6501300","土城區"
"242042","497-BY","2017/07/18 15:26:24","新北市新莊區新泰路357巷3弄57號","121.442235","25.0394516666667","6500500","新莊區"
"221002","753-BX","2017/07/18 15:45:48","新北市汐止區汐萬路一段256巷1號","121.651951666667","25.0747916666667","6501100","汐止區"
"220001","285-VK","2017/07/18 15:59:35","新北市八里區商港路6號","121.397236666667","25.1442533333333","6500100","板橋區"
"220047","317-R6","2017/07/18 15:59:35","新北市樹林區中華路1-1號","121.425088333333","24.9841366666667","6500100","板橋區"
