"lineid","car","time","location","longitude","latitude","cityid","cityname"
"234040","862-TW","2017/07/18 15:25:18","新北市永和區福和路1號","121.526548333333","25.0095933333333","6500400","永和區"
"249005","172-UM","2017/07/18 17:19:33","新北市八里區荖阡坑路50-1號","121.411793333333","25.1222333333333","6502300","八里區"
"249004","303-UY","2017/07/18 17:19:33","新北市八里區文化街131號","121.421976666667","25.1599966666667","6502300","八里區"
"249002","305-UY","2017/07/18 17:19:28","新北市八里區龍米路二段117巷39-1號","121.443265","25.14192","6502300","八里區"
"249003","593-UM","2017/07/18 17:19:43","新北市八里區商港路80號","121.395548333333","25.1464016666667","6502300","八里區"
"249001","759-BX","2017/07/18 17:16:31","新北市八里區中華路二段165巷3號","121.407645","25.1509016666667","6502300","八里區"
"244007","080-UY","2017/07/18 17:19:39","新北市林口區中湖26-6號","121.377465","25.0949833333333","6501700","林口區"
"244009","410-SL","2017/07/18 17:19:33","新北市林口區中湖50-1號","121.383735","25.0910533333333","6501700","林口區"
"244023","483-VK","2017/07/18 17:19:45","新北市林口區仁愛路一段667巷22號","121.387096666667","25.0762733333333","6501700","林口區"
"244025","656-BX","2017/07/18 17:19:29","新北市林口區粉寮路1號","121.397793333333","25.0802183333333","6501700","林口區"
"244021","657-BX","2017/07/18 17:19:50","新北市林口區粉寮路二段458號","121.404223333333","25.0989033333333","6501700","林口區"
"244011","701-TV","2017/07/18 17:19:45","新北市林口區粉寮路一段135號","121.398965","25.0810633333333","6501700","林口區"
"231069","189-VK","2017/07/18 16:47:59","新北市新店區安華路28-1號","121.520088333333","24.9607983333333","6500600","新店區"
"231046","278-BY","2017/07/18 17:19:40","新北市新店區直潭路92號","121.53093","24.93761","6500600","新店區"
"241011","013-R5","2017/07/18 17:19:41","新北市三重區龍濱路120-6號","121.501825","25.0713716666667","6500200","三重區"
"241028","022-UY","2017/07/18 17:19:45","新北市三重區仁化街69號","121.494016666667","25.05872","6500200","三重區"
"241009","060-VK","2017/07/18 17:19:45","新北市三重區仁愛街697號","121.483043333333","25.08079","6500200","三重區"
"241015","062-VK","2017/07/18 17:19:39","新北市三重區福德北路89號","121.501846666667","25.0662383333333","6500200","三重區"
"241017","063-VK","2017/07/18 17:19:49","新北市三重區大同北路44巷29號","121.494451666667","25.0628783333333","6500200","三重區"
"241024","065-VK","2017/07/18 17:19:32","新北市三重區中正北路193巷21弄17號","121.477558333333","25.0706716666667","6500200","三重區"
"241026","066-VK","2017/07/18 17:19:49","新北市三重區福裕街35-1號","121.499185","25.06159","6500200","三重區"
"241002","090-VK","2017/07/18 17:19:43","新北市三重區自強路五段5號","121.492313333333","25.080275","6500200","三重區"
"241003","091-VK","2017/07/18 17:19:48","新北市三重區富福街56號","121.491811666667","25.084435","6500200","三重區"
"241019","156-TC","2017/07/18 17:19:40","新北市三重區三張街184號","121.485511666667","25.069195","6500200","三重區"
"241005","262-UM","2017/07/18 17:19:37","新北市三重區永安北路二段13巷23號","121.483078333333","25.081655","6500200","三重區"
"241016","266-UM","2017/07/18 17:19:44","新北市三重區重新路三段82號","121.493083333333","25.060975","6500200","三重區"
"241022","267-UM","2017/07/18 17:19:38","新北市三重區重陽路二段32號","121.486825","25.0630266666667","6500200","三重區"
"241018","268-UM","2017/07/18 17:19:43","新北市三重區安慶街146號","121.49433","25.0686983333333","6500200","三重區"
"241032","269-UM","2017/07/18 17:19:35","新北市三重區中華路2巷12號","121.482655","25.0603683333333","6500200","三重區"
"241013","270-UM","2017/07/18 17:19:40","新北市三重區三和路三段107巷9號","121.49473","25.0728816666667","6500200","三重區"
"241025","271-UM","2017/07/18 17:19:33","新北市三重區中正北路413號","121.47075","25.07211","6500200","三重區"
"241007","398-BY","2017/07/18 17:19:30","新北市三重區三和路四段143-1號","121.484466666667","25.078335","6500200","三重區"
"241008","412-TH","2017/07/18 17:19:49","新北市三重區下竹圍街14號","121.481","25.07579","6500200","三重區"
"241020","413-TH","2017/07/18 17:19:45","新北市三重區自強路三段7巷64號","121.488873333333","25.0724683333333","6500200","三重區"
"241004","475-VK","2017/07/18 17:19:32","新北市三重區仁愛街425巷64號","121.49168","25.0825433333333","6500200","三重區"
"241030","480-VK","2017/07/18 17:19:43","新北市三重區成功路73巷36號","121.489721666667","25.0524166666667","6500200","三重區"
"241014","543-UM","2017/07/18 17:19:42","新北市三重區三和路二段83號","121.500058333333","25.0683733333333","6500200","三重區"
"241023","545-UM","2017/07/18 17:19:47","新北市三重區三民街148號","121.482516666667","25.0653316666667","6500200","三重區"
"241001","547-UM","2017/07/18 17:19:35","新北市三重區碧華街215號","121.488775","25.082705","6500200","三重區"
"241006","AAD-863","2017/07/18 17:19:35","新北市三重區車路頭街135-1號","121.484335","25.0759916666667","6500200","三重區"
"241033","887-TS","2017/07/18 17:19:33","新北市三重區中興北街193巷2號","121.469135","25.05693","6500200","三重區"
"241012","941-UM","2017/07/18 17:19:42","新北市三重區仁昌街112號","121.500193333333","25.0752166666667","6500200","三重區"
"235064","005-UY","2017/07/18 17:19:35","新北市中和區員山路36巷16-3號","121.484998333333","24.9912566666667","6500300","中和區"
"235067","255-BX","2017/07/18 16:38:25","新北市中和區員山路36巷13號","121.484398333333","24.991195","6500300","中和區"
"247020","893-R6","2017/07/18 17:19:41","新北市蘆洲區民族路426號","121.47378","25.09191","6501400","蘆洲區"
"247018","500-BY","2017/07/18 17:19:30","新北市蘆洲區民權路75號","121.47346","25.0885016666667","6501400","蘆洲區"
"247006","341-TH","2017/07/18 17:19:45","新北市蘆洲區長安街83號","121.462283333333","25.0801233333333","6501400","蘆洲區"
"247008","339-TH","2017/07/18 17:19:38","新北市蘆洲區永安北路一段72巷34號","121.476435","25.0770083333333","6501400","蘆洲區"
"247024","337-TH","2017/07/18 17:19:39","新北市蘆洲區長榮路518號","121.459598333333","25.0901283333333","6501400","蘆洲區"
"247002","336-TH","2017/07/18 17:19:44","新北市蘆洲區永樂街38巷45弄19號","121.457406666667","25.0900916666667","6501400","蘆洲區"
"247014","057-VK","2017/07/18 17:19:32","新北市蘆洲區中正路94號","121.470251666667","25.0841316666667","6501400","蘆洲區"
"247004","056-VK","2017/07/18 17:19:37","新北市蘆洲區中原路5巷2號","121.461231666667","25.083435","6501400","蘆洲區"
"247010","053-VK","2017/07/18 17:19:48","新北市蘆洲區三民路26巷29號","121.476793333333","25.0828666666667","6501400","蘆洲區"
"247012","007-UY","2017/07/18 17:19:44","新北市蘆洲區民族路57號","121.478805","25.0856983333333","6501400","蘆洲區"
"247022","002-UY","2017/07/18 17:19:44","新北市蘆洲區民族路498號","121.469706666667","25.09045","6501400","蘆洲區"
"247016","001-UY","2017/07/18 17:19:38","新北市蘆洲區光華路22巷50號","121.46806","25.0850916666667","6501400","蘆洲區"
"228001","212-TW","2017/07/18 17:19:41","新北市貢寮區仁理村尖山腳街20號","121.924183333333","25.0478566666667","6502600","貢寮區"
"228002","663-BX","2017/07/18 17:19:48","新北市貢寮區雙玉里田寮洋街38-1號","121.926826666667","25.014465","6502600","貢寮區"
"228003","828-UM","2017/07/18 17:19:46","新北市貢寮區福隆里興隆街21-1號","121.943551666667","25.01659","6502600","貢寮區"
"224010","AGQ-8101","2017/07/18 08:50:19","新北市瑞芳區逢甲路112號","121.809345","25.1093016666667","6501200","瑞芳區"
"224006","676-BX","2017/07/18 17:19:41","新北市瑞芳區大寮路27號","121.78249","25.0986833333333","6501200","瑞芳區"
"224009","285-BY","2017/07/18 17:19:42","新北市瑞芳區汽車路123號","121.840036666667","25.1099616666667","6501200","瑞芳區"
"224008","275-VK","2017/07/18 17:19:46","新北市瑞芳區九芎橋路14號","121.832185","25.091345","6501200","瑞芳區"
"224005","271-BY","2017/07/18 17:19:16","","121.901038333333","25.1203466666667","6501200","瑞芳區"
"227009","642-TC","2017/07/18 17:19:34","新北市雙溪區三貂里十三層33-1號","121.85365","25.07988","6502500","雙溪區"
"227003","400-TW","2017/07/18 17:19:31","新北市雙溪區上林里內平林90號","121.827551666667","25.0274383333333","6502500","雙溪區"
"251004","009-UM","2017/07/18 17:19:37","新北市淡水區中正東路二段88巷15號","121.458988333333","25.15048","6501000","淡水區"
"251014","180-VK","2017/07/18 17:19:34","新北市淡水區公埔子45號","121.463988333333","25.2301616666667","6501000","淡水區"
"251008","181-VK","2017/07/18 17:19:29","新北市淡水區大同路263號","121.466701666667","25.142165","6501000","淡水區"
"251010","413-VK","2017/07/18 17:19:37","新北市淡水區中正路二段18號","121.420038333333","25.181305","6501000","淡水區"
"251012","441-VK","2017/07/18 17:19:41","新北市淡水區中山北路一段156號","121.444153333333","25.1779116666667","6501000","淡水區"
"251016","442-VK","2017/07/18 17:19:33","新北市淡水區鄒厝崙13號","121.462126666667","25.1905466666667","6501000","淡水區"
"251005","443-VK","2017/07/18 17:19:33","新北市淡水區鄧公路19-1號","121.450266666667","25.169945","6501000","淡水區"
"251006","561-UM","2017/07/18 17:19:31","新北市淡水區新民街180號","121.436586666667","25.1792033333333","6501000","淡水區"
"251009","575-R6","2017/07/18 17:19:44","新北市淡水區三民街21號","121.439035","25.1718933333333","6501000","淡水區"
"251011","650-BX","2017/07/18 17:19:46","新北市淡水區坪頂路128號","121.465246666667","25.1612816666667","6501000","淡水區"
"251002","672-BX","2017/07/18 17:19:36","新北市淡水區中正路二段31號","121.419371666667","25.1815716666667","6501000","淡水區"
"251003","766-UM","2017/07/18 17:19:37","新北市淡水區中山路151號","121.440603333333","25.1725466666667","6501000","淡水區"
"252002","178-VK","2017/07/18 17:19:38","新北市三芝區忠孝街1-14號","121.505358333333","25.253955","6502100","三芝區"
"252001","702-TV","2017/07/18 17:19:40","新北市三芝區長安街119號","121.498033333333","25.2596633333333","6502100","三芝區"
"252005","AAC-283","2017/07/18 15:54:34","新北市三芝區埔坪里埔頭坑41號","121.50453","25.2644316666667","6502100","三芝區"
"242021","AAC-296","2017/07/18 17:18:34","新北市新莊區中港一街104號","121.448943333333","25.045295","6500500","新莊區"
"242029","986-R7","2017/07/18 17:19:33","新北市新莊區新泰路502巷1號","121.442563333333","25.0470116666667","6500500","新莊區"
"242046","751-BX","2017/07/18 17:19:37","新北市新莊區新樹路67巷32號","121.440283333333","25.030295","6500500","新莊區"
"242025","615-BX","2017/07/18 17:19:41","新北市新莊區中港一街142號","121.44668","25.04495","6500500","新莊區"
"242023","613-BX","2017/07/18 17:19:33","新北市新莊區新泰路502巷6號","121.442761666667","25.046375","6500500","新莊區"
"242027","612-BX","2017/07/18 17:19:38","新北市新莊區中平路82巷36-2號","121.446575","25.0449133333333","6500500","新莊區"
"242037","566-BX","2017/07/18 17:19:42","新北市新莊區新樹路40號","121.43766","25.028085","6500500","新莊區"
"242042","497-BY","2017/07/18 17:19:42","新北市新莊區新樹路40號","121.437858333333","25.0283933333333","6500500","新莊區"
"242005","442-UM","2017/07/18 17:19:44","新北市新莊區新泰路502巷18號","121.443016666667","25.04649","6500500","新莊區"
"242017","441-UM","2017/07/18 17:19:41","新北市新莊區龍安路253號","121.419563333333","25.02008","6500500","新莊區"
"242051","440-UM","2017/07/18 17:19:44","新北市新莊區瓊林路190-2號","121.439453333333","25.020875","6500500","新莊區"
"242032","415-TV","2017/07/18 17:19:32","新北市新莊區新泰路462號","121.443228333333","25.0447383333333","6500500","新莊區"
"242002","413-TV","2017/07/18 17:19:41","新北市新莊區瓊林路50號","121.446253333333","25.0288183333333","6500500","新莊區"
"242039","400-BY","2017/07/18 17:19:44","新北市新莊區新樹路215號","121.435565","25.0233833333333","6500500","新莊區"
"242061","362-BY","2017/07/18 17:19:50","新北市新莊區中正路384號","121.441963333333","25.0345883333333","6500500","新莊區"
"242058","353-BY","2017/07/18 17:19:44","新北市新莊區三和路12-21號","121.441798333333","25.0385366666667","6500500","新莊區"
"242011","132-UY","2017/07/18 17:19:37","新北市新莊區中和街108巷1號","121.447643333333","25.0468916666667","6500500","新莊區"
"242034","133-UY","2017/07/18 17:19:32","新北市新莊區中正路473-1號","121.441818333333","25.03317","6500500","新莊區"
"242019","135-UY","2017/07/18 17:19:40","新北市新莊區中港路314號","121.452415","25.0453083333333","6500500","新莊區"
"242044","172-VK","2017/07/18 17:19:46","新北市新莊區建福路73號","121.427036666667","25.0268183333333","6500500","新莊區"
"242007","173-VK","2017/07/18 00:31:40","新北市新莊區三和路12-21號","121.442063333333","25.0385583333333","6500500","新莊區"
"242056","176-VK","2017/07/18 17:19:34","新北市新莊區新莊路763巷9號","121.442481666667","25.0324683333333","6500500","新莊區"
"242013","346-TH","2017/07/18 17:19:46","新北市新莊區三和路12-15號","121.442081666667","25.0372983333333","6500500","新莊區"
"242017","348-TH","2017/07/18 17:19:33","新北市新莊區新泰路502巷16號","121.442906666667","25.0465483333333","6500500","新莊區"
"242054","349-TH","2017/07/18 17:19:33","新北市新莊區新莊路771巷10號","121.441961666667","25.03185","6500500","新莊區"
"242015","350-TH","2017/07/18 17:19:41","新北市新莊區建中街141號","121.444866666667","25.036465","6500500","新莊區"
"242009","351-TH","2017/07/18 17:19:35","新北市新莊區中平路441號","121.443861666667","25.05563","6500500","新莊區"
"238015","755-BX","2017/07/18 17:19:35","新北市樹林區中華路190-6號","121.409996666667","24.9805033333333","6500700","樹林區"
"238023","601-UM","2017/07/18 17:19:40","新北市樹林區保安街一段342號","121.417946666667","24.99809","6500700","樹林區"
"238006","599-UM","2017/07/18 17:19:29","新北市樹林區八德街251巷9號","121.42224","24.9785133333333","6500700","樹林區"
"238018","571-TV","2017/07/18 17:19:48","新北市樹林區中華路1-6號","121.425675","24.984475","6500700","樹林區"
"238024","5061-A6","2017/07/18 17:19:41","新北市樹林區四德街7巷25號","121.426041666667","24.991715","6500700","樹林區"
"238022","312-TH","2017/07/18 17:19:43","新北市樹林區忠孝街31號","121.423756666667","24.982205","6500700","樹林區"
"238021","311-TH","2017/07/18 01:08:16","新北市樹林區中山路三段204號","121.386745","24.968205","6500700","樹林區"
"238025","303-VK","2017/07/18 17:19:41","新北市樹林區中山路一段354號","121.419183333333","24.9858483333333","6500700","樹林區"
"238017","283-BY","2017/07/18 17:19:31","新北市樹林區東興街3號","121.40985","24.98047","6500700","樹林區"
"238014","282-BY","2017/07/18 17:19:39","新北市樹林區大安路592號","121.411505","24.983045","6500700","樹林區"
"238020","268-VK","2017/07/18 17:19:39","新北市樹林區千歲街61巷38號","121.425613333333","24.9985183333333","6500700","樹林區"
"238026","172-UY","2017/07/18 17:19:49","新北市樹林區東順街100號","121.406128333333","24.9748666666667","6500700","樹林區"
"238016","169-UY","2017/07/18 17:19:35","新北市樹林區中華路190-6號","121.410155","24.980505","6500700","樹林區"
"239007","AAC-297","2017/07/18 17:19:36","新北市鶯歌區光復街2-1號","121.351811666667","24.9549616666667","6500800","鶯歌區"
"239006","891-R6","2017/07/18 17:19:48","新北市鶯歌區德昌二街101號","121.333178333333","24.9572583333333","6500800","鶯歌區"
"239008","527-UM","2017/07/18 17:19:37","新北市鶯歌區西湖街279巷23號","121.34096","24.9678016666667","6500800","鶯歌區"
"239005","526-UM","2017/07/18 17:19:37","新北市鶯歌區福德三街22號","121.329453333333","24.9673733333333","6500800","鶯歌區"
"239001","417-VK","2017/07/18 17:19:41","新北市鶯歌區黃厝街33號","121.342956666667","24.9454933333333","6500800","鶯歌區"
"239003","360-BY","2017/07/18 17:19:18","新北市鶯歌區德昌街78號","121.332798333333","24.959995","6500800","鶯歌區"
"239002","359-BY","2017/07/18 17:19:30","新北市鶯歌區南雅路394號","121.348116666667","24.9540533333333","6500800","鶯歌區"
"239004","193-VK","2017/07/18 17:19:32","新北市鶯歌區文化路501-13號","121.353531666667","24.9487333333333","6500800","鶯歌區"
"221002","753-BX","2017/07/18 17:13:54","新北市汐止區汐萬路一段256巷1號","121.652005","25.0747666666667","6501100","汐止區"
