"lineid","car","time","location","longitude","latitude","cityid","cityname"
"234013","149-BY","2017/07/18 18:18:55","新北市永和區福和路1號","121.526448333333","25.0096366666667","6500400","永和區"
"234007","207-UY","2017/07/18 18:19:00","新北市永和區保生路55-6號","121.50473","25.01234","6500400","永和區"
"234081","298-R6","2017/07/18 18:18:55","新北市永和區福和路1號","121.526213333333","25.0096116666667","6500400","永和區"
"234038","336-UY","2017/07/18 18:19:05","新北市永和區福和路1號","121.526663333333","25.010095","6500400","永和區"
"234040","862-TW","2017/07/18 18:18:55","新北市永和區福和路1號","121.526515","25.0096116666667","6500400","永和區"
"234026","9371-KE","2017/07/18 18:19:04","新北市永和區豫溪街42巷3號","121.515543333333","25.0096","6500400","永和區"
"234011","9373-KE","2017/07/18 18:18:52","新北市永和區保福路二段158巷1號","121.509158333333","25.0150583333333","6500400","永和區"
"249005","172-UM","2017/07/18 18:18:53","新北市八里區荖阡坑路15號","121.401573333333","25.1400033333333","6502300","八里區"
"249004","303-UY","2017/07/18 18:18:53","新北市八里區龍米路二段232巷1弄2號","121.431498333333","25.1589666666667","6502300","八里區"
"249002","305-UY","2017/07/18 18:18:48","新北市八里區龍米路一段261號","121.449521666667","25.13346","6502300","八里區"
"249003","593-UM","2017/07/18 18:19:02","新北市八里區松子腳1-1號","121.403363333333","25.145265","6502300","八里區"
"249001","759-BX","2017/07/18 18:18:51","新北市八里區龍米路一段222號","121.451728333333","25.12848","6502300","八里區"
"248016","026-BX","2017/07/18 18:18:50","新北市五股區西雲路293號","121.449393333333","25.0992066666667","6501500","五股區"
"248008","095-VK","2017/07/18 18:19:07","新北市五股區更洲路32巷8弄14號","121.459241666667","25.0796333333333","6501500","五股區"
"248020","225-UY","2017/07/18 18:18:58","新北市五股區孝義路47巷22號","121.45168","25.1090833333333","6501500","五股區"
"248012","247-BX","2017/07/17 21:21:30","新北市五股區中興路二段37巷24號","121.460793333333","25.0750116666667","6501500","五股區"
"248014","261-SL","2017/07/18 18:19:00","新北市五股區自強路19巷11號","121.434603333333","25.0737016666667","6501500","五股區"
"248002","678-BX","2017/07/18 18:19:01","新北市五股區西雲路66號","121.443611666667","25.09136","6501500","五股區"
"248006","682-TV","2017/07/18 18:19:01","新北市五股區中興路一段158號","121.464376666667","25.0739466666667","6501500","五股區"
"234067","AAC-212","2017/07/18 18:18:53","新北市永和區福和路1號","121.5263","25.0096333333333","6500400","永和區"
"232011","375-UM","2017/07/18 18:16:42","新北市坪林區坪雙路一段43號","121.711751666667","24.942425","6502000","坪林區"
"244013","069-UM","2017/07/18 18:18:56","新北市林口區中山路160巷7號","121.39115","25.07945","6501700","林口區"
"244007","080-UY","2017/07/18 18:18:59","新北市林口區中山路143號","121.387485","25.0792166666667","6501700","林口區"
"244009","410-SL","2017/07/18 18:18:52","新北市林口區佳林路97號","121.385901666667","25.0804116666667","6501700","林口區"
"244023","483-VK","2017/07/18 18:19:04","新北市林口區仁愛路二段69號","121.385198333333","25.0758566666667","6501700","林口區"
"244017","485-VK","2017/07/18 18:19:04","新北市林口區八德路20巷10號","121.367726666667","25.0676116666667","6501700","林口區"
"244025","656-BX","2017/07/18 18:19:09","新北市林口區南勢四街48號","121.355243333333","25.0699583333333","6501700","林口區"
"244021","657-BX","2017/07/18 18:18:50","新北市林口區自強二街6號","121.397378333333","25.0784416666667","6501700","林口區"
"244011","701-TV","2017/07/18 18:19:05","新北市林口區中正路74巷5弄1號","121.394585","25.0778866666667","6501700","林口區"
"243013","AAD-798","2017/07/18 18:19:03","新北市泰山區南林路99巷1-1號","121.41549","25.0511","6501600","泰山區"
"222003","436-BY","2017/07/18 18:19:08","新北市深坑區文山路二段3號","121.622916666667","25.0003766666667","6501800","深坑區"
"222002","659-BX","2017/07/18 18:18:53","新北市深坑區文山路一段62巷33號","121.621428333333","25.0005116666667","6501800","深坑區"
"231041","002-UM","2017/07/18 18:18:48","新北市新店區安華路28-1號","121.519631666667","24.9608566666667","6500600","新店區"
"231056","0293-UT","2017/07/18 18:19:06","新北市新店區中央路151號","121.529351666667","24.9720516666667","6500600","新店區"
"231059","046-UY","2017/07/18 18:18:59","新北市新店區安華路28-1號","121.519556666667","24.9608016666667","6500600","新店區"
"231061","047-UY","2017/07/18 18:19:01","新北市新店區安華路28-1號","121.518886666667","24.9610316666667","6500600","新店區"
"231060","106-UY","2017/07/18 18:18:57","新北市新店區安華路28-1號","121.5196","24.9608216666667","6500600","新店區"
"231051","107-UY","2017/07/18 18:18:54","新北市新店區安華路28-1號","121.519178333333","24.9612883333333","6500600","新店區"
"231048","108-UY","2017/07/18 16:29:15","新北市新店區安華路28-1號","121.519593333333","24.9610633333333","6500600","新店區"
"231053","187-VK","2017/07/18 18:18:48","新北市新店區安康路一段355號","121.52004","24.9636566666667","6500600","新店區"
"231069","189-VK","2017/07/18 16:47:59","新北市新店區安華路28-1號","121.520088333333","24.9607983333333","6500600","新店區"
"231057","256-BX","2017/07/18 18:18:58","新北市新店區安華路28-1號","121.519693333333","24.9611183333333","6500600","新店區"
"231046","278-BY","2017/07/18 18:18:59","新北市新店區直潭七街60號","121.532233333333","24.9399433333333","6500600","新店區"
"231058","3712-VJ","2017/07/18 18:19:03","新北市新店區安康路一段85號","121.529461666667","24.9613733333333","6500600","新店區"
"231055","3713-VJ","2017/07/18 18:19:01","新北市新店區安康路一段89號","121.529263333333","24.9614483333333","6500600","新店區"
"231067","4772-VM","2017/07/18 18:18:53","新北市新店區安華路28-1號","121.519281666667","24.9606633333333","6500600","新店區"
"231065","512-UM","2017/07/18 18:19:01","新北市新店區安華路28-1號","121.519328333333","24.9611666666667","6500600","新店區"
"231054","513-UM","2017/07/18 18:19:02","新北市新店區安華路28-1號","121.519621666667","24.9610966666667","6500600","新店區"
"231045","617-UM","2017/07/18 18:19:01","新北市新店區安華路28-1號","121.519381666667","24.96109","6500600","新店區"
"231040","619-UM","2017/07/18 18:18:57","新北市新店區安華路28-1號","121.519448333333","24.9609316666667","6500600","新店區"
"231042","641-BX","2017/07/18 18:19:04","新北市新店區安華路1-1號","121.519515","24.9605066666667","6500600","新店區"
"231049","719-UM","2017/07/18 16:28:44","新北市新店區安華路28-1號","121.519358333333","24.9612216666667","6500600","新店區"
"231062","720-UM","2017/07/18 18:18:52","新北市新店區安康路一段359-27號","121.518893333333","24.96128","6500600","新店區"
"231043","899-TW","2017/07/18 15:46:52","新北市新店區安華路28-1號","121.519215","24.96093","6500600","新店區"
"235066","003-UY","2017/07/18 18:19:01","新北市中和區中山路二段120號","121.502751666667","25.0037366666667","6500300","中和區"
"235064","005-UY","2017/07/18 18:18:55","新北市中和區中正路166號","121.498426666667","24.99382","6500300","中和區"
"235063","006-UY","2017/07/18 18:18:49","新北市中和區員山路36巷16-3號","121.485073333333","24.99126","6500300","中和區"
"235056","096-UM","2017/07/18 18:18:53","新北市中和區新生街2號","121.483013333333","25.004745","6500300","中和區"
"235039","097-UM","2017/07/18 18:19:01","新北市中和區中正路254號","121.49553","24.9939116666667","6500300","中和區"
"235065","098-UM","2017/07/18 18:19:01","新北市中和區莊敬路49巷18號","121.501683333333","25.0061466666667","6500300","中和區"
"235040","150-BY","2017/07/18 18:19:02","新北市中和區中正路271號","121.495863333333","24.9938383333333","6500300","中和區"
"235058","151-BY","2017/07/18 18:18:53","新北市中和區圓通路367巷21-1號","121.492598333333","24.9864116666667","6500300","中和區"
"235038","185-VK","2017/07/18 18:18:59","新北市中和區大智街55巷1號","121.520821666667","24.99205","6500300","中和區"
"235067","255-BX","2017/07/18 18:18:57","新北市中和區和城路一段271巷1號","121.485418333333","24.9919416666667","6500300","中和區"
"235044","293-VK","2017/07/18 18:18:58","新北市中和區員山路36巷16-3號","121.48503","24.9914416666667","6500300","中和區"
"235072","301-VK","2017/07/18 18:19:00","新北市中和區中正路557號","121.487133333333","24.9943333333333","6500300","中和區"
"235043","352-BY","2017/07/18 18:19:02","新北市中和區中正路190-1號","121.49795","24.99386","6500300","中和區"
"235051","376-QA","2017/07/18 18:13:29","新北市中和區興南路二段142巷31弄79號","121.500098333333","24.9842183333333","6500300","中和區"
"235068","377-QA","2017/07/18 18:19:03","新北市中和區員山路36巷16-3號","121.48521","24.9911983333333","6500300","中和區"
"235061","378-QA","2017/07/18 18:19:05","新北市中和區國光街215巷34號","121.46726","25.00018","6500300","中和區"
"235050","4979-A6","2017/07/18 18:18:56","新北市中和區捷運路61巷9號","121.509075","24.9893966666667","6500300","中和區"
"235069","4980-A6","2017/07/18 18:19:09","新北市中和區連城路127巷1號","121.49637","24.9990283333333","6500300","中和區"
"235042","551-UM","2017/07/18 18:19:07","新北市中和區景平路155號","121.51359","24.9922483333333","6500300","中和區"
"235045","565-BX","2017/07/18 18:18:49","新北市中和區南山路279號","121.504081666667","24.9923266666667","6500300","中和區"
"235054","640-BX","2017/07/18 18:19:01","新北市中和區莒光路185號","121.47269","24.999075","6500300","中和區"
"235024","647-TV","2017/07/18 18:18:52","新北市中和區員山路36巷16-3號","121.485088333333","24.991355","6500300","中和區"
"235047","732-UM","2017/07/18 18:19:03","新北市中和區中正路171號","121.497886666667","24.9936283333333","6500300","中和區"
"235062","800-TS","2017/07/18 18:19:05","新北市中和區景平路999巷1號","121.49548","25.0060266666667","6500300","中和區"
"235052","805-TS","2017/07/18 18:19:07","新北市中和區南山路160號","121.504515","24.99187","6500300","中和區"
"235048","896-TW","2017/07/18 18:19:04","新北市中和區員山路36巷16-2號","121.48533","24.99149","6500300","中和區"
"235037","AAC-213","2017/07/18 18:18:47","新北市中和區景平路277號","121.507803333333","24.9930416666667","6500300","中和區"
"235059","AAC-215","2017/07/18 18:18:52","新北市中和區員山路36巷16-3號","121.485111666667","24.9912433333333","6500300","中和區"
"220068","013-TV","2017/07/18 18:19:05","新北市板橋區民生路二段15-1號","121.472721666667","25.01641","6500100","板橋區"
"247004","056-VK","2017/07/18 18:18:57","新北市八里區中華路三段62號","121.39429","25.1408566666667","6501400","蘆洲區"
"247012","007-UY","2017/07/18 18:19:04","新北市八里區商港路120號","121.392983333333","25.1499316666667","6501400","蘆洲區"
"226004","312-R5","2017/07/18 18:19:06","新北市平溪區薯榔里一坑路63號","121.713238333333","25.0223216666667","6502400","平溪區"
"228001","212-TW","2017/07/18 18:19:01","新北市貢寮區真理里新港街26巷55弄2-1號","121.92735","25.052825","6502600","貢寮區"
"228002","663-BX","2017/07/18 18:19:08","新北市貢寮區福連里馬崗街1號","121.995845","25.016135","6502600","貢寮區"
"228003","828-UM","2017/07/18 18:19:06","新北市貢寮區真理里美艷山街63號","121.921661666667","25.0715983333333","6502600","貢寮區"
"224006","676-BX","2017/07/18 18:19:00","新北市瑞芳區民權街3-2號","121.808118333333","25.1073866666667","6501200","瑞芳區"
"224002","639-TC","2017/07/18 18:18:49","新北市瑞芳區三爪子坑路149巷6號","121.81089","25.1064133333333","6501200","瑞芳區"
"224009","285-BY","2017/07/18 18:19:02","新北市瑞芳區金光路129號","121.85401","25.1068166666667","6501200","瑞芳區"
"224008","275-VK","2017/07/18 18:19:06","新北市瑞芳區逢甲路140-1號","121.808476666667","25.1091016666667","6501200","瑞芳區"
"224007","273-VK","2017/07/18 18:19:09","新北市瑞芳區大埔路44號","121.764278333333","25.101965","6501200","瑞芳區"
"224005","271-BY","2017/07/18 18:18:59","新北市瑞芳區建基路二段59號","121.806603333333","25.13366","6501200","瑞芳區"
"227009","642-TC","2017/07/18 18:19:00","新北市雙溪區牡丹里牡丹73號","121.85173","25.059325","6502500","雙溪區"
"227003","400-TW","2017/07/18 18:18:50","新北市雙溪區共和里中山路2號","121.863806666667","25.0337966666667","6502500","雙溪區"
"253006","032-BX","2017/07/18 18:18:59","新北市石門區老梅路99號","121.54689","25.289235","6502200","石門區"
"253005","741-TV","2017/07/18 18:19:05","新北市石門區中央路25-5號","121.56797","25.2932566666667","6502200","石門區"
"208003","665-BX","2017/07/18 18:18:58","新北市金山區中山路16號","121.64162","25.2178516666667","6502700","金山區"
"208001","761-BX","2017/07/18 18:18:59","新北市金山區自強路35號","121.640593333333","25.2160466666667","6502700","金山區"
"251004","009-UM","2017/07/18 18:18:57","新北市淡水區民族路31巷32號","121.462546666667","25.1366766666667","6501000","淡水區"
"251014","180-VK","2017/07/18 18:18:54","新北市淡水區南平17-2號","121.489885","25.2204516666667","6501000","淡水區"
"251008","181-VK","2017/07/18 18:18:49","新北市淡水區淡金路36-1號","121.45666","25.1608516666667","6501000","淡水區"
"251010","413-VK","2017/07/18 18:18:57","新北市淡水區淡海路199號","121.420398333333","25.18487","6501000","淡水區"
"251012","441-VK","2017/07/18 18:19:01","新北市淡水區北新路二段77-5號","121.48044","25.18552","6501000","淡水區"
"251016","442-VK","2017/07/18 18:18:53","新北市淡水區淡金路三段228巷24號","121.449781666667","25.2049216666667","6501000","淡水區"
"251005","443-VK","2017/07/18 18:18:55","新北市淡水區水源街一段122巷37號","121.447115","25.1704416666667","6501000","淡水區"
"251001","559-UM","2017/07/18 18:18:59","新北市淡水區自強路311號","121.462656666667","25.1318633333333","6501000","淡水區"
"251006","561-UM","2017/07/18 18:18:51","新北市淡水區新民街30號","121.439716666667","25.17606","6501000","淡水區"
"251011","650-BX","2017/07/18 18:19:06","新北市淡水區坪頂路55號","121.458498333333","25.16269","6501000","淡水區"
"251002","672-BX","2017/07/18 18:18:35","新北市淡水區中正東路一段50號","121.452653333333","25.1621066666667","6501000","淡水區"
"251003","766-UM","2017/07/18 18:18:57","新北市淡水區北新路180號","121.449503333333","25.1787066666667","6501000","淡水區"
"207003","550-UM","2017/07/18 18:18:59","新北市萬里區野柳里港東路23號","121.687368333333","25.20364","6502800","萬里區"
"207004","225-TW","2017/07/18 18:18:55","新北市萬里區中幅里中福路202-1號","121.67321","25.165155","6502800","萬里區"
"252002","178-VK","2017/07/18 18:18:58","新北市三芝區中山路二段41號","121.502973333333","25.2550933333333","6502100","三芝區"
"252003","249-BX","2017/07/18 18:19:02","新北市三芝區錫板里南勢崗8號","121.479216666667","25.2619266666667","6502100","三芝區"
"252001","702-TV","2017/07/18 18:19:00","新北市三芝區中興街二段2號","121.498365","25.2567466666667","6502100","三芝區"
"252005","AAC-283","2017/07/18 15:54:34","新北市三芝區埔坪里埔頭坑41號","121.50453","25.2644316666667","6502100","三芝區"
"208002","170-UY","2017/07/18 18:18:55","新北市金山區清泉里清水路60巷20號","121.634538333333","25.2321066666667","6502700","金山區"
"237004","078-UY","2017/07/18 18:18:52","新北市三峽區五寮36-3號","121.37132","24.8672083333333","6500900","三峽區"
"237007","153-BY","2017/07/18 18:19:03","新北市三峽區中正路三段70巷37號","121.355103333333","24.9047366666667","6500900","三峽區"
"237009","210-TH","2017/07/18 18:18:59","新北市三峽區大勇路36巷19號","121.365715","24.93691","6500900","三峽區"
"237013","252-BX","2017/07/18 18:19:01","新北市三峽區永安街37號","121.376558333333","24.9303933333333","6500900","三峽區"
"237012","275-BY","2017/07/18 18:18:59","新北市三峽區民生街1巷5-13號","121.378581666667","24.935705","6500900","三峽區"
"237008","302-VK","2017/07/18 18:19:03","新北市三峽區白雞64-2號","121.385483333333","24.91267","6500900","三峽區"
"237014","433-BY","2017/07/18 18:19:05","新北市三峽區復興路80巷13號","121.373543333333","24.9377533333333","6500900","三峽區"
"237006","5529-G3","2017/07/18 18:18:57","新北市三峽區溪東路238巷11號","121.408116666667","24.9311833333333","6500900","三峽區"
"237011","572-TV","2017/07/18 17:41:52","新北市三峽區中山路51-1號","121.367936666667","24.9345383333333","6500900","三峽區"
"237016","649-BX","2017/07/18 18:18:56","新北市三峽區紫微南路5號","121.425623333333","24.91994","6500900","三峽區"
"237010","706-TV","2017/07/18 18:18:59","新北市三峽區中山路222-1號","121.362783333333","24.9372616666667","6500900","三峽區"
"237005","AKY-6261","2017/07/18 18:18:56","新北市三峽區長福街13-1號","121.370398333333","24.933755","6500900","三峽區"
"236070","105-UM","2017/07/18 18:19:02","新北市土城區明德路一段128巷17號","121.463015","24.9788083333333","6501300","土城區"
"236043","107-UM","2017/07/18 18:19:07","新北市土城區裕生路21巷2弄31號","121.448156666667","24.9860766666667","6501300","土城區"
"236079","166-UM","2017/07/18 18:19:03","新北市土城區中央路三段279號","121.427128333333","24.96339","6501300","土城區"
"236031","253-BX","2017/07/18 18:19:09","新北市土城區順風路24號","121.440733333333","24.976665","6501300","土城區"
"236027","269-VK","2017/07/18 18:19:01","新北市土城區承天路65號","121.439421666667","24.9638683333333","6501300","土城區"
"236015","270-VK","2017/07/18 18:19:05","新北市土城區學府路一段4號","121.459745","24.9884633333333","6501300","土城區"
"236038","271-VK","2017/07/18 18:19:09","新北市土城區青雲路483巷10弄3號","121.45938","24.973465","6501300","土城區"
"236023","401-BY","2017/07/18 18:18:52","新北市土城區明德路一段323號","121.458976666667","24.977025","6501300","土城區"
"236059","912-UM","2017/07/18 18:18:57","新北市土城區中央路四段280號","121.414451666667","24.956365","6501300","土城區"
"236049","913-UM","2017/07/18 18:19:09","新北市土城區明德路一段369號","121.455808333333","24.9778933333333","6501300","土城區"
"236063","915-UM","2017/07/18 18:19:03","新北市土城區金城路三段183-1號","121.469618333333","24.98873","6501300","土城區"
"236055","AAC-216","2017/07/18 18:18:51","新北市土城區中華路二段98號","121.438116666667","24.97442","6501300","土城區"
"242021","AAC-296","2017/07/18 18:18:54","新北市新莊區新興街36巷1號","121.450765","25.0370583333333","6500500","新莊區"
"242029","986-R7","2017/07/18 18:18:53","新北市新莊區中平路202號","121.444848333333","25.048775","6500500","新莊區"
"242046","751-BX","2017/07/18 18:18:57","新北市新莊區中正路829巷22弄25號","121.421136666667","25.0267633333333","6500500","新莊區"
"242025","615-BX","2017/07/18 18:19:01","新北市新莊區五工三路97號","121.458063333333","25.06536","6500500","新莊區"
"242027","612-BX","2017/07/18 18:19:03","新北市新莊區中華路二段126號","121.45325","25.0490783333333","6500500","新莊區"
"242042","497-BY","2017/07/18 18:19:02","新北市新莊區天祥街91巷34號","121.4147","25.02871","6500500","新莊區"
"242051","440-UM","2017/07/18 18:19:04","新北市新莊區民安西路51號","121.42752","25.02053","6500500","新莊區"
"242032","415-TV","2017/07/18 18:18:52","新北市新莊區新泰路277巷57弄10號","121.443085","25.039805","6500500","新莊區"
"242002","413-TV","2017/07/18 18:19:01","新北市新莊區新泰路2-11號","121.450176666667","25.0325333333333","6500500","新莊區"
"242061","362-BY","2017/07/18 18:18:50","新北市新莊區新樹路207號","121.435933333333","25.0240933333333","6500500","新莊區"
"242058","353-BY","2017/07/18 18:19:04","新北市新莊區中正路895號","121.412365","25.0220383333333","6500500","新莊區"
"242011","132-UY","2017/07/18 18:18:57","新北市新莊區中港路中慶巷27弄11號","121.450161666667","25.0533283333333","6500500","新莊區"
"242044","172-VK","2017/07/18 18:19:05","新北市新莊區新北大道七段842號","121.413713333333","25.0237383333333","6500500","新莊區"
"242007","173-VK","2017/07/18 18:19:01","新北市新莊區自信街26號","121.454146666667","25.0481733333333","6500500","新莊區"
"242056","176-VK","2017/07/18 18:18:54","新北市新莊區瓊林路46-7號","121.447135","25.0293183333333","6500500","新莊區"
"242017","348-TH","2017/07/18 18:18:53","新北市新莊區中港路303號","121.452781666667","25.04451","6500500","新莊區"
"242054","349-TH","2017/07/18 18:18:42","新北市新莊區光華街64號","121.428313333333","25.0119983333333","6500500","新莊區"
"242015","350-TH","2017/07/18 18:19:01","新北市新莊區中和街125巷11號","121.446688333333","25.0485183333333","6500500","新莊區"
"238015","755-BX","2017/07/18 18:18:55","新北市樹林區啟智街86巷13號","121.418201666667","24.9908183333333","6500700","樹林區"
"238023","601-UM","2017/07/18 18:19:00","新北市樹林區福興街17號","121.40444","25.016255","6500700","樹林區"
"238006","599-UM","2017/07/18 18:18:49","新北市樹林區八德街117號","121.420696666667","24.98053","6500700","樹林區"
"238018","571-TV","2017/07/18 18:19:05","新北市樹林區博愛一街10號","121.42524","24.9909816666667","6500700","樹林區"
"238024","5061-A6","2017/07/18 18:19:01","新北市樹林區中山路一段282號","121.420403333333","24.987","6500700","樹林區"
"238022","312-TH","2017/07/18 18:19:03","新北市樹林區太平路150巷37號","121.417075","24.9772983333333","6500700","樹林區"
"238021","311-TH","2017/07/18 18:18:48","新北市樹林區佳園路二段130號","121.389483333333","24.9566383333333","6500700","樹林區"
"238025","303-VK","2017/07/18 18:19:01","新北市樹林區保安街一段227號","121.420355","24.9964416666667","6500700","樹林區"
"238017","283-BY","2017/07/18 18:18:51","新北市樹林區中正路659號","121.412311666667","25.0130016666667","6500700","樹林區"
"238014","282-BY","2017/07/18 18:18:59","新北市樹林區大安路62-11號","121.423863333333","24.999515","6500700","樹林區"
"238020","268-VK","2017/07/18 18:19:01","新北市樹林區三俊街65巷20號","121.413343333333","25.0168766666667","6500700","樹林區"
"238026","172-UY","2017/07/18 18:18:55","新北市樹林區佳園路一段41巷28弄11號","121.394876666667","24.9704933333333","6500700","樹林區"
"238016","169-UY","2017/07/18 18:18:55","新北市樹林區文化街23號","121.419376666667","24.9875966666667","6500700","樹林區"
"239007","AAC-297","2017/07/18 18:18:56","新北市鶯歌區重慶街101號","121.3477","24.9522766666667","6500800","鶯歌區"
"239006","891-R6","2017/07/18 18:19:08","新北市鶯歌區鶯桃路365巷120號","121.330351666667","24.9623083333333","6500800","鶯歌區"
"239008","527-UM","2017/07/18 18:18:57","新北市鶯歌區國際一路14號","121.336183333333","24.9765366666667","6500800","鶯歌區"
"239005","526-UM","2017/07/18 18:19:02","新北市鶯歌區鶯桃路668巷1號","121.328931666667","24.9697466666667","6500800","鶯歌區"
"239001","417-VK","2017/07/18 18:18:49","新北市鶯歌區國中街197號","121.338203333333","24.9391716666667","6500800","鶯歌區"
"239003","360-BY","2017/07/18 18:18:57","新北市鶯歌區福安街58號","121.335606666667","24.96519","6500800","鶯歌區"
"239002","359-BY","2017/07/18 18:18:50","新北市鶯歌區中正一路192號","121.35287","24.9565383333333","6500800","鶯歌區"
"239004","193-VK","2017/07/18 18:18:52","新北市鶯歌區黃厝街7巷26號","121.344001666667","24.946075","6500800","鶯歌區"
"221008","489-VK","2017/07/18 18:19:05","新北市汐止區汐萬路一段256巷3號","121.652483333333","25.0745833333333","6501100","汐止區"
"221036","130-UY","2017/07/18 18:19:03","新北市汐止區長安路87號","121.669518333333","25.0784566666667","6501100","汐止區"
"221015","131-UY","2017/07/18 18:18:51","新北市汐止區鄉長路二段23巷10號","121.667421666667","25.08297","6501100","汐止區"
"221010","269-BY","2017/07/18 18:18:56","新北市汐止區祥雲街2-1號","121.64577","25.089615","6501100","汐止區"
"221031","277-VK","2017/07/18 18:18:50","新北市汐止區中興路158-1號","121.632211666667","25.0651116666667","6501100","汐止區"
"221012","278-VK","2017/07/18 18:19:00","新北市汐止區長興街二段4巷20號","121.673518333333","25.0804983333333","6501100","汐止區"
"221023","279-VK","2017/07/18 14:31:11","台北市文山區老泉街45巷18-1號","121.576163333333","24.97623","6501100","汐止區"
"221032","280-BY","2017/07/18 18:18:52","新北市汐止區民權街二段97巷10-1號","121.619236666667","25.0468216666667","6501100","汐止區"
"221027","281-BY","2017/07/18 18:19:04","新北市汐止區和平街6巷8-1號","121.663515","25.0715833333333","6501100","汐止區"
"221038","297-VK","2017/07/18 18:18:50","新北市汐止區仁愛路321號","121.664406666667","25.0675866666667","6501100","汐止區"
"221029","298-VK","2017/07/18 18:19:04","新北市汐止區樟樹二路330巷72-1號","121.643028333333","25.06995","6501100","汐止區"
"221021","299-VK","2017/07/18 18:18:59","新北市汐止區龍安路202巷51號","121.652916666667","25.0638683333333","6501100","汐止區"
"221035","622-UM","2017/07/18 18:18:53","新北市汐止區大同路二段179號","121.651976666667","25.0642333333333","6501100","汐止區"
"221025","623-UM","2017/07/18 18:19:08","新北市汐止區勤進路12巷26號","121.659305","25.06235","6501100","汐止區"
"221033","647-BX","2017/07/18 18:18:56","新北市汐止區宜興街33巷5號","121.621808333333","25.042215","6501100","汐止區"
"221002","707-TV","2017/07/18 18:19:03","新北市汐止區福德一路201巷31號","121.63574","25.0645983333333","6501100","汐止區"
"221018","753-BX","2017/07/18 18:19:06","新北市汐止區茄苳路118號","121.668095","25.0704283333333","6501100","汐止區"
