"lineid","car","time","location","longitude","latitude","cityid","cityname"
"234046","148-BY","2017/07/18 18:48:52","新北市永和區永元路40巷33號","121.52326","25.00062","6500400","永和區"
"234013","149-BY","2017/07/18 18:48:55","新北市永和區保福路二段133巷1號","121.509566666667","25.0137683333333","6500400","永和區"
"234007","207-UY","2017/07/18 18:49:00","新北市永和區文化路6號","121.515561666667","25.0150616666667","6500400","永和區"
"234081","298-R6","2017/07/18 18:48:55","新北市永和區永元路126號","121.522688333333","25.0030466666667","6500400","永和區"
"234038","336-UY","2017/07/18 18:48:59","新北市永和區成功路二段177-1號","121.526601666667","24.99676","6500400","永和區"
"234064","337-UY","2017/07/18 18:48:40","新北市永和區福和路1號","121.526491666667","25.0099783333333","6500400","永和區"
"234086","338-UY","2017/07/18 18:48:40","新北市永和區中正路5號","121.513908333333","24.9955666666667","6500400","永和區"
"234070","552-UM","2017/07/18 18:48:42","新北市永和區中興街98號","121.518946666667","25.0120433333333","6500400","永和區"
"234054","553-UM","2017/07/18 18:48:39","新北市永和區竹林路169號","121.5206","25.0100433333333","6500400","永和區"
"234017","745-BX","2017/07/18 18:48:44","新北市永和區忠孝街26巷8號","121.51542","25.0166933333333","6500400","永和區"
"234030","746-BX","2017/07/18 18:48:48","新北市永和區得和路321號","121.523436666667","24.99962","6500400","永和區"
"234061","AAD-866","2017/07/18 18:48:58","新北市永和區福和路213號","121.519295","25.0075283333333","6500400","永和區"
"234042","862-TW","2017/07/18 18:48:55","新北市永和區永貞路267號","121.51187","25.0047816666667","6500400","永和區"
"234050","863-TW","2017/07/18 18:48:55","新北市永和區保安路2號","121.510821666667","25.0175466666667","6500400","永和區"
"234026","9371-KE","2017/07/18 18:48:43","新北市永和區自由街58號","121.513873333333","25.0060116666667","6500400","永和區"
"234011","9373-KE","2017/07/18 18:48:52","新北市永和區文化路124號","121.513085","25.01534","6500400","永和區"
"249005","172-UM","2017/07/18 18:48:53","新北市八里區長道坑16-3號","121.39483","25.1162083333333","6502300","八里區"
"249004","303-UY","2017/07/18 18:48:33","新北市八里區觀海大道271號","121.414503333333","25.16154","6502300","八里區"
"249001","759-BX","2017/07/18 18:48:51","新北市八里區龍米路二段3-1號","121.448891666667","25.1390516666667","6502300","八里區"
"248016","026-BX","2017/07/18 18:48:50","新北市五股區凌雲路一段149巷42號","121.448606666667","25.1009283333333","6501500","五股區"
"248008","095-VK","2017/07/18 18:48:47","新北市五股區中興路一段151巷1弄2號","121.464976666667","25.0729083333333","6501500","五股區"
"248020","225-UY","2017/07/18 18:48:58","新北市五股區凌雲路三段82-1號","121.43178","25.1172816666667","6501500","五股區"
"248012","247-BX","2017/07/17 21:21:30","新北市五股區中興路二段37巷24號","121.460793333333","25.0750116666667","6501500","五股區"
"248014","261-SL","2017/07/18 18:48:40","新北市五股區中興路四段74號","121.436971666667","25.08376","6501500","五股區"
"248010","272-BY","2017/07/18 18:48:54","新北市五股區水碓五路81號","121.43001","25.0719","6501500","五股區"
"248002","678-BX","2017/07/18 18:49:01","新北市五股區成泰路三段435巷10號","121.449473333333","25.0979866666667","6501500","五股區"
"248006","682-TV","2017/07/18 18:49:01","新北市五股區中興路一段171巷65號","121.464905","25.07101","6501500","五股區"
"234023","9380-KE","2017/07/18 18:48:51","新北市永和區竹林路119巷24號","121.521203333333","25.011685","6500400","永和區"
"234077","969-R7","2017/07/18 18:48:47","新北市永和區中正路2巷11號","121.513123333333","24.993495","6500400","永和區"
"234074","AAC-211","2017/07/18 18:48:47","新北市永和區福和路1號","121.526528333333","25.0099633333333","6500400","永和區"
"234067","AAC-212","2017/07/18 18:48:53","新北市中和區永貞路260號","121.51392","25.0036966666667","6500400","永和區"
"234003","AAC-295","2017/07/18 18:48:42","新北市永和區中正路657號","121.514801666667","25.0101516666667","6500400","永和區"
"232011","375-UM","2017/07/18 18:48:45","新北市坪林區坪碇路10號","121.711463333333","24.9411066666667","6502000","坪林區"
"244013","069-UM","2017/07/18 18:48:56","新北市林口區文化一路二段92號","121.382008333333","25.0785783333333","6501700","林口區"
"244007","080-UY","2017/07/18 18:48:58","新北市林口區太平里5-12號","121.379988333333","25.11327","6501700","林口區"
"244009","410-SL","2017/07/18 18:48:52","新北市林口區竹林路278巷18號","121.39081","25.0811066666667","6501700","林口區"
"244023","483-VK","2017/07/18 18:48:45","新北市林口區民權路157號","121.374065","25.0838","6501700","林口區"
"244017","485-VK","2017/07/18 18:48:43","新北市林口區公園路59-1號","121.367205","25.06893","6501700","林口區"
"244025","656-BX","2017/07/18 18:48:49","新北市林口區南勢一街6號","121.360538333333","25.0746416666667","6501700","林口區"
"244011","701-TV","2017/07/18 18:48:45","新北市林口區新寮1-60號","121.393021666667","25.07676","6501700","林口區"
"243013","AAD-798","2017/07/18 18:48:43","新北市泰山區明志路三段206巷1號","121.423363333333","25.037875","6501600","泰山區"
"243015","380-SR","2017/07/18 18:48:52","新北市泰山區憲訓路4號","121.42883","25.06387","6501600","泰山區"
"243014","421-VK","2017/07/18 18:48:43","新北市泰山區犁頭窠3-1號","121.422201666667","25.0605833333333","6501600","泰山區"
"243012","646-TV","2017/07/18 18:48:42","新北市泰山區泰林路二段73巷33號","121.434343333333","25.0578016666667","6501600","泰山區"
"222003","436-BY","2017/07/18 18:48:48","新北市深坑區翠谷街17巷40號","121.625295","25.010075","6501800","深坑區"
"222001","628-TS","2017/07/18 18:48:44","新北市深坑區松柏街38號","121.638695","25.01152","6501800","深坑區"
"222002","659-BX","2017/07/18 18:48:52","新北市深坑區文山路一段62巷3號","121.622896666667","25.0008666666667","6501800","深坑區"
"231041","002-UM","2017/07/18 18:48:48","新北市新店區安華路28-1號","121.519666666667","24.9610133333333","6500600","新店區"
"231056","0293-UT","2017/07/18 18:48:45","新北市新店區大豐路68巷15號","121.538483333333","24.98027","6500600","新店區"
"231059","046-UY","2017/07/18 18:48:59","新北市新店區安華路28-1號","121.519555","24.9608183333333","6500600","新店區"
"231061","047-UY","2017/07/18 18:48:41","新北市新店區安忠路95號","121.510946666667","24.9566483333333","6500600","新店區"
"231060","106-UY","2017/07/18 18:48:57","新北市新店區安華路28-1號","121.519575","24.9608133333333","6500600","新店區"
"231051","107-UY","2017/07/18 18:48:54","新北市新店區中央路98-1號","121.53151","24.9754766666667","6500600","新店區"
"231048","108-UY","2017/07/18 18:48:49","新北市新店區德正街17巷2號","121.543678333333","24.9727166666667","6500600","新店區"
"231053","187-VK","2017/07/18 18:48:48","新北市新店區新烏路一段105巷17號","121.546328333333","24.9404966666667","6500600","新店區"
"231069","189-VK","2017/07/18 16:47:59","新北市新店區安華路28-1號","121.520088333333","24.9607983333333","6500600","新店區"
"231063","268-BY","2017/07/18 18:48:45","新北市新店區安忠路205巷8號","121.510093333333","24.9554833333333","6500600","新店區"
"231046","278-BY","2017/07/18 18:48:39","新北市新店區直潭路41號","121.533771666667","24.9425783333333","6500600","新店區"
"231050","AAD-862","2017/07/18 18:48:39","新北市新店區安康路一段285號","121.523321666667","24.9636","6500600","新店區"
"231044","355-BY","2017/07/18 18:48:51","新北市新店區北新路二段2號","121.54254","24.9704383333333","6500600","新店區"
"231058","3712-VJ","2017/07/18 18:48:43","新北市新店區北宜路一段105巷2號","121.539511666667","24.9554066666667","6500600","新店區"
"231055","3713-VJ","2017/07/18 18:48:41","新北市新店區新生街37號","121.539405","24.96688","6500600","新店區"
"231067","4772-VM","2017/07/18 18:48:53","新北市新店區安康路一段76巷10-1號","121.528811666667","24.9625816666667","6500600","新店區"
"231065","512-UM","2017/07/18 18:48:41","新北市新店區安豐路22巷7號","121.501785","24.9544066666667","6500600","新店區"
"231054","513-UM","2017/07/18 18:48:42","新北市新店區環河路25號","121.537403333333","24.961385","6500600","新店區"
"231064","515-UM","2017/07/18 18:48:45","新北市新店區安華路28-1號","121.51961","24.9612616666667","6500600","新店區"
"231045","617-UM","2017/07/18 18:49:01","新北市新店區安華路28-1號","121.519411666667","24.960795","6500600","新店區"
"231040","619-UM","2017/07/18 18:48:57","新北市新店區力行路15號","121.537018333333","24.96523","6500600","新店區"
"231042","641-BX","2017/07/18 18:48:44","新北市新店區中正路69號","121.543503333333","24.9700866666667","6500600","新店區"
"231049","719-UM","2017/07/18 18:48:44","新北市新店區中央路67號","121.53247","24.976935","6500600","新店區"
"231062","720-UM","2017/07/18 18:48:32","新北市新店區安忠路57巷13號","121.513078333333","24.957335","6500600","新店區"
"231043","899-TW","2017/07/18 18:49:01","新北市新店區安康路一段186號","121.524828333333","24.9634616666667","6500600","新店區"
"231066","AKT-0513","2017/07/18 18:48:42","新北市新店區安豐路22巷7號","121.500981666667","24.9547416666667","6500600","新店區"
"235066","003-UY","2017/07/18 18:49:01","新北市中和區水源路34巷1號","121.50498","25.0035383333333","6500300","中和區"
"235064","005-UY","2017/07/18 18:48:55","新北市中和區景平路545巷9號","121.498093333333","24.9989783333333","6500300","中和區"
"235063","006-UY","2017/07/18 18:48:49","新北市中和區連城路347巷4弄1-3號","121.488206666667","24.9954916666667","6500300","中和區"
"235056","096-UM","2017/07/18 18:48:54","新北市中和區員山路611巷5弄3號","121.478021666667","25.0111583333333","6500300","中和區"
"235039","097-UM","2017/07/18 18:48:41","新北市永和區中正路1號","121.513803333333","24.9954683333333","6500300","中和區"
"235065","098-UM","2017/07/18 18:49:01","新北市中和區中山路二段2巷45弄44號","121.501765","25.006305","6500300","中和區"
"235040","150-BY","2017/07/18 18:48:42","新北市中和區安平路36巷5號","121.51024","24.9947466666667","6500300","中和區"
"235058","151-BY","2017/07/18 18:48:53","新北市中和區連城路444號","121.479725","24.9947733333333","6500300","中和區"
"235055","183-VK","2017/07/18 18:48:49","新北市中和區民生街15號","121.471283333333","25.00589","6500300","中和區"
"235038","185-VK","2017/07/18 18:48:39","新北市中和區大勇街106號","121.517931666667","24.9951833333333","6500300","中和區"
"235049","186-VK","2017/07/18 18:48:55","新北市中和區景安路120巷20號","121.504575","24.9947633333333","6500300","中和區"
"235067","255-BX","2017/07/18 18:48:57","新北市中和區中正路875號","121.484273333333","25.00401","6500300","中和區"
"235044","293-VK","2017/07/18 18:48:58","新北市中和區復興路280巷1弄2號","121.50225","24.9907216666667","6500300","中和區"
"235072","301-VK","2017/07/18 18:48:40","新北市中和區中山路二段44號","121.50432","25.0049766666667","6500300","中和區"
"235043","352-BY","2017/07/18 18:48:42","新北市中和區景平路2號","121.524805","24.9903583333333","6500300","中和區"
"235051","376-QA","2017/07/18 18:48:49","新北市中和區華新街143巷106弄30號","121.506098333333","24.9785116666667","6500300","中和區"
"235068","377-QA","2017/07/18 18:48:44","新北市中和區中正路209號","121.49723","24.9935766666667","6500300","中和區"
"235061","378-QA","2017/07/18 18:48:45","新北市中和區民享街30巷7號","121.473588333333","25.00348","6500300","中和區"
"235050","4979-A6","2017/07/18 18:48:56","新北市中和區忠孝街106巷40號","121.513261666667","24.9841916666667","6500300","中和區"
"235069","4980-A6","2017/07/18 18:48:50","新北市中和區圓通路61號","121.500595","24.9972033333333","6500300","中和區"
"235042","551-UM","2017/07/18 18:48:47","新北市中和區秀朗路三段135巷1號","121.525316666667","24.992535","6500300","中和區"
"235045","565-BX","2017/07/18 18:48:49","新北市中和區南山路389號","121.506463333333","24.9902916666667","6500300","中和區"
"235070","611-BX","2017/07/18 18:49:01","新北市中和區安和路159號","121.50607","24.997405","6500300","中和區"
"235054","640-BX","2017/07/18 18:49:01","新北市中和區民享街54巷3號","121.473763333333","25.0023866666667","6500300","中和區"
"235060","647-TV","2017/07/18 18:48:52","新北市中和區中山路二段475號","121.483135","25.005045","6500300","中和區"
"235047","732-UM","2017/07/18 18:48:43","新北市中和區興南路二段34巷71號","121.504946666667","24.9851066666667","6500300","中和區"
"235046","733-UM","2017/07/18 18:48:49","新北市中和區仁愛街36巷46號","121.511393333333","24.9862166666667","6500300","中和區"
"235071","783-BX","2017/07/18 18:48:57","新北市中和區員山路36巷16-3號","121.485166666667","24.9911716666667","6500300","中和區"
"235062","800-TS","2017/07/18 18:48:45","新北市中和區中山路二段312巷33弄22號","121.494831666667","25.0043366666667","6500300","中和區"
"235057","801-TS","2017/07/18 18:48:54","新北市中和區員山路327巷8號","121.48092","25.0011483333333","6500300","中和區"
"235041","802-TS","2017/07/18 18:48:59","新北市中和區景安路16號","121.507673333333","24.9988666666667","6500300","中和區"
"235052","805-TS","2017/07/18 18:48:47","新北市中和區興南路二段399巷11號","121.498968333333","24.9791266666667","6500300","中和區"
"235048","896-TW","2017/07/18 18:48:44","新北市中和區南山路497號","121.50797","24.987775","6500300","中和區"
"235053","900-TW","2017/07/18 18:48:53","新北市中和區華福街21號","121.465831666667","24.9968266666667","6500300","中和區"
"235037","AAC-213","2017/07/18 18:48:47","新北市中和區景平路111巷56號","121.51528","24.99045","6500300","中和區"
"235059","AAC-215","2017/07/18 18:48:52","新北市中和區圓通路389號","121.490186666667","24.9891066666667","6500300","中和區"
"220068","013-TV","2017/07/18 18:48:45","新北市板橋區民生路二段36-1號","121.47252","25.0167516666667","6500100","板橋區"
"220065","072-UY","2017/07/18 18:49:00","新北市板橋區民生路二段22號","121.472866666667","25.0166433333333","6500100","板橋區"
"220086","073-UY","2017/07/18 18:48:57","新北市板橋區南雅西路二段180巷15號","121.452785","25.01396","6500100","板橋區"
"220106","075-UY","2017/07/18 18:48:46","新北市板橋區民生路二段148號","121.471363333333","25.0194633333333","6500100","板橋區"
"247002","336-TH","2017/07/18 18:48:44","新北市五股區工商路8號","121.440476666667","25.082325","6501400","蘆洲區"
"247014","057-VK","2017/07/18 18:36:38","新北市五股區中興路三段163號","121.449011666667","25.0808133333333","6501400","蘆洲區"
"247004","056-VK","2017/07/18 18:36:20","新北市五股區中興路三段163號","121.44925","25.0807316666667","6501400","蘆洲區"
"226004","312-R5","2017/07/18 18:48:46","新北市平溪區靜安路二段441號","121.740275","25.0250583333333","6502400","平溪區"
"228001","212-TW","2017/07/18 18:49:01","新北市貢寮區仁理村保健街73號","121.923741666667","25.05165","6502600","貢寮區"
"228002","663-BX","2017/07/18 18:48:48","新北市貢寮區福隆里東興街6-11號","121.950766666667","25.0210616666667","6502600","貢寮區"
"228003","828-UM","2017/07/18 18:48:46","新北市貢寮區和美里龍洞街53號","121.9124","25.113665","6502600","貢寮區"
"224006","676-BX","2017/07/18 18:49:00","新北市瑞芳區民生街18號","121.805823333333","25.1075433333333","6501200","瑞芳區"
"224009","285-BY","2017/07/18 18:48:42","新北市瑞芳區祈堂路2號","121.859701666667","25.1116483333333","6501200","瑞芳區"
"224008","275-VK","2017/07/18 18:48:46","新北市瑞芳區逢甲路343-13號","121.799243333333","25.1123883333333","6501200","瑞芳區"
"224007","273-VK","2017/07/18 18:48:49","新北市瑞芳區大埔路96號","121.762083333333","25.100885","6501200","瑞芳區"
"224005","271-BY","2017/07/18 18:48:56","新北市瑞芳區建基路一段4-2號","121.820645","25.1211533333333","6501200","瑞芳區"
"227009","642-TC","2017/07/18 18:49:00","新北市雙溪區牡丹里聖南31-1號","121.855193333333","25.0547216666667","6502500","雙溪區"
"227003","400-TW","2017/07/18 18:48:50","新北市雙溪區共和里中山路8號","121.86487","25.0331433333333","6502500","雙溪區"
"253006","032-BX","2017/07/18 18:48:59","新北市石門區下員坑33-6號","121.519","25.2832583333333","6502200","石門區"
"253005","741-TV","2017/07/18 18:48:45","新北市石門區中山路28-1號","121.565826666667","25.289945","6502200","石門區"
"208003","665-BX","2017/07/18 18:48:58","新北市金山區中山路270號","121.635275","25.2242766666667","6502700","金山區"
"208001","761-BX","2017/07/18 18:48:39","新北市金山區文化三路66巷2弄1號","121.634316666667","25.2256783333333","6502700","金山區"
"251014","180-VK","2017/07/18 18:48:54","新北市淡水區崙頂32號","121.48778","25.2229483333333","6501000","淡水區"
"251008","181-VK","2017/07/18 18:48:49","新北市淡水區北投子15-1號","121.452393333333","25.1828283333333","6501000","淡水區"
"251010","413-VK","2017/07/18 18:48:57","新北市淡水區沙崙路9號","121.42109","25.1812083333333","6501000","淡水區"
"251012","441-VK","2017/07/18 18:48:41","新北市淡水區中山北路一段156號","121.444023333333","25.1779","6501000","淡水區"
"251016","442-VK","2017/07/18 18:48:53","新北市淡水區下圭柔山71-3號","121.447115","25.2061683333333","6501000","淡水區"
"251001","559-UM","2017/07/18 18:48:44","新北市淡水區自強路108-17號","121.461705","25.1310316666667","6501000","淡水區"
"251009","575-R6","2017/07/18 18:48:44","新北市淡水區重建街172號","121.440825","25.1739866666667","6501000","淡水區"
"251011","650-BX","2017/07/18 18:48:46","新北市淡水區中正東路71號","121.447361666667","25.1677316666667","6501000","淡水區"
"251002","672-BX","2017/07/18 18:48:55","新北市淡水區學府路75號","121.448525","25.169885","6501000","淡水區"
"251003","766-UM","2017/07/18 18:48:57","新北市淡水區中山北路一段143號","121.442928333333","25.1774233333333","6501000","淡水區"
"207003","550-UM","2017/07/18 18:48:59","新北市萬里區大鵬里頂社1-2號","121.657363333333","25.2097033333333","6502800","萬里區"
"207004","225-TW","2017/07/18 18:48:53","新北市萬里區萬里里獅頭路23號","121.6932","25.1782666666667","6502800","萬里區"
"252002","178-VK","2017/07/18 18:48:38","新北市三芝區智成街72-1號","121.504878333333","25.2560683333333","6502100","三芝區"
"252003","249-BX","2017/07/18 18:48:42","新北市三芝區後厝里大片頭81-1號","121.459101666667","25.24441","6502100","三芝區"
"252001","702-TV","2017/07/18 18:49:00","新北市三芝區中正路三段9號","121.502885","25.2540216666667","6502100","三芝區"
"252005","AAC-283","2017/07/18 15:54:34","新北市三芝區埔坪里埔頭坑41號","121.50453","25.2644316666667","6502100","三芝區"
"208002","170-UY","2017/07/18 18:48:52","新北市金山區信義路61-3號","121.63596","25.2188266666667","6502700","金山區"
"237004","078-UY","2017/07/18 18:48:52","新北市三峽區有木130-2號","121.4351","24.8580483333333","6500900","三峽區"
"237007","153-BY","2017/07/18 18:48:43","新北市三峽區中正路二段395巷26號","121.365878333333","24.9078133333333","6500900","三峽區"
"237013","252-BX","2017/07/18 18:48:41","新北市三峽區大同路52號","121.376875","24.9291133333333","6500900","三峽區"
"237012","275-BY","2017/07/18 18:48:59","新北市三峽區三樹路340號","121.383953333333","24.9432983333333","6500900","三峽區"
"237008","302-VK","2017/07/18 18:48:44","新北市三峽區白雞33-59號","121.370765","24.913195","6500900","三峽區"
"237014","433-BY","2017/07/18 18:48:45","新北市三峽區隆恩街170號","121.363228333333","24.9429183333333","6500900","三峽區"
"237006","5529-G3","2017/07/18 18:48:57","新北市三峽區溪東路233巷2弄3號","121.40699","24.9335816666667","6500900","三峽區"
"237011","572-TV","2017/07/18 17:41:52","新北市三峽區中山路51-1號","121.367936666667","24.9345383333333","6500900","三峽區"
"237016","649-BX","2017/07/18 18:48:56","新北市三峽區竹崙路19號","121.428656666667","24.92274","6500900","三峽區"
"237010","706-TV","2017/07/18 18:48:59","新北市三峽區國光街350巷8號","121.371735","24.939925","6500900","三峽區"
"237005","AKY-6261","2017/07/18 18:48:56","新北市三峽區中山路333-1號","121.360096666667","24.9379366666667","6500900","三峽區"
"236070","105-UM","2017/07/18 18:48:42","新北市土城區明德路一段51號","121.465231666667","24.984835","6501300","土城區"
"236043","107-UM","2017/07/18 18:48:57","新北市土城區裕民路114巷21號","121.450695","24.985885","6501300","土城區"
"236079","166-UM","2017/07/18 18:48:54","新北市土城區中央路四段185巷55弄1號","121.416568333333","24.9559966666667","6501300","土城區"
"236031","253-BX","2017/07/18 18:48:49","新北市土城區忠義路26巷19號","121.439788333333","24.96982","6501300","土城區"
"236027","269-VK","2017/07/18 18:48:47","新北市土城區興城路28巷1號","121.441983333333","24.9729083333333","6501300","土城區"
"236015","270-VK","2017/07/18 18:48:45","新北市土城區金城路二段354巷8號","121.460923333333","24.9845083333333","6501300","土城區"
"236038","271-VK","2017/07/18 18:48:54","新北市土城區明德路一段291巷11弄1號","121.460363333333","24.976635","6501300","土城區"
"236023","401-BY","2017/07/18 18:48:52","新北市土城區延吉街253巷15號","121.467926666667","24.9843083333333","6501300","土城區"
"236059","912-UM","2017/07/18 18:48:57","新北市土城區大安路2號","121.432796666667","24.9654016666667","6501300","土城區"
"236049","913-UM","2017/07/18 18:48:49","新北市板橋區廣權路2號","121.460276666667","24.9906233333333","6501300","土城區"
"236063","915-UM","2017/07/18 18:48:43","新北市土城區金城路三段207巷8弄23號","121.470546666667","24.9907816666667","6501300","土城區"
"236055","AAC-216","2017/07/18 18:48:51","新北市土城區裕民路167-1號","121.453068333333","24.985195","6501300","土城區"
"242002","413-TV","2017/07/18 18:48:41","新北市新莊區新泰路357巷3弄57號","121.442206666667","25.039445","6500500","新莊區"
"242061","362-BY","2017/07/18 18:48:50","新北市新莊區中正路461號","121.442361666667","25.033845","6500500","新莊區"
"238023","601-UM","2017/07/18 18:49:00","新北市樹林區三福街114號","121.406355","25.016345","6500700","樹林區"
"238006","599-UM","2017/07/18 18:48:49","新北市樹林區東榮街147巷27弄5號","121.414821666667","24.9810133333333","6500700","樹林區"
"238018","571-TV","2017/07/18 18:48:48","新北市樹林區鎮前街146號","121.424646666667","24.9903633333333","6500700","樹林區"
"238024","5061-A6","2017/07/18 18:48:46","新北市樹林區太順街41號","121.418163333333","24.9792933333333","6500700","樹林區"
"238022","312-TH","2017/07/18 18:48:43","新北市樹林區中華路379巷78弄15號","121.412966666667","24.9769233333333","6500700","樹林區"
"238025","303-VK","2017/07/18 18:48:58","新北市樹林區中山路三段24號","121.395508333333","24.9728383333333","6500700","樹林區"
"238017","283-BY","2017/07/18 18:48:51","新北市樹林區光興街50號","121.409845","25.002725","6500700","樹林區"
"238014","282-BY","2017/07/18 18:48:58","新北市樹林區大安路111巷11號","121.423138333333","24.9976683333333","6500700","樹林區"
"238020","268-VK","2017/07/18 18:49:00","新北市樹林區俊英街280號","121.42379","25.0132283333333","6500700","樹林區"
"238026","172-UY","2017/07/18 18:48:49","新北市樹林區信和街90號","121.388801666667","24.97343","6500700","樹林區"
"238016","169-UY","2017/07/18 18:48:55","新北市樹林區文化街23號","121.419301666667","24.9876283333333","6500700","樹林區"
"239007","AAC-297","2017/07/18 18:48:56","新北市鶯歌區中正一路269巷25號","121.355403333333","24.95938","6500800","鶯歌區"
"239006","891-R6","2017/07/18 18:48:48","新北市鶯歌區鶯桃路294號","121.335041666667","24.9604816666667","6500800","鶯歌區"
"239008","527-UM","2017/07/18 18:48:57","新北市鶯歌區國際一路120巷1號","121.336736666667","24.9758283333333","6500800","鶯歌區"
"239005","526-UM","2017/07/18 18:48:42","新北市鶯歌區大湖路361巷62號","121.331058333333","24.977355","6500800","鶯歌區"
"239001","417-VK","2017/07/18 18:48:53","新北市鶯歌區永明街55號","121.339116666667","24.9559216666667","6500800","鶯歌區"
"239003","360-BY","2017/07/18 18:48:57","新北市鶯歌區永和街12-1號","121.332161666667","24.967125","6500800","鶯歌區"
"239002","359-BY","2017/07/18 18:48:50","新北市鶯歌區中正一路280號","121.355566666667","24.9570766666667","6500800","鶯歌區"
"239004","193-VK","2017/07/18 18:48:52","新北市鶯歌區中正三路267號","121.33293","24.9379816666667","6500800","鶯歌區"
"221008","489-VK","2017/07/18 18:48:45","新北市汐止區康寧街901號","121.651423333333","25.0750533333333","6501100","汐止區"
"221036","130-UY","2017/07/18 18:48:42","新北市汐止區水碓街63號","121.665165","25.068605","6501100","汐止區"
"221015","131-UY","2017/07/18 18:48:51","新北市汐止區鄉長路一段33-8號","121.665381666667","25.0748733333333","6501100","汐止區"
"221010","269-BY","2017/07/18 18:48:36","新北市汐止區汐萬路三段66號","121.644193333333","25.0938216666667","6501100","汐止區"
"221031","277-VK","2017/07/18 18:48:52","新北市汐止區福德一路274號","121.632068333333","25.0641033333333","6501100","汐止區"
"221012","278-VK","2017/07/18 18:42:20","新北市汐止區長江街194號","121.660361666667","25.0766616666667","6501100","汐止區"
"221023","279-VK","2017/07/18 14:31:11","台北市文山區老泉街45巷18-1號","121.576163333333","24.97623","6501100","汐止區"
"221032","280-BY","2017/07/18 18:48:52","新北市汐止區橫科路407巷81弄5號","121.628961666667","25.0479766666667","6501100","汐止區"
"221027","281-BY","2017/07/18 18:48:44","新北市汐止區汐萬路一段256巷3號","121.652576666667","25.0745433333333","6501100","汐止區"
"221038","297-VK","2017/07/18 18:48:50","新北市汐止區汐萬路一段312號","121.65064","25.0752883333333","6501100","汐止區"
"221029","298-VK","2017/07/18 18:48:46","新北市汐止區樟樹一路93號","121.642021666667","25.06343","6501100","汐止區"
"221021","299-VK","2017/07/18 18:48:59","新北市汐止區大同路二段132-2號","121.651735","25.0640716666667","6501100","汐止區"
"221035","622-UM","2017/07/18 18:48:53","新北市汐止區汐萬路一段256巷3號","121.652185","25.07474","6501100","汐止區"
"221025","623-UM","2017/07/18 18:48:48","新北市汐止區秀峰路9號","121.659356666667","25.0662816666667","6501100","汐止區"
"221033","647-BX","2017/07/18 18:48:56","新北市汐止區南勢街1巷1號","121.627115","25.037495","6501100","汐止區"
"221002","707-TV","2017/07/18 18:48:43","新北市汐止區大同路一段215-1號","121.633748333333","25.0573966666667","6501100","汐止區"
"221018","753-BX","2017/07/18 18:48:46","新北市汐止區茄苳路26號","121.665031666667","25.0708216666667","6501100","汐止區"
"220079","145-BY","2017/07/18 18:48:48","新北市板橋區民權路202巷2弄1號","121.459463333333","25.0141033333333","6500100","板橋區"
"220093","146-RM","2017/07/18 18:48:53","新北市板橋區民生路二段161巷3號","121.470161666667","25.0197983333333","6500100","板橋區"
"220080","200-UY","2017/07/18 18:48:55","新北市板橋區大觀路二段265巷124號","121.442416666667","24.996365","6500100","板橋區"
"220082","610-BX","2017/07/18 18:48:48","新北市板橋區溪北路142號","121.429961666667","24.9885516666667","6500100","板橋區"
"220101","245-BX","2017/07/18 18:48:44","新北市板橋區民生路二段184號","121.471211666667","25.0202183333333","6500100","板橋區"
"220056","276-BY","2017/07/18 18:48:53","新北市板橋區四川路二段46號","121.453598333333","24.9953533333333","6500100","板橋區"
"220072","277-BY","2017/07/18 18:48:44","新北市板橋區金門街31巷24號","121.434103333333","24.9938483333333","6500100","板橋區"
"220064","280-UM","2017/07/18 18:48:51","新北市板橋區民生路二段36-1號","121.472493333333","25.0167416666667","6500100","板橋區"
"220071","283-VK","2017/07/18 18:48:57","新北市板橋區民生路二段56-1號","121.472211666667","25.0169683333333","6500100","板橋區"
"220094","285-UM","2017/07/18 18:48:37","新北市板橋區民生路二段161巷1號","121.470258333333","25.0199633333333","6500100","板橋區"
"220053","285-VK","2017/07/18 18:48:57","新北市板橋區民生路二段30號","121.47263","25.0170566666667","6500100","板橋區"
"220083","286-VK","2017/07/18 18:48:46","新北市板橋區大觀路二段22巷12號","121.445986666667","25.00344","6500100","板橋區"
"220081","287-VK","2017/07/18 18:48:53","新北市板橋區南雅西路二段177號","121.451861666667","25.0125633333333","6500100","板橋區"
"220090","288-VK","2017/07/18 18:48:54","新北市板橋區民生路二段120號","121.470543333333","25.0200166666667","6500100","板橋區"
"220061","293-UM","2017/07/18 18:48:43","新北市板橋區民生路二段56-1號","121.472326666667","25.0169733333333","6500100","板橋區"
"220084","296-UM","2017/07/18 18:48:56","新北市板橋區大觀路二段148巷32號","121.441945","24.9999683333333","6500100","板橋區"
"220075","297-UM","2017/07/18 18:48:45","新北市板橋區大觀路一段28巷106-3號","121.451113333333","25.0107366666667","6500100","板橋區"
"220062","303-R5","2017/07/18 18:48:44","新北市板橋區觀光街1巷1號","121.472163333333","25.015495","6500100","板橋區"
"220092","307-R5","2017/07/18 16:08:09","新北市板橋區民生路二段120號","121.470481666667","25.0195083333333","6500100","板橋區"
"220098","317-R6","2017/07/18 18:48:51","新北市板橋區民生路二段120號","121.470506666667","25.019695","6500100","板橋區"
"220089","487-VK","2017/07/18 18:48:52","新北市板橋區民生路二段120號","121.470443333333","25.0196666666667","6500100","板橋區"
"220088","491-VK","2017/07/18 18:48:50","新北市板橋區民生路二段161巷1號","121.470261666667","25.0199483333333","6500100","板橋區"
"220035","560-BX","2017/07/18 18:48:52","新北市板橋區中正路275巷77號","121.45223","25.018015","6500100","板橋區"
"220103","561-BX","2017/07/18 18:48:43","新北市板橋區民生路二段120號","121.47035","25.019585","6500100","板橋區"
"220063","609-BX","2017/07/18 15:25:53","新北市板橋區民生路二段36-1號","121.472525","25.0169033333333","6500100","板橋區"
"220091","637-BX","2017/07/18 18:48:57","新北市板橋區民生路二段161巷1號","121.470191666667","25.020075","6500100","板橋區"
"220057","686-BX","2017/07/18 18:48:49","新北市板橋區民生路二段36-1號","121.472481666667","25.0165866666667","6500100","板橋區"
"220077","687-BX","2017/07/18 18:48:49","新北市板橋區大觀路二段174巷168號","121.441956666667","25.0033683333333","6500100","板橋區"
"220054","741-BX","2017/07/18 18:48:39","新北市板橋區觀光街2-3號","121.472336666667","25.0155483333333","6500100","板橋區"
"220067","829-TW","2017/07/18 18:48:52","新北市板橋區民生路二段36-1號","121.47214","25.0169216666667","6500100","板橋區"
"220102","830-TW","2017/07/18 16:51:04","新北市板橋區民生路二段161巷7號","121.470281666667","25.019715","6500100","板橋區"
"220096","831-TW","2017/07/18 16:30:36","新北市板橋區民生路二段161巷5號","121.47015","25.0196966666667","6500100","板橋區"
"220074","895-R6","2017/07/18 18:48:40","新北市板橋區南雅南路二段18號","121.4546","25.003385","6500100","板橋區"
"220073","985-R7","2017/07/18 18:48:53","新北市板橋區館前西路60號","121.458006666667","25.00696","6500100","板橋區"
"220097","AAC-210","2017/07/18 18:48:54","新北市板橋區民生路二段120號","121.470738333333","25.0196583333333","6500100","板橋區"
"220070","AAC-253","2017/07/18 18:48:53","新北市板橋區民生路二段36-1號","121.472413333333","25.0168233333333","6500100","板橋區"
