"lineid","car","time","location","longitude","latitude","cityid","cityname"
"234046","148-BY","2017/07/18 19:09:33","新北市永和區永元路52巷50號","121.524403333333","25.000755","6500400","永和區"
"234013","149-BY","2017/07/18 19:09:43","新北市永和區保福路二段40號","121.51099","25.011955","6500400","永和區"
"234007","207-UY","2017/07/18 19:09:40","新北市永和區中山路一段277號","121.507076666667","25.00708","6500400","永和區"
"234081","298-R6","2017/07/18 19:09:34","新北市永和區福和路57巷14弄1號","121.522688333333","25.00688","6500400","永和區"
"234038","336-UY","2017/07/18 19:09:45","新北市永和區民樂街59巷3號","121.52789","24.9983533333333","6500400","永和區"
"234064","337-UY","2017/07/18 19:09:40","新北市永和區秀朗路二段49號","121.521691666667","25.0022783333333","6500400","永和區"
"234086","338-UY","2017/07/18 19:09:40","新北市永和區永貞路98號","121.519235","25.0044766666667","6500400","永和區"
"234070","552-UM","2017/07/18 19:09:51","新北市永和區豫溪街86號","121.51837","25.0100166666667","6500400","永和區"
"234054","553-UM","2017/07/18 19:09:38","新北市永和區竹林路77號","121.519335","25.01301","6500400","永和區"
"234017","745-BX","2017/07/18 19:09:44","新北市永和區文化路90巷15號","121.513695","25.01611","6500400","永和區"
"234030","746-BX","2017/07/18 19:09:04","新北市永和區厚德街84號","121.523705","24.99895","6500400","永和區"
"234061","AAD-866","2017/07/18 19:09:38","新北市永和區安樂路461號","121.514353333333","25.005125","6500400","永和區"
"234042","862-TW","2017/07/18 19:09:36","新北市永和區保平路131號","121.5105","25.006105","6500400","永和區"
"234050","863-TW","2017/07/18 19:09:35","新北市永和區文化路135巷9號","121.510678333333","25.01445","6500400","永和區"
"234026","9371-KE","2017/07/18 19:09:43","新北市永和區安樂路198巷6號","121.515756666667","25.0021066666667","6500400","永和區"
"234011","9373-KE","2017/07/18 19:09:32","新北市永和區保福路二段44巷2弄10號","121.511628333333","25.0118333333333","6500400","永和區"
"249005","172-UM","2017/07/18 19:09:33","新北市八里區中華路三段99巷1號","121.393851666667","25.1385683333333","6502300","八里區"
"249003","593-UM","2017/07/18 19:09:46","新北市八里區博物館路10-1號","121.415026666667","25.1640883333333","6502300","八里區"
"249001","759-BX","2017/07/18 19:09:31","新北市八里區龍米路二段236號","121.431291666667","25.1586866666667","6502300","八里區"
"248016","026-BX","2017/07/18 19:09:30","新北市五股區成泰路三段577巷45號","121.450856666667","25.10307","6501500","五股區"
"248020","225-UY","2017/07/18 19:09:38","新北市五股區凌雲路三段69號","121.425346666667","25.1249966666667","6501500","五股區"
"248012","247-BX","2017/07/17 21:21:30","新北市五股區中興路二段37巷24號","121.460793333333","25.0750116666667","6501500","五股區"
"248010","272-BY","2017/07/18 19:09:34","新北市五股區水碓一路23號","121.43064","25.0712833333333","6501500","五股區"
"248002","678-BX","2017/07/18 19:09:41","新北市五股區凌雲路一段158巷6號","121.447815","25.1030566666667","6501500","五股區"
"248006","682-TV","2017/07/18 19:09:41","新北市蘆洲區中山一路417號","121.46847","25.076545","6501500","五股區"
"234023","9380-KE","2017/07/18 19:09:51","新北市永和區中興街10巷19號","121.515938333333","25.0112383333333","6500400","永和區"
"234077","969-R7","2017/07/18 19:09:47","新北市永和區民權路56號","121.51985","24.99823","6500400","永和區"
"234074","AAC-211","2017/07/18 19:09:47","新北市永和區福和路129號","121.52144","25.0077783333333","6500400","永和區"
"234067","AAC-212","2017/07/18 19:09:46","新北市永和區保平路28號","121.512238333333","25.0073866666667","6500400","永和區"
"234003","AAC-295","2017/07/18 19:09:42","新北市永和區和平街58號","121.512343333333","25.0100566666667","6500400","永和區"
"244013","069-UM","2017/07/18 19:09:36","新北市林口區麗園二街1巷7-3號","121.378326666667","25.070425","6501700","林口區"
"244009","410-SL","2017/07/18 19:09:33","新北市林口區台電新村26號","121.387201666667","25.0861533333333","6501700","林口區"
"244023","483-VK","2017/07/18 19:09:44","新北市林口區文化三路一段617巷185號","121.371245","25.07801","6501700","林口區"
"244025","656-BX","2017/07/18 19:09:49","新北市林口區文化三路一段447巷37號","121.367475","25.0754433333333","6501700","林口區"
"244011","701-TV","2017/07/18 19:09:45","新北市林口區中正路278號","121.389018333333","25.07773","6501700","林口區"
"243013","AAD-798","2017/07/18 19:09:43","新北市泰山區漢口街7號","121.42352","25.0365983333333","6501600","泰山區"
"243009","297-R6","2017/07/18 19:09:44","新北市泰山區文化街42號","121.435205","25.063475","6501600","泰山區"
"243015","380-SR","2017/07/18 19:09:33","新北市泰山區明志路一段350號","121.430945","25.0584916666667","6501600","泰山區"
"243014","421-VK","2017/07/18 19:09:43","新北市泰山區泰林路二段440號","121.426448333333","25.06416","6501600","泰山區"
"243010","548-UM","2017/07/18 19:09:44","新北市泰山區明志路一段485號","121.430891666667","25.0554066666667","6501600","泰山區"
"243011","549-UM","2017/07/18 19:09:38","新北市泰山區明志路二段358號","121.425455","25.0451816666667","6501600","泰山區"
"243012","646-TV","2017/07/18 19:09:42","新北市泰山區辭修路36巷8弄5號","121.427903333333","25.058705","6501600","泰山區"
"243016","680-BX","2017/07/18 19:09:36","新北市泰山區明志路三段1號","121.424871666667","25.0434266666667","6501600","泰山區"
"222003","436-BY","2017/07/18 19:09:28","新北市深坑區深南路156號","121.624001666667","25.0148066666667","6501800","深坑區"
"222001","628-TS","2017/07/18 19:09:44","新北市深坑區北深路一段300號","121.624203333333","25.005745","6501800","深坑區"
"222002","659-BX","2017/07/18 19:09:33","新北市深坑區北深路一段185號","121.632213333333","25.010585","6501800","深坑區"
"231041","002-UM","2017/07/18 19:09:48","新北市新店區中央二街68號","121.526181666667","24.9747016666667","6500600","新店區"
"231056","0293-UT","2017/07/18 19:09:46","新北市新店區二十張路46巷37弄20號","121.536116666667","24.98164","6500600","新店區"
"231059","046-UY","2017/07/18 19:09:47","新北市新店區安和路二段166-4號","121.519338333333","24.9739083333333","6500600","新店區"
"231061","047-UY","2017/07/18 19:09:41","新北市新店區安康路一段76號","121.52828","24.9618983333333","6500600","新店區"
"231060","106-UY","2017/07/18 19:09:37","新北市新店區安康路二段199號","121.509115","24.9590066666667","6500600","新店區"
"231051","107-UY","2017/07/18 19:09:34","新北市新店區中正路382巷16號","121.535265","24.977635","6500600","新店區"
"231048","108-UY","2017/07/18 19:09:29","新北市新店區中正路76巷26號","121.544518333333","24.97131","6500600","新店區"
"231053","187-VK","2017/07/18 19:09:48","新北市新店區自強路90號","121.546393333333","24.92402","6500600","新店區"
"231069","189-VK","2017/07/18 16:47:59","新北市新店區安華路28-1號","121.520088333333","24.9607983333333","6500600","新店區"
"231063","268-BY","2017/07/18 19:09:45","新北市新店區車子路139號","121.505216666667","24.9477583333333","6500600","新店區"
"231046","278-BY","2017/07/18 19:09:39","新北市新店區新潭路一段37號","121.523586666667","24.941655","6500600","新店區"
"231050","AAD-862","2017/07/18 19:09:39","新北市新店區竹林路2巷31號","121.550438333333","24.9502166666667","6500600","新店區"
"231044","355-BY","2017/07/18 19:09:34","新北市新店區寶中路59號","121.547065","24.98034","6500600","新店區"
"231058","3712-VJ","2017/07/18 19:09:43","新北市新店區光明街138巷13弄5號","121.54022","24.9614133333333","6500600","新店區"
"231067","4772-VM","2017/07/18 19:09:42","新北市新店區安康路一段201-1號","121.526175","24.9629583333333","6500600","新店區"
"231065","512-UM","2017/07/18 19:09:41","新北市新店區安祥路145巷12號","121.475131666667","24.9560666666667","6500600","新店區"
"231054","513-UM","2017/07/18 19:09:42","新北市新店區新店路165號","121.537096666667","24.9555516666667","6500600","新店區"
"231064","515-UM","2017/07/18 19:09:47","新北市新店區安忠路65巷1號","121.511456666667","24.957865","6500600","新店區"
"231045","617-UM","2017/07/18 19:09:40","新北市新店區北宜路一段119號","121.540241666667","24.95413","6500600","新店區"
"231040","619-UM","2017/07/18 19:09:37","新北市新店區三民路98-3號","121.533938333333","24.97342","6500600","新店區"
"231042","641-BX","2017/07/18 19:09:44","新北市新店區中興路一段164號","121.54267","24.9641483333333","6500600","新店區"
"231049","719-UM","2017/07/18 19:09:44","新北市新店區二十張路25巷18弄16號","121.539186666667","24.981605","6500600","新店區"
"231062","720-UM","2017/07/18 19:09:32","新北市新店區安康路一段222號","121.523798333333","24.9635883333333","6500600","新店區"
"231043","899-TW","2017/07/18 19:09:41","新北市新店區寶橋路98號","121.546866666667","24.97606","6500600","新店區"
"231066","AKT-0513","2017/07/18 19:09:43","新北市新店區安康路三段359巷12弄4號","121.484466666667","24.94996","6500600","新店區"
"241026","066-VK","2017/07/18 19:09:32","新北市三重區泉州街59號","121.494601666667","25.0546566666667","6500200","三重區"
"241020","413-TH","2017/07/18 19:09:15","新北市三重區忠孝路二段34號","121.48566","25.07082","6500200","三重區"
"241035","462-BY","2017/07/18 19:09:30","新北市三重區重新路四段121號","121.484435","25.0520266666667","6500200","三重區"
"241033","887-TS","2017/07/18 19:09:32","新北市三重區中興北街62號","121.46899","25.0517883333333","6500200","三重區"
"241029","942-UM","2017/07/18 19:09:37","新北市三重區重安街83號","121.492508333333","25.05577","6500200","三重區"
"235066","003-UY","2017/07/18 19:09:46","新北市中和區廣福路8號","121.505826666667","25.00305","6500300","中和區"
"235064","005-UY","2017/07/18 19:09:35","新北市中和區泰和街38巷32號","121.498523333333","25.00134","6500300","中和區"
"235063","006-UY","2017/07/18 19:09:49","新北市中和區連城路319巷3弄3號","121.489301666667","24.9956516666667","6500300","中和區"
"235056","096-UM","2017/07/18 19:09:33","新北市中和區中正路1226號","121.479445","25.0108716666667","6500300","中和區"
"235039","097-UM","2017/07/18 19:09:41","新北市中和區安平路222號","121.514028333333","25.000045","6500300","中和區"
"235065","098-UM","2017/07/18 19:09:47","新北市中和區福祥路158號","121.498535","25.0077","6500300","中和區"
"235040","150-BY","2017/07/18 19:09:42","新北市中和區宜安路32號","121.512773333333","24.996135","6500300","中和區"
"235058","151-BY","2017/07/18 19:09:33","新北市中和區員山路128-1號","121.48111","24.9961433333333","6500300","中和區"
"235055","183-VK","2017/07/18 19:09:49","新北市中和區德光路77巷7號","121.469731666667","25.003605","6500300","中和區"
"235038","185-VK","2017/07/18 19:09:39","新北市中和區自強路50號","121.52016","24.9948966666667","6500300","中和區"
"235049","186-VK","2017/07/18 19:09:35","新北市中和區明禮街12號","121.505005","24.99592","6500300","中和區"
"235067","255-BX","2017/07/18 19:09:37","新北市中和區新生街158號","121.483648333333","25.0003933333333","6500300","中和區"
"235044","293-VK","2017/07/18 19:09:37","新北市中和區復興路280巷33弄12號","121.501366666667","24.9914216666667","6500300","中和區"
"235072","301-VK","2017/07/18 19:09:40","新北市中和區永和路39巷2號","121.498105","25.00495","6500300","中和區"
"235043","352-BY","2017/07/18 19:09:42","新北市中和區景平路116號","121.51942","24.9916116666667","6500300","中和區"
"235051","376-QA","2017/07/18 19:09:49","新北市中和區忠孝街31巷25-6號","121.509985","24.9839983333333","6500300","中和區"
"235068","377-QA","2017/07/18 19:09:44","新北市中和區圓通路162巷37弄1號","121.496393333333","24.9954666666667","6500300","中和區"
"235061","378-QA","2017/07/18 19:09:45","新北市中和區中山路三段63巷11弄4號","121.477341666667","25.00415","6500300","中和區"
"235050","4979-A6","2017/07/18 19:09:36","新北市中和區復興路73-2號","121.503628333333","24.9901016666667","6500300","中和區"
"235069","4980-A6","2017/07/18 19:09:30","新北市中和區中山路二段166號","121.501463333333","25.0027866666667","6500300","中和區"
"235042","551-UM","2017/07/18 19:09:47","新北市中和區自立路117巷1號","121.522326666667","24.9945066666667","6500300","中和區"
"235045","565-BX","2017/07/18 19:09:49","新北市中和區景新街467巷20弄84號","121.514496666667","24.987595","6500300","中和區"
"235070","611-BX","2017/07/18 19:09:41","新北市中和區安和路189號","121.50612","24.9981083333333","6500300","中和區"
"235054","640-BX","2017/07/18 19:09:41","新北市中和區國光街6巷2號","121.471995","25.0003066666667","6500300","中和區"
"235060","647-TV","2017/07/18 19:09:32","新北市中和區民治街7巷2號","121.475095","25.0046033333333","6500300","中和區"
"235047","732-UM","2017/07/18 19:09:43","新北市中和區興南路一段113號","121.509066666667","24.9879166666667","6500300","中和區"
"235046","733-UM","2017/07/18 19:09:49","新北市中和區忠孝街1巷68號","121.508386666667","24.98457","6500300","中和區"
"235071","783-BX","2017/07/18 19:09:37","新北市中和區員山路72號","121.480928333333","24.9935966666667","6500300","中和區"
"235062","800-TS","2017/07/18 19:09:45","新北市中和區中山路二段526巷19號","121.485795","25.00561","6500300","中和區"
"235057","801-TS","2017/07/18 19:09:34","新北市中和區民利街89號","121.478025","24.9980516666667","6500300","中和區"
"235041","802-TS","2017/07/18 19:09:39","新北市中和區中安街178巷3弄5-2號","121.51104","24.9989266666667","6500300","中和區"
"235052","805-TS","2017/07/18 19:09:47","新北市中和區興南路二段142巷19弄6號","121.502856666667","24.9834783333333","6500300","中和區"
"235048","896-TW","2017/07/18 19:09:44","新北市中和區華新街133號","121.50666","24.9817766666667","6500300","中和區"
"235053","900-TW","2017/07/18 19:09:33","新北市板橋區五權街1-8號","121.463773333333","24.9949816666667","6500300","中和區"
"235037","AAC-213","2017/07/18 19:09:47","新北市中和區自立路99巷34號","121.523873333333","24.994555","6500300","中和區"
"235059","AAC-215","2017/07/18 19:09:32","新北市中和區圓通路294巷15號","121.4888","24.9901616666667","6500300","中和區"
"220068","013-TV","2017/07/18 19:09:45","新北市板橋區三民路一段1巷13號","121.479665","25.02434","6500100","板橋區"
"220065","072-UY","2017/07/18 19:09:40","新北市板橋區民族路247巷3弄19號","121.469848333333","25.0076266666667","6500100","板橋區"
"220086","073-UY","2017/07/18 19:09:37","新北市板橋區中正路250巷81號","121.458853333333","25.0198916666667","6500100","板橋區"
"220106","075-UY","2017/07/18 19:09:46","新北市板橋區文化路二段317號","121.472231666667","25.029815","6500100","板橋區"
"247006","341-TH","2017/07/18 18:58:36","新北市五股區中興路三段2巷10號","121.44872","25.0813866666667","6501400","蘆洲區"
"247002","336-TH","2017/07/18 19:09:44","新北市五股區中興路三段163號","121.449311666667","25.0809233333333","6501400","蘆洲區"
"247014","057-VK","2017/07/18 19:09:38","新北市五股區成洲五路38號","121.453341666667","25.101585","6501400","蘆洲區"
"247004","056-VK","2017/07/18 19:09:45","新北市五股區中興路三段190-2號","121.443433333333","25.08151","6501400","蘆洲區"
"226004","312-R5","2017/07/18 19:09:46","新北市平溪區靜安路三段260號","121.776151666667","25.04032","6502400","平溪區"
"228001","212-TW","2017/07/18 19:09:41","新北市貢寮區真理里新港街10號","121.925511666667","25.0543583333333","6502600","貢寮區"
"228002","663-BX","2017/07/18 19:09:48","新北市貢寮區福隆里福隆街36號","121.945131666667","25.0174533333333","6502600","貢寮區"
"228003","828-UM","2017/07/18 19:09:46","新北市貢寮區和美里和美街34號","121.913651666667","25.0836816666667","6502600","貢寮區"
"224006","676-BX","2017/07/18 19:09:40","新北市瑞芳區三爪子坑路106巷1-11號","121.808018333333","25.105125","6501200","瑞芳區"
"224009","285-BY","2017/07/18 19:09:42","新北市瑞芳區長仁路35-1號","121.866138333333","25.1176483333333","6501200","瑞芳區"
"224008","275-VK","2017/07/18 19:09:46","新北市瑞芳區明燈路三段225號","121.800421666667","25.1111316666667","6501200","瑞芳區"
"224005","271-BY","2017/07/18 19:09:36","新北市瑞芳區逢甲路84號","121.80969","25.10894","6501200","瑞芳區"
"227009","642-TC","2017/07/18 19:09:40","新北市雙溪區牡丹里中正路50號","121.865116666667","25.0391616666667","6502500","雙溪區"
"227003","400-TW","2017/07/18 19:09:30","新北市雙溪區平林里外平林8號","121.859636666667","25.0381516666667","6502500","雙溪區"
"253006","032-BX","2017/07/18 19:09:39","新北市石門區八甲1-9號","121.521211666667","25.2837966666667","6502200","石門區"
"253005","741-TV","2017/07/18 19:09:45","新北市石門區小坑14-3號","121.601101666667","25.2868833333333","6502200","石門區"
"208003","665-BX","2017/07/18 19:09:37","新北市金山區中山路224號","121.637243333333","25.22208","6502700","金山區"
"208001","761-BX","2017/07/18 19:09:40","新北市金山區福德街14號","121.63927","25.22173","6502700","金山區"
"251014","180-VK","2017/07/18 19:09:34","新北市淡水區小中寮19-1號","121.483865","25.2291283333333","6501000","淡水區"
"251010","413-VK","2017/07/18 19:09:37","新北市淡水區中正路一段156巷3號","121.421063333333","25.1803183333333","6501000","淡水區"
"251016","442-VK","2017/07/18 19:09:33","新北市淡水區淡金路三段36號","121.448116666667","25.1991983333333","6501000","淡水區"
"251005","443-VK","2017/07/18 19:09:33","新北市淡水區中山路130-1號","121.441696666667","25.1711233333333","6501000","淡水區"
"251001","559-UM","2017/07/18 19:09:39","新北市淡水區自強路201巷39號","121.462093333333","25.126845","6501000","淡水區"
"251009","575-R6","2017/07/18 19:09:44","新北市淡水區清水街136號","121.441458333333","25.170205","6501000","淡水區"
"251007","577-R6","2017/07/18 19:09:47","新北市淡水區民生路117巷10號","121.464958333333","25.1390316666667","6501000","淡水區"
"251011","650-BX","2017/07/18 19:09:46","新北市淡水區中正東路二段143巷2弄1號","121.460748333333","25.1474166666667","6501000","淡水區"
"251002","672-BX","2017/07/18 19:09:35","新北市淡水區中山路93號","121.442351666667","25.1705483333333","6501000","淡水區"
"251003","766-UM","2017/07/18 19:09:37","新北市淡水區中山北路一段66號","121.442093333333","25.1757566666667","6501000","淡水區"
"207003","550-UM","2017/07/18 19:09:39","新北市萬里區大鵬里萬里加投29號","121.647643333333","25.2064183333333","6502800","萬里區"
"207004","225-TW","2017/07/18 19:09:44","新北市萬里區萬里里瑪鋉下街46-1號","121.691521666667","25.1793133333333","6502800","萬里區"
"252002","178-VK","2017/07/18 19:09:38","新北市三芝區淡金路二段15號","121.502566666667","25.2592166666667","6502100","三芝區"
"252003","249-BX","2017/07/18 19:09:42","新北市三芝區古庄里四棧橋38-1號","121.48347","25.2629966666667","6502100","三芝區"
"252001","702-TV","2017/07/18 19:09:40","新北市三芝區長勤街45巷2號","121.500336666667","25.255065","6502100","三芝區"
"252005","AAC-283","2017/07/18 15:54:34","新北市三芝區埔坪里埔頭坑41號","121.50453","25.2644316666667","6502100","三芝區"
"208002","170-UY","2017/07/18 19:06:36","新北市金山區仁愛路67巷16號","121.63437","25.2208233333333","6502700","金山區"
"237004","078-UY","2017/07/18 19:09:32","新北市三峽區有木205-1號","121.439015","24.8514866666667","6500900","三峽區"
"237007","153-BY","2017/07/18 19:09:43","新北市三峽區中正路二段42巷12-1號","121.364238333333","24.92067","6500900","三峽區"
"237009","210-TH","2017/07/18 19:09:39","新北市三峽區文化路78號","121.372001666667","24.9362316666667","6500900","三峽區"
"237013","252-BX","2017/07/18 19:09:41","新北市三峽區大同路52號","121.377031666667","24.9290483333333","6500900","三峽區"
"237012","275-BY","2017/07/18 19:09:39","新北市三峽區三樹路222巷254弄42號","121.392491666667","24.9441316666667","6500900","三峽區"
"237008","302-VK","2017/07/18 19:09:43","新北市三峽區大同路174巷16號","121.372753333333","24.9274133333333","6500900","三峽區"
"237014","433-BY","2017/07/18 19:09:45","新北市三峽區中山路277巷15號","121.361728333333","24.9368933333333","6500900","三峽區"
"237006","5529-G3","2017/07/18 19:09:37","新北市三峽區橫溪路96號","121.397916666667","24.9354483333333","6500900","三峽區"
"237011","572-TV","2017/07/18 19:07:54","新北市三峽區中正路一段100號","121.374261666667","24.929655","6500900","三峽區"
"237016","649-BX","2017/07/18 19:09:36","新北市三峽區安坑60號","121.464675","24.9312483333333","6500900","三峽區"
"237010","706-TV","2017/07/18 19:00:20","新北市三峽區民生街28號","121.37576","24.93668","6500900","三峽區"
"237005","AKY-6261","2017/07/18 19:09:36","新北市三峽區中山路459巷163-3號","121.348645","24.9329166666667","6500900","三峽區"
"236070","105-UM","2017/07/18 19:09:42","新北市土城區明德路二段221號","121.446021666667","24.9838833333333","6501300","土城區"
"236043","107-UM","2017/07/18 19:09:37","新北市土城區學府路一段276號","121.449878333333","24.9829866666667","6501300","土城區"
"236079","166-UM","2017/07/18 19:09:43","新北市土城區龍泉路23-3號","121.412066666667","24.9460033333333","6501300","土城區"
"236031","253-BX","2017/07/18 19:09:49","新北市土城區城林路6巷80號","121.438148333333","24.9798633333333","6501300","土城區"
"236027","269-VK","2017/07/18 19:09:42","新北市土城區中正路69號","121.444608333333","24.975635","6501300","土城區"
"236015","270-VK","2017/07/18 19:09:45","新北市土城區學府路一段75巷16弄2號","121.457225","24.9876533333333","6501300","土城區"
"236038","271-VK","2017/07/18 19:09:34","新北市土城區仁愛路4號","121.459785","24.9812133333333","6501300","土城區"
"236023","401-BY","2017/07/18 19:09:38","新北市土城區延峰街32巷2號","121.469328333333","24.985065","6501300","土城區"
"236059","912-UM","2017/07/18 19:09:37","新北市土城區金城路二段234號","121.456605","24.98308","6501300","土城區"
"236049","913-UM","2017/07/18 19:09:29","新北市土城區明德路一段398-1號","121.453643333333","24.9790883333333","6501300","土城區"
"236063","915-UM","2017/07/18 19:09:43","新北市土城區金城路三段93巷24號","121.466751666667","24.9885983333333","6501300","土城區"
"236055","AAC-216","2017/07/18 19:09:31","新北市土城區學府路一段165號","121.453011666667","24.985745","6501300","土城區"
"242002","413-TV","2017/07/18 19:09:41","新北市新莊區新泰路357巷3弄57號","121.442096666667","25.03956","6500500","新莊區"
"238023","601-UM","2017/07/18 19:09:40","新北市樹林區大慶街55號","121.396146666667","25.0139166666667","6500700","樹林區"
"238006","599-UM","2017/07/18 19:09:49","新北市樹林區東榮街65號","121.417163333333","24.9830866666667","6500700","樹林區"
"238018","571-TV","2017/07/18 19:09:45","新北市樹林區大同街10巷8號","121.418558333333","24.983295","6500700","樹林區"
"238022","312-TH","2017/07/18 19:09:49","新北市樹林區中山路二段151巷8弄17號","121.40626","24.9776916666667","6500700","樹林區"
"238021","311-TH","2017/07/18 18:57:32","新北市樹林區西圳街2段30-1號","121.388776666667","24.9622116666667","6500700","樹林區"
"238025","303-VK","2017/07/18 19:09:38","新北市樹林區中山路三段311號","121.391138333333","24.971655","6500700","樹林區"
"238017","283-BY","2017/07/18 19:09:31","新北市樹林區光興街50號","121.409851666667","25.0027283333333","6500700","樹林區"
"238014","282-BY","2017/07/18 19:09:13","新北市樹林區千歲街104巷12號","121.427015","24.9978566666667","6500700","樹林區"
"238020","268-VK","2017/07/18 19:09:39","新北市樹林區俊英街180號","121.426123333333","25.0076366666667","6500700","樹林區"
"238026","172-UY","2017/07/18 19:09:49","新北市樹林區佳園路一段41巷1號","121.393526666667","24.9708916666667","6500700","樹林區"
"238016","169-UY","2017/07/18 19:09:34","新北市樹林區復興路335巷6弄18號","121.417723333333","24.98713","6500700","樹林區"
"239007","AAC-297","2017/07/18 19:09:36","新北市鶯歌區大湖路余厝巷11號","121.341928333333","24.9612883333333","6500800","鶯歌區"
"239006","891-R6","2017/07/18 19:09:48","新北市鶯歌區鶯桃路67巷3號","121.34099","24.9526083333333","6500800","鶯歌區"
"239008","527-UM","2017/07/18 19:09:37","新北市鶯歌區國際二路2巷2號","121.338938333333","24.9729316666667","6500800","鶯歌區"
"239005","526-UM","2017/07/18 19:09:42","新北市鶯歌區東湖路19-2號","121.357151666667","24.972735","6500800","鶯歌區"
"239001","417-VK","2017/07/18 19:09:48","新北市鶯歌區鶯桃路95巷75號","121.337145","24.9527966666667","6500800","鶯歌區"
"239003","360-BY","2017/07/18 19:09:38","新北市鶯歌區鶯桃路298號","121.33404","24.961505","6500800","鶯歌區"
"239002","359-BY","2017/07/18 19:09:30","新北市鶯歌區湖山路56巷2號","121.339523333333","24.97542","6500800","鶯歌區"
"239004","193-VK","2017/07/18 19:09:32","新北市鶯歌區二橋新村18號","121.329011666667","24.93456","6500800","鶯歌區"
"221008","489-VK","2017/07/18 19:09:48","新北市汐止區康寧街426號","121.630778333333","25.0681416666667","6501100","汐止區"
"221036","130-UY","2017/07/18 19:09:42","新北市汐止區汐萬路一段24號","121.65577","25.0679133333333","6501100","汐止區"
"221015","131-UY","2017/07/18 19:09:31","新北市汐止區康寧街901號","121.651016666667","25.0751433333333","6501100","汐止區"
"221010","269-BY","2017/07/18 19:09:36","新北市汐止區康寧街901號","121.651535","25.075035","6501100","汐止區"
"221031","277-VK","2017/07/18 19:09:29","新北市汐止區中興路181巷1號","121.630153333333","25.0667883333333","6501100","汐止區"
"221012","278-VK","2017/07/18 18:42:20","新北市汐止區長江街194號","121.660361666667","25.0766616666667","6501100","汐止區"
"221023","279-VK","2017/07/18 14:31:11","台北市文山區老泉街45巷18-1號","121.576163333333","24.97623","6501100","汐止區"
"221027","281-BY","2017/07/18 19:05:26","新北市汐止區康寧街901號","121.650885","25.075215","6501100","汐止區"
"221038","297-VK","2017/07/18 19:09:50","新北市汐止區汐萬路一段312號","121.650696666667","25.0753016666667","6501100","汐止區"
"221029","298-VK","2017/07/18 19:09:44","新北市汐止區汐萬路一段256巷3號","121.652556666667","25.0745716666667","6501100","汐止區"
"221021","299-VK","2017/07/18 19:00:39","新北市汐止區汐萬路一段312號","121.649793333333","25.0745816666667","6501100","汐止區"
"221025","623-UM","2017/07/18 19:09:48","新北市汐止區康寧街901號","121.651476666667","25.074965","6501100","汐止區"
"221033","647-BX","2017/07/18 19:09:36","新北市汐止區南勢街1巷1號","121.62709","25.0374633333333","6501100","汐止區"
"221002","707-TV","2017/07/18 19:09:43","新北市汐止區大同路一段89-3號","121.624465","25.0546116666667","6501100","汐止區"
"220079","145-BY","2017/07/18 19:09:46","新北市板橋區民權路260巷14號","121.458285","25.0153516666667","6500100","板橋區"
"220093","146-RM","2017/07/18 19:09:41","新北市板橋區民生路三段307號","121.463791666667","25.0309","6500100","板橋區"
"220080","200-UY","2017/07/18 19:09:35","新北市板橋區大觀路二段265巷60弄1號","121.442805","24.99781","6500100","板橋區"
"220082","610-BX","2017/07/18 19:09:43","新北市板橋區溪崑二街11-3號","121.42903","24.9918166666667","6500100","板橋區"
"220101","245-BX","2017/07/18 19:09:45","新北市板橋區民生路二段226巷46號","121.47154","25.0223183333333","6500100","板橋區"
"220069","258-TC","2017/07/18 19:09:40","新北市板橋區華興街76號","121.457115","25.0050866666667","6500100","板橋區"
"220056","276-BY","2017/07/18 19:09:33","新北市板橋區信義路74巷1弄15號","121.45761","24.9927516666667","6500100","板橋區"
"220072","277-BY","2017/07/18 19:09:43","新北市板橋區金門街369巷57弄13號","121.429521666667","24.9840483333333","6500100","板橋區"
"220064","280-UM","2017/07/18 19:09:31","新北市板橋區板新路66號","121.473265","25.0140216666667","6500100","板橋區"
"220071","283-VK","2017/07/18 19:09:50","新北市板橋區重慶路223巷11號","121.463216666667","25.001525","6500100","板橋區"
"220094","285-UM","2017/07/18 19:09:37","新北市板橋區光武街108-5號","121.465821666667","25.0291916666667","6500100","板橋區"
"220053","285-VK","2017/07/18 19:09:37","新北市板橋區懷仁街35巷2弄4號","121.476835","25.019525","6500100","板橋區"
"220083","286-VK","2017/07/18 19:09:48","新北市板橋區龍興街101巷6號","121.444161666667","25.00327","6500100","板橋區"
"220081","287-VK","2017/07/18 19:09:33","新北市板橋區光華街37巷28號","121.453021666667","25.0127216666667","6500100","板橋區"
"220090","288-VK","2017/07/18 19:09:50","新北市板橋區裕民街35號","121.461676666667","25.0287416666667","6500100","板橋區"
"220061","293-UM","2017/07/18 19:09:43","新北市板橋區懷仁街89號","121.47759","25.0182766666667","6500100","板橋區"
"220084","296-UM","2017/07/18 19:09:36","新北市板橋區篤行路二段90巷10號","121.431096666667","24.9918566666667","6500100","板橋區"
"220075","297-UM","2017/07/18 19:09:45","新北市板橋區南雅南路一段1巷25號","121.457278333333","25.0066516666667","6500100","板橋區"
"220062","303-R5","2017/07/18 19:09:45","新北市板橋區三民路二段245巷4弄8號","121.481003333333","25.011965","6500100","板橋區"
"220092","307-R5","2017/07/18 19:09:24","新北市板橋區文化路二段225巷60弄20號","121.469206666667","25.0289616666667","6500100","板橋區"
"220098","317-R6","2017/07/18 19:09:31","新北市板橋區自由路51巷14弄7號","121.464585","25.023715","6500100","板橋區"
"220089","487-VK","2017/07/18 19:09:32","新北市板橋區文化路二段503號","121.476103333333","25.0345866666667","6500100","板橋區"
"220088","491-VK","2017/07/18 19:09:50","新北市板橋區文化路二段182巷3弄12號","121.471746666667","25.0275433333333","6500100","板橋區"
"220035","560-BX","2017/07/18 19:09:50","新北市板橋區中正路407號","121.454118333333","25.02234","6500100","板橋區"
"220103","561-BX","2017/07/18 19:09:43","新北市板橋區文化路一段188巷9弄31號","121.468905","25.0193233333333","6500100","板橋區"
"220063","609-BX","2017/07/18 19:09:45","新北市板橋區三民路二段142號","121.479061666667","25.0157316666667","6500100","板橋區"
"220091","637-BX","2017/07/18 19:09:40","新北市板橋區縣民大道247巷80號","121.482123333333","25.0269616666667","6500100","板橋區"
"220057","686-BX","2017/07/18 19:09:29","新北市板橋區重慶路91號","121.462028333333","25.0059766666667","6500100","板橋區"
"220077","687-BX","2017/07/18 19:09:29","新北市板橋區大觀路二段115號","121.446018333333","25.0015366666667","6500100","板橋區"
"220054","741-BX","2017/07/18 19:09:39","新北市板橋區重慶路93巷20號","121.462888333333","25.00584","6500100","板橋區"
"220055","827-TW","2017/07/18 19:09:42","新北市板橋區中山路一段120號","121.463178333333","25.0106133333333","6500100","板橋區"
"220067","829-TW","2017/07/18 19:09:46","新北市板橋區中山路二段90巷43弄6號","121.476618333333","25.0148283333333","6500100","板橋區"
"220102","830-TW","2017/07/18 19:09:45","新北市板橋區萬板路818巷3弄1號","121.482956666667","25.0274666666667","6500100","板橋區"
"220096","831-TW","2017/07/18 19:09:49","新北市板橋區雙十路二段47巷6號","121.476065","25.0261833333333","6500100","板橋區"
"220074","895-R6","2017/07/18 19:09:40","新北市板橋區林園街6號","121.454056666667","25.0094083333333","6500100","板橋區"
"220073","985-R7","2017/07/18 19:09:33","新北市板橋區中正路187號","121.456466666667","25.0168766666667","6500100","板橋區"
"220097","AAC-210","2017/07/18 19:09:35","新北市板橋區英士路199號","121.458861666667","25.0235783333333","6500100","板橋區"
"220070","AAC-253","2017/07/18 19:09:33","新北市板橋區四川路一段475號","121.457195","24.9974283333333","6500100","板橋區"
