"lineid","car","time","location","longitude","latitude","cityid","cityname"
"234046","148-BY","2017/07/18 19:29:33","新北市永和區得和路326號","121.523211666667","24.9995866666667","6500400","永和區"
"234013","149-BY","2017/07/18 19:29:35","新北市永和區中山路一段147號","121.510203333333","25.0096983333333","6500400","永和區"
"234007","207-UY","2017/07/18 19:29:40","新北市永和區永和路一段63號","121.513131666667","25.00702","6500400","永和區"
"234081","298-R6","2017/07/18 19:29:34","新北市永和區環河東路三段54號","121.526843333333","25.0062366666667","6500400","永和區"
"234038","336-UY","2017/07/18 19:29:25","新北市永和區成功路一段125巷6號","121.527268333333","25.00191","6500400","永和區"
"234064","337-UY","2017/07/18 19:29:40","新北市永和區中正路368巷1弄88號","121.520473333333","25.00074","6500400","永和區"
"234086","338-UY","2017/07/18 19:29:40","新北市永和區林森路74號","121.523748333333","25.0039016666667","6500400","永和區"
"234070","552-UM","2017/07/18 19:29:42","新北市永和區中興街1號","121.515356666667","25.0122316666667","6500400","永和區"
"234054","553-UM","2017/07/18 19:29:39","新北市永和區復興街19巷5號","121.516043333333","25.01308","6500400","永和區"
"234017","745-BX","2017/07/18 19:29:44","新北市永和區環河西路一段1號","121.515221666667","25.01796","6500400","永和區"
"234030","746-BX","2017/07/18 19:29:45","新北市永和區四維街103巷2號","121.523898333333","24.9979583333333","6500400","永和區"
"234061","AAD-866","2017/07/18 19:29:18","新北市永和區永貞路125號","121.516911666667","25.0042283333333","6500400","永和區"
"234042","862-TW","2017/07/18 19:29:36","新北市永和區水源街39巷30號","121.510785","25.0030433333333","6500400","永和區"
"234050","863-TW","2017/07/18 19:29:35","新北市永和區保福路二段78號","121.510568333333","25.0132983333333","6500400","永和區"
"234026","9371-KE","2017/07/18 19:29:43","新北市中和區中安街80號","121.512175","25.0017316666667","6500400","永和區"
"249005","172-UM","2017/07/18 19:29:33","新北市八里區中華路163號","121.39234","25.1305383333333","6502300","八里區"
"249003","593-UM","2017/07/18 19:29:26","新北市八里區商港六路11號","121.396813333333","25.1483716666667","6502300","八里區"
"248008","095-VK","2017/07/18 19:29:27","新北市五股區中興路一段95巷20號","121.466518333333","25.0722333333333","6501500","五股區"
"248020","225-UY","2017/07/18 19:29:38","新北市五股區凌雲路三段41-1號","121.430703333333","25.1174116666667","6501500","五股區"
"248012","247-BX","2017/07/17 21:21:30","新北市五股區中興路二段37巷24號","121.460793333333","25.0750116666667","6501500","五股區"
"248014","261-SL","2017/07/18 19:29:33","新北市五股區民義路一段163-2號","121.43206","25.0878033333333","6501500","五股區"
"248010","272-BY","2017/07/18 19:29:34","新北市五股區水碓一路25號","121.430718333333","25.07139","6501500","五股區"
"248002","678-BX","2017/07/18 19:29:41","新北市五股區凌雲路一段158巷6號","121.447801666667","25.1031133333333","6501500","五股區"
"234023","9380-KE","2017/07/18 19:29:30","新北市永和區竹林路91巷41號","121.521198333333","25.0127333333333","6500400","永和區"
"234077","969-R7","2017/07/18 19:29:27","新北市永和區民權路58巷3號","121.519593333333","24.9982966666667","6500400","永和區"
"234074","AAC-211","2017/07/18 19:29:26","新北市永和區竹林路30-1號","121.51702","25.0146733333333","6500400","永和區"
"234067","AAC-212","2017/07/18 19:29:33","新北市永和區保平路174巷19號","121.510118333333","25.007535","6500400","永和區"
"234003","AAC-295","2017/07/18 19:29:42","新北市永和區福和路372號","121.514406666667","25.00769","6500400","永和區"
"244023","483-VK","2017/07/18 19:29:44","新北市林口區文化北路二段8號","121.36953","25.081395","6501700","林口區"
"244025","656-BX","2017/07/18 19:28:49","新北市林口區嘉寶里11鄰67號","121.33895","25.1105916666667","6501700","林口區"
"244011","701-TV","2017/07/18 19:29:45","新北市林口區中山路250號","121.386081666667","25.0794416666667","6501700","林口區"
"243013","AAD-798","2017/07/18 19:29:43","新北市泰山區明志路三段145巷61號","121.427341666667","25.039105","6501600","泰山區"
"243009","297-R6","2017/07/18 19:29:44","新北市泰山區美寧街60號","121.43094","25.064725","6501600","泰山區"
"243015","380-SR","2017/07/18 19:29:32","新北市泰山區公園路7號","121.42962","25.0540583333333","6501600","泰山區"
"243014","421-VK","2017/07/18 19:29:43","新北市泰山區中港西路422號","121.433738333333","25.0539666666667","6501600","泰山區"
"243010","548-UM","2017/07/18 19:29:42","新北市泰山區民權街35號","121.429125","25.0508866666667","6501600","泰山區"
"243011","549-UM","2017/07/18 19:29:38","新北市泰山區貴子路67巷10號","121.430976666667","25.0407266666667","6501600","泰山區"
"243012","646-TV","2017/07/18 19:29:42","新北市泰山區仁武街31號","121.432798333333","25.054355","6501600","泰山區"
"243016","680-BX","2017/07/18 19:29:36","新北市泰山區明志路三段352巷10號","121.421246666667","25.0356766666667","6501600","泰山區"
"222003","436-BY","2017/07/18 19:29:27","新北市深坑區深南路88巷1號","121.620948333333","25.0116766666667","6501800","深坑區"
"222001","628-TS","2017/07/18 19:29:44","新北市深坑區深坑街10號","121.615828333333","25.0028233333333","6501800","深坑區"
"222002","659-BX","2017/07/18 19:29:33","新北市深坑區北深路一段177號","121.63254","25.0109133333333","6501800","深坑區"
"231041","002-UM","2017/07/18 19:29:31","新北市新店區中正路568號","121.53384","24.9877616666667","6500600","新店區"
"231059","046-UY","2017/07/18 19:29:39","新北市新店區永平街89號","121.51643","24.9856533333333","6500600","新店區"
"231061","047-UY","2017/07/18 19:29:41","新北市新店區安民街34號","121.515805","24.9651966666667","6500600","新店區"
"231060","106-UY","2017/07/18 19:29:37","新北市新店區安康路二段1-1號","121.516523333333","24.96372","6500600","新店區"
"231051","107-UY","2017/07/18 19:29:34","新北市新店區中央五街22-1號","121.529251666667","24.974535","6500600","新店區"
"231048","108-UY","2017/07/18 19:29:29","新北市新店區中興路一段264號","121.544685","24.9672016666667","6500600","新店區"
"231053","187-VK","2017/07/18 19:29:28","新北市新店區廣興路7-2號","121.54615","24.9121","6500600","新店區"
"231069","189-VK","2017/07/18 16:47:59","新北市新店區安華路28-1號","121.520088333333","24.9607983333333","6500600","新店區"
"231057","256-BX","2017/07/18 19:29:41","新北市新店區花園一路二段11-7號","121.550696666667","24.9334583333333","6500600","新店區"
"231063","268-BY","2017/07/18 19:29:25","新北市新店區達觀路16號","121.503153333333","24.9407783333333","6500600","新店區"
"231046","278-BY","2017/07/18 19:29:39","新北市新店區環河路29巷1-1號","121.535893333333","24.96105","6500600","新店區"
"231050","AAD-862","2017/07/18 19:28:39","新北市新店區秀水路5號","121.554918333333","24.9543766666667","6500600","新店區"
"231044","355-BY","2017/07/18 19:29:31","新北市新店區中興路三段201號","121.543758333333","24.9815733333333","6500600","新店區"
"231058","3712-VJ","2017/07/18 19:29:43","新北市新店區北新路二段228巷2號","121.543336666667","24.9771666666667","6500600","新店區"
"231067","4772-VM","2017/07/18 19:29:33","新北市新店區安康路二段414巷2號","121.496036666667","24.9577933333333","6500600","新店區"
"231065","512-UM","2017/07/18 19:29:41","新北市新店區安祥路109巷1弄69號","121.478383333333","24.9607283333333","6500600","新店區"
"231054","513-UM","2017/07/18 19:29:42","新北市新店區文中路51號","121.539836666667","24.9565883333333","6500600","新店區"
"231064","515-UM","2017/07/18 19:29:44","新北市新店區安康路二段85巷13號","121.51382","24.9621166666667","6500600","新店區"
"231045","617-UM","2017/07/18 19:29:40","新北市新店區北宜路二段209號","121.553186666667","24.9533466666667","6500600","新店區"
"231040","619-UM","2017/07/18 19:29:37","新北市新店區北新路一段42號","121.541","24.9661233333333","6500600","新店區"
"231042","641-BX","2017/07/18 19:29:44","新北市新店區光明街138巷22號","121.540325","24.9608933333333","6500600","新店區"
"231049","719-UM","2017/07/18 19:29:44","新北市新店區二十張路1巷3弄3號","121.540666666667","24.9821583333333","6500600","新店區"
"231062","720-UM","2017/07/18 19:29:32","新北市新店區安康路一段35號","121.531565","24.960795","6500600","新店區"
"231043","899-TW","2017/07/18 19:29:41","新北市新店區北新路二段187-1號","121.542845","24.977795","6500600","新店區"
"231066","AKT-0513","2017/07/18 19:29:22","新北市新店區安康路三段179-1號","121.488358333333","24.951805","6500600","新店區"
"241028","022-UY","2017/07/18 19:29:29","新北市三重區中寮街78號","121.493108333333","25.0581516666667","6500200","三重區"
"241009","060-VK","2017/07/18 19:29:25","新北市三重區仁美街121號","121.485791666667","25.081315","6500200","三重區"
"241031","061-VK","2017/07/18 19:29:26","新北市三重區集美街65-3號","121.488485","25.0541066666667","6500200","三重區"
"241017","063-VK","2017/07/18 19:29:29","新北市三重區新北大道一段6號","121.488885","25.0613333333333","6500200","三重區"
"241026","066-VK","2017/07/18 19:29:32","新北市三重區文化南路47巷53號","121.498868333333","25.0610633333333","6500200","三重區"
"241022","267-UM","2017/07/18 19:29:40","新北市三重區三民街163-1號","121.483443333333","25.064785","6500200","三重區"
"241032","269-UM","2017/07/18 19:29:37","新北市三重區三陽路64號","121.48396","25.0587666666667","6500200","三重區"
"241013","270-UM","2017/07/18 19:29:39","新北市三重區仁愛街118號","121.495255","25.0744783333333","6500200","三重區"
"241025","271-UM","2017/07/18 19:29:32","新北市三重區頂崁街210巷12弄10號","121.475831666667","25.06724","6500200","三重區"
"241007","398-BY","2017/07/18 19:29:29","新北市三重區溪尾街154號","121.488911666667","25.08003","6500200","三重區"
"241008","412-TH","2017/07/18 19:29:36","新北市三重區永福街135巷32弄2號","121.477136666667","25.0769133333333","6500200","三重區"
"241020","413-TH","2017/07/18 19:29:35","新北市三重區三和路四段44巷13號","121.489811666667","25.0743066666667","6500200","三重區"
"241035","462-BY","2017/07/18 19:29:30","新北市三重區信義西街1巷3號","121.49798","25.0649316666667","6500200","三重區"
"241030","480-VK","2017/07/18 19:29:23","新北市三重區成功路41巷3號","121.490203333333","25.0514166666667","6500200","三重區"
"241023","545-UM","2017/07/18 19:29:36","新北市三重區頂崁街99號","121.478021666667","25.0638083333333","6500200","三重區"
"241006","AAD-863","2017/07/18 19:29:37","新北市三重區三和路四段111-2號","121.485735","25.0773966666667","6500200","三重區"
"241033","887-TS","2017/07/18 19:29:32","新北市三重區五谷王南街46巷13號","121.474945","25.045035","6500200","三重區"
"241029","942-UM","2017/07/18 19:29:37","新北市三重區中正南路216號","121.493691666667","25.0550566666667","6500200","三重區"
"235066","003-UY","2017/07/18 19:29:41","新北市中和區中和路136號","121.503493333333","24.9993483333333","6500300","中和區"
"235064","005-UY","2017/07/18 19:29:35","新北市中和區南山路81巷50號","121.50375","24.998325","6500300","中和區"
"235063","006-UY","2017/07/18 19:29:29","新北市中和區連城路249巷5號","121.493686666667","24.9967766666667","6500300","中和區"
"235056","096-UM","2017/07/18 19:29:34","新北市中和區員山路533號","121.47967","25.0070383333333","6500300","中和區"
"235039","097-UM","2017/07/18 19:29:41","新北市中和區秀峰街52號","121.521093333333","24.99032","6500300","中和區"
"235065","098-UM","2017/07/18 19:29:41","新北市中和區中山路二段64巷8號","121.50359","25.00507","6500300","中和區"
"235040","150-BY","2017/07/18 19:29:42","新北市中和區保健路46巷26弄2號","121.508521666667","24.9955133333333","6500300","中和區"
"235058","151-BY","2017/07/18 19:29:32","新北市中和區員山路36巷16-2號","121.485165","24.99159","6500300","中和區"
"235055","183-VK","2017/07/18 19:29:33","新北市中和區莒光路84巷22號","121.471713333333","25.0021283333333","6500300","中和區"
"235038","185-VK","2017/07/18 19:29:39","新北市中和區大仁街20巷48號","121.519943333333","24.9933833333333","6500300","中和區"
"235049","186-VK","2017/07/18 19:29:35","新北市中和區安和路19號","121.5109","24.9937633333333","6500300","中和區"
"235067","255-BX","2017/07/18 19:29:37","新北市中和區民樂路65號","121.483805","25.0013433333333","6500300","中和區"
"235044","293-VK","2017/07/18 19:29:37","新北市中和區中興街266巷2號","121.498523333333","24.9875116666667","6500300","中和區"
"235072","301-VK","2017/07/18 19:29:40","新北市中和區連城路263巷8弄7號","121.491781666667","24.99519","6500300","中和區"
"235043","352-BY","2017/07/18 19:29:42","新北市中和區南山路181號","121.502766666667","24.9950966666667","6500300","中和區"
"235051","376-QA","2017/07/18 19:29:29","新北市中和區景平路239巷33弄11號","121.509635","24.9918016666667","6500300","中和區"
"235068","377-QA","2017/07/18 19:29:24","新北市中和區連勝街57巷9號","121.498041666667","24.99698","6500300","中和區"
"235061","378-QA","2017/07/18 19:29:25","新北市中和區連城路583巷15號","121.47917","24.9930416666667","6500300","中和區"
"235050","4979-A6","2017/07/18 19:29:36","新北市中和區中正路442巷2號","121.491255","24.99443","6500300","中和區"
"235042","551-UM","2017/07/18 19:29:27","新北市中和區中和路378巷23號","121.511576666667","25.0016533333333","6500300","中和區"
"235045","565-BX","2017/07/18 19:29:29","新北市中和區景新街423巷33弄4號","121.513881666667","24.9899333333333","6500300","中和區"
"235070","611-BX","2017/07/18 19:29:41","新北市中和區中山路二段228號","121.49913","25.0028533333333","6500300","中和區"
"235054","640-BX","2017/07/18 19:29:41","新北市中和區國光街109巷20號","121.469548333333","24.99986","6500300","中和區"
"235060","647-TV","2017/07/18 19:29:32","新北市中和區員山路473號","121.480215","25.0047316666667","6500300","中和區"
"235047","732-UM","2017/07/18 19:29:23","新北市中和區景平路239巷38號","121.508176666667","24.99227","6500300","中和區"
"235046","733-UM","2017/07/18 19:29:29","新北市中和區忠孝街37巷67號","121.510658333333","24.9846283333333","6500300","中和區"
"235071","783-BX","2017/07/18 19:29:37","新北市中和區連城路270號","121.485135","24.9963416666667","6500300","中和區"
"235057","801-TS","2017/07/18 19:29:38","新北市中和區員山路423巷14弄2號","121.480413333333","25.00291","6500300","中和區"
"235041","802-TS","2017/07/18 19:29:39","新北市中和區中和路294號","121.508538333333","24.9996583333333","6500300","中和區"
"235052","805-TS","2017/07/18 19:29:27","新北市中和區華新街143巷58號","121.506183333333","24.979565","6500300","中和區"
"235048","896-TW","2017/07/18 19:29:24","新北市中和區忠孝街137號","121.512823333333","24.98824","6500300","中和區"
"235053","900-TW","2017/07/18 19:29:33","新北市中和區華安街17巷29號","121.467436666667","24.998285","6500300","中和區"
"235037","AAC-213","2017/07/18 19:29:27","新北市中和區秀朗路三段50巷2號","121.525956666667","24.9954966666667","6500300","中和區"
"235059","AAC-215","2017/07/18 19:29:32","新北市中和區圓通路252巷5弄1號","121.493398333333","24.9913833333333","6500300","中和區"
"220068","013-TV","2017/07/18 19:29:40","新北市板橋區林森街1巷21號","121.48249","25.024245","6500100","板橋區"
"220065","072-UY","2017/07/18 19:29:40","新北市板橋區國泰街75巷28弄3-1號","121.467675","25.0054033333333","6500100","板橋區"
"220086","073-UY","2017/07/18 19:29:37","新北市板橋區中正路214號","121.456058333333","25.01834","6500100","板橋區"
"220106","075-UY","2017/07/18 19:29:27","新北市板橋區長江路三段62號","121.473655","25.0337933333333","6500100","板橋區"
"247010","546-UM","2017/07/18 19:29:39","新北市五股區中興路三段163號","121.449255","25.0806716666667","6501400","蘆洲區"
"247006","341-TH","2017/07/18 19:29:24","新北市五股區中興路三段2巷10號","121.448933333333","25.0812233333333","6501400","蘆洲區"
"247002","336-TH","2017/07/18 19:29:24","新北市五股區新五路二段372巷20號","121.448028333333","25.0846983333333","6501400","蘆洲區"
"247014","057-VK","2017/07/18 19:29:40","新北市蘆洲區復興路30號","121.47224","25.0853016666667","6501400","蘆洲區"
"247004","056-VK","2017/07/18 19:29:25","新北市蘆洲區長安街237號","121.459315","25.0829166666667","6501400","蘆洲區"
"226004","312-R5","2017/07/18 19:29:26","新北市平溪區十分里十分街114號","121.77689","25.0430666666667","6502400","平溪區"
"228001","212-TW","2017/07/18 19:29:41","新北市貢寮區真理里延平街68號","121.925385","25.057435","6502600","貢寮區"
"228002","663-BX","2017/07/18 19:29:28","新北市貢寮區龍門里龍門街70號","121.931008333333","25.026565","6502600","貢寮區"
"228003","828-UM","2017/07/18 19:29:46","新北市貢寮區和美里和美街22-1號","121.912806666667","25.0826233333333","6502600","貢寮區"
"224006","676-BX","2017/07/18 19:29:43","新北市瑞芳區三爪子坑路118-5號","121.806635","25.105205","6501200","瑞芳區"
"227009","642-TC","2017/07/18 19:29:40","新北市雙溪區新基里新基北街43號","121.868165","25.039705","6502500","雙溪區"
"227003","400-TW","2017/07/18 19:29:30","新北市雙溪區雙溪里光復街14號","121.865073333333","25.0354283333333","6502500","雙溪區"
"253006","032-BX","2017/07/18 19:29:39","新北市石門區楓林29-1號","121.54285","25.2887316666667","6502200","石門區"
"253005","741-TV","2017/07/18 19:29:25","新北市石門區小坑9號","121.59473","25.2864533333333","6502200","石門區"
"208003","665-BX","2017/07/18 19:29:37","新北市金山區中山路263巷14號","121.636386666667","25.2216283333333","6502700","金山區"
"208001","761-BX","2017/07/18 19:29:39","新北市金山區南勢47號","121.628081666667","25.22068","6502700","金山區"
"251014","180-VK","2017/07/18 19:29:33","新北市淡水區小中寮19-7號","121.484756666667","25.22966","6501000","淡水區"
"251008","181-VK","2017/07/18 19:29:30","新北市淡水區中正路一段80號","121.424753333333","25.177285","6501000","淡水區"
"251010","413-VK","2017/07/18 19:29:37","新北市淡水區中正路二段142號","121.422011666667","25.1875083333333","6501000","淡水區"
"251016","442-VK","2017/07/18 19:29:33","新北市淡水區下圭柔山119-51號","121.450803333333","25.2084116666667","6501000","淡水區"
"251005","443-VK","2017/07/18 19:29:33","新北市淡水區水源街一段71巷18號","121.444353333333","25.1729333333333","6501000","淡水區"
"251001","559-UM","2017/07/18 19:29:39","新北市淡水區民權路139-1號","121.460103333333","25.1364916666667","6501000","淡水區"
"251006","561-UM","2017/07/18 19:29:31","新北市淡水區大義街41號","121.441916666667","25.1781666666667","6501000","淡水區"
"251009","575-R6","2017/07/18 19:29:24","新北市淡水區大忠街5巷8號","121.443376666667","25.1765","6501000","淡水區"
"251007","577-R6","2017/07/18 19:29:27","新北市淡水區坪頂路17號","121.455768333333","25.1605166666667","6501000","淡水區"
"251011","650-BX","2017/07/18 19:29:46","新北市淡水區中正東路二段143巷2弄1號","121.460705","25.1473433333333","6501000","淡水區"
"251003","766-UM","2017/07/18 19:29:37","新北市淡水區中山北路二段186號","121.444283333333","25.1850833333333","6501000","淡水區"
"207003","550-UM","2017/07/18 19:29:39","新北市萬里區大鵬里萬里加投197-5號","121.64398","25.2150733333333","6502800","萬里區"
"207004","225-TW","2017/07/18 19:29:33","新北市萬里區萬里里瑪鋉路127-8號","121.688891666667","25.1779033333333","6502800","萬里區"
"252002","178-VK","2017/07/18 19:29:38","新北市三芝區淡金路二段18-1號","121.502628333333","25.25954","6502100","三芝區"
"252001","702-TV","2017/07/18 19:29:40","新北市三芝區長勤街62號","121.500143333333","25.2558583333333","6502100","三芝區"
"252005","AAC-283","2017/07/18 15:54:34","新北市三芝區埔坪里埔頭坑41號","121.50453","25.2644316666667","6502100","三芝區"
"208002","170-UY","2017/07/18 19:29:35","新北市金山區中華路112巷14號","121.634068333333","25.2207916666667","6502700","金山區"
"237004","078-UY","2017/07/18 19:29:32","新北市三峽區有木111-1號","121.43478","24.8595533333333","6500900","三峽區"
"237007","153-BY","2017/07/18 19:29:43","新北市三峽區二鬮路178號","121.359118333333","24.9068316666667","6500900","三峽區"
"237009","210-TH","2017/07/18 19:29:39","新北市三峽區民權街115號","121.369098333333","24.9323833333333","6500900","三峽區"
"237013","252-BX","2017/07/18 19:29:41","新北市三峽區介壽路一段251號","121.379541666667","24.9302316666667","6500900","三峽區"
"237012","275-BY","2017/07/18 19:29:39","新北市三峽區三樹路98巷189號","121.38505","24.9414883333333","6500900","三峽區"
"237008","302-VK","2017/07/18 19:29:43","新北市三峽區永安街183號","121.373161666667","24.9267616666667","6500900","三峽區"
"237014","433-BY","2017/07/18 19:29:24","新北市三峽區中正路二段66號","121.366613333333","24.9185133333333","6500900","三峽區"
"237006","5529-G3","2017/07/18 19:29:37","新北市三峽區中正路一段336巷15弄2號","121.369981666667","24.924935","6500900","三峽區"
"237016","649-BX","2017/07/18 19:29:36","新北市三峽區成福路294號","121.428685","24.9234383333333","6500900","三峽區"
"237005","AKY-6261","2017/07/18 19:29:36","新北市三峽區復興路367巷21號","121.363608333333","24.937585","6500900","三峽區"
"236070","105-UM","2017/07/18 19:29:42","新北市土城區學府路一段192號","121.453216666667","24.9859866666667","6501300","土城區"
"236043","107-UM","2017/07/18 19:29:37","新北市土城區學府路一段276號","121.449988333333","24.982935","6501300","土城區"
"236079","166-UM","2017/07/18 19:29:43","新北市土城區中州路11號","121.414006666667","24.9575283333333","6501300","土城區"
"236027","269-VK","2017/07/18 19:29:42","新北市土城區中央路二段61巷20號","121.443123333333","24.9787883333333","6501300","土城區"
"236023","401-BY","2017/07/18 19:29:31","新北市土城區峰廷街3號","121.46909","24.9873183333333","6501300","土城區"
"236059","912-UM","2017/07/18 19:29:37","新北市土城區中正路1號","121.442015","24.975105","6501300","土城區"
"236049","913-UM","2017/07/18 19:29:29","新北市土城區清水路203號","121.459988333333","24.9817383333333","6501300","土城區"
"242032","415-TV","2017/07/18 19:29:35","新北市新莊區新泰路225巷5號","121.446146666667","25.0390083333333","6500500","新莊區"
"242007","173-VK","2017/07/18 19:29:41","新北市新莊區福壽街425號","121.45774","25.0582966666667","6500500","新莊區"
"238015","755-BX","2017/07/18 19:29:35","新北市樹林區啟智街127巷24號","121.41913","24.98978","6500700","樹林區"
"238023","601-UM","2017/07/18 19:29:40","桃園市龜山區萬壽路一段127號","121.408318333333","25.0186183333333","6500700","樹林區"
"238006","599-UM","2017/07/18 19:29:29","新北市樹林區八德街17號","121.418108333333","24.98425","6500700","樹林區"
"238018","571-TV","2017/07/18 19:29:24","新北市樹林區中華路116-1號","121.417971666667","24.980655","6500700","樹林區"
"238024","5061-A6","2017/07/18 19:29:41","新北市樹林區福德街33號","121.400546666667","24.9753883333333","6500700","樹林區"
"238022","312-TH","2017/07/18 19:29:23","新北市樹林區名園街21號","121.419356666667","24.9793083333333","6500700","樹林區"
"238021","311-TH","2017/07/18 19:25:32","新北市樹林區柑園街二段384巷2號","121.368048333333","24.9493066666667","6500700","樹林區"
"238025","303-VK","2017/07/18 19:29:38","新北市樹林區中山路一段115號","121.422841666667","24.990535","6500700","樹林區"
"238017","283-BY","2017/07/18 19:29:31","新北市樹林區光榮街79號","121.412045","25.0030533333333","6500700","樹林區"
"238014","282-BY","2017/07/18 19:29:44","新北市樹林區千歲街19巷11號","121.424511666667","24.995855","6500700","樹林區"
"238020","268-VK","2017/07/18 19:29:39","新北市樹林區俊英街125巷25-1號","121.422908333333","25.0109683333333","6500700","樹林區"
"238026","172-UY","2017/07/18 19:29:29","新北市樹林區佳園路三段1號","121.388423333333","24.9556316666667","6500700","樹林區"
"238016","169-UY","2017/07/18 19:29:34","新北市樹林區復興路446巷2弄2號","121.413468333333","24.9843216666667","6500700","樹林區"
"239007","AAC-297","2017/07/18 19:29:36","新北市鶯歌區大湖路338巷15號","121.346673333333","24.9689866666667","6500800","鶯歌區"
"239006","891-R6","2017/07/18 19:29:28","新北市鶯歌區重慶街6-1號","121.35204","24.9527083333333","6500800","鶯歌區"
"239001","417-VK","2017/07/18 19:29:28","新北市鶯歌區鶯桃路39號","121.342788333333","24.9508866666667","6500800","鶯歌區"
"239003","360-BY","2017/07/18 19:29:37","新北市鶯歌區中正一路478號","121.366345","24.9568","6500800","鶯歌區"
"239002","359-BY","2017/07/18 19:29:30","新北市鶯歌區中山路300號","121.342906666667","24.9576416666667","6500800","鶯歌區"
"239004","193-VK","2017/07/18 19:29:32","新北市鶯歌區二甲路中心巷9號","121.337495","24.9359866666667","6500800","鶯歌區"
"221008","489-VK","2017/07/18 19:29:25","新北市汐止區康寧街165號","121.622133333333","25.0666816666667","6501100","汐止區"
"221036","130-UY","2017/07/18 19:29:42","新北市汐止區汐萬路一段256巷1號","121.651836666667","25.07491","6501100","汐止區"
"221015","131-UY","2017/07/18 19:29:31","新北市汐止區康寧街901號","121.651021666667","25.0751216666667","6501100","汐止區"
"221010","269-BY","2017/07/18 19:29:36","新北市汐止區康寧街901號","121.651505","25.0749716666667","6501100","汐止區"
"221031","277-VK","2017/07/18 19:29:29","新北市汐止區福德三路127號","121.633631666667","25.06758","6501100","汐止區"
"221012","278-VK","2017/07/18 19:29:40","新北市汐止區大同路三段279號","121.674025","25.0752866666667","6501100","汐止區"
"221023","279-VK","2017/07/18 14:31:11","台北市文山區老泉街45巷18-1號","121.576163333333","24.97623","6501100","汐止區"
"221032","280-BY","2017/07/18 19:29:31","新北市汐止區汐萬路一段312號","121.650506666667","25.075335","6501100","汐止區"
"221027","281-BY","2017/07/18 19:29:34","新北市汐止區水源路一段6號","121.65714","25.0669316666667","6501100","汐止區"
"221038","297-VK","2017/07/18 19:29:30","新北市汐止區汐萬路一段312號","121.650623333333","25.0754333333333","6501100","汐止區"
"221029","298-VK","2017/07/18 19:29:24","新北市汐止區康寧街901號","121.6516","25.0749583333333","6501100","汐止區"
"221021","299-VK","2017/07/18 19:25:19","新北市汐止區康寧街901號","121.65141","25.0750533333333","6501100","汐止區"
"221025","623-UM","2017/07/18 19:29:28","新北市汐止區新台五路二段6號","121.660223333333","25.0650033333333","6501100","汐止區"
"221033","647-BX","2017/07/18 19:29:36","新北市汐止區南勢街1巷1號","121.627068333333","25.037445","6501100","汐止區"
"221002","707-TV","2017/07/18 19:29:43","新北市汐止區中興路12號","121.637213333333","25.0592933333333","6501100","汐止區"
"220079","145-BY","2017/07/18 19:29:26","新北市板橋區建國街5號","121.457225","25.0169183333333","6500100","板橋區"
"220093","146-RM","2017/07/18 19:29:33","新北市板橋區新海路65號","121.461796666667","25.0216016666667","6500100","板橋區"
"220080","200-UY","2017/07/18 19:29:35","新北市板橋區大觀路二段19巷23號","121.447671666667","25.0031816666667","6500100","板橋區"
"220082","610-BX","2017/07/18 19:29:29","新北市板橋區金門街273號","121.431435","24.9884016666667","6500100","板橋區"
"220101","245-BX","2017/07/18 19:29:31","新北市板橋區萬板路192-3號","121.476575","25.0236233333333","6500100","板橋區"
"220069","258-TC","2017/07/18 19:29:44","新北市板橋區華興街31巷4號","121.458363333333","25.00438","6500100","板橋區"
"220056","276-BY","2017/07/18 19:29:33","新北市板橋區信義路1巷26弄1號","121.458163333333","24.9969516666667","6500100","板橋區"
"220072","277-BY","2017/07/18 19:29:43","新北市板橋區篤行路二段141巷25號","121.430653333333","24.9877066666667","6500100","板橋區"
"220064","280-UM","2017/07/18 19:29:30","新北市板橋區館前西路4-1號","121.459378333333","25.0071216666667","6500100","板橋區"
"220071","283-VK","2017/07/18 19:29:37","新北市板橋區大豐街118號","121.461198333333","25.0012","6500100","板橋區"
"220094","285-UM","2017/07/18 19:29:37","新北市板橋區吳鳳路50巷7號","121.467875","25.0304783333333","6500100","板橋區"
"220053","285-VK","2017/07/18 19:29:37","新北市板橋區富山街53巷1弄54號","121.477996666667","25.02057","6500100","板橋區"
"220083","286-VK","2017/07/18 19:29:46","新北市板橋區龍興街73巷4號","121.443741666667","25.0022083333333","6500100","板橋區"
"220081","287-VK","2017/07/18 19:29:33","新北市板橋區南雅南路一段106號","121.454983333333","25.0042983333333","6500100","板橋區"
"220090","288-VK","2017/07/18 19:29:34","新北市板橋區裕民街71號","121.460858333333","25.0283283333333","6500100","板橋區"
"220061","293-UM","2017/07/18 19:29:43","新北市板橋區中山路二段255巷8號","121.477068333333","25.0179816666667","6500100","板橋區"
"220084","296-UM","2017/07/18 19:29:36","新北市板橋區滿平街136巷1弄1號","121.428578333333","24.9879433333333","6500100","板橋區"
"220075","297-UM","2017/07/18 19:29:45","新北市板橋區中正路275巷93號","121.450628333333","25.0179933333333","6500100","板橋區"
"220062","303-R5","2017/07/18 19:29:44","新北市板橋區三民路二段153巷4弄2號","121.479585","25.0145683333333","6500100","板橋區"
"220092","307-R5","2017/07/18 19:29:44","新北市板橋區光武街4巷13號","121.46815","25.025595","6500100","板橋區"
"220098","317-R6","2017/07/18 19:29:31","新北市板橋區民生路三段263巷1弄1號","121.464025","25.029325","6500100","板橋區"
"220089","487-VK","2017/07/18 19:29:40","新北市板橋區文化路一段135號","121.46216","25.0151666666667","6500100","板橋區"
"220088","491-VK","2017/07/18 19:29:30","新北市板橋區雙十路二段44號","121.4758","25.0275166666667","6500100","板橋區"
"220035","560-BX","2017/07/18 19:29:32","新北市板橋區中正路413巷2弄37號","121.453098333333","25.02334","6500100","板橋區"
"220103","561-BX","2017/07/18 19:29:24","新北市板橋區文化路一段268號","121.467353333333","25.020895","6500100","板橋區"
"220063","609-BX","2017/07/18 19:29:45","新北市板橋區三民路一段31巷89弄2號","121.481488333333","25.0234","6500100","板橋區"
"220091","637-BX","2017/07/18 19:29:37","新北市板橋區文聖街149巷22號","121.479531666667","25.0285616666667","6500100","板橋區"
"220057","686-BX","2017/07/18 19:29:29","新北市中和區民德路330號","121.466551666667","24.9945616666667","6500100","板橋區"
"220077","687-BX","2017/07/18 19:29:29","新北市板橋區僑中二街114巷1號","121.44573","25.006635","6500100","板橋區"
"220054","741-BX","2017/07/18 19:29:39","新北市板橋區光明街79號","121.462176666667","25.0029116666667","6500100","板橋區"
"220055","827-TW","2017/07/18 19:29:42","新北市板橋區忠孝路148號","121.463991666667","25.0024366666667","6500100","板橋區"
"220067","829-TW","2017/07/18 19:29:32","新北市板橋區長安街138巷25號","121.4732","25.0088983333333","6500100","板橋區"
"220102","830-TW","2017/07/18 19:29:45","新北市板橋區雙十路二段130巷2弄7號","121.474435","25.029155","6500100","板橋區"
"220096","831-TW","2017/07/18 19:29:32","新北市板橋區大同街35巷2號","121.477826666667","25.02754","6500100","板橋區"
"220074","895-R6","2017/07/18 19:29:40","新北市板橋區中正路自強新村91-1號","121.454863333333","25.0132266666667","6500100","板橋區"
"220073","985-R7","2017/07/18 19:29:33","新北市板橋區瑞安街46巷3號","121.455286666667","25.0222183333333","6500100","板橋區"
"220097","AAC-210","2017/07/18 19:29:34","新北市板橋區陽明街239號","121.463093333333","25.0245333333333","6500100","板橋區"
"220070","AAC-253","2017/07/18 19:29:34","新北市板橋區忠孝路116號","121.462848333333","25.0022516666667","6500100","板橋區"
