"lineid","car","time","location","longitude","latitude","cityid","cityname"
"234046","148-BY","2017/07/18 19:49:33","新北市永和區秀朗路二段99號","121.523391666667","25.0017083333333","6500400","永和區"
"234013","149-BY","2017/07/18 19:49:35","新北市永和區仁愛路255號","121.508465","25.01157","6500400","永和區"
"234007","207-UY","2017/07/18 19:49:20","新北市中和區南工路2巷2號","121.505433333333","25.00005","6500400","永和區"
"234081","298-R6","2017/07/18 19:49:34","新北市永和區國中路2號","121.524365","25.0043","6500400","永和區"
"234038","336-UY","2017/07/18 19:49:25","新北市永和區成功路二段163號","121.526601666667","24.9972266666667","6500400","永和區"
"234064","337-UY","2017/07/18 19:49:20","新北市永和區中正路368巷4號","121.518035","25.00086","6500400","永和區"
"234086","338-UY","2017/07/18 19:49:20","新北市永和區永亨路59號","121.520948333333","25.00611","6500400","永和區"
"234070","552-UM","2017/07/18 19:49:22","新北市永和區國光路39-1號","121.519043333333","25.0082583333333","6500400","永和區"
"234054","553-UM","2017/07/18 19:49:18","新北市永和區竹林路75巷25弄7號","121.520051666667","25.0144666666667","6500400","永和區"
"234017","745-BX","2017/07/18 19:49:24","新北市永和區永和路二段264號","121.516078333333","25.0151583333333","6500400","永和區"
"234030","746-BX","2017/07/18 19:49:29","新北市永和區民生路22巷3號","121.522166666667","24.9972566666667","6500400","永和區"
"234061","AAD-866","2017/07/18 19:49:38","新北市永和區中正路102號","121.514321666667","24.9957216666667","6500400","永和區"
"234042","862-TW","2017/07/18 19:49:36","新北市永和區中和路305巷20弄2號","121.507731666667","25.0019183333333","6500400","永和區"
"234050","863-TW","2017/07/18 19:49:35","新北市永和區保安路77號","121.508675","25.0148583333333","6500400","永和區"
"234026","9371-KE","2017/07/18 19:49:24","新北市永和區水源街33巷1號","121.510806666667","25.0044166666667","6500400","永和區"
"234011","9373-KE","2017/07/18 19:49:32","新北市永和區保順路11號","121.504743333333","25.0095283333333","6500400","永和區"
"249004","303-UY","2017/07/18 19:49:20","新北市八里區中山路一段268巷31號","121.413515","25.16058","6502300","八里區"
"249002","305-UY","2017/07/18 19:49:28","新北市八里區頂寮五街20號","121.451381666667","25.1262633333333","6502300","八里區"
"249003","593-UM","2017/07/18 19:49:26","新北市八里區華峰三街37號","121.39855","25.1454733333333","6502300","八里區"
"249001","759-BX","2017/07/18 19:49:28","新北市八里區中華路二段252號","121.405365","25.14962","6502300","八里區"
"248016","026-BX","2017/07/18 19:49:22","新北市五股區成泰路四段24-6號","121.453745","25.106855","6501500","五股區"
"248008","095-VK","2017/07/18 19:49:27","新北市五股區四維路171巷4號","121.467611666667","25.0751483333333","6501500","五股區"
"248020","225-UY","2017/07/18 19:49:18","新北市五股區中直路55號","121.418995","25.1176","6501500","五股區"
"248012","247-BX","2017/07/18 19:30:34","新北市五股區成泰路二段87-1號","121.437905","25.0840983333333","6501500","五股區"
"248014","261-SL","2017/07/18 19:49:33","新北市五股區五福路52巷11弄2號","121.433905","25.089875","6501500","五股區"
"248010","272-BY","2017/07/18 19:49:34","新北市五股區登林路51-12號","121.430668333333","25.069235","6501500","五股區"
"248002","678-BX","2017/07/18 19:49:21","新北市五股區成泰路四段14號","121.453308333333","25.106655","6501500","五股區"
"234077","969-R7","2017/07/18 19:49:26","新北市永和區智光街48號","121.517043333333","24.99793","6500400","永和區"
"234074","AAC-211","2017/07/18 19:49:34","新北市永和區竹林路213巷35號","121.52297","25.0091016666667","6500400","永和區"
"234067","AAC-212","2017/07/18 19:49:36","新北市永和區中山路一段191巷2弄1號","121.509371666667","25.0085466666667","6500400","永和區"
"234003","AAC-295","2017/07/18 19:49:22","新北市永和區福和路318號","121.515748333333","25.0072916666667","6500400","永和區"
"244019","403-UM","2017/07/18 19:49:35","新北市林口區文林一街1號","121.376313333333","25.0852183333333","6501700","林口區"
"244025","656-BX","2017/07/18 19:49:29","新北市八里區中華路三段89-3號","121.393455","25.13939","6501700","林口區"
"243013","AAD-798","2017/07/18 19:49:23","新北市泰山區應化街13號","121.423848333333","25.0437083333333","6501600","泰山區"
"243009","297-R6","2017/07/18 19:49:25","新北市泰山區美寧街60號","121.430958333333","25.0645933333333","6501600","泰山區"
"243015","380-SR","2017/07/18 19:49:32","新北市泰山區文程路95號","121.429116666667","25.0491366666667","6501600","泰山區"
"243014","421-VK","2017/07/18 19:49:23","新北市泰山區泰林路二段33-8號","121.43518","25.056555","6501600","泰山區"
"243010","548-UM","2017/07/18 19:49:22","新北市泰山區民生路33號","121.430626666667","25.052245","6501600","泰山區"
"243011","549-UM","2017/07/18 19:49:18","新北市泰山區明志路三段196巷21弄2號","121.4231","25.0392983333333","6501600","泰山區"
"243012","646-TV","2017/07/18 19:49:22","新北市泰山區全興路13號","121.432328333333","25.0590266666667","6501600","泰山區"
"243016","680-BX","2017/07/18 19:49:37","新北市泰山區明志路三段472號","121.420875","25.0318666666667","6501600","泰山區"
"222003","436-BY","2017/07/18 19:49:27","新北市深坑區深南路51-1號","121.621173333333","25.0100483333333","6501800","深坑區"
"222001","628-TS","2017/07/18 19:49:24","新北市深坑區北深路三段61號","121.607206666667","25.00151","6501800","深坑區"
"222002","659-BX","2017/07/18 19:49:35","新北市深坑區北深路二段2巷1號","121.621233333333","25.0045416666667","6501800","深坑區"
"231041","002-UM","2017/07/18 19:49:28","新北市新店區中央路206號","121.530373333333","24.9740216666667","6500600","新店區"
"231056","0293-UT","2017/07/18 19:49:25","新北市新店區安和路三段4巷3號","121.519593333333","24.980865","6500600","新店區"
"231059","046-UY","2017/07/18 19:49:36","新北市新店區安和路二段3-5號","121.517988333333","24.967365","6500600","新店區"
"231061","047-UY","2017/07/18 19:49:21","新北市新店區安民街254號","121.517595","24.9732966666667","6500600","新店區"
"231060","106-UY","2017/07/18 19:49:37","新北市新店區安康路二段161號","121.510185","24.95936","6500600","新店區"
"231051","107-UY","2017/07/18 19:49:34","新北市新店區中央三街73號","121.52649","24.9752716666667","6500600","新店區"
"231048","108-UY","2017/07/18 19:49:29","新北市新店區寶興路61巷1號","121.550833333333","24.9720483333333","6500600","新店區"
"231053","187-VK","2017/07/18 19:49:28","新北市新店區新烏路二段468號","121.552611666667","24.9083333333333","6500600","新店區"
"231069","189-VK","2017/07/18 16:47:59","新北市新店區安華路28-1號","121.520088333333","24.9607983333333","6500600","新店區"
"231057","256-BX","2017/07/18 19:49:21","新北市新店區梅崗一路10號","121.555971666667","24.9313916666667","6500600","新店區"
"231063","268-BY","2017/07/18 19:49:25","新北市新店區黎明路3號","121.503605","24.9524866666667","6500600","新店區"
"231046","278-BY","2017/07/18 19:49:19","新北市新店區福園街10巷1號","121.53272","24.9728033333333","6500600","新店區"
"231050","AAD-862","2017/07/18 19:48:51","新北市新店區北宜路二段579巷39號","121.565231666667","24.9551216666667","6500600","新店區"
"231044","355-BY","2017/07/18 19:49:31","新北市新店區復興路36號","121.53901","24.9867883333333","6500600","新店區"
"231055","3713-VJ","2017/07/18 19:49:21","新北市新店區新生街1號","121.540406666667","24.9655733333333","6500600","新店區"
"231038","4715-K9","2017/07/18 19:49:36","新北市新店區安華路1-1號","121.51928","24.96048","6500600","新店區"
"231067","4772-VM","2017/07/18 19:30:11","新北市新店區安康路二段414巷2號","121.49606","24.9578616666667","6500600","新店區"
"231065","512-UM","2017/07/18 19:49:28","新北市新店區安祥路109巷151弄1號","121.477883333333","24.9585133333333","6500600","新店區"
"231054","513-UM","2017/07/18 19:49:33","新北市新店區光明街71號","121.538773333333","24.9605933333333","6500600","新店區"
"231064","515-UM","2017/07/18 19:49:26","新北市新店區安和路二段113巷1弄2號","121.518265","24.970245","6500600","新店區"
"231045","617-UM","2017/07/18 19:49:21","新北市新店區北宜路二段382號","121.564363333333","24.9531583333333","6500600","新店區"
"231040","619-UM","2017/07/18 19:49:17","新北市新店區北新路一段96巷23號","121.542965","24.9688216666667","6500600","新店區"
"231042","641-BX","2017/07/18 19:49:24","新北市新店區中興路一段267-3號","121.544983333333","24.9678733333333","6500600","新店區"
"231068","718-UY","2017/07/18 19:49:35","新北市新店區安華路28-1號","121.51908","24.9612183333333","6500600","新店區"
"231049","719-UM","2017/07/18 19:49:24","新北市新店區民權路125號","121.535556666667","24.9827333333333","6500600","新店區"
"231062","720-UM","2017/07/18 19:49:32","新北市新店區永業路91號","121.529018333333","24.948895","6500600","新店區"
"231043","899-TW","2017/07/18 19:49:21","新北市新店區中正路217號","121.539703333333","24.9728633333333","6500600","新店區"
"241011","013-R5","2017/07/18 19:49:20","新北市三重區介壽路39巷6號","121.498903333333","25.0701083333333","6500200","三重區"
"241028","022-UY","2017/07/18 19:49:29","新北市三重區中正南路157號","121.493731666667","25.0561083333333","6500200","三重區"
"241009","060-VK","2017/07/18 19:49:25","新北市三重區三和路四段396巷39號","121.47988","25.0787983333333","6500200","三重區"
"241031","061-VK","2017/07/18 19:49:26","新北市三重區重新路四段250-1號","121.485991666667","25.0534133333333","6500200","三重區"
"241015","062-VK","2017/07/18 19:49:35","新北市三重區三和路一段2號","121.503846666667","25.064275","6500200","三重區"
"241017","063-VK","2017/07/18 19:49:29","新北市三重區重陽路三段7號","121.489003333333","25.06638","6500200","三重區"
"241026","066-VK","2017/07/18 19:49:32","新北市三重區光興街1號","121.500313333333","25.0603333333333","6500200","三重區"
"241003","091-VK","2017/07/18 19:49:27","新北市三重區五華街93巷61號","121.493235","25.0844933333333","6500200","三重區"
"241019","156-TC","2017/07/18 19:49:36","新北市三重區自強路二段74巷25號","121.487626666667","25.0695883333333","6500200","三重區"
"241005","262-UM","2017/07/18 19:49:37","新北市三重區仁華街146-1號","121.487413333333","25.0831233333333","6500200","三重區"
"241016","266-UM","2017/07/18 19:49:23","新北市三重區正德街67號","121.4955","25.06343","6500200","三重區"
"241022","267-UM","2017/07/18 19:49:20","新北市三重區過圳街31巷2號","121.489281666667","25.0605","6500200","三重區"
"241018","268-UM","2017/07/18 19:49:24","新北市三重區自強路一段167號","121.493098333333","25.067295","6500200","三重區"
"241032","269-UM","2017/07/18 19:49:37","新北市三重區重陽路一段44巷10號","121.485878333333","25.05773","6500200","三重區"
"241013","270-UM","2017/07/18 19:49:19","新北市三重區仁愛街92巷15號","121.494706666667","25.073845","6500200","三重區"
"241025","271-UM","2017/07/18 19:49:32","新北市三重區頂崁街210巷16號","121.476458333333","25.0677533333333","6500200","三重區"
"241007","398-BY","2017/07/18 19:49:29","新北市三重區三和路四段135巷1-1號","121.484906666667","25.0780583333333","6500200","三重區"
"241008","412-TH","2017/07/18 19:49:36","新北市三重區永福街147-7號","121.478681666667","25.0762583333333","6500200","三重區"
"241020","413-TH","2017/07/18 19:49:35","新北市三重區三和路三段192號","121.491823333333","25.07368","6500200","三重區"
"241035","462-BY","2017/07/18 19:49:30","新北市三重區文化北路8號","121.499303333333","25.063585","6500200","三重區"
"241004","475-VK","2017/07/18 19:48:51","新北市三重區仁愛街397巷39號","121.492965","25.0819333333333","6500200","三重區"
"241030","480-VK","2017/07/18 19:49:23","新北市三重區環河南路254巷43號","121.489468333333","25.0514783333333","6500200","三重區"
"241014","543-UM","2017/07/18 19:49:22","新北市三重區長安街82號","121.501483333333","25.0675783333333","6500200","三重區"
"241023","545-UM","2017/07/18 19:49:36","新北市三重區頂崁街172號","121.47756","25.06598","6500200","三重區"
"241001","547-UM","2017/07/18 19:49:16","新北市三重區仁愛街327巷31號","121.493085","25.0799583333333","6500200","三重區"
"241006","AAD-863","2017/07/18 19:49:37","新北市三重區永福街287號","121.483041666667","25.07443","6500200","三重區"
"241033","887-TS","2017/07/18 19:49:33","新北市三重區中興南街64號","121.470605","25.0440333333333","6500200","三重區"
"241012","941-UM","2017/07/18 19:49:22","新北市三重區仁福街70號","121.49813","25.0750716666667","6500200","三重區"
"241029","942-UM","2017/07/18 19:49:37","新北市三重區光明路13巷6號","121.490783333333","25.0585583333333","6500200","三重區"
"235066","003-UY","2017/07/18 19:49:21","新北市中和區南工路22巷2號","121.505561666667","25.0005833333333","6500300","中和區"
"235064","005-UY","2017/07/18 19:49:35","新北市中和區圓通路29號","121.501176666667","24.9978016666667","6500300","中和區"
"235063","006-UY","2017/07/18 19:49:29","新北市中和區連城路203巷8號","121.494903333333","24.997525","6500300","中和區"
"235056","096-UM","2017/07/18 19:49:33","新北市中和區員山路581巷2-10號","121.477608333333","25.0090683333333","6500300","中和區"
"235039","097-UM","2017/07/18 19:49:21","新北市中和區景德街3號","121.5191","24.9913766666667","6500300","中和區"
"235065","098-UM","2017/07/18 19:49:21","新北市中和區中山路二段183號","121.500688333333","25.0027383333333","6500300","中和區"
"235040","150-BY","2017/07/18 19:49:22","新北市中和區安和路63號","121.508576666667","24.9949783333333","6500300","中和區"
"235058","151-BY","2017/07/18 19:49:32","新北市中和區員山路146巷17號","121.482323333333","24.996835","6500300","中和區"
"235055","183-VK","2017/07/18 19:49:29","新北市中和區民享街2巷15號","121.47312","25.005245","6500300","中和區"
"235038","185-VK","2017/07/18 19:49:39","新北市中和區自立路29巷14弄18號","121.52298","24.9954516666667","6500300","中和區"
"235049","186-VK","2017/07/18 19:49:35","新北市中和區中正路76號","121.50079","24.9937716666667","6500300","中和區"
"235067","255-BX","2017/07/18 19:49:37","新北市中和區新生街186巷5弄17號","121.482835","24.9992766666667","6500300","中和區"
"235044","293-VK","2017/07/18 19:49:37","新北市中和區捷運路57-1號","121.509045","24.9897566666667","6500300","中和區"
"235072","301-VK","2017/07/18 19:49:20","新北市中和區永和路103巷15弄4號","121.495125","25.007355","6500300","中和區"
"235043","352-BY","2017/07/18 19:49:22","新北市中和區華新街230號","121.506063333333","24.98173","6500300","中和區"
"235051","376-QA","2017/07/18 19:49:29","新北市中和區中興街146號","121.499115","24.991685","6500300","中和區"
"235068","377-QA","2017/07/18 19:49:24","新北市中和區莊敬路16巷15弄10號","121.500593333333","25.0039516666667","6500300","中和區"
"235061","378-QA","2017/07/18 19:49:25","新北市中和區員山路174巷10號","121.482115","24.9998533333333","6500300","中和區"
"235050","4979-A6","2017/07/18 19:49:35","新北市中和區景平路259巷41號","121.506423333333","24.9927","6500300","中和區"
"235069","4980-A6","2017/07/18 19:49:30","新北市中和區圓通路12號","121.501596666667","24.9980216666667","6500300","中和區"
"235042","551-UM","2017/07/18 19:49:27","新北市中和區保健路2巷26號","121.507121666667","24.9975533333333","6500300","中和區"
"235045","565-BX","2017/07/18 19:49:29","新北市中和區景新街345-1號","121.511863333333","24.9910866666667","6500300","中和區"
"235070","611-BX","2017/07/18 19:49:21","新北市中和區連勝街55號","121.497871666667","24.9972","6500300","中和區"
"235054","640-BX","2017/07/18 19:49:41","新北市中和區國光街107巷2弄32號","121.469256666667","24.998985","6500300","中和區"
"235060","647-TV","2017/07/18 19:49:32","新北市中和區中山路二段523巷8號","121.481613333333","25.004735","6500300","中和區"
"235047","732-UM","2017/07/18 19:49:23","新北市中和區捷運路79號","121.508478333333","24.9900083333333","6500300","中和區"
"235046","733-UM","2017/07/18 19:49:29","新北市中和區四維街23巷1號","121.513068333333","24.98689","6500300","中和區"
"235071","783-BX","2017/07/18 19:49:38","新北市中和區中山路二段439巷1號","121.484856666667","25.0046333333333","6500300","中和區"
"235057","801-TS","2017/07/18 19:49:34","新北市中和區員山路217號","121.48126","24.9979166666667","6500300","中和區"
"235041","802-TS","2017/07/18 19:49:22","新北市中和區中和路400巷13號","121.511371666667","25.0024566666667","6500300","中和區"
"235052","805-TS","2017/07/18 19:49:27","新北市中和區華新街192巷18號","121.506475","24.98296","6500300","中和區"
"235048","896-TW","2017/07/18 19:49:24","新北市中和區興南路二段22-3號","121.507533333333","24.9857633333333","6500300","中和區"
"235053","900-TW","2017/07/18 19:49:33","新北市中和區國光街207號","121.466651666667","25.001965","6500300","中和區"
"235037","AAC-213","2017/07/18 19:49:27","新北市中和區秀朗路三段10巷14弄16號","121.524948333333","24.9966033333333","6500300","中和區"
"235059","AAC-215","2017/07/18 19:49:32","新北市中和區圓通路305巷27弄1號","121.495006666667","24.9891433333333","6500300","中和區"
"220068","013-TV","2017/07/18 19:49:25","新北市板橋區中山路二段412巷29弄30號","121.484851666667","25.0199833333333","6500100","板橋區"
"220065","072-UY","2017/07/18 19:49:20","新北市板橋區國泰街39巷7弄1號","121.468658333333","25.0056866666667","6500100","板橋區"
"220086","073-UY","2017/07/18 19:49:37","新北市板橋區林園街7-1號","121.453913333333","25.0091716666667","6500100","板橋區"
"220106","075-UY","2017/07/18 19:49:27","新北市板橋區文化路二段604號","121.477043333333","25.03496","6500100","板橋區"
"247010","546-UM","2017/07/18 19:49:19","新北市三重區集賢路188號","121.483975","25.0881","6501400","蘆洲區"
"247006","341-TH","2017/07/18 19:49:23","新北市蘆洲區永安南路二段32號","121.467138333333","25.07721","6501400","蘆洲區"
"247008","339-TH","2017/07/18 19:49:18","新北市蘆洲區信義路113巷1弄1號","121.478218333333","25.080425","6501400","蘆洲區"
"247024","337-TH","2017/07/18 19:49:36","新北市蘆洲區光復路6號","121.462488333333","25.0842266666667","6501400","蘆洲區"
"247002","336-TH","2017/07/18 19:49:24","新北市蘆洲區永樂街38巷57弄2號","121.458523333333","25.0902033333333","6501400","蘆洲區"
"247014","057-VK","2017/07/18 19:49:18","新北市蘆洲區三民路157-2號","121.470838333333","25.08667","6501400","蘆洲區"
"247004","056-VK","2017/07/18 19:49:25","新北市蘆洲區中原路53號","121.459188333333","25.0821783333333","6501400","蘆洲區"
"226004","312-R5","2017/07/18 19:49:26","新北市平溪區靜安路三段66號","121.764623333333","25.0328083333333","6502400","平溪區"
"228001","212-TW","2017/07/18 19:49:21","新北市貢寮區真理里大澳街10巷48號","121.92561","25.0563816666667","6502600","貢寮區"
"228003","828-UM","2017/07/18 19:49:25","新北市貢寮區真理里美艷山街3-1號","121.92599","25.059655","6502600","貢寮區"
"224010","AGQ-8101","2017/07/18 19:48:20","新北市瑞芳區基山街19號","121.845353333333","25.10947","6501200","瑞芳區"
"227009","642-TC","2017/07/18 19:49:20","新北市雙溪區新基里自強路7號","121.866201666667","25.0390683333333","6502500","雙溪區"
"227003","400-TW","2017/07/18 19:49:30","新北市雙溪區雙溪里內挖路36號","121.863213333333","25.0367166666667","6502500","雙溪區"
"208003","665-BX","2017/07/18 19:49:37","新北市金山區海興路38號","121.630993333333","25.2384866666667","6502700","金山區"
"208001","761-BX","2017/07/18 19:49:39","新北市金山區重和里茅埔頭9號","121.603715","25.216135","6502700","金山區"
"251004","009-UM","2017/07/18 19:49:37","新北市淡水區民權路177巷53號","121.460433333333","25.133835","6501000","淡水區"
"251014","180-VK","2017/07/18 19:49:33","新北市淡水區番社前4-6號","121.474346666667","25.2363683333333","6501000","淡水區"
"251008","181-VK","2017/07/18 19:49:29","新北市淡水區中正路一段24巷2-4號","121.426816666667","25.177025","6501000","淡水區"
"251012","441-VK","2017/07/18 19:49:21","新北市淡水區淡金路二段600號","121.44659","25.192985","6501000","淡水區"
"251016","442-VK","2017/07/18 19:49:32","新北市淡水區三塊厝3-2號","121.456181666667","25.2092233333333","6501000","淡水區"
"251005","443-VK","2017/07/18 19:49:37","新北市淡水區中山路40號","121.444255","25.1699466666667","6501000","淡水區"
"251001","559-UM","2017/07/18 19:49:39","新北市淡水區中正東路二段85號","121.459445","25.1530516666667","6501000","淡水區"
"251006","561-UM","2017/07/18 19:49:10","新北市淡水區水碓街15號","121.44344","25.1769783333333","6501000","淡水區"
"251009","575-R6","2017/07/18 19:49:24","新北市淡水區中正路38-1號","121.443738333333","25.1693166666667","6501000","淡水區"
"251011","650-BX","2017/07/18 19:49:25","新北市淡水區淡金路一段166-5號","121.454006666667","25.180045","6501000","淡水區"
"207003","550-UM","2017/07/18 19:49:19","新北市萬里區大鵬里萬里加投51-1號","121.641983333333","25.2116433333333","6502800","萬里區"
"207004","225-TW","2017/07/18 19:49:33","新北市萬里區萬里里瑪鋉路238號","121.689191666667","25.180425","6502800","萬里區"
"252002","178-VK","2017/07/18 19:49:38","新北市三芝區三民街35號","121.504743333333","25.2584516666667","6502100","三芝區"
"252001","702-TV","2017/07/18 19:49:20","新北市三芝區公正街9號","121.499831666667","25.2575783333333","6502100","三芝區"
"252005","AAC-283","2017/07/18 15:54:34","新北市三芝區埔坪里埔頭坑41號","121.50453","25.2644316666667","6502100","三芝區"
"208002","170-UY","2017/07/18 19:49:35","新北市金山區中山路333號","121.635196666667","25.224105","6502700","金山區"
"237004","078-UY","2017/07/18 19:49:32","新北市三峽區添福141-1號","121.374645","24.9001516666667","6500900","三峽區"
"237007","153-BY","2017/07/18 19:49:23","新北市三峽區二鬮路136巷20弄83號","121.358211666667","24.9088566666667","6500900","三峽區"
"237009","210-TH","2017/07/18 19:49:19","新北市三峽區民權街203號","121.367731666667","24.9284333333333","6500900","三峽區"
"237013","252-BX","2017/07/18 19:49:21","新北市三峽區溪北街45號","121.397038333333","24.9360366666667","6500900","三峽區"
"237012","275-BY","2017/07/18 19:49:20","新北市三峽區光明路10號","121.37323","24.9310883333333","6500900","三峽區"
"237008","302-VK","2017/07/18 19:49:23","新北市三峽區大同路132巷12號","121.373843333333","24.92735","6500900","三峽區"
"237014","433-BY","2017/07/18 19:49:24","新北市三峽區添福13-35號","121.374678333333","24.9083216666667","6500900","三峽區"
"237006","5529-G3","2017/07/18 19:49:37","新北市三峽區中正路一段336巷15弄2號","121.369993333333","24.9250083333333","6500900","三峽區"
"237016","649-BX","2017/07/18 19:49:36","新北市三峽區溪東路218巷2-2號","121.40745","24.931895","6500900","三峽區"
"237005","AKY-6261","2017/07/18 19:49:36","新北市三峽區民生街100號","121.373915","24.93554","6500900","三峽區"
"236070","105-UM","2017/07/18 19:49:22","新北市土城區中央路二段183號","121.442066666667","24.9758266666667","6501300","土城區"
"236043","107-UM","2017/07/18 19:49:37","新北市土城區裕民路267-1號","121.455275","24.9822566666667","6501300","土城區"
"236079","166-UM","2017/07/18 19:49:23","新北市土城區溪頭路110號","121.408925","24.95054","6501300","土城區"
"236031","253-BX","2017/07/18 19:49:29","新北市土城區中央路一段290號","121.443278333333","24.9824183333333","6501300","土城區"
"236027","269-VK","2017/07/18 19:49:22","新北市土城區中央路二段61巷22號","121.443176666667","24.9787766666667","6501300","土城區"
"236038","271-VK","2017/07/18 19:49:34","新北市土城區國際路158巷59-1號","121.468048333333","24.974945","6501300","土城區"
"236023","401-BY","2017/07/18 19:49:34","新北市土城區峰廷街2號","121.468618333333","24.9878016666667","6501300","土城區"
"236059","912-UM","2017/07/18 19:49:37","新北市土城區中央路二段6-3號","121.442938333333","24.98084","6501300","土城區"
"236049","913-UM","2017/07/18 19:49:29","新北市土城區青雲路303號","121.45905","24.9793883333333","6501300","土城區"
"236063","915-UM","2017/07/18 19:49:22","新北市土城區延和路105巷5弄1號","121.467306666667","24.9911333333333","6501300","土城區"
"236055","AAC-216","2017/07/18 19:49:31","新北市土城區立德路26號","121.46307","24.987685","6501300","土城區"
"242029","986-R7","2017/07/18 19:49:28","新北市新莊區幸福路914號","121.442498333333","25.0488083333333","6500500","新莊區"
"242025","615-BX","2017/07/18 19:49:34","新北市新莊區五權一路12巷21弄10號","121.458008333333","25.0646016666667","6500500","新莊區"
"242023","613-BX","2017/07/18 19:49:36","新北市新莊區化成路162-1號","121.465518333333","25.0453333333333","6500500","新莊區"
"242027","612-BX","2017/07/18 19:49:35","新北市新莊區立信五街2號","121.444708333333","25.0515466666667","6500500","新莊區"
"242037","566-BX","2017/07/18 19:49:22","新北市新莊區建安街38號","121.427766666667","25.0249333333333","6500500","新莊區"
"242042","497-BY","2017/07/18 19:49:22","新北市新莊區新北大道七段510號","121.41234","25.029095","6500500","新莊區"
"242005","442-UM","2017/07/18 19:49:34","新北市新莊區化成路63巷16號","121.464061666667","25.0459183333333","6500500","新莊區"
"242048","441-UM","2017/07/18 19:49:21","新北市新莊區建安街76巷1弄15號","121.425995","25.0242716666667","6500500","新莊區"
"242051","440-UM","2017/07/18 19:49:39","新北市新莊區民安路302號","121.428273333333","25.0218183333333","6500500","新莊區"
"242032","415-TV","2017/07/18 19:49:35","新北市新莊區忠孝街88號","121.444073333333","25.036845","6500500","新莊區"
"242002","413-TV","2017/07/18 19:49:29","新北市新莊區新泰路47號","121.449531666667","25.0336333333333","6500500","新莊區"
"242039","400-BY","2017/07/18 19:49:32","新北市新莊區民安路299巷51號","121.429651666667","25.0236516666667","6500500","新莊區"
"242061","362-BY","2017/07/18 19:49:19","新北市新莊區中正路471號","121.441885","25.0337466666667","6500500","新莊區"
"242058","353-BY","2017/07/18 19:49:22","新北市新莊區八德街45號","121.424866666667","25.0222283333333","6500500","新莊區"
"242034","133-UY","2017/07/18 19:49:36","新北市新莊區仁愛街54巷1號","121.445036666667","25.0372033333333","6500500","新莊區"
"242044","172-VK","2017/07/18 19:49:18","新北市新莊區新北大道七段369號","121.412378333333","25.0265916666667","6500500","新莊區"
"242007","173-VK","2017/07/18 19:49:21","新北市新莊區福壽街425號","121.457715","25.0583516666667","6500500","新莊區"
"242013","346-TH","2017/07/18 19:49:34","新北市新莊區中誠街69巷2號","121.450686666667","25.0476583333333","6500500","新莊區"
"242015","350-TH","2017/07/18 19:49:39","新北市新莊區中港一街161號","121.447196666667","25.0449433333333","6500500","新莊區"
"242009","351-TH","2017/07/18 19:49:33","新北市新莊區中誠街79號","121.450408333333","25.0477733333333","6500500","新莊區"
"238015","755-BX","2017/07/18 19:49:29","新北市樹林區日新街70巷8號","121.42148","24.9909533333333","6500700","樹林區"
"238023","601-UM","2017/07/18 19:49:20","新北市樹林區三寶街12號","121.40645","25.0153866666667","6500700","樹林區"
"238024","5061-A6","2017/07/18 19:49:20","新北市樹林區佳園路一段72巷13-2號","121.391951666667","24.969665","6500700","樹林區"
"238021","311-TH","2017/07/18 19:30:52","新北市樹林區柑園街二段247巷12號","121.375013333333","24.950565","6500700","樹林區"
"238025","303-VK","2017/07/18 19:49:18","新北市樹林區中山路二段110-4號","121.413871666667","24.9831933333333","6500700","樹林區"
"238017","283-BY","2017/07/18 19:49:31","新北市樹林區保安街二段45巷13弄3號","121.415365","24.9997966666667","6500700","樹林區"
"238014","282-BY","2017/07/18 19:49:39","新北市樹林區千歲街68號","121.42624","24.997445","6500700","樹林區"
"238020","268-VK","2017/07/18 19:49:19","新北市樹林區俊英街83巷1號","121.425813333333","25.0079833333333","6500700","樹林區"
"239006","891-R6","2017/07/18 19:49:28","新北市鶯歌區中正一路478號","121.366513333333","24.9568416666667","6500800","鶯歌區"
"221008","489-VK","2017/07/18 19:49:25","新北市汐止區康寧街83巷42-1號","121.620835","25.06745","6501100","汐止區"
"221036","130-UY","2017/07/18 19:49:22","新北市汐止區中正路311號","121.655935","25.0676433333333","6501100","汐止區"
"221015","131-UY","2017/07/18 19:49:31","新北市汐止區汐萬路一段312號","121.650396666667","25.0751033333333","6501100","汐止區"
"221010","269-BY","2017/07/18 19:49:36","新北市汐止區汐萬路一段333巷1號","121.649838333333","25.0761983333333","6501100","汐止區"
"221031","277-VK","2017/07/18 19:49:29","新北市汐止區福德三路129巷2號","121.633485","25.0675683333333","6501100","汐止區"
"221012","278-VK","2017/07/18 19:49:20","新北市汐止區大同路三段378號","121.68144","25.07129","6501100","汐止區"
"221023","279-VK","2017/07/18 14:31:11","台北市文山區老泉街45巷18-1號","121.576163333333","24.97623","6501100","汐止區"
"221032","280-BY","2017/07/18 19:49:31","新北市汐止區橫科路119號","121.619895","25.0503666666667","6501100","汐止區"
"221027","281-BY","2017/07/18 19:49:27","新北市汐止區忠孝東路9號","121.658293333333","25.065915","6501100","汐止區"
"221038","297-VK","2017/07/18 19:49:30","新北市汐止區忠孝東路287號","121.664033333333","25.0686366666667","6501100","汐止區"
"221029","298-VK","2017/07/18 19:49:24","新北市汐止區康寧街901號","121.651448333333","25.0749966666667","6501100","汐止區"
"221021","299-VK","2017/07/18 19:48:59","新北市汐止區莊敬街29巷13號","121.656996666667","25.0608066666667","6501100","汐止區"
"221025","623-UM","2017/07/18 19:49:28","新北市汐止區秀峰路81巷40號","121.661486666667","25.0646666666667","6501100","汐止區"
"221033","647-BX","2017/07/18 19:49:36","新北市汐止區東勢街76巷101號","121.637458333333","25.0391866666667","6501100","汐止區"
"221018","753-BX","2017/07/18 19:49:26","新北市汐止區茄苳路5號","121.664813333333","25.0708066666667","6501100","汐止區"
"220079","145-BY","2017/07/18 19:49:26","新北市板橋區大仁街51號","121.454651666667","25.0163433333333","6500100","板橋區"
"220093","146-RM","2017/07/18 19:49:33","新北市板橋區長江路二段163號","121.466368333333","25.0319166666667","6500100","板橋區"
"220080","200-UY","2017/07/18 19:49:35","新北市板橋區大觀路二段153巷46弄10號","121.44892","24.999545","6500100","板橋區"
"220082","610-BX","2017/07/18 19:49:37","新北市板橋區溪崑一街28號","121.430108333333","24.9910333333333","6500100","板橋區"
"220101","245-BX","2017/07/18 19:49:24","新北市板橋區縣民大道三段93巷34號","121.474715","25.0224633333333","6500100","板橋區"
"220069","258-TC","2017/07/18 19:49:20","新北市板橋區縣民大道一段64巷25號","121.456046666667","25.003295","6500100","板橋區"
"220056","276-BY","2017/07/18 19:49:33","新北市板橋區四川路二段橋頭6號","121.44837","24.9937033333333","6500100","板橋區"
"220072","277-BY","2017/07/18 19:49:23","新北市板橋區金門街215巷29號","121.432858333333","24.989815","6500100","板橋區"
"220064","280-UM","2017/07/18 19:49:34","新北市板橋區公園街30號","121.462656666667","25.0085733333333","6500100","板橋區"
"220071","283-VK","2017/07/18 19:49:37","新北市土城區永豐路13巷5弄15號","121.46178","24.9893883333333","6500100","板橋區"
"220094","285-UM","2017/07/18 19:49:37","新北市板橋區長江路一段108號","121.459706666667","25.0295466666667","6500100","板橋區"
"220053","285-VK","2017/07/18 19:49:37","新北市板橋區中山路二段60巷1弄16號","121.474866666667","25.0155866666667","6500100","板橋區"
"220083","286-VK","2017/07/18 19:49:31","新北市板橋區龍興街63巷46號","121.44205","25.0017883333333","6500100","板橋區"
"220081","287-VK","2017/07/18 19:49:33","新北市板橋區大觀路一段29巷131弄29號","121.45057","25.0046283333333","6500100","板橋區"
"220090","288-VK","2017/07/18 19:49:33","新北市板橋區龍泉街82巷14弄23號","121.456093333333","25.0261933333333","6500100","板橋區"
"220061","293-UM","2017/07/18 19:49:23","新北市板橋區板新路208號","121.468678333333","25.01604","6500100","板橋區"
"220084","296-UM","2017/07/18 19:49:36","新北市板橋區溪崑二街118巷5號","121.425626666667","24.988525","6500100","板橋區"
"220075","297-UM","2017/07/18 19:49:24","新北市板橋區大勇街10巷2號","121.45385","25.017005","6500100","板橋區"
"220062","303-R5","2017/07/18 19:49:24","新北市板橋區中山路二段416巷38弄27-1號","121.481878333333","25.0193866666667","6500100","板橋區"
"220092","307-R5","2017/07/18 19:49:24","新北市板橋區四維路259巷21號","121.462301666667","25.0275916666667","6500100","板橋區"
"220098","317-R6","2017/07/18 19:49:31","新北市板橋區四維路269巷94弄18號","121.459376666667","25.0269666666667","6500100","板橋區"
"220089","487-VK","2017/07/18 19:49:32","新北市板橋區綠堤街47號","121.455215","25.0259066666667","6500100","板橋區"
"220088","491-VK","2017/07/18 19:49:39","新北市板橋區仁化街76號","121.476108333333","25.0318083333333","6500100","板橋區"
"220035","560-BX","2017/07/18 19:49:32","新北市板橋區金華街114號","121.459011666667","25.0208583333333","6500100","板橋區"
"220103","561-BX","2017/07/18 19:49:36","新北市板橋區陽明街29巷3號","121.465291666667","25.0216483333333","6500100","板橋區"
"220063","609-BX","2017/07/18 19:49:34","新北市板橋區三民路一段5巷1號","121.479098333333","25.02342","6500100","板橋區"
"220091","637-BX","2017/07/18 19:49:37","新北市板橋區懷德街127巷23弄31號","121.480313333333","25.032215","6500100","板橋區"
"220057","686-BX","2017/07/18 19:49:29","新北市板橋區和平路101巷27號","121.461891666667","24.99558","6500100","板橋區"
"220077","687-BX","2017/07/18 19:49:29","新北市板橋區僑中一街124巷11弄2號","121.446006666667","25.0131116666667","6500100","板橋區"
"220054","741-BX","2017/07/18 19:49:27","新北市板橋區實踐路93巷33號","121.46542","25.0052833333333","6500100","板橋區"
"220055","827-TW","2017/07/18 19:49:21","新北市板橋區國慶路149巷13弄13號","121.460371666667","24.99687","6500100","板橋區"
"220067","829-TW","2017/07/18 19:49:36","新北市板橋區長安街331巷19弄13號","121.473395","25.0122016666667","6500100","板橋區"
"220102","830-TW","2017/07/18 19:49:25","新北市板橋區松柏街37號","121.475393333333","25.030295","6500100","板橋區"
"220096","831-TW","2017/07/18 19:49:29","新北市板橋區民生路二段240巷46號","121.469546666667","25.0227983333333","6500100","板橋區"
"220074","895-R6","2017/07/18 19:49:40","新北市板橋區府中路111號","121.456416666667","25.0095483333333","6500100","板橋區"
"220073","985-R7","2017/07/18 19:49:33","新北市板橋區國光路47號","121.458001666667","25.0179533333333","6500100","板橋區"
"220097","AAC-210","2017/07/18 19:49:34","新北市板橋區幸福路38號","121.461521666667","25.0202016666667","6500100","板橋區"
"220070","AAC-253","2017/07/18 19:49:33","新北市板橋區民族路296號","121.470468333333","25.0067666666667","6500100","板橋區"
