"lineid","car","time","location","longitude","latitude","cityid","cityname"
"234046","148-BY","2017/07/18 20:09:13","新北市永和區林森路62號","121.523985","25.0040916666667","6500400","永和區"
"234013","149-BY","2017/07/18 20:09:15","新北市永和區永貞路435號","121.506886666667","25.0098533333333","6500400","永和區"
"234007","207-UY","2017/07/18 20:09:20","新北市永和區保順路37巷13號","121.502971666667","25.0102766666667","6500400","永和區"
"234081","298-R6","2017/07/18 20:09:31","新北市永和區國中路101號","121.524075","25.0060616666667","6500400","永和區"
"234038","336-UY","2017/07/18 20:09:25","新北市永和區成功路一段93巷21弄2號","121.528343333333","25.002675","6500400","永和區"
"234064","337-UY","2017/07/18 20:09:20","新北市永和區永利路96號","121.520805","25.0036333333333","6500400","永和區"
"234086","338-UY","2017/07/18 20:09:22","新北市永和區福和路167號","121.520145","25.0076733333333","6500400","永和區"
"234070","552-UM","2017/07/18 20:09:22","新北市永和區福和路263巷13號","121.518023333333","25.0065283333333","6500400","永和區"
"234054","553-UM","2017/07/18 20:09:18","新北市永和區博愛街21巷1號","121.517665","25.01589","6500400","永和區"
"234017","745-BX","2017/07/18 20:09:24","新北市永和區文化路14號","121.51541","25.0150333333333","6500400","永和區"
"234030","746-BX","2017/07/18 20:09:28","新北市永和區民有街69號","121.51789","24.9957583333333","6500400","永和區"
"234061","AAD-866","2017/07/18 20:09:30","新北市永和區中正路129巷7號","121.515408333333","24.99823","6500400","永和區"
"234042","862-TW","2017/07/18 20:09:16","新北市永和區雙和街16巷16號","121.510021666667","25.0026633333333","6500400","永和區"
"234050","863-TW","2017/07/18 20:09:15","新北市永和區環河西路二段103號","121.506466666667","25.01466","6500400","永和區"
"234011","9373-KE","2017/07/18 20:09:12","新北市永和區仁愛路352巷122弄12號","121.500848333333","25.0087816666667","6500400","永和區"
"249005","172-UM","2017/07/18 20:09:13","新北市八里區下罟子59-6號","121.387263333333","25.1369016666667","6502300","八里區"
"249004","303-UY","2017/07/18 20:09:20","新北市八里區中山路一段189巷18號","121.412176666667","25.1579033333333","6502300","八里區"
"249002","305-UY","2017/07/18 20:09:28","新北市八里區龍米路一段2-1號","121.458071666667","25.114745","6502300","八里區"
"249003","593-UM","2017/07/18 20:09:26","新北市八里區中山路二段540巷9弄2號","121.396873333333","25.1470666666667","6502300","八里區"
"249001","759-BX","2017/07/18 20:09:28","新北市八里區中華路二段305-10號","121.403323333333","25.1477666666667","6502300","八里區"
"248016","026-BX","2017/07/18 20:09:21","新北市五股區成泰路三段577巷80弄72號","121.448911666667","25.10482","6501500","五股區"
"248008","095-VK","2017/07/18 20:09:27","新北市五股區中興路一段1巷12弄23號","121.469396666667","25.0705766666667","6501500","五股區"
"248020","225-UY","2017/07/18 20:09:29","新北市五股區凌雲路二段5號","121.445355","25.1025233333333","6501500","五股區"
"248012","247-BX","2017/07/18 19:30:34","新北市五股區成泰路二段87-1號","121.437905","25.0840983333333","6501500","五股區"
"248014","261-SL","2017/07/18 20:09:25","新北市五股區五福路14巷4號","121.43466","25.0886666666667","6501500","五股區"
"248010","272-BY","2017/07/18 20:09:14","新北市五股區成泰路一段7巷11號","121.433048333333","25.0668333333333","6501500","五股區"
"248002","678-BX","2017/07/18 20:09:21","新北市五股區成泰路三段311-1號","121.44782","25.0948483333333","6501500","五股區"
"234023","9380-KE","2017/07/18 20:09:30","新北市永和區復興街16巷5號","121.515731666667","25.0125583333333","6500400","永和區"
"234077","969-R7","2017/07/18 20:09:27","新北市永和區民享街23巷25號","121.516638333333","24.9955433333333","6500400","永和區"
"234074","AAC-211","2017/07/18 20:09:26","新北市永和區豫溪街185號","121.522455","25.0103983333333","6500400","永和區"
"234067","AAC-212","2017/07/18 20:09:28","新北市永和區保平路236巷48號","121.507621666667","25.0068233333333","6500400","永和區"
"234003","AAC-295","2017/07/18 20:09:22","新北市永和區中正路636號","121.517043333333","25.00817","6500400","永和區"
"244019","403-UM","2017/07/18 20:09:15","新北市林口區汕頭1號","121.3564","25.1317116666667","6501700","林口區"
"244025","656-BX","2017/07/18 20:09:09","新北市林口區粉寮路二段160巷28號","121.405133333333","25.090785","6501700","林口區"
"243013","AAD-798","2017/07/18 20:09:23","新北市泰山區明志路三段74巷23號","121.423918333333","25.0416783333333","6501600","泰山區"
"243009","297-R6","2017/07/18 20:09:25","新北市泰山區泰林路二段116巷2弄1號","121.435015","25.05944","6501600","泰山區"
"243015","380-SR","2017/07/18 20:09:13","新北市泰山區明志路二段104號","121.428148333333","25.0517633333333","6501600","泰山區"
"243014","421-VK","2017/07/18 20:09:23","新北市泰山區明志路一段72號","121.433453333333","25.0645983333333","6501600","泰山區"
"243010","548-UM","2017/07/18 20:09:22","新北市泰山區明志路二段136巷48號","121.426118333333","25.0519766666667","6501600","泰山區"
"243011","549-UM","2017/07/18 20:09:18","新北市新莊區中正路668號","121.42085","25.02892","6501600","泰山區"
"243012","646-TV","2017/07/18 20:09:22","新北市泰山區楓江路39-2號","121.435095","25.06242","6501600","泰山區"
"243016","680-BX","2017/07/18 20:09:16","新北市泰山區明志路三段237號","121.423621666667","25.0377733333333","6501600","泰山區"
"222003","436-BY","2017/07/18 20:09:27","新北市深坑區埔新街63號","121.620276666667","25.0024266666667","6501800","深坑區"
"222001","628-TS","2017/07/18 20:09:24","新北市深坑區北深路三段183號","121.601416666667","25.0036483333333","6501800","深坑區"
"222002","659-BX","2017/07/18 20:09:33","新北市深坑區北深路三段156號","121.602843333333","25.00329","6501800","深坑區"
"231041","002-UM","2017/07/18 20:09:28","新北市新店區中正路468號","121.533988333333","24.9797316666667","6500600","新店區"
"231056","0293-UT","2017/07/18 20:09:25","新北市新店區北新路二段102號","121.543053333333","24.9737516666667","6500600","新店區"
"231059","046-UY","2017/07/18 20:09:19","新北市新店區安德街37號","121.511403333333","24.9624783333333","6500600","新店區"
"231061","047-UY","2017/07/18 20:09:21","新北市新店區安興路32號","121.515773333333","24.9703783333333","6500600","新店區"
"231060","106-UY","2017/07/18 20:09:17","新北市新店區安康路三段179-1號","121.488251666667","24.951745","6500600","新店區"
"231051","107-UY","2017/07/18 20:09:14","新北市新店區中央路200號","121.530565","24.9742433333333","6500600","新店區"
"231048","108-UY","2017/07/18 20:09:29","新北市新店區永華街24號","121.544178333333","24.9759416666667","6500600","新店區"
"231053","187-VK","2017/07/18 20:09:28","新北市新店區新烏路三段寶島巷2弄3號","121.552033333333","24.89862","6500600","新店區"
"231069","189-VK","2017/07/18 16:47:59","新北市新店區安華路28-1號","121.520088333333","24.9607983333333","6500600","新店區"
"231057","256-BX","2017/07/18 20:09:21","新北市新店區花園一路一段2號","121.553086666667","24.93241","6500600","新店區"
"231063","268-BY","2017/07/18 20:09:25","新北市新店區黎明路55巷1號","121.502405","24.9482983333333","6500600","新店區"
"231050","AAD-862","2017/07/18 20:09:19","新北市新店區北宜路二段360-1號","121.564721666667","24.9523616666667","6500600","新店區"
"231044","355-BY","2017/07/18 20:09:31","新北市新店區寶元路一段15巷20號","121.542011666667","24.98693","6500600","新店區"
"231055","3713-VJ","2017/07/18 20:09:21","新北市新店區中華路42巷30號","121.541046666667","24.9689766666667","6500600","新店區"
"231067","4715-K9","2017/07/18 20:09:16","新北市新店區安康路一段61號","121.530613333333","24.96098","6500600","新店區"
"231067","4772-VM","2017/07/18 19:30:11","新北市新店區安康路二段414巷2號","121.49606","24.9578616666667","6500600","新店區"
"231065","512-UM","2017/07/18 20:09:21","新北市新店區安祥路106巷248號","121.473355","24.959335","6500600","新店區"
"231054","513-UM","2017/07/18 20:09:22","新北市新店區檳榔路2號","121.540941666667","24.96501","6500600","新店區"
"231064","515-UM","2017/07/18 20:09:31","新北市新店區安光路11號","121.513596666667","24.9638566666667","6500600","新店區"
"231045","617-UM","2017/07/18 20:09:21","新北市新店區北宜路一段182號","121.540908333333","24.9529266666667","6500600","新店區"
"231040","619-UM","2017/07/18 20:09:17","新北市新店區中正路106號","121.543173333333","24.9705833333333","6500600","新店區"
"231042","641-BX","2017/07/18 20:09:24","新北市新店區中興路二段231-2號","121.547605","24.9749633333333","6500600","新店區"
"231068","718-UY","2017/07/18 20:09:15","新北市新店區北新路一段91號","121.538785","24.9617416666667","6500600","新店區"
"231049","719-UM","2017/07/18 20:09:25","新北市新店區北新路二段139巷14號","121.542153333333","24.975795","6500600","新店區"
"231062","720-UM","2017/07/18 20:09:32","新北市新店區安豐路68號","121.497841666667","24.9533166666667","6500600","新店區"
"231043","899-TW","2017/07/18 20:09:23","新北市新店區中正路331-1號","121.536188333333","24.9752666666667","6500600","新店區"
"231066","AKT-0513","2017/07/18 20:09:22","新北市新店區安德街60巷26號","121.511078333333","24.9640066666667","6500600","新店區"
"241011","013-R5","2017/07/18 20:09:20","新北市三重區仁愛街30號","121.496356666667","25.0716666666667","6500200","三重區"
"241028","022-UY","2017/07/18 20:09:29","新北市三重區仁化街123號","121.49466","25.0576","6500200","三重區"
"241009","060-VK","2017/07/18 20:09:25","新北市三重區三和路四段382巷96弄1號","121.47912","25.0780516666667","6500200","三重區"
"241031","061-VK","2017/07/18 20:09:26","新北市三重區過圳街19號","121.488688333333","25.0601083333333","6500200","三重區"
"241015","062-VK","2017/07/18 20:09:14","新北市三重區福德北路30-1號","121.502055","25.0650766666667","6500200","三重區"
"241017","063-VK","2017/07/18 20:09:29","新北市三重區長壽西街209號","121.491811666667","25.0662716666667","6500200","三重區"
"241024","065-VK","2017/07/18 20:09:32","新北市三重區中正北路294號","121.480145","25.0687916666667","6500200","三重區"
"241026","066-VK","2017/07/18 20:09:32","新北市三重區福德南路65巷1號","121.502306666667","25.06056","6500200","三重區"
"241002","090-VK","2017/07/18 20:09:23","新北市三重區仁忠街41號","121.495436666667","25.0817066666667","6500200","三重區"
"241003","091-VK","2017/07/18 20:09:27","新北市三重區仁愛街467號","121.489308333333","25.0820233333333","6500200","三重區"
"241019","156-TC","2017/07/18 20:09:16","新北市三重區自強路二段33巷37號","121.49054","25.0697566666667","6500200","三重區"
"241005","262-UM","2017/07/18 20:09:17","新北市三重區溪尾街327號","121.48845","25.08476","6500200","三重區"
"241016","266-UM","2017/07/18 20:09:23","新北市三重區新北大道一段3-1號","121.490196666667","25.0613866666667","6500200","三重區"
"241022","267-UM","2017/07/18 20:09:20","新北市三重區重陽路二段3號","121.486803333333","25.06181","6500200","三重區"
"241018","268-UM","2017/07/18 20:09:23","新北市三重區正義北路256巷20號","121.495311666667","25.0683233333333","6500200","三重區"
"241032","269-UM","2017/07/18 20:09:17","新北市三重區捷運路65號","121.483453333333","25.05556","6500200","三重區"
"241013","270-UM","2017/07/18 20:09:19","新北市三重區三和路三段139巷19號","121.493393333333","25.07387","6500200","三重區"
"241025","271-UM","2017/07/18 20:09:32","新北市三重區中正北路293號","121.474605","25.07118","6500200","三重區"
"241007","398-BY","2017/07/18 20:09:29","新北市三重區三和路四段111-11號","121.486678333333","25.0775433333333","6500200","三重區"
"241008","412-TH","2017/07/18 20:09:16","新北市三重區永福街197巷37弄14號","121.477871666667","25.0740116666667","6500200","三重區"
"241020","413-TH","2017/07/18 20:09:15","新北市三重區大智街179巷13號","121.490346666667","25.0727083333333","6500200","三重區"
"241035","462-BY","2017/07/18 20:09:30","新北市三重區平安街13號","121.498646666667","25.06429","6500200","三重區"
"241004","475-VK","2017/07/18 20:09:32","新北市三重區自強路四段80號","121.49058","25.07897","6500200","三重區"
"241030","480-VK","2017/07/18 20:09:23","新北市三重區成功路145巷33號","121.48769","25.0532283333333","6500200","三重區"
"241014","543-UM","2017/07/18 20:09:22","新北市三重區長樂街101號","121.501453333333","25.0694183333333","6500200","三重區"
"241023","545-UM","2017/07/18 20:09:16","新北市三重區頂崁街225號","121.476995","25.0681266666667","6500200","三重區"
"241001","547-UM","2017/07/18 20:09:16","新北市三重區溪尾街26號","121.490996666667","25.076435","6500200","三重區"
"241006","AAD-863","2017/07/18 20:09:17","新北市三重區力行路二段123巷4號","121.483265","25.0764583333333","6500200","三重區"
"241033","887-TS","2017/07/18 20:09:32","新北市三重區光復路一段68巷4號","121.47169","25.0492816666667","6500200","三重區"
"241012","941-UM","2017/07/18 20:09:29","新北市三重區仁興街56巷39號","121.498061666667","25.0756083333333","6500200","三重區"
"241029","942-UM","2017/07/18 20:09:17","新北市三重區光明路32巷23弄1號","121.491978333333","25.058675","6500200","三重區"
"235066","003-UY","2017/07/18 20:09:21","新北市中和區水源路127巷11號","121.508066666667","25.003795","6500300","中和區"
"235056","096-UM","2017/07/18 20:09:14","新北市中和區中山路三段167號","121.473181666667","25.0061666666667","6500300","中和區"
"235039","097-UM","2017/07/18 20:09:21","新北市中和區景平路276-1號","121.51397","24.99266","6500300","中和區"
"235065","098-UM","2017/07/18 20:09:21","新北市中和區福祥路85巷9號","121.498448333333","25.0055866666667","6500300","中和區"
"235040","150-BY","2017/07/18 20:09:30","新北市中和區保健路26巷15號","121.508501666667","24.99721","6500300","中和區"
"235055","183-VK","2017/07/18 20:09:29","新北市中和區民生街12巷2號","121.470735","25.0056316666667","6500300","中和區"
"235038","185-VK","2017/07/18 20:09:19","新北市中和區自立路14號","121.522091666667","24.996165","6500300","中和區"
"235067","255-BX","2017/07/18 20:09:17","新北市中和區連城路340巷14弄19號","121.482816666667","24.9971366666667","6500300","中和區"
"235044","293-VK","2017/07/18 20:09:17","新北市中和區南山路146巷29號","121.502803333333","24.9923716666667","6500300","中和區"
"235072","301-VK","2017/07/18 20:09:20","新北市八里區下罟子17號","121.380726666667","25.14363","6500300","中和區"
"235043","352-BY","2017/07/18 20:09:22","新北市中和區興南路二段159巷7號","121.505293333333","24.9831916666667","6500300","中和區"
"235051","376-QA","2017/07/18 20:09:29","新北市中和區景安路221號","121.504328333333","24.99139","6500300","中和區"
"235068","377-QA","2017/07/18 20:09:24","新北市中和區中山路二段274號","121.49683","25.0023683333333","6500300","中和區"
"235050","4979-A6","2017/07/18 20:09:15","新北市中和區景平路336號","121.511845","24.9929816666667","6500300","中和區"
"235069","4980-A6","2017/07/18 20:09:29","新北市中和區圓通路160-1號","121.497568333333","24.9954616666667","6500300","中和區"
"235042","551-UM","2017/07/18 20:09:27","新北市新店區光華街38巷11號","121.51582","24.97016","6500300","中和區"
"235070","611-BX","2017/07/18 20:09:28","新北市中和區圓通路208號","121.495966666667","24.99401","6500300","中和區"
"235054","640-BX","2017/07/18 20:09:21","新北市中和區莒光路112號","121.472476666667","25.002035","6500300","中和區"
"235047","732-UM","2017/07/18 20:09:23","新北市中和區景平路404號","121.509175","24.99309","6500300","中和區"
"235046","733-UM","2017/07/18 20:09:29","新北市中和區忠孝街31巷46號","121.509851666667","24.9852116666667","6500300","中和區"
"235041","802-TS","2017/07/18 20:09:19","新北市中和區中安街20號","121.513415","25.0030916666667","6500300","中和區"
"235052","805-TS","2017/07/18 20:09:27","新北市中和區華新街49號","121.507851666667","24.9844883333333","6500300","中和區"
"235048","896-TW","2017/07/18 20:09:24","新北市中和區景新街487號","121.513676666667","24.9874533333333","6500300","中和區"
"235053","900-TW","2017/07/18 20:09:13","新北市中和區華安街99號","121.468226666667","24.9962283333333","6500300","中和區"
"235037","AAC-213","2017/07/18 20:09:27","新北市中和區秀朗路三段121巷2號","121.525741666667","24.9931733333333","6500300","中和區"
"235059","AAC-215","2017/07/18 20:09:32","新北市中和區圓通路335巷37弄1號","121.493891666667","24.9890933333333","6500300","中和區"
"220068","013-TV","2017/07/18 20:05:49","新北市板橋區中山路二段320號","121.48082","25.0193416666667","6500100","板橋區"
"220065","072-UY","2017/07/18 20:09:21","新北市板橋區縣民大道二段68-1號","121.463583333333","25.0130316666667","6500100","板橋區"
"220106","075-UY","2017/07/18 20:09:27","新北市板橋區懷德街55號","121.477271666667","25.0327383333333","6500100","板橋區"
"247020","893-R6","2017/07/18 20:09:26","新北市蘆洲區民義街68巷32號","121.474048333333","25.0892733333333","6501400","蘆洲區"
"247010","546-UM","2017/07/18 20:09:19","新北市蘆洲區信義路154號","121.479275","25.083395","6501400","蘆洲區"
"247018","500-BY","2017/07/18 20:09:23","新北市蘆洲區民族路271號","121.475973333333","25.09073","6501400","蘆洲區"
"247006","341-TH","2017/07/18 20:09:24","新北市蘆洲區永安南路二段14號","121.467641666667","25.076955","6501400","蘆洲區"
"247008","339-TH","2017/07/18 20:09:18","新北市蘆洲區集賢路300號","121.48149","25.08502","6501400","蘆洲區"
"247024","337-TH","2017/07/18 20:09:16","新北市蘆洲區光榮路120巷12號","121.465388333333","25.08842","6501400","蘆洲區"
"247002","336-TH","2017/07/18 20:09:24","新北市蘆洲區長安街307號","121.45801","25.08526","6501400","蘆洲區"
"247014","057-VK","2017/07/18 20:09:18","新北市蘆洲區中山二路261號","121.469825","25.079705","6501400","蘆洲區"
"247004","056-VK","2017/07/18 20:09:28","新北市蘆洲區永安南路二段328巷18弄1號","121.456656666667","25.0842166666667","6501400","蘆洲區"
"247012","007-UY","2017/07/18 20:09:23","新北市蘆洲區中興街15巷36號","121.479951666667","25.088205","6501400","蘆洲區"
"247022","002-UY","2017/07/18 20:09:29","新北市蘆洲區三民路171巷25號","121.470478333333","25.0869366666667","6501400","蘆洲區"
"247016","001-UY","2017/07/18 20:09:13","新北市蘆洲區光華路150巷5號","121.465451666667","25.0824733333333","6501400","蘆洲區"
"224010","AGQ-8101","2017/07/18 20:09:12","新北市瑞芳區輕便路55號","121.84509","25.1102716666667","6501200","瑞芳區"
"208003","665-BX","2017/07/18 20:09:17","新北市金山區海興路112號","121.631245","25.2389683333333","6502700","金山區"
"251004","009-UM","2017/07/18 20:09:17","新北市淡水區民族路31巷37號","121.462115","25.1366333333333","6501000","淡水區"
"251014","180-VK","2017/07/18 20:09:33","新北市淡水區石頭厝3號","121.458695","25.2355966666667","6501000","淡水區"
"251008","181-VK","2017/07/18 20:09:29","新北市淡水區淡海路72巷30弄16號","121.425046666667","25.18253","6501000","淡水區"
"251010","413-VK","2017/07/18 20:09:17","新北市淡水區新市二路二段2號","121.4257","25.1961816666667","6501000","淡水區"
"251012","441-VK","2017/07/18 20:09:21","新北市淡水區淡金路三段185號","121.448665","25.2044816666667","6501000","淡水區"
"251016","442-VK","2017/07/18 20:09:12","新北市淡水區番子田18-5號","121.456266666667","25.2297566666667","6501000","淡水區"
"251005","443-VK","2017/07/18 20:09:33","新北市淡水區學府路121號","121.450236666667","25.1724733333333","6501000","淡水區"
"251001","559-UM","2017/07/18 20:09:19","新北市淡水區新市二路四段265號","121.445775","25.1924833333333","6501000","淡水區"
"251006","561-UM","2017/07/18 20:09:31","新北市淡水區北新路141巷29號","121.448136666667","25.1796483333333","6501000","淡水區"
"251009","575-R6","2017/07/18 20:09:24","新北市淡水區清水街5號","121.444996666667","25.1703533333333","6501000","淡水區"
"251011","650-BX","2017/07/18 20:09:25","新北市淡水區下圭柔山91-3號","121.430865","25.20956","6501000","淡水區"
"251002","672-BX","2017/07/18 20:09:26","新北市淡水區中正路23巷1號","121.435681666667","25.173195","6501000","淡水區"
"251003","766-UM","2017/07/18 20:09:17","新北市淡水區新市一路二段255號","121.443875","25.1829816666667","6501000","淡水區"
"207003","550-UM","2017/07/18 20:09:19","新北市萬里區大鵬里萬里加投186號","121.642828333333","25.2156483333333","6502800","萬里區"
"207004","225-TW","2017/07/18 20:09:19","新北市萬里區北基里大勇路16號","121.682071666667","25.1766766666667","6502800","萬里區"
"252002","178-VK","2017/07/18 20:09:18","新北市三芝區忠孝街116-3號","121.50556","25.257555","6502100","三芝區"
"252001","702-TV","2017/07/18 20:09:20","新北市三芝區公正街9號","121.499775","25.2575283333333","6502100","三芝區"
"252005","AAC-283","2017/07/18 15:54:34","新北市三芝區埔坪里埔頭坑41號","121.50453","25.2644316666667","6502100","三芝區"
"237007","153-BY","2017/07/18 20:09:23","新北市三峽區二鬮路57-2號","121.361325","24.909445","6500900","三峽區"
"237013","252-BX","2017/07/18 20:09:21","新北市樹林區中山路三段202-1號","121.386041666667","24.9683516666667","6500900","三峽區"
"237012","275-BY","2017/07/18 20:09:19","新北市三峽區中華路48巷18號","121.37109","24.9299833333333","6500900","三峽區"
"237008","302-VK","2017/07/18 20:09:23","新北市三峽區中正路一段108巷7弄17號","121.37326","24.9296","6500900","三峽區"
"237006","5529-G3","2017/07/18 20:09:16","新北市三峽區嘉添1號","121.368323333333","24.9118283333333","6500900","三峽區"
"237016","649-BX","2017/07/18 20:09:16","新北市三峽區介壽路二段138巷1弄164號","121.403103333333","24.9278033333333","6500900","三峽區"
"237005","AKY-6261","2017/07/18 20:09:16","新北市三峽區三樹路98巷121號","121.382708333333","24.9386566666667","6500900","三峽區"
"236070","105-UM","2017/07/18 20:09:22","新北市土城區中央路三段119-1號","121.434255","24.9657083333333","6501300","土城區"
"236043","107-UM","2017/07/18 20:09:17","新北市土城區學成路22巷4號","121.453448333333","24.987325","6501300","土城區"
"236079","166-UM","2017/07/18 20:09:33","新北市土城區中山路29-3號","121.419538333333","24.962575","6501300","土城區"
"236031","253-BX","2017/07/18 20:09:29","新北市土城區中央路一段118巷1弄11號","121.445865","24.9878233333333","6501300","土城區"
"236027","269-VK","2017/07/18 20:09:31","新北市土城區中央路一段287號","121.444428333333","24.9844233333333","6501300","土城區"
"236015","270-VK","2017/07/18 20:09:25","新北市土城區德興街135號","121.45511","24.9917783333333","6501300","土城區"
"236038","271-VK","2017/07/18 20:09:14","新北市土城區延吉街296巷16號","121.464423333333","24.9847416666667","6501300","土城區"
"236023","401-BY","2017/07/18 20:09:31","新北市土城區延吉街111巷15號","121.471816666667","24.9860933333333","6501300","土城區"
"236059","912-UM","2017/07/18 20:09:17","新北市土城區中央路一段304號","121.443416666667","24.981845","6501300","土城區"
"236049","913-UM","2017/07/18 20:09:29","新北市土城區金城路三段23號","121.465171666667","24.9864933333333","6501300","土城區"
"236063","915-UM","2017/07/18 20:09:22","新北市土城區延和路12巷13號","121.464488333333","24.9873733333333","6501300","土城區"
"236055","AAC-216","2017/07/18 20:09:31","新北市土城區學府路一段81號","121.456695","24.9880483333333","6501300","土城區"
"242021","AAC-296","2017/07/18 20:09:14","新北市新莊區建中街48巷10弄8號","121.448436666667","25.038445","6500500","新莊區"
"242029","986-R7","2017/07/18 20:09:29","新北市新莊區中榮街152巷2號","121.445946666667","25.053035","6500500","新莊區"
"242046","751-BX","2017/07/18 20:09:30","新北市新莊區裕民街55巷14號","121.419141666667","25.02367","6500500","新莊區"
"242025","615-BX","2017/07/18 20:09:34","新北市新莊區五工三路80號","121.459045","25.0651833333333","6500500","新莊區"
"242023","613-BX","2017/07/18 20:09:15","新北市新莊區化成路251號","121.466175","25.053615","6500500","新莊區"
"242027","612-BX","2017/07/18 20:09:15","新北市新莊區幸福路827號","121.445106666667","25.0490033333333","6500500","新莊區"
"242037","566-BX","2017/07/18 20:09:22","新北市新莊區建安街9巷7號","121.429246666667","25.0266766666667","6500500","新莊區"
"242042","497-BY","2017/07/18 20:09:26","新北市新莊區青山路一段115號","121.404003333333","25.0289183333333","6500500","新莊區"
"242005","442-UM","2017/07/18 20:09:24","新北市新莊區頭前路88-1號","121.4643","25.0525166666667","6500500","新莊區"
"242048","441-UM","2017/07/18 20:09:22","新北市新莊區四維路152巷40號","121.421838333333","25.02215","6500500","新莊區"
"242051","440-UM","2017/07/18 20:09:25","新北市新莊區民安西路185號","121.426056666667","25.0156133333333","6500500","新莊區"
"242032","415-TV","2017/07/18 20:09:15","新北市新莊區忠孝街29巷7號","121.443598333333","25.035625","6500500","新莊區"
"242002","413-TV","2017/07/18 20:09:21","新北市新莊區中正路83號","121.461131666667","25.0391416666667","6500500","新莊區"
"242039","400-BY","2017/07/18 20:09:28","新北市新莊區民安西路107號","121.426836666667","25.0184466666667","6500500","新莊區"
"242061","362-BY","2017/07/18 20:09:19","新北市新莊區瓊林路100巷1號","121.44348","25.026505","6500500","新莊區"
"242058","353-BY","2017/07/18 20:09:22","新北市新莊區龍安路333號","121.422438333333","25.01918","6500500","新莊區"
"242011","132-UY","2017/07/18 20:09:16","新北市新莊區中信街49號","121.449706666667","25.0507283333333","6500500","新莊區"
"242034","133-UY","2017/07/18 20:09:16","新北市新莊區建中街81巷8號","121.447333333333","25.03614","6500500","新莊區"
"242019","135-UY","2017/07/18 20:09:26","新北市新莊區銘德街26號","121.45856","25.0437533333333","6500500","新莊區"
"242044","172-VK","2017/07/18 20:09:18","新北市新莊區中正路929巷7弄12號","121.41132","25.0203883333333","6500500","新莊區"
"242007","173-VK","2017/07/18 20:09:21","新北市新莊區思源路419巷1弄1號","121.45932","25.05243","6500500","新莊區"
"242056","176-VK","2017/07/18 20:09:13","新北市新莊區豐年街23號","121.446376666667","25.0325016666667","6500500","新莊區"
"242013","346-TH","2017/07/18 20:09:33","新北市新莊區幸福路680號","121.450593333333","25.0495333333333","6500500","新莊區"
"242017","348-TH","2017/07/18 20:09:14","新北市新莊區中港路370號","121.45229","25.0472683333333","6500500","新莊區"
"242054","349-TH","2017/07/18 20:09:13","新北市新莊區西盛街395巷9號","121.428246666667","25.0126983333333","6500500","新莊區"
"242015","350-TH","2017/07/18 20:09:19","新北市新莊區中平路26巷25號","121.446253333333","25.0432933333333","6500500","新莊區"
"242009","351-TH","2017/07/18 20:09:13","新北市新莊區昌平街37號","121.454716666667","25.0522116666667","6500500","新莊區"
"238015","755-BX","2017/07/18 20:06:29","新北市樹林區中山路三段214號","121.380205","24.9679683333333","6500700","樹林區"
"238023","601-UM","2017/07/18 20:09:20","新北市樹林區中山路二段125號","121.407863333333","24.979735","6500700","樹林區"
"238021","311-TH","2017/07/18 19:30:52","新北市樹林區柑園街二段247巷12號","121.375013333333","24.950565","6500700","樹林區"
"221008","489-VK","2017/07/18 20:09:25","台北市內湖區康樂街201巷2號","121.621538333333","25.0762066666667","6501100","汐止區"
"221036","130-UY","2017/07/18 20:09:22","新北市汐止區新台五路二段102號","121.662583333333","25.06589","6501100","汐止區"
"221015","131-UY","2017/07/18 20:09:11","新北市汐止區建成路26號","121.664401666667","25.072675","6501100","汐止區"
"221010","269-BY","2017/07/18 20:09:16","新北市汐止區八連路一段245-1號","121.640458333333","25.08329","6501100","汐止區"
"221031","277-VK","2017/07/18 20:09:29","新北市汐止區中興路214巷14號","121.631578333333","25.0666533333333","6501100","汐止區"
"221012","278-VK","2017/07/18 20:08:40","新北市汐止區汐平路二段43號","121.696331666667","25.0635616666667","6501100","汐止區"
"221023","279-VK","2017/07/18 14:31:11","台北市文山區老泉街45巷18-1號","121.576163333333","24.97623","6501100","汐止區"
"221032","280-BY","2017/07/18 20:09:11","新北市汐止區弘道街8巷1弄2號","121.617068333333","25.04839","6501100","汐止區"
"221027","281-BY","2017/07/18 20:09:30","新北市汐止區中正路110號","121.660896666667","25.0697133333333","6501100","汐止區"
"221038","297-VK","2017/07/18 20:09:10","新北市汐止區忠孝東路528號","121.667111666667","25.0763183333333","6501100","汐止區"
"221029","298-VK","2017/07/18 20:09:24","新北市汐止區樟樹一路119巷10弄3號","121.641133333333","25.06457","6501100","汐止區"
"221021","299-VK","2017/07/18 20:08:59","新北市汐止區莊敬街128-7號","121.654435","25.0612333333333","6501100","汐止區"
"221035","622-UM","2017/07/18 20:09:18","新北市汐止區長江街67巷2弄13號","121.65702","25.0724","6501100","汐止區"
"221025","623-UM","2017/07/18 20:09:28","新北市汐止區水源路一段233號","121.654285","25.06049","6501100","汐止區"
"221033","647-BX","2017/07/18 20:09:16","新北市汐止區東勢街201巷104號","121.633596666667","25.04301","6501100","汐止區"
"221002","707-TV","2017/07/18 20:09:23","新北市汐止區工建路332號","121.633876666667","25.0599416666667","6501100","汐止區"
"221018","753-BX","2017/07/18 20:09:26","新北市汐止區茄福街35巷27號","121.673213333333","25.0663566666667","6501100","汐止區"
"220093","146-RM","2017/07/18 20:09:13","新北市板橋區長江路二段206號","121.467651666667","25.03209","6500100","板橋區"
"220080","200-UY","2017/07/18 20:09:30","新北市板橋區大觀路二段153巷18號","121.446451666667","25.0003983333333","6500100","板橋區"
"220101","245-BX","2017/07/18 20:09:24","新北市板橋區莒光路165巷32號","121.474415","25.0247416666667","6500100","板橋區"
"220069","258-TC","2017/07/18 20:09:20","新北市板橋區南雅南路二段18號","121.454455","25.0035266666667","6500100","板橋區"
"220072","277-BY","2017/07/18 20:09:23","新北市板橋區金門街109巷25號","121.433895","24.9917116666667","6500100","板橋區"
"220064","280-UM","2017/07/18 20:09:13","新北市板橋區長安街331巷87-3號","121.472091666667","25.0126983333333","6500100","板橋區"
"220071","283-VK","2017/07/18 20:09:26","新北市板橋區和平路190巷30號","121.465073333333","24.9944183333333","6500100","板橋區"
"220053","285-VK","2017/07/18 20:09:17","新北市板橋區懷仁街69號","121.477223333333","25.0186516666667","6500100","板橋區"
"220083","286-VK","2017/07/18 20:09:26","新北市板橋區僑中二街52號","121.446606666667","25.0100916666667","6500100","板橋區"
"220081","287-VK","2017/07/18 20:09:13","新北市板橋區僑中一街124巷20弄38號","121.447631666667","25.013855","6500100","板橋區"
"220061","293-UM","2017/07/18 20:09:23","新北市板橋區觀光街4巷2弄1號","121.472323333333","25.0158433333333","6500100","板橋區"
"220084","296-UM","2017/07/18 20:09:16","新北市板橋區溪崑二街112巷10號","121.426058333333","24.9888483333333","6500100","板橋區"
"220075","297-UM","2017/07/18 20:09:24","新北市板橋區金華街10巷111號","121.459361666667","25.020535","6500100","板橋區"
"220092","307-R5","2017/07/18 20:09:24","新北市板橋區民權路174號","121.459535","25.0132633333333","6500100","板橋區"
"220098","317-R6","2017/07/18 20:09:31","新北市板橋區新海路72巷5弄36號","121.461545","25.023055","6500100","板橋區"
"220089","487-VK","2017/07/18 20:09:13","新北市板橋區互助街55號","121.46081","25.026465","6500100","板橋區"
"220088","491-VK","2017/07/18 20:09:30","新北市板橋區民治街59號","121.479496666667","25.0332916666667","6500100","板橋區"
"220103","561-BX","2017/07/18 20:09:23","新北市板橋區自由路24號","121.465776666667","25.0227483333333","6500100","板橋區"
"220057","686-BX","2017/07/18 20:09:29","新北市板橋區四川路二段130巷1-1號","121.449898333333","24.9937466666667","6500100","板橋區"
"220054","741-BX","2017/07/18 20:09:19","新北市板橋區忠孝路忠義巷9弄88號","121.465068333333","25.00564","6500100","板橋區"
"220055","827-TW","2017/07/18 20:09:21","新北市板橋區仁愛路86巷22-1號","121.460936666667","24.9986516666667","6500100","板橋區"
"220067","829-TW","2017/07/18 20:09:32","新北市板橋區中山路二段38號","121.472975","25.0152916666667","6500100","板橋區"
"220102","830-TW","2017/07/18 20:09:25","新北市板橋區民治街135號","121.47768","25.03076","6500100","板橋區"
"220096","831-TW","2017/07/18 20:09:30","新北市板橋區莒光路15巷18-1號","121.47042","25.0255516666667","6500100","板橋區"
"220074","895-R6","2017/07/18 20:09:20","新北市板橋區民權路67號","121.46152","25.011465","6500100","板橋區"
"220073","985-R7","2017/07/18 20:09:33","新北市板橋區南雅西路二段2-1號","121.4533","25.0087483333333","6500100","板橋區"
"220097","AAC-210","2017/07/18 20:09:30","新北市板橋區光正街24號","121.462411666667","25.0172483333333","6500100","板橋區"
"220070","AAC-253","2017/07/18 20:09:33","新北市板橋區四川路一段131號","121.46006","25.0046283333333","6500100","板橋區"
