"lineid","car","time","location","longitude","latitude","cityid","cityname"
"234064","337-UY","2017/07/18 20:39:20","新北市永和區中正路605號","121.516438333333","25.0097083333333","6500400","永和區"
"234030","746-BX","2017/07/18 20:39:08","新北市五股區新五路二段372巷20號","121.447761666667","25.0861333333333","6500400","永和區"
"234061","AAD-866","2017/07/18 20:39:17","新北市永和區秀朗路一段175號","121.517038333333","25.00365","6500400","永和區"
"234042","862-TW","2017/07/18 20:39:16","新北市永和區福和路368號","121.51448","25.0077116666667","6500400","永和區"
"249004","303-UY","2017/07/18 20:39:20","新北市八里區中山路一段203號","121.411471666667","25.158145","6502300","八里區"
"249001","759-BX","2017/07/18 20:39:08","新北市八里區下罟子23號","121.376725","25.1386683333333","6502300","八里區"
"234023","9380-KE","2017/07/18 20:39:10","新北市永和區文化路161號","121.510301666667","25.0164616666667","6500400","永和區"
"234074","AAC-211","2017/07/18 20:39:07","新北市永和區竹林路119巷16號","121.52099","25.0114166666667","6500400","永和區"
"234067","AAC-212","2017/07/18 20:39:13","新北市永和區保平路268巷14號","121.50791","25.0060316666667","6500400","永和區"
"244019","403-UM","2017/07/18 20:39:15","新北市林口區粉寮路二段27-3號","121.400276666667","25.08527","6501700","林口區"
"244025","656-BX","2017/07/18 20:10:29","新北市林口區粉寮路二段160巷28號","121.405136666667","25.0907833333333","6501700","林口區"
"243015","380-SR","2017/07/18 20:39:12","新北市泰山區全興路111號","121.433653333333","25.0564883333333","6501600","泰山區"
"243010","548-UM","2017/07/18 20:39:22","新北市泰山區公園路89號","121.42478","25.05485","6501600","泰山區"
"243011","549-UM","2017/07/18 20:39:18","新北市泰山區黎明路6-1號","121.42119","25.0616983333333","6501600","泰山區"
"222003","436-BY","2017/07/18 20:39:08","新北市深坑區阿柔洋25-1號","121.613061666667","24.9990933333333","6501800","深坑區"
"222001","628-TS","2017/07/18 20:39:04","新北市深坑區北深路三段234號","121.60062","25.0039816666667","6501800","深坑區"
"222002","659-BX","2017/07/18 20:39:13","新北市深坑區北深路三段270巷16-5號","121.598773333333","25.0063483333333","6501800","深坑區"
"231041","002-UM","2017/07/18 20:39:08","新北市新店區中正路545號","121.533761666667","24.9875816666667","6500600","新店區"
"231056","0293-UT","2017/07/18 20:39:05","新北市新店區民生路75巷221號","121.532051666667","24.98183","6500600","新店區"
"231059","046-UY","2017/07/18 20:39:19","新北市新店區僑愛二路1號","121.499845","24.9451466666667","6500600","新店區"
"231061","047-UY","2017/07/18 20:39:01","新北市新店區新和街39號","121.519315","24.9849933333333","6500600","新店區"
"231060","106-UY","2017/07/18 20:39:16","新北市新店區安康路三段628號","121.47832","24.9457166666667","6500600","新店區"
"231051","107-UY","2017/07/18 20:39:14","新北市新店區中央七街59號","121.528173333333","24.976175","6500600","新店區"
"231048","108-UY","2017/07/18 20:39:09","新北市新店區寶慶街7號","121.543828333333","24.9867466666667","6500600","新店區"
"231053","187-VK","2017/07/18 20:39:08","新北市新店區廣興路7-1號","121.545956666667","24.9120766666667","6500600","新店區"
"231069","189-VK","2017/07/18 16:47:59","新北市新店區安華路28-1號","121.520088333333","24.9607983333333","6500600","新店區"
"231057","256-BX","2017/07/18 20:39:01","新北市新店區花園六路二段1-8號","121.554125","24.93316","6500600","新店區"
"231063","268-BY","2017/07/18 20:39:04","新北市新店區玫瑰路4-1號","121.493593333333","24.95138","6500600","新店區"
"231050","AAD-862","2017/07/18 20:39:19","新北市新店區建安街24號","121.539726666667","24.9754683333333","6500600","新店區"
"231044","355-BY","2017/07/18 20:39:11","新北市新店區建國路293巷2號","121.53678","24.98625","6500600","新店區"
"231058","3712-VJ","2017/07/18 20:39:02","新北市新店區自由街20號","121.535108333333","24.97464","6500600","新店區"
"231067","4772-VM","2017/07/18 19:30:11","新北市新店區安康路二段414巷2號","121.49606","24.9578616666667","6500600","新店區"
"231065","512-UM","2017/07/18 20:39:21","新北市新店區安祥路102巷59號","121.486188333333","24.9638033333333","6500600","新店區"
"231054","513-UM","2017/07/18 20:39:22","新北市新店區行政街45號","121.543061666667","24.965605","6500600","新店區"
"231064","515-UM","2017/07/18 20:39:24","新北市新店區安和路三段175號","121.515713333333","24.986345","6500600","新店區"
"231045","617-UM","2017/07/18 20:39:01","新北市新店區長春路213號","121.559301666667","24.961995","6500600","新店區"
"231040","619-UM","2017/07/18 20:39:17","新北市新店區中正路265號","121.538005","24.9739033333333","6500600","新店區"
"231042","641-BX","2017/07/18 20:39:04","新北市新店區寶高路120巷1-1號","121.5546","24.975925","6500600","新店區"
"231068","718-UY","2017/07/18 20:39:17","新北市新店區寶慶街35巷3弄1號","121.543126666667","24.986125","6500600","新店區"
"231049","719-UM","2017/07/18 20:39:04","新北市新店區永業路81巷5弄31號","121.530923333333","24.9498216666667","6500600","新店區"
"231062","720-UM","2017/07/18 20:39:12","新北市新店區安泰路11巷1號","121.485523333333","24.9502016666667","6500600","新店區"
"231043","899-TW","2017/07/18 20:39:01","新北市新店區建國路35巷2號","121.540463333333","24.9745816666667","6500600","新店區"
"231066","AKT-0513","2017/07/18 20:39:22","新北市新店區安興路105-1號","121.514731666667","24.9780433333333","6500600","新店區"
"241011","013-R5","2017/07/18 20:39:20","新北市三重區龍濱路221號","121.501886666667","25.0720466666667","6500200","三重區"
"241028","022-UY","2017/07/18 20:39:09","新北市三重區光興街93號","121.497338333333","25.0598833333333","6500200","三重區"
"241009","060-VK","2017/07/18 20:39:05","新北市三重區碧華街57號","121.484743333333","25.0812766666667","6500200","三重區"
"241031","061-VK","2017/07/18 20:39:06","新北市三重區重陽路一段43巷30號","121.4882","25.0586516666667","6500200","三重區"
"241015","062-VK","2017/07/18 20:39:14","新北市三重區文化北路103號","121.497856666667","25.0684033333333","6500200","三重區"
"241017","063-VK","2017/07/18 20:39:09","新北市三重區大同北路265號","121.490875","25.0672183333333","6500200","三重區"
"241024","065-VK","2017/07/18 20:39:12","新北市三重區中正北路253號","121.475475","25.0708566666667","6500200","三重區"
"241026","066-VK","2017/07/18 20:39:21","新北市三重區和平街9號","121.500346666667","25.062405","6500200","三重區"
"241002","090-VK","2017/07/18 20:39:03","新北市三重區仁義街167巷33號","121.498103333333","25.0820566666667","6500200","三重區"
"241003","091-VK","2017/07/18 20:39:07","新北市三重區集賢路87-1號","121.493636666667","25.08686","6500200","三重區"
"241019","156-TC","2017/07/18 20:39:16","新北市三重區安慶街四段66號","121.49187","25.0705966666667","6500200","三重區"
"241005","262-UM","2017/07/18 20:39:17","新北市三重區碧華街440號","121.492893333333","25.085765","6500200","三重區"
"241016","266-UM","2017/07/18 20:39:11","新北市三重區自強路一段143號","121.494576666667","25.0668183333333","6500200","三重區"
"241022","267-UM","2017/07/18 20:39:20","新北市三重區中山路33巷12號","121.487856666667","25.062065","6500200","三重區"
"241018","268-UM","2017/07/18 20:39:03","新北市三重區重陽路四段20號","121.490981666667","25.0692766666667","6500200","三重區"
"241032","269-UM","2017/07/18 20:39:17","新北市三重區重陽路一段120巷48號","121.485041666667","25.0601783333333","6500200","三重區"
"241013","270-UM","2017/07/18 20:39:19","新北市三重區仁賢街4號","121.495616666667","25.074835","6500200","三重區"
"241025","271-UM","2017/07/18 20:39:12","新北市三重區頂崁街210巷23弄1號","121.475816666667","25.0681516666667","6500200","三重區"
"241007","398-BY","2017/07/18 20:39:09","新北市三重區三和路四段101巷18號","121.488768333333","25.07705","6500200","三重區"
"241008","412-TH","2017/07/18 20:39:16","新北市三重區下竹圍街91號","121.48114","25.0748416666667","6500200","三重區"
"241020","413-TH","2017/07/18 20:39:15","新北市三重區忠孝路一段21號","121.491981666667","25.0719233333333","6500200","三重區"
"241035","462-BY","2017/07/18 20:39:10","新北市三重區正義北路275-1號","121.495141666667","25.07015","6500200","三重區"
"241004","475-VK","2017/07/18 20:39:21","新北市三重區仁愛街382號","121.491081666667","25.0807416666667","6500200","三重區"
"241030","480-VK","2017/07/18 20:39:23","新北市三重區成功路73巷18號","121.489431666667","25.05195","6500200","三重區"
"241014","543-UM","2017/07/18 20:39:22","新北市三重區萬壽街14號","121.499381666667","25.0693866666667","6500200","三重區"
"241023","545-UM","2017/07/18 20:39:16","新北市三重區自由街35巷2號","121.478938333333","25.0669383333333","6500200","三重區"
"241001","547-UM","2017/07/18 20:39:16","新北市三重區自強路三段110巷22號","121.486056666667","25.0744183333333","6500200","三重區"
"241033","887-TS","2017/07/18 20:39:13","新北市三重區頂崁街23號","121.4769","25.0557183333333","6500200","三重區"
"241012","941-UM","2017/07/18 20:39:22","新北市三重區秀江街26號","121.502516666667","25.0729866666667","6500200","三重區"
"241029","942-UM","2017/07/18 20:39:17","新北市三重區集美街126巷25號","121.489996666667","25.0537283333333","6500200","三重區"
"235039","097-UM","2017/07/18 20:39:01","新北市中和區大勇街29巷2-5號","121.51614","24.99431","6500300","中和區"
"235072","301-VK","2017/07/18 20:39:20","新北市板橋區文化路二段656號","121.480488333333","25.039895","6500300","中和區"
"235069","4980-A6","2017/07/18 20:39:09","新北市中和區新生街286號","121.483708333333","24.9965966666667","6500300","中和區"
"235047","732-UM","2017/07/18 20:39:23","新北市林口區太平里180號","121.366686666667","25.1338833333333","6500300","中和區"
"235037","AAC-213","2017/07/18 20:39:07","新北市中和區自強路38巷1號","121.52025","24.9953266666667","6500300","中和區"
"247020","893-R6","2017/07/18 20:39:06","新北市蘆洲區仁愛街21號","121.472506666667","25.092335","6501400","蘆洲區"
"247010","546-UM","2017/07/18 20:39:19","新北市蘆洲區中山一路138號","121.47635","25.0817","6501400","蘆洲區"
"247006","341-TH","2017/07/18 20:39:08","新北市蘆洲區和平路121巷1號","121.467315","25.0797316666667","6501400","蘆洲區"
"247008","339-TH","2017/07/18 20:39:18","新北市三重區永安北路二段5巷1號","121.481605","25.080955","6501400","蘆洲區"
"247024","337-TH","2017/07/18 20:39:16","新北市蘆洲區長樂路231號","121.461823333333","25.0898116666667","6501400","蘆洲區"
"247002","336-TH","2017/07/18 20:39:04","新北市蘆洲區永樂街39號","121.457811666667","25.088355","6501400","蘆洲區"
"247014","057-VK","2017/07/18 20:39:18","新北市蘆洲區成功路77-1號","121.473088333333","25.0809666666667","6501400","蘆洲區"
"247004","056-VK","2017/07/18 20:39:05","新北市蘆洲區長安街297號","121.458053333333","25.0848883333333","6501400","蘆洲區"
"247012","007-UY","2017/07/18 20:39:17","新北市蘆洲區集賢路224巷12號","121.481986666667","25.0869716666667","6501400","蘆洲區"
"247022","002-UY","2017/07/18 20:39:09","新北市蘆洲區中正路263巷12號","121.466761666667","25.0870616666667","6501400","蘆洲區"
"247016","001-UY","2017/07/18 20:39:13","新北市蘆洲區中山二路286號","121.468818333333","25.07784","6501400","蘆洲區"
"251014","180-VK","2017/07/18 20:39:14","新北市淡水區公埔子25-2號","121.468116666667","25.2328783333333","6501000","淡水區"
"251010","413-VK","2017/07/18 20:39:17","新北市淡水區沙崙路181巷15號","121.42395","25.184355","6501000","淡水區"
"251012","441-VK","2017/07/18 20:39:21","新北市淡水區興仁路108號","121.451676666667","25.2181683333333","6501000","淡水區"
"251016","442-VK","2017/07/18 20:39:12","新北市淡水區後洲子16-1號","121.449521666667","25.22405","6501000","淡水區"
"251001","559-UM","2017/07/18 20:39:19","新北市淡水區淡金路187號","121.458411666667","25.1655333333333","6501000","淡水區"
"251006","561-UM","2017/07/18 20:39:10","新北市淡水區商工路198巷13號","121.451723333333","25.1864466666667","6501000","淡水區"
"251011","650-BX","2017/07/18 20:39:06","新北市淡水區新市一路一段361號","121.436183333333","25.1861683333333","6501000","淡水區"
"251002","672-BX","2017/07/18 20:39:07","新北市淡水區中正路36號","121.44378","25.16929","6501000","淡水區"
"251003","766-UM","2017/07/18 20:39:17","新北市淡水區新民街120巷17號","121.438206666667","25.1780883333333","6501000","淡水區"
"252001","702-TV","2017/07/18 20:39:20","新北市三芝區長安街32號","121.501706666667","25.2561266666667","6502100","三芝區"
"252005","AAC-283","2017/07/18 15:54:34","新北市三芝區埔坪里埔頭坑41號","121.50453","25.2644316666667","6502100","三芝區"
"236027","269-VK","2017/07/18 20:39:01","新北市土城區中山路1號","121.411618333333","24.96025","6501300","土城區"
"242021","AAC-296","2017/07/18 20:39:14","新北市新莊區公園路116號","121.451431666667","25.0398716666667","6500500","新莊區"
"242029","986-R7","2017/07/18 20:39:08","新北市新莊區昌隆街3巷1弄2號","121.454261666667","25.0513316666667","6500500","新莊區"
"242046","751-BX","2017/07/18 20:39:09","新北市新莊區富國路22巷17號","121.418398333333","25.02589","6500500","新莊區"
"242025","615-BX","2017/07/18 20:39:14","新北市新莊區化成路565號","121.465008333333","25.0656433333333","6500500","新莊區"
"242023","613-BX","2017/07/18 20:39:18","新北市新莊區化成路618號","121.466245","25.0548533333333","6500500","新莊區"
"242027","612-BX","2017/07/18 20:39:15","新北市新莊區思源路45號","121.459986666667","25.0399216666667","6500500","新莊區"
"242037","566-BX","2017/07/18 20:39:22","新北市新莊區建安街10-1號","121.428466666667","25.0264616666667","6500500","新莊區"
"242042","497-BY","2017/07/18 20:39:02","新北市新莊區天祥街15巷10號","121.416481666667","25.0276266666667","6500500","新莊區"
"242005","442-UM","2017/07/18 20:39:03","新北市新莊區化成路371巷28弄1號","121.463466666667","25.0570833333333","6500500","新莊區"
"242048","441-UM","2017/07/18 20:39:21","新北市新莊區中正路847號","121.420153333333","25.0281133333333","6500500","新莊區"
"242051","440-UM","2017/07/18 20:39:19","新北市新莊區民安西路113-1號","121.426716666667","25.0181683333333","6500500","新莊區"
"242032","415-TV","2017/07/18 20:39:15","新北市新莊區中正路508巷5弄2號","121.435066666667","25.0338216666667","6500500","新莊區"
"242002","413-TV","2017/07/18 20:39:21","新北市新莊區中正路163號","121.45507","25.0366216666667","6500500","新莊區"
"242039","400-BY","2017/07/18 20:39:08","新北市新莊區民安路281-1號","121.428803333333","25.0221566666667","6500500","新莊區"
"242061","362-BY","2017/07/18 20:39:19","新北市新莊區新樹路443號","121.432623333333","25.01362","6500500","新莊區"
"242058","353-BY","2017/07/18 20:39:22","新北市新莊區四維路14號","121.423723333333","25.024485","6500500","新莊區"
"242011","132-UY","2017/07/18 20:39:16","新北市新莊區中榮街120號","121.446588333333","25.0529283333333","6500500","新莊區"
"242034","133-UY","2017/07/18 20:38:56","新北市新莊區中正路332號","121.44583","25.03474","6500500","新莊區"
"242019","135-UY","2017/07/18 20:39:21","新北市新莊區銘德街127號","121.45505","25.0431233333333","6500500","新莊區"
"242044","172-VK","2017/07/18 20:39:18","新北市新莊區中正路891-45號","121.413766666667","25.0229116666667","6500500","新莊區"
"242007","173-VK","2017/07/18 20:39:21","新北市新莊區思源路277號","121.459886666667","25.04803","6500500","新莊區"
"242056","176-VK","2017/07/18 20:39:15","新北市新莊區新莊路751巷70號","121.44275","25.03104","6500500","新莊區"
"242013","346-TH","2017/07/18 20:39:06","新北市新莊區中和街191巷1-1號","121.44786","25.0512","6500500","新莊區"
"242017","348-TH","2017/07/18 20:39:18","新北市新莊區中港三街15號","121.450846666667","25.046405","6500500","新莊區"
"242054","349-TH","2017/07/18 20:39:17","新北市新莊區西盛街344巷7號","121.427635","25.014035","6500500","新莊區"
"242015","350-TH","2017/07/18 20:39:19","新北市新莊區中港一街153號","121.447568333333","25.0450066666667","6500500","新莊區"
"242009","351-TH","2017/07/18 20:39:13","新北市新莊區幸福路566號","121.454395","25.049345","6500500","新莊區"
"238023","601-UM","2017/07/18 20:39:20","新北市樹林區育德街78號","121.38746","24.96832","6500700","樹林區"
"221008","489-VK","2017/07/18 20:39:05","新北市汐止區康寧街706-2號","121.63846","25.073005","6501100","汐止區"
"221036","130-UY","2017/07/18 20:39:22","新北市汐止區新昌路20號","121.661946666667","25.0674566666667","6501100","汐止區"
"221015","131-UY","2017/07/18 20:39:11","新北市汐止區建成路80號","121.662526666667","25.07332","6501100","汐止區"
"221031","277-VK","2017/07/18 20:39:09","新北市汐止區中興路106號","121.633745","25.0631683333333","6501100","汐止區"
"221012","278-VK","2017/07/18 20:39:20","新北市汐止區大同路三段241號","121.672666666667","25.07664","6501100","汐止區"
"221023","279-VK","2017/07/18 14:31:11","台北市文山區老泉街45巷18-1號","121.576163333333","24.97623","6501100","汐止區"
"221032","280-BY","2017/07/18 20:39:11","新北市汐止區橫科路221巷19-1號","121.621503333333","25.04951","6501100","汐止區"
"221027","281-BY","2017/07/18 20:39:12","新北市汐止區大同路二段509號","121.661298333333","25.06872","6501100","汐止區"
"221038","297-VK","2017/07/18 20:39:10","新北市汐止區水源路一段56號","121.657415","25.0653666666667","6501100","汐止區"
"221029","298-VK","2017/07/18 20:39:04","新北市汐止區大同路一段515巷6號","121.645426666667","25.0625116666667","6501100","汐止區"
"221021","299-VK","2017/07/18 20:20:18","新北市汐止區南興路83巷18號","121.653826666667","25.05895","6501100","汐止區"
"221035","622-UM","2017/07/18 20:39:13","新北市汐止區長江街101-5號","121.658666666667","25.0732266666667","6501100","汐止區"
"221025","623-UM","2017/07/18 20:39:08","新北市汐止區水源路二段271-1號","121.659183333333","25.050005","6501100","汐止區"
"221033","647-BX","2017/07/18 20:39:16","新北市汐止區合順街18巷8弄5號","121.620353333333","25.0419133333333","6501100","汐止區"
"221002","707-TV","2017/07/18 20:39:23","新北市汐止區福德二路123號","121.631275","25.065175","6501100","汐止區"
"221018","753-BX","2017/07/18 20:39:06","新北市汐止區茄苳路157-1號","121.669528333333","25.0701033333333","6501100","汐止區"
"220069","258-TC","2017/07/18 20:39:20","新北市板橋區貴興路113號","121.455776666667","25.002525","6500100","板橋區"
"220083","286-VK","2017/07/18 20:39:06","新北市板橋區僑中二街112巷11號","121.445056666667","25.007075","6500100","板橋區"
"220081","287-VK","2017/07/18 20:39:13","新北市板橋區大觀路二段142號","121.442773333333","24.999085","6500100","板橋區"
"220103","561-BX","2017/07/18 20:39:23","新北市板橋區漢生東路83巷25號","121.467423333333","25.0167516666667","6500100","板橋區"
"220070","AAC-253","2017/07/18 20:39:13","新北市新莊區新泰路357巷3弄21號","121.442265","25.0407516666667","6500100","板橋區"
