"lineid","car","time","location","longitude","latitude","cityid","cityname"
"234030","746-BX","2017/07/18 20:49:08","新北市八里區中山路三段112號","121.387351666667","25.14624","6500400","永和區"
"249004","303-UY","2017/07/18 20:49:00","新北市八里區中山路一段63號","121.418353333333","25.1593866666667","6502300","八里區"
"249001","759-BX","2017/07/18 20:49:08","新北市八里區中山路三段382號","121.368598333333","25.1358666666667","6502300","八里區"
"234074","AAC-211","2017/07/18 20:49:07","新北市永和區環河東路二段20號","121.522323333333","25.0131083333333","6500400","永和區"
"234067","AAC-212","2017/07/18 20:49:13","新北市永和區保平路290號","121.5081","25.0045733333333","6500400","永和區"
"244019","403-UM","2017/07/18 20:43:35","新北市林口區粉寮路二段160巷28號","121.405143333333","25.0908083333333","6501700","林口區"
"244025","656-BX","2017/07/18 20:10:29","新北市林口區粉寮路二段160巷28號","121.405136666667","25.0907833333333","6501700","林口區"
"222003","436-BY","2017/07/18 20:49:08","新北市深坑區文山路三段48-1號","121.609916666667","24.998565","6501800","深坑區"
"222001","628-TS","2017/07/18 20:49:04","新北市深坑區北深路三段133號","121.603996666667","25.0025183333333","6501800","深坑區"
"222002","659-BX","2017/07/18 20:49:13","新北市深坑區北深路三段93巷11號","121.605406666667","25.00101","6501800","深坑區"
"231041","002-UM","2017/07/18 20:49:08","新北市新店區中正路700巷1號","121.533831666667","24.9912216666667","6500600","新店區"
"231056","0293-UT","2017/07/18 20:49:05","新北市新店區中央七街61巷5號","121.52834","24.9765233333333","6500600","新店區"
"231059","046-UY","2017/07/18 20:49:19","新北市新店區僑信路120巷40號","121.49932","24.94594","6500600","新店區"
"231061","047-UY","2017/07/18 20:49:21","新北市新店區新和街93巷10號","121.520793333333","24.986745","6500600","新店區"
"231060","106-UY","2017/07/18 20:49:16","新北市新店區安康路三段742號","121.473775","24.9419316666667","6500600","新店區"
"231051","107-UY","2017/07/18 20:49:14","新北市新店區中央路7號","121.53345","24.9786266666667","6500600","新店區"
"231048","108-UY","2017/07/18 20:49:09","新北市新店區寶元路一段109號","121.54574","24.983125","6500600","新店區"
"231069","189-VK","2017/07/18 16:47:59","新北市新店區安華路28-1號","121.520088333333","24.9607983333333","6500600","新店區"
"231057","256-BX","2017/07/18 20:49:01","新北市新店區花園一路一段2號","121.552603333333","24.9327683333333","6500600","新店區"
"231063","268-BY","2017/07/18 20:49:04","新北市新店區如意街3巷2號","121.495591666667","24.949225","6500600","新店區"
"231050","AAD-862","2017/07/18 20:49:19","新北市新店區中正路247巷2號","121.538851666667","24.9730266666667","6500600","新店區"
"231058","3712-VJ","2017/07/18 20:49:03","新北市新店區中正路307巷2號","121.536503333333","24.9746166666667","6500600","新店區"
"231067","4772-VM","2017/07/18 19:30:11","新北市新店區安康路二段414巷2號","121.49606","24.9578616666667","6500600","新店區"
"231065","512-UM","2017/07/18 20:49:01","新北市新店區安祥路104巷11弄16號","121.480918333333","24.9636583333333","6500600","新店區"
"231054","513-UM","2017/07/18 20:49:22","新北市新店區北新路一段126巷27號","121.543141666667","24.96948","6500600","新店區"
"231064","515-UM","2017/07/18 20:49:04","新北市新店區安民街389號","121.516121666667","24.9767266666667","6500600","新店區"
"231040","619-UM","2017/07/18 20:49:17","新北市新店區中正路272號","121.538935","24.9736566666667","6500600","新店區"
"231042","641-BX","2017/07/18 20:49:03","新北市新店區寶高路120巷1號","121.554568333333","24.9760066666667","6500600","新店區"
"231068","718-UY","2017/07/18 20:49:14","新北市新店區寶元路一段102號","121.545036666667","24.9832916666667","6500600","新店區"
"231049","719-UM","2017/07/18 20:49:04","新北市新店區華潭街31號","121.529998333333","24.9552466666667","6500600","新店區"
"231062","720-UM","2017/07/18 20:49:12","新北市新店區和成街5號","121.48852","24.9481433333333","6500600","新店區"
"231043","899-TW","2017/07/18 20:49:01","新北市新店區博愛街13巷23號","121.540306666667","24.9741266666667","6500600","新店區"
"231066","AKT-0513","2017/07/18 20:49:02","新北市新店區安興路105-1號","121.514711666667","24.9780033333333","6500600","新店區"
"241011","013-R5","2017/07/18 20:49:20","新北市三重區秀江街75號","121.500588333333","25.0724933333333","6500200","三重區"
"241028","022-UY","2017/07/18 20:49:09","新北市三重區中正南路5號","121.493528333333","25.06022","6500200","三重區"
"241009","060-VK","2017/07/18 20:49:05","新北市三重區三和路四段388-2號","121.482101666667","25.079085","6500200","三重區"
"241031","061-VK","2017/07/18 20:49:06","新北市三重區重陽路一段113巷1弄49號","121.488141666667","25.0586166666667","6500200","三重區"
"241015","062-VK","2017/07/18 20:49:14","新北市三重區自強路一段8號","121.49888","25.0682683333333","6500200","三重區"
"241017","063-VK","2017/07/18 20:49:09","新北市三重區民生街1號","121.491983333333","25.0674983333333","6500200","三重區"
"241024","065-VK","2017/07/18 20:49:12","新北市三重區大勇街82巷15弄30號","121.48124","25.07198","6500200","三重區"
"241026","066-VK","2017/07/18 20:49:12","新北市三重區文化南路8號","121.500091666667","25.0624716666667","6500200","三重區"
"241002","090-VK","2017/07/18 20:49:03","新北市三重區仁義街167巷55號","121.498853333333","25.0826016666667","6500200","三重區"
"241003","091-VK","2017/07/18 20:49:07","新北市三重區五華街141巷58號","121.493465","25.0866933333333","6500200","三重區"
"241019","156-TC","2017/07/18 20:49:16","新北市三重區重陽路四段126巷23號","121.491891666667","25.0711016666667","6500200","三重區"
"241005","262-UM","2017/07/18 20:49:17","新北市三重區五華街141巷28號","121.492096666667","25.0855066666667","6500200","三重區"
"241016","266-UM","2017/07/18 20:49:03","新北市三重區自強路一段162號","121.4955","25.0663516666667","6500200","三重區"
"241022","267-UM","2017/07/18 20:49:20","新北市三重區中正北路20巷12號","121.487966666667","25.0624766666667","6500200","三重區"
"241018","268-UM","2017/07/18 20:49:03","新北市三重區正義北路291號","121.494828333333","25.070645","6500200","三重區"
"241032","269-UM","2017/07/18 20:49:17","新北市三重區重陽路一段120巷48號","121.485018333333","25.0601683333333","6500200","三重區"
"241013","270-UM","2017/07/18 20:49:19","新北市三重區仁愛街131號","121.495568333333","25.0748966666667","6500200","三重區"
"241025","271-UM","2017/07/18 20:49:12","新北市三重區貴陽街21號","121.484283333333","25.0618883333333","6500200","三重區"
"241007","398-BY","2017/07/18 20:49:09","新北市三重區慈愛街6號","121.484363333333","25.07836","6500200","三重區"
"241008","412-TH","2017/07/18 20:49:16","新北市三重區永福街72巷11號","121.479468333333","25.076765","6500200","三重區"
"241020","413-TH","2017/07/18 20:49:15","新北市三重區忠孝路一段101號","121.489405","25.0721666666667","6500200","三重區"
"241035","462-BY","2017/07/18 20:49:10","新北市三重區文化北路248號","121.497335","25.0699916666667","6500200","三重區"
"241004","475-VK","2017/07/18 20:49:11","新北市三重區分子尾街36-1號","121.489391666667","25.0810683333333","6500200","三重區"
"241030","480-VK","2017/07/18 20:49:12","新北市三重區環河南路221巷9號","121.491718333333","25.0524083333333","6500200","三重區"
"241014","543-UM","2017/07/18 20:49:01","新北市三重區長壽街120巷62號","121.501675","25.07042","6500200","三重區"
"241023","545-UM","2017/07/18 20:49:16","新北市三重區重陽路二段10號","121.48653","25.062075","6500200","三重區"
"241001","547-UM","2017/07/18 20:49:16","新北市三重區自強路三段97號","121.487616666667","25.0751683333333","6500200","三重區"
"241006","AAD-863","2017/07/18 20:49:17","新北市三重區車路頭街139巷14號","121.484283333333","25.07624","6500200","三重區"
"241033","887-TS","2017/07/18 20:49:12","新北市三重區光復路二段1號","121.472176666667","25.0535483333333","6500200","三重區"
"241012","941-UM","2017/07/18 20:49:22","新北市三重區仁信街29號","121.50125","25.07553","6500200","三重區"
"241029","942-UM","2017/07/18 20:49:17","新北市三重區重安街18號","121.49039","25.0581133333333","6500200","三重區"
"235072","301-VK","2017/07/18 20:49:00","新北市中和區連城路270號","121.485198333333","24.9964383333333","6500300","中和區"
"235069","4980-A6","2017/07/18 20:49:09","新北市中和區中正路637巷17號","121.484875","24.9945866666667","6500300","中和區"
"235047","732-UM","2017/07/18 20:49:03","新北市八里區中華路三段7巷5號","121.397203333333","25.1440166666667","6500300","中和區"
"235037","AAC-213","2017/07/18 20:49:07","新北市新店區溪園路87號","121.528483333333","24.9865383333333","6500300","中和區"
"247020","893-R6","2017/07/18 20:49:06","新北市蘆洲區仁愛街75號","121.471473333333","25.0938133333333","6501400","蘆洲區"
"247006","341-TH","2017/07/18 20:49:14","新北市蘆洲區九芎街189號","121.464576666667","25.0785066666667","6501400","蘆洲區"
"247008","339-TH","2017/07/18 20:49:18","新北市三重區三和路四段420號","121.480545","25.0802133333333","6501400","蘆洲區"
"247024","337-TH","2017/07/18 20:49:16","新北市蘆洲區長樂路136號","121.462126666667","25.0901483333333","6501400","蘆洲區"
"247002","336-TH","2017/07/18 20:49:04","新北市蘆洲區長榮路345號","121.459433333333","25.0876383333333","6501400","蘆洲區"
"247014","057-VK","2017/07/18 20:49:18","新北市蘆洲區三民路97號","121.473686666667","25.0849666666667","6501400","蘆洲區"
"247004","056-VK","2017/07/18 20:49:05","新北市蘆洲區長安街101號","121.461586666667","25.0808416666667","6501400","蘆洲區"
"247012","007-UY","2017/07/18 20:49:02","新北市蘆洲區民權路5號","121.476646666667","25.0857666666667","6501400","蘆洲區"
"247022","002-UY","2017/07/18 20:49:09","新北市蘆洲區三民路128巷13號","121.470586666667","25.0884233333333","6501400","蘆洲區"
"247016","001-UY","2017/07/18 20:49:13","新北市蘆洲區正和街3號","121.470401666667","25.0827466666667","6501400","蘆洲區"
"251014","180-VK","2017/07/18 20:49:14","新北市淡水區公埔子36號","121.461865","25.2323183333333","6501000","淡水區"
"251010","413-VK","2017/07/18 20:49:17","新北市淡水區沙崙路145號","121.42338","25.1830183333333","6501000","淡水區"
"251012","441-VK","2017/07/18 20:49:01","新北市淡水區淡金路四段508號","121.45208","25.2255983333333","6501000","淡水區"
"251016","442-VK","2017/07/18 20:49:12","新北市淡水區後洲子19號","121.450406666667","25.223825","6501000","淡水區"
"251005","443-VK","2017/07/18 20:49:13","新北市淡水區水源街二段177巷32弄20號","121.455186666667","25.17812","6501000","淡水區"
"251001","559-UM","2017/07/18 20:49:19","新北市淡水區淡金路一段20號","121.460488333333","25.1704683333333","6501000","淡水區"
"251007","577-R6","2017/07/18 20:49:16","新北市淡水區鄧公路29巷22號","121.452586666667","25.1702033333333","6501000","淡水區"
"251011","650-BX","2017/07/18 20:49:05","新北市淡水區新市一路一段281巷2號","121.434726666667","25.1867333333333","6501000","淡水區"
"251002","672-BX","2017/07/18 20:49:07","新北市淡水區英專路26號","121.44558","25.1700566666667","6501000","淡水區"
"251003","766-UM","2017/07/18 20:49:17","新北市淡水區中山北路一段247巷90號","121.442426666667","25.1793616666667","6501000","淡水區"
"252005","AAC-283","2017/07/18 15:54:34","新北市三芝區埔坪里埔頭坑41號","121.50453","25.2644316666667","6502100","三芝區"
"236027","269-VK","2017/07/18 20:49:01","新北市樹林區中山路三段214號","121.380038333333","24.9678283333333","6501300","土城區"
"242021","AAC-296","2017/07/18 20:49:14","新北市新莊區中華路一段6號","121.452003333333","25.0366966666667","6500500","新莊區"
"242029","986-R7","2017/07/18 20:49:11","新北市新莊區中華路二段89號","121.452671666667","25.0493816666667","6500500","新莊區"
"242046","751-BX","2017/07/18 20:49:09","新北市新莊區龍安路90號","121.417605","25.02079","6500500","新莊區"
"242025","615-BX","2017/07/18 20:49:14","新北市新莊區環漢路二段385號","121.451183333333","25.0323233333333","6500500","新莊區"
"242023","613-BX","2017/07/18 20:49:15","新北市新莊區思源路63號","121.459883333333","25.0403816666667","6500500","新莊區"
"242027","612-BX","2017/07/18 20:49:15","新北市新莊區環河路48-4號","121.436568333333","25.008945","6500500","新莊區"
"242037","566-BX","2017/07/18 20:49:02","新北市新莊區建國一路136號","121.434645","25.0283316666667","6500500","新莊區"
"242042","497-BY","2017/07/18 20:49:02","新北市新莊區雙鳳路12號","121.417138333333","25.02695","6500500","新莊區"
"242048","441-UM","2017/07/18 20:49:01","新北市新莊區建國一路130號","121.434881666667","25.02857","6500500","新莊區"
"242051","440-UM","2017/07/18 20:48:59","新北市新莊區民安東路152號","121.431678333333","25.0204666666667","6500500","新莊區"
"242032","415-TV","2017/07/18 20:49:15","新北市新莊區新樹路110巷2號","121.434923333333","25.0259233333333","6500500","新莊區"
"242002","413-TV","2017/07/18 20:49:01","新北市新莊區中港路2號","121.454998333333","25.03679","6500500","新莊區"
"242039","400-BY","2017/07/18 20:48:48","新北市新莊區瓊林北路15號","121.439171666667","25.0220616666667","6500500","新莊區"
"242061","362-BY","2017/07/18 20:48:59","新北市新莊區新樹路601號","121.433013333333","25.0058183333333","6500500","新莊區"
"242034","133-UY","2017/07/18 20:49:16","新北市新莊區中正路380號","121.443088333333","25.0341383333333","6500500","新莊區"
"242044","172-VK","2017/07/18 20:49:17","新北市新莊區龍安路90號","121.417575","25.020755","6500500","新莊區"
"242056","176-VK","2017/07/18 20:49:13","新北市新莊區瓊泰路94巷2號","121.44341","25.0293916666667","6500500","新莊區"
"242013","346-TH","2017/07/18 20:49:06","新北市新莊區幸福路775號","121.446855","25.049075","6500500","新莊區"
"242017","348-TH","2017/07/18 20:49:14","新北市新莊區中和街2號","121.448503333333","25.04284","6500500","新莊區"
"242054","349-TH","2017/07/18 20:49:19","新北市新莊區民安西路228號","121.425946666667","25.0144366666667","6500500","新莊區"
"238023","601-UM","2017/07/18 20:49:00","新北市樹林區育德街78-1號","121.38738","24.9683083333333","6500700","樹林區"
"221036","130-UY","2017/07/18 20:49:02","新北市汐止區忠孝東路282號","121.663758333333","25.06822","6501100","汐止區"
"221015","131-UY","2017/07/18 20:49:11","新北市汐止區大同路二段627號","121.664378333333","25.0711183333333","6501100","汐止區"
"221031","277-VK","2017/07/18 20:49:09","新北市汐止區連峰街1巷5號","121.646116666667","25.0759566666667","6501100","汐止區"
"221027","281-BY","2017/07/18 20:49:07","新北市汐止區汐萬路一段284號","121.650738333333","25.0742116666667","6501100","汐止區"
"221038","297-VK","2017/07/18 20:49:10","新北市汐止區新江北路30巷15號","121.653036666667","25.069445","6501100","汐止區"
"221029","298-VK","2017/07/18 20:49:04","新北市汐止區樟樹二路345號","121.642016666667","25.0731","6501100","汐止區"
"221035","622-UM","2017/07/18 20:49:13","新北市汐止區汐萬路一段141號","121.65352","25.071155","6501100","汐止區"
"221033","647-BX","2017/07/18 20:49:16","新北市汐止區合順街18巷8弄5號","121.620315","25.04193","6501100","汐止區"
"221002","707-TV","2017/07/18 20:49:02","新北市汐止區福德二路171號","121.630741666667","25.0651516666667","6501100","汐止區"
"221018","753-BX","2017/07/18 20:49:06","新北市汐止區中華街85號","121.668555","25.070685","6501100","汐止區"
"220070","AAC-253","2017/07/18 20:49:13","新北市五股區成泰路三段544-1號","121.454271666667","25.1023233333333","6500100","板橋區"
