"lineid","car","time","location","longitude","latitude","cityid","cityname"
"244025","656-BX","2017/07/18 20:10:29","新北市林口區粉寮路二段160巷28號","121.405136666667","25.0907833333333","6501700","林口區"
"243001","297-R6","2017/07/18 21:01:38","新北市泰山區黎明路31號","121.421793333333","25.0607633333333","6501600","泰山區"
"231069","189-VK","2017/07/18 16:47:59","新北市新店區安華路28-1號","121.520088333333","24.9607983333333","6500600","新店區"
"231067","4772-VM","2017/07/18 19:30:11","新北市新店區安康路二段414巷2號","121.49606","24.9578616666667","6500600","新店區"
"241020","413-TH","2017/07/18 21:59:15","新北市八里區下罟子5-5號","121.386636666667","25.1420366666667","6500200","三重區"
"241029","942-UM","2017/07/18 21:59:17","新北市五股區成泰路三段544號","121.454455","25.10386","6500200","三重區"
"251004","009-UM","2017/07/18 21:59:17","新北市淡水區自強路283-3號","121.46132","25.1281716666667","6501000","淡水區"
"251008","181-VK","2017/07/18 21:59:28","新北市淡水區學府路104號","121.44983","25.1717816666667","6501000","淡水區"
"251010","413-VK","2017/07/18 21:59:16","新北市淡水區後洲路一段159號","121.428431666667","25.1978283333333","6501000","淡水區"
"251016","442-VK","2017/07/18 21:59:32","新北市淡水區水碓街7號","121.443143333333","25.1771066666667","6501000","淡水區"
"251005","443-VK","2017/07/18 21:59:33","新北市淡水區鄧公路30巷2弄29號","121.45331","25.1691383333333","6501000","淡水區"
"251001","559-UM","2017/07/18 21:59:19","新北市淡水區崁頂75-2號","121.435238333333","25.2037583333333","6501000","淡水區"
"251007","577-R6","2017/07/18 21:59:16","新北市淡水區北新路180號","121.449496666667","25.1787633333333","6501000","淡水區"
"251011","650-BX","2017/07/18 21:59:25","新北市淡水區沙崙路196號","121.42439","25.1836933333333","6501000","淡水區"
"251002","672-BX","2017/07/18 21:59:18","新北市淡水區中山北路二段185號","121.444265","25.18513","6501000","淡水區"
"252005","AAC-283","2017/07/18 15:54:34","新北市三芝區埔坪里埔頭坑41號","121.50453","25.2644316666667","6502100","三芝區"
