"lineid","car","time","location","longitude","latitude","cityid","cityname"
"244025","656-BX","2017/07/18 20:10:29","新北市林口區粉寮路二段160巷28號","121.405136666667","25.0907833333333","6501700","林口區"
"243001","297-R6","2017/07/18 21:01:38","新北市泰山區黎明路31號","121.421793333333","25.0607633333333","6501600","泰山區"
"231069","189-VK","2017/07/18 16:47:59","新北市新店區安華路28-1號","121.520088333333","24.9607983333333","6500600","新店區"
"231067","4772-VM","2017/07/18 19:30:11","新北市新店區安康路二段414巷2號","121.49606","24.9578616666667","6500600","新店區"
"247001","336-TH","2017/07/18 22:13:36","新北市五股區中興路三段2巷10號","121.4487","25.081615","6501400","蘆洲區"
"252005","AAC-283","2017/07/18 15:54:34","新北市三芝區埔坪里埔頭坑41號","121.50453","25.2644316666667","6502100","三芝區"
