"lineid","car","time","location","longitude","latitude","cityid","cityname"
"244001","248-BX","2017/07/04 09:52:19","新北市林口區粉寮路二段160巷28號","121.405121666667","25.0907816666667","6501700","林口區"
"231009","188-VK","2017/07/04 11:19:43","新北市新店區成功路91-1號","121.537775","24.8952566666667","6500600","新店區"
"231007","189-VK","2017/07/04 11:19:54","新北市新店區新潭路一段73號","121.524975","24.94","6500600","新店區"
"247002","402-BY","2017/07/04 10:49:48","新北市五股區中興路三段3-6號","121.449743333333","25.078745","6501400","蘆洲區"
"227006","282-VK","2017/07/04 11:19:35","新北市雙溪區魚行里坤溪8號","121.866261666667","25.0212983333333","6502500","雙溪區"
