"lineid","car","time","location","longitude","latitude","cityid","cityname"
"234044","148-BY","2017/07/04 12:59:42","新北市永和區得和路373巷16弄1號","121.525155","25.00024","6500400","永和區"
"234012","149-BY","2017/07/04 12:59:45","新北市永和區信義路19號","121.51418","25.011965","6500400","永和區"
"234005","207-UY","2017/07/04 12:59:47","新北市永和區中山路一段4號","121.514261666667","25.0103966666667","6500400","永和區"
"234078","298-R6","2017/07/04 12:59:49","新北市永和區永貞路38號","121.520931666667","25.0065283333333","6500400","永和區"
"234036","336-UY","2017/07/04 12:59:33","新北市永和區民樂街94巷2號","121.527318333333","24.9970533333333","6500400","永和區"
"234062","337-UY","2017/07/04 12:59:47","新北市永和區秀朗路一段146號","121.518291666667","25.003385","6500400","永和區"
"234084","338-UY","2017/07/04 12:59:47","新北市永和區永寧街133巷2號","121.518081666667","25.004755","6500400","永和區"
"234068","552-UM","2017/07/04 12:59:34","新北市永和區豫溪街95巷7號","121.518343333333","25.0104466666667","6500400","永和區"
"234052","553-UM","2017/07/04 12:59:33","新北市永和區竹林路66巷2號","121.518301666667","25.01331","6500400","永和區"
"234015","745-BX","2017/07/04 12:59:47","新北市永和區永和路二段304號","121.516221666667","25.0159366666667","6500400","永和區"
"234028","746-BX","2017/07/04 12:59:50","新北市永和區四維街72號","121.523698333333","24.9983366666667","6500400","永和區"
"234060","AAD-866","2017/07/04 12:59:47","新北市永和區福和路307號","121.516273333333","25.0071483333333","6500400","永和區"
"234040","862-TW","2017/07/04 12:59:48","新北市永和區永貞路304號","121.51193","25.0048233333333","6500400","永和區"
"234048","863-TW","2017/07/04 12:59:50","新北市永和區文化路147號","121.510766666667","25.0161833333333","6500400","永和區"
"234025","9372-KE","2017/07/04 12:59:35","新北市永和區水源街2巷24號","121.51214","25.0057516666667","6500400","永和區"
"234010","9373-KE","2017/07/04 12:59:48","新北市永和區文化路9巷22弄54號","121.513931666667","25.01448","6500400","永和區"
"248017","225-UY","2017/07/04 12:59:43","新北市五股區中興路二段83巷26-6號","121.459998333333","25.0751583333333","6501500","五股區"
"234022","9380-KE","2017/07/04 12:59:31","新北市永和區竹林路75巷15-2號","121.519696666667","25.0136466666667","6500400","永和區"
"234076","969-R7","2017/07/04 12:59:34","新北市永和區民享街23巷9號","121.516233333333","24.9952183333333","6500400","永和區"
"234072","AAC-211","2017/07/04 12:59:42","新北市永和區環河東路二段100號","121.524115","25.010285","6500400","永和區"
"234066","AAC-212","2017/07/04 12:59:35","新北市永和區永和路一段22號","121.512963333333","25.0048333333333","6500400","永和區"
"234001","AAC-295","2017/07/04 12:57:48","新北市永和區永和路一段174號","121.514226666667","25.0088016666667","6500400","永和區"
"244001","248-BX","2017/07/04 12:59:06","新北市林口區粉寮路二段160巷28號","121.40513","25.0907366666667","6501700","林口區"
"231025","0291-UT","2017/07/04 12:59:31","新北市新店區安華路28-1號","121.519203333333","24.96062","6500600","新店區"
"231028","046-UY","2017/07/04 12:59:42","新北市新店區安華路28-1號","121.519621666667","24.9608333333333","6500600","新店區"
"231029","106-UY","2017/07/04 12:59:49","新北市新店區安華路28-1號","121.519606666667","24.9608016666667","6500600","新店區"
"231018","107-UY","2017/07/04 12:59:41","新北市新店區安華路28-1號","121.519233333333","24.9613833333333","6500600","新店區"
"231069","189-VK","2017/07/04 11:59:36","新北市新店區安華路28-1號","121.519633333333","24.9611416666667","6500600","新店區"
"231010","278-BY","2017/07/04 12:59:38","新北市新店區安華路28-1號","121.519553333333","24.9611466666667","6500600","新店區"
"231015","AAD-862","2017/07/04 12:59:37","新北市新店區安華路28-1號","121.519921666667","24.9611816666667","6500600","新店區"
"231027","3712-VJ","2017/07/04 12:59:50","新北市新店區安華路28-1號","121.519226666667","24.960605","6500600","新店區"
"231038","4715-K9","2017/07/04 12:59:33","新北市新店區安華路1-1號","121.51929","24.9603916666667","6500600","新店區"
"231036","512-UM","2017/07/04 12:59:36","新北市新店區安華路28-1號","121.519315","24.9612766666667","6500600","新店區"
"231023","513-UM","2017/07/04 12:59:49","新北市新店區安華路28-1號","121.519666666667","24.9611033333333","6500600","新店區"
"231003","616-UM","2017/07/04 12:59:34","新北市新店區安華路1-1號","121.519491666667","24.9604783333333","6500600","新店區"
"231006","617-UM","2017/07/04 12:59:48","新北市新店區安華路28-1號","121.519388333333","24.9609916666667","6500600","新店區"
"231030","618-UM","2017/07/04 12:59:47","新北市新店區安華路28-1號","121.519335","24.961085","6500600","新店區"
"231001","619-UM","2017/07/04 12:59:46","新北市新店區安華路28-1號","121.51962","24.9609566666667","6500600","新店區"
"231013","719-UM","2017/07/04 12:59:52","新北市新店區安華路28-1號","121.519381666667","24.9611083333333","6500600","新店區"
"231032","720-UM","2017/07/04 12:59:51","新北市新店區安華路28-1號","121.519083333333","24.961345","6500600","新店區"
"231037","AKT-0513","2017/07/04 12:59:51","新北市新店區安華路28-1號","121.519526666667","24.9605333333333","6500600","新店區"
"235028","005-UY","2017/07/04 12:59:40","新北市中和區員山路36巷16-3號","121.485098333333","24.991305","6500300","中和區"
"235026","031-BX","2017/07/04 12:59:51","新北市中和區中正路637巷52弄1號","121.485425","24.993515","6500300","中和區"
"235004","150-BY","2017/07/04 12:59:34","新北市中和區員山路36巷16-3號","121.485063333333","24.9912516666667","6500300","中和區"
"235022","151-BY","2017/07/04 12:59:45","新北市中和區中正路395號","121.489605","24.9935216666667","6500300","中和區"
"235002","185-VK","2017/07/04 12:59:49","新北市永和區民生路67巷58號","121.52568","24.9974983333333","6500300","中和區"
"235031","255-BX","2017/07/04 12:59:49","新北市中和區中山路二段550號","121.484035","25.0053566666667","6500300","中和區"
"235036","301-VK","2017/07/04 12:59:51","新北市中和區員山路36巷12號","121.483936666667","24.9909583333333","6500300","中和區"
"235032","377-QA","2017/07/04 12:59:51","新北市中和區員山路36巷16-3號","121.48515","24.99108","6500300","中和區"
"235025","378-QA","2017/07/04 12:42:56","新北市中和區員山路36巷16-2號","121.485276666667","24.9916516666667","6500300","中和區"
"235006","551-UM","2017/07/04 12:59:43","新北市中和區中正路395號","121.489261666667","24.9935116666667","6500300","中和區"
"235035","783-BX","2017/07/04 12:59:48","新北市中和區連城路308號","121.483665","24.99645","6500300","中和區"
"235005","802-TS","2017/07/04 12:59:42","新北市中和區員山路36巷16-2號","121.485206666667","24.9917416666667","6500300","中和區"
"235001","AAC-213","2017/07/04 12:59:48","新北市中和區員山路36巷13號","121.484488333333","24.9910966666667","6500300","中和區"
"220013","072-UY","2017/07/04 12:59:31","新北市板橋區民生路二段15-1號","121.472798333333","25.016465","6500100","板橋區"
"247002","402-BY","2017/07/04 12:59:35","新北市蘆洲區永安南路二段356號","121.456035","25.0826933333333","6501400","蘆洲區"
"228004","212-TW","2017/07/04 12:59:37","新北市貢寮區吉林里內寮街19號","121.887221666667","24.9884633333333","6502600","貢寮區"
"228005","828-UM","2017/07/04 12:59:13","新北市貢寮區福隆里桂安街18號","121.95824","25.0198133333333","6502600","貢寮區"
"208004","AAC-292","2017/07/04 12:59:53","新北市金山區磺港里磺港路256號","121.643533333333","25.2257283333333","6502700","金山區"
"207002","749-BX","2017/07/04 12:59:42","新北市萬里區雙興里大坪路37-4號","121.629978333333","25.1690816666667","6502800","萬里區"
"207001","463-BY","2017/07/04 12:59:50","新北市萬里區萬里里獅頭路23號","121.69313","25.1782333333333","6502800","萬里區"
"236006","498-BY","2017/07/04 12:59:44","新北市土城區亞洲路34號","121.43606","24.9741566666667","6501300","土城區"
"238020","308-TH","2017/07/04 12:59:51","新北市樹林區八德街278號","121.411231666667","24.9702866666667","6500700","樹林區"
"221010","276-VK","2017/07/04 12:59:40","新北市汐止區水源路一段3號","121.657238333333","25.0672133333333","6501100","汐止區"
"221032","280-BY","2017/07/04 12:59:36","新北市汐止區建成路72號","121.66307","25.0731233333333","6501100","汐止區"
