"lineid","car","time","location","longitude","latitude","cityid","cityname"
"234044","148-BY","2017/07/04 13:09:42","新北市永和區永元路18巷18號","121.523181666667","25.00021","6500400","永和區"
"234012","149-BY","2017/07/04 13:09:45","新北市永和區保福路二段50號","121.510943333333","25.0122433333333","6500400","永和區"
"234005","207-UY","2017/07/04 13:09:47","新北市永和區中山路一段195號","121.509165","25.0087466666667","6500400","永和區"
"234078","298-R6","2017/07/04 13:09:49","新北市永和區永貞路39巷9弄8號","121.522211666667","25.00694","6500400","永和區"
"234036","336-UY","2017/07/04 13:09:33","新北市永和區民樂街70號","121.527393333333","24.9983983333333","6500400","永和區"
"234062","337-UY","2017/07/04 13:09:47","新北市永和區秀朗路二段48號","121.521628333333","25.0022433333333","6500400","永和區"
"234084","338-UY","2017/07/04 13:09:46","新北市永和區永利路4巷25號","121.517651666667","25.004885","6500400","永和區"
"234068","552-UM","2017/07/04 13:09:34","新北市永和區豫溪街47號","121.516991666667","25.009875","6500400","永和區"
"234052","553-UM","2017/07/04 13:09:33","新北市永和區中興街133巷8號","121.518686666667","25.0126483333333","6500400","永和區"
"234015","745-BX","2017/07/04 13:09:45","新北市永和區文化路90巷19號","121.513683333333","25.0162416666667","6500400","永和區"
"234028","746-BX","2017/07/04 13:09:50","新北市永和區四維街40號","121.525406666667","24.9980883333333","6500400","永和區"
"234060","AAD-866","2017/07/04 13:09:47","新北市永和區安樂路330號","121.51449","25.00586","6500400","永和區"
"234040","862-TW","2017/07/04 13:09:48","新北市永和區永和路一段49巷3弄24號","121.512045","25.0063966666667","6500400","永和區"
"234048","863-TW","2017/07/04 13:09:30","新北市永和區仁愛路104巷7弄54號","121.511105","25.0143133333333","6500400","永和區"
"234025","9372-KE","2017/07/04 13:09:35","新北市永和區自強街8巷5弄1號","121.51474","25.0076883333333","6500400","永和區"
"234010","9373-KE","2017/07/04 13:09:48","新北市永和區文化路126巷10弄2號","121.513111666667","25.0158283333333","6500400","永和區"
"248017","225-UY","2017/07/04 13:09:43","新北市五股區芳洲路49號","121.441573333333","25.0835766666667","6501500","五股區"
"234022","9380-KE","2017/07/04 13:09:51","新北市永和區竹林路124巷49號","121.517903333333","25.0111283333333","6500400","永和區"
"234076","969-R7","2017/07/04 13:09:48","新北市永和區民有街12號","121.5164","24.9967666666667","6500400","永和區"
"234072","AAC-211","2017/07/04 13:09:42","新北市永和區竹林路166號","121.520381666667","25.0102066666667","6500400","永和區"
"234066","AAC-212","2017/07/04 13:09:35","新北市永和區永和路一段63號","121.513145","25.0069683333333","6500400","永和區"
"234001","AAC-295","2017/07/04 13:07:08","新北市永和區中山路一段149號","121.510156666667","25.00942","6500400","永和區"
"244002","248-BX","2017/07/04 13:09:44","新北市林口區自強三街1號","121.39709","25.0780733333333","6501700","林口區"
"231025","0291-UT","2017/07/04 13:09:31","新北市新店區安華路1-1號","121.519178333333","24.9604666666667","6500600","新店區"
"231028","046-UY","2017/07/04 13:09:42","新北市新店區安華路28-1號","121.5196","24.9607966666667","6500600","新店區"
"231029","106-UY","2017/07/04 13:09:49","新北市新店區安華路28-1號","121.519606666667","24.9608366666667","6500600","新店區"
"231018","107-UY","2017/07/04 13:09:41","新北市新店區安華路28-1號","121.519318333333","24.9613383333333","6500600","新店區"
"231069","189-VK","2017/07/04 11:59:36","新北市新店區安華路28-1號","121.519633333333","24.9611416666667","6500600","新店區"
"231010","278-BY","2017/07/04 13:09:38","新北市新店區安華路28-1號","121.519673333333","24.9611083333333","6500600","新店區"
"231015","AAD-862","2017/07/04 13:09:37","新北市新店區安華路28-1號","121.519841666667","24.9611883333333","6500600","新店區"
"231027","3712-VJ","2017/07/04 13:09:50","新北市新店區安華路1-1號","121.519103333333","24.960555","6500600","新店區"
"231038","4715-K9","2017/07/04 13:09:33","新北市新店區安華路1-1號","121.519306666667","24.9602733333333","6500600","新店區"
"231036","512-UM","2017/07/04 13:09:36","新北市新店區安康路一段355-3號","121.519506666667","24.961495","6500600","新店區"
"231023","513-UM","2017/07/04 13:09:49","新北市新店區安華路28-1號","121.519736666667","24.9610866666667","6500600","新店區"
"231003","616-UM","2017/07/04 13:09:34","新北市新店區安華路1-1號","121.519493333333","24.96044","6500600","新店區"
"231006","617-UM","2017/07/04 13:09:48","新北市新店區安華路28-1號","121.51939","24.9608333333333","6500600","新店區"
"231030","618-UM","2017/07/04 13:09:47","新北市新店區安康路一段355-3號","121.519535","24.96153","6500600","新店區"
"231001","619-UM","2017/07/04 13:09:46","新北市新店區安華路28-1號","121.519675","24.9609516666667","6500600","新店區"
"231013","719-UM","2017/07/04 13:09:52","新北市新店區安華路28-1號","121.519425","24.9612783333333","6500600","新店區"
"231032","720-UM","2017/07/04 13:09:51","新北市新店區安華路28-1號","121.51923","24.96119","6500600","新店區"
"231037","AKT-0513","2017/07/04 13:09:51","新北市新店區安華路1-1號","121.51942","24.96046","6500600","新店區"
"235028","005-UY","2017/07/04 13:09:40","新北市中和區中正路565號","121.486841666667","24.9942666666667","6500300","中和區"
"235026","031-BX","2017/07/04 13:09:51","新北市中和區中山路二段359巷1號","121.488906666667","25.00414","6500300","中和區"
"235003","097-UM","2017/07/04 13:09:52","新北市中和區中正路637巷52弄1號","121.485491666667","24.993495","6500300","中和區"
"235004","150-BY","2017/07/04 13:09:34","新北市中和區和城路一段271巷1號","121.485363333333","24.9918066666667","6500300","中和區"
"235022","151-BY","2017/07/04 13:09:45","新北市中和區圓通路367巷33弄15號","121.495273333333","24.9850816666667","6500300","中和區"
"235019","183-VK","2017/07/04 13:09:31","新北市中和區員山路36巷16-2號","121.485251666667","24.9913683333333","6500300","中和區"
"235002","185-VK","2017/07/04 13:09:49","新北市中和區大仁街40號","121.51807","24.9939233333333","6500300","中和區"
"235031","255-BX","2017/07/04 13:09:49","新北市中和區中正路797-2號","121.484373333333","25.0004233333333","6500300","中和區"
"235036","301-VK","2017/07/04 13:09:51","新北市中和區員山路36巷12號","121.483978333333","24.9909866666667","6500300","中和區"
"235015","376-QA","2017/07/04 13:09:46","新北市中和區圓通路208號","121.496026666667","24.993995","6500300","中和區"
"235032","377-QA","2017/07/04 13:09:51","新北市中和區員山路36巷16-3號","121.485105","24.9911816666667","6500300","中和區"
"235025","378-QA","2017/07/04 13:09:38","新北市中和區員山路36巷16-2號","121.485233333333","24.9915916666667","6500300","中和區"
"235014","4979-A6","2017/07/04 13:09:52","新北市中和區錦和路350-1號","121.490553333333","24.9935783333333","6500300","中和區"
"235033","4980-A6","2017/07/04 13:09:40","新北市中和區錦和路350-1號","121.490498333333","24.993565","6500300","中和區"
"235006","551-UM","2017/07/04 13:09:43","新北市中和區景平路159巷31號","121.51299","24.9911366666667","6500300","中和區"
"235018","640-BX","2017/07/04 13:09:53","新北市中和區員山路72-1號","121.4811","24.993585","6500300","中和區"
"235035","783-BX","2017/07/04 13:09:48","新北市中和區板南路520巷15號","121.483705","25.00886","6500300","中和區"
"235005","802-TS","2017/07/04 13:09:42","新北市中和區員山路36巷16-2號","121.485251666667","24.991775","6500300","中和區"
"235016","805-TS","2017/07/04 13:09:44","新北市中和區錦和路350-1號","121.490366666667","24.9935683333333","6500300","中和區"
"235012","896-TW","2017/07/04 13:09:47","新北市中和區員山路36巷16-2號","121.485301666667","24.9915233333333","6500300","中和區"
"235017","900-TW","2017/07/04 13:09:39","新北市中和區員山路36巷16-2號","121.48525","24.991545","6500300","中和區"
"235001","AAC-213","2017/07/04 13:09:48","新北市中和區中正路273號","121.495736666667","24.993715","6500300","中和區"
"220013","072-UY","2017/07/04 13:09:31","新北市板橋區民生路二段15-1號","121.47283","25.016255","6500100","板橋區"
"247002","402-BY","2017/07/04 13:09:35","新北市蘆洲區民權路188-7號","121.471406666667","25.0911","6501400","蘆洲區"
"228004","212-TW","2017/07/04 13:09:50","新北市貢寮區吉林里內寮街71號","121.891346666667","24.9726233333333","6502600","貢寮區"
"228005","828-UM","2017/07/04 13:08:33","新北市貢寮區仁理村仁和路122號","121.923005","25.05117","6502600","貢寮區"
"208004","AAC-292","2017/07/04 13:09:33","新北市金山區中正路130號","121.632288333333","25.2215066666667","6502700","金山區"
"207002","749-BX","2017/07/04 13:09:42","新北市萬里區崁腳里內崁路9號","121.644598333333","25.1590516666667","6502800","萬里區"
"207001","463-BY","2017/07/04 13:09:50","新北市萬里區萬里里瑪鋉路85號","121.688581666667","25.1768166666667","6502800","萬里區"
"252005","073-UM","2017/07/04 13:09:50","新北市三芝區忠孝街1-1號","121.505745","25.2547083333333","6502100","三芝區"
"236006","498-BY","2017/07/04 13:09:48","新北市土城區亞洲路68號","121.435116666667","24.973215","6501300","土城區"
"238020","308-TH","2017/07/04 13:09:51","新北市樹林區東豐街51號","121.415021666667","24.97543","6500700","樹林區"
"221010","276-VK","2017/07/04 13:09:40","新北市汐止區汐萬路一段256巷3號","121.653211666667","25.0744666666667","6501100","汐止區"
"221032","280-BY","2017/07/04 13:09:36","新北市汐止區大同路二段362號","121.657331666667","25.0671833333333","6501100","汐止區"
