"lineid","car","time","location","longitude","latitude","cityid","cityname"
"234044","148-BY","2017/07/04 13:29:42","新北市永和區秀朗路二段179號","121.525875","25.001515","6500400","永和區"
"234012","149-BY","2017/07/04 13:29:45","新北市永和區永平路203巷5弄1號","121.509093333333","25.009695","6500400","永和區"
"234005","207-UY","2017/07/04 13:29:47","新北市永和區中山路一段144號","121.509938333333","25.0096683333333","6500400","永和區"
"234078","298-R6","2017/07/04 13:29:49","新北市永和區福和路5-9號","121.525501666667","25.0083216666667","6500400","永和區"
"234036","336-UY","2017/07/04 13:29:33","新北市永和區民樂街39巷18弄2號","121.52856","24.99952","6500400","永和區"
"234062","337-UY","2017/07/04 13:29:47","新北市永和區中正路368巷1弄88號","121.520461666667","25.000615","6500400","永和區"
"234084","338-UY","2017/07/04 13:29:46","新北市永和區林森路39巷1號","121.52554","25.00485","6500400","永和區"
"234068","552-UM","2017/07/04 13:29:34","新北市永和區永和路二段234號","121.515876666667","25.0145566666667","6500400","永和區"
"234052","553-UM","2017/07/04 13:29:33","新北市永和區竹林路43號","121.51797","25.014115","6500400","永和區"
"234015","745-BX","2017/07/04 13:29:45","新北市永和區環河西路一段51巷24號","121.514195","25.0175833333333","6500400","永和區"
"234028","746-BX","2017/07/04 13:29:50","新北市永和區民生路47巷16號","121.523876666667","24.997665","6500400","永和區"
"234060","AAD-866","2017/07/04 13:29:47","新北市永和區永貞路145號","121.516215","25.00411","6500400","永和區"
"234040","862-TW","2017/07/04 13:29:48","新北市永和區中和路519巷16號","121.510861666667","25.0032666666667","6500400","永和區"
"234048","863-TW","2017/07/04 13:29:50","新北市永和區保福路二段118號","121.5099","25.01394","6500400","永和區"
"234025","9372-KE","2017/07/04 13:29:35","新北市永和區永和路一段157號","121.514343333333","25.0095533333333","6500400","永和區"
"234010","9373-KE","2017/07/04 13:29:48","新北市永和區中山路一段93號","121.511461666667","25.010735","6500400","永和區"
"248017","225-UY","2017/07/04 13:29:43","新北市五股區民義路二段52巷22號","121.415415","25.111435","6501500","五股區"
"234022","9380-KE","2017/07/04 13:29:51","新北市永和區豫溪街126號","121.519983333333","25.0101683333333","6500400","永和區"
"234076","969-R7","2017/07/04 13:29:54","新北市永和區民權路3號","121.520185","24.9984883333333","6500400","永和區"
"234072","AAC-211","2017/07/04 13:29:42","新北市永和區環河東路二段90號","121.523995","25.0105583333333","6500400","永和區"
"234066","AAC-212","2017/07/04 13:29:35","新北市永和區保平路129號","121.510495","25.006355","6500400","永和區"
"234001","AAC-295","2017/07/04 13:27:08","新北市永和區永和路一段107號","121.513836666667","25.007955","6500400","永和區"
"244002","248-BX","2017/07/04 13:29:44","新北市林口區頂福20-18號","121.355626666667","25.092905","6501700","林口區"
"231002","002-UM","2017/07/04 13:29:31","新北市新店區安康路一段35-1號","121.53214","24.96056","6500600","新店區"
"231025","0291-UT","2017/07/04 13:29:31","新北市新店區環河路116號","121.537","24.967225","6500600","新店區"
"231028","046-UY","2017/07/04 13:29:42","新北市新店區安康路一段266巷4號","121.519935","24.9640733333333","6500600","新店區"
"231029","106-UY","2017/07/04 13:29:49","新北市新店區車子路10-4號","121.50505","24.9545533333333","6500600","新店區"
"231018","107-UY","2017/07/04 13:29:41","新北市新店區中央路175-3號","121.5349","24.9695033333333","6500600","新店區"
"231012","108-UY","2017/07/04 13:29:43","新北市新店區德正街11號","121.543493333333","24.973305","6500600","新店區"
"231020","187-VK","2017/07/04 13:29:46","新北市新店區北宜路一段154號","121.540365","24.9537283333333","6500600","新店區"
"231069","189-VK","2017/07/04 11:59:36","新北市新店區安華路28-1號","121.519633333333","24.9611416666667","6500600","新店區"
"231026","256-BX","2017/07/04 13:29:35","新北市新店區光明街9號","121.538181666667","24.9593616666667","6500600","新店區"
"231034","268-BY","2017/07/04 13:29:34","新北市新店區車子路16號","121.504946666667","24.95369","6500600","新店區"
"231010","278-BY","2017/07/04 13:29:38","新北市新店區自由街2-1號","121.535778333333","24.9754783333333","6500600","新店區"
"231015","AAD-862","2017/07/04 13:29:37","新北市新店區北宜路二段30巷5弄2號","121.54799","24.9508116666667","6500600","新店區"
"231005","355-BY","2017/07/04 13:29:35","新北市新店區光明街129號","121.53922","24.9619516666667","6500600","新店區"
"231027","3712-VJ","2017/07/04 13:29:50","新北市新店區新店後街102號","121.537605","24.955295","6500600","新店區"
"231024","3713-VJ","2017/07/04 13:29:50","新北市新店區北新路二段29巷3弄1號","121.542206666667","24.9730133333333","6500600","新店區"
"231038","4715-K9","2017/07/04 13:29:53","新北市新店區安華路30巷1號","121.519538333333","24.9592833333333","6500600","新店區"
"231036","512-UM","2017/07/04 13:29:36","新北市新店區建業路90號","121.47969","24.9553766666667","6500600","新店區"
"231023","513-UM","2017/07/04 13:29:49","新北市新店區新店路13號","121.540316666667","24.9528783333333","6500600","新店區"
"231035","515-UM","2017/07/04 13:29:37","新北市新店區安華路28-1號","121.519863333333","24.961265","6500600","新店區"
"231003","616-UM","2017/07/04 13:29:34","新北市新店區北新路一段126巷25號","121.543438333333","24.9696683333333","6500600","新店區"
"231006","617-UM","2017/07/04 13:29:48","新北市新店區安康路一段113號","121.52847","24.961755","6500600","新店區"
"231030","618-UM","2017/07/04 13:29:47","新北市新店區安康路一段353號","121.519063333333","24.964025","6500600","新店區"
"231001","619-UM","2017/07/04 13:29:46","新北市新店區環河路29巷1號","121.536963333333","24.9613816666667","6500600","新店區"
"231068","718-UY","2017/07/04 13:29:41","新北市新店區北宜路一段9號","121.538146666667","24.95815","6500600","新店區"
"231013","719-UM","2017/07/04 13:29:52","新北市新店區中央路17號","121.533288333333","24.9782966666667","6500600","新店區"
"231032","720-UM","2017/07/04 13:29:51","新北市新店區安豐路63號","121.498135","24.9527133333333","6500600","新店區"
"231004","899-TW","2017/07/04 13:29:46","新北市新店區安康路一段35-5號","121.531968333333","24.9606583333333","6500600","新店區"
"231037","AKT-0513","2017/07/04 13:29:38","新北市新店區薏仁坑路53-1號","121.49196","24.9639933333333","6500600","新店區"
"235030","003-UY","2017/07/04 13:29:50","新北市中和區中山路二段122號","121.502618333333","25.0036733333333","6500300","中和區"
"235028","005-UY","2017/07/04 13:19:49","新北市中和區中正路140號","121.499306666667","24.993785","6500300","中和區"
"235027","006-UY","2017/07/04 13:29:35","新北市中和區中正路545號","121.487481666667","24.9941016666667","6500300","中和區"
"235026","031-BX","2017/07/04 13:29:51","新北市中和區景平路677巷5號","121.496228333333","25.0027366666667","6500300","中和區"
"235020","096-UM","2017/07/04 13:29:38","新北市中和區新生街39巷2號","121.48349","25.0031083333333","6500300","中和區"
"235003","097-UM","2017/07/04 13:29:32","新北市中和區景平路396-2號","121.509723333333","24.9932733333333","6500300","中和區"
"235004","150-BY","2017/07/04 13:29:54","新北市中和區保健路50巷66號","121.509353333333","24.9951316666667","6500300","中和區"
"235022","151-BY","2017/07/04 13:29:45","新北市中和區圓通路369巷36弄119號","121.490321666667","24.9831733333333","6500300","中和區"
"235019","183-VK","2017/07/04 13:29:51","新北市中和區民享街287號","121.470801666667","24.9958266666667","6500300","中和區"
"235002","185-VK","2017/07/04 13:29:49","新北市中和區秀朗路三段128巷12弄1號","121.524588333333","24.9927683333333","6500300","中和區"
"235013","186-VK","2017/07/04 13:29:52","新北市中和區景安路179號","121.505126666667","24.9940833333333","6500300","中和區"
"235031","255-BX","2017/07/04 13:29:49","新北市中和區新生街242巷9號","121.482948333333","24.9977816666667","6500300","中和區"
"235036","301-VK","2017/07/04 13:29:31","新北市中和區連城路265巷1號","121.491506666667","24.9962266666667","6500300","中和區"
"235007","352-BY","2017/07/04 13:29:43","新北市中和區景平路357號","121.504673333333","24.99342","6500300","中和區"
"235015","376-QA","2017/07/04 13:29:46","新北市中和區興南路二段142巷19弄19-1號","121.502498333333","24.9832316666667","6500300","中和區"
"235032","377-QA","2017/07/04 13:29:51","新北市中和區錦和路350-1號","121.490446666667","24.9936316666667","6500300","中和區"
"235025","378-QA","2017/07/04 13:29:38","新北市中和區民享街116巷6-1號","121.474201666667","24.9988583333333","6500300","中和區"
"235014","4979-A6","2017/07/04 13:29:52","新北市中和區景新街418巷18弄7號","121.511931666667","24.988405","6500300","中和區"
"235033","4980-A6","2017/07/04 13:29:40","新北市中和區連城路99巷2號","121.496575","24.9996","6500300","中和區"
"235006","551-UM","2017/07/04 13:29:47","新北市中和區自立路56巷1號","121.523418333333","24.9917566666667","6500300","中和區"
"235034","558-UM","2017/07/04 13:29:47","新北市中和區圓通路142號","121.498248333333","24.9958083333333","6500300","中和區"
"235009","565-BX","2017/07/04 13:29:47","新北市中和區復興路36號","121.504963333333","24.9900666666667","6500300","中和區"
"235018","640-BX","2017/07/04 13:29:32","新北市中和區民享街121巷2號","121.474416666667","24.99861","6500300","中和區"
"235024","647-TV","2017/07/04 13:29:42","新北市中和區員山路287號","121.481221666667","24.9998283333333","6500300","中和區"
"235011","732-UM","2017/07/04 13:29:33","新北市中和區南山路300號","121.507848333333","24.987135","6500300","中和區"
"235010","733-UM","2017/07/04 13:29:43","新北市中和區員山路36巷13號","121.48409","24.9907666666667","6500300","中和區"
"235035","783-BX","2017/07/04 13:29:48","新北市中和區環中路122號","121.48191","25.0125766666667","6500300","中和區"
"235021","801-TS","2017/07/04 13:29:42","新北市中和區民安街129號","121.476358333333","24.9992866666667","6500300","中和區"
"235005","802-TS","2017/07/04 13:29:42","新北市中和區中和路324巷8號","121.509928333333","25.0007216666667","6500300","中和區"
"235016","805-TS","2017/07/04 13:29:44","新北市中和區興南路二段96號","121.50523","24.9842133333333","6500300","中和區"
"235012","896-TW","2017/07/04 13:29:47","新北市中和區中正路748號","121.485566666667","24.99846","6500300","中和區"
"235017","900-TW","2017/07/04 13:29:39","新北市中和區連城路607號","121.477966666667","24.9931916666667","6500300","中和區"
"235001","AAC-213","2017/07/04 13:29:48","新北市中和區景德街53號","121.517715","24.9914166666667","6500300","中和區"
"235023","AAC-215","2017/07/04 13:29:43","新北市中和區員山路36巷16-2號","121.485168333333","24.991425","6500300","中和區"
"220016","013-TV","2017/07/04 13:29:50","新北市板橋區民生路二段36-1號","121.472473333333","25.016635","6500100","板橋區"
"220013","072-UY","2017/07/04 13:29:31","新北市板橋區民生路二段15-1號","121.47279","25.0163633333333","6500100","板橋區"
"247002","402-BY","2017/07/04 13:25:10","新北市蘆洲區民權路5號","121.4765","25.0856283333333","6501400","蘆洲區"
"247007","339-TH","2017/07/04 13:29:34","新北市五股區成泰路三段318-1號","121.450478333333","25.0965633333333","6501400","蘆洲區"
"247013","057-VK","2017/07/04 13:29:35","新北市五股區中興路三段163號","121.449433333333","25.0806183333333","6501400","蘆洲區"
"247005","053-VK","2017/07/04 13:29:09","新北市五股區中興路三段198號","121.441323333333","25.0820816666667","6501400","蘆洲區"
"247015","001-UY","2017/07/04 13:29:49","新北市五股區中興路三段2巷10號","121.448838333333","25.0815816666667","6501400","蘆洲區"
"228004","212-TW","2017/07/04 13:29:37","新北市貢寮區龍崗里石壁坑街17號","121.910396666667","24.9894416666667","6502600","貢寮區"
"228005","828-UM","2017/07/04 13:28:33","新北市貢寮區美豐里文秀坑8號","121.902588333333","25.0504183333333","6502600","貢寮區"
"208004","AAC-292","2017/07/04 13:29:33","新北市金山區南勢湖17號","121.619975","25.2187366666667","6502700","金山區"
"207002","749-BX","2017/07/04 13:29:42","新北市萬里區崁腳里崁腳路166號","121.645161666667","25.1560333333333","6502800","萬里區"
"207001","463-BY","2017/07/04 13:29:30","新北市萬里區野柳里八斗60-1號","121.676536666667","25.2004733333333","6502800","萬里區"
"252005","073-UM","2017/07/04 13:29:50","新北市三芝區圓山里木屐寮31-1號","121.528903333333","25.2247866666667","6502100","三芝區"
"236006","498-BY","2017/07/04 13:29:44","新北市土城區亞洲路11巷3弄11號","121.436321666667","24.971585","6501300","土城區"
"238020","308-TH","2017/07/04 13:29:41","新北市樹林區育德街78-1號","121.388108333333","24.96803","6500700","樹林區"
"221010","276-VK","2017/07/04 13:14:01","新北市汐止區汐萬路一段256巷3號","121.653465","25.07458","6501100","汐止區"
"221032","280-BY","2017/07/04 13:29:36","新北市汐止區水源路一段56號","121.657403333333","25.0655883333333","6501100","汐止區"
"220027","145-BY","2017/07/04 13:29:48","新北市板橋區華東街1-9號","121.448216666667","24.9948316666667","6500100","板橋區"
"220030","610-BX","2017/07/04 13:29:33","新北市板橋區華東街1-9號","121.448266666667","24.9949066666667","6500100","板橋區"
"220004","276-BY","2017/07/04 13:29:47","新北市板橋區中山路一段156號","121.46518","25.0117483333333","6500100","板橋區"
"220019","283-VK","2017/07/04 13:29:38","新北市板橋區民生路二段36-1號","121.472631666667","25.016735","6500100","板橋區"
"220001","285-VK","2017/07/04 13:29:35","新北市板橋區民生路二段22號","121.472761666667","25.01669","6500100","板橋區"
"220009","295-UM","2017/07/04 13:29:40","新北市板橋區民生路二段15-1號","121.472816666667","25.0161766666667","6500100","板橋區"
"220023","297-UM","2017/07/04 13:29:37","新北市板橋區華東街1-10號","121.448263333333","24.9949733333333","6500100","板橋區"
"220028","461-BY","2017/07/04 13:29:35","新北市板橋區華東街1-9號","121.448241666667","24.9948316666667","6500100","板橋區"
"220104","560-BX","2017/07/04 13:29:41","新北市板橋區華東街1-10號","121.448678333333","24.9947883333333","6500100","板橋區"
"220011","609-BX","2017/07/04 13:29:42","新北市板橋區民生路二段22號","121.472775","25.0166033333333","6500100","板橋區"
"220025","687-BX","2017/07/04 13:29:37","新北市板橋區四川路二段橋頭1號","121.446256666667","24.994215","6500100","板橋區"
"220002","741-BX","2017/07/04 13:29:39","新北市板橋區民生路二段15-1號","121.472701666667","25.0164416666667","6500100","板橋區"
