"lineid","car","time","location","longitude","latitude","cityid","cityname"
"234040","862-TW","2017/07/04 15:09:28","新北市永和區福和路1號","121.526458333333","25.0096616666667","6500400","永和區"
"248017","225-UY","2017/07/04 15:09:32","新北市五股區登林路105-2號","121.408116666667","25.078535","6501500","五股區"
"231002","002-UM","2017/07/04 15:09:31","新北市新店區中正路543-4號","121.533685","24.9875666666667","6500600","新店區"
"231025","0291-UT","2017/07/04 15:09:31","新北市新店區二十張路28巷2號","121.538233333333","24.9818316666667","6500600","新店區"
"231028","046-UY","2017/07/04 15:09:22","新北市新店區僑愛三路39號","121.498815","24.9445866666667","6500600","新店區"
"231029","106-UY","2017/07/04 15:09:28","新北市新店區安康路三段740號","121.473806666667","24.9419833333333","6500600","新店區"
"231018","107-UY","2017/07/04 15:09:21","新北市新店區中央六街99號","121.526013333333","24.9770616666667","6500600","新店區"
"231012","108-UY","2017/07/04 15:09:18","新北市新店區中興路三段309號","121.542008333333","24.9858233333333","6500600","新店區"
"231020","187-VK","2017/07/04 15:09:26","新北市新店區永福路82號","121.560901666667","24.92746","6500600","新店區"
"231069","189-VK","2017/07/04 11:59:36","新北市新店區安華路28-1號","121.519633333333","24.9611416666667","6500600","新店區"
"231026","256-BX","2017/07/04 15:09:34","新北市新店區建興街9巷1號","121.5399","24.976295","6500600","新店區"
"231034","268-BY","2017/07/04 15:09:34","新北市新店區玫瑰路4-1號","121.493588333333","24.9514083333333","6500600","新店區"
"231015","AAD-862","2017/07/04 15:06:37","新北市新店區明山路65號","121.565615","24.957455","6500600","新店區"
"231005","355-BY","2017/07/04 15:09:35","新北市新店區寶元路一段15巷11號","121.542025","24.9870366666667","6500600","新店區"
"231024","3713-VJ","2017/07/04 15:09:36","新北市新店區北新路一段297巷32號","121.540488333333","24.968315","6500600","新店區"
"231036","512-UM","2017/07/04 15:09:36","新北市新店區安祥路104巷15號","121.481396666667","24.963245","6500600","新店區"
"231023","513-UM","2017/07/04 15:09:29","新北市新店區中興路一段139號","121.542101666667","24.9635716666667","6500600","新店區"
"231035","515-UM","2017/07/04 15:09:39","新北市新店區安和路三段169號","121.516031666667","24.986045","6500600","新店區"
"231003","616-UM","2017/07/04 15:09:34","新北市新店區寶橋路225號","121.549441666667","24.9776533333333","6500600","新店區"
"231006","617-UM","2017/07/04 15:09:28","新北市新店區新坡一街60-3號","121.550026666667","24.9628033333333","6500600","新店區"
"231030","618-UM","2017/07/04 15:09:27","新北市新店區安民街341-1號","121.516841666667","24.9749466666667","6500600","新店區"
"231001","619-UM","2017/07/04 15:09:25","新北市新店區中正路272號","121.538953333333","24.973655","6500600","新店區"
"231039","718-UY","2017/07/04 15:09:35","新北市新店區民權路2號","121.542878333333","24.9829466666667","6500600","新店區"
"231032","720-UM","2017/07/04 15:09:31","新北市新店區安泰路109-3號","121.486673333333","24.943625","6500600","新店區"
"231004","899-TW","2017/07/04 15:09:26","新北市新店區建國路78號","121.54064","24.9764983333333","6500600","新店區"
"231037","AKT-0513","2017/07/04 15:09:18","新北市新店區安民街365巷7弄2號","121.516021666667","24.9752916666667","6500600","新店區"
"235030","003-UY","2017/07/04 15:09:30","新北市中和區水源路118號","121.506921666667","25.0035083333333","6500300","中和區"
"235028","005-UY","2017/07/04 14:12:41","新北市中和區興南路三段35號","121.497098333333","24.9779883333333","6500300","中和區"
"235020","096-UM","2017/07/04 15:09:38","新北市中和區中山路三段170巷8弄1號","121.472615","25.0076016666667","6500300","中和區"
"235003","097-UM","2017/07/04 15:09:32","新北市中和區安樂路217巷40弄1號","121.51331","24.9978883333333","6500300","中和區"
"235004","150-BY","2017/07/04 15:09:34","新北市中和區景安路79巷23號","121.507055","24.99672","6500300","中和區"
"235022","151-BY","2017/07/04 15:09:25","新北市中和區員山路106號","121.481078333333","24.995495","6500300","中和區"
"235008","293-VK","2017/07/04 15:09:26","新北市中和區南山路146巷29號","121.50297","24.9923883333333","6500300","中和區"
"235007","352-BY","2017/07/04 15:09:24","新北市中和區興南路二段159巷1號","121.50519","24.9833","6500300","中和區"
"235015","376-QA","2017/07/04 15:09:25","新北市中和區復興路267號","121.50271","24.9902466666667","6500300","中和區"
"235032","377-QA","2017/07/04 15:09:31","新北市中和區福美路246號","121.49863","25.0053483333333","6500300","中和區"
"235025","378-QA","2017/07/04 15:09:17","新北市新店區安豐路54-1號","121.499873333333","24.9540266666667","6500300","中和區"
"235014","4979-A6","2017/07/04 15:09:32","新北市中和區景平路400號","121.509346666667","24.99298","6500300","中和區"
"235033","4980-A6","2017/07/04 15:09:34","新北市中和區圓通路223號","121.496518333333","24.99425","6500300","中和區"
"235034","558-UM","2017/07/04 15:08:27","新北市中和區連勝街40號","121.497996666667","24.9976766666667","6500300","中和區"
"235018","640-BX","2017/07/04 15:09:32","新北市中和區民享街38號","121.473985","25.0030433333333","6500300","中和區"
"235035","783-BX","2017/07/04 15:09:28","新北市中和區永和路363巷2弄2號","121.48213","25.01114","6500300","中和區"
"235016","805-TS","2017/07/04 15:09:24","新北市中和區忠孝街3號","121.509541666667","24.9828866666667","6500300","中和區"
"235012","896-TW","2017/07/04 15:09:27","新北市中和區興南路一段146號","121.508396666667","24.9869733333333","6500300","中和區"
"235001","AAC-213","2017/07/04 15:09:28","新北市中和區秀朗路三段50巷2-1號","121.52573","24.9955483333333","6500300","中和區"
"235023","AAC-215","2017/07/04 15:09:23","新北市中和區圓通路367巷13弄39號","121.49345","24.9879883333333","6500300","中和區"
"220013","072-UY","2017/07/04 15:09:31","新北市板橋區民生路二段36-1號","121.472638333333","25.0166033333333","6500100","板橋區"
"220017","AAD-861","2017/07/04 15:09:27","新北市板橋區大明街34號","121.4582","25.0026766666667","6500100","板橋區"
"247002","402-BY","2017/07/04 15:09:29","新北市五股區成泰路一段98巷77號","121.451946666667","25.0804566666667","6501400","蘆洲區"
"247007","339-TH","2017/07/04 15:09:34","新北市五股區中興路三段2巷10號","121.448918333333","25.081505","6501400","蘆洲區"
"228004","212-TW","2017/07/04 15:09:16","新北市貢寮區雙玉里田寮洋街17號","121.921851666667","25.02477","6502600","貢寮區"
"208004","AAC-292","2017/07/04 15:09:33","新北市金山區六股里下六股9號","121.626185","25.2239516666667","6502700","金山區"
"207002","749-BX","2017/07/04 15:09:22","新北市萬里區崁腳里內中福路14-2號","121.662856666667","25.16539","6502800","萬里區"
"207001","463-BY","2017/07/04 15:09:30","新北市萬里區大鵬里萬里加投10號","121.650633333333","25.2070933333333","6502800","萬里區"
"236065","105-UM","2017/07/04 15:09:27","新北市土城區學成路139號","121.449095","24.989535","6501300","土城區"
"236041","107-UM","2017/07/04 15:09:24","新北市土城區學士路10號","121.453741666667","24.9831616666667","6501300","土城區"
"236075","166-UM","2017/07/04 15:09:37","新北市土城區中州路3巷43號","121.413465","24.9563066666667","6501300","土城區"
"236029","253-BX","2017/07/04 15:09:23","新北市土城區福祥街51號","121.440785","24.98001","6501300","土城區"
"236025","269-VK","2017/07/04 15:09:24","新北市土城區中正路52號","121.443706666667","24.9752966666667","6501300","土城區"
"236013","270-VK","2017/07/04 15:09:31","新北市土城區學府路一段75巷10號","121.45705","24.987975","6501300","土城區"
"236034","271-VK","2017/07/04 15:09:34","新北市土城區明德路一段153號","121.464946666667","24.9798833333333","6501300","土城區"
"236017","401-BY","2017/07/04 15:09:27","新北市土城區延峰街11號","121.468753333333","24.9863716666667","6501300","土城區"
"236057","912-UM","2017/07/04 15:09:25","新北市土城區金城路二段234號","121.456668333333","24.98299","6501300","土城區"
"236045","913-UM","2017/07/04 15:09:25","新北市土城區清水路121號","121.45782","24.9816633333333","6501300","土城區"
"236054","AAC-216","2017/07/04 15:09:31","新北市土城區學府路一段221號","121.451416666667","24.9842883333333","6501300","土城區"
"221010","276-VK","2017/07/04 13:14:01","新北市汐止區汐萬路一段256巷3號","121.653465","25.07458","6501100","汐止區"
"220020","277-BY","2017/07/04 15:09:23","新北市板橋區大觀路二段435-1號","121.446493333333","24.9944383333333","6500100","板橋區"
"220043","283-UM","2017/07/04 15:09:32","新北市板橋區文化路一段379號","121.466936666667","25.0216516666667","6500100","板橋區"
"220050","285-UM","2017/07/04 15:09:26","新北市板橋區雙十路二段47巷4弄33號","121.47494","25.0267616666667","6500100","板橋區"
"220031","286-VK","2017/07/04 15:09:18","新北市板橋區僑中二街92巷27號","121.444863333333","25.0090833333333","6500100","板橋區"
"220009","295-UM","2017/07/04 15:09:24","新北市板橋區四川路一段274巷1-3號","121.458398333333","25.0012366666667","6500100","板橋區"
"220041","299-UM","2017/07/04 15:09:34","新北市板橋區漢生西路75號","121.462918333333","25.0188933333333","6500100","板橋區"
"220038","487-VK","2017/07/04 15:09:33","新北市板橋區互助街77巷3號","121.460191666667","25.025995","6500100","板橋區"
"220037","491-VK","2017/07/04 15:08:21","新北市板橋區民治街73-1號","121.479616666667","25.0327","6500100","板橋區"
"220052","561-BX","2017/07/04 15:09:28","新北市板橋區陽明街279巷42-4號","121.460785","25.0255783333333","6500100","板橋區"
"220011","609-BX","2017/07/04 15:09:36","新北市板橋區中山路二段260號","121.478948333333","25.0182866666667","6500100","板橋區"
"220029","630-UY","2017/07/04 15:09:24","新北市板橋區僑中一街80巷6弄2號","121.447623333333","25.011965","6500100","板橋區"
"220025","687-BX","2017/07/04 15:09:37","新北市板橋區大觀路一段28巷1弄102號","121.451573333333","25.0064516666667","6500100","板橋區"
"220042","689-BX","2017/07/04 15:09:31","新北市板橋區長江路二段280號","121.469856666667","25.0328883333333","6500100","板橋區"
"220003","827-TW","2017/07/04 15:09:28","新北市板橋區國慶路149巷37弄8號","121.460503333333","24.9979733333333","6500100","板橋區"
"220014","829-TW","2017/07/04 15:09:35","新北市五股區孝義路14-1號","121.451728333333","25.1064433333333","6500100","板橋區"
"220051","830-TW","2017/07/04 15:09:25","新北市板橋區縣民大道二段122號","121.467405","25.01592","6500100","板橋區"
"220046","AAC-210","2017/07/04 15:09:36","新北市板橋區文化路一段221巷10號","121.463253333333","25.0176833333333","6500100","板橋區"
"220018","AAC-253","2017/07/04 15:09:26","新北市板橋區德興街13號","121.453438333333","24.99441","6500100","板橋區"
