"lineid","car","time","location","longitude","latitude","cityid","cityname"
"234040","862-TW","2017/07/04 15:19:28","新北市永和區福和路1號","121.526498333333","25.0097466666667","6500400","永和區"
"248017","225-UY","2017/07/04 15:19:32","新北市五股區成泰路一段157號","121.43521","25.0741783333333","6501500","五股區"
"231002","002-UM","2017/07/04 15:19:31","新北市新店區中正路700巷1號","121.533955","24.99119","6500600","新店區"
"231025","0291-UT","2017/07/04 15:19:31","新北市新店區民權路107-2號","121.536451666667","24.9821383333333","6500600","新店區"
"231028","046-UY","2017/07/04 15:19:22","新北市新店區僑信路84巷43號","121.498486666667","24.9474833333333","6500600","新店區"
"231029","106-UY","2017/07/04 15:19:28","新北市新店區安康路三段740號","121.473785","24.9419616666667","6500600","新店區"
"231018","107-UY","2017/07/04 15:19:21","新北市新店區中央七街16號","121.530026666667","24.9749583333333","6500600","新店區"
"231012","108-UY","2017/07/04 15:19:38","新北市新店區寶慶街70號","121.541786666667","24.9867766666667","6500600","新店區"
"231020","187-VK","2017/07/04 15:19:26","新北市新店區湖興路111號","121.560408333333","24.9353633333333","6500600","新店區"
"231069","189-VK","2017/07/04 11:59:36","新北市新店區安華路28-1號","121.519633333333","24.9611416666667","6500600","新店區"
"231026","256-BX","2017/07/04 15:19:34","新北市新店區中正路265巷15號","121.537921666667","24.9731283333333","6500600","新店區"
"231034","268-BY","2017/07/04 15:19:34","新北市新店區如意街1巷2號","121.495728333333","24.9494483333333","6500600","新店區"
"231015","AAD-862","2017/07/04 15:19:17","新北市新店區明山路45號","121.563848333333","24.9558166666667","6500600","新店區"
"231005","355-BY","2017/07/04 15:19:35","新北市新店區北新路三段134號","121.54154","24.9819833333333","6500600","新店區"
"231024","3713-VJ","2017/07/04 15:19:36","新北市新店區北新路一段121號","121.539373333333","24.962645","6500600","新店區"
"231036","512-UM","2017/07/04 15:19:36","新北市新店區安祥路69巷15號","121.481878333333","24.9614333333333","6500600","新店區"
"231023","513-UM","2017/07/04 15:19:33","新北市新店區行政街23號","121.54307","24.9663683333333","6500600","新店區"
"231035","515-UM","2017/07/04 15:19:17","新北市新店區安和路三段77號","121.517873333333","24.9835483333333","6500600","新店區"
"231003","616-UM","2017/07/04 15:19:34","新北市新店區寶高路80號","121.55296","24.9773533333333","6500600","新店區"
"231030","618-UM","2017/07/04 15:19:27","新北市新店區新和街36號","121.519303333333","24.9848266666667","6500600","新店區"
"231001","619-UM","2017/07/04 15:19:25","新北市新店區北新路一段303號","121.541443333333","24.9674316666667","6500600","新店區"
"231039","718-UY","2017/07/04 15:19:35","新北市新店區寶元路一段61號","121.542088333333","24.986005","6500600","新店區"
"231032","720-UM","2017/07/04 15:19:31","新北市新店區安康路三段206號","121.488726666667","24.9517733333333","6500600","新店區"
"231004","899-TW","2017/07/04 15:19:26","新北市新店區博愛街13巷24號","121.540281666667","24.9740566666667","6500600","新店區"
"231037","AKT-0513","2017/07/04 15:19:18","新北市新店區安民街365巷7弄2號","121.515996666667","24.9755183333333","6500600","新店區"
"235030","003-UY","2017/07/04 15:19:30","新北市中和區保平路362巷11號","121.505876666667","25.0039316666667","6500300","中和區"
"235028","005-UY","2017/07/04 14:12:41","新北市中和區興南路三段35號","121.497098333333","24.9779883333333","6500300","中和區"
"235032","377-QA","2017/07/04 15:19:31","新北市中和區錦和路142巷3號","121.48908","24.9975316666667","6500300","中和區"
"235014","4979-A6","2017/07/04 15:19:32","新北市中和區景安路82巷6弄1號","121.505103333333","24.9962466666667","6500300","中和區"
"235033","4980-A6","2017/07/04 15:19:20","新北市中和區中正路561號","121.487041666667","24.994325","6500300","中和區"
"235034","558-UM","2017/07/04 15:19:27","新北市中和區圓通路146-1號","121.498068333333","24.99572","6500300","中和區"
"235035","783-BX","2017/07/04 15:19:28","新北市中和區中山路二段478號","121.488095","25.0049916666667","6500300","中和區"
"235012","896-TW","2017/07/04 15:19:27","新北市中和區景新街368號","121.512208333333","24.9903933333333","6500300","中和區"
"235001","AAC-213","2017/07/04 15:19:28","新北市中和區秀朗路三段135巷2號","121.525161666667","24.99254","6500300","中和區"
"235023","AAC-215","2017/07/04 15:19:23","新北市中和區圓通路320-1號","121.485323333333","24.98779","6500300","中和區"
"220017","AAD-861","2017/07/04 15:19:27","新北市板橋區大明街20巷19弄5號","121.458275","25.0031916666667","6500100","板橋區"
"247002","402-BY","2017/07/04 15:19:29","新北市八里區荖阡坑路20-9號","121.398508333333","25.1374766666667","6501400","蘆洲區"
"208004","AAC-292","2017/07/04 15:19:33","新北市金山區南勢湖20號","121.620731666667","25.215895","6502700","金山區"
"207001","463-BY","2017/07/04 15:19:30","新北市萬里區大鵬里萬里加投9號","121.652116666667","25.2079283333333","6502800","萬里區"
"236065","105-UM","2017/07/04 15:19:27","新北市土城區裕民路185巷36弄8號","121.454371666667","24.98461","6501300","土城區"
"236041","107-UM","2017/07/04 15:19:24","新北市土城區金城路二段245巷46號","121.455283333333","24.9833633333333","6501300","土城區"
"236075","166-UM","2017/07/04 15:19:37","新北市土城區中州路32號","121.41328","24.9579683333333","6501300","土城區"
"236029","253-BX","2017/07/04 15:19:27","新北市土城區中央路一段262巷25號","121.442941666667","24.9841466666667","6501300","土城區"
"236025","269-VK","2017/07/04 15:19:24","新北市土城區中央路二段61巷22號","121.44322","24.9786783333333","6501300","土城區"
"236013","270-VK","2017/07/04 15:19:31","新北市土城區廣福街5號","121.457251666667","24.9887933333333","6501300","土城區"
"236034","271-VK","2017/07/04 15:19:34","新北市土城區國際路139巷46號","121.468401666667","24.9773733333333","6501300","土城區"
"236017","401-BY","2017/07/04 15:19:27","新北市土城區金城路三段198號","121.468716666667","24.9877933333333","6501300","土城區"
"236057","912-UM","2017/07/04 15:19:25","新北市土城區金城路一段127號","121.444438333333","24.97331","6501300","土城區"
"236045","913-UM","2017/07/04 15:19:24","新北市土城區清水路340號","121.464145","24.9857166666667","6501300","土城區"
"236061","915-UM","2017/07/04 15:19:25","新北市土城區延平街33巷11號","121.467395","24.9915733333333","6501300","土城區"
"236054","AAC-216","2017/07/04 15:19:31","新北市土城區學府路一段217號","121.451438333333","24.984375","6501300","土城區"
"221010","276-VK","2017/07/04 13:14:01","新北市汐止區汐萬路一段256巷3號","121.653465","25.07458","6501100","汐止區"
"220050","285-UM","2017/07/04 15:19:23","新北市板橋區縣民大道三段32號","121.471581666667","25.0189683333333","6500100","板橋區"
"220031","286-VK","2017/07/04 15:19:38","新北市板橋區僑中二街104巷48號","121.444151666667","25.00826","6500100","板橋區"
"220041","299-UM","2017/07/04 15:19:35","新北市板橋區民權路178號","121.45947","25.0133383333333","6500100","板橋區"
"220038","487-VK","2017/07/04 15:19:33","新北市板橋區四維路174號","121.464576666667","25.02629","6500100","板橋區"
"220052","561-BX","2017/07/04 15:19:25","新北市板橋區漢生西路28號","121.463491666667","25.0182783333333","6500100","板橋區"
"220029","630-UY","2017/07/04 15:19:24","新北市板橋區大觀路二段142號","121.442743333333","24.9991","6500100","板橋區"
"220042","689-BX","2017/07/04 15:19:35","新北市板橋區長江路一段6-3號","121.45775","25.02852","6500100","板橋區"
"220014","829-TW","2017/07/04 15:19:14","新北市八里區中山路三段382號","121.368518333333","25.1361483333333","6500100","板橋區"
"220051","830-TW","2017/07/04 15:19:32","新北市板橋區民生路二段175號","121.469626666667","25.0201416666667","6500100","板橋區"
"220046","AAC-210","2017/07/04 15:19:36","新北市板橋區光正街57號","121.461738333333","25.017595","6500100","板橋區"
"220018","AAC-253","2017/07/04 15:19:36","新北市板橋區四川路二段245巷11號","121.450896666667","24.9932033333333","6500100","板橋區"
