"lineid","car","time","location","longitude","latitude","cityid","cityname"
"249005","172-UM","2017/07/04 17:09:30","新北市八里區華富山4-1號","121.41658","25.145695","6502300","八里區"
"249001","173-UM","2017/07/04 17:09:26","新北市八里區中華路二段248號","121.405661666667","25.1497816666667","6502300","八里區"
"249004","303-UY","2017/07/04 17:09:31","新北市八里區忠孝路302號","121.417948333333","25.1614366666667","6502300","八里區"
"249002","305-UY","2017/07/04 17:09:29","新北市八里區龍米路二段133號","121.445233333333","25.147605","6502300","八里區"
"249003","593-UM","2017/07/04 17:09:35","新北市八里區中山路二段417號","121.397143333333","25.14622","6502300","八里區"
"244007","080-UY","2017/07/04 17:09:20","新北市林口區菁埔26-12號","121.37687","25.09583","6501700","林口區"
"244019","403-UM","2017/07/04 17:09:38","新北市林口區仁愛路二段156號","121.38183","25.0741266666667","6501700","林口區"
"244009","410-SL","2017/07/04 17:09:17","新北市林口區粉寮32號","121.403276666667","25.0866533333333","6501700","林口區"
"244023","483-VK","2017/07/04 17:09:27","新北市林口區工四路42號","121.400565","25.0839433333333","6501700","林口區"
"244021","838-TS","2017/07/04 17:09:31","新北市林口區粉寮路二段30號","121.403085","25.0865016666667","6501700","林口區"
"231069","189-VK","2017/07/04 11:59:36","新北市新店區安華路28-1號","121.519633333333","24.9611416666667","6500600","新店區"
"231046","278-BY","2017/07/04 17:09:36","新北市新店區直潭路92號","121.530926666667","24.9376483333333","6500600","新店區"
"241028","022-UY","2017/07/04 17:09:36","新北市三重區重新路三段108號","121.492403333333","25.060405","6500200","三重區"
"241008","059-VK","2017/07/04 17:09:30","新北市三重區力行路二段136巷9號","121.482061666667","25.0757566666667","6500200","三重區"
"241009","060-VK","2017/07/04 17:09:21","新北市三重區三和路四段225號","121.481385","25.0797683333333","6500200","三重區"
"241031","061-VK","2017/07/04 17:09:33","新北市三重區重陽路一段113巷2弄2號","121.487485","25.0599516666667","6500200","三重區"
"241015","062-VK","2017/07/04 17:09:20","新北市三重區長生街42號","121.499863333333","25.0665","6500200","三重區"
"241017","063-VK","2017/07/04 17:09:33","新北市三重區市前街14號","121.489141666667","25.0624583333333","6500200","三重區"
"241024","065-VK","2017/07/04 17:09:30","新北市三重區中正北路346號","121.477741666667","25.0693633333333","6500200","三重區"
"241026","066-VK","2017/07/04 17:09:24","新北市三重區正義南路13-1號","121.497756666667","25.0618116666667","6500200","三重區"
"241002","090-VK","2017/07/04 17:09:20","新北市三重區仁義街231號","121.49654","25.0822616666667","6500200","三重區"
"241003","091-VK","2017/07/04 17:09:17","新北市三重區仁義街288號","121.493651666667","25.0862533333333","6500200","三重區"
"241025","156-TC","2017/07/04 17:09:33","新北市三重區中正北路560巷53號","121.470893333333","25.0698733333333","6500200","三重區"
"241005","262-UM","2017/07/04 17:09:33","新北市三重區仁愛街705號","121.482528333333","25.0807366666667","6500200","三重區"
"241011","265-UM","2017/07/04 17:09:19","新北市三重區龍濱路190號","121.501148333333","25.0732533333333","6500200","三重區"
"241016","266-UM","2017/07/04 17:09:26","新北市三重區大同北路126-1號","121.492945","25.0644433333333","6500200","三重區"
"241022","267-UM","2017/07/04 17:09:38","新北市三重區三民街88號","121.485583333333","25.0628866666667","6500200","三重區"
"241018","268-UM","2017/07/04 17:09:29","新北市三重區六張街83號","121.493113333333","25.0701316666667","6500200","三重區"
"241032","269-UM","2017/07/04 17:09:33","新北市三重區興華街88號","121.484266666667","25.0595766666667","6500200","三重區"
"241013","270-UM","2017/07/04 17:09:22","新北市三重區仁孝街22號","121.496291666667","25.074015","6500200","三重區"
"241007","398-BY","2017/07/04 17:09:38","新北市三重區三和路四段163巷14號","121.484366666667","25.07901","6500200","三重區"
"241020","413-TH","2017/07/04 17:09:33","新北市三重區後竹圍街173-1號","121.485975","25.0718416666667","6500200","三重區"
"241004","475-VK","2017/07/04 17:09:17","新北市三重區五華街98巷10號","121.491796666667","25.0817933333333","6500200","三重區"
"241019","478-VK","2017/07/04 17:09:32","新北市三重區力行路一段153巷24號","121.48589","25.0690683333333","6500200","三重區"
"241030","480-VK","2017/07/04 17:09:31","新北市三重區集成路28號","121.488856666667","25.0523816666667","6500200","三重區"
"241014","543-UM","2017/07/04 17:09:27","新北市三重區龍濱路120-3號","121.501818333333","25.0712766666667","6500200","三重區"
"241001","547-UM","2017/07/04 17:09:30","新北市三重區仁愛街249號","121.493511666667","25.0781683333333","6500200","三重區"
"241006","AAD-863","2017/07/04 17:09:19","新北市三重區三和路四段264巷2弄13號","121.485153333333","25.0768233333333","6500200","三重區"
"241023","887-TS","2017/07/04 17:09:38","新北市三重區忠孝路三段84巷1號","121.480251666667","25.0645283333333","6500200","三重區"
"241012","941-UM","2017/07/04 17:09:21","新北市三重區仁壽街190號","121.500678333333","25.0747566666667","6500200","三重區"
"241029","942-UM","2017/07/04 17:09:25","新北市三重區重新路四段65-10號","121.487131666667","25.05687","6500200","三重區"
"241033","AAC-255","2017/07/04 17:09:18","新北市三重區中興北街271號","121.469216666667","25.060535","6500200","三重區"
"235028","005-UY","2017/07/04 16:44:36","新北市中和區員山路36巷16-3號","121.484956666667","24.99146","6500300","中和區"
"235062","031-BX","2017/07/04 16:59:16","新北市中和區員山路36巷16-3號","121.485058333333","24.9913916666667","6500300","中和區"
"247020","893-R6","2017/07/04 17:09:32","新北市蘆洲區仁愛街64-1號","121.471605","25.0940766666667","6501400","蘆洲區"
"247010","546-UM","2017/07/04 17:09:21","新北市蘆洲區民族路22號","121.476093333333","25.084155","6501400","蘆洲區"
"247018","500-BY","2017/07/04 17:09:34","新北市蘆洲區復興路85號","121.476455","25.0874066666667","6501400","蘆洲區"
"247008","339-TH","2017/07/04 17:09:30","新北市蘆洲區信義路30巷62號","121.474725","25.0779366666667","6501400","蘆洲區"
"247024","337-TH","2017/07/04 17:09:24","新北市蘆洲區長興路21號","121.464061666667","25.0830766666667","6501400","蘆洲區"
"247002","336-TH","2017/07/04 17:09:22","新北市蘆洲區永樂街38巷9號","121.458021666667","25.0887416666667","6501400","蘆洲區"
"247014","057-VK","2017/07/04 17:09:33","新北市蘆洲區中央路24號","121.473575","25.0828266666667","6501400","蘆洲區"
"247004","056-VK","2017/07/04 17:09:26","新北市蘆洲區永安南路二段276號","121.458033333333","25.0808433333333","6501400","蘆洲區"
"247006","053-VK","2017/07/04 17:08:45","新北市蘆洲區長安街108巷13號","121.461538333333","25.082125","6501400","蘆洲區"
"247012","007-UY","2017/07/04 17:09:30","新北市蘆洲區信義路268號","121.478103333333","25.086935","6501400","蘆洲區"
"247022","002-UY","2017/07/04 17:09:25","新北市蘆洲區民族路528號","121.468928333333","25.089885","6501400","蘆洲區"
"247016","001-UY","2017/07/04 17:09:36","新北市蘆洲區正和街96巷27號","121.467511666667","25.081425","6501400","蘆洲區"
"228001","212-TW","2017/07/04 17:09:27","新北市貢寮區仁理村研海街42號","121.925816666667","25.0428166666667","6502600","貢寮區"
"228002","585-TW","2017/07/04 17:09:36","新北市貢寮區龍崗里嵩陽街38號","121.908588333333","25.0164316666667","6502600","貢寮區"
"228003","828-UM","2017/07/04 17:08:33","新北市貢寮區福隆里東興街31-1號","121.952571666667","25.0205866666667","6502600","貢寮區"
"224010","AGQ-8101","2017/07/04 08:53:51","新北市瑞芳區中山路198號","121.801233333333","25.106935","6501200","瑞芳區"
"224006","676-BX","2017/07/04 17:09:33","新北市瑞芳區大寮路91號","121.780593333333","25.0976216666667","6501200","瑞芳區"
"224009","285-BY","2017/07/04 17:09:33","新北市瑞芳區輕便路136號","121.844365","25.113295","6501200","瑞芳區"
"224008","275-VK","2017/07/04 17:09:35","新北市瑞芳區柴寮路40號","121.827475","25.08686","6501200","瑞芳區"
"224007","273-VK","2017/07/04 17:09:33","新北市瑞芳區粗坑口路4號","121.761863333333","25.0988516666667","6501200","瑞芳區"
"224005","271-BY","2017/07/04 17:09:24","新北市瑞芳區鼻頭路127號","121.916756666667","25.1218766666667","6501200","瑞芳區"
"227009","642-TC","2017/07/04 17:09:33","新北市雙溪區三貂里子崙坑1-6號","121.849938333333","25.0574866666667","6502500","雙溪區"
"227003","400-TW","2017/07/04 17:09:34","新北市雙溪區外柑里外柑腳37號","121.809891666667","25.0184283333333","6502500","雙溪區"
"251004","009-UM","2017/07/04 17:09:19","新北市淡水區中山路28號","121.44446","25.169725","6501000","淡水區"
"251014","180-VK","2017/07/04 17:09:23","新北市淡水區八里堆9-6號","121.465366666667","25.22454","6501000","淡水區"
"251008","181-VK","2017/07/04 17:09:19","新北市淡水區樹梅坑14號","121.47111","25.1429983333333","6501000","淡水區"
"251005","182-VK","2017/07/04 17:09:28","新北市淡水區水源街一段157號","121.447696666667","25.17171","6501000","淡水區"
"251010","413-VK","2017/07/04 17:09:22","新北市淡水區中正路二段31號","121.419475","25.1814866666667","6501000","淡水區"
"251012","441-VK","2017/07/04 17:09:18","新北市淡水區新民街320號","121.435225","25.1831633333333","6501000","淡水區"
"251016","442-VK","2017/07/04 17:09:28","新北市淡水區泉洲厝1-2號","121.480581666667","25.188195","6501000","淡水區"
"251006","561-UM","2017/07/04 17:09:20","新北市淡水區中正路二段31號","121.419475","25.1815716666667","6501000","淡水區"
"251009","575-R6","2017/07/04 17:09:28","新北市淡水區三民街13號","121.43893","25.1717516666667","6501000","淡水區"
"251007","577-R6","2017/07/04 17:09:32","新北市淡水區中正東路二段141號","121.459698333333","25.1478383333333","6501000","淡水區"
"251011","650-BX","2017/07/04 17:09:34","新北市淡水區坪頂路52巷2號","121.458081666667","25.1625066666667","6501000","淡水區"
"251002","672-BX","2017/07/04 17:09:31","新北市淡水區中正路二段31號","121.419436666667","25.1817083333333","6501000","淡水區"
"252002","178-VK","2017/07/04 17:09:30","新北市三芝區忠孝街15號","121.50598","25.2551866666667","6502100","三芝區"
"252001","702-TV","2017/07/04 17:09:25","新北市三芝區埔頭里埔頭37號","121.49833","25.2602416666667","6502100","三芝區"
"242021","AAC-296","2017/07/04 17:09:33","新北市新莊區新泰路357巷3弄57號","121.441958333333","25.0395116666667","6500500","新莊區"
"242025","615-BX","2017/07/04 17:09:18","新北市新莊區新泰路255巷83號","121.442276666667","25.0388483333333","6500500","新莊區"
"242023","613-BX","2017/07/04 17:09:33","新北市新莊區新泰路255巷83號","121.442206666667","25.0391533333333","6500500","新莊區"
"242027","612-BX","2017/07/04 17:09:24","新北市新莊區新泰路357巷3弄57號","121.442078333333","25.03912","6500500","新莊區"
"242037","566-BX","2017/07/04 17:09:20","新北市新莊區新泰路357巷3弄57號","121.442101666667","25.0391016666667","6500500","新莊區"
"242042","497-BY","2017/07/04 17:09:19","新北市新莊區新泰路357巷3弄57號","121.44235","25.0395016666667","6500500","新莊區"
"242046","441-UM","2017/07/04 17:09:24","新北市新莊區三和路12-21號","121.442023333333","25.03838","6500500","新莊區"
"242051","440-UM","2017/07/04 17:09:22","新北市新莊區新泰路255巷83號","121.442131666667","25.0390783333333","6500500","新莊區"
"242032","415-TV","2017/07/04 17:09:18","新北市新莊區新泰路357巷3弄57號","121.442021666667","25.0393183333333","6500500","新莊區"
"242002","413-TV","2017/07/04 17:09:23","新北市新莊區新泰路357巷3弄57號","121.44207","25.0395816666667","6500500","新莊區"
"242039","400-BY","2017/07/04 17:09:35","新北市新莊區新泰路357巷3弄57號","121.442161666667","25.0391766666667","6500500","新莊區"
"242061","362-BY","2017/07/04 17:09:32","新北市新莊區新泰路255巷83號","121.442263333333","25.0386833333333","6500500","新莊區"
"242058","353-BY","2017/07/04 17:09:31","新北市新莊區新泰路255巷83號","121.44223","25.03894","6500500","新莊區"
"242011","132-UY","2017/07/04 17:09:19","新北市新莊區三和路12-21號","121.441991666667","25.038875","6500500","新莊區"
"242034","133-UY","2017/07/04 17:09:34","新北市新莊區新泰路357巷3弄51號","121.44233","25.04003","6500500","新莊區"
"242019","135-UY","2017/07/04 17:09:22","新北市新莊區三和路12-21號","121.441861666667","25.038825","6500500","新莊區"
"242044","172-VK","2017/07/04 17:09:30","新北市新莊區三和路12-17號","121.441988333333","25.0375183333333","6500500","新莊區"
"242007","173-VK","2017/07/04 14:43:33","新北市新莊區新泰路255巷83號","121.442075","25.0389233333333","6500500","新莊區"
"242056","176-VK","2017/07/04 17:09:26","新北市新莊區三和路12-21號","121.441921666667","25.0385216666667","6500500","新莊區"
"242005","346-TH","2017/07/04 17:09:28","新北市新莊區三和路12-17號","121.442086666667","25.0375683333333","6500500","新莊區"
"242048","347-TH","2017/07/04 17:09:31","新北市新莊區中正路487號","121.441103333333","25.0337016666667","6500500","新莊區"
"242017","348-TH","2017/07/04 17:09:26","新北市新莊區新泰路357巷3弄57號","121.442025","25.039695","6500500","新莊區"
"242054","349-TH","2017/07/04 17:09:26","新北市新莊區三和路12-16號","121.442011666667","25.0374816666667","6500500","新莊區"
"242015","350-TH","2017/07/04 17:09:21","新北市新莊區新泰路255巷83號","121.442053333333","25.0389083333333","6500500","新莊區"
"242009","351-TH","2017/07/04 17:03:57","新北市新莊區新泰路357巷3弄51號","121.441736666667","25.03985","6500500","新莊區"
"238015","755-BX","2017/07/04 17:09:27","新北市樹林區育德街78-1號","121.388243333333","24.9680666666667","6500700","樹林區"
"238023","601-UM","2017/07/04 17:09:30","新北市樹林區八德街828號","121.394358333333","24.968695","6500700","樹林區"
"238019","599-UM","2017/07/04 17:09:20","新北市樹林區八德街1012號","121.391335","24.9684683333333","6500700","樹林區"
"238018","571-TV","2017/07/04 17:09:25","新北市樹林區八德街491-8號","121.403033333333","24.9693266666667","6500700","樹林區"
"238024","5061-A6","2017/07/04 17:09:34","新北市樹林區環河路600-1號","121.403895","24.9693366666667","6500700","樹林區"
"238022","312-TH","2017/07/04 17:09:31","新北市樹林區八德街828-11號","121.392693333333","24.9685783333333","6500700","樹林區"
"238021","311-TH","2017/07/04 17:09:22","新北市樹林區佳園路二段29-1號","121.391686666667","24.9630533333333","6500700","樹林區"
"238017","283-BY","2017/07/04 17:09:22","新北市樹林區中洲街51巷2號","121.396811666667","24.971095","6500700","樹林區"
"238014","282-BY","2017/07/04 17:09:38","新北市樹林區八德街854號","121.391943333333","24.9685583333333","6500700","樹林區"
"238026","172-UY","2017/07/04 17:09:28","新北市樹林區八德街840號","121.392283333333","24.9685466666667","6500700","樹林區"
"238016","169-UY","2017/07/04 17:09:29","新北市樹林區八德街862-1號","121.39182","24.9685516666667","6500700","樹林區"
"239007","AAC-297","2017/07/04 17:09:32","新北市鶯歌區信義街48號","121.353238333333","24.955345","6500800","鶯歌區"
"239006","891-R6","2017/07/04 17:09:24","新北市鶯歌區八德路2巷37弄8號","121.33708","24.946505","6500800","鶯歌區"
"239008","527-UM","2017/07/04 17:09:20","新北市鶯歌區文化路339號","121.352093333333","24.9514283333333","6500800","鶯歌區"
"239005","526-UM","2017/07/04 17:09:26","新北市鶯歌區鶯桃路311號","121.333858333333","24.960775","6500800","鶯歌區"
"239001","417-VK","2017/07/04 17:09:30","新北市鶯歌區尖山路140巷12弄5號","121.346485","24.9493683333333","6500800","鶯歌區"
"239003","360-BY","2017/07/04 17:09:20","新北市鶯歌區八德路50號","121.330233333333","24.9560983333333","6500800","鶯歌區"
"239002","359-BY","2017/07/04 17:09:24","新北市鶯歌區建國路232巷1號","121.348285","24.95367","6500800","鶯歌區"
"239004","193-VK","2017/07/04 17:09:32","新北市鶯歌區文化路256巷15弄13號","121.352185","24.9472716666667","6500800","鶯歌區"
"221010","276-VK","2017/07/04 13:14:01","新北市汐止區汐萬路一段256巷3號","121.653465","25.07458","6501100","汐止區"
