"lineid","car","time","location","longitude","latitude","cityid","cityname"
"234013","149-BY","2017/07/04 18:09:27","新北市永和區福和路1號","121.526506666667","25.0099983333333","6500400","永和區"
"234026","9372-KE","2017/07/04 18:09:35","新北市永和區永和路一段72巷4號","121.513396666667","25.0060916666667","6500400","永和區"
"234011","9373-KE","2017/07/04 18:09:37","新北市永和區福和路1號","121.525503333333","25.009365","6500400","永和區"
"249005","172-UM","2017/07/04 18:09:30","新北市八里區荖阡坑路15號","121.401703333333","25.13977","6502300","八里區"
"249001","173-UM","2017/07/04 18:09:26","新北市八里區龍米路二段30號","121.448631666667","25.140045","6502300","八里區"
"249004","303-UY","2017/07/04 18:09:31","新北市八里區龍米路二段156號","121.435541666667","25.15738","6502300","八里區"
"249002","305-UY","2017/07/04 18:09:29","新北市八里區龍米路一段386巷20號","121.45227","25.1314583333333","6502300","八里區"
"249003","593-UM","2017/07/04 18:09:15","新北市八里區中華路二段165巷1號","121.407535","25.151045","6502300","八里區"
"248014","025-BX","2017/07/04 18:09:28","新北市五股區成泰路一段189巷3號","121.434665","25.0765433333333","6501500","五股區"
"248006","077-UY","2017/07/04 18:09:28","新北市五股區中興路二段82號","121.460793333333","25.07725","6501500","五股區"
"248008","095-VK","2017/07/04 18:09:30","新北市五股區更洲路32巷15弄9號","121.458183333333","25.0805066666667","6501500","五股區"
"248020","225-UY","2017/07/04 18:09:36","新北市五股區成泰路三段544-1號","121.454651666667","25.10244","6501500","五股區"
"248010","272-BY","2017/07/04 18:09:24","新北市五股區成泰路一段235號","121.436066666667","25.0791783333333","6501500","五股區"
"248004","677-BX","2017/07/04 18:09:39","新北市五股區中興路四段56號","121.437776666667","25.0831033333333","6501500","五股區"
"248002","678-BX","2017/07/04 18:09:32","新北市五股區成泰路三段101-1號","121.443988333333","25.0903416666667","6501500","五股區"
"232011","375-UM","2017/07/04 18:09:37","新北市坪林區下坑子口5-9號","121.713186666667","24.9425883333333","6502000","坪林區"
"244013","069-UM","2017/07/04 18:09:23","新北市林口區中山路11號","121.396303333333","25.0781716666667","6501700","林口區"
"244007","080-UY","2017/07/04 18:09:20","新北市林口區林口路124巷10弄1號","121.389041666667","25.0817933333333","6501700","林口區"
"244019","403-UM","2017/07/04 18:09:18","新北市林口區忠孝路542巷5號","121.373051666667","25.0675716666667","6501700","林口區"
"244009","410-SL","2017/07/04 18:09:17","新北市林口區佳林路56巷13號","121.385485","25.0814566666667","6501700","林口區"
"244023","483-VK","2017/07/04 18:09:27","新北市林口區隆林街240號","121.383703333333","25.0743183333333","6501700","林口區"
"244017","485-VK","2017/07/04 18:09:24","新北市林口區忠孝路502號","121.370636666667","25.0701666666667","6501700","林口區"
"244011","701-TV","2017/07/04 18:09:28","新北市林口區中正路30巷8號","121.395923333333","25.0777983333333","6501700","林口區"
"244025","837-TS","2017/07/04 18:09:32","新北市林口區文化北路一段301-1號","121.36037","25.0727266666667","6501700","林口區"
"244021","838-TS","2017/07/04 18:09:26","新北市林口區自強七街23號","121.399563333333","25.0760033333333","6501700","林口區"
"222003","436-BY","2017/07/04 18:09:37","新北市深坑區腳坑2-5號","121.610923333333","24.9958166666667","6501800","深坑區"
"222002","659-BX","2017/07/04 18:09:27","新北市深坑區文化街52號","121.6189","25.0016183333333","6501800","深坑區"
"222001","696-SL","2017/07/04 18:09:25","新北市深坑區北深路二段188號","121.613955","25.0021833333333","6501800","深坑區"
"231041","002-UM","2017/07/04 18:09:34","新北市新店區安華路28-1號","121.519975","24.9606816666667","6500600","新店區"
"231056","0291-UT","2017/07/04 18:09:38","新北市新店區安華路28-1號","121.519765","24.9614133333333","6500600","新店區"
"231059","046-UY","2017/07/04 18:09:20","新北市新店區安華路28-1號","121.519601666667","24.9611033333333","6500600","新店區"
"231060","106-UY","2017/07/04 18:09:37","新北市新店區安華路28-1號","121.51969","24.9608233333333","6500600","新店區"
"231069","189-VK","2017/07/04 11:59:36","新北市新店區安華路28-1號","121.519633333333","24.9611416666667","6500600","新店區"
"231057","256-BX","2017/07/04 18:09:18","新北市新店區安華路28-1號","121.519546666667","24.9610316666667","6500600","新店區"
"231046","278-BY","2017/07/04 18:09:36","新北市新店區直潭路113號","121.532593333333","24.9339","6500600","新店區"
"231058","3712-VJ","2017/07/04 18:09:33","新北市新店區安華路28-1號","121.519108333333","24.9606633333333","6500600","新店區"
"231055","3713-VJ","2017/07/04 18:09:37","新北市新店區安華路1-1號","121.519215","24.9605516666667","6500600","新店區"
"231040","619-UM","2017/07/04 18:09:24","新北市新店區安華路28-1號","121.519595","24.9607133333333","6500600","新店區"
"231049","719-UM","2017/07/04 16:35:40","新北市新店區安華路28-1號","121.519478333333","24.96122","6500600","新店區"
"241024","065-VK","2017/07/04 18:09:30","新北市三重區中正北路193巷35弄27號","121.477205","25.071005","6500200","三重區"
"241033","AAC-255","2017/07/04 18:09:18","新北市三重區中興北街54-30號","121.46897","25.0510083333333","6500200","三重區"
"235064","005-UY","2017/07/04 18:09:15","新北市中和區員山路36巷16-3號","121.485075","24.99125","6500300","中和區"
"235063","006-UY","2017/07/04 18:09:33","新北市中和區員山路36巷16-3號","121.484918333333","24.991325","6500300","中和區"
"235062","031-BX","2017/07/04 18:09:27","新北市中和區中山路二段480號","121.487681666667","25.0047966666667","6500300","中和區"
"235056","096-UM","2017/07/04 18:09:22","新北市中和區連城路469巷23號","121.483606666667","24.9950933333333","6500300","中和區"
"235040","150-BY","2017/07/04 18:09:21","新北市中和區和城路一段271巷1號","121.485438333333","24.9918683333333","6500300","中和區"
"235058","151-BY","2017/07/04 18:09:22","新北市中和區圓通路367巷33弄59號","121.49555","24.9861116666667","6500300","中和區"
"235055","183-VK","2017/07/04 18:05:54","新北市中和區員山路36巷16-3號","121.484946666667","24.991315","6500300","中和區"
"235038","185-VK","2017/07/04 18:09:31","新北市中和區景平路187號","121.511553333333","24.992475","6500300","中和區"
"235051","376-QA","2017/07/04 15:51:39","新北市中和區員山路36巷13號","121.484111666667","24.990895","6500300","中和區"
"235061","378-QA","2017/07/04 18:09:22","新北市中和區員山路36巷16-2號","121.485241666667","24.9918616666667","6500300","中和區"
"235050","4979-A6","2017/07/04 18:09:37","新北市中和區錦和路350-1號","121.490228333333","24.9936183333333","6500300","中和區"
"235069","4980-A6","2017/07/04 18:09:18","新北市中和區圓通路208號","121.495986666667","24.9940333333333","6500300","中和區"
"235042","551-UM","2017/07/04 18:09:26","新北市中和區中正路12號","121.502916666667","24.9937083333333","6500300","中和區"
"235045","565-BX","2017/07/04 18:09:18","新北市中和區員山路36巷13號","121.48419","24.990985","6500300","中和區"
"235054","640-BX","2017/07/04 18:09:22","新北市中和區員山路72-2號","121.481175","24.99359","6500300","中和區"
"235071","783-BX","2017/07/04 18:09:32","新北市中和區員山路36巷16-2號","121.485491666667","24.9911166666667","6500300","中和區"
"235052","805-TS","2017/07/04 18:09:18","新北市中和區員山路36巷16-8號","121.485453333333","24.9923666666667","6500300","中和區"
"235053","900-TW","2017/07/04 18:09:33","新北市中和區員山路36巷16-2號","121.485358333333","24.9915516666667","6500300","中和區"
"235037","AAC-213","2017/07/04 18:09:16","新北市中和區錦和路350-1號","121.490386666667","24.9935816666667","6500300","中和區"
"247014","057-VK","2017/07/04 18:08:13","新北市林口區太平里180號","121.368433333333","25.133925","6501400","蘆洲區"
"226004","205-ST","2017/07/04 18:09:22","新北市平溪區薯榔里薯榔寮25號","121.714773333333","25.01952","6502400","平溪區"
"228001","212-TW","2017/07/04 18:09:26","新北市貢寮區真理里新港街26巷55弄2-1號","121.927356666667","25.05282","6502600","貢寮區"
"228002","585-TW","2017/07/04 18:09:36","新北市貢寮區福連里馬崗街1號","121.997581666667","25.016865","6502600","貢寮區"
"228003","828-UM","2017/07/04 18:09:33","新北市貢寮區真理里美艷山街6-2號","121.928848333333","25.0607483333333","6502600","貢寮區"
"224006","676-BX","2017/07/04 18:09:33","新北市瑞芳區中正路2號","121.809306666667","25.1070316666667","6501200","瑞芳區"
"224002","639-TC","2017/07/04 18:09:32","新北市瑞芳區三爪子坑路64-9號","121.809558333333","25.1054483333333","6501200","瑞芳區"
"224011","420-VK","2017/07/04 18:09:23","新北市瑞芳區明燈路一段6號","121.823185","25.1073916666667","6501200","瑞芳區"
"224009","285-BY","2017/07/04 18:09:33","新北市瑞芳區金光路115號","121.853586666667","25.1062466666667","6501200","瑞芳區"
"224008","275-VK","2017/07/04 18:09:34","新北市瑞芳區員山子路23號","121.821385","25.1030166666667","6501200","瑞芳區"
"224007","273-VK","2017/07/04 18:09:22","新北市瑞芳區大寮路84號","121.780418333333","25.101315","6501200","瑞芳區"
"224005","271-BY","2017/07/04 18:09:33","新北市瑞芳區深澳路19號","121.816913333333","25.129135","6501200","瑞芳區"
"253006","032-BX","2017/07/04 18:09:24","新北市石門區老梅路52巷25弄2-1號","121.546915","25.2863866666667","6502200","石門區"
"253005","295-VK","2017/07/04 18:09:23","新北市石門區福安街20號","121.56876","25.2922566666667","6502200","石門區"
"208003","665-BX","2017/07/04 18:09:20","新北市金山區民生路202號","121.644458333333","25.2223833333333","6502700","金山區"
"208001","761-BX","2017/07/04 18:09:26","新北市金山區磺港里磺港路112號","121.646261666667","25.22668","6502700","金山區"
"251004","009-UM","2017/07/04 18:08:39","新北市淡水區民族路61號","121.463021666667","25.1347983333333","6501000","淡水區"
"251001","011-UM","2017/07/04 18:09:31","新北市淡水區自立路10號","121.463225","25.1295966666667","6501000","淡水區"
"251014","180-VK","2017/07/04 18:09:23","新北市淡水區南平14-3號","121.486873333333","25.2202433333333","6501000","淡水區"
"251008","181-VK","2017/07/04 18:09:39","新北市淡水區淡金路2號","121.45787","25.158725","6501000","淡水區"
"251005","182-VK","2017/07/04 18:09:28","新北市淡水區水源街一段122巷9號","121.44723","25.1713366666667","6501000","淡水區"
"251010","413-VK","2017/07/04 18:09:22","新北市淡水區中正路二段50巷10號","121.419853333333","25.18332","6501000","淡水區"
"251012","441-VK","2017/07/04 18:09:37","新北市淡水區北新路三段173號","121.492448333333","25.1921483333333","6501000","淡水區"
"251016","442-VK","2017/07/04 18:09:28","新北市淡水區下圭柔山17號","121.453355","25.2024083333333","6501000","淡水區"
"251006","561-UM","2017/07/04 18:09:20","新北市淡水區真理街3巷24-1號","121.437808333333","25.1765583333333","6501000","淡水區"
"251009","575-R6","2017/07/04 18:09:28","新北市淡水區大忠街34巷13號","121.443855","25.1756616666667","6501000","淡水區"
"251011","650-BX","2017/07/04 18:09:34","新北市淡水區三空泉9-2號","121.474143333333","25.163505","6501000","淡水區"
"251002","672-BX","2017/07/04 18:09:31","新北市淡水區中正東路一段55號","121.45249","25.1625616666667","6501000","淡水區"
"251003","766-UM","2017/07/04 18:09:17","新北市淡水區北新路137號","121.449468333333","25.1788066666667","6501000","淡水區"
"207003","550-UM","2017/07/04 18:09:21","新北市萬里區野柳里港西路66號","121.685153333333","25.2042566666667","6502800","萬里區"
"207004","225-TW","2017/07/04 18:09:24","新北市萬里區中幅里中福路115號","121.676315","25.1681983333333","6502800","萬里區"
"252002","178-VK","2017/07/04 18:09:30","新北市三芝區中山路二段39號","121.502931666667","25.2551383333333","6502100","三芝區"
"252003","249-BX","2017/07/04 18:09:24","新北市三芝區埔頭里埔頭37號","121.498416666667","25.2602666666667","6502100","三芝區"
"252001","702-TV","2017/07/04 18:09:25","新北市三芝區中興街二段2號","121.498248333333","25.2566483333333","6502100","三芝區"
"208002","170-UY","2017/07/04 18:09:27","新北市金山區三界壇路99巷24號","121.617753333333","25.227225","6502700","金山區"
"237004","078-UY","2017/07/04 18:09:22","新北市三峽區大埔路337號","121.370603333333","24.89828","6500900","三峽區"
"237007","153-BY","2017/07/04 18:09:36","新北市三峽區中正路二段82號","121.366525","24.91827","6500900","三峽區"
"237009","210-TH","2017/07/04 18:09:29","新北市三峽區復興路303巷1弄8號","121.365826666667","24.9383466666667","6500900","三峽區"
"237013","252-BX","2017/07/04 18:09:24","新北市三峽區長泰街20號","121.378821666667","24.931705","6500900","三峽區"
"237012","275-BY","2017/07/04 18:09:35","新北市三峽區民生街1巷1-28號","121.377553333333","24.9352366666667","6500900","三峽區"
"237008","302-VK","2017/07/04 18:09:23","新北市三峽區白雞38-1號","121.37358","24.9115566666667","6500900","三峽區"
"237014","433-BY","2017/07/04 18:09:31","新北市三峽區復興路148號","121.371575","24.9381216666667","6500900","三峽區"
"237006","5529-G3","2017/07/04 18:09:25","新北市三峽區介壽路二段138巷1弄160-9號","121.40242","24.9299533333333","6500900","三峽區"
"237011","572-TV","2017/07/04 18:09:36","新北市三峽區大同路2-1號","121.378313333333","24.9299966666667","6500900","三峽區"
"237016","649-BX","2017/07/04 18:09:19","新北市三峽區紫微路76號","121.41096","24.91556","6500900","三峽區"
"237010","706-TV","2017/07/04 18:09:21","新北市三峽區民權街171號","121.367985","24.9301016666667","6500900","三峽區"
"237005","AKY-6261","2017/07/04 18:09:21","新北市三峽區文化路65巷7號","121.371881666667","24.93568","6500900","三峽區"
"236070","105-UM","2017/07/04 18:09:24","新北市土城區石門路44號","121.45764","24.9639166666667","6501300","土城區"
"236043","107-UM","2017/07/04 18:09:19","新北市土城區裕生路82巷2號","121.447466666667","24.98575","6501300","土城區"
"236079","166-UM","2017/07/04 18:09:37","新北市土城區永安街84號","121.431638333333","24.963785","6501300","土城區"
"236031","253-BX","2017/07/04 18:09:21","新北市土城區城林路6巷80號","121.43845","24.9798083333333","6501300","土城區"
"236027","269-VK","2017/07/04 18:09:24","新北市土城區承天路67號","121.439611666667","24.9635716666667","6501300","土城區"
"236015","270-VK","2017/07/04 18:09:36","新北市土城區學府路一段227號","121.45116","24.9841366666667","6501300","土城區"
"236038","271-VK","2017/07/04 18:09:35","新北市土城區明德路一段398號","121.453266666667","24.9793733333333","6501300","土城區"
"236023","401-BY","2017/07/04 18:09:31","新北市土城區城林路6巷80號","121.43866","24.9796766666667","6501300","土城區"
"236059","912-UM","2017/07/04 18:09:33","新北市土城區中央路四段38號","121.420788333333","24.96069","6501300","土城區"
"236049","913-UM","2017/07/04 18:09:34","新北市土城區明德路一段365-1號","121.453563333333","24.9790416666667","6501300","土城區"
"236063","915-UM","2017/07/04 18:09:35","新北市土城區金城路二段36號","121.4508","24.9784933333333","6501300","土城區"
"236055","AAC-216","2017/07/04 18:09:20","新北市土城區中華路二段98號","121.438088333333","24.97445","6501300","土城區"
"242021","AAC-296","2017/07/04 18:09:33","新北市新莊區建興街63號","121.449885","25.0378616666667","6500500","新莊區"
"242029","986-R7","2017/07/04 18:09:22","新北市新莊區中平路110巷11號","121.44568","25.0459533333333","6500500","新莊區"
"242025","615-BX","2017/07/04 18:09:37","新北市新莊區五工一路96號","121.460608333333","25.0680833333333","6500500","新莊區"
"242023","613-BX","2017/07/04 18:09:33","新北市新莊區中和街147號","121.447273333333","25.04926","6500500","新莊區"
"242027","612-BX","2017/07/04 18:09:37","新北市新莊區幸福路529號","121.455193333333","25.0493116666667","6500500","新莊區"
"242037","566-BX","2017/07/04 18:09:19","新北市新莊區後港一路63號","121.426458333333","25.0265516666667","6500500","新莊區"
"242042","497-BY","2017/07/04 18:09:33","新北市新莊區天祥街121巷26號","121.414055","25.0288983333333","6500500","新莊區"
"242046","441-UM","2017/07/04 18:09:33","新北市新莊區福營路230號","121.426946666667","25.0291083333333","6500500","新莊區"
"242051","440-UM","2017/07/04 18:09:32","新北市新莊區民本街27巷17號","121.429155","25.019285","6500500","新莊區"
"242032","415-TV","2017/07/04 18:09:29","新北市新莊區新泰路255巷10號","121.445523333333","25.039805","6500500","新莊區"
"242002","413-TV","2017/07/04 18:09:03","新北市新莊區新莊路24號","121.45858","25.037255","6500500","新莊區"
"242039","400-BY","2017/07/04 18:09:35","新北市新莊區民安西路38巷14號","121.426746666667","25.0207066666667","6500500","新莊區"
"242061","362-BY","2017/07/04 18:09:32","新北市新莊區新樹路172號","121.434605","25.02199","6500500","新莊區"
"242058","353-BY","2017/07/04 18:09:31","新北市新莊區天祥街120巷3弄9號","121.413896666667","25.0305466666667","6500500","新莊區"
"242011","132-UY","2017/07/04 18:09:19","新北市新莊區中信街90號","121.447898333333","25.0534","6500500","新莊區"
"242034","133-UY","2017/07/04 18:09:34","新北市新莊區景德路308號","121.447463333333","25.0336466666667","6500500","新莊區"
"242019","135-UY","2017/07/04 18:09:22","新北市新莊區民樂街15巷1號","121.457708333333","25.0401283333333","6500500","新莊區"
"242044","172-VK","2017/07/04 18:09:30","新北市新莊區中正路730-2號","121.414758333333","25.02394","6500500","新莊區"
"242007","173-VK","2017/07/04 18:09:30","新北市新莊區自信街2號","121.453126666667","25.0481283333333","6500500","新莊區"
"242056","176-VK","2017/07/04 18:09:37","新北市新莊區豐年街豐2巷4號","121.446845","25.030725","6500500","新莊區"
"242005","346-TH","2017/07/04 18:09:28","新北市新莊區自由街46號","121.455901666667","25.04603","6500500","新莊區"
"242048","347-TH","2017/07/04 18:09:31","新北市新莊區富國路105-1號","121.421826666667","25.0254916666667","6500500","新莊區"
"242017","348-TH","2017/07/04 18:09:26","新北市新莊區永樂街137號","121.449508333333","25.0447533333333","6500500","新莊區"
"242054","349-TH","2017/07/04 18:09:26","新北市新莊區西盛街421號","121.427283333333","25.0122133333333","6500500","新莊區"
"242015","350-TH","2017/07/04 18:09:21","新北市新莊區中平路132巷9號","121.446096666667","25.0467683333333","6500500","新莊區"
"242009","351-TH","2017/07/04 18:09:18","新北市新莊區昌盛街35巷1弄19號","121.4531","25.0501816666667","6500500","新莊區"
"238015","755-BX","2017/07/04 18:09:27","新北市樹林區大安路316號","121.417265","24.9918","6500700","樹林區"
"238023","601-UM","2017/07/04 18:09:30","新北市樹林區龍興街48號","121.403033333333","25.0154666666667","6500700","樹林區"
"238019","599-UM","2017/07/04 18:09:20","新北市樹林區水源街32巷53號","121.425448333333","24.9802366666667","6500700","樹林區"
"238018","571-TV","2017/07/04 18:09:24","新北市樹林區樹新路227號","121.431176666667","25.0006233333333","6500700","樹林區"
"238022","312-TH","2017/07/04 18:09:29","新北市樹林區太平路120號","121.418558333333","24.9784416666667","6500700","樹林區"
"238021","311-TH","2017/07/04 17:59:22","新北市樹林區柑園街一段49號","121.403161666667","24.9601533333333","6500700","樹林區"
"238025","303-VK","2017/07/04 18:09:28","新北市樹林區保安街二段154號","121.413363333333","25.0044916666667","6500700","樹林區"
"238017","283-BY","2017/07/04 18:09:22","新北市樹林區中正路652號","121.409756666667","25.0164816666667","6500700","樹林區"
"238014","282-BY","2017/07/04 18:09:37","新北市樹林區千歲街61巷40弄18號","121.426193333333","24.9992366666667","6500700","樹林區"
"238020","268-VK","2017/07/04 18:09:20","新北市樹林區三俊街201號","121.420115","25.015635","6500700","樹林區"
"238026","172-UY","2017/07/04 18:09:28","新北市樹林區育德街18號","121.390536666667","24.969995","6500700","樹林區"
"238016","169-UY","2017/07/04 18:09:29","新北市樹林區日新街168號","121.420008333333","24.9883116666667","6500700","樹林區"
"239007","AAC-297","2017/07/04 18:09:32","新北市鶯歌區育英街53號","121.347085","24.9526883333333","6500800","鶯歌區"
"239006","891-R6","2017/07/04 18:09:24","新北市鶯歌區鶯桃路365巷35弄1號","121.332256666667","24.9624633333333","6500800","鶯歌區"
"239008","527-UM","2017/07/04 18:09:19","新北市鶯歌區國際一路14號","121.336173333333","24.976535","6500800","鶯歌區"
"239005","526-UM","2017/07/04 18:09:26","新北市鶯歌區鶯桃路668巷73號","121.329868333333","24.9717533333333","6500800","鶯歌區"
"239001","417-VK","2017/07/04 18:09:30","新北市鶯歌區高職東街19巷2弄10號","121.341138333333","24.9410316666667","6500800","鶯歌區"
"239003","360-BY","2017/07/04 18:09:20","新北市鶯歌區福安街58號","121.335601666667","24.9651916666667","6500800","鶯歌區"
"239002","359-BY","2017/07/04 18:09:24","新北市鶯歌區國慶街40號","121.34966","24.9555466666667","6500800","鶯歌區"
"239004","193-VK","2017/07/04 18:09:31","新北市鶯歌區尖山路168巷9號","121.34494","24.9483816666667","6500800","鶯歌區"
"221008","489-VK","2017/07/04 18:09:28","新北市汐止區康寧街307巷1弄10號","121.626926666667","25.06802","6501100","汐止區"
"221036","130-UY","2017/07/04 18:09:19","新北市汐止區大同路三段199號","121.671375","25.07724","6501100","汐止區"
"221015","131-UY","2017/07/04 18:09:15","新北市汐止區鄉長路二段116號","121.664696666667","25.0859983333333","6501100","汐止區"
"221010","269-BY","2017/07/04 18:09:25","新北市汐止區祥雲街18巷1號","121.646498333333","25.08993","6501100","汐止區"
"221010","276-VK","2017/07/04 13:14:01","新北市汐止區汐萬路一段256巷3號","121.653465","25.07458","6501100","汐止區"
"221031","277-VK","2017/07/04 00:07:07","新北市汐止區汐萬路一段256巷3號","121.65256","25.0746116666667","6501100","汐止區"
"221012","278-VK","2017/07/04 18:09:30","新北市汐止區保一街39號","121.674198333333","25.0799633333333","6501100","汐止區"
"221023","279-VK","2017/07/04 18:09:25","新北市汐止區明峰街190號","121.628143333333","25.0698516666667","6501100","汐止區"
"221032","280-BY","2017/07/04 18:09:30","新北市汐止區力行街48號","121.616483333333","25.04977","6501100","汐止區"
"221027","281-BY","2017/07/04 18:09:35","新北市汐止區大同路二段585號","121.663731666667","25.07044","6501100","汐止區"
"221010","297-VK","2017/07/04 18:09:25","新北市汐止區南興路83巷5號","121.653225","25.0590916666667","6501100","汐止區"
"221029","298-VK","2017/07/04 18:09:35","新北市汐止區樟樹二路134號","121.639953333333","25.0656533333333","6501100","汐止區"
"221021","299-VK","2017/07/04 14:53:05","新北市汐止區大同路一段146巷19號","121.633361666667","25.0533333333333","6501100","汐止區"
"221035","622-UM","2017/07/04 18:09:35","新北市汐止區大同路二段196號","121.652935","25.0646466666667","6501100","汐止區"
"221025","623-UM","2017/07/04 18:09:28","新北市汐止區勤進路3巷27號","121.661058333333","25.0616783333333","6501100","汐止區"
"221033","647-BX","2017/07/04 18:09:20","新北市汐止區林森街21號","121.621748333333","25.0405633333333","6501100","汐止區"
"221002","707-TV","2017/07/04 18:09:35","新北市汐止區福德一路197號","121.63547","25.0655733333333","6501100","汐止區"
"221018","753-BX","2017/07/04 18:09:28","新北市汐止區忠孝東路384號","121.665536666667","25.0702166666667","6501100","汐止區"
