"lineid","car","time","location","longitude","latitude","cityid","cityname"
"234046","148-BY","2017/07/04 18:49:28","新北市永和區秀朗路二段126巷30號","121.524591666667","25.0008433333333","6500400","永和區"
"234013","149-BY","2017/07/04 18:49:34","新北市永和區保福路二段139號","121.509716666667","25.014015","6500400","永和區"
"234007","207-UY","2017/07/04 18:49:31","新北市永和區文化路2號","121.515663333333","25.01501","6500400","永和區"
"234081","298-R6","2017/07/04 18:49:26","新北市永和區永利路112號","121.521325","25.0033383333333","6500400","永和區"
"234038","336-UY","2017/07/04 18:49:21","新北市永和區成功路二段207號","121.526573333333","24.995925","6500400","永和區"
"234064","337-UY","2017/07/04 18:49:26","新北市永和區豫溪街217巷3號","121.5252","25.0098483333333","6500400","永和區"
"234086","338-UY","2017/07/04 18:49:30","新北市永和區中正路176號","121.515221666667","24.9968016666667","6500400","永和區"
"234070","552-UM","2017/07/04 18:49:25","新北市永和區中興街92號","121.518755","25.0120983333333","6500400","永和區"
"234054","553-UM","2017/07/04 18:49:34","新北市永和區竹林路64號","121.51822","25.0134783333333","6500400","永和區"
"234017","745-BX","2017/07/04 18:49:22","新北市永和區永和路二段405巷3號","121.51529","25.0169816666667","6500400","永和區"
"234030","746-BX","2017/07/04 18:49:22","新北市永和區永元路95巷1號","121.522421666667","25.0017683333333","6500400","永和區"
"234061","AAD-866","2017/07/04 18:49:34","新北市永和區福和路301號","121.516428333333","25.007105","6500400","永和區"
"234050","863-TW","2017/07/04 18:49:24","新北市永和區保安路2號","121.51079","25.0175183333333","6500400","永和區"
"234026","9372-KE","2017/07/04 18:49:35","新北市永和區自由街58號","121.513806666667","25.0059816666667","6500400","永和區"
"234011","9373-KE","2017/07/04 18:49:17","新北市永和區文化路126巷1號","121.512983333333","25.015465","6500400","永和區"
"249005","172-UM","2017/07/04 18:49:30","新北市八里區長道坑17號","121.396246666667","25.115555","6502300","八里區"
"249001","173-UM","2017/07/04 18:49:26","新北市八里區龍米路二段36號","121.448401666667","25.1402333333333","6502300","八里區"
"249004","303-UY","2017/07/04 18:49:31","新北市八里區仁愛路10號","121.413311666667","25.1623583333333","6502300","八里區"
"248016","026-BX","2017/07/04 18:49:23","新北市五股區凌雲路一段149巷42號","121.448585","25.1009733333333","6501500","五股區"
"248006","077-UY","2017/07/04 18:49:27","新北市五股區四維路1巷3-1號","121.466091666667","25.0703033333333","6501500","五股區"
"248008","095-VK","2017/07/04 18:49:30","新北市五股區中興路一段151巷36號","121.4652","25.0726566666667","6501500","五股區"
"248020","225-UY","2017/07/04 18:49:35","新北市五股區凌雲路三段92號","121.428143333333","25.1194833333333","6501500","五股區"
"248012","247-BX","2017/07/03 21:14:04","新北市五股區中興路二段182巷50號","121.45565","25.0813533333333","6501500","五股區"
"248010","272-BY","2017/07/04 18:49:24","新北市五股區水碓五路81號","121.43002","25.0719133333333","6501500","五股區"
"248004","677-BX","2017/07/04 18:49:39","新北市五股區民義路二段43號","121.410483333333","25.1043516666667","6501500","五股區"
"248002","678-BX","2017/07/04 18:49:32","新北市五股區成泰路三段437號","121.449815","25.0978366666667","6501500","五股區"
"234023","9380-KE","2017/07/04 18:49:29","新北市永和區竹林路119巷27號","121.521153333333","25.0118316666667","6500400","永和區"
"234077","969-R7","2017/07/04 18:49:33","新北市永和區中正路80號","121.513768333333","24.995205","6500400","永和區"
"234067","AAC-212","2017/07/04 18:49:21","新北市永和區永和路一段22號","121.513011666667","25.0048083333333","6500400","永和區"
"234003","AAC-295","2017/07/04 18:48:08","新北市永和區中正路655號","121.515031666667","25.0101916666667","6500400","永和區"
"244013","069-UM","2017/07/04 18:49:35","新北市林口區文化一路二段92號","121.381665","25.0787066666667","6501700","林口區"
"244007","080-UY","2017/07/04 18:49:20","新北市林口區太平里4鄰20號","121.377653333333","25.1161166666667","6501700","林口區"
"244019","403-UM","2017/07/04 18:49:38","新北市林口區忠孝路614號","121.37721","25.068285","6501700","林口區"
"244009","410-SL","2017/07/04 18:49:17","新北市林口區竹林路278巷1號","121.390388333333","25.081805","6501700","林口區"
"244023","483-VK","2017/07/04 18:49:22","新北市林口區民權路159號","121.374266666667","25.0840583333333","6501700","林口區"
"244017","485-VK","2017/07/04 18:49:24","新北市林口區文化二路一段20巷11號","121.365283333333","25.0675016666667","6501700","林口區"
"244011","701-TV","2017/07/04 18:49:28","新北市林口區中正路57巷7弄2號","121.395313333333","25.0765483333333","6501700","林口區"
"244025","837-TS","2017/07/04 18:49:32","新北市林口區南勢街163號","121.359353333333","25.0748683333333","6501700","林口區"
"243013","AAD-798","2017/07/04 18:49:34","新北市泰山區明志路三段206巷1號","121.423328333333","25.03791","6501600","泰山區"
"243015","380-SR","2017/07/04 18:49:22","新北市泰山區美寧街54號","121.430518333333","25.06456","6501600","泰山區"
"243012","646-TV","2017/07/04 18:49:29","新北市泰山區泰林路二段73巷29號","121.434426666667","25.05785","6501600","泰山區"
"243016","680-BX","2017/07/04 18:49:33","新北市泰山區明志路一段286號","121.431983333333","25.05985","6501600","泰山區"
"222003","436-BY","2017/07/04 18:49:37","新北市深坑區翠谷街17巷25號","121.626066666667","25.0091783333333","6501800","深坑區"
"222002","659-BX","2017/07/04 18:49:26","新北市深坑區文山路一段62巷3號","121.622936666667","25.0008333333333","6501800","深坑區"
"222001","696-SL","2017/07/04 18:49:25","新北市深坑區松柏街30巷1號","121.638616666667","25.0112733333333","6501800","深坑區"
"231041","002-UM","2017/07/04 18:49:34","新北市新店區安華路28-1號","121.519583333333","24.9606283333333","6500600","新店區"
"231056","0291-UT","2017/07/04 18:49:18","新北市新店區大豐路68巷5號","121.538896666667","24.979905","6500600","新店區"
"231059","046-UY","2017/07/04 18:49:20","新北市新店區安華路28-1號","121.519491666667","24.960815","6500600","新店區"
"231060","106-UY","2017/07/04 18:49:37","新北市新店區安華路28-1號","121.519545","24.9607","6500600","新店區"
"231051","107-UY","2017/07/04 18:49:23","新北市新店區環河路121號","121.529656666667","24.9718666666667","6500600","新店區"
"231048","108-UY","2017/07/04 18:49:18","新北市新店區德正街21巷2號","121.543956666667","24.97209","6500600","新店區"
"231053","187-VK","2017/07/04 18:49:32","新北市新店區永興路41號","121.544273333333","24.9378316666667","6500600","新店區"
"231069","189-VK","2017/07/04 11:59:36","新北市新店區安華路28-1號","121.519633333333","24.9611416666667","6500600","新店區"
"231063","268-BY","2017/07/04 18:49:20","新北市新店區車子路110號","121.505223333333","24.9520466666667","6500600","新店區"
"231046","278-BY","2017/07/04 18:49:16","新北市新店區直潭路57號","121.532966666667","24.9423783333333","6500600","新店區"
"231050","AAD-862","2017/07/04 18:49:27","新北市新店區安康路一段165號","121.527308333333","24.9623766666667","6500600","新店區"
"231044","355-BY","2017/07/04 18:49:32","新北市新店區中興路三段1號","121.546181666667","24.9774916666667","6500600","新店區"
"231058","3712-VJ","2017/07/04 18:49:33","新北市新店區北宜路一段105巷4弄3-1號","121.539975","24.9556666666667","6500600","新店區"
"231055","3713-VJ","2017/07/04 18:49:37","新北市新店區新生街16號","121.539996666667","24.96624","6500600","新店區"
"231067","4772-VM","2017/07/04 18:49:24","新北市新店區安康路一段76巷34-1號","121.528341666667","24.9634933333333","6500600","新店區"
"231065","512-UM","2017/07/04 18:49:35","新北市新店區安豐路49號","121.500086666667","24.954095","6500600","新店區"
"231054","513-UM","2017/07/04 18:49:24","新北市新店區安康路一段79巷1號","121.529791666667","24.9612183333333","6500600","新店區"
"231064","515-UM","2017/07/04 18:49:22","新北市新店區安華路28-1號","121.519928333333","24.9610083333333","6500600","新店區"
"231042","616-UM","2017/07/04 18:49:27","新北市新店區北新路一段126巷25號","121.543283333333","24.9700033333333","6500600","新店區"
"231045","617-UM","2017/07/04 18:49:19","新北市新店區安康路一段355-10號","121.520195","24.9637466666667","6500600","新店區"
"231061","618-UM","2017/07/04 18:49:18","新北市新店區安忠路38號","121.513161666667","24.95955","6500600","新店區"
"231040","619-UM","2017/07/04 18:49:23","新北市新店區環河路118號","121.536711666667","24.96798","6500600","新店區"
"231049","719-UM","2017/07/04 18:49:15","新北市新店區中央路13號","121.53333","24.978395","6500600","新店區"
"231062","720-UM","2017/07/04 18:49:18","新北市新店區安忠路57巷26弄76號","121.51243","24.9570833333333","6500600","新店區"
"231043","899-TW","2017/07/04 18:49:17","新北市新店區安康路一段118號","121.52704","24.9626566666667","6500600","新店區"
"231066","AKT-0513","2017/07/04 18:49:30","新北市新店區安豐路22巷5-5號","121.501698333333","24.9560233333333","6500600","新店區"
"235066","003-UY","2017/07/04 18:49:29","新北市中和區水源路18巷3號","121.504055","25.0032166666667","6500300","中和區"
"235064","005-UY","2017/07/04 18:49:15","新北市中和區連城路109巷47號","121.497088333333","24.998355","6500300","中和區"
"235063","006-UY","2017/07/04 18:49:32","新北市中和區錦和路101號","121.490143333333","24.9954066666667","6500300","中和區"
"235062","031-BX","2017/07/04 18:49:27","新北市中和區中山路二段356號","121.49291","25.00292","6500300","中和區"
"235056","096-UM","2017/07/04 18:49:22","新北市中和區員山路568號","121.478625","25.010815","6500300","中和區"
"235039","097-UM","2017/07/04 18:49:26","新北市永和區安樂路50巷1弄1號","121.514781666667","24.9972733333333","6500300","中和區"
"235040","150-BY","2017/07/04 18:49:21","新北市中和區保健路106巷48號","121.510925","24.9944633333333","6500300","中和區"
"235058","151-BY","2017/07/04 18:49:22","新北市中和區連城路567-1號","121.47932","24.994485","6500300","中和區"
"235055","183-VK","2017/07/04 18:49:26","新北市中和區民生街38-4號","121.46982","25.0052866666667","6500300","中和區"
"235038","185-VK","2017/07/04 18:49:31","新北市中和區立人街14巷29號","121.519383333333","24.9953433333333","6500300","中和區"
"235049","186-VK","2017/07/04 18:49:30","新北市中和區景安路159號","121.505316666667","24.994755","6500300","中和區"
"235067","255-BX","2017/07/04 18:49:24","新北市中和區中山路二段479號","121.483076666667","25.0048266666667","6500300","中和區"
"235044","293-VK","2017/07/04 18:49:18","新北市中和區復興路280巷18弄6號","121.502261666667","24.9915733333333","6500300","中和區"
"235072","301-VK","2017/07/04 18:49:31","新北市永和區中山路一段277號","121.507058333333","25.007115","6500300","中和區"
"235043","352-BY","2017/07/04 18:49:28","新北市中和區成功路129號","121.525881666667","24.9907133333333","6500300","中和區"
"235051","376-QA","2017/07/04 15:51:39","新北市中和區員山路36巷13號","121.484111666667","24.990895","6500300","中和區"
"235068","377-QA","2017/07/04 18:49:23","新北市中和區中正路211巷8號","121.496986666667","24.9933383333333","6500300","中和區"
"235061","378-QA","2017/07/04 18:49:22","新北市中和區莒光路129巷1弄14號","121.47316","25.00253","6500300","中和區"
"235050","4979-A6","2017/07/04 18:49:37","新北市中和區忠孝街62巷18號","121.512491666667","24.9835316666667","6500300","中和區"
"235069","4980-A6","2017/07/04 18:49:18","新北市中和區南山路81巷8弄12號","121.502543333333","24.9976516666667","6500300","中和區"
"235042","551-UM","2017/07/04 18:49:26","新北市中和區成功路36號","121.526078333333","24.9931733333333","6500300","中和區"
"235070","558-UM","2017/07/04 18:49:19","新北市中和區南華路55-2號","121.504116666667","24.9971866666667","6500300","中和區"
"235045","565-BX","2017/07/04 18:49:29","新北市中和區南山路230號","121.506481666667","24.9901083333333","6500300","中和區"
"235054","640-BX","2017/07/04 18:49:22","新北市中和區民享街34號","121.473975","25.0030716666667","6500300","中和區"
"235060","647-TV","2017/07/04 18:49:31","新北市中和區中山路三段167號","121.473213333333","25.00627","6500300","中和區"
"235047","732-UM","2017/07/04 18:49:07","新北市中和區興南路二段114巷10弄24號","121.504758333333","24.9846683333333","6500300","中和區"
"235046","733-UM","2017/07/04 18:49:22","新北市中和區忠孝街99-3號","121.5121","24.9861833333333","6500300","中和區"
"235071","783-BX","2017/07/04 18:49:32","新北市中和區員山路36巷16-2號","121.485431666667","24.9911733333333","6500300","中和區"
"235057","801-TS","2017/07/04 18:49:21","新北市中和區民安街20號","121.480483333333","25.0007816666667","6500300","中和區"
"235041","802-TS","2017/07/04 18:49:29","新北市中和區景安路5號","121.508075","24.9991616666667","6500300","中和區"
"235052","805-TS","2017/07/04 18:49:32","新北市中和區興南路二段399巷98弄48號","121.498895","24.9767516666667","6500300","中和區"
"235048","896-TW","2017/07/04 18:49:29","新北市中和區南山路499號","121.507951666667","24.9877083333333","6500300","中和區"
"235053","900-TW","2017/07/04 18:49:33","新北市中和區華福街14號","121.465696666667","24.9967433333333","6500300","中和區"
"235037","AAC-213","2017/07/04 18:49:36","新北市中和區景平路111巷18號","121.516455","24.9909133333333","6500300","中和區"
"235059","AAC-215","2017/07/04 18:49:32","新北市中和區圓通路395號","121.48962","24.9890783333333","6500300","中和區"
"220068","013-TV","2017/07/04 18:49:22","新北市板橋區民生路二段46號","121.472426666667","25.0176066666667","6500100","板橋區"
"220065","072-UY","2017/07/04 18:49:32","新北市板橋區民生路二段56-1號","121.4723","25.0170233333333","6500100","板橋區"
"220086","073-UY","2017/07/04 18:49:38","新北市板橋區大智街71巷28弄2號","121.453083333333","25.0146033333333","6500100","板橋區"
"220069","AAD-861","2017/07/04 18:49:17","新北市板橋區中山路二段23號","121.472288333333","25.015325","6500100","板橋區"
"220106","120-SR","2017/07/04 18:49:34","新北市板橋區民生路二段161巷1號","121.47025","25.0200033333333","6500100","板橋區"
"247002","336-TH","2017/07/04 18:49:21","新北市五股區中興路二段182巷18-1號","121.456338333333","25.0812233333333","6501400","蘆洲區"
"247014","057-VK","2017/07/04 18:37:19","新北市五股區中興路三段163號","121.44933","25.0809666666667","6501400","蘆洲區"
"226004","205-ST","2017/07/04 18:49:22","新北市平溪區平溪里平溪街2號","121.738733333333","25.02461","6502400","平溪區"
"228001","212-TW","2017/07/04 18:49:26","新北市貢寮區仁理村保健街69號","121.923666666667","25.051595","6502600","貢寮區"
"228002","585-TW","2017/07/04 18:49:36","新北市貢寮區福隆里東興街6-11號","121.950736666667","25.0211","6502600","貢寮區"
"228003","828-UM","2017/07/04 18:48:21","新北市貢寮區和美里龍洞街53號","121.91222","25.1137583333333","6502600","貢寮區"
"224006","676-BX","2017/07/04 18:49:33","新北市瑞芳區中正路83號","121.805203333333","25.1076783333333","6501200","瑞芳區"
"224011","420-VK","2017/07/04 18:49:23","新北市瑞芳區崙頂路3-1號","121.846995","25.1047083333333","6501200","瑞芳區"
"224009","285-BY","2017/07/04 18:49:33","新北市瑞芳區祈堂路53-1號","121.859608333333","25.1106766666667","6501200","瑞芳區"
"224008","275-VK","2017/07/04 18:49:35","新北市瑞芳區逢甲路229號","121.802786666667","25.1117766666667","6501200","瑞芳區"
"224007","273-VK","2017/07/04 18:49:22","新北市瑞芳區大埔路186-1號","121.761505","25.1012716666667","6501200","瑞芳區"
"224005","271-BY","2017/07/04 18:49:24","新北市瑞芳區瑞濱路7號","121.82712","25.1216233333333","6501200","瑞芳區"
"227009","642-TC","2017/07/04 18:49:22","新北市雙溪區牡丹里聖南26號","121.856455","25.0533116666667","6502500","雙溪區"
"227003","400-TW","2017/07/04 18:49:34","新北市雙溪區平林里梅竹蹊26號","121.861665","25.03601","6502500","雙溪區"
"253006","032-BX","2017/07/04 18:49:24","新北市石門區下員坑15號","121.511623333333","25.28488","6502200","石門區"
"253005","295-VK","2017/07/04 18:49:23","新北市石門區中山路28-1號","121.56583","25.2899416666667","6502200","石門區"
"208003","665-BX","2017/07/04 18:49:20","新北市金山區中山路393號","121.633436666667","25.2252583333333","6502700","金山區"
"208001","761-BX","2017/07/04 18:49:25","新北市金山區文化三路66巷2弄3號","121.634325","25.2257166666667","6502700","金山區"
"251001","011-UM","2017/07/04 18:49:31","新北市淡水區自強路307巷1號","121.462","25.131755","6501000","淡水區"
"251014","180-VK","2017/07/04 18:49:23","新北市淡水區崙頂32號","121.487501666667","25.2228466666667","6501000","淡水區"
"251008","181-VK","2017/07/04 18:49:39","新北市淡水區淡金路二段371號","121.447086666667","25.1857516666667","6501000","淡水區"
"251010","413-VK","2017/07/04 18:49:22","新北市淡水區沙崙路24號","121.421326666667","25.1812583333333","6501000","淡水區"
"251012","441-VK","2017/07/04 18:49:18","新北市淡水區中山北路一段156號","121.44407","25.1779333333333","6501000","淡水區"
"251016","442-VK","2017/07/04 18:49:28","新北市淡水區下圭柔山71-3號","121.447078333333","25.2061466666667","6501000","淡水區"
"251009","575-R6","2017/07/04 18:49:28","新北市淡水區重建街152號","121.440516666667","25.1735483333333","6501000","淡水區"
"251007","577-R6","2017/07/04 18:49:29","新北市淡水區民生路115號","121.464348333333","25.13863","6501000","淡水區"
"251011","650-BX","2017/07/04 18:49:34","新北市淡水區學府路39號","121.447995","25.16904","6501000","淡水區"
"251002","672-BX","2017/07/04 18:49:31","新北市淡水區學府路88號","121.449138333333","25.170805","6501000","淡水區"
"251003","766-UM","2017/07/04 18:49:37","新北市淡水區中山北路一段149巷33號","121.443055","25.17797","6501000","淡水區"
"207003","550-UM","2017/07/04 18:49:21","新北市萬里區大鵬里頂社24-5號","121.657813333333","25.20942","6502800","萬里區"
"207004","225-TW","2017/07/04 18:49:24","新北市萬里區萬里里獅頭路23號","121.693231666667","25.1782566666667","6502800","萬里區"
"252002","178-VK","2017/07/04 18:49:30","新北市三芝區中正路一段101號","121.504688333333","25.2564733333333","6502100","三芝區"
"252003","249-BX","2017/07/04 18:49:24","新北市三芝區後厝里土地公坑57-2號","121.461246666667","25.247595","6502100","三芝區"
"252001","702-TV","2017/07/04 18:49:25","新北市三芝區中正路三段9號","121.502928333333","25.2539816666667","6502100","三芝區"
"208002","170-UY","2017/07/04 18:49:27","新北市金山區信義路37號","121.635505","25.2196066666667","6502700","金山區"
"237004","078-UY","2017/07/04 18:49:22","新北市三峽區有木130-1號","121.435481666667","24.8571233333333","6500900","三峽區"
"237007","153-BY","2017/07/04 18:49:35","新北市三峽區中正路三段138號","121.353595","24.9035716666667","6500900","三峽區"
"237009","210-TH","2017/07/04 18:49:29","新北市三峽區民權街162號","121.368026666667","24.9306433333333","6500900","三峽區"
"237013","252-BX","2017/07/04 18:49:24","新北市三峽區光明路69巷25號","121.376766666667","24.9292066666667","6500900","三峽區"
"237012","275-BY","2017/07/04 18:49:15","新北市三峽區三樹路340號","121.383966666667","24.9433433333333","6500900","三峽區"
"237008","302-VK","2017/07/04 18:49:23","新北市三峽區白雞67號","121.39743","24.9115766666667","6500900","三峽區"
"237014","433-BY","2017/07/04 18:49:31","新北市三峽區隆恩街180號","121.361588333333","24.9425733333333","6500900","三峽區"
"237006","5529-G3","2017/07/04 18:49:25","新北市三峽區溪東路233巷2弄3號","121.407","24.93351","6500900","三峽區"
"237011","572-TV","2017/07/04 18:49:36","新北市三峽區介壽路三段194號","121.402768333333","24.94435","6500900","三峽區"
"237016","649-BX","2017/07/04 18:49:19","新北市三峽區竹崙路111號","121.433236666667","24.912585","6500900","三峽區"
"237010","706-TV","2017/07/04 18:49:21","新北市三峽區復興路321號","121.364828333333","24.9388016666667","6500900","三峽區"
"237005","AKY-6261","2017/07/04 18:49:20","新北市三峽區中山路125號","121.365393333333","24.9359533333333","6500900","三峽區"
"236070","105-UM","2017/07/04 18:49:24","新北市土城區延和路11號","121.463981666667","24.987945","6501300","土城區"
"236043","107-UM","2017/07/04 18:49:20","新北市土城區裕民路92巷23弄2號","121.449711666667","24.9861816666667","6501300","土城區"
"236079","166-UM","2017/07/04 18:49:16","新北市土城區中央路四段165巷13-1號","121.416101666667","24.95596","6501300","土城區"
"236031","253-BX","2017/07/04 18:49:21","新北市土城區忠義路26巷10號","121.439851666667","24.9698933333333","6501300","土城區"
"236027","269-VK","2017/07/04 18:49:24","新北市土城區慶安街109號","121.440271666667","24.9720283333333","6501300","土城區"
"236015","270-VK","2017/07/04 18:49:35","新北市土城區金城路二段354巷10號","121.46087","24.9844333333333","6501300","土城區"
"236038","271-VK","2017/07/04 18:49:35","新北市土城區明德路一段235巷13弄2號","121.463403333333","24.97764","6501300","土城區"
"236023","401-BY","2017/07/04 18:49:31","新北市土城區延安街37巷1號","121.46809","24.98415","6501300","土城區"
"236059","912-UM","2017/07/04 18:49:33","新北市土城區中央路三段205號","121.429998333333","24.96474","6501300","土城區"
"236049","913-UM","2017/07/04 18:49:34","新北市土城區青雲路13號","121.460375","24.9892916666667","6501300","土城區"
"236063","915-UM","2017/07/04 18:49:35","新北市土城區延和路125巷28號","121.469185","24.9909366666667","6501300","土城區"
"236055","AAC-216","2017/07/04 18:49:32","新北市土城區裕民路110號","121.450871666667","24.986715","6501300","土城區"
"242025","615-BX","2017/07/04 18:33:50","新北市新莊區新泰路255巷83號","121.44218","25.0388","6500500","新莊區"
"242061","362-BY","2017/07/04 18:49:32","新北市新莊區三和路12-18號","121.442306666667","25.0376483333333","6500500","新莊區"
"242058","353-BY","2017/07/04 18:49:31","新北市泰山區信華一街37號","121.440443333333","25.0448533333333","6500500","新莊區"
"238023","601-UM","2017/07/04 18:49:30","新北市樹林區三福街114號","121.406465","25.0163016666667","6500700","樹林區"
"238019","599-UM","2017/07/04 18:49:19","新北市樹林區中華路190-3號","121.410991666667","24.9806766666667","6500700","樹林區"
"238018","571-TV","2017/07/04 18:49:24","新北市樹林區鎮前街168號","121.424388333333","24.9899383333333","6500700","樹林區"
"238024","5061-A6","2017/07/04 18:49:34","新北市樹林區太平路249號","121.418933333333","24.9750916666667","6500700","樹林區"
"238022","312-TH","2017/07/04 18:49:28","新北市樹林區中華路379巷78弄3號","121.413423333333","24.97724","6500700","樹林區"
"238025","303-VK","2017/07/04 18:49:28","新北市樹林區中山路三段22號","121.39559","24.9730733333333","6500700","樹林區"
"238017","283-BY","2017/07/04 18:49:22","新北市樹林區光興街44號","121.40987","25.002775","6500700","樹林區"
"238014","282-BY","2017/07/04 18:49:17","新北市樹林區大安路113號","121.422896666667","24.99759","6500700","樹林區"
"238020","268-VK","2017/07/04 18:49:20","新北市樹林區三俊街294號","121.422796666667","25.0141483333333","6500700","樹林區"
"238026","172-UY","2017/07/04 18:49:27","新北市樹林區信和街126-1號","121.387691666667","24.9733733333333","6500700","樹林區"
"238016","169-UY","2017/07/04 18:49:29","新北市樹林區文化街28號","121.419351666667","24.9877666666667","6500700","樹林區"
"239007","AAC-297","2017/07/04 18:49:32","新北市鶯歌區中正一路269巷25號","121.355451666667","24.9593883333333","6500800","鶯歌區"
"239006","891-R6","2017/07/04 18:49:24","新北市鶯歌區鶯桃路296巷88號","121.336756666667","24.9619933333333","6500800","鶯歌區"
"239008","527-UM","2017/07/04 18:49:20","新北市鶯歌區晨曦街2巷1號","121.336738333333","24.9763366666667","6500800","鶯歌區"
"239005","526-UM","2017/07/04 18:49:26","新北市鶯歌區大湖路361巷25號","121.331243333333","24.9771166666667","6500800","鶯歌區"
"239001","417-VK","2017/07/04 18:49:30","新北市鶯歌區鶯桃路97巷1-1號","121.338548333333","24.9543466666667","6500800","鶯歌區"
"239003","360-BY","2017/07/04 18:49:19","新北市鶯歌區鶯桃路570號","121.330695","24.9677783333333","6500800","鶯歌區"
"239002","359-BY","2017/07/04 18:49:24","新北市鶯歌區中正一路308號","121.356523333333","24.95701","6500800","鶯歌區"
"239004","193-VK","2017/07/04 18:49:31","新北市鶯歌區中正三路228號","121.331356666667","24.93742","6500800","鶯歌區"
"221008","489-VK","2017/07/04 18:49:25","新北市汐止區康寧街901號","121.651325","25.0749916666667","6501100","汐止區"
"221036","130-UY","2017/07/04 18:49:21","新北市汐止區水碓街39號","121.664831666667","25.069655","6501100","汐止區"
"221015","131-UY","2017/07/04 18:49:36","新北市汐止區鄉長路一段55巷7號","121.665448333333","25.0759366666667","6501100","汐止區"
"221010","269-BY","2017/07/04 18:49:25","新北市汐止區康寧街901號","121.651481666667","25.0749933333333","6501100","汐止區"
"221010","276-VK","2017/07/04 13:14:01","新北市汐止區汐萬路一段256巷3號","121.653465","25.07458","6501100","汐止區"
"221031","277-VK","2017/07/04 00:07:07","新北市汐止區汐萬路一段256巷3號","121.65256","25.0746116666667","6501100","汐止區"
"221012","278-VK","2017/07/04 18:49:30","新北市汐止區康寧街901號","121.650715","25.075265","6501100","汐止區"
"221023","279-VK","2017/07/04 18:49:25","新北市汐止區汐萬路一段256巷3號","121.653305","25.0746533333333","6501100","汐止區"
"221032","280-BY","2017/07/04 18:49:30","新北市汐止區橫科路367巷26號","121.623345","25.0482166666667","6501100","汐止區"
"221027","281-BY","2017/07/04 18:49:35","新北市汐止區康寧街901號","121.650866666667","25.0752883333333","6501100","汐止區"
"221010","297-VK","2017/07/04 18:48:42","新北市汐止區康寧街901號","121.650771666667","25.0752583333333","6501100","汐止區"
"221029","298-VK","2017/07/04 18:49:35","新北市汐止區樟樹一路2巷59號","121.642118333333","25.063115","6501100","汐止區"
"221021","299-VK","2017/07/04 14:53:05","新北市汐止區大同路一段146巷19號","121.633361666667","25.0533333333333","6501100","汐止區"
"221035","622-UM","2017/07/04 18:49:34","新北市汐止區康寧街901號","121.651523333333","25.07497","6501100","汐止區"
"221025","623-UM","2017/07/04 18:49:28","新北市汐止區秀峰路6巷2號","121.65919","25.0667616666667","6501100","汐止區"
"221033","647-BX","2017/07/04 18:49:20","新北市汐止區南勢街3號","121.627035","25.0373633333333","6501100","汐止區"
"221002","707-TV","2017/07/04 18:49:35","新北市汐止區大同路一段185號","121.633146666667","25.0570416666667","6501100","汐止區"
"221018","753-BX","2017/07/04 18:49:28","新北市汐止區茄苳路214號","121.670741666667","25.0687883333333","6501100","汐止區"
"220079","145-BY","2017/07/04 18:49:25","新北市板橋區民權路202巷2弄1號","121.45955","25.0141683333333","6500100","板橋區"
"220082","610-BX","2017/07/04 18:49:33","新北市板橋區篤行路二段69號","121.43175","24.9921233333333","6500100","板橋區"
"220091","267-BY","2017/07/04 18:49:26","新北市板橋區民生路二段188號","121.470106666667","25.020315","6500100","板橋區"
"220056","276-BY","2017/07/04 18:49:30","新北市板橋區四川路二段14號","121.456103333333","24.9962383333333","6500100","板橋區"
"220072","277-BY","2017/07/04 18:49:28","新北市板橋區大觀路三段79號","121.433408333333","24.9949983333333","6500100","板橋區"
"220094","283-UM","2017/07/04 18:49:26","新北市板橋區民生路二段188號","121.470083333333","25.0203283333333","6500100","板橋區"
"220071","283-VK","2017/07/04 18:49:16","新北市板橋區民生路二段36-1號","121.472256666667","25.0165883333333","6500100","板橋區"
"220101","285-UM","2017/07/04 18:49:31","新北市板橋區民生路二段188號","121.46997","25.0204116666667","6500100","板橋區"
"220053","285-VK","2017/07/04 18:49:20","新北市板橋區民生路二段46號","121.472393333333","25.0174183333333","6500100","板橋區"
"220083","286-VK","2017/07/04 18:49:27","新北市板橋區大觀路二段22巷21號","121.445531666667","25.0035016666667","6500100","板橋區"
"220081","287-VK","2017/07/04 18:49:27","新北市板橋區大觀路一段28巷104號","121.450131666667","25.0110933333333","6500100","板橋區"
"220090","288-VK","2017/07/04 18:49:36","新北市板橋區民生路二段161巷3號","121.470186666667","25.0197816666667","6500100","板橋區"
"220061","295-UM","2017/07/04 18:49:29","新北市板橋區民生路二段46號","121.472458333333","25.01751","6500100","板橋區"
"220084","296-UM","2017/07/04 18:49:25","新北市板橋區大觀路二段148巷29號","121.441845","25.0003216666667","6500100","板橋區"
"220075","297-UM","2017/07/04 18:49:25","新北市板橋區大觀路一段28巷98號","121.450596666667","25.0109966666667","6500100","板橋區"
"220092","299-UM","2017/07/04 18:49:23","新北市板橋區民生路二段120號","121.470305","25.0199033333333","6500100","板橋區"
"220062","305-R5","2017/07/04 15:10:33","新北市板橋區民生路二段15-1號","121.472803333333","25.01643","6500100","板橋區"
"220098","317-R6","2017/07/04 18:49:22","新北市板橋區民生路二段161巷1號","121.470063333333","25.019975","6500100","板橋區"
"220080","461-BY","2017/07/04 18:49:33","新北市板橋區大觀路二段265巷3號","121.442466666667","24.9965","6500100","板橋區"
"220064","486-VK","2017/07/04 18:49:31","新北市板橋區民生路二段56-1號","121.472223333333","25.0170333333333","6500100","板橋區"
"220089","487-VK","2017/07/04 18:49:24","新北市板橋區民生路二段120號","121.470483333333","25.0199516666667","6500100","板橋區"
"220088","491-VK","2017/07/04 18:48:10","新北市板橋區民生路二段161巷1號","121.470043333333","25.020155","6500100","板橋區"
"220035","560-BX","2017/07/04 18:49:35","新北市板橋區中正路275巷62弄2號","121.453025","25.0180333333333","6500100","板橋區"
"220103","561-BX","2017/07/04 18:49:36","新北市板橋區民生路二段89-6號","121.470601666667","25.0189333333333","6500100","板橋區"
"220063","609-BX","2017/07/04 18:49:29","新北市板橋區民生路二段56-1號","121.472268333333","25.01701","6500100","板橋區"
"220057","686-BX","2017/07/04 18:49:20","新北市板橋區民生路二段36-1號","121.472138333333","25.01688","6500100","板橋區"
"220077","687-BX","2017/07/04 18:49:34","新北市板橋區大觀路二段174巷138-2號","121.441521666667","25.0026533333333","6500100","板橋區"
"220093","689-BX","2017/07/04 18:49:17","新北市板橋區民生路二段161巷3號","121.470206666667","25.019815","6500100","板橋區"
"220054","741-BX","2017/07/04 18:49:32","新北市板橋區中山路二段23號","121.472398333333","25.0153","6500100","板橋區"
"220055","827-TW","2017/07/04 18:49:35","新北市板橋區民生路二段17號","121.472575","25.0164433333333","6500100","板橋區"
"220067","829-TW","2017/07/04 18:49:32","新北市板橋區民生路二段11號","121.472728333333","25.0159716666667","6500100","板橋區"
"220102","830-TW","2017/07/04 15:33:48","新北市板橋區民生路二段161巷9號","121.470265","25.0193866666667","6500100","板橋區"
"220096","831-TW","2017/07/04 16:12:16","新北市板橋區民生路二段120號","121.470511666667","25.0198366666667","6500100","板橋區"
"220074","895-R6","2017/07/04 18:49:35","新北市板橋區南門街30號","121.45708","25.0085183333333","6500100","板橋區"
"220073","985-R7","2017/07/04 18:49:36","新北市板橋區館前西路115號","121.456775","25.0074433333333","6500100","板橋區"
"220097","AAC-210","2017/07/04 18:49:15","新北市板橋區民生路二段161巷1號","121.470138333333","25.0201533333333","6500100","板橋區"
"220070","AAC-253","2017/07/04 18:49:20","新北市板橋區民生路二段56-1號","121.472256666667","25.0169616666667","6500100","板橋區"
