"lineid","car","time","location","longitude","latitude","cityid","cityname"
"234046","148-BY","2017/07/04 19:19:36","新北市永和區得和路373巷12號","121.524975","25.0001583333333","6500400","永和區"
"234013","149-BY","2017/07/04 19:19:27","新北市永和區仁愛路108號","121.511981666667","25.01318","6500400","永和區"
"234007","207-UY","2017/07/04 19:19:30","新北市永和區中山路一段149號","121.510025","25.0095916666667","6500400","永和區"
"234081","298-R6","2017/07/04 19:19:27","新北市永和區福和路50號","121.52351","25.0081916666667","6500400","永和區"
"234038","336-UY","2017/07/04 19:19:21","新北市永和區成功路二段65號","121.527446666667","25.0000933333333","6500400","永和區"
"234064","337-UY","2017/07/04 19:19:26","新北市永和區永元路17巷4號","121.521636666667","25.0004983333333","6500400","永和區"
"234086","338-UY","2017/07/04 19:19:36","新北市永和區永利路69號","121.519508333333","25.005065","6500400","永和區"
"234070","552-UM","2017/07/04 19:19:25","新北市永和區中正路680巷20號","121.517936666667","25.0092116666667","6500400","永和區"
"234054","553-UM","2017/07/04 19:19:34","新北市永和區中興街50號","121.516688333333","25.011635","6500400","永和區"
"234017","745-BX","2017/07/04 19:19:22","新北市永和區文化路144巷19弄20號","121.512193333333","25.01677","6500400","永和區"
"234030","746-BX","2017/07/04 19:19:29","新北市永和區民生路33號","121.522723333333","24.9982933333333","6500400","永和區"
"234061","AAD-866","2017/07/04 19:19:34","新北市永和區秀朗路一段175號","121.517066666667","25.0036633333333","6500400","永和區"
"234042","862-TW","2017/07/04 19:19:31","新北市永和區保平路151巷6弄11號","121.509853333333","25.005005","6500400","永和區"
"234050","863-TW","2017/07/04 19:19:24","新北市永和區仁愛路106號","121.512045","25.01323","6500400","永和區"
"234026","9372-KE","2017/07/04 19:19:15","新北市永和區安樂路58巷2號","121.515098333333","24.9979916666667","6500400","永和區"
"234011","9373-KE","2017/07/04 19:19:17","新北市永和區仁愛路141巷3弄23號","121.512253333333","25.0126366666667","6500400","永和區"
"249005","172-UM","2017/07/04 19:19:30","新北市八里區中華路三段77號","121.394488333333","25.1406216666667","6502300","八里區"
"249001","173-UM","2017/07/04 19:19:26","新北市八里區中華路一段333-1號","121.412891666667","25.1537866666667","6502300","八里區"
"249003","593-UM","2017/07/04 19:19:36","新北市八里區中山路二段341號","121.399456666667","25.147305","6502300","八里區"
"248016","026-BX","2017/07/04 19:19:23","新北市五股區成洲五路12號","121.452371666667","25.1015266666667","6501500","五股區"
"248020","225-UY","2017/07/04 19:19:15","新北市五股區凌雲路三段57號","121.42531","25.1250133333333","6501500","五股區"
"248012","247-BX","2017/07/03 21:14:04","新北市五股區中興路二段182巷50號","121.45565","25.0813533333333","6501500","五股區"
"248010","272-BY","2017/07/04 19:19:24","新北市五股區自強路90巷72號","121.430656666667","25.0712316666667","6501500","五股區"
"248004","677-BX","2017/07/04 19:19:39","新北市五股區五福路36號","121.43395","25.0892","6501500","五股區"
"248002","678-BX","2017/07/04 19:19:32","新北市五股區凌雲路一段158巷6號","121.447815","25.102965","6501500","五股區"
"234023","9380-KE","2017/07/04 19:19:33","新北市永和區竹林路124巷25號","121.518488333333","25.0112283333333","6500400","永和區"
"234077","969-R7","2017/07/04 19:19:38","新北市永和區民治街46號","121.519053333333","24.9978066666667","6500400","永和區"
"234074","AAC-211","2017/07/04 19:19:27","新北市永和區竹林路97號","121.519671666667","25.0120683333333","6500400","永和區"
"234067","AAC-212","2017/07/04 19:19:21","新北市永和區保平路30巷1號","121.511745","25.0074366666667","6500400","永和區"
"234003","AAC-295","2017/07/04 19:17:08","新北市永和區永平路150號","121.511363333333","25.0085933333333","6500400","永和區"
"244013","069-UM","2017/07/04 19:19:22","新北市林口區麗園一街9巷1號","121.376553333333","25.0713383333333","6501700","林口區"
"244019","403-UM","2017/07/04 19:19:34","新北市林口區麗園二街42巷8號","121.382215","25.0672216666667","6501700","林口區"
"244009","410-SL","2017/07/04 19:19:37","新北市林口區林口路83-1號","121.389648333333","25.0798716666667","6501700","林口區"
"244023","483-VK","2017/07/04 19:19:27","新北市林口區文化三路一段636-1號","121.371873333333","25.07704","6501700","林口區"
"243013","AAD-798","2017/07/04 19:19:34","新北市泰山區明志路三段145巷2弄1號","121.42548","25.0398533333333","6501600","泰山區"
"243009","297-R6","2017/07/04 19:19:33","新北市泰山區和平街13巷11號","121.434395","25.06516","6501600","泰山區"
"243015","380-SR","2017/07/04 19:19:22","新北市泰山區公園路27巷2號","121.428848333333","25.0544066666667","6501600","泰山區"
"243014","421-VK","2017/07/04 19:19:29","新北市泰山區泰林路二段208號","121.433258333333","25.061425","6501600","泰山區"
"243010","548-UM","2017/07/04 19:19:24","新北市泰山區明志路二段34號","121.429416666667","25.0534233333333","6501600","泰山區"
"243011","549-UM","2017/07/04 19:19:21","新北市泰山區貴子路15巷1弄1號","121.426353333333","25.0419433333333","6501600","泰山區"
"243012","646-TV","2017/07/04 19:19:29","新北市泰山區仁愛路100巷25號","121.433645","25.0552533333333","6501600","泰山區"
"243016","680-BX","2017/07/04 19:19:33","新北市泰山區工專路51號","121.42288","25.040225","6501600","泰山區"
"222003","436-BY","2017/07/04 19:19:37","新北市深坑區深南路204號","121.626655","25.01607","6501800","深坑區"
"222002","659-BX","2017/07/04 19:19:26","新北市深坑區北深路一段177號","121.632565","25.01088","6501800","深坑區"
"222001","696-SL","2017/07/04 19:19:25","新北市深坑區北深路二段57號","121.618691666667","25.003995","6501800","深坑區"
"231041","002-UM","2017/07/04 19:19:34","新北市新店區溪園路245-6號","121.52539","24.9832533333333","6500600","新店區"
"231059","046-UY","2017/07/04 19:19:20","新北市新店區安和路三段16號","121.51797","24.9811616666667","6500600","新店區"
"231060","106-UY","2017/07/04 19:19:17","新北市新店區安康路二段138號","121.512481666667","24.9619033333333","6500600","新店區"
"231051","107-UY","2017/07/04 19:19:23","新北市新店區百忍街90號","121.532686666667","24.97715","6500600","新店區"
"231048","108-UY","2017/07/04 19:19:18","新北市新店區中正路2號","121.546026666667","24.9694483333333","6500600","新店區"
"231053","187-VK","2017/07/04 19:19:32","新北市新店區自強路251號","121.548151666667","24.9196283333333","6500600","新店區"
"231069","189-VK","2017/07/04 11:59:36","新北市新店區安華路28-1號","121.519633333333","24.9611416666667","6500600","新店區"
"231063","268-BY","2017/07/04 19:19:20","新北市新店區達觀路16號","121.503196666667","24.94075","6500600","新店區"
"231046","278-BY","2017/07/04 19:19:16","新北市新店區華城路6號","121.530201666667","24.960425","6500600","新店區"
"231050","AAD-862","2017/07/04 19:19:07","新北市新店區竹林路157-1號","121.556491666667","24.9478516666667","6500600","新店區"
"231044","355-BY","2017/07/04 19:19:32","新北市新店區中興路三段330號","121.542025","24.9864316666667","6500600","新店區"
"231058","3712-VJ","2017/07/04 19:19:33","新北市新店區北新路一段215號","121.540455","24.9651783333333","6500600","新店區"
"231067","4772-VM","2017/07/04 19:19:24","新北市新店區安康路二段414巷2號","121.495866666667","24.95776","6500600","新店區"
"231065","512-UM","2017/07/04 19:19:35","新北市新店區安祥路110巷17弄1號","121.47384","24.95589","6500600","新店區"
"231054","513-UM","2017/07/04 19:19:24","新北市新店區國校路43號","121.537881666667","24.95534","6500600","新店區"
"231064","515-UM","2017/07/04 19:19:22","新北市新店區安忠路86-8號","121.511583333333","24.9582616666667","6500600","新店區"
"231042","616-UM","2017/07/04 19:19:27","新北市新店區北宜路一段3號","121.538493333333","24.9585516666667","6500600","新店區"
"231045","617-UM","2017/07/04 19:19:19","新北市新店區北宜路一段260號","121.545681666667","24.9527883333333","6500600","新店區"
"231061","618-UM","2017/07/04 19:19:18","新北市新店區安康路一段206號","121.524078333333","24.963455","6500600","新店區"
"231040","619-UM","2017/07/04 19:19:24","新北市新店區三民路26號","121.536948333333","24.9710816666667","6500600","新店區"
"231049","719-UM","2017/07/04 19:19:35","新北市新店區明德路111號","121.541513333333","24.9794183333333","6500600","新店區"
"231062","720-UM","2017/07/04 19:19:38","新北市新店區莒光路99號","121.52223","24.9535883333333","6500600","新店區"
"231043","899-TW","2017/07/04 19:19:38","新北市新店區北新路二段104號","121.54297","24.9738916666667","6500600","新店區"
"231066","AKT-0513","2017/07/04 19:19:30","新北市新店區安康路三段355巷45號","121.485086666667","24.949415","6500600","新店區"
"241031","061-VK","2017/07/04 19:19:26","新北市三重區重新路四段242號","121.485711666667","25.0538316666667","6500200","三重區"
"241017","063-VK","2017/07/04 19:19:33","新北市三重區大同北路215號","121.491911666667","25.0660933333333","6500200","三重區"
"241026","066-VK","2017/07/04 19:19:24","新北市三重區泉州街84巷20號","121.495831666667","25.05452","6500200","三重區"
"241025","156-TC","2017/07/04 19:19:33","新北市三重區中正北路406號","121.47532","25.0703816666667","6500200","三重區"
"241022","267-UM","2017/07/04 19:19:25","新北市三重區中正北路60號","121.486881666667","25.0644016666667","6500200","三重區"
"241007","398-BY","2017/07/04 19:19:18","新北市三重區慈愛街9號","121.485028333333","25.078705","6500200","三重區"
"241020","413-TH","2017/07/04 19:19:33","新北市三重區大智街183號","121.489485","25.0729466666667","6500200","三重區"
"241035","462-BY","2017/07/04 19:19:19","新北市三重區新北大道一段7號","121.489878333333","25.0614516666667","6500200","三重區"
"241030","480-VK","2017/07/04 19:19:31","新北市三重區新興路40號","121.491588333333","25.0535783333333","6500200","三重區"
"241029","942-UM","2017/07/04 19:19:30","新北市三重區重安街27號","121.491111666667","25.05703","6500200","三重區"
"235066","003-UY","2017/07/04 19:19:29","新北市中和區景新街2號","121.502631666667","24.9996633333333","6500300","中和區"
"235064","005-UY","2017/07/04 19:19:35","新北市中和區連城路23巷22號","121.49914","25.0014166666667","6500300","中和區"
"235063","006-UY","2017/07/04 19:19:32","新北市中和區連城路249巷12弄2號","121.493823333333","24.9963366666667","6500300","中和區"
"235056","096-UM","2017/07/04 19:19:22","新北市中和區中正路1171號","121.481233333333","25.0094783333333","6500300","中和區"
"235039","097-UM","2017/07/04 19:19:26","新北市中和區景平路64巷13弄22號","121.521423333333","24.9914833333333","6500300","中和區"
"235040","150-BY","2017/07/04 19:19:21","新北市中和區保健路48巷63號","121.509293333333","24.9958816666667","6500300","中和區"
"235058","151-BY","2017/07/04 19:19:22","新北市中和區連城路523巷11弄24號","121.482211666667","24.9941166666667","6500300","中和區"
"235055","183-VK","2017/07/04 19:19:26","新北市中和區德光路66號","121.469546666667","25.0038716666667","6500300","中和區"
"235038","185-VK","2017/07/04 19:19:31","新北市中和區大仁街20巷43號","121.519158333333","24.9932083333333","6500300","中和區"
"235049","186-VK","2017/07/04 19:19:30","新北市中和區景新街235號","121.508123333333","24.9945033333333","6500300","中和區"
"235067","255-BX","2017/07/04 19:19:24","新北市中和區新生街148巷5號","121.483223333333","25.000665","6500300","中和區"
"235044","293-VK","2017/07/04 19:19:38","新北市中和區中興街222-5號","121.500663333333","24.98953","6500300","中和區"
"235072","301-VK","2017/07/04 19:19:31","新北市中和區板南路335號","121.494313333333","24.9977916666667","6500300","中和區"
"235043","352-BY","2017/07/04 19:19:28","新北市中和區景平路283號","121.507473333333","24.9931633333333","6500300","中和區"
"235051","376-QA","2017/07/04 19:19:28","新北市中和區和平街2巷2弄2號","121.510293333333","24.9901066666667","6500300","中和區"
"235068","377-QA","2017/07/04 18:52:43","新北市中和區中正路211巷22號","121.497","24.9931033333333","6500300","中和區"
"235061","378-QA","2017/07/04 19:19:22","新北市中和區員山路314巷5-4號","121.482023333333","25.0028133333333","6500300","中和區"
"235050","4979-A6","2017/07/04 19:19:37","新北市中和區景安路220巷1弄2號","121.503245","24.9908333333333","6500300","中和區"
"235069","4980-A6","2017/07/04 19:19:38","新北市中和區福美路256巷6號","121.498233333333","25.0055583333333","6500300","中和區"
"235042","551-UM","2017/07/04 19:19:26","新北市中和區大勇街60巷14弄3號","121.51869","24.99447","6500300","中和區"
"235070","558-UM","2017/07/04 19:16:19","新北市中和區中和路215號","121.504081666667","25.0000733333333","6500300","中和區"
"235045","565-BX","2017/07/04 19:19:38","新北市中和區景新街437巷15號","121.514015","24.9892933333333","6500300","中和區"
"235054","640-BX","2017/07/04 19:19:22","新北市中和區國光街109巷2弄12號","121.469183333333","25.0007116666667","6500300","中和區"
"235060","647-TV","2017/07/04 19:19:31","新北市中和區民有街57號","121.476158333333","25.0038783333333","6500300","中和區"
"235047","732-UM","2017/07/04 19:19:26","新北市中和區和平街54巷1弄1號","121.50868","24.9909866666667","6500300","中和區"
"235046","733-UM","2017/07/04 19:19:22","新北市中和區忠孝街2巷8-5號","121.510376666667","24.9818266666667","6500300","中和區"
"235071","783-BX","2017/07/04 19:19:32","新北市中和區中正路633號","121.485288333333","24.99525","6500300","中和區"
"235057","801-TS","2017/07/04 19:19:21","新北市中和區民利街78號","121.47816","24.9982533333333","6500300","中和區"
"235041","802-TS","2017/07/04 19:19:29","新北市中和區宜安路143號","121.509283333333","24.9985766666667","6500300","中和區"
"235052","805-TS","2017/07/04 19:19:38","新北市中和區興南路二段128巷8號","121.50404","24.9837733333333","6500300","中和區"
"235048","896-TW","2017/07/04 19:19:29","新北市中和區忠孝街37巷7號","121.511063333333","24.983535","6500300","中和區"
"235053","900-TW","2017/07/04 19:19:33","新北市中和區華福街57巷12號","121.466813333333","24.9971183333333","6500300","中和區"
"235037","AAC-213","2017/07/04 19:19:36","新北市永和區民族街81巷62號","121.520448333333","24.996345","6500300","中和區"
"235059","AAC-215","2017/07/04 19:19:32","新北市中和區錦和路195巷1弄2號","121.491136666667","24.9908816666667","6500300","中和區"
"220068","013-TV","2017/07/04 19:19:22","新北市板橋區三民路一段1巷43號","121.480325","25.024695","6500100","板橋區"
"220065","072-UY","2017/07/04 19:19:32","新北市板橋區民族路129巷14號","121.467683333333","25.0084766666667","6500100","板橋區"
"220086","073-UY","2017/07/04 19:19:27","新北市板橋區中正路216巷95號","121.458716666667","25.0191683333333","6500100","板橋區"
"220069","AAD-861","2017/07/04 19:19:37","新北市板橋區華興街56號","121.457958333333","25.0047483333333","6500100","板橋區"
"220106","120-SR","2017/07/04 19:19:34","新北市板橋區雙十路三段43號","121.470556666667","25.0318466666667","6500100","板橋區"
"247002","336-TH","2017/07/04 19:19:20","新北市五股區中興路三段2巷10號","121.449145","25.0810183333333","6501400","蘆洲區"
"247014","057-VK","2017/07/04 19:19:19","新北市五股區凌雲路一段25號","121.452505","25.1000066666667","6501400","蘆洲區"
"226004","205-ST","2017/07/04 19:19:22","新北市平溪區十分里十分街139號","121.777258333333","25.0433766666667","6502400","平溪區"
"228001","212-TW","2017/07/04 19:19:26","新北市貢寮區真理里新港街10號","121.925523333333","25.054375","6502600","貢寮區"
"228002","585-TW","2017/07/04 19:19:36","新北市貢寮區龍門里復興街46-1號","121.928288333333","25.0295216666667","6502600","貢寮區"
"228003","828-UM","2017/07/04 19:18:53","新北市貢寮區和美里和美街19-2號","121.912766666667","25.0825983333333","6502600","貢寮區"
"224010","AGQ-8101","2017/07/04 19:14:44","新北市瑞芳區汽車路90-1號","121.842063333333","25.1091083333333","6501200","瑞芳區"
"224006","676-BX","2017/07/04 19:19:35","新北市瑞芳區中山路207號","121.801335","25.1066966666667","6501200","瑞芳區"
"224011","420-VK","2017/07/04 19:19:23","新北市瑞芳區崙頂路3-1號","121.84703","25.104695","6501200","瑞芳區"
"224009","285-BY","2017/07/04 19:19:33","新北市瑞芳區洞頂路124號","121.860341666667","25.118765","6501200","瑞芳區"
"224008","275-VK","2017/07/04 19:19:14","新北市瑞芳區一坑路191-1號","121.802033333333","25.108815","6501200","瑞芳區"
"224005","271-BY","2017/07/04 19:19:24","新北市瑞芳區員山子路23號","121.82152","25.1029766666667","6501200","瑞芳區"
"227009","642-TC","2017/07/04 19:19:22","新北市雙溪區新基里新基北街40號","121.868548333333","25.03803","6502500","雙溪區"
"227003","400-TW","2017/07/04 19:19:34","新北市雙溪區平林里梅竹蹊66-1號","121.86014","25.0358133333333","6502500","雙溪區"
"253006","032-BX","2017/07/04 19:19:24","新北市石門區崁子腳27號","121.535741666667","25.2914533333333","6502200","石門區"
"253005","295-VK","2017/07/04 19:19:23","新北市石門區阿里荖4-7號","121.612391666667","25.279245","6502200","石門區"
"208003","665-BX","2017/07/04 19:19:20","新北市金山區中山路157號","121.6388","25.2204716666667","6502700","金山區"
"208001","761-BX","2017/07/04 19:19:25","新北市金山區民生路69號","121.640165","25.2196716666667","6502700","金山區"
"251001","011-UM","2017/07/04 19:19:31","新北市淡水區民權路92巷35-1號","121.461983333333","25.1268316666667","6501000","淡水區"
"251014","180-VK","2017/07/04 19:19:23","新北市淡水區小中寮19-7號","121.484768333333","25.229605","6501000","淡水區"
"251005","182-VK","2017/07/04 19:19:28","新北市淡水區水源街一段34巷1號","121.44326","25.1722683333333","6501000","淡水區"
"251010","413-VK","2017/07/04 19:19:22","新北市淡水區沙崙路27號","121.42152","25.1815483333333","6501000","淡水區"
"251016","442-VK","2017/07/04 19:19:28","新北市淡水區淡金路三段350巷18號","121.450811666667","25.20839","6501000","淡水區"
"251009","575-R6","2017/07/04 19:19:28","新北市淡水區大忠街5巷6號","121.443335","25.17645","6501000","淡水區"
"251007","577-R6","2017/07/04 19:19:29","新北市淡水區八勢一街32巷17號","121.461106666667","25.15567","6501000","淡水區"
"251002","672-BX","2017/07/04 19:19:35","新北市淡水區真理街4號","121.438473333333","25.172955","6501000","淡水區"
"251003","766-UM","2017/07/04 19:19:22","新北市淡水區中山北路一段160號","121.444225","25.178335","6501000","淡水區"
"207003","550-UM","2017/07/04 19:19:21","新北市萬里區大鵬里萬里加投79-3號","121.647415","25.2123566666667","6502800","萬里區"
"207004","225-TW","2017/07/04 19:19:24","新北市萬里區萬里里瑪鋉路4號","121.687623333333","25.1750333333333","6502800","萬里區"
"252002","178-VK","2017/07/04 19:19:30","新北市三芝區淡金路二段18-1號","121.502683333333","25.25953","6502100","三芝區"
"252003","249-BX","2017/07/04 19:19:24","新北市三芝區埔坪里埔頭坑41號","121.50471","25.264655","6502100","三芝區"
"252001","702-TV","2017/07/04 19:19:25","新北市三芝區長勤街37巷25號","121.501645","25.2548183333333","6502100","三芝區"
"208002","170-UY","2017/07/04 19:19:27","新北市金山區環金路378號","121.631751666667","25.22245","6502700","金山區"
"237004","078-UY","2017/07/04 19:19:22","新北市三峽區有木206號","121.439118333333","24.8514766666667","6500900","三峽區"
"237007","153-BY","2017/07/04 19:19:35","新北市三峽區中正路二段83巷17號","121.367191666667","24.917795","6500900","三峽區"
"237009","210-TH","2017/07/04 19:19:29","新北市三峽區民生街139號","121.373008333333","24.935005","6500900","三峽區"
"237013","252-BX","2017/07/04 19:19:24","新北市三峽區大同路39巷9號","121.377293333333","24.9276166666667","6500900","三峽區"
"237012","275-BY","2017/07/04 19:19:35","新北市三峽區三樹路222巷236弄8-3號","121.391395","24.9430166666667","6500900","三峽區"
"237008","302-VK","2017/07/04 19:19:33","新北市三峽區大同路107號","121.374406666667","24.9269133333333","6500900","三峽區"
"237014","433-BY","2017/07/04 19:19:31","新北市三峽區中山路63巷8號","121.36696","24.9343283333333","6500900","三峽區"
"237006","5529-G3","2017/07/04 19:19:25","新北市三峽區介壽路一段530號","121.386535","24.9331216666667","6500900","三峽區"
"237011","572-TV","2017/07/04 19:19:35","新北市三峽區中正路一段322號","121.371378333333","24.9250416666667","6500900","三峽區"
"237016","649-BX","2017/07/04 19:19:19","新北市三峽區安坑60-5號","121.468078333333","24.9293183333333","6500900","三峽區"
"237010","706-TV","2017/07/04 19:19:21","新北市三峽區復興路43號","121.373505","24.9368","6500900","三峽區"
"237005","AKY-6261","2017/07/04 19:19:00","新北市三峽區隆恩街551號","121.357478333333","24.9397016666667","6500900","三峽區"
"236070","105-UM","2017/07/04 19:19:24","新北市土城區學成路158號","121.448133333333","24.9892716666667","6501300","土城區"
"236079","166-UM","2017/07/04 19:19:37","新北市土城區中央路四段321巷12號","121.411008333333","24.9511433333333","6501300","土城區"
"236031","253-BX","2017/07/04 19:19:21","新北市土城區城林路6巷80號","121.438568333333","24.9796483333333","6501300","土城區"
"236027","269-VK","2017/07/04 19:19:23","新北市土城區中央路二段151號","121.442003333333","24.9765916666667","6501300","土城區"
"236015","270-VK","2017/07/04 19:19:35","新北市土城區學府路一段23巷25弄3號","121.457866666667","24.9867916666667","6501300","土城區"
"236023","401-BY","2017/07/04 19:19:31","新北市土城區金城路三段200-5號","121.468758333333","24.9876333333333","6501300","土城區"
"236059","912-UM","2017/07/04 19:19:33","新北市土城區金城路一段131號","121.444826666667","24.97371","6501300","土城區"
"236049","913-UM","2017/07/04 19:19:34","新北市土城區明德路一段398-1號","121.453635","24.9790833333333","6501300","土城區"
"242025","615-BX","2017/07/04 18:33:50","新北市新莊區新泰路255巷83號","121.44218","25.0388","6500500","新莊區"
"238015","755-BX","2017/07/04 19:19:19","新北市樹林區備內街1巷37號","121.412425","24.9862633333333","6500700","樹林區"
"238023","601-UM","2017/07/04 19:19:31","新北市樹林區大慶街22號","121.39653","25.0143583333333","6500700","樹林區"
"238019","599-UM","2017/07/04 19:19:31","新北市樹林區東榮街52號","121.417005","24.98326","6500700","樹林區"
"238018","571-TV","2017/07/04 19:19:24","新北市樹林區中華路225號","121.418845","24.98101","6500700","樹林區"
"238024","5061-A6","2017/07/04 19:19:33","新北市樹林區福德街10號","121.400761666667","24.9755316666667","6500700","樹林區"
"238022","312-TH","2017/07/04 19:19:28","新北市樹林區中山路二段147號","121.406411666667","24.9788416666667","6500700","樹林區"
"238021","311-TH","2017/07/04 19:07:21","新北市樹林區柑園街二段276巷40號","121.371598333333","24.953765","6500700","樹林區"
"238025","303-VK","2017/07/04 19:19:28","新北市樹林區中山路二段185-4號","121.40493","24.9777983333333","6500700","樹林區"
"238017","283-BY","2017/07/04 19:16:42","新北市樹林區光興街237號","121.406746666667","25.00529","6500700","樹林區"
"238014","282-BY","2017/07/04 19:19:37","新北市樹林區千歲街63-8號","121.42679","24.99831","6500700","樹林區"
"238020","268-VK","2017/07/04 19:19:20","新北市樹林區俊英街155巷43弄11號","121.422778333333","25.0115666666667","6500700","樹林區"
"238026","172-UY","2017/07/04 19:19:28","新北市樹林區佳園路三段36號","121.387795","24.95361","6500700","樹林區"
"238016","169-UY","2017/07/04 19:19:29","新北市樹林區備前街21-2號","121.417246666667","24.98564","6500700","樹林區"
"239007","AAC-297","2017/07/04 19:19:32","新北市鶯歌區大湖路109巷14號","121.34176","24.9635633333333","6500800","鶯歌區"
"239006","891-R6","2017/07/04 19:19:23","新北市鶯歌區建國路401號","121.337951666667","24.95083","6500800","鶯歌區"
"239008","527-UM","2017/07/04 19:19:25","新北市鶯歌區大湖路466號","121.33963","24.9721833333333","6500800","鶯歌區"
"239005","526-UM","2017/07/04 19:19:26","新北市鶯歌區中湖街313號","121.346495","24.9781516666667","6500800","鶯歌區"
"239001","417-VK","2017/07/04 19:19:30","新北市鶯歌區建國路546號","121.338271666667","24.9502883333333","6500800","鶯歌區"
"239003","360-BY","2017/07/04 19:19:31","新北市鶯歌區文化路124號","121.351891666667","24.9518","6500800","鶯歌區"
"239002","359-BY","2017/07/04 19:19:25","新北市鶯歌區大湖路428號","121.342106666667","24.9727633333333","6500800","鶯歌區"
"239004","193-VK","2017/07/04 19:19:31","新北市鶯歌區二甲路41號","121.33872","24.93525","6500800","鶯歌區"
"221008","489-VK","2017/07/04 19:19:25","新北市汐止區康寧街310號","121.626663333333","25.0672833333333","6501100","汐止區"
"221036","130-UY","2017/07/04 19:19:19","新北市汐止區汐萬路一段256巷1號","121.651836666667","25.0748","6501100","汐止區"
"221015","131-UY","2017/07/04 19:19:35","新北市汐止區汐萬路一段256巷1號","121.651758333333","25.0748616666667","6501100","汐止區"
"221010","269-BY","2017/07/04 19:19:25","新北市汐止區康寧街901號","121.651355","25.0749433333333","6501100","汐止區"
"221010","276-VK","2017/07/04 13:14:01","新北市汐止區汐萬路一段256巷3號","121.653465","25.07458","6501100","汐止區"
"221031","277-VK","2017/07/04 00:07:07","新北市汐止區汐萬路一段256巷3號","121.65256","25.0746116666667","6501100","汐止區"
"221012","278-VK","2017/07/04 19:19:30","新北市汐止區汐萬路一段312號","121.650416666667","25.0750233333333","6501100","汐止區"
"221023","279-VK","2017/07/04 19:19:25","新北市汐止區康寧街901號","121.65099","25.075115","6501100","汐止區"
"221027","281-BY","2017/07/04 19:19:34","新北市汐止區康寧街901號","121.650906666667","25.0752866666667","6501100","汐止區"
"221010","297-VK","2017/07/04 18:48:42","新北市汐止區康寧街901號","121.650771666667","25.0752583333333","6501100","汐止區"
"221029","298-VK","2017/07/04 19:19:35","新北市汐止區康寧街901號","121.65159","25.0749616666667","6501100","汐止區"
"221021","299-VK","2017/07/04 19:19:23","新北市汐止區康寧街901號","121.651585","25.0749616666667","6501100","汐止區"
"221025","623-UM","2017/07/04 19:19:28","新北市汐止區康寧街901號","121.651491666667","25.07497","6501100","汐止區"
"221033","647-BX","2017/07/04 19:19:20","新北市汐止區南勢街3號","121.627061666667","25.0373483333333","6501100","汐止區"
"221002","707-TV","2017/07/04 19:19:35","新北市汐止區大同路一段319號","121.638015","25.05911","6501100","汐止區"
"220079","145-BY","2017/07/04 19:19:25","新北市板橋區民權路202巷17弄6號","121.460456666667","25.0166366666667","6500100","板橋區"
"220082","610-BX","2017/07/04 19:19:33","新北市板橋區溪崑二街134號","121.42589","24.98772","6500100","板橋區"
"220091","267-BY","2017/07/04 19:19:26","新北市板橋區萬板路476號","121.47995","25.0259566666667","6500100","板橋區"
"220056","276-BY","2017/07/04 19:19:30","新北市板橋區信義路189號","121.45911","24.991805","6500100","板橋區"
"220072","277-BY","2017/07/04 19:19:36","新北市板橋區金門街337巷7弄23號","121.430648333333","24.9852616666667","6500100","板橋區"
"220094","283-UM","2017/07/04 19:19:27","新北市板橋區光武街134號","121.465433333333","25.0298766666667","6500100","板橋區"
"220071","283-VK","2017/07/04 19:19:36","新北市板橋區重慶路327巷19弄3-2號","121.464733333333","24.998875","6500100","板橋區"
"220101","285-UM","2017/07/04 19:19:31","新北市板橋區雙十路二段47巷52號","121.474923333333","25.0253883333333","6500100","板橋區"
"220053","285-VK","2017/07/04 19:19:20","新北市板橋區富山街30號","121.4781","25.0218266666667","6500100","板橋區"
"220083","286-VK","2017/07/04 19:19:27","新北市板橋區大觀路二段174巷165弄2-1號","121.441516666667","25.003405","6500100","板橋區"
"220081","287-VK","2017/07/04 19:19:27","新北市板橋區南雅西路二段9號","121.453013333333","25.0092466666667","6500100","板橋區"
"220090","288-VK","2017/07/04 19:19:36","新北市板橋區四維路349巷16號","121.461693333333","25.0296633333333","6500100","板橋區"
"220061","295-UM","2017/07/04 19:19:29","新北市板橋區中山路二段318巷18號","121.48042","25.01878","6500100","板橋區"
"220084","296-UM","2017/07/04 19:19:27","新北市板橋區溪崑二街16號","121.428678333333","24.9917433333333","6500100","板橋區"
"220075","297-UM","2017/07/04 19:19:25","新北市板橋區南雅西路一段96號","121.453268333333","25.00592","6500100","板橋區"
"220092","299-UM","2017/07/04 19:19:30","新北市板橋區光武街36巷7號","121.467726666667","25.02613","6500100","板橋區"
"220062","305-R5","2017/07/04 15:10:33","新北市板橋區民生路二段15-1號","121.472803333333","25.01643","6500100","板橋區"
"220098","317-R6","2017/07/04 19:19:22","新北市板橋區民有街72號","121.465356666667","25.02673","6500100","板橋區"
"220080","461-BY","2017/07/04 19:19:35","新北市板橋區大觀路二段1巷22號","121.449181666667","25.0037983333333","6500100","板橋區"
"220064","486-VK","2017/07/04 19:19:31","新北市板橋區板新路227號","121.46798","25.0158516666667","6500100","板橋區"
"220089","487-VK","2017/07/04 19:19:33","新北市板橋區文化路二段31號","121.46894","25.0247116666667","6500100","板橋區"
"220088","491-VK","2017/07/04 19:18:54","新北市板橋區雙十路二段149號","121.474741666667","25.0281716666667","6500100","板橋區"
"220035","560-BX","2017/07/04 19:19:35","新北市板橋區中正路360巷9號","121.454878333333","25.0237266666667","6500100","板橋區"
"220103","561-BX","2017/07/04 19:19:35","新北市板橋區介壽街17號","121.467671666667","25.0201483333333","6500100","板橋區"
"220063","609-BX","2017/07/04 19:19:33","新北市板橋區三民路一段89號","121.479436666667","25.0215266666667","6500100","板橋區"
"220057","686-BX","2017/07/04 19:19:36","新北市板橋區重慶路344號","121.464241666667","24.9971983333333","6500100","板橋區"
"220077","687-BX","2017/07/04 19:19:37","新北市板橋區大觀路一段28巷62號","121.449851666667","25.0104183333333","6500100","板橋區"
"220093","689-BX","2017/07/04 19:19:17","新北市板橋區文化路一段479巷42號","121.468","25.02319","6500100","板橋區"
"220054","741-BX","2017/07/04 19:19:32","新北市板橋區重慶路64號","121.461633333333","25.0067483333333","6500100","板橋區"
"220055","827-TW","2017/07/04 19:19:35","新北市板橋區民族路57號","121.46467","25.00881","6500100","板橋區"
"220067","829-TW","2017/07/04 19:19:32","新北市板橋區長安街138巷7弄32號","121.473773333333","25.0088033333333","6500100","板橋區"
"220102","830-TW","2017/07/04 19:19:29","新北市板橋區田單街49巷1弄35號","121.482391666667","25.0294933333333","6500100","板橋區"
"220096","831-TW","2017/07/04 19:19:34","新北市板橋區大同街18號","121.477721666667","25.0266916666667","6500100","板橋區"
"220074","895-R6","2017/07/04 19:19:23","新北市板橋區中正路自強新村91-1號","121.454835","25.0131933333333","6500100","板橋區"
"220073","985-R7","2017/07/04 19:19:26","新北市板橋區金華街69號","121.457495","25.0208266666667","6500100","板橋區"
"220097","AAC-210","2017/07/04 19:19:35","新北市板橋區漢生西路89巷3弄2號","121.461508333333","25.0192783333333","6500100","板橋區"
"220070","AAC-253","2017/07/04 19:19:27","新北市板橋區忠孝路42號","121.460491666667","25.0018983333333","6500100","板橋區"
