"lineid","car","time","location","longitude","latitude","cityid","cityname"
"234046","148-BY","2017/07/04 19:49:28","新北市永和區永亨路205號","121.526138333333","25.0025966666667","6500400","永和區"
"234013","149-BY","2017/07/04 19:49:27","新北市永和區仁愛路206號","121.509243333333","25.01223","6500400","永和區"
"234007","207-UY","2017/07/04 19:49:23","新北市永和區中和路331號","121.507556666667","24.9996816666667","6500400","永和區"
"234081","298-R6","2017/07/04 19:49:26","新北市永和區林森路48巷1號","121.524733333333","25.0045183333333","6500400","永和區"
"234038","336-UY","2017/07/04 19:49:21","新北市永和區成功路二段193號","121.526606666667","24.99645","6500400","永和區"
"234064","337-UY","2017/07/04 19:49:26","新北市永和區中正路412巷16號","121.518256666667","25.0020733333333","6500400","永和區"
"234086","338-UY","2017/07/04 19:49:16","新北市永和區永貞路52號","121.520843333333","25.0061816666667","6500400","永和區"
"234070","552-UM","2017/07/04 19:49:25","新北市永和區國光路6號","121.519781666667","25.00852","6500400","永和區"
"234054","553-UM","2017/07/04 19:49:34","新北市永和區竹林路39巷28弄21號","121.52001","25.01439","6500400","永和區"
"234017","745-BX","2017/07/04 19:49:22","新北市永和區永和路二段290號","121.516075","25.0156433333333","6500400","永和區"
"234030","746-BX","2017/07/04 19:49:22","新北市永和區四維街89巷2弄5號","121.524253333333","24.9977316666667","6500400","永和區"
"234061","AAD-866","2017/07/04 19:49:34","新北市永和區中正路164號","121.515031666667","24.9966133333333","6500400","永和區"
"234042","862-TW","2017/07/04 19:49:31","新北市永和區中和路305巷16弄1號","121.50742","25.00145","6500400","永和區"
"234050","863-TW","2017/07/04 19:49:30","新北市永和區保安路150號","121.508251666667","25.014805","6500400","永和區"
"234026","9372-KE","2017/07/04 19:49:35","新北市永和區雙和街23號","121.50913","25.0021433333333","6500400","永和區"
"234011","9373-KE","2017/07/04 19:49:17","新北市永和區保安路292號","121.505026666667","25.0117933333333","6500400","永和區"
"249001","173-UM","2017/07/04 19:49:26","新北市八里區中華路二段252號","121.405398333333","25.149645","6502300","八里區"
"249004","303-UY","2017/07/04 19:49:24","新北市八里區仁愛路15號","121.413685","25.1609733333333","6502300","八里區"
"249002","305-UY","2017/07/04 19:49:35","新北市八里區頂寮五街20號","121.451381666667","25.1262366666667","6502300","八里區"
"249003","593-UM","2017/07/04 19:49:16","新北市八里區華峰三街35號","121.398566666667","25.1453433333333","6502300","八里區"
"248014","025-BX","2017/07/04 19:49:15","新北市五股區五福路42巷27號","121.434925","25.090075","6501500","五股區"
"248016","026-BX","2017/07/04 19:49:23","新北市五股區成泰路四段22巷16-12號","121.454816666667","25.1075883333333","6501500","五股區"
"248008","095-VK","2017/07/04 19:49:31","新北市五股區四維路169號","121.467666666667","25.0750883333333","6501500","五股區"
"248020","225-UY","2017/07/04 19:49:35","新北市五股區中直路27號","121.421131666667","25.1140533333333","6501500","五股區"
"248010","272-BY","2017/07/04 19:49:24","新北市五股區登林路76-5號","121.430545","25.06955","6501500","五股區"
"248004","677-BX","2017/07/04 19:49:39","新北市五股區成泰路一段210號","121.43615","25.079085","6501500","五股區"
"248002","678-BX","2017/07/04 19:49:32","新北市五股區成泰路四段15-6號","121.453373333333","25.106895","6501500","五股區"
"234077","969-R7","2017/07/04 19:49:33","新北市永和區民有街28號","121.516983333333","24.9962933333333","6500400","永和區"
"234074","AAC-211","2017/07/04 19:49:27","新北市永和區竹林路213巷7號","121.521348333333","25.00894","6500400","永和區"
"234067","AAC-212","2017/07/04 19:49:21","新北市永和區永平路171號","121.510506666667","25.00885","6500400","永和區"
"234003","AAC-295","2017/07/04 19:47:48","新北市永和區福和路319號","121.515911666667","25.0072516666667","6500400","永和區"
"244019","403-UM","2017/07/04 19:49:18","新北市林口區四維路116號","121.377653333333","25.07794","6501700","林口區"
"243013","AAD-798","2017/07/04 19:49:34","新北市泰山區明志路三段6巷16號","121.423928333333","25.0436316666667","6501600","泰山區"
"243009","297-R6","2017/07/04 19:49:33","新北市泰山區美寧街68號","121.431021666667","25.064605","6501600","泰山區"
"243015","380-SR","2017/07/04 19:49:21","新北市泰山區明志路二段235號","121.42743","25.0481766666667","6501600","泰山區"
"243014","421-VK","2017/07/04 19:49:29","新北市泰山區泰林路二段33-8號","121.435126666667","25.0565283333333","6501600","泰山區"
"243010","548-UM","2017/07/04 19:49:24","新北市泰山區民生路33號","121.430508333333","25.0522233333333","6501600","泰山區"
"243011","549-UM","2017/07/04 19:49:21","新北市泰山區明志路三段196巷39號","121.421731666667","25.039665","6501600","泰山區"
"243012","646-TV","2017/07/04 19:49:29","新北市泰山區全興路20號","121.432358333333","25.05885","6501600","泰山區"
"243016","680-BX","2017/07/04 19:49:33","新北市泰山區明志路三段521號","121.421186666667","25.0316416666667","6501600","泰山區"
"222003","436-BY","2017/07/04 19:49:17","新北市深坑區深南路51-1號","121.621143333333","25.0100216666667","6501800","深坑區"
"222002","659-BX","2017/07/04 19:49:26","新北市深坑區北深路二段2巷1號","121.621346666667","25.0046166666667","6501800","深坑區"
"222001","696-SL","2017/07/04 19:49:25","新北市深坑區北深路三段64號","121.60797","25.0013666666667","6501800","深坑區"
"231041","002-UM","2017/07/04 19:49:34","新北市新店區中央路155號","121.529798333333","24.9727233333333","6500600","新店區"
"231056","0291-UT","2017/07/04 19:49:18","新北市新店區中央一街2號","121.528966666667","24.9720483333333","6500600","新店區"
"231059","046-UY","2017/07/04 19:49:20","新北市新店區吉安街2號","121.517376666667","24.9656366666667","6500600","新店區"
"231060","106-UY","2017/07/04 19:49:37","新北市新店區安康路二段208號","121.51015","24.9595","6500600","新店區"
"231051","107-UY","2017/07/04 19:49:23","新北市新店區中央三街69號","121.526605","24.9752033333333","6500600","新店區"
"231048","108-UY","2017/07/04 19:49:38","新北市新店區寶興路41號","121.548935","24.9736966666667","6500600","新店區"
"231053","187-VK","2017/07/04 19:49:32","新北市新店區新烏路三段30號","121.553628333333","24.905115","6500600","新店區"
"231069","189-VK","2017/07/04 11:59:36","新北市新店區安華路28-1號","121.519633333333","24.9611416666667","6500600","新店區"
"231057","256-BX","2017/07/04 19:49:31","新北市新店區梅崗三路1號","121.558385","24.931245","6500600","新店區"
"231063","268-BY","2017/07/04 19:49:20","新北市新店區黎明路3號","121.50354","24.9524216666667","6500600","新店區"
"231046","278-BY","2017/07/04 19:49:36","新北市新店區福園街17巷2號","121.532813333333","24.9727066666667","6500600","新店區"
"231050","AAD-862","2017/07/04 19:48:47","新北市新店區北宜路二段579巷36號","121.564705","24.9549833333333","6500600","新店區"
"231044","355-BY","2017/07/04 19:49:32","新北市新店區復興路44號","121.538691666667","24.9868883333333","6500600","新店區"
"231067","4772-VM","2017/07/04 19:49:24","新北市新店區精忠路10-1號","121.532663333333","24.959045","6500600","新店區"
"231065","512-UM","2017/07/04 19:49:35","新北市新店區安祥路109巷151弄12-1號","121.47801","24.9588783333333","6500600","新店區"
"231054","513-UM","2017/07/04 19:49:24","新北市新店區北新路一段2-20號","121.53865","24.9599083333333","6500600","新店區"
"231064","515-UM","2017/07/04 19:49:22","新北市新店區安和路二段68號","121.518303333333","24.9683716666667","6500600","新店區"
"231042","616-UM","2017/07/04 19:49:27","新北市新店區中興路一段269號","121.545046666667","24.968","6500600","新店區"
"231045","617-UM","2017/07/04 19:49:19","新北市新店區北宜路二段360-1號","121.564665","24.9525383333333","6500600","新店區"
"231061","618-UM","2017/07/04 19:49:38","新北市新店區安民街290號","121.517623333333","24.97334","6500600","新店區"
"231040","619-UM","2017/07/04 19:49:23","新北市新店區北新路一段96巷23號","121.543018333333","24.968835","6500600","新店區"
"231049","719-UM","2017/07/04 19:49:35","新北市新店區民權路127巷3號","121.535205","24.9819783333333","6500600","新店區"
"231062","720-UM","2017/07/04 19:49:18","新北市新店區永業路91號","121.52926","24.949085","6500600","新店區"
"231043","899-TW","2017/07/04 19:49:09","新北市新店區中正路222號","121.540225","24.9726666666667","6500600","新店區"
"241028","022-UY","2017/07/04 19:49:36","新北市三重區中正南路157號","121.493861666667","25.0560666666667","6500200","三重區"
"241008","059-VK","2017/07/04 19:49:30","新北市三重區永福街102號","121.478935","25.0757983333333","6500200","三重區"
"241009","060-VK","2017/07/04 19:49:35","新北市三重區三和路四段398-2號","121.481388333333","25.079575","6500200","三重區"
"241031","061-VK","2017/07/04 19:49:26","新北市三重區重新路四段240號","121.486023333333","25.0536983333333","6500200","三重區"
"241015","062-VK","2017/07/04 19:49:20","新北市三重區重新路一段1號","121.503806666667","25.0642833333333","6500200","三重區"
"241017","063-VK","2017/07/04 19:49:33","新北市三重區重陽路三段7號","121.489203333333","25.0661333333333","6500200","三重區"
"241024","065-VK","2017/07/04 19:49:30","新北市三重區大勇街78號","121.479785","25.0712933333333","6500200","三重區"
"241026","066-VK","2017/07/04 19:49:27","新北市三重區文化南路51號","121.500255","25.0612583333333","6500200","三重區"
"241003","091-VK","2017/07/04 19:49:17","新北市三重區五華街93巷73號","121.493523333333","25.0847033333333","6500200","三重區"
"241025","156-TC","2017/07/04 19:49:33","新北市三重區頂崁街210巷16號","121.476538333333","25.0677333333333","6500200","三重區"
"241005","262-UM","2017/07/04 19:49:33","新北市三重區溪尾街264-1號","121.487421666667","25.08333","6500200","三重區"
"241011","265-UM","2017/07/04 19:49:19","新北市三重區介壽路39巷6號","121.49907","25.070155","6500200","三重區"
"241016","266-UM","2017/07/04 19:49:26","新北市三重區正德街41巷2號","121.495918333333","25.0628066666667","6500200","三重區"
"241022","267-UM","2017/07/04 19:49:25","新北市三重區重安街1號","121.489691666667","25.05838","6500200","三重區"
"241018","268-UM","2017/07/04 19:49:32","新北市三重區雙園街100-1號","121.494936666667","25.0675066666667","6500200","三重區"
"241013","270-UM","2017/07/04 19:49:35","新北市三重區仁福街64巷19號","121.497695","25.0753133333333","6500200","三重區"
"241007","398-BY","2017/07/04 19:49:17","新北市三重區三和路四段141號","121.484431666667","25.0780483333333","6500200","三重區"
"241020","413-TH","2017/07/04 19:49:33","新北市三重區三和路三段157號","121.491926666667","25.0738516666667","6500200","三重區"
"241035","462-BY","2017/07/04 19:49:39","新北市三重區文化北路8號","121.499346666667","25.063525","6500200","三重區"
"241004","475-VK","2017/07/04 19:49:37","新北市三重區五華街74號","121.493368333333","25.0820266666667","6500200","三重區"
"241019","478-VK","2017/07/04 19:49:31","新北市三重區自強路二段87號","121.488398333333","25.0702633333333","6500200","三重區"
"241030","480-VK","2017/07/04 19:49:30","新北市三重區環河南路254巷22-1號","121.490278333333","25.0508483333333","6500200","三重區"
"241014","543-UM","2017/07/04 19:49:27","新北市三重區長元街98巷18弄21號","121.501946666667","25.067575","6500200","三重區"
"241001","547-UM","2017/07/04 19:49:30","新北市三重區仁愛街327巷41號","121.493221666667","25.080085","6500200","三重區"
"241006","AAD-863","2017/07/04 19:49:19","新北市三重區永福街194號","121.482296666667","25.0744066666667","6500200","三重區"
"241023","887-TS","2017/07/04 19:49:18","新北市三重區頂崁街172號","121.477606666667","25.0659416666667","6500200","三重區"
"241012","941-UM","2017/07/04 19:49:33","新北市三重區仁福街64巷14號","121.497683333333","25.0751183333333","6500200","三重區"
"241029","942-UM","2017/07/04 19:49:30","新北市三重區光明路27號","121.49124","25.05849","6500200","三重區"
"241033","AAC-255","2017/07/04 19:49:38","新北市三重區中興南街66號","121.47068","25.0439983333333","6500200","三重區"
"235066","003-UY","2017/07/04 19:49:29","新北市中和區南工路20號","121.505605","25.000515","6500300","中和區"
"235064","005-UY","2017/07/04 19:49:14","新北市中和區南華路43號","121.503593333333","24.9967333333333","6500300","中和區"
"235063","006-UY","2017/07/04 19:49:32","新北市中和區連城路263巷9弄1號","121.492286666667","24.9956866666667","6500300","中和區"
"235056","096-UM","2017/07/04 19:49:22","新北市中和區民富街7號","121.476611666667","25.0071916666667","6500300","中和區"
"235039","097-UM","2017/07/04 19:49:25","新北市中和區秀峰街80號","121.520091666667","24.9907633333333","6500300","中和區"
"235040","150-BY","2017/07/04 19:49:21","新北市中和區安平路59號","121.509431666667","24.9951266666667","6500300","中和區"
"235058","151-BY","2017/07/04 19:49:22","新北市中和區員山路134號","121.481308333333","24.996345","6500300","中和區"
"235055","183-VK","2017/07/04 19:49:26","新北市中和區中山路三段181巷18弄11號","121.472748333333","25.00477","6500300","中和區"
"235038","185-VK","2017/07/04 19:49:31","新北市中和區自立路15巷8號","121.522986666667","24.9958483333333","6500300","中和區"
"235049","186-VK","2017/07/04 19:49:30","新北市中和區景平路518號","121.503413333333","24.99397","6500300","中和區"
"235067","255-BX","2017/07/04 19:49:24","新北市中和區新生街220巷1弄15號","121.48333","24.9979066666667","6500300","中和區"
"235044","293-VK","2017/07/04 19:49:18","新北市中和區興南路一段71號","121.510198333333","24.9893266666667","6500300","中和區"
"235072","301-VK","2017/07/04 19:49:31","新北市中和區中正路464號","121.490101666667","24.9942933333333","6500300","中和區"
"235043","352-BY","2017/07/04 19:49:28","新北市中和區華新街230號","121.50607","24.9816633333333","6500300","中和區"
"235051","376-QA","2017/07/04 19:49:28","新北市中和區中興街115巷2號","121.500096666667","24.992035","6500300","中和區"
"235068","377-QA","2017/07/04 19:49:23","新北市中和區永和路8號","121.500013333333","25.003095","6500300","中和區"
"235061","378-QA","2017/07/04 19:49:32","新北市中和區員山路174巷9號","121.481958333333","24.9999483333333","6500300","中和區"
"235050","4979-A6","2017/07/04 19:47:37","新北市中和區和平街164巷4號","121.505926666667","24.9924583333333","6500300","中和區"
"235069","4980-A6","2017/07/04 19:49:18","新北市中和區中正路395號","121.489275","24.9939983333333","6500300","中和區"
"235042","551-UM","2017/07/04 19:49:26","新北市中和區保健路2巷20號","121.50729","24.9976966666667","6500300","中和區"
"235070","558-UM","2017/07/04 19:43:59","新北市中和區南山路41號","121.50207","24.9987","6500300","中和區"
"235045","565-BX","2017/07/04 19:49:18","新北市中和區景新街338號","121.511973333333","24.9906333333333","6500300","中和區"
"235054","640-BX","2017/07/04 19:49:22","新北市中和區國光街107巷2弄32號","121.469265","24.99903","6500300","中和區"
"235060","647-TV","2017/07/04 19:49:31","新北市中和區新生街16巷4號","121.48283","25.004375","6500300","中和區"
"235047","732-UM","2017/07/04 19:49:26","新北市中和區捷運路8號","121.509816666667","24.989575","6500300","中和區"
"235046","733-UM","2017/07/04 19:49:21","新北市中和區四維街25-3號","121.512966666667","24.9867516666667","6500300","中和區"
"235071","783-BX","2017/07/04 19:49:32","新北市中和區永和路317巷8號","121.485141666667","25.0108183333333","6500300","中和區"
"235057","801-TS","2017/07/04 19:49:21","新北市中和區員山路238號","121.481351666667","25.0013183333333","6500300","中和區"
"235041","802-TS","2017/07/04 19:49:29","新北市永和區中和路545號","121.511433333333","25.0032733333333","6500300","中和區"
"235052","805-TS","2017/07/04 19:49:18","新北市中和區華新街192巷21號","121.506438333333","24.9829283333333","6500300","中和區"
"235048","896-TW","2017/07/04 19:49:29","新北市中和區華新街26號","121.507585","24.98484","6500300","中和區"
"235053","900-TW","2017/07/04 19:49:33","新北市中和區國光街215巷6弄2號","121.466463333333","25.0015733333333","6500300","中和區"
"235037","AAC-213","2017/07/04 19:49:36","新北市中和區秀朗路三段10巷14弄106號","121.523038333333","24.9967816666667","6500300","中和區"
"235059","AAC-215","2017/07/04 19:49:32","新北市中和區圓通路305巷27弄1號","121.49506","24.9892183333333","6500300","中和區"
"220068","013-TV","2017/07/04 19:49:35","新北市板橋區中山路二段416巷47弄30號","121.48365","25.0193966666667","6500100","板橋區"
"220065","072-UY","2017/07/04 19:49:32","新北市板橋區國泰街39巷9弄5號","121.46876","25.005425","6500100","板橋區"
"220086","073-UY","2017/07/04 19:49:27","新北市板橋區林園街1號","121.4539","25.0091416666667","6500100","板橋區"
"220069","AAD-861","2017/07/04 19:49:17","新北市板橋區稚暉街50號","121.456538333333","25.0042283333333","6500100","板橋區"
"220106","120-SR","2017/07/04 19:49:34","新北市板橋區文化路二段608巷56號","121.479743333333","25.034415","6500100","板橋區"
"247008","339-TH","2017/07/04 19:49:18","新北市蘆洲區信義路119巷9號","121.478346666667","25.0804716666667","6501400","蘆洲區"
"247024","337-TH","2017/07/04 19:49:31","新北市蘆洲區光復路11號","121.462498333333","25.0842833333333","6501400","蘆洲區"
"247002","336-TH","2017/07/04 19:49:20","新北市蘆洲區永樂街38巷40號","121.458551666667","25.0901","6501400","蘆洲區"
"247014","057-VK","2017/07/04 19:49:25","新北市蘆洲區保和街50-17號","121.47011","25.0866116666667","6501400","蘆洲區"
"247004","056-VK","2017/07/04 19:49:30","新北市蘆洲區長安街225號","121.459345","25.082475","6501400","蘆洲區"
"226004","205-ST","2017/07/04 19:49:22","新北市平溪區十分里十分街312號","121.775111666667","25.0433766666667","6502400","平溪區"
"228001","212-TW","2017/07/04 19:49:26","新北市貢寮區真理里新港街56號","121.926091666667","25.0565133333333","6502600","貢寮區"
"228003","828-UM","2017/07/04 19:47:53","新北市貢寮區真理里美艷山街13-1號","121.928183333333","25.0605666666667","6502600","貢寮區"
"224010","AGQ-8101","2017/07/04 19:49:24","新北市瑞芳區輕便路308號","121.843005","25.1084933333333","6501200","瑞芳區"
"224002","639-TC","2017/07/04 19:49:32","新北市瑞芳區員山子路員山巷20號","121.816733333333","25.10366","6501200","瑞芳區"
"224011","420-VK","2017/07/04 19:49:23","新北市瑞芳區崙頂路3-1號","121.847","25.10472","6501200","瑞芳區"
"227009","642-TC","2017/07/04 19:49:22","新北市雙溪區新基里中華路90號","121.866038333333","25.0390016666667","6502500","雙溪區"
"227003","400-TW","2017/07/04 19:49:34","新北市雙溪區雙溪里內挖路43號","121.863376666667","25.0365033333333","6502500","雙溪區"
"208003","665-BX","2017/07/04 19:49:20","新北市金山區清泉里清水路49號","121.629566666667","25.2347333333333","6502700","金山區"
"208001","761-BX","2017/07/04 19:49:34","新北市金山區重和里林口28-3號","121.596466666667","25.2093916666667","6502700","金山區"
"251004","009-UM","2017/07/04 19:47:58","新北市淡水區民權路187巷13號","121.460168333333","25.1336483333333","6501000","淡水區"
"251001","011-UM","2017/07/04 19:49:31","新北市淡水區中正東路二段51-3號","121.459385","25.1557166666667","6501000","淡水區"
"251014","180-VK","2017/07/04 19:49:23","新北市淡水區番社前3-3號","121.472023333333","25.2372516666667","6501000","淡水區"
"251008","181-VK","2017/07/04 19:49:19","新北市淡水區中正路一段24巷9號","121.426573333333","25.1771133333333","6501000","淡水區"
"251005","182-VK","2017/07/04 19:49:28","新北市淡水區中正東路6號","121.446911666667","25.167255","6501000","淡水區"
"251012","441-VK","2017/07/04 19:49:17","新北市淡水區埤島6-10號","121.446141666667","25.1942066666667","6501000","淡水區"
"251016","442-VK","2017/07/04 19:49:28","新北市淡水區三塊厝3-3號","121.45663","25.2097216666667","6501000","淡水區"
"251006","561-UM","2017/07/04 19:49:20","新北市淡水區大忠街5巷3號","121.443481666667","25.1769283333333","6501000","淡水區"
"251009","575-R6","2017/07/04 19:49:28","新北市淡水區中正路36號","121.443778333333","25.1692666666667","6501000","淡水區"
"251011","650-BX","2017/07/04 19:49:34","新北市淡水區淡金路一段102號","121.457898333333","25.1743533333333","6501000","淡水區"
"251003","766-UM","2017/07/04 19:49:17","新北市淡水區中山北路三段138號","121.444821666667","25.1951283333333","6501000","淡水區"
"207003","550-UM","2017/07/04 19:49:21","新北市萬里區大鵬里萬里加投51-1號","121.641988333333","25.2115916666667","6502800","萬里區"
"207004","225-TW","2017/07/04 19:49:24","新北市萬里區萬里里瑪鋉頂街41號","121.689128333333","25.1788066666667","6502800","萬里區"
"252002","178-VK","2017/07/04 19:49:30","新北市三芝區三民街24號","121.50465","25.2586566666667","6502100","三芝區"
"252001","702-TV","2017/07/04 19:49:25","新北市三芝區公正街9號","121.499815","25.2575333333333","6502100","三芝區"
"208002","170-UY","2017/07/04 19:49:18","新北市金山區中山路317號","121.63545","25.2236683333333","6502700","金山區"
"237004","078-UY","2017/07/04 19:49:22","新北市三峽區添福141-7號","121.374376666667","24.90067","6500900","三峽區"
"237007","153-BY","2017/07/04 19:49:15","新北市三峽區二鬮路178號","121.359141666667","24.906835","6500900","三峽區"
"237009","210-TH","2017/07/04 19:49:29","新北市三峽區中園街20號","121.368346666667","24.9268983333333","6500900","三峽區"
"237013","252-BX","2017/07/04 19:49:24","新北市三峽區橫溪路96號","121.397943333333","24.9354783333333","6500900","三峽區"
"237012","275-BY","2017/07/04 19:49:35","新北市三峽區中華路13-5號","121.373183333333","24.93165","6500900","三峽區"
"237008","302-VK","2017/07/04 19:49:23","新北市三峽區永安街127號","121.373908333333","24.928455","6500900","三峽區"
"237014","433-BY","2017/07/04 19:49:31","新北市三峽區添福2號","121.371933333333","24.9061916666667","6500900","三峽區"
"237006","5529-G3","2017/07/04 19:49:25","新北市三峽區中正路一段336巷15弄2號","121.369963333333","24.9249233333333","6500900","三峽區"
"237016","649-BX","2017/07/04 19:49:19","新北市三峽區溪東路218巷24弄2號","121.406908333333","24.9304416666667","6500900","三峽區"
"237005","AKY-6261","2017/07/04 19:49:20","新北市三峽區民生街92號","121.374133333333","24.9356116666667","6500900","三峽區"
"236070","105-UM","2017/07/04 19:49:24","新北市土城區中央路二段224號","121.44203","24.9753733333333","6501300","土城區"
"236043","107-UM","2017/07/04 19:49:19","新北市土城區裕民路269號","121.455641666667","24.98194","6501300","土城區"
"236079","166-UM","2017/07/04 19:49:16","新北市土城區中央路四段410巷3號","121.41137","24.9536833333333","6501300","土城區"
"236031","253-BX","2017/07/04 19:49:21","新北市土城區中央路一段294號","121.443283333333","24.98237","6501300","土城區"
"236027","269-VK","2017/07/04 19:49:23","新北市土城區中央路二段61巷26號","121.443405","24.978905","6501300","土城區"
"236038","271-VK","2017/07/04 19:49:35","新北市土城區國際路158巷54號","121.467878333333","24.97472","6501300","土城區"
"236023","401-BY","2017/07/04 19:49:31","新北市土城區金城路三段200-5號","121.468736666667","24.9877133333333","6501300","土城區"
"236059","912-UM","2017/07/04 19:49:33","新北市土城區中央路二段5號","121.443068333333","24.980775","6501300","土城區"
"236049","913-UM","2017/07/04 19:49:34","新北市土城區青雲路238號","121.459036666667","24.980575","6501300","土城區"
"236063","915-UM","2017/07/04 19:49:35","新北市土城區延和路105巷3弄1號","121.467376666667","24.9907","6501300","土城區"
"236055","AAC-216","2017/07/04 19:49:20","新北市土城區立德路22號","121.462868333333","24.98783","6501300","土城區"
"242029","986-R7","2017/07/04 19:49:17","新北市新莊區幸福路914號","121.442483333333","25.04899","6500500","新莊區"
"242025","615-BX","2017/07/04 19:49:31","新北市新莊區五權一路12巷21弄16號","121.45818","25.0647616666667","6500500","新莊區"
"242023","613-BX","2017/07/04 19:49:35","新北市新莊區化成路160號","121.4655","25.0452583333333","6500500","新莊區"
"242027","612-BX","2017/07/04 19:49:36","新北市新莊區中平路377巷1-16號","121.444401666667","25.05181","6500500","新莊區"
"242037","566-BX","2017/07/04 19:49:19","新北市新莊區建安街85號","121.4272","25.0245633333333","6500500","新莊區"
"242042","497-BY","2017/07/04 19:49:19","新北市新莊區新北大道七段510號","121.412315","25.029075","6500500","新莊區"
"242013","442-UM","2017/07/04 19:49:18","新北市新莊區中泰街38巷9號","121.450708333333","25.04734","6500500","新莊區"
"242032","415-TV","2017/07/04 19:49:22","新北市新莊區忠孝街43號","121.44388","25.0359","6500500","新莊區"
"242002","413-TV","2017/07/04 19:49:23","新北市新莊區新泰路61號","121.449408333333","25.034","6500500","新莊區"
"242039","400-BY","2017/07/04 19:49:36","新北市新莊區民安路299巷51號","121.429653333333","25.0236666666667","6500500","新莊區"
"242061","362-BY","2017/07/04 19:49:18","新北市新莊區中正路471號","121.442135","25.0333366666667","6500500","新莊區"
"242058","353-BY","2017/07/04 19:49:20","新北市新莊區八德街60號","121.424896666667","25.0223733333333","6500500","新莊區"
"242007","173-VK","2017/07/04 19:49:25","新北市新莊區福壽街336號","121.45767","25.058485","6500500","新莊區"
"242005","346-TH","2017/07/04 19:49:24","新北市新莊區化成路63巷26弄1號","121.462986666667","25.0459933333333","6500500","新莊區"
"242017","348-TH","2017/07/04 19:49:27","新北市新莊區中安街2-1號","121.452965","25.0452033333333","6500500","新莊區"
"242015","350-TH","2017/07/04 19:49:22","新北市新莊區中港一街161號","121.447215","25.0449983333333","6500500","新莊區"
"242009","351-TH","2017/07/04 19:49:28","新北市新莊區中誠街50號","121.451118333333","25.048115","6500500","新莊區"
"238015","755-BX","2017/07/04 19:49:19","新北市樹林區中山路一段139號","121.422416666667","24.9896966666667","6500700","樹林區"
"238023","601-UM","2017/07/04 19:49:30","新北市樹林區三福街122號","121.406053333333","25.0159633333333","6500700","樹林區"
"238022","312-TH","2017/07/04 19:49:28","新北市樹林區國凱街32-2號","121.419681666667","24.978595","6500700","樹林區"
"238021","311-TH","2017/07/04 19:47:21","新北市樹林區佳園路三段181巷50號","121.388791666667","24.9472983333333","6500700","樹林區"
"238025","303-VK","2017/07/04 19:49:27","新北市樹林區中山路二段156號","121.41272","24.9826716666667","6500700","樹林區"
"238017","283-BY","2017/07/04 19:49:21","新北市樹林區保安街二段45巷13弄1號","121.415363333333","24.9999083333333","6500700","樹林區"
"238014","282-BY","2017/07/04 19:49:37","新北市樹林區千歲街28巷12號","121.426001666667","24.9956483333333","6500700","樹林區"
"238020","268-VK","2017/07/04 19:49:20","新北市板橋區大觀路三段50巷67-4號","121.431635","24.9962583333333","6500700","樹林區"
"239006","891-R6","2017/07/04 19:49:23","新北市鶯歌區中正一路460號","121.364136666667","24.95639","6500800","鶯歌區"
"221008","489-VK","2017/07/04 19:49:25","新北市汐止區康寧街83巷24號","121.620256666667","25.0671116666667","6501100","汐止區"
"221036","130-UY","2017/07/04 19:49:19","新北市汐止區汐萬路一段7號","121.655995","25.0674366666667","6501100","汐止區"
"221015","131-UY","2017/07/04 19:49:35","新北市汐止區忠孝東路402號","121.665913333333","25.07099","6501100","汐止區"
"221010","269-BY","2017/07/04 19:49:25","新北市汐止區汐萬路一段333巷1號","121.649901666667","25.0761033333333","6501100","汐止區"
"221010","276-VK","2017/07/04 13:14:01","新北市汐止區汐萬路一段256巷3號","121.653465","25.07458","6501100","汐止區"
"221031","277-VK","2017/07/04 00:07:07","新北市汐止區汐萬路一段256巷3號","121.65256","25.0746116666667","6501100","汐止區"
"221012","278-VK","2017/07/04 19:49:30","新北市汐止區大同路三段541號","121.681143333333","25.0714166666667","6501100","汐止區"
"221023","279-VK","2017/07/04 19:42:05","新北市汐止區民族六街6巷1號","121.629856666667","25.0697","6501100","汐止區"
"221032","280-BY","2017/07/04 19:49:30","新北市汐止區橫科路52巷2號","121.618853333333","25.0507616666667","6501100","汐止區"
"221027","281-BY","2017/07/04 19:49:34","新北市汐止區忠孝東路9號","121.65827","25.065915","6501100","汐止區"
"221010","297-VK","2017/07/04 19:49:24","新北市汐止區忠孝東路295號","121.664261666667","25.0688933333333","6501100","汐止區"
"221029","298-VK","2017/07/04 19:49:35","新北市汐止區康寧街901號","121.65145","25.07499","6501100","汐止區"
"221021","299-VK","2017/07/04 19:41:03","新北市汐止區南興路42號","121.652451666667","25.06045","6501100","汐止區"
"221035","622-UM","2017/07/04 19:49:37","新北市汐止區長江街13巷4號","121.65479","25.0714","6501100","汐止區"
"221025","623-UM","2017/07/04 19:49:28","新北市汐止區秀峰路81巷33號","121.661366666667","25.064715","6501100","汐止區"
"221033","647-BX","2017/07/04 19:49:20","新北市汐止區東勢街76巷97號","121.636141666667","25.0392083333333","6501100","汐止區"
"221018","753-BX","2017/07/04 19:49:28","新北市汐止區茄苳路2巷1號","121.664608333333","25.0706516666667","6501100","汐止區"
"220079","145-BY","2017/07/04 19:49:25","新北市板橋區中正路183巷46號","121.454976666667","25.0160016666667","6500100","板橋區"
"220082","610-BX","2017/07/04 19:49:33","新北市板橋區大觀路三段175號","121.431963333333","24.9937983333333","6500100","板橋區"
"220091","267-BY","2017/07/04 19:49:26","新北市板橋區懷德街127巷23弄33號","121.480306666667","25.032125","6500100","板橋區"
"220056","276-BY","2017/07/04 19:49:30","新北市板橋區四川路二段83號","121.452985","24.9949266666667","6500100","板橋區"
"220072","277-BY","2017/07/04 19:49:36","新北市板橋區金門街215巷36號","121.434071666667","24.989295","6500100","板橋區"
"220094","283-UM","2017/07/04 19:49:26","新北市板橋區宏國路27號","121.467806666667","25.0315933333333","6500100","板橋區"
"220071","283-VK","2017/07/04 19:49:36","新北市板橋區信義路28-6號","121.457056666667","24.9951133333333","6500100","板橋區"
"220101","285-UM","2017/07/04 19:49:31","新北市板橋區莊敬路261號","121.473793333333","25.021595","6500100","板橋區"
"220053","285-VK","2017/07/04 19:49:36","新北市板橋區中山路二段60巷1弄22號","121.475068333333","25.0157283333333","6500100","板橋區"
"220083","286-VK","2017/07/04 19:49:27","新北市板橋區龍興街65巷48號","121.442635","25.0018266666667","6500100","板橋區"
"220081","287-VK","2017/07/04 19:49:35","新北市板橋區大觀路一段29巷91號","121.450425","25.006485","6500100","板橋區"
"220090","288-VK","2017/07/04 19:49:35","新北市板橋區新海路431巷16號","121.457895","25.0269116666667","6500100","板橋區"
"220061","295-UM","2017/07/04 19:49:28","新北市板橋區漢生東路113巷30號","121.468481666667","25.015565","6500100","板橋區"
"220084","296-UM","2017/07/04 19:49:25","新北市板橋區滿平二街2巷1弄40號","121.424745","24.987565","6500100","板橋區"
"220075","297-UM","2017/07/04 19:49:25","新北市板橋區金華街10巷5號","121.455993333333","25.020095","6500100","板橋區"
"220092","299-UM","2017/07/04 19:49:23","新北市板橋區四維路103巷33號","121.464255","25.0238883333333","6500100","板橋區"
"220062","305-R5","2017/07/04 15:10:33","新北市板橋區民生路二段15-1號","121.472803333333","25.01643","6500100","板橋區"
"220098","317-R6","2017/07/04 19:49:24","新北市板橋區四維路269巷86號","121.459865","25.02681","6500100","板橋區"
"220080","461-BY","2017/07/04 19:49:37","新北市板橋區大觀路二段37巷282號","121.449831666667","25.0012083333333","6500100","板橋區"
"220064","486-VK","2017/07/04 19:49:31","新北市板橋區館前東路110-1號","121.463325","25.0075833333333","6500100","板橋區"
"220089","487-VK","2017/07/04 19:49:24","新北市板橋區新海路328號","121.46053","25.02409","6500100","板橋區"
"220088","491-VK","2017/07/04 19:48:50","新北市板橋區仁化街93號","121.47637","25.0320633333333","6500100","板橋區"
"220035","560-BX","2017/07/04 19:49:35","新北市板橋區金華街97號","121.458491666667","25.0208216666667","6500100","板橋區"
"220103","561-BX","2017/07/04 19:49:35","新北市板橋區陽明街29巷3號","121.465155","25.0216616666667","6500100","板橋區"
"220063","609-BX","2017/07/04 19:49:29","新北市板橋區三民路一段107號","121.479393333333","25.02132","6500100","板橋區"
"220057","686-BX","2017/07/04 19:49:20","新北市板橋區和平路安樂巷38號","121.461765","24.993275","6500100","板橋區"
"220077","687-BX","2017/07/04 19:49:30","新北市板橋區僑中一街124巷9弄1號","121.445968333333","25.01264","6500100","板橋區"
"220093","689-BX","2017/07/04 19:49:37","新北市板橋區長江路二段165號","121.466498333333","25.03192","6500100","板橋區"
"220054","741-BX","2017/07/04 19:49:32","新北市板橋區忠孝路205號","121.465256666667","25.0027316666667","6500100","板橋區"
"220055","827-TW","2017/07/04 19:49:35","新北市板橋區和平路29號","121.459678333333","24.99569","6500100","板橋區"
"220067","829-TW","2017/07/04 19:49:32","新北市板橋區長安街331巷93弄2號","121.472103333333","25.012355","6500100","板橋區"
"220102","830-TW","2017/07/04 19:49:29","新北市板橋區松柏街63號","121.476025","25.0305233333333","6500100","板橋區"
"220096","831-TW","2017/07/04 19:49:38","新北市板橋區民生路二段240巷17號","121.469","25.0232083333333","6500100","板橋區"
"220074","895-R6","2017/07/04 19:49:23","新北市板橋區大東街34號","121.456511666667","25.0087683333333","6500100","板橋區"
"220073","985-R7","2017/07/04 19:49:27","新北市板橋區大仁街27-2號","121.455466666667","25.01683","6500100","板橋區"
"220097","AAC-210","2017/07/04 19:49:37","新北市板橋區漢生西路89巷1弄1號","121.462103333333","25.0194166666667","6500100","板橋區"
"220070","AAC-253","2017/07/04 19:49:20","新北市板橋區民族路304號","121.47062","25.0067166666667","6500100","板橋區"
