"lineid","car","time","location","longitude","latitude","cityid","cityname"
"234046","148-BY","2017/07/04 20:19:28","新北市永和區永元路118號","121.522701666667","25.0026183333333","6500400","永和區"
"234013","149-BY","2017/07/04 20:19:27","新北市永和區仁愛路295號","121.505075","25.0090416666667","6500400","永和區"
"234007","207-UY","2017/07/04 20:19:24","新北市永和區保順路11號","121.504508333333","25.0097283333333","6500400","永和區"
"234081","298-R6","2017/07/04 20:19:26","新北市永和區永亨路83號","121.521951666667","25.0056666666667","6500400","永和區"
"234038","336-UY","2017/07/04 20:19:21","新北市永和區民樂街25巷6號","121.52829","25.00197","6500400","永和區"
"234064","337-UY","2017/07/04 20:19:36","新北市永和區得和路211號","121.519181666667","25.0002583333333","6500400","永和區"
"234086","338-UY","2017/07/04 20:19:37","新北市永和區中正路690號","121.516536666667","25.009605","6500400","永和區"
"234070","552-UM","2017/07/04 20:19:33","新北市永和區永亨路49號","121.520246666667","25.0065116666667","6500400","永和區"
"234054","553-UM","2017/07/04 20:19:34","新北市永和區光復街2巷13號","121.516893333333","25.0165783333333","6500400","永和區"
"234017","745-BX","2017/07/04 20:19:22","新北市永和區仁愛路60-1號","121.513375","25.0133133333333","6500400","永和區"
"234030","746-BX","2017/07/04 20:19:22","新北市永和區民族街81巷60號","121.520148333333","24.9965066666667","6500400","永和區"
"234061","AAD-866","2017/07/04 20:19:34","新北市中和區安平路222號","121.514103333333","24.9999566666667","6500400","永和區"
"234042","862-TW","2017/07/04 20:19:33","新北市永和區雙和街6巷2號","121.509935","25.0018066666667","6500400","永和區"
"234050","863-TW","2017/07/04 20:19:24","新北市永和區新生路47號","121.50897","25.0164383333333","6500400","永和區"
"234011","9373-KE","2017/07/04 20:19:37","新北市永和區仁愛路352巷112弄10號","121.501083333333","25.0085483333333","6500400","永和區"
"249005","172-UM","2017/07/04 20:19:30","新北市八里區下罟子4號","121.38771","25.14096","6502300","八里區"
"249001","173-UM","2017/07/04 20:19:26","新北市八里區中華路二段341-6號","121.399165","25.1448433333333","6502300","八里區"
"249004","303-UY","2017/07/04 20:19:24","新北市八里區中山路一段332號","121.412688333333","25.15902","6502300","八里區"
"249002","305-UY","2017/07/04 20:19:23","新北市八里區龍米路一段100巷17號","121.45381","25.1251316666667","6502300","八里區"
"249003","593-UM","2017/07/04 20:19:36","新北市八里區中山路二段447巷21號","121.397315","25.1453333333333","6502300","八里區"
"248016","026-BX","2017/07/04 20:19:23","新北市五股區天乙路34號","121.448496666667","25.1035116666667","6501500","五股區"
"248010","272-BY","2017/07/04 20:19:24","新北市泰山區新五路一段106-6號","121.440003333333","25.0621333333333","6501500","五股區"
"248004","677-BX","2017/07/04 20:19:19","新北市五股區成泰路一段194-2號","121.435663333333","25.0781416666667","6501500","五股區"
"248002","678-BX","2017/07/04 20:19:32","新北市五股區成泰路三段157號","121.445135","25.0916716666667","6501500","五股區"
"234023","9380-KE","2017/07/04 20:19:29","新北市永和區永和路二段276巷2弄1號","121.516433333333","25.01534","6500400","永和區"
"234077","969-R7","2017/07/04 20:19:33","新北市板橋區民生路一段87號","121.47476","25.0139983333333","6500400","永和區"
"234074","AAC-211","2017/07/04 20:19:28","新北市永和區豫溪街160巷1號","121.523265","25.00963","6500400","永和區"
"234067","AAC-212","2017/07/04 20:19:31","新北市永和區保平路214巷12弄1號","121.508983333333","25.0067766666667","6500400","永和區"
"234003","AAC-295","2017/07/04 20:17:08","新北市永和區自強街32巷2號","121.515805","25.007835","6500400","永和區"
"243013","AAD-798","2017/07/04 20:19:34","新北市泰山區新民路12號","121.426378333333","25.0445883333333","6501600","泰山區"
"243009","297-R6","2017/07/04 20:19:33","新北市泰山區福泰街65號","121.43392","25.0596583333333","6501600","泰山區"
"243015","380-SR","2017/07/04 20:19:22","新北市泰山區仁愛路79號","121.433186666667","25.0555116666667","6501600","泰山區"
"243014","421-VK","2017/07/04 20:19:34","新北市泰山區泰林路二段435號","121.426205","25.064065","6501600","泰山區"
"243010","548-UM","2017/07/04 20:19:24","新北市泰山區明志路二段254巷7號","121.426193333333","25.047755","6501600","泰山區"
"243011","549-UM","2017/07/04 20:19:30","新北市泰山區新北大道六段291巷2號","121.424486666667","25.03396","6501600","泰山區"
"243012","646-TV","2017/07/04 20:19:29","新北市泰山區楓江路53號","121.435745","25.0626516666667","6501600","泰山區"
"243016","680-BX","2017/07/04 20:19:33","新北市泰山區新生路22巷9號","121.429015","25.0446266666667","6501600","泰山區"
"222003","436-BY","2017/07/04 20:19:17","新北市深坑區文化街76號","121.618126666667","25.0019583333333","6501800","深坑區"
"222002","659-BX","2017/07/04 20:19:26","新北市深坑區萬福路75巷8-1號","121.599938333333","25.00963","6501800","深坑區"
"222001","696-SL","2017/07/04 20:19:25","新北市深坑區北深路三段213號","121.600305","25.0040216666667","6501800","深坑區"
"231041","002-UM","2017/07/04 20:19:34","新北市新店區民權路41號","121.540326666667","24.982855","6500600","新店區"
"231056","0291-UT","2017/07/04 20:19:18","新北市新店區中正路275巷6號","121.537453333333","24.9740033333333","6500600","新店區"
"231059","046-UY","2017/07/04 20:19:20","新北市新店區安德街134號","121.508563333333","24.960225","6500600","新店區"
"231060","106-UY","2017/07/04 20:19:17","新北市新店區錦秀路1-2號","121.479028333333","24.9455416666667","6500600","新店區"
"231051","107-UY","2017/07/04 20:19:23","新北市新店區中央六街53號","121.528166666667","24.9758183333333","6500600","新店區"
"231048","108-UY","2017/07/04 20:19:18","新北市新店區中興路三段250號","121.542925","24.9840516666667","6500600","新店區"
"231068","110-UY","2017/07/04 20:19:20","新北市新店區寶安街18號","121.542071666667","24.981905","6500600","新店區"
"231053","187-VK","2017/07/04 20:19:31","新北市新店區松林路2號","121.54672","24.9110233333333","6500600","新店區"
"231069","189-VK","2017/07/04 11:59:36","新北市新店區安華路28-1號","121.519633333333","24.9611416666667","6500600","新店區"
"231057","256-BX","2017/07/04 20:19:31","新北市新店區花園五路二段11號","121.554085","24.9343633333333","6500600","新店區"
"231063","268-BY","2017/07/04 20:19:20","新北市新店區車子路1-1號","121.504751666667","24.95782","6500600","新店區"
"231050","AAD-862","2017/07/04 20:19:27","新北市新店區北宜路一段30號","121.53827","24.9568233333333","6500600","新店區"
"231044","355-BY","2017/07/04 20:19:32","新北市新店區北新路三段137號","121.54113","24.98305","6500600","新店區"
"231058","3712-VJ","2017/07/04 20:19:33","新北市新店區安和路三段2-1號","121.518091666667","24.9800616666667","6500600","新店區"
"231055","3713-VJ","2017/07/04 20:19:17","新北市新店區新祥街6-1號","121.541378333333","24.9687433333333","6500600","新店區"
"231067","4772-VM","2017/07/04 20:19:24","新北市新店區溪洲路8巷38號","121.533393333333","24.9620833333333","6500600","新店區"
"231065","512-UM","2017/07/04 20:19:35","新北市新店區安祥路104巷6弄24號","121.482363333333","24.9622866666667","6500600","新店區"
"231054","513-UM","2017/07/04 20:19:24","新北市新店區檳榔路109號","121.544345","24.9617666666667","6500600","新店區"
"231064","515-UM","2017/07/04 20:19:22","新北市新店區安和路二段148號","121.519765","24.9730633333333","6500600","新店區"
"231042","616-UM","2017/07/04 20:19:27","新北市新店區中興路二段230號","121.547801666667","24.9751933333333","6500600","新店區"
"231045","617-UM","2017/07/04 20:19:19","新北市新店區五峰路145巷7號","121.545485","24.9648183333333","6500600","新店區"
"231061","618-UM","2017/07/04 20:19:18","新北市新店區安民街133巷26號","121.515385","24.96959","6500600","新店區"
"231040","619-UM","2017/07/04 20:19:23","新北市新店區中正路104號","121.543153333333","24.9705166666667","6500600","新店區"
"231049","719-UM","2017/07/04 20:19:15","新北市新店區北新路二段68號","121.54294","24.9724466666667","6500600","新店區"
"231062","720-UM","2017/07/04 20:19:18","新北市新店區安泰路7巷16號","121.485685","24.950965","6500600","新店區"
"231043","899-TW","2017/07/04 20:19:17","新北市新店區建國路133號","121.539355","24.97825","6500600","新店區"
"231066","AKT-0513","2017/07/04 20:19:30","新北市新店區安興路105號","121.514751666667","24.9777816666667","6500600","新店區"
"241028","022-UY","2017/07/04 20:19:36","新北市三重區大同南路103號","121.49621","25.058725","6500200","三重區"
"241008","059-VK","2017/07/04 20:19:30","新北市三重區永福街211巷5號","121.479698333333","25.0741383333333","6500200","三重區"
"241009","060-VK","2017/07/04 20:19:21","新北市三重區三和路四段382巷44號","121.481158333333","25.0784866666667","6500200","三重區"
"241031","061-VK","2017/07/04 20:19:26","新北市三重區三寧街22號","121.489485","25.059985","6500200","三重區"
"241015","062-VK","2017/07/04 20:19:20","新北市三重區重新路一段120號","121.500363333333","25.06302","6500200","三重區"
"241017","063-VK","2017/07/04 20:19:33","新北市三重區中正北路105號","121.48946","25.063265","6500200","三重區"
"241024","065-VK","2017/07/04 20:19:30","新北市三重區忠孝路三段15巷14號","121.48098","25.0676083333333","6500200","三重區"
"241026","066-VK","2017/07/04 20:19:34","新北市三重區重新路一段52號","121.502663333333","25.0637216666667","6500200","三重區"
"241002","090-VK","2017/07/04 20:19:20","新北市三重區仁義街167巷38弄4號","121.498681666667","25.0827966666667","6500200","三重區"
"241003","091-VK","2017/07/04 20:19:37","新北市三重區富華街49號","121.490881666667","25.0832983333333","6500200","三重區"
"241025","156-TC","2017/07/04 20:19:33","新北市三重區三民街222號","121.4801","25.0671783333333","6500200","三重區"
"241005","262-UM","2017/07/04 20:19:33","新北市三重區分子尾街111號","121.488595","25.0828783333333","6500200","三重區"
"241011","265-UM","2017/07/04 20:19:19","新北市三重區龍門路199號","121.499831666667","25.07331","6500200","三重區"
"241016","266-UM","2017/07/04 20:19:26","新北市三重區大同北路97-3號","121.49443","25.0635866666667","6500200","三重區"
"241022","267-UM","2017/07/04 20:19:28","新北市三重區市前街14號","121.489105","25.0623983333333","6500200","三重區"
"241018","268-UM","2017/07/04 20:19:32","新北市三重區自強路一段155-1號","121.493768333333","25.067235","6500200","三重區"
"241032","269-UM","2017/07/04 20:19:17","新北市三重區捷運路19巷6弄21號","121.484303333333","25.0567983333333","6500200","三重區"
"241013","270-UM","2017/07/04 20:19:15","新北市三重區三和路三段151巷36號","121.49321","25.0742","6500200","三重區"
"241007","398-BY","2017/07/04 20:19:38","新北市三重區溪尾街108巷48號","121.487488333333","25.07822","6500200","三重區"
"241020","413-TH","2017/07/04 20:19:33","新北市三重區後竹圍街2巷1弄1號","121.49182","25.0733866666667","6500200","三重區"
"241035","462-BY","2017/07/04 20:19:38","新北市三重區正義北路33巷52號","121.49909","25.06393","6500200","三重區"
"241004","475-VK","2017/07/04 20:19:17","新北市三重區仁愛街390號","121.490915","25.080835","6500200","三重區"
"241019","478-VK","2017/07/04 20:19:31","新北市三重區忠孝路一段75-1號","121.490603333333","25.0720683333333","6500200","三重區"
"241030","480-VK","2017/07/04 20:19:30","新北市三重區集美街89巷34號","121.488195","25.0524166666667","6500200","三重區"
"241014","543-UM","2017/07/04 20:19:27","新北市三重區龍門路244號","121.500843333333","25.0738083333333","6500200","三重區"
"241001","547-UM","2017/07/04 20:19:30","新北市三重區自強路四段3巷32號","121.48988","25.0764683333333","6500200","三重區"
"241006","AAD-863","2017/07/04 20:19:19","新北市三重區車路頭街135-1號","121.484231666667","25.076175","6500200","三重區"
"241023","887-TS","2017/07/04 20:19:18","新北市三重區頂崁街140號","121.47769","25.0651483333333","6500200","三重區"
"241012","941-UM","2017/07/04 20:19:20","新北市三重區河邊北街379-1號","121.501701666667","25.07644","6500200","三重區"
"241029","942-UM","2017/07/04 20:19:30","新北市三重區集美街225號","121.492016666667","25.0550766666667","6500200","三重區"
"241033","AAC-255","2017/07/04 20:19:18","新北市三重區五谷王北街50巷12號","121.475683333333","25.05136","6500200","三重區"
"235066","003-UY","2017/07/04 20:19:36","新北市中和區保平路336號","121.506736666667","25.0042533333333","6500300","中和區"
"235039","097-UM","2017/07/04 20:19:25","新北市中和區大勇街29巷6號","121.516113333333","24.9944166666667","6500300","中和區"
"235044","293-VK","2017/07/04 20:19:18","新北市中和區復興路311號","121.501198333333","24.99027","6500300","中和區"
"235072","301-VK","2017/07/04 20:19:31","新北市新店區安業街215巷12號","121.523075","24.9717033333333","6500300","中和區"
"235068","377-QA","2017/07/04 20:19:23","新北市中和區勝利路35巷1弄19號","121.499615","25.0077683333333","6500300","中和區"
"235050","4979-A6","2017/07/04 20:19:36","新北市中和區景平路464巷2弄3號","121.506168333333","24.994035","6500300","中和區"
"235069","4980-A6","2017/07/04 20:19:18","新北市中和區中正路434號","121.491271666667","24.99426","6500300","中和區"
"235070","558-UM","2017/07/04 19:52:59","新北市中和區景平路634-17號","121.49821","25.00014","6500300","中和區"
"235041","802-TS","2017/07/04 20:19:29","新北市中和區安平路38號","121.50993","24.99501","6500300","中和區"
"235037","AAC-213","2017/07/04 20:19:36","新北市中和區秀朗路三段128巷1弄1號","121.524726666667","24.992215","6500300","中和區"
"235059","AAC-215","2017/07/04 20:19:32","新北市中和區圓通路437-3號","121.485533333333","24.9869616666667","6500300","中和區"
"220065","072-UY","2017/07/04 20:19:12","新北市三重區後埔街61號","121.479628333333","25.0488816666667","6500100","板橋區"
"220069","AAD-861","2017/07/04 20:19:38","新北市板橋區大明街28號","121.458373333333","25.0026366666667","6500100","板橋區"
"247020","893-R6","2017/07/04 20:19:22","新北市蘆洲區水湳街395號","121.469438333333","25.094615","6501400","蘆洲區"
"247010","546-UM","2017/07/04 20:19:20","新北市蘆洲區信義路190號","121.479186666667","25.084405","6501400","蘆洲區"
"247018","500-BY","2017/07/04 20:19:30","新北市蘆洲區民族路350號","121.476433333333","25.0906733333333","6501400","蘆洲區"
"247008","339-TH","2017/07/04 20:19:18","新北市蘆洲區集賢路215號","121.483156666667","25.0870566666667","6501400","蘆洲區"
"247024","337-TH","2017/07/04 20:19:31","新北市蘆洲區長興路50巷1號","121.46375","25.0838316666667","6501400","蘆洲區"
"247002","336-TH","2017/07/04 20:19:20","新北市蘆洲區長安街313巷6弄12號","121.456913333333","25.08663","6501400","蘆洲區"
"247014","057-VK","2017/07/04 20:19:19","新北市蘆洲區中山一路243-1號","121.47338","25.0802983333333","6501400","蘆洲區"
"247004","056-VK","2017/07/04 20:19:30","新北市蘆洲區長安街220巷9號","121.459365","25.0850233333333","6501400","蘆洲區"
"247006","053-VK","2017/07/04 20:18:31","新北市蘆洲區九芎街153巷7號","121.465518333333","25.0788866666667","6501400","蘆洲區"
"247012","007-UY","2017/07/04 20:19:36","新北市蘆洲區民族路193號","121.478546666667","25.0890716666667","6501400","蘆洲區"
"247022","002-UY","2017/07/04 20:19:32","新北市蘆洲區民族路421號","121.468285","25.089255","6501400","蘆洲區"
"247016","001-UY","2017/07/04 20:19:32","新北市蘆洲區光華路150巷5號","121.465425","25.08248","6501400","蘆洲區"
"224011","420-VK","2017/07/04 20:19:23","新北市瑞芳區三爪子坑路49號","121.81293","25.1079883333333","6501200","瑞芳區"
"251001","011-UM","2017/07/04 20:19:31","新北市淡水區新市二路四段265號","121.445725","25.192475","6501000","淡水區"
"251014","180-VK","2017/07/04 20:19:23","新北市淡水區石頭厝3號","121.458673333333","25.2355366666667","6501000","淡水區"
"251008","181-VK","2017/07/04 20:19:18","新北市淡水區淡海路150巷16號","121.422348333333","25.1843166666667","6501000","淡水區"
"251010","413-VK","2017/07/04 20:19:22","新北市淡水區新民街一段132號","121.428005","25.1888833333333","6501000","淡水區"
"251012","441-VK","2017/07/04 20:19:17","新北市淡水區下圭柔山431-1號","121.449766666667","25.21022","6501000","淡水區"
"251016","442-VK","2017/07/04 20:19:28","新北市淡水區番子田25-6號","121.456128333333","25.2299","6501000","淡水區"
"251006","561-UM","2017/07/04 20:19:20","新北市淡水區北新路228號","121.45228","25.1802933333333","6501000","淡水區"
"251009","575-R6","2017/07/04 20:19:28","新北市淡水區中山路143-2號","121.440605","25.1720283333333","6501000","淡水區"
"251011","650-BX","2017/07/04 20:19:34","新北市淡水區下圭柔山90-8號","121.431201666667","25.2102333333333","6501000","淡水區"
"251002","672-BX","2017/07/04 20:19:30","新北市淡水區中正路230號","121.439141666667","25.1706266666667","6501000","淡水區"
"251003","766-UM","2017/07/04 20:19:27","新北市淡水區中山北路一段94號","121.442435","25.1763416666667","6501000","淡水區"
"207004","225-TW","2017/07/04 20:19:27","新北市萬里區北基里仁一街2號","121.682923333333","25.17574","6502800","萬里區"
"252002","178-VK","2017/07/04 20:19:30","新北市三芝區淡金路二段21號","121.502756666667","25.259565","6502100","三芝區"
"252001","702-TV","2017/07/04 20:19:25","新北市三芝區中山路一段14號","121.500705","25.2581466666667","6502100","三芝區"
"208002","170-UY","2017/07/04 20:19:27","新北市金山區磺清路121號","121.639555","25.2283133333333","6502700","金山區"
"237007","153-BY","2017/07/04 20:19:35","新北市三峽區二鬮路136巷20弄23號","121.356875","24.9101516666667","6500900","三峽區"
"237012","275-BY","2017/07/04 20:19:35","新北市三峽區中華路31號","121.372841666667","24.9312766666667","6500900","三峽區"
"237008","302-VK","2017/07/04 20:19:23","新北市三峽區中華路74-5號","121.371506666667","24.92914","6500900","三峽區"
"237006","5529-G3","2017/07/04 20:19:25","新北市三峽區大利路2號","121.36641","24.9116283333333","6500900","三峽區"
"237016","649-BX","2017/07/04 20:19:19","新北市三峽區介壽路二段167號","121.394725","24.9359116666667","6500900","三峽區"
"236070","105-UM","2017/07/04 20:19:24","新北市土城區大安路126號","121.433935","24.9698083333333","6501300","土城區"
"236079","166-UM","2017/07/04 20:19:16","新北市土城區德安街4巷1號","121.422191666667","24.9648516666667","6501300","土城區"
"236031","253-BX","2017/07/04 20:19:32","新北市土城區學成路128巷8弄1號","121.449491666667","24.9899083333333","6501300","土城區"
"236027","269-VK","2017/07/04 20:19:23","新北市土城區中央路一段249巷17號","121.445996666667","24.9855566666667","6501300","土城區"
"236015","270-VK","2017/07/04 20:19:35","新北市板橋區信義路54巷17弄45號","121.456126666667","24.9948283333333","6501300","土城區"
"236038","271-VK","2017/07/04 20:19:34","新北市土城區明德路一段107號","121.465613333333","24.9825066666667","6501300","土城區"
"236023","401-BY","2017/07/04 20:19:31","新北市土城區延吉街23巷39-1號","121.474776666667","24.9873033333333","6501300","土城區"
"236059","912-UM","2017/07/04 20:19:33","新北市土城區中央路三段32號","121.438571666667","24.9690333333333","6501300","土城區"
"236055","AAC-216","2017/07/04 20:19:32","新北市土城區中華路一段200號","121.440456666667","24.98116","6501300","土城區"
"242021","AAC-296","2017/07/04 20:19:22","新北市新莊區新泰路300號","121.445386666667","25.0409983333333","6500500","新莊區"
"242029","986-R7","2017/07/04 20:19:34","新北市新莊區中原路120號","121.45023","25.0543616666667","6500500","新莊區"
"242025","615-BX","2017/07/04 20:19:32","新北市新莊區五工二路70巷1號","121.460338333333","25.0658916666667","6500500","新莊區"
"242023","613-BX","2017/07/04 20:19:31","新北市新莊區化成路694號","121.465815","25.0563716666667","6500500","新莊區"
"242027","612-BX","2017/07/04 20:19:35","新北市新莊區幸福路568號","121.454341666667","25.0493583333333","6500500","新莊區"
"242037","566-BX","2017/07/04 20:19:19","新北市新莊區建安街76巷1弄8號","121.42619","25.024535","6500500","新莊區"
"242042","497-BY","2017/07/04 20:19:19","新北市新莊區天祥街120巷2號","121.414765","25.030075","6500500","新莊區"
"242013","442-UM","2017/07/04 20:19:18","新北市新莊區中和街188號","121.447493333333","25.0498916666667","6500500","新莊區"
"242046","441-UM","2017/07/04 20:19:35","新北市新莊區中正路新生巷23號","121.41689","25.0236133333333","6500500","新莊區"
"242051","440-UM","2017/07/04 20:19:21","新北市新莊區民安西路232號","121.425778333333","25.0143133333333","6500500","新莊區"
"242032","415-TV","2017/07/04 20:19:22","新北市新莊區中正路508巷146號","121.438408333333","25.0354083333333","6500500","新莊區"
"242002","413-TV","2017/07/04 20:19:30","新北市新莊區化成路1號","121.46452","25.0416983333333","6500500","新莊區"
"242039","400-BY","2017/07/04 20:19:31","新北市新莊區八德街133巷9號","121.424658333333","25.0200183333333","6500500","新莊區"
"242061","362-BY","2017/07/04 20:19:18","新北市新莊區新樹路172-13號","121.434548333333","25.0216283333333","6500500","新莊區"
"242058","353-BY","2017/07/04 20:19:25","新北市新莊區龍安路278巷5號","121.422161666667","25.0188833333333","6500500","新莊區"
"242011","132-UY","2017/07/04 20:19:18","新北市新莊區中信街21號","121.45101","25.0507166666667","6500500","新莊區"
"242019","135-UY","2017/07/04 20:19:32","新北市新莊區復興路二段185號","121.45904","25.04451","6500500","新莊區"
"242044","172-VK","2017/07/04 20:19:36","新北市新莊區中正路895-26號","121.412263333333","25.02192","6500500","新莊區"
"242007","173-VK","2017/07/04 20:18:45","新北市新莊區福壽街94巷15號","121.459115","25.050205","6500500","新莊區"
"242056","176-VK","2017/07/04 20:19:25","新北市新莊區豐年街30號","121.446235","25.03239","6500500","新莊區"
"242005","346-TH","2017/07/04 20:19:24","新北市新莊區頭興街24號","121.464756666667","25.05358","6500500","新莊區"
"242017","348-TH","2017/07/04 20:19:27","新北市新莊區中港一街134號","121.448145","25.0451266666667","6500500","新莊區"
"242054","349-TH","2017/07/04 20:19:26","新北市新莊區西盛街397號","121.427848333333","25.01284","6500500","新莊區"
"242015","350-TH","2017/07/04 20:19:32","新北市新莊區中和街31巷18號","121.447438333333","25.0439766666667","6500500","新莊區"
"242009","351-TH","2017/07/04 20:19:28","新北市新莊區昌盛街79號","121.455401666667","25.0500566666667","6500500","新莊區"
"238023","601-UM","2017/07/04 20:19:30","新北市樹林區中山路三段210-2號","121.381483333333","24.965575","6500700","樹林區"
"238021","311-TH","2017/07/04 19:47:21","新北市樹林區佳園路三段181巷50號","121.388791666667","24.9472983333333","6500700","樹林區"
"221008","489-VK","2017/07/04 20:19:25","新北市汐止區康寧街379號","121.628801666667","25.067715","6501100","汐止區"
"221036","130-UY","2017/07/04 20:19:19","新北市汐止區仁愛路152巷31號","121.664898333333","25.0637783333333","6501100","汐止區"
"221015","131-UY","2017/07/04 20:19:35","新北市汐止區建成路142巷19弄7號","121.662088333333","25.07389","6501100","汐止區"
"221010","269-BY","2017/07/04 20:19:25","新北市汐止區八連路二段439號","121.628463333333","25.1039216666667","6501100","汐止區"
"221010","276-VK","2017/07/04 13:14:01","新北市汐止區汐萬路一段256巷3號","121.653465","25.07458","6501100","汐止區"
"221031","277-VK","2017/07/04 00:07:07","新北市汐止區汐萬路一段256巷3號","121.65256","25.0746116666667","6501100","汐止區"
"221012","278-VK","2017/07/04 20:19:30","新北市汐止區保新街158號","121.689453333333","25.0682033333333","6501100","汐止區"
"221023","279-VK","2017/07/04 20:19:05","新北市汐止區湖東街5巷2號","121.633218333333","25.0725266666667","6501100","汐止區"
"221032","280-BY","2017/07/04 20:19:30","新北市汐止區民權街二段46號","121.619413333333","25.04917","6501100","汐止區"
"221027","281-BY","2017/07/04 20:19:34","新北市汐止區禮門街4號","121.656803333333","25.06749","6501100","汐止區"
"221010","297-VK","2017/07/04 20:19:24","新北市汐止區忠孝東路510號","121.666795","25.0754033333333","6501100","汐止區"
"221029","298-VK","2017/07/04 20:19:35","新北市汐止區樟樹一路99巷7弄3號","121.641263333333","25.0635366666667","6501100","汐止區"
"221021","299-VK","2017/07/04 19:41:03","新北市汐止區南興路42號","121.652451666667","25.06045","6501100","汐止區"
"221035","622-UM","2017/07/04 20:19:34","新北市汐止區長江街101-5號","121.658706666667","25.0732116666667","6501100","汐止區"
"221025","623-UM","2017/07/04 20:19:28","新北市汐止區水源路二段74號","121.655998333333","25.0565","6501100","汐止區"
"221033","647-BX","2017/07/04 20:19:20","新北市汐止區東勢街215巷16號","121.635013333333","25.0433616666667","6501100","汐止區"
"221002","707-TV","2017/07/04 20:19:35","新北市汐止區福德三路69號","121.636713333333","25.0693316666667","6501100","汐止區"
"221018","753-BX","2017/07/04 20:19:28","新北市汐止區茄安路14號","121.673103333333","25.0678983333333","6501100","汐止區"
"220094","283-UM","2017/07/04 20:19:26","新北市板橋區大觀路一段1-1號","121.45093","25.0085083333333","6500100","板橋區"
"220071","283-VK","2017/07/04 20:19:16","新北市板橋區廣權路131號","121.465585","24.99332","6500100","板橋區"
"220101","285-UM","2017/07/04 20:19:31","新北市板橋區雙十路一段44巷36號","121.477458333333","25.0249133333333","6500100","板橋區"
"220083","286-VK","2017/07/04 20:19:27","新北市板橋區僑中二街90巷20號","121.445298333333","25.0093233333333","6500100","板橋區"
"220081","287-VK","2017/07/04 20:19:27","新北市板橋區僑中一街102巷5弄2號","121.446731666667","25.0126716666667","6500100","板橋區"
"220061","295-UM","2017/07/04 20:19:28","新北市板橋區館前東路3號","121.459663333333","25.007365","6500100","板橋區"
"220092","299-UM","2017/07/04 20:19:23","新北市板橋區民權路174號","121.459575","25.0133316666667","6500100","板橋區"
"220098","317-R6","2017/07/04 20:19:21","新北市板橋區溪頭街163-1號","121.461688333333","25.0322316666667","6500100","板橋區"
"220080","461-BY","2017/07/04 20:19:37","新北市板橋區大觀路二段力行2巷65號","121.445931666667","24.9989733333333","6500100","板橋區"
"220089","487-VK","2017/07/04 20:19:24","新北市板橋區互助街5號","121.463203333333","25.0276166666667","6500100","板橋區"
"220103","561-BX","2017/07/04 20:19:35","新北市板橋區陽明街279巷4-4號","121.4618","25.026045","6500100","板橋區"
"220055","827-TW","2017/07/04 20:19:35","新北市板橋區仁愛路62巷15弄1號","121.460025","24.9986333333333","6500100","板橋區"
"220102","830-TW","2017/07/04 20:19:29","新北市板橋區漢生東路83巷14號","121.467661666667","25.0161133333333","6500100","板橋區"
"220074","895-R6","2017/07/04 20:19:23","新北市板橋區府中路30號","121.45918","25.0095216666667","6500100","板橋區"
"220097","AAC-210","2017/07/04 20:19:19","新北市板橋區光正街11號","121.462815","25.0170466666667","6500100","板橋區"
"220070","AAC-253","2017/07/04 20:19:20","新北市板橋區四川路二段245巷93號","121.452856666667","24.993145","6500100","板橋區"
