"lineid","car","time","location","longitude","latitude","cityid","cityname"
"234077","969-R7","2017/07/04 21:19:33","新北市中和區永和路215號","121.4908","25.008895","6500400","永和區"
"243001","297-R6","2017/07/04 21:16:27","新北市泰山區黎明路31號","121.42145","25.0608566666667","6501600","泰山區"
"231059","046-UY","2017/07/04 21:19:20","新北市新店區安豐路45號","121.500236666667","24.95514","6500600","新店區"
"231051","107-UY","2017/07/04 21:19:23","新北市新店區中正路618巷7弄4號","121.534721666667","24.9892516666667","6500600","新店區"
"231048","108-UY","2017/07/04 21:19:18","新北市新店區安和路三段4巷3號","121.519145","24.9809766666667","6500600","新店區"
"231069","189-VK","2017/07/04 11:59:36","新北市新店區安華路28-1號","121.519633333333","24.9611416666667","6500600","新店區"
"231063","268-BY","2017/07/04 21:19:20","新北市新店區玫瑰路57巷34號","121.496865","24.946285","6500600","新店區"
"231050","AAD-862","2017/07/04 21:19:27","新北市新店區中華路83巷4弄10號","121.538613333333","24.96848","6500600","新店區"
"231067","4772-VM","2017/07/04 21:19:24","新北市新店區安康路二段316號","121.505198333333","24.9581216666667","6500600","新店區"
"231061","618-UM","2017/07/04 21:19:18","新北市新店區安德街60巷35號","121.510906666667","24.96376","6500600","新店區"
"231040","619-UM","2017/07/04 21:19:23","新北市新店區光明街314號","121.540551666667","24.9650883333333","6500600","新店區"
"241028","022-UY","2017/07/04 21:19:36","新北市三重區正義南路169號","121.498856666667","25.05747","6500200","三重區"
"241008","059-VK","2017/07/04 21:19:30","新北市三重區自強路一段62號","121.497295","25.06664","6500200","三重區"
"241009","060-VK","2017/07/04 21:19:21","新北市三重區忠孝路三段1號","121.481805","25.0675783333333","6500200","三重區"
"241031","061-VK","2017/07/04 21:19:26","新北市三重區重新路五段408巷19號","121.475728333333","25.045555","6500200","三重區"
"241017","063-VK","2017/07/04 21:19:33","新北市三重區中正北路25巷25弄3號","121.493266666667","25.0626133333333","6500200","三重區"
"241024","065-VK","2017/07/04 21:19:30","新北市三重區中正北路145巷8弄2號","121.484073333333","25.0677816666667","6500200","三重區"
"241026","066-VK","2017/07/04 21:19:24","新北市三重區大同南路218號","121.496768333333","25.0562416666667","6500200","三重區"
"241002","090-VK","2017/07/04 21:19:20","新北市三重區五華街19號","121.494888333333","25.0804133333333","6500200","三重區"
"241003","091-VK","2017/07/04 21:19:31","新北市三重區仁義街331-1號","121.49511","25.084615","6500200","三重區"
"241025","156-TC","2017/07/04 21:19:33","新北市三重區忠孝路三段40巷22弄13號","121.482748333333","25.0665933333333","6500200","三重區"
"241005","262-UM","2017/07/04 21:19:33","新北市三重區三信路186號","121.487918333333","25.08612","6500200","三重區"
"241011","265-UM","2017/07/04 21:19:19","新北市三重區龍濱路197號","121.501855","25.07144","6500200","三重區"
"241016","266-UM","2017/07/04 21:19:26","新北市三重區自強路一段95號","121.4959","25.0663033333333","6500200","三重區"
"241018","268-UM","2017/07/04 21:19:32","新北市三重區忠孝路一段183號","121.487228333333","25.0715983333333","6500200","三重區"
"241032","269-UM","2017/07/04 21:19:16","新北市三重區光復路二段56號","121.471948333333","25.0559533333333","6500200","三重區"
"241013","270-UM","2017/07/04 21:19:35","新北市三重區仁愛街83號","121.495848333333","25.0732216666667","6500200","三重區"
"241007","398-BY","2017/07/04 21:19:17","新北市三重區自強路三段76巷34號","121.484403333333","25.0736033333333","6500200","三重區"
"241020","413-TH","2017/07/04 21:19:33","新北市三重區忠孝路三段13號","121.481696666667","25.0673583333333","6500200","三重區"
"241004","475-VK","2017/07/04 21:19:36","新北市三重區碧華街213號","121.488743333333","25.0826483333333","6500200","三重區"
"241019","478-VK","2017/07/04 21:19:31","新北市三重區重陽路三段7-3號","121.489131666667","25.0666233333333","6500200","三重區"
"241030","480-VK","2017/07/04 21:19:30","新北市三重區五谷王北街61-1號","121.475826666667","25.0497916666667","6500200","三重區"
"241014","543-UM","2017/07/04 21:19:28","新北市三重區介壽路39巷13號","121.499248333333","25.0699366666667","6500200","三重區"
"241001","547-UM","2017/07/04 21:19:30","新北市三重區福隆路117號","121.492755","25.078535","6500200","三重區"
"241006","AAD-863","2017/07/04 21:19:19","新北市三重區重陽路二段67號","121.487705","25.0638633333333","6500200","三重區"
"241023","887-TS","2017/07/04 21:19:18","新北市三重區中正北路176巷27號","121.482585","25.065945","6500200","三重區"
"241012","941-UM","2017/07/04 21:19:20","新北市三重區龍門路284號","121.501985","25.074075","6500200","三重區"
"241033","AAC-255","2017/07/04 21:19:18","新北市三重區光復路二段102巷49號","121.469768333333","25.0585433333333","6500200","三重區"
"220069","AAD-861","2017/07/04 21:19:17","新北市八里區中山路三段409號","121.3684","25.13518","6500100","板橋區"
"247020","893-R6","2017/07/04 21:19:21","新北市蘆洲區復興路323巷368號","121.474008333333","25.0939866666667","6501400","蘆洲區"
"247010","546-UM","2017/07/04 21:19:21","新北市蘆洲區鷺江街19號","121.478975","25.082485","6501400","蘆洲區"
"247018","500-BY","2017/07/04 21:19:28","新北市蘆洲區復興路105巷11號","121.476375","25.0883283333333","6501400","蘆洲區"
"247008","339-TH","2017/07/04 21:19:18","新北市蘆洲區信義路75巷2號","121.476398333333","25.0797816666667","6501400","蘆洲區"
"247024","337-TH","2017/07/04 21:19:31","新北市蘆洲區光明路108號","121.46354","25.0880783333333","6501400","蘆洲區"
"247002","336-TH","2017/07/04 21:19:20","新北市蘆洲區永樂街38巷40號","121.458516666667","25.0900616666667","6501400","蘆洲區"
"247014","057-VK","2017/07/04 21:19:19","新北市蘆洲區保和街31號","121.47055","25.086375","6501400","蘆洲區"
"247004","056-VK","2017/07/04 21:19:30","新北市蘆洲區永安南路二段324號","121.45689","25.082785","6501400","蘆洲區"
"247006","053-VK","2017/07/04 21:19:11","新北市蘆洲區長安街63號","121.462905","25.079845","6501400","蘆洲區"
"247012","007-UY","2017/07/04 21:19:36","新北市蘆洲區中興街113號","121.48225","25.0888966666667","6501400","蘆洲區"
"247022","002-UY","2017/07/04 21:19:32","新北市蘆洲區三民路247號","121.468826666667","25.0891166666667","6501400","蘆洲區"
"247016","001-UY","2017/07/04 21:19:32","新北市蘆洲區中正路185巷31弄3號","121.46645","25.0842283333333","6501400","蘆洲區"
"224011","420-VK","2017/07/04 20:23:32","新北市瑞芳區明燈路二段66號","121.809343333333","25.107605","6501200","瑞芳區"
"251004","009-UM","2017/07/04 21:19:18","新北市淡水區民族路33號","121.462251666667","25.135875","6501000","淡水區"
"251001","011-UM","2017/07/04 21:19:31","新北市淡水區中山北路二段186號","121.444316666667","25.185255","6501000","淡水區"
"251014","180-VK","2017/07/04 21:19:22","新北市淡水區六塊厝3-2號","121.450473333333","25.2406033333333","6501000","淡水區"
"251008","181-VK","2017/07/04 21:19:18","新北市淡水區水源街二段222號","121.460096666667","25.176475","6501000","淡水區"
"251005","182-VK","2017/07/04 21:19:28","新北市淡水區仁愛街18巷10號","121.447036666667","25.170345","6501000","淡水區"
"251010","413-VK","2017/07/04 21:19:22","新北市淡水區中正路一段156巷51號","121.42183","25.1808716666667","6501000","淡水區"
"251012","441-VK","2017/07/04 21:19:17","新北市淡水區石頭埔8號","121.452635","25.2345433333333","6501000","淡水區"
"251016","442-VK","2017/07/04 21:19:28","新北市淡水區前洲子1號","121.445855","25.2178783333333","6501000","淡水區"
"251009","575-R6","2017/07/04 21:19:28","新北市淡水區民族路33號","121.462273333333","25.1357133333333","6501000","淡水區"
"251011","650-BX","2017/07/04 21:19:34","新北市淡水區新民街152巷6弄22號","121.438848333333","25.1787733333333","6501000","淡水區"
"251002","672-BX","2017/07/04 21:19:34","新北市淡水區學府路172巷21號","121.448226666667","25.1750566666667","6501000","淡水區"
"251003","766-UM","2017/07/04 21:19:17","新北市淡水區崁頂15-5號","121.43899","25.1858733333333","6501000","淡水區"
"242002","413-TV","2017/07/04 21:19:23","新北市樹林區中山路三段210-2號","121.380605","24.9676283333333","6500500","新莊區"
"242034","133-UY","2017/07/04 21:19:34","新北市樹林區八德街247巷24-1號","121.420478333333","24.9735883333333","6500500","新莊區"
"242054","349-TH","2017/07/04 21:19:26","新北市樹林區八德街67號","121.399698333333","24.9692916666667","6500500","新莊區"
"221010","276-VK","2017/07/04 13:14:01","新北市汐止區汐萬路一段256巷3號","121.653465","25.07458","6501100","汐止區"
"220098","317-R6","2017/07/04 21:19:22","新北市板橋區長江路3段1巷15弄1-1號","121.47344","25.0369233333333","6500100","板橋區"
"220080","461-BY","2017/07/04 21:19:37","新北市五股區新五路二段251號","121.442645","25.085475","6500100","板橋區"
"220070","AAC-253","2017/07/04 21:19:20","新北市林口區汕頭32號","121.366568333333","25.1349166666667","6500100","板橋區"
