"lineid","car","time","location","longitude","latitude","cityid","cityname"
"248005","653-BX","2017/11/13 08:09:22","新北市五股區明德路12巷16號","121.433293333333","25.0718616666667","6501500","五股區"
"232001","290-BY","2017/11/13 08:08:39","新北市坪林區坪雙路一段100號","121.722765","24.9463333333333","6502000","坪林區"
"232012","291-BY","2017/11/13 08:09:13","新北市坪林區九芎根4號","121.665878333333","24.8838533333333","6502000","坪林區"
"232017","705-BZ","2017/11/13 08:09:13","新北市坪林區坪雙路二段166號","121.76952","24.961315","6502000","坪林區"
"232005","758-BX","2017/11/13 08:09:30","新北市坪林區鶯子瀨2-3號","121.707035","24.91556","6502000","坪林區"
"244012","069-UM","2017/11/13 08:09:18","新北市林口區粉寮路二段46-1號","121.403543333333","25.08698","6501700","林口區"
"244018","403-UM","2017/11/13 08:09:29","新北市林口區仁愛路二段82號","121.384168333333","25.07523","6501700","林口區"
"244024","742-UY","2017/11/13 08:09:21","新北市林口區中山路496號","121.379665","25.0826133333333","6501700","林口區"
"244008","410-SL","2017/11/13 08:09:21","新北市林口區中北一街81號","121.385705","25.08882","6501700","林口區"
"244022","483-VK","2017/11/13 08:09:18","新北市林口區仁愛路一段619號","121.389853333333","25.0766266666667","6501700","林口區"
"244016","485-VK","2017/11/13 08:09:18","新北市林口區中山路319號","121.383476666667","25.0806316666667","6501700","林口區"
"244001","657-BX","2017/11/13 08:09:12","新北市林口區頂福里8鄰68號","121.332455","25.1020166666667","6501700","林口區"
"244010","701-TV","2017/11/13 08:09:14","新北市林口區仁愛路一段356號","121.390416666667","25.0765833333333","6501700","林口區"
"244020","838-TS","2017/11/13 08:09:16","新北市林口區粉寮路二段288-1號","121.405023333333","25.0958883333333","6501700","林口區"
"222005","289-BY","2017/11/13 08:09:20","新北市深坑區北深路二段123巷17號","121.616588333333","25.0029316666667","6501800","深坑區"
"231007","188-VK","2017/11/13 08:09:29","新北市新店區華潭街31號","121.530051666667","24.9548083333333","6500600","新店區"
"231008","192-VK","2017/11/13 08:09:24","新北市新店區新烏路一段60號","121.546078333333","24.9482116666667","6500600","新店區"
"226005","5620-A6","2017/11/13 08:05:06","新北市平溪區嶺腳里嶺腳寮83-2號","121.75021","25.034955","6502400","平溪區"
"226001","7418-A5","2017/11/13 08:09:11","新北市平溪區望古里灰3號","121.758868333333","25.0305716666667","6502400","平溪區"
"226003","AGD-0702","2017/11/13 08:09:18","新北市平溪區嶺腳里嶺腳寮89號","121.747461666667","25.0349933333333","6502400","平溪區"
"223006","022-BY","2017/11/13 08:09:29","新北市石碇區靜安路一段197號","121.67267","25.00827","6501900","石碇區"
"223002","198-BX","2017/11/13 08:09:32","新北市石碇區北宜路五段80號","121.646583333333","24.9518283333333","6501900","石碇區"
"223001","205-TH","2017/11/13 08:08:46","新北市石碇區月扇湖1號","121.657596666667","24.9554533333333","6501900","石碇區"
"223008","406-TH","2017/11/13 08:09:28","新北市石碇區靜安路一段243號","121.686876666667","25.0105516666667","6501900","石碇區"
"223001","592-UM","2017/11/13 08:09:11","新北市石碇區月扇湖1號","121.65587","24.9545","6501900","石碇區"
"223004","660-BX","2017/11/13 08:09:30","新北市石碇區外按8號","121.651428333333","24.99669","6501900","石碇區"
"223005","677-TV","2017/11/13 08:09:18","新北市石碇區外按6-1號","121.648675","24.9952833333333","6501900","石碇區"
"227005","282-VK","2017/11/13 08:09:18","新北市雙溪區上林里內平林120-10號","121.823945","25.0259983333333","6502500","雙溪區"
"253003","6232-TK","2017/11/13 08:06:17","新北市石門區石崩山1號","121.563921666667","25.2855366666667","6502200","石門區"
"253001","6251-TK","2017/11/13 08:09:30","新北市石門區老梅路43-2號","121.545358333333","25.289585","6502200","石門區"
"253002","637-UY","2017/11/13 08:09:18","新北市石門區老崩山35號","121.556663333333","25.276455","6502200","石門區"
"253004","8270-PC","2017/11/13 08:09:15","新北市石門區小坑12號","121.591483333333","25.2903166666667","6502200","石門區"
"252006","073-UM","2017/11/13 08:09:07","新北市三芝區海景一街48號","121.475208333333","25.2471616666667","6502100","三芝區"
"252004","249-BX","2017/11/13 08:09:20","新北市三芝區興華里車埕15-4號","121.504241666667","25.1947016666667","6502100","三芝區"
"237001","159-UY","2017/11/13 08:09:21","新北市三峽區三樹路100號","121.378131666667","24.938885","6500900","三峽區"
"236007","165-UM","2017/11/13 08:09:19","新北市土城區青雲路322巷12號","121.457483333333","24.9766333333333","6501300","土城區"
"236001","339-SR","2017/11/13 08:09:18","新北市土城區龍泉路72號","121.42717","24.94189","6501300","土城區"
"236005","498-BY","2017/11/13 08:09:26","新北市土城區永平街51號","121.427546666667","24.9590566666667","6501300","土城區"
"242030","AAC-296","2017/11/13 08:09:27","新北市新莊區新泰路329號","121.444793333333","25.041575","6500500","新莊區"
"242028","986-R7","2017/11/13 08:09:27","新北市新莊區復興路一段153號","121.450568333333","25.043275","6500500","新莊區"
"242049","751-BX","2017/11/13 08:09:13","新北市新莊區西盛街266號","121.428021666667","25.0156916666667","6500500","新莊區"
"242024","615-BX","2017/11/13 08:09:24","新北市新莊區思源路118號","121.460073333333","25.0469083333333","6500500","新莊區"
"242022","613-BX","2017/11/13 08:09:11","新北市新莊區中港路132巷26號","121.456445","25.0406266666667","6500500","新莊區"
"242026","612-BX","2017/11/13 08:09:25","新北市新莊區福壽街95號","121.458038333333","25.05044","6500500","新莊區"
"242038","566-BX","2017/11/13 08:09:18","新北市新莊區民安路322號","121.428958333333","25.021885","6500500","新莊區"
"242043","497-BY","2017/11/13 08:09:16","新北市新莊區富國路65巷10號","121.41993","25.0264933333333","6500500","新莊區"
"242003","442-UM","2017/11/13 08:09:27","新北市新莊區自立街200號","121.45671","25.0454883333333","6500500","新莊區"
"242047","441-UM","2017/11/13 08:09:22","新北市新莊區萬安街151號","121.420323333333","25.0215716666667","6500500","新莊區"
"242052","440-UM","2017/11/13 08:09:26","新北市樹林區樹新路120巷16號","121.430493333333","24.9969216666667","6500500","新莊區"
"242033","415-TV","2017/11/13 08:09:24","新北市新莊區新莊路540號","121.445393333333","25.0328783333333","6500500","新莊區"
"242040","400-BY","2017/11/13 08:09:25","新北市泰山區貴陽街88號","121.424353333333","25.03167","6500500","新莊區"
"242059","362-BY","2017/11/13 08:09:23","新北市新莊區瓊林南路118-12號","121.434566666667","25.00885","6500500","新莊區"
"242057","353-BY","2017/11/13 08:09:25","新北市新莊區中正路730-5號","121.414808333333","25.0235983333333","6500500","新莊區"
"242006","132-UY","2017/11/13 08:09:18","新北市新莊區福樂街63號","121.45734","25.047675","6500500","新莊區"
"242035","133-UY","2017/11/13 08:09:31","新北市新莊區建福路59巷46號","121.428866666667","25.0277366666667","6500500","新莊區"
"242045","172-VK","2017/11/13 08:09:25","新北市新莊區福營路103號","121.434003333333","25.03229","6500500","新莊區"
"242008","173-VK","2017/11/13 08:08:52","新北市新莊區福壽街163號","121.457791666667","25.0536833333333","6500500","新莊區"
"242014","175-VK","2017/11/13 08:09:13","新北市新莊區新泰路406巷2弄1號","121.444375","25.04391","6500500","新莊區"
"242001","176-VK","2017/11/13 08:09:28","新北市新莊區新莊路354號","121.449901666667","25.03354","6500500","新莊區"
"242001","233-RS","2017/11/13 05:33:24","新北市新莊區環河路48-7號","121.436861666667","25.0096466666667","6500500","新莊區"
"242012","346-TH","2017/11/13 08:09:15","新北市新莊區中誠街120號","121.449335","25.0476483333333","6500500","新莊區"
"242018","348-TH","2017/11/13 08:09:21","新北市新莊區中港路209號","121.45472","25.0420533333333","6500500","新莊區"
"242055","349-TH","2017/11/13 08:09:18","新北市新莊區新莊路543巷9弄28號","121.448316666667","25.031965","6500500","新莊區"
"242016","350-TH","2017/11/13 08:09:16","新北市新莊區復興路一段149巷2號","121.450416666667","25.043465","6500500","新莊區"
"242010","351-TH","2017/11/13 08:09:27","新北市新莊區中港路645號","121.450906666667","25.0548533333333","6500500","新莊區"
"220064","282-UM","2017/11/13 08:09:14","新北市新莊區新泰路502巷2號","121.44233","25.0467983333333","6500100","板橋區"
"242020","280-VK","2017/11/13 08:09:31","新北市新莊區中華路一段126號","121.452461666667","25.0409016666667","6500500","新莊區"
