"lineid","car","time","location","longitude","latitude","cityid","cityname"
"248005","653-BX","2017/11/13 08:39:22","新北市五股區水碓路5巷1號","121.433445","25.0720466666667","6501500","五股區"
"232001","290-BY","2017/11/13 08:39:19","新北市坪林區九芎坑15號","121.736733333333","24.9498633333333","6502000","坪林區"
"232012","291-BY","2017/11/13 08:39:27","新北市坪林區金瓜寮24-2號","121.680591666667","24.9086283333333","6502000","坪林區"
"232017","705-BZ","2017/11/13 08:25:13","新北市坪林區柑腳坑15號","121.77319","24.9471016666667","6502000","坪林區"
"232005","758-BX","2017/11/13 08:39:30","新北市坪林區石6號","121.70959","24.9084","6502000","坪林區"
"244012","069-UM","2017/11/13 08:39:18","新北市林口區中山路27號","121.395423333333","25.078295","6501700","林口區"
"244006","080-UY","2017/11/13 08:39:24","新北市林口區中湖43-5號","121.381833333333","25.092365","6501700","林口區"
"244018","403-UM","2017/11/13 08:39:30","新北市林口區公園路120號","121.370356666667","25.0712433333333","6501700","林口區"
"244024","742-UY","2017/11/13 08:39:26","新北市林口區南勢六街51號","121.355903333333","25.071605","6501700","林口區"
"244008","410-SL","2017/11/13 08:39:21","新北市林口區竹林路578號","121.386431666667","25.0831866666667","6501700","林口區"
"244022","483-VK","2017/11/13 08:39:18","新北市林口區興林路152巷22號","121.387863333333","25.0715716666667","6501700","林口區"
"244016","485-VK","2017/11/13 08:39:18","新北市林口區八德路20巷3號","121.367878333333","25.067535","6501700","林口區"
"244001","657-BX","2017/11/13 08:39:12","新北市林口區嘉寶里15鄰43-1號","121.341531666667","25.1080733333333","6501700","林口區"
"244010","701-TV","2017/11/13 08:39:14","新北市林口區中山路7號","121.396433333333","25.0781883333333","6501700","林口區"
"244020","838-TS","2017/11/13 08:39:16","新北市林口區自強一街48號","121.399228333333","25.0773883333333","6501700","林口區"
"222005","289-BY","2017/11/13 08:39:20","新北市深坑區深南路117號","121.625103333333","25.01684","6501800","深坑區"
"231007","188-VK","2017/11/13 08:39:29","新北市新店區新潭路二段112號","121.514598333333","24.9246116666667","6500600","新店區"
"231008","192-VK","2017/11/13 08:39:24","新北市新店區新烏路三段350號","121.545953333333","24.8947316666667","6500600","新店區"
"226005","5620-A6","2017/11/13 08:39:26","新北市平溪區南山里六分1號","121.791963333333","25.048085","6502400","平溪區"
"226001","7418-A5","2017/11/13 08:38:10","新北市平溪區東勢里番仔坑17號","121.751868333333","24.989715","6502400","平溪區"
"226003","AGD-0702","2017/11/13 08:39:18","新北市平溪區十分里十分街45號","121.774538333333","25.04077","6502400","平溪區"
"223006","022-BY","2017/11/13 08:39:29","新北市深坑區昇高坑路51-1號","121.630526666667","24.9941316666667","6501900","石碇區"
"223002","198-BX","2017/11/13 08:39:11","新北市石碇區楓子林68號","121.643726666667","25.00979","6501900","石碇區"
"223001","205-TH","2017/11/13 08:39:26","新北市石碇區北宜路六段直潭巷6號","121.658773333333","24.9350866666667","6501900","石碇區"
"223008","406-TH","2017/11/13 08:39:28","新北市石碇區十八重溪69號","121.673361666667","25.0146283333333","6501900","石碇區"
"223001","592-UM","2017/11/13 08:39:31","新北市石碇區北宜路六段直潭巷8號","121.660408333333","24.9350833333333","6501900","石碇區"
"223004","660-BX","2017/11/13 08:39:30","新北市石碇區崩山27號","121.676818333333","24.966205","6501900","石碇區"
"223005","677-TV","2017/11/13 08:39:12","新北市石碇區崩山29號","121.676693333333","24.9665683333333","6501900","石碇區"
"227005","282-VK","2017/11/13 08:39:18","新北市雙溪區泰平里泰平10號","121.845681666667","24.9854466666667","6502500","雙溪區"
"253003","6232-TK","2017/11/13 08:39:17","新北市石門區內石門102號","121.568175","25.275205","6502200","石門區"
"253001","6251-TK","2017/11/13 08:39:30","新北市三芝區新庄里新庄子51-17號","121.507611666667","25.2777633333333","6502200","石門區"
"253002","637-UY","2017/11/13 08:39:18","新北市石門區內石門80號","121.565958333333","25.2611433333333","6502200","石門區"
"253004","8270-PC","2017/11/13 08:39:15","新北市石門區竹子湖11號","121.61803","25.2577483333333","6502200","石門區"
"252006","073-UM","2017/11/13 08:39:27","新北市三芝區後厝里北勢子7-10號","121.47772","25.254165","6502100","三芝區"
"252004","249-BX","2017/11/13 08:39:20","新北市三芝區興華里楓子林45-16號","121.498215","25.2055516666667","6502100","三芝區"
"237001","159-UY","2017/11/13 08:39:21","新北市三峽區大觀路12-5號","121.375603333333","24.9439583333333","6500900","三峽區"
"236007","165-UM","2017/11/13 08:39:19","新北市土城區石門路57號","121.4598","24.9626766666667","6501300","土城區"
"236001","339-SR","2017/11/13 08:39:18","新北市土城區中央路三段281巷11弄3號","121.426565","24.9628316666667","6501300","土城區"
"236005","498-BY","2017/11/13 08:39:26","新北市土城區永和街2巷4號","121.43457","24.9649016666667","6501300","土城區"
"242030","AAC-296","2017/11/13 08:39:27","新北市新莊區新泰路225巷22弄28號","121.444408333333","25.039395","6500500","新莊區"
"242028","986-R7","2017/11/13 08:39:16","新北市新莊區幸福路874號","121.443171666667","25.048985","6500500","新莊區"
"242049","751-BX","2017/11/13 08:39:33","新北市新莊區民本街23巷2號","121.428315","25.019675","6500500","新莊區"
"242024","615-BX","2017/11/13 08:39:25","新北市新莊區五工三路94巷18號","121.458826666667","25.0661183333333","6500500","新莊區"
"242022","613-BX","2017/11/13 08:39:33","新北市新莊區化成路127號","121.465593333333","25.04732","6500500","新莊區"
"242026","612-BX","2017/11/13 08:39:25","新北市新莊區中華路二段89號","121.452818333333","25.0492466666667","6500500","新莊區"
"242038","566-BX","2017/11/13 08:39:28","新北市新莊區民安路344號","121.429386666667","25.02239","6500500","新莊區"
"242043","497-BY","2017/11/13 08:39:16","新北市新莊區雙鳳路135號","121.413006666667","25.02751","6500500","新莊區"
"242003","442-UM","2017/11/13 08:39:27","新北市新莊區復興路二段192號","121.459215","25.04446","6500500","新莊區"
"242047","441-UM","2017/11/13 08:39:22","新北市新莊區民安路43號","121.423705","25.02642","6500500","新莊區"
"242052","440-UM","2017/11/13 08:39:26","新北市新莊區西盛街395巷29弄13號","121.428618333333","25.011825","6500500","新莊區"
"242033","415-TV","2017/11/13 08:39:24","新北市新莊區中正路346號","121.444198333333","25.0344966666667","6500500","新莊區"
"242040","400-BY","2017/11/13 08:39:25","新北市新莊區雙鳳路90巷4弄1號","121.415175","25.0284833333333","6500500","新莊區"
"242059","362-BY","2017/11/13 08:39:23","新北市新莊區後港一路128號","121.429355","25.0272866666667","6500500","新莊區"
"242057","353-BY","2017/11/13 08:39:25","桃園市龜山區萬壽路一段42號","121.408718333333","25.0190766666667","6500500","新莊區"
"242006","132-UY","2017/11/13 08:39:18","新北市新莊區思源路593巷5弄2號","121.459156666667","25.0594483333333","6500500","新莊區"
"242035","133-UY","2017/11/13 08:39:31","新北市新莊區後港一路33號","121.425305","25.0261683333333","6500500","新莊區"
"242045","172-VK","2017/11/13 08:39:32","新北市新莊區福營路297號","121.426913333333","25.029055","6500500","新莊區"
"242008","173-VK","2017/11/13 08:39:34","新北市新莊區中華路二段181號","121.45272","25.0522783333333","6500500","新莊區"
"242014","175-VK","2017/11/13 08:39:33","新北市新莊區中平路198巷10號","121.445528333333","25.0483716666667","6500500","新莊區"
"242001","176-VK","2017/11/13 08:39:30","新北市新莊區新泰路2號","121.449908333333","25.0323483333333","6500500","新莊區"
"242001","233-RS","2017/11/13 05:33:24","新北市新莊區環河路48-7號","121.436861666667","25.0096466666667","6500500","新莊區"
"242012","346-TH","2017/11/13 08:39:15","新北市新莊區中泰街83號","121.449356666667","25.0466716666667","6500500","新莊區"
"242018","348-TH","2017/11/13 08:39:17","新北市新莊區中港路132巷10號","121.455798333333","25.0406433333333","6500500","新莊區"
"242055","349-TH","2017/11/13 08:39:18","新北市新莊區豐年街53巷2號","121.446463333333","25.031585","6500500","新莊區"
"242016","350-TH","2017/11/13 08:39:16","新北市新莊區中港路397號","121.451876666667","25.0468583333333","6500500","新莊區"
"242010","351-TH","2017/11/13 08:39:27","新北市新莊區中港路587號","121.45112","25.0522983333333","6500500","新莊區"
"220064","282-UM","2017/11/13 08:39:14","新北市林口區太平里180號","121.36828","25.1345533333333","6500100","板橋區"
"242020","280-VK","2017/11/13 08:39:27","新北市新莊區新興街46號","121.450746666667","25.03737","6500500","新莊區"
