"lineid","car","time","location","longitude","latitude","cityid","cityname"
"244006","080-UY","2017/11/13 08:58:50","新北市林口區粉寮69號","121.40497","25.0908983333333","6501700","林口區"
"244024","742-UY","2017/11/13 09:19:21","新北市林口區粉寮路60-16號","121.404368333333","25.0899416666667","6501700","林口區"
"244022","483-VK","2017/11/13 10:29:18","新北市林口區湖南里70-9號","121.37579","25.0895216666667","6501700","林口區"
"231007","188-VK","2017/11/13 10:29:09","新北市新店區小坑三路51-1號","121.516161666667","24.9089166666667","6500600","新店區"
"231008","192-VK","2017/11/13 10:29:24","新北市新店區松林路16巷41號","121.545243333333","24.9061233333333","6500600","新店區"
"227005","282-VK","2017/11/13 10:22:58","新北市雙溪區泰平里溪尾寮46號","121.821253333333","24.9676316666667","6502500","雙溪區"
"253003","6232-TK","2017/11/13 10:29:17","新北市石門區小坑9號","121.594131666667","25.2887583333333","6502200","石門區"
"253001","6251-TK","2017/11/13 10:29:09","新北市石門區小坑9號","121.594331666667","25.288395","6502200","石門區"
"253002","637-UY","2017/11/13 10:29:18","新北市石門區小坑9號","121.594481666667","25.289155","6502200","石門區"
"253004","8270-PC","2017/11/13 10:29:15","新北市石門區小坑12-8號","121.595336666667","25.2855766666667","6502200","石門區"
"252006","AAC-283","2017/11/13 10:29:14","新北市三芝區埔頭里埔頭47號","121.500941666667","25.2626133333333","6502100","三芝區"
"242038","566-BX","2017/11/13 10:29:18","新北市新莊區瓊林南路305巷35號","121.435968333333","25.005085","6500500","新莊區"
"242001","233-RS","2017/11/13 10:23:28","新北市新莊區環河路48-7號","121.436895","25.0098216666667","6500500","新莊區"
