"lineid","car","time","location","longitude","latitude","cityid","cityname"
"234044","148-BY","2017/11/13 12:59:14","新北市永和區得和路373巷16弄1號","121.525095","25.00031","6500400","永和區"
"234012","149-BY","2017/11/13 12:59:17","新北市永和區信義路17巷22號","121.513186666667","25.0112716666667","6500400","永和區"
"234005","207-UY","2017/11/13 12:59:27","新北市永和區永和路二段8號","121.514421666667","25.010255","6500400","永和區"
"234078","298-R6","2017/11/13 12:59:29","新北市永和區永亨路59號","121.520898333333","25.0061783333333","6500400","永和區"
"234036","336-UY","2017/11/13 12:59:28","新北市永和區成功路二段207號","121.526571666667","24.9959833333333","6500400","永和區"
"234062","337-UY","2017/11/13 12:59:23","新北市永和區秀朗路一段146號","121.51832","25.0034333333333","6500400","永和區"
"234084","338-UY","2017/11/13 12:59:25","新北市永和區永利路18號","121.517995","25.0057733333333","6500400","永和區"
"234068","552-UM","2017/11/13 12:59:11","新北市永和區竹林路124巷36號","121.518033333333","25.0115166666667","6500400","永和區"
"234052","553-UM","2017/11/13 12:59:20","新北市永和區竹林路66巷2號","121.518298333333","25.0133566666667","6500400","永和區"
"234015","745-BX","2017/11/13 12:59:22","新北市永和區永和路二段299號","121.515965","25.0161166666667","6500400","永和區"
"234028","746-BX","2017/11/13 12:59:32","新北市永和區秀朗路二段289號","121.526196666667","24.99813","6500400","永和區"
"234060","AAD-866","2017/11/13 12:59:28","新北市永和區福和路301號","121.516398333333","25.0072033333333","6500400","永和區"
"234040","862-TW","2017/11/13 12:59:27","新北市永和區永貞路306號","121.511886666667","25.0048483333333","6500400","永和區"
"234048","863-TW","2017/11/13 12:59:19","新北市永和區文化路190號","121.510896666667","25.0161883333333","6500400","永和區"
"234025","9381-KE","2017/11/13 12:59:15","新北市永和區永和路一段151巷2號","121.513948333333","25.0094716666667","6500400","永和區"
"234010","9373-KE","2017/11/13 12:59:25","新北市永和區文化路113巷17號","121.513188333333","25.014115","6500400","永和區"
"248013","025-BX","2017/11/13 12:59:17","新北市五股區中興路二段182巷3號","121.456515","25.07806","6501500","五股區"
"248005","077-UY","2017/11/13 12:59:30","新北市五股區中興路二段83巷26-6號","121.460041666667","25.07508","6501500","五股區"
"248007","095-VK","2017/11/13 12:59:20","新北市五股區更洲路18號","121.458255","25.0788983333333","6501500","五股區"
"248019","225-UY","2017/11/13 12:59:16","新北市五股區中興路二段83巷26-6號","121.46003","25.0753116666667","6501500","五股區"
"248011","247-BX","2017/11/13 12:59:26","新北市五股區中興路二段83巷26-6號","121.460173333333","25.0751566666667","6501500","五股區"
"248009","272-BY","2017/11/13 03:02:17","新北市五股區中興路二段37巷28號","121.460125","25.075045","6501500","五股區"
"248003","677-BX","2017/11/11 20:41:17","新北市五股區中興路二段37巷28號","121.460151666667","25.07488","6501500","五股區"
"248001","678-BX","2017/11/13 12:59:21","新北市五股區中興路二段37巷28號","121.460096666667","25.0747766666667","6501500","五股區"
"234022","9380-KE","2017/11/13 12:59:26","新北市永和區竹林路75巷33弄3號","121.52052","25.0142966666667","6500400","永和區"
"234076","969-R7","2017/11/13 12:59:30","新北市永和區民享街11號","121.515338333333","24.995325","6500400","永和區"
"234072","AAC-211","2017/11/13 12:59:17","新北市永和區環河東路二段100號","121.524138333333","25.0103066666667","6500400","永和區"
"234066","AAC-212","2017/11/13 12:59:20","新北市永和區永和路一段22號","121.513031666667","25.0048216666667","6500400","永和區"
"234001","AAC-295","2017/11/13 12:59:25","新北市永和區永平路32號","121.513118333333","25.008795","6500400","永和區"
"244006","080-UY","2017/11/13 10:49:31","新北市林口區粉寮69號","121.404943333333","25.09085","6501700","林口區"
"244024","742-UY","2017/11/13 09:19:21","新北市林口區粉寮路60-16號","121.404368333333","25.0899416666667","6501700","林口區"
"244001","657-BX","2017/11/13 12:59:24","新北市林口區粉寮路一段77-2號","121.397236666667","25.0796566666667","6501700","林口區"
"243008","680-BX","2017/11/13 04:37:01","新北市泰山區犁頭窠3-1號","121.422131666667","25.0604916666667","6501600","泰山區"
"231028","046-UY","2017/11/13 12:59:29","新北市新店區安華路28-1號","121.519576666667","24.9607933333333","6500600","新店區"
"231030","047-UY","2017/11/13 12:59:30","新北市新店區安華路28-1號","121.519203333333","24.96092","6500600","新店區"
"231029","106-UY","2017/11/13 12:59:18","新北市新店區安華路28-1號","121.519926666667","24.9607916666667","6500600","新店區"
"231011","108-UY","2017/11/13 12:59:13","新北市新店區安華路28-1號","121.519293333333","24.9610516666667","6500600","新店區"
"231019","187-VK","2017/11/13 12:59:13","新北市新店區安華路28-1號","121.51964","24.9611816666667","6500600","新店區"
"231014","KEA-2219","2017/11/13 12:59:19","新北市新店區安華路28-1號","121.519921666667","24.9611516666667","6500600","新店區"
"231034","268-BY","2017/11/13 12:59:25","新北市新店區安華路28-1號","121.519425","24.9606033333333","6500600","新店區"
"231010","278-BY","2017/11/13 12:54:51","新北市新店區安華路28-1號","121.519635","24.9610816666667","6500600","新店區"
"231023","AAD-862","2017/11/13 12:59:20","新北市新店區安華路28-1號","121.519905","24.9612133333333","6500600","新店區"
"231027","3712-VJ","2017/11/13 12:59:29","新北市新店區安華路1-1號","121.51913","24.9605716666667","6500600","新店區"
"231025","3713-VJ","2017/11/13 12:59:13","新北市新店區安華路28-1號","121.519346666667","24.9606983333333","6500600","新店區"
"231024","4716-K9","2017/11/13 12:59:19","新北市新店區安康路一段359-27號","121.518828333333","24.9613483333333","6500600","新店區"
"231038","4715-K9","2017/11/13 12:59:27","新北市新店區安華路1-1號","121.51937","24.9603416666667","6500600","新店區"
"231036","512-UM","2017/11/13 12:59:28","新北市新店區安華路28-1號","121.519375","24.9613383333333","6500600","新店區"
"231035","515-UM","2017/11/13 12:59:23","新北市新店區安華路28-1號","121.519785","24.9611033333333","6500600","新店區"
"231001","619-UM","2017/11/13 12:59:29","新北市新店區安華路28-1號","121.519466666667","24.9608716666667","6500600","新店區"
"231003","641-BX","2017/11/13 12:59:17","新北市新店區安華路1-1號","121.519528333333","24.96046","6500600","新店區"
"231013","719-UM","2017/11/13 12:59:17","新北市新店區安華路28-1號","121.519531666667","24.9612216666667","6500600","新店區"
"231018","719-UY","2017/11/13 12:59:26","新北市新店區安華路28-1號","121.51972","24.96049","6500600","新店區"
"231031","720-UM","2017/11/13 12:59:09","新北市新店區安康路一段359-27號","121.518911666667","24.9613133333333","6500600","新店區"
"231006","898-TW","2017/11/13 12:59:28","新北市新店區安華路28-1號","121.519376666667","24.9607316666667","6500600","新店區"
"231004","899-TW","2017/11/13 12:59:22","新北市新店區安華路28-1號","121.519108333333","24.9608783333333","6500600","新店區"
"231037","AKT-0513","2017/11/13 12:59:18","新北市新店區安華路28-1號","121.51962","24.960505","6500600","新店區"
"235029","098-UM","2017/11/13 12:59:28","新北市中和區連城路301號","121.489791666667","24.9962733333333","6500300","中和區"
"235022","151-BY","2017/11/13 12:59:28","新北市中和區中正路521號","121.488335","24.99355","6500300","中和區"
"235002","185-VK","2017/11/13 12:59:17","新北市永和區成功路二段136巷6號","121.526028333333","24.9973416666667","6500300","中和區"
"235031","255-BX","2017/11/13 12:59:23","新北市中和區中山路二段550號","121.483763333333","25.0053583333333","6500300","中和區"
"235025","378-QA","2017/11/13 03:59:02","新北市中和區員山路36巷13號","121.484176666667","24.99135","6500300","中和區"
"235035","269-TV","2017/11/13 12:59:19","新北市中和區新生街288號","121.483663333333","24.9965116666667","6500300","中和區"
"235026","800-TS","2017/11/13 12:59:28","新北市中和區中正路637巷52弄3號","121.485303333333","24.9936","6500300","中和區"
"235021","801-TS","2017/11/13 12:59:18","新北市中和區員山路36巷16-3號","121.484868333333","24.991555","6500300","中和區"
"235005","802-TS","2017/11/13 12:59:26","新北市中和區中正路752號","121.485343333333","24.998615","6500300","中和區"
"235024","911-UM","2017/11/13 02:10:28","新北市中和區員山路36巷16-3號","121.484813333333","24.9916816666667","6500300","中和區"
"235001","157-BY","2017/11/13 12:59:27","新北市中和區員山路36巷13號","121.484143333333","24.9908816666667","6500300","中和區"
"235001","AAC-213","2017/11/13 12:59:20","新北市中和區中正路545巷1號","121.487341666667","24.99356","6500300","中和區"
"228005","097-TW","2017/11/13 12:03:01","新北市貢寮區貢寮里朝陽街1-2號","121.912351666667","25.0212483333333","6502600","貢寮區"
"208004","AAC-292","2017/11/13 12:59:23","新北市金山區磺港里磺港路326號","121.645106666667","25.2292533333333","6502700","金山區"
"207002","749-BX","2017/11/13 12:59:26","新北市萬里區雙興里大坪路39號","121.625356666667","25.1714833333333","6502800","萬里區"
"252005","073-UM","2017/11/13 12:59:14","新北市三芝區埔坪里埔頭坑44號","121.50466","25.2618633333333","6502100","三芝區"
"207001","662-BX","2017/11/13 12:59:24","新北市萬里區萬里里獅頭路23號","121.69318","25.17813","6502800","萬里區"
"237009","210-TH","2017/11/13 12:59:22","新北市三峽區中山路459巷163-3號","121.348691666667","24.93303","6500900","三峽區"
"236005","498-BY","2017/11/13 12:59:30","新北市土城區亞洲路34號","121.436116666667","24.9741333333333","6501300","土城區"
"242045","172-VK","2017/11/13 12:59:24","新北市新莊區新莊路467號","121.449258333333","25.033405","6500500","新莊區"
"242001","233-RS","2017/11/13 10:36:52","新北市新莊區環河路48-7號","121.43688","25.009855","6500500","新莊區"
"238016","308-TH","2017/11/13 12:59:12","新北市樹林區育德街113號","121.389995","24.9684333333333","6500700","樹林區"
"221032","280-BY","2017/11/13 12:59:19","新北市汐止區大同路二段527號","121.661715","25.068955","6501100","汐止區"
"221018","753-BX","2017/11/13 12:59:14","新北市汐止區福德一路342巷1弄12號","121.62906","25.063375","6501100","汐止區"
