"lineid","car","time","location","longitude","latitude","cityid","cityname"
"234044","148-BY","2017/11/13 13:29:14","新北市永和區秀朗路二段257號","121.526328333333","24.99928","6500400","永和區"
"234012","149-BY","2017/11/13 13:29:17","新北市永和區信義路10-1號","121.514551666667","25.0120483333333","6500400","永和區"
"234005","207-UY","2017/11/13 13:29:27","新北市永和區中山路一段228號","121.508016666667","25.008175","6500400","永和區"
"234078","298-R6","2017/11/13 13:29:22","新北市永和區福和路5-9號","121.52556","25.00837","6500400","永和區"
"234036","336-UY","2017/11/13 13:29:28","新北市永和區民樂街37巷1號","121.52757","25.000805","6500400","永和區"
"234062","337-UY","2017/11/13 13:29:23","新北市永和區得和路243巷41號","121.52091","25.00174","6500400","永和區"
"234084","338-UY","2017/11/13 13:29:25","新北市永和區永利路156號","121.522685","25.00278","6500400","永和區"
"234068","552-UM","2017/11/13 13:29:31","新北市永和區竹林路139號","121.520293333333","25.0106533333333","6500400","永和區"
"234052","553-UM","2017/11/13 13:29:20","新北市永和區復興街19巷2號","121.516121666667","25.0131516666667","6500400","永和區"
"234015","745-BX","2017/11/13 13:29:22","新北市永和區環河西路一段63號","121.513398333333","25.0181816666667","6500400","永和區"
"234028","746-BX","2017/11/13 13:29:32","新北市永和區民生路83號","121.522598333333","24.9968766666667","6500400","永和區"
"234060","AAD-866","2017/11/13 13:29:28","新北市永和區中正路445號","121.517205","25.0053266666667","6500400","永和區"
"234040","862-TW","2017/11/13 13:29:27","新北市永和區中和路575號","121.51193","25.0037016666667","6500400","永和區"
"234048","863-TW","2017/11/13 13:29:19","新北市永和區信義路84號","121.512496666667","25.0134533333333","6500400","永和區"
"234025","9381-KE","2017/11/13 13:29:15","新北市永和區豫溪街52巷21號","121.51578","25.0090316666667","6500400","永和區"
"234010","9373-KE","2017/11/13 13:29:31","新北市永和區仁愛路141巷5弄4號","121.511865","25.0119716666667","6500400","永和區"
"248013","025-BX","2017/11/13 13:29:17","新北市五股區明德路1號","121.435371666667","25.0713333333333","6501500","五股區"
"248015","026-BX","2017/11/13 13:29:27","新北市五股區凌雲路一段83巷22弄1號","121.449901666667","25.10078","6501500","五股區"
"248005","077-UY","2017/11/13 13:29:30","新北市五股區四維路38號","121.46726","25.0716083333333","6501500","五股區"
"248007","095-VK","2017/11/13 13:29:20","新北市五股區四維路185巷42弄3-1號","121.463365","25.0771966666667","6501500","五股區"
"248019","225-UY","2017/11/13 13:29:28","新北市五股區孝義路59號","121.450201666667","25.11457","6501500","五股區"
"248011","247-BX","2017/11/13 13:29:26","新北市五股區御成路150號","121.44076","25.0945916666667","6501500","五股區"
"248009","272-BY","2017/11/13 13:29:26","新北市五股區水碓路12號","121.433841666667","25.0723183333333","6501500","五股區"
"248003","677-BX","2017/11/13 13:29:18","新北市五股區六合街3號","121.432116666667","25.0885","6501500","五股區"
"248001","678-BX","2017/11/13 13:29:30","新北市五股區西雲路152號","121.446266666667","25.0943433333333","6501500","五股區"
"234022","9380-KE","2017/11/13 13:29:21","新北市永和區竹林路91巷45號","121.521411666667","25.012895","6500400","永和區"
"234076","969-R7","2017/11/13 13:29:13","新北市永和區中正路286巷7號","121.517616666667","24.9986583333333","6500400","永和區"
"234072","AAC-211","2017/11/13 13:29:17","新北市永和區永和路二段100號","121.51503","25.0118783333333","6500400","永和區"
"234066","AAC-212","2017/11/13 13:29:29","新北市永和區保平路174巷12號","121.510491666667","25.0071466666667","6500400","永和區"
"234001","AAC-295","2017/11/13 13:29:25","新北市永和區永平路152巷7號","121.511521666667","25.00902","6500400","永和區"
"244006","080-UY","2017/11/13 10:49:31","新北市林口區粉寮69號","121.404943333333","25.09085","6501700","林口區"
"244024","742-UY","2017/11/13 09:19:21","新北市林口區粉寮路60-16號","121.404368333333","25.0899416666667","6501700","林口區"
"244001","657-BX","2017/11/13 13:29:24","新北市林口區嘉寶里42號","121.333465","25.1222683333333","6501700","林口區"
"243005","646-TV","2017/11/13 13:29:25","新北市泰山區明志路三段166號","121.424388333333","25.0393733333333","6501600","泰山區"
"243008","680-BX","2017/11/13 04:37:01","新北市泰山區犁頭窠3-1號","121.422131666667","25.0604916666667","6501600","泰山區"
"231002","002-UM","2017/11/13 13:29:14","新北市新店區環河路64號","121.537103333333","24.96272","6500600","新店區"
"231028","046-UY","2017/11/13 13:29:29","新北市新店區安康路一段266巷4號","121.519911666667","24.9639383333333","6500600","新店區"
"231030","047-UY","2017/11/13 13:29:30","新北市新店區安康路二段1-5號","121.517295","24.963835","6500600","新店區"
"231029","106-UY","2017/11/13 13:29:18","新北市新店區安豐路54號","121.499741666667","24.9542583333333","6500600","新店區"
"231011","108-UY","2017/11/13 13:29:13","新北市新店區德正街17巷2號","121.543695","24.97272","6500600","新店區"
"231019","187-VK","2017/11/13 13:29:13","新北市新店區北宜路一段316號","121.547478333333","24.9520283333333","6500600","新店區"
"231014","KEA-2219","2017/11/13 13:29:19","新北市新店區新烏路一段11巷1弄2號","121.54736","24.9513683333333","6500600","新店區"
"231026","256-BX","2017/11/13 13:29:27","新北市新店區光明街19號","121.538218333333","24.9595366666667","6500600","新店區"
"231034","268-BY","2017/11/13 13:29:25","新北市新店區車子路10-4號","121.504746666667","24.9545166666667","6500600","新店區"
"231010","278-BY","2017/11/13 13:29:12","新北市新店區自由街9號","121.535481666667","24.9750516666667","6500600","新店區"
"231023","AAD-862","2017/11/13 13:29:20","新北市新店區北宜路一段168號","121.540358333333","24.952935","6500600","新店區"
"231027","3712-VJ","2017/11/13 13:29:29","新北市新店區新店後街66號","121.537656666667","24.95459","6500600","新店區"
"231025","3713-VJ","2017/11/13 13:29:13","新北市新店區中央七街61巷10號","121.528653333333","24.9764383333333","6500600","新店區"
"231024","4716-K9","2017/11/13 13:29:19","新北市新店區中正路128巷11號","121.542495","24.972025","6500600","新店區"
"231038","4715-K9","2017/11/13 13:29:27","新北市新店區安華路30巷1號","121.51959","24.959305","6500600","新店區"
"231036","512-UM","2017/11/13 13:29:28","新北市新店區建業路102號","121.47875","24.9552883333333","6500600","新店區"
"231035","515-UM","2017/11/13 13:29:23","新北市新店區安康路一段355號","121.519916666667","24.963715","6500600","新店區"
"231001","619-UM","2017/11/13 13:29:29","新北市新店區環河路29巷1-1號","121.535805","24.9611066666667","6500600","新店區"
"231003","641-BX","2017/11/13 13:29:17","新北市新店區力行路11巷57號","121.53863","24.9617616666667","6500600","新店區"
"231013","719-UM","2017/11/13 13:29:17","新北市新店區中正路454-5號","121.534451666667","24.97914","6500600","新店區"
"231018","719-UY","2017/11/13 13:29:26","新北市新店區中央路173號","121.534151666667","24.970075","6500600","新店區"
"231031","720-UM","2017/11/13 13:29:29","新北市新店區安華路16號","121.51739","24.9578616666667","6500600","新店區"
"231005","897-TW","2017/11/13 13:29:19","","121.541285","24.9668933333333","6500600","新店區"
"231006","898-TW","2017/11/13 13:29:28","新北市新店區安康路一段275-1號","121.523961666667","24.96346","6500600","新店區"
"231004","899-TW","2017/11/13 13:29:22","新北市新店區安康路一段186號","121.524853333333","24.9633383333333","6500600","新店區"
"231037","AKT-0513","2017/11/13 13:29:18","新北市新店區薏仁坑路27號","121.497308333333","24.9594516666667","6500600","新店區"
"235030","003-UY","2017/11/13 13:29:29","新北市中和區中山路二段120號","121.502755","25.00369","6500300","中和區"
"235027","006-UY","2017/11/13 13:29:22","新北市中和區連城路347巷4弄1號","121.488306666667","24.995445","6500300","中和區"
"235020","096-UM","2017/11/13 13:29:27","新北市中和區中山路二段586-2號","121.482388333333","25.0055133333333","6500300","中和區"
"235003","097-UM","2017/11/13 13:29:21","新北市中和區景新街283號","121.5097","24.9933633333333","6500300","中和區"
"235029","098-UM","2017/11/13 13:29:27","新北市中和區莊敬路38巷1號","121.501771666667","25.005235","6500300","中和區"
"235004","150-BY","2017/11/13 13:29:27","新北市中和區保健路50巷66號","121.509391666667","24.995145","6500300","中和區"
"235022","151-BY","2017/11/13 13:29:28","新北市中和區圓通路369巷136號","121.488486666667","24.9815583333333","6500300","中和區"
"235019","183-VK","2017/11/13 13:29:11","新北市土城區延壽路118-6號","121.469063333333","24.9945583333333","6500300","中和區"
"235002","185-VK","2017/11/13 13:29:18","新北市中和區秀朗路三段128巷17弄10號","121.523933333333","24.993355","6500300","中和區"
"235013","186-VK","2017/11/13 13:29:29","新北市中和區景安路179號","121.505086666667","24.9940133333333","6500300","中和區"
"235031","255-BX","2017/11/13 13:29:23","新北市中和區新生街284號","121.483693333333","24.9967166666667","6500300","中和區"
"235008","293-VK","2017/11/13 13:29:27","新北市中和區復興路301巷2弄1號","121.501513333333","24.9899233333333","6500300","中和區"
"235036","301-VK","2017/11/13 13:29:19","新北市中和區連城路265巷1號","121.491411666667","24.996465","6500300","中和區"
"235007","352-BY","2017/11/13 13:29:28","新北市中和區景平路331號","121.505868333333","24.993165","6500300","中和區"
"235032","377-QA","2017/11/13 13:29:14","新北市中和區中正路273號","121.495633333333","24.993885","6500300","中和區"
"235025","378-QA","2017/11/13 13:29:28","新北市中和區民享街97巷20號","121.47517","25.0000733333333","6500300","中和區"
"235035","269-TV","2017/11/13 13:29:19","新北市板橋區光環路二段28-2號","121.482405","25.01417","6500300","中和區"
"235014","4979-A6","2017/11/13 13:29:30","新北市中和區景新街362巷5號","121.511991666667","24.9901466666667","6500300","中和區"
"235033","4980-A6","2017/11/13 13:29:16","新北市中和區連城路99巷9號","121.497038333333","24.9991916666667","6500300","中和區"
"235006","551-UM","2017/11/13 13:29:16","新北市中和區秀朗路三段150巷13號","121.52367","24.99088","6500300","中和區"
"235034","558-UM","2017/11/13 13:29:20","新北市中和區圓通路72號","121.500221666667","24.9972483333333","6500300","中和區"
"235009","565-BX","2017/11/13 13:29:21","新北市中和區復興路40號","121.504788333333","24.9900766666667","6500300","中和區"
"235018","640-BX","2017/11/13 13:29:21","新北市中和區民享街90巷1號","121.47481","25.0001816666667","6500300","中和區"
"235011","732-UM","2017/11/13 13:29:23","新北市中和區復興路56號","121.503791666667","24.9903833333333","6500300","中和區"
"235010","733-UM","2017/11/13 13:29:02","新北市中和區捷運路8-7號","121.509433333333","24.9895783333333","6500300","中和區"
"235026","800-TS","2017/11/13 13:29:28","新北市中和區中山路二段312巷47號","121.495061666667","25.00432","6500300","中和區"
"235021","801-TS","2017/11/13 13:29:18","新北市中和區民安街111巷24弄7號","121.476336666667","24.9989","6500300","中和區"
"235005","802-TS","2017/11/13 13:29:26","新北市中和區中和路322號","121.509751666667","25.0007133333333","6500300","中和區"
"235012","896-TW","2017/11/13 13:29:15","新北市中和區建八路1號","121.485586666667","24.9987083333333","6500300","中和區"
"235017","900-TW","2017/11/13 13:29:20","新北市中和區莒光路211-39號","121.470156666667","24.993105","6500300","中和區"
"235024","911-UM","2017/11/13 13:29:31","新北市中和區員山路162號","121.481331666667","24.9997083333333","6500300","中和區"
"235001","157-BY","2017/11/13 13:29:27","新北市中和區興南路二段142巷16號","121.502931666667","24.98411","6500300","中和區"
"235001","AAC-213","2017/11/13 13:29:21","新北市中和區景平路151巷47號","121.514743333333","24.9904416666667","6500300","中和區"
"235023","AAC-215","2017/11/13 00:36:20","新北市中和區員山路36巷16-3號","121.485035","24.9912433333333","6500300","中和區"
"220016","013-TV","2017/11/13 13:29:15","新北市板橋區民生路二段120號","121.470381666667","25.01972","6500100","板橋區"
"220013","072-UY","2017/11/13 13:29:24","新北市板橋區南雅南路二段120-8號","121.452335","24.9995133333333","6500100","板橋區"
"220034","073-UY","2017/11/13 13:29:20","新北市板橋區華東街1-9號","121.448041666667","24.9949383333333","6500100","板橋區"
"220039","120-SR","2017/11/13 13:29:11","新北市板橋區民生路二段120號","121.470398333333","25.019735","6500100","板橋區"
"247009","339-TH","2017/11/13 13:29:18","新北市五股區中興路三段163號","121.449285","25.0807283333333","6501400","蘆洲區"
"247005","056-VK","2017/11/13 13:29:18","新北市五股區中興路三段163號","121.449128333333","25.0807216666667","6501400","蘆洲區"
"247007","053-VK","2017/11/13 13:29:17","新北市五股區中興路三段163號","121.449081666667","25.080765","6501400","蘆洲區"
"247017","001-UY","2017/11/13 13:29:26","新北市五股區中興路三段2巷10號","121.448331666667","25.0837066666667","6501400","蘆洲區"
"228005","097-TW","2017/11/13 12:03:01","新北市貢寮區貢寮里朝陽街1-2號","121.912351666667","25.0212483333333","6502600","貢寮區"
"208004","AAC-292","2017/11/13 13:29:23","新北市金山區南勢湖75號","121.610666666667","25.2107216666667","6502700","金山區"
"207002","749-BX","2017/11/13 13:29:26","新北市萬里區崁腳里崁腳路166號","121.645081666667","25.1559683333333","6502800","萬里區"
"252005","073-UM","2017/11/13 13:29:14","新北市三芝區圓山里八連溪頭3號","121.524736666667","25.2228816666667","6502100","三芝區"
"207001","662-BX","2017/11/13 13:29:24","新北市萬里區龜吼里光宇大道2號","121.679501666667","25.1909","6502800","萬里區"
"237009","210-TH","2017/11/13 13:29:14","新北市三峽區中山路321-2號","121.360841666667","24.9380666666667","6500900","三峽區"
"236005","498-BY","2017/11/13 13:29:30","新北市土城區亞洲路11巷1弄1號","121.434851666667","24.9718533333333","6501300","土城區"
"242021","135-UY","2017/11/13 13:29:17","新北市新莊區自信街37號","121.454143333333","25.0482883333333","6500500","新莊區"
"242045","172-VK","2017/11/13 13:29:23","新北市新莊區民安西路88巷5弄4號","121.425898333333","25.0196233333333","6500500","新莊區"
"242001","233-RS","2017/11/13 13:29:23","新北市新莊區環河路636-7號","121.437346666667","25.0117933333333","6500500","新莊區"
"221032","280-BY","2017/11/13 13:29:19","新北市汐止區水源路一段56號","121.657438333333","25.065605","6501100","汐止區"
"221018","753-BX","2017/11/13 13:29:14","新北市汐止區福德二路238巷2號","121.627303333333","25.0646583333333","6501100","汐止區"
"220027","145-BY","2017/11/13 13:29:19","新北市板橋區大觀路二段11-12號","121.448741666667","24.9962266666667","6500100","板橋區"
"220030","610-BX","2017/11/13 13:29:14","","121.448285","24.994955","6500100","板橋區"
"220043","285-UM","2017/11/13 13:29:16","新北市板橋區民生路二段161巷1號","121.470023333333","25.0198816666667","6500100","板橋區"
"220001","285-VK","2017/11/13 02:38:45","新北市板橋區民生路二段120號","121.470626666667","25.0198766666667","6500100","板橋區"
"220023","297-UM","2017/11/13 13:29:23","新北市板橋區華東街1-9號","121.448155","24.99506","6500100","板橋區"
"220062","303-R5","2017/11/13 13:29:25","新北市板橋區民生路二段120號","121.47049","25.019735","6500100","板橋區"
"220012","486-VK","2017/11/13 13:29:24","新北市板橋區南雅南路二段4巷4號","121.454091666667","25.0037816666667","6500100","板橋區"
"220104","560-BX","2017/11/13 13:29:31","新北市板橋區南雅西路二段4號","121.453573333333","25.0091083333333","6500100","板橋區"
"220011","609-BX","2017/11/13 00:20:15","新北市板橋區民生路二段161巷1號","121.469803333333","25.0200233333333","6500100","板橋區"
"220025","687-BX","2017/11/13 13:29:16","新北市板橋區篤行路一段30號","121.4319","24.9940833333333","6500100","板橋區"
"220014","829-TW","2017/11/13 13:29:15","新北市板橋區民生路二段161巷3號","121.470255","25.0198366666667","6500100","板橋區"
"220045","831-TW","2017/11/13 02:03:31","新北市板橋區民生路二段120號","121.470588333333","25.01951","6500100","板橋區"
"220022","895-R6","2017/11/13 13:29:30","新北市板橋區華東街1-10號","121.448293333333","24.9950466666667","6500100","板橋區"
"220021","985-R7","2017/11/13 13:29:16","新北市板橋區華東街1-10號","121.448333333333","24.995025","6500100","板橋區"
