"lineid","car","time","location","longitude","latitude","cityid","cityname"
"234044","148-BY","2017/11/13 13:39:14","新北市永和區永利路145號","121.524343333333","25.0036033333333","6500400","永和區"
"234012","149-BY","2017/11/13 13:39:21","新北市永和區永平路216號","121.509281666667","25.0104466666667","6500400","永和區"
"234005","207-UY","2017/11/13 13:39:27","新北市永和區永和路二段35號","121.51442","25.0104816666667","6500400","永和區"
"234078","298-R6","2017/11/13 13:39:22","新北市永和區林森路20巷12號","121.525913333333","25.0057366666667","6500400","永和區"
"234036","336-UY","2017/11/13 13:39:28","新北市永和區民樂街31巷6弄1號","121.527853333333","25.00151","6500400","永和區"
"234062","337-UY","2017/11/13 13:39:23","新北市永和區秀朗路二段24巷37號","121.520026666667","25.001955","6500400","永和區"
"234084","338-UY","2017/11/13 13:39:25","新北市永和區林森路41巷31號","121.52623","25.004275","6500400","永和區"
"234068","552-UM","2017/11/13 13:39:11","新北市永和區永和路二段234號","121.515743333333","25.0144716666667","6500400","永和區"
"234052","553-UM","2017/11/13 13:39:20","新北市永和區竹林路39巷10號","121.518295","25.0144283333333","6500400","永和區"
"234015","745-BX","2017/11/13 13:39:28","新北市永和區永和路二段425巷62號","121.513738333333","25.0173433333333","6500400","永和區"
"234028","746-BX","2017/11/13 13:39:12","新北市永和區民權路7號","121.520068333333","24.9981983333333","6500400","永和區"
"234060","AAD-866","2017/11/13 13:39:27","新北市永和區中正路456號","121.517398333333","25.0029483333333","6500400","永和區"
"234040","862-TW","2017/11/13 13:39:27","新北市永和區永貞路302號","121.512053333333","25.0047166666667","6500400","永和區"
"234048","863-TW","2017/11/13 13:39:19","新北市永和區保安路114巷2號","121.50926","25.0158183333333","6500400","永和區"
"234025","9381-KE","2017/11/13 13:39:15","新北市永和區永和路一段155-4號","121.51431","25.009455","6500400","永和區"
"234010","9373-KE","2017/11/13 13:39:25","新北市永和區保福路二段23巷21號","121.510083333333","25.0112283333333","6500400","永和區"
"248013","025-BX","2017/11/13 13:39:17","新北市五股區中興路四段70號","121.436976666667","25.0834733333333","6501500","五股區"
"248015","026-BX","2017/11/13 13:39:26","新北市五股區凌雲路一段133巷27-3號","121.44863","25.1008916666667","6501500","五股區"
"248005","077-UY","2017/11/13 13:39:30","新北市五股區中興路一段16號","121.469103333333","25.0724","6501500","五股區"
"248007","095-VK","2017/11/13 13:39:20","新北市五股區中興路一段150巷12號","121.46468","25.0744183333333","6501500","五股區"
"248019","225-UY","2017/11/13 13:39:16","新北市五股區孝義路98號","121.446308333333","25.1194366666667","6501500","五股區"
"248011","247-BX","2017/11/13 13:39:26","新北市五股區御史路2號","121.442326666667","25.09012","6501500","五股區"
"248009","272-BY","2017/11/13 13:39:31","新北市五股區水碓一路56號","121.431943333333","25.0734716666667","6501500","五股區"
"248003","677-BX","2017/11/13 13:39:18","新北市五股區民義路一段236-6號","121.427471666667","25.0913066666667","6501500","五股區"
"248001","678-BX","2017/11/13 13:39:21","新北市五股區西雲路248號","121.448883333333","25.0970183333333","6501500","五股區"
"234022","9380-KE","2017/11/13 13:39:21","新北市永和區中正路702巷20弄1號","121.51647","25.0106033333333","6500400","永和區"
"234076","969-R7","2017/11/13 13:39:30","新北市永和區民權路24號","121.52032","24.999245","6500400","永和區"
"234072","AAC-211","2017/11/13 13:39:17","新北市永和區福和路78號","121.523031666667","25.0082683333333","6500400","永和區"
"234066","AAC-212","2017/11/13 13:39:20","新北市永和區中山路一段191巷7弄4號","121.509611666667","25.0082716666667","6500400","永和區"
"234001","AAC-295","2017/11/13 13:39:25","新北市永和區自由街16號","121.514666666667","25.00671","6500400","永和區"
"244006","080-UY","2017/11/13 10:49:31","新北市林口區粉寮69號","121.404943333333","25.09085","6501700","林口區"
"244024","742-UY","2017/11/13 09:19:21","新北市林口區粉寮路60-16號","121.404368333333","25.0899416666667","6501700","林口區"
"244001","657-BX","2017/11/13 13:39:24","新北市林口區後坑35-1號","121.35402","25.130735","6501700","林口區"
"243004","AAD-798","2017/11/13 13:39:21","新北市泰山區泰林路二段260號","121.431773333333","25.0623666666667","6501600","泰山區"
"243007","380-SR","2017/11/13 03:32:20","新北市泰山區黎明路25號","121.42208","25.0606566666667","6501600","泰山區"
"243005","646-TV","2017/11/13 13:39:25","新北市泰山區明志路三段206巷10號","121.423281666667","25.0380266666667","6501600","泰山區"
"243008","680-BX","2017/11/13 04:37:01","新北市泰山區犁頭窠3-1號","121.422131666667","25.0604916666667","6501600","泰山區"
"231002","002-UM","2017/11/13 13:39:14","新北市新店區中央三街127號","121.52418","24.9769266666667","6500600","新店區"
"231028","046-UY","2017/11/13 13:39:09","新北市新店區安和路二段154號","121.519785","24.97316","6500600","新店區"
"231030","047-UY","2017/11/13 13:39:30","新北市新店區安康路一段92-1號","121.527961666667","24.9621083333333","6500600","新店區"
"231029","106-UY","2017/11/13 13:39:18","新北市新店區安康路二段212-1號","121.509928333333","24.9594333333333","6500600","新店區"
"231011","108-UY","2017/11/13 13:39:13","新北市新店區德正街27巷29弄28號","121.545793333333","24.972315","6500600","新店區"
"231019","187-VK","2017/11/13 13:39:13","新北市新店區永興路125號","121.544251666667","24.9310866666667","6500600","新店區"
"231014","KEA-2219","2017/11/13 13:39:19","新北市新店區竹林路2巷27弄1號","121.550225","24.9509383333333","6500600","新店區"
"231026","256-BX","2017/11/13 13:39:27","新北市新店區中正路260號","121.539096666667","24.9734166666667","6500600","新店區"
"231034","268-BY","2017/11/13 13:39:25","新北市新店區車子路109號","121.50526","24.9521466666667","6500600","新店區"
"231010","278-BY","2017/11/13 13:39:32","新北市新店區中正路307巷18號","121.536223333333","24.9743416666667","6500600","新店區"
"231023","AAD-862","2017/11/13 13:39:20","新北市新店區新店路165號","121.537106666667","24.9555616666667","6500600","新店區"
"231027","3712-VJ","2017/11/13 13:39:29","新北市新店區北宜路一段127巷9號","121.540981666667","24.953665","6500600","新店區"
"231025","3713-VJ","2017/11/13 13:39:13","新北市新店區中央六街58號","121.527908333333","24.9758016666667","6500600","新店區"
"231024","4716-K9","2017/11/13 13:39:19","新北市新店區華興街25號","121.537538333333","24.9691366666667","6500600","新店區"
"231038","4715-K9","2017/11/13 13:39:27","新北市新店區安華路30巷1號","121.519573333333","24.95932","6500600","新店區"
"231036","512-UM","2017/11/13 13:39:28","新北市新店區安祥路147巷51號","121.476188333333","24.9561683333333","6500600","新店區"
"231035","515-UM","2017/11/13 13:39:23","新北市新店區安忠路56巷6號","121.512906666667","24.9594916666667","6500600","新店區"
"231001","619-UM","2017/11/13 13:39:29","新北市新店區中正路368號","121.535178333333","24.976295","6500600","新店區"
"231003","641-BX","2017/11/13 13:39:17","新北市新店區中正路69號","121.543511666667","24.9701","6500600","新店區"
"231013","719-UM","2017/11/13 13:39:17","新北市新店區中正路454-5號","121.534478333333","24.9791533333333","6500600","新店區"
"231018","719-UY","2017/11/13 13:39:26","新北市新店區百忍街12號","121.534715","24.9756566666667","6500600","新店區"
"231031","720-UM","2017/11/13 13:39:29","新北市新店區莒光路44巷21弄11-6號","121.51851","24.9522","6500600","新店區"
"231005","897-TW","2017/11/13 13:39:19","新北市新店區寶中路77號","121.547735","24.9806033333333","6500600","新店區"
"231006","898-TW","2017/11/13 13:39:28","新北市新店區北宜路一段81號","121.538551666667","24.9561733333333","6500600","新店區"
"231004","899-TW","2017/11/13 13:39:22","新北市新店區北新路二段18號","121.5428","24.9713616666667","6500600","新店區"
"231037","AKT-0513","2017/11/13 13:39:18","新北市新店區安康路二段380號","121.500451666667","24.9572633333333","6500600","新店區"
"235030","003-UY","2017/11/13 13:39:29","新北市中和區水源路45號","121.50477","25.0036033333333","6500300","中和區"
"235027","006-UY","2017/11/13 13:39:22","新北市中和區連城路347巷6弄38號","121.486606666667","24.9954666666667","6500300","中和區"
"235020","096-UM","2017/11/13 13:39:27","新北市中和區員山路466巷17弄31號","121.480478333333","25.0074566666667","6500300","中和區"
"235003","097-UM","2017/11/13 13:39:21","新北市中和區大勇街25巷38弄7號","121.516005","24.9939066666667","6500300","中和區"
"235029","098-UM","2017/11/13 13:39:27","新北市中和區莊敬路33巷22弄8號","121.500791666667","25.0064983333333","6500300","中和區"
"235004","150-BY","2017/11/13 13:39:27","新北市中和區安平路59號","121.509645","24.9950516666667","6500300","中和區"
"235022","151-BY","2017/11/13 13:39:28","新北市中和區圓通路369巷39-25號","121.490031666667","24.9853883333333","6500300","中和區"
"235019","183-VK","2017/11/13 13:39:11","新北市中和區莒光路84巷22號","121.471735","25.002125","6500300","中和區"
"235002","185-VK","2017/11/13 13:39:26","新北市中和區立人街14巷49號","121.519015","24.9955583333333","6500300","中和區"
"235013","186-VK","2017/11/13 13:39:09","新北市中和區明義街11巷5號","121.503865","24.9947116666667","6500300","中和區"
"235031","255-BX","2017/11/13 13:39:23","新北市中和區新生街242巷11弄5號","121.482938333333","24.9974516666667","6500300","中和區"
"235008","293-VK","2017/11/13 13:39:27","新北市中和區復興路280巷1弄2號","121.502241666667","24.99073","6500300","中和區"
"235036","301-VK","2017/11/13 13:39:19","新北市中和區連城路218號","121.491483333333","24.996525","6500300","中和區"
"235007","352-BY","2017/11/13 13:39:29","新北市中和區景平路157號","121.512885","24.99226","6500300","中和區"
"235032","377-QA","2017/11/13 13:39:14","新北市中和區中正路271號","121.496","24.9938183333333","6500300","中和區"
"235025","378-QA","2017/11/13 13:39:22","","121.474658333333","25.0000533333333","6500300","中和區"
"235035","269-TV","2017/11/13 13:39:19","新北市中和區永和路356巷51號","121.487215","25.0142933333333","6500300","中和區"
"235014","4979-A6","2017/11/13 13:39:10","新北市中和區忠孝街146-1號","121.512553333333","24.9874066666667","6500300","中和區"
"235033","4980-A6","2017/11/13 13:39:16","新北市中和區泰和街12號","121.499968333333","25.001035","6500300","中和區"
"235006","551-UM","2017/11/13 13:39:16","新北市中和區成功路97巷2號","121.526651666667","24.9917633333333","6500300","中和區"
"235034","558-UM","2017/11/13 13:39:20","新北市中和區南華路63號","121.504426666667","24.9971616666667","6500300","中和區"
"235009","565-BX","2017/11/13 13:39:21","新北市中和區復興路6號","121.506163333333","24.989895","6500300","中和區"
"235018","640-BX","2017/11/13 13:39:21","新北市中和區莒光路129巷2弄24號","121.47309","25.0012216666667","6500300","中和區"
"235011","732-UM","2017/11/13 13:39:23","新北市中和區南山路322號","121.507815","24.986595","6500300","中和區"
"235010","733-UM","2017/11/13 13:39:22","新北市中和區捷運路3號","121.50949","24.9894883333333","6500300","中和區"
"235026","800-TS","2017/11/13 13:39:28","新北市中和區中山路二段298號","121.496113333333","25.0025966666667","6500300","中和區"
"235021","801-TS","2017/11/13 13:39:18","新北市中和區民安街42巷36號","121.479065","25.0013283333333","6500300","中和區"
"235005","802-TS","2017/11/13 13:39:26","新北市中和區中和路400巷27號","121.511883333333","25.0021233333333","6500300","中和區"
"235016","805-TS","2017/11/13 13:39:10","新北市中和區興南路三段25號","121.496816666667","24.97876","6500300","中和區"
"235012","896-TW","2017/11/13 13:39:15","新北市中和區板南路220號","121.497963333333","24.9941666666667","6500300","中和區"
"235017","900-TW","2017/11/13 13:39:20","新北市土城區延壽路77巷4弄33號","121.469113333333","24.9933283333333","6500300","中和區"
"235024","911-UM","2017/11/13 13:39:11","新北市中和區員山路493號","121.479903333333","25.0056216666667","6500300","中和區"
"235001","157-BY","2017/11/13 13:39:27","新北市中和區華新街143巷106弄9號","121.506226666667","24.9787833333333","6500300","中和區"
"235001","AAC-213","2017/11/13 13:39:20","新北市中和區景平路111巷30號","121.515575","24.9905083333333","6500300","中和區"
"235023","AAC-215","2017/11/13 00:36:20","新北市中和區員山路36巷16-3號","121.485035","24.9912433333333","6500300","中和區"
"220016","013-TV","2017/11/13 13:39:15","新北市板橋區民生路二段120號","121.47038","25.01967","6500100","板橋區"
"220013","072-UY","2017/11/13 13:39:24","新北市板橋區縣民大道二段102號","121.46654","25.0150916666667","6500100","板橋區"
"220034","073-UY","2017/11/13 13:39:20","新北市板橋區南雅西路二段130號","121.452031666667","25.0126516666667","6500100","板橋區"
"220017","AAD-861","2017/11/13 13:39:21","新北市板橋區華東街1-10號","121.448385","24.995105","6500100","板橋區"
"220039","120-SR","2017/11/13 13:39:31","新北市板橋區民生路二段161巷5號","121.470283333333","25.0197733333333","6500100","板橋區"
"247009","339-TH","2017/11/13 13:39:18","新北市五股區凌雲路一段21號","121.453866666667","25.0997983333333","6501400","蘆洲區"
"247003","335-TH","2017/11/13 13:39:30","新北市蘆洲區中原路73號","121.458421666667","25.08193","6501400","蘆洲區"
"247005","056-VK","2017/11/13 13:39:18","新北市蘆洲區永安南路二段292號","121.457268333333","25.0816366666667","6501400","蘆洲區"
"247007","053-VK","2017/11/13 13:39:17","新北市蘆洲區中正路520巷9號","121.462451666667","25.0996516666667","6501400","蘆洲區"
"247017","001-UY","2017/11/13 13:39:26","新北市蘆洲區民族路406號","121.474655","25.091675","6501400","蘆洲區"
"228005","097-TW","2017/11/13 12:03:01","新北市貢寮區貢寮里朝陽街1-2號","121.912351666667","25.0212483333333","6502600","貢寮區"
"208004","AAC-292","2017/11/13 13:39:23","新北市金山區南勢湖70-2號","121.615381666667","25.215905","6502700","金山區"
"207002","749-BX","2017/11/13 13:39:26","新北市萬里區崁腳里崁腳路166號","121.645108333333","25.1559016666667","6502800","萬里區"
"252005","073-UM","2017/11/13 13:39:23","新北市三芝區圓山里內柑宅25號","121.539191666667","25.2185266666667","6502100","三芝區"
"207001","662-BX","2017/11/13 13:39:23","新北市萬里區大鵬里萬里加投9號","121.65269","25.2089533333333","6502800","萬里區"
"237009","210-TH","2017/11/13 13:39:14","新北市三峽區中山路28號","121.368938333333","24.9344383333333","6500900","三峽區"
"236064","105-UM","2017/11/13 13:39:23","新北市土城區城林路6巷80號","121.438435","24.9797416666667","6501300","土城區"
"236040","107-UM","2017/11/13 13:39:30","新北市土城區城林路6巷80號","121.438423333333","24.979915","6501300","土城區"
"236074","166-UM","2017/11/13 13:37:53","新北市土城區城林路6巷80號","121.438333333333","24.979815","6501300","土城區"
"236024","269-VK","2017/11/13 13:39:22","新北市土城區城林路6巷80號","121.43848","24.9798866666667","6501300","土城區"
"236016","401-BY","2017/11/13 13:39:19","新北市土城區城林路6巷80號","121.438615","24.97981","6501300","土城區"
"236005","498-BY","2017/11/13 13:39:30","新北市土城區慶祥街1巷2號","121.437478333333","24.974715","6501300","土城區"
"236044","913-UM","2017/11/13 13:39:12","新北市土城區城林路6巷80號","121.438413333333","24.9799166666667","6501300","土城區"
"236060","915-UM","2017/11/13 13:39:14","新北市土城區城林路6巷80號","121.438411666667","24.9798466666667","6501300","土城區"
"236052","AAC-216","2017/11/13 13:39:12","新北市土城區城林路6巷80號","121.438333333333","24.97987","6501300","土城區"
"242021","135-UY","2017/11/13 13:39:17","新北市新莊區自信街37號","121.454243333333","25.04833","6500500","新莊區"
"242045","172-VK","2017/11/13 13:39:23","新北市新莊區民安西路492號","121.432725","25.0072533333333","6500500","新莊區"
"242001","233-RS","2017/11/13 13:39:23","新北市新莊區瓊林路13-3號","121.448868333333","25.0310083333333","6500500","新莊區"
"221032","280-BY","2017/11/13 13:39:19","新北市汐止區仁愛路27號","121.659348333333","25.0637166666667","6501100","汐止區"
"221018","753-BX","2017/11/13 13:39:14","新北市汐止區福德二路77-2號","121.63321","25.06589","6501100","汐止區"
"220027","145-BY","2017/11/13 13:39:19","新北市板橋區中正路170號","121.456483333333","25.01727","6500100","板橋區"
"220028","200-UY","2017/11/13 13:39:22","新北市板橋區大觀路二段435-1號","121.446168333333","24.99437","6500100","板橋區"
"220030","610-BX","2017/11/13 13:39:14","新北市板橋區四川路二段橋頭1號","121.446278333333","24.994135","6500100","板橋區"
"220004","276-BY","2017/11/13 13:39:27","新北市板橋區四川路二段140巷16弄13號","121.448786666667","24.9935266666667","6500100","板橋區"
"220050","280-UM","2017/11/13 13:39:10","新北市板橋區民生路二段161巷1號","121.470138333333","25.01988","6500100","板橋區"
"220019","283-VK","2017/11/13 13:39:25","新北市板橋區華東街1-9號","121.44807","24.9949166666667","6500100","板橋區"
"220043","285-UM","2017/11/13 13:39:17","新北市板橋區民生路二段161巷1號","121.470045","25.0198716666667","6500100","板橋區"
"220001","285-VK","2017/11/13 13:39:29","新北市板橋區民生路二段188號","121.470148333333","25.020215","6500100","板橋區"
"220029","287-VK","2017/11/13 13:39:19","新北市板橋區板城路421號","121.448593333333","24.9960966666667","6500100","板橋區"
"220032","296-UM","2017/11/13 13:39:17","新北市板橋區板城路421號","121.448095","24.9963116666667","6500100","板橋區"
"220023","297-UM","2017/11/13 13:39:23","新北市板橋區華東街11號","121.450938333333","24.998005","6500100","板橋區"
"220041","299-UM","2017/11/13 00:45:18","新北市板橋區民生路二段161巷9號","121.470005","25.019465","6500100","板橋區"
"220062","303-R5","2017/11/13 13:39:25","新北市板橋區民生路二段120號","121.470463333333","25.019705","6500100","板橋區"
"220012","486-VK","2017/11/13 13:39:24","新北市板橋區民生路二段36-1號","121.472103333333","25.0168966666667","6500100","板橋區"
"220104","560-BX","2017/11/13 13:39:11","新北市板橋區西門街42號","121.454305","25.009425","6500100","板橋區"
"220052","561-BX","2017/11/13 13:39:29","新北市板橋區民生路二段161巷1號","121.470123333333","25.0200266666667","6500100","板橋區"
"220031","568-UM","2017/11/13 13:39:28","新北市板橋區板城路407號","121.447556666667","24.9953583333333","6500100","板橋區"
"220011","609-BX","2017/11/13 00:20:15","新北市板橋區民生路二段161巷1號","121.469803333333","25.0200233333333","6500100","板橋區"
"220025","687-BX","2017/11/13 13:39:16","新北市板橋區大觀路三段212巷72號","121.429766666667","24.99348","6500100","板橋區"
"220003","827-TW","2017/11/13 13:39:28","新北市板橋區華東街1-9號","121.448198333333","24.9949883333333","6500100","板橋區"
"220014","829-TW","2017/11/13 13:39:15","新北市板橋區民生路二段120號","121.470413333333","25.01975","6500100","板橋區"
"220045","831-TW","2017/11/13 02:03:31","新北市板橋區民生路二段120號","121.470588333333","25.01951","6500100","板橋區"
"220022","895-R6","2017/11/13 13:39:30","新北市板橋區南雅南路一段8號","121.455843333333","25.0063483333333","6500100","板橋區"
"220021","985-R7","2017/11/13 13:39:16","新北市板橋區南雅南路二段144巷22號","121.450596666667","24.9956133333333","6500100","板橋區"
"220018","AAC-253","2017/11/13 13:39:24","新北市板橋區華東街1-9號","121.448265","24.9949083333333","6500100","板橋區"
