"lineid","car","time","location","longitude","latitude","cityid","cityname"
"234044","148-BY","2017/11/13 13:49:34","新北市永和區永利路121號","121.523848333333","25.0025933333333","6500400","永和區"
"234012","149-BY","2017/11/13 13:49:18","新北市永和區仁愛路200號","121.509465","25.0123866666667","6500400","永和區"
"234005","207-UY","2017/11/13 13:49:27","新北市永和區中和路625號","121.513035","25.00499","6500400","永和區"
"234078","298-R6","2017/11/13 13:49:22","新北市永和區永亨路98號","121.523055","25.004875","6500400","永和區"
"234036","336-UY","2017/11/13 13:49:28","新北市永和區環河東路四段22號","121.528616666667","24.9996083333333","6500400","永和區"
"234062","337-UY","2017/11/13 13:49:23","新北市永和區中正路368巷5號","121.51803","25.0009633333333","6500400","永和區"
"234084","338-UY","2017/11/13 13:49:25","新北市永和區永利路42號","121.518643333333","25.00538","6500400","永和區"
"234068","552-UM","2017/11/13 13:49:31","新北市永和區竹林路88號","121.519373333333","25.0126116666667","6500400","永和區"
"234052","553-UM","2017/11/13 13:49:20","新北市永和區竹林路39巷28弄1號","121.519436666667","25.0148816666667","6500400","永和區"
"234015","745-BX","2017/11/13 13:49:22","新北市永和區永和路二段264號","121.516028333333","25.015195","6500400","永和區"
"234028","746-BX","2017/11/13 13:49:12","新北市永和區民生路47巷1號","121.522956666667","24.9978783333333","6500400","永和區"
"234060","AAD-866","2017/11/13 13:49:28","新北市永和區中正路1號","121.513685","24.9953933333333","6500400","永和區"
"234040","862-TW","2017/11/13 13:49:27","新北市永和區中和路389巷8號","121.508148333333","25.00095","6500400","永和區"
"234048","863-TW","2017/11/13 13:49:19","新北市永和區保安路132-1號","121.508803333333","25.01539","6500400","永和區"
"234010","9373-KE","2017/11/13 13:49:25","新北市永和區保安路292號","121.5051","25.0118566666667","6500400","永和區"
"248013","025-BX","2017/11/13 13:49:17","新北市五股區成泰路二段224號","121.439428333333","25.0860316666667","6501500","五股區"
"248015","026-BX","2017/11/13 13:49:26","新北市五股區凌雲路一段133巷36號","121.448798333333","25.1010583333333","6501500","五股區"
"248005","077-UY","2017/11/13 13:49:30","新北市五股區四維路102號","121.467715","25.0736116666667","6501500","五股區"
"248007","095-VK","2017/11/13 13:49:20","新北市五股區中興路一段151巷1弄2號","121.465068333333","25.073145","6501500","五股區"
"248019","225-UY","2017/11/13 13:49:16","新北市五股區凌雲路三段86號","121.430196666667","25.1182733333333","6501500","五股區"
"248011","247-BX","2017/11/13 13:49:26","新北市五股區成泰路二段195巷1號","121.440373333333","25.0874133333333","6501500","五股區"
"248009","272-BY","2017/11/13 13:49:26","新北市五股區水碓一路61號","121.431431666667","25.0726316666667","6501500","五股區"
"248003","677-BX","2017/11/13 13:49:31","新北市五股區民義路二段41-1號","121.411251666667","25.1036633333333","6501500","五股區"
"248001","678-BX","2017/11/13 13:49:21","新北市五股區成泰路三段456-1號","121.451481666667","25.100425","6501500","五股區"
"234022","9380-KE","2017/11/13 13:49:21","新北市永和區中正路748號","121.514816666667","25.010305","6500400","永和區"
"234076","969-R7","2017/11/13 13:49:30","新北市永和區民權路58巷2弄14號","121.519806666667","24.998905","6500400","永和區"
"234072","AAC-211","2017/11/13 13:49:19","新北市永和區竹林路179巷20-1號","121.521503333333","25.0099766666667","6500400","永和區"
"234066","AAC-212","2017/11/13 13:49:31","新北市永和區保平路236巷24弄1號","121.50807","25.0069516666667","6500400","永和區"
"234001","AAC-295","2017/11/13 13:49:25","新北市永和區永和路一段17號","121.512966666667","25.0056416666667","6500400","永和區"
"244006","080-UY","2017/11/13 10:49:31","新北市林口區粉寮69號","121.404943333333","25.09085","6501700","林口區"
"244024","742-UY","2017/11/13 09:19:21","新北市林口區粉寮路60-16號","121.404368333333","25.0899416666667","6501700","林口區"
"244001","657-BX","2017/11/13 13:49:24","新北市八里區中山路三段390號","121.368086666667","25.1352883333333","6501700","林口區"
"243004","AAD-798","2017/11/13 13:49:21","新北市泰山區泰林路二段73巷27號","121.434456666667","25.0578466666667","6501600","泰山區"
"243007","380-SR","2017/11/13 13:49:27","新北市泰山區美寧街58號","121.430575","25.0647483333333","6501600","泰山區"
"243006","421-VK","2017/11/13 13:49:20","新北市泰山區黎明路25號","121.421991666667","25.0607316666667","6501600","泰山區"
"243005","646-TV","2017/11/13 13:49:25","新北市泰山區明志路三段206巷3號","121.423326666667","25.037985","6501600","泰山區"
"243008","680-BX","2017/11/13 13:49:34","新北市泰山區明志路一段497號","121.430703333333","25.0548916666667","6501600","泰山區"
"231002","002-UM","2017/11/13 13:49:14","新北市新店區溪園路393號","121.524315","24.9791333333333","6500600","新店區"
"231028","046-UY","2017/11/13 13:49:29","新北市新店區安和路三段22-4號","121.518018333333","24.981505","6500600","新店區"
"231030","047-UY","2017/11/13 13:49:30","新北市新店區安康路一段196號","121.524463333333","24.9633966666667","6500600","新店區"
"231029","106-UY","2017/11/13 13:49:18","新北市新店區安康路二段105號","121.512791666667","24.96253","6500600","新店區"
"231011","108-UY","2017/11/13 13:49:33","新北市新店區德正街29號","121.544665","24.9713483333333","6500600","新店區"
"231019","187-VK","2017/11/13 13:49:32","新北市新店區湖子內路1號","121.542725","24.9302016666667","6500600","新店區"
"231014","KEA-2219","2017/11/13 13:49:19","新北市新店區竹林路63號","121.552985","24.9514","6500600","新店區"
"231026","256-BX","2017/11/13 13:49:27","新北市新店區三民路159巷19弄46號","121.532226666667","24.9731883333333","6500600","新店區"
"231034","268-BY","2017/11/13 13:49:25","新北市新店區達觀路14巷2號","121.503341666667","24.9418166666667","6500600","新店區"
"231010","278-BY","2017/11/13 13:49:12","新北市新店區平等街66號","121.535688333333","24.9723233333333","6500600","新店區"
"231023","AAD-862","2017/11/13 13:49:20","新北市新店區國校路59號","121.538235","24.95437","6500600","新店區"
"231027","3712-VJ","2017/11/13 13:49:28","新北市新店區中興路一段34號","121.538663333333","24.9585333333333","6500600","新店區"
"231025","3713-VJ","2017/11/13 13:49:33","新北市新店區中央六街56號","121.52792","24.9757366666667","6500600","新店區"
"231024","4716-K9","2017/11/13 13:49:19","新北市新店區北新路一段271巷34號","121.539911666667","24.96719","6500600","新店區"
"231038","4715-K9","2017/11/13 13:49:27","新北市新店區安康路一段321巷5號","121.521781666667","24.962725","6500600","新店區"
"231036","512-UM","2017/11/13 13:49:28","新北市新店區安祥路110巷30弄1號","121.473905","24.9564683333333","6500600","新店區"
"231035","515-UM","2017/11/13 13:49:23","新北市新店區安忠路65巷2號","121.511386666667","24.9576566666667","6500600","新店區"
"231001","619-UM","2017/11/13 13:49:29","新北市新店區三民路42號","121.536193333333","24.9716066666667","6500600","新店區"
"231003","641-BX","2017/11/13 13:49:17","新北市新店區中興路一段123號","121.541653333333","24.9631716666667","6500600","新店區"
"231013","719-UM","2017/11/13 13:49:17","新北市新店區二十張路25巷20號","121.539355","24.982055","6500600","新店區"
"231018","719-UY","2017/11/13 13:49:26","新北市新店區中正路400巷5號","121.534936666667","24.9779083333333","6500600","新店區"
"231031","720-UM","2017/11/13 13:49:29","新北市新店區莒光路101-2號","121.521665","24.95258","6500600","新店區"
"231005","897-TW","2017/11/13 13:49:19","新北市新店區寶中路135號","121.549825","24.979325","6500600","新店區"
"231006","898-TW","2017/11/13 13:49:28","新北市新店區北宜路一段248號","121.545176666667","24.9529783333333","6500600","新店區"
"231004","899-TW","2017/11/13 13:49:22","新北市新店區中興路二段252號","121.547351666667","24.975925","6500600","新店區"
"231037","AKT-0513","2017/11/13 13:49:18","新北市新店區安康路三段359巷12弄8號","121.484365","24.9498883333333","6500600","新店區"
"235030","003-UY","2017/11/13 13:49:29","新北市中和區中山路二段131巷33號","121.503863333333","25.0028216666667","6500300","中和區"
"235027","006-UY","2017/11/13 13:49:22","新北市中和區連城路319巷11弄5號","121.489551666667","24.995015","6500300","中和區"
"235020","096-UM","2017/11/13 13:49:34","新北市中和區中正路1196號","121.4805","25.0104683333333","6500300","中和區"
"235003","097-UM","2017/11/13 13:49:21","新北市中和區大勇街29巷2-5號","121.516285","24.9942233333333","6500300","中和區"
"235029","098-UM","2017/11/13 13:49:27","新北市中和區中山路二段2巷7弄1號","121.504215","25.00651","6500300","中和區"
"235004","150-BY","2017/11/13 13:49:27","新北市中和區保健路48巷2號","121.509961666667","24.9969633333333","6500300","中和區"
"235022","151-BY","2017/11/13 13:49:28","新北市中和區連城路571-2號","121.479311666667","24.99439","6500300","中和區"
"235019","183-VK","2017/11/13 13:49:31","新北市中和區民德路25巷14號","121.469525","25.0028366666667","6500300","中和區"
"235002","185-VK","2017/11/13 13:49:19","新北市中和區立人街20號","121.519055","24.994215","6500300","中和區"
"235013","186-VK","2017/11/13 13:49:29","新北市中和區景安路177巷21號","121.506318333333","24.994475","6500300","中和區"
"235031","255-BX","2017/11/13 13:49:23","新北市中和區新生街186巷5弄27號","121.482981666667","24.9986883333333","6500300","中和區"
"235008","293-VK","2017/11/13 13:49:27","新北市中和區中興街157號","121.499963333333","24.9909716666667","6500300","中和區"
"235036","301-VK","2017/11/13 13:49:32","新北市中和區連城路97號","121.496486666667","24.99985","6500300","中和區"
"235007","352-BY","2017/11/13 13:49:28","新北市中和區景平路1號","121.52553","24.990115","6500300","中和區"
"235032","377-QA","2017/11/13 13:49:34","新北市中和區中正路167巷50號","121.498606666667","24.9926616666667","6500300","中和區"
"235025","378-QA","2017/11/13 13:49:34","新北市中和區民享街44巷1號","121.473843333333","25.00262","6500300","中和區"
"235035","269-TV","2017/11/13 13:49:19","新北市中和區中山路二段482巷9號","121.48826","25.0060383333333","6500300","中和區"
"235014","4979-A6","2017/11/13 13:49:30","新北市中和區忠孝街62巷46號","121.51313","24.983865","6500300","中和區"
"235033","4980-A6","2017/11/13 13:49:16","新北市中和區圓通路109巷3號","121.500038333333","24.9963616666667","6500300","中和區"
"235006","551-UM","2017/11/13 13:49:16","新北市中和區秀朗路三段70巷16號","121.525823333333","24.9945866666667","6500300","中和區"
"235034","558-UM","2017/11/13 13:48:00","新北市中和區連勝街38巷6號","121.49805","24.9979033333333","6500300","中和區"
"235009","565-BX","2017/11/13 13:49:21","新北市中和區復興路40號","121.504815","24.990095","6500300","中和區"
"235018","640-BX","2017/11/13 13:49:21","新北市中和區民享街68巷17號","121.473285","25.001725","6500300","中和區"
"235011","732-UM","2017/11/13 13:49:22","新北市中和區興南路二段34巷28弄4號","121.50508","24.9865483333333","6500300","中和區"
"235010","733-UM","2017/11/13 13:49:22","新北市中和區仁愛街36巷20號","121.51091","24.9873916666667","6500300","中和區"
"235026","800-TS","2017/11/13 13:49:28","新北市中和區中山路二段312巷24號","121.495195","25.00423","6500300","中和區"
"235021","801-TS","2017/11/13 13:49:18","新北市中和區民安街22巷5號","121.480173333333","25.00094","6500300","中和區"
"235005","802-TS","2017/11/13 13:49:26","新北市中和區永貞路286號","121.513108333333","25.0040933333333","6500300","中和區"
"235016","805-TS","2017/11/13 13:49:31","新北市中和區興南路三段1號","121.498303333333","24.9797683333333","6500300","中和區"
"235012","896-TW","2017/11/13 13:49:25","新北市中和區南山路335號","121.505591666667","24.9910066666667","6500300","中和區"
"235017","900-TW","2017/11/13 13:49:30","新北市中和區華福街37號","121.466218333333","24.9968166666667","6500300","中和區"
"235024","911-UM","2017/11/13 13:49:21","新北市中和區中山路二段602號","121.481803333333","25.00535","6500300","中和區"
"235001","157-BY","2017/11/13 13:49:27","新北市中和區華新街111號","121.508535","24.981535","6500300","中和區"
"235001","AAC-213","2017/11/13 13:49:20","新北市中和區秀朗路三段175巷7號","121.525021666667","24.9914583333333","6500300","中和區"
"235023","AAC-215","2017/11/13 13:49:30","新北市中和區圓通路391-4號","121.489826666667","24.9892333333333","6500300","中和區"
"220016","013-TV","2017/11/13 13:49:15","新北市板橋區太和街6巷11號","121.47393","25.0203433333333","6500100","板橋區"
"220013","072-UY","2017/11/13 13:49:24","新北市板橋區漢生東路281號","121.471275","25.0090833333333","6500100","板橋區"
"220034","073-UY","2017/11/13 13:49:24","新北市板橋區大智街71巷22弄1號","121.453136666667","25.0148133333333","6500100","板橋區"
"220105","075-UY","2017/11/13 13:49:30","新北市板橋區民生路二段120號","121.470371666667","25.0196666666667","6500100","板橋區"
"220017","AAD-861","2017/11/13 13:49:21","新北市板橋區館前西路35號","121.458318333333","25.0068683333333","6500100","板橋區"
"220039","120-SR","2017/11/13 13:49:31","新北市板橋區民生路二段120號","121.470335","25.0197533333333","6500100","板橋區"
"247009","339-TH","2017/11/13 13:49:18","新北市三重區集賢路188號","121.483871666667","25.0879483333333","6501400","蘆洲區"
"247003","335-TH","2017/11/13 13:49:30","新北市蘆洲區中華街6巷32號","121.462748333333","25.08227","6501400","蘆洲區"
"247015","057-VK","2017/11/13 13:49:19","新北市蘆洲區中正路156-1號","121.468713333333","25.0855583333333","6501400","蘆洲區"
"247005","056-VK","2017/11/13 13:49:18","新北市蘆洲區和平路62號","121.470065","25.07919","6501400","蘆洲區"
"247007","053-VK","2017/11/13 13:49:26","新北市蘆洲區集賢路269巷27號","121.482346666667","25.0832833333333","6501400","蘆洲區"
"247017","001-UY","2017/11/13 13:49:26","新北市蘆洲區民族路263巷11號","121.476216666667","25.0903266666667","6501400","蘆洲區"
"228005","097-TW","2017/11/13 12:03:01","新北市貢寮區貢寮里朝陽街1-2號","121.912351666667","25.0212483333333","6502600","貢寮區"
"208004","AAC-292","2017/11/13 13:49:23","新北市金山區重和里三重橋13號","121.592336666667","25.1901683333333","6502700","金山區"
"207002","749-BX","2017/11/13 13:49:26","新北市萬里區崁腳里崁腳路166號","121.645151666667","25.1559733333333","6502800","萬里區"
"252005","073-UM","2017/11/13 13:49:34","新北市三芝區圓山里內柑宅25-2號","121.538315","25.2270283333333","6502100","三芝區"
"207001","662-BX","2017/11/13 13:49:23","新北市萬里區磺潭里公館崙30號","121.634775","25.21125","6502800","萬里區"
"237009","210-TH","2017/11/13 13:49:14","新北市三峽區中山路11號","121.369485","24.9343783333333","6500900","三峽區"
"236064","105-UM","2017/11/13 13:49:23","新北市土城區城林路6巷80號","121.438403333333","24.9797616666667","6501300","土城區"
"236040","107-UM","2017/11/13 13:49:30","新北市土城區城林路6巷80號","121.438386666667","24.9798716666667","6501300","土城區"
"236074","166-UM","2017/11/13 13:37:53","新北市土城區城林路6巷80號","121.438333333333","24.979815","6501300","土城區"
"236028","253-BX","2017/11/13 13:49:27","新北市土城區城林路6巷80號","121.438573333333","24.9798133333333","6501300","土城區"
"236024","269-VK","2017/11/13 13:49:22","新北市土城區承天路18號","121.439345","24.9636716666667","6501300","土城區"
"236012","270-VK","2017/11/13 13:49:14","新北市土城區城林路6巷80號","121.438443333333","24.9797733333333","6501300","土城區"
"236032","271-VK","2017/11/13 13:49:25","新北市土城區城林路6巷80號","121.438453333333","24.9797516666667","6501300","土城區"
"236016","401-BY","2017/11/13 13:49:19","新北市土城區城林路6巷80號","121.438605","24.97983","6501300","土城區"
"236005","498-BY","2017/11/13 13:49:33","新北市土城區學府路二段122號","121.447098333333","24.9795233333333","6501300","土城區"
"236056","912-UM","2017/11/13 13:49:20","新北市土城區城林路6巷80號","121.438476666667","24.97975","6501300","土城區"
"236044","913-UM","2017/11/13 13:49:12","新北市土城區城林路6巷80號","121.438445","24.979945","6501300","土城區"
"236060","915-UM","2017/11/13 13:49:14","新北市土城區城林路6巷80號","121.438403333333","24.9798733333333","6501300","土城區"
"236052","AAC-216","2017/11/13 13:49:33","新北市土城區城林路6巷80號","121.438321666667","24.9798183333333","6501300","土城區"
"242021","135-UY","2017/11/13 13:49:17","新北市新莊區自重街35號","121.454185","25.04766","6500500","新莊區"
"242045","172-VK","2017/11/13 13:49:23","新北市新莊區新樹路609-7號","121.433863333333","25.0043616666667","6500500","新莊區"
"242001","233-RS","2017/11/13 13:43:40","新北市新莊區瓊林路13-3號","121.448988333333","25.03083","6500500","新莊區"
"221032","280-BY","2017/11/13 13:49:19","新北市汐止區龍安路30號","121.65496","25.0641766666667","6501100","汐止區"
"221018","753-BX","2017/11/13 13:49:34","新北市汐止區中興路82號","121.634898333333","25.0619566666667","6501100","汐止區"
"220027","145-BY","2017/11/13 13:49:19","新北市板橋區中正路48號","121.45642","25.0141","6500100","板橋區"
"220028","200-UY","2017/11/13 13:49:22","新北市板橋區大觀路二段力行3巷1-6號","121.442535","24.9968333333333","6500100","板橋區"
"220030","610-BX","2017/11/13 13:49:14","新北市板橋區篤行路二段153號","121.429556666667","24.9879666666667","6500100","板橋區"
"220004","276-BY","2017/11/13 13:49:27","新北市板橋區四川路二段75號","121.453175","24.9950266666667","6500100","板橋區"
"220050","280-UM","2017/11/13 13:49:30","新北市板橋區民生路二段161巷1號","121.470256666667","25.01989","6500100","板橋區"
"220019","283-VK","2017/11/13 13:49:25","新北市板橋區四川路一段285號","121.459196666667","25.001485","6500100","板橋區"
"220043","285-UM","2017/11/13 13:49:16","新北市板橋區民生路二段161巷1號","121.470088333333","25.0198","6500100","板橋區"
"220001","285-VK","2017/11/13 13:49:29","新北市板橋區民生路二段121號","121.47075","25.0184866666667","6500100","板橋區"
"220029","287-VK","2017/11/13 13:49:19","新北市板橋區南雅西路二段179號","121.451768333333","25.01262","6500100","板橋區"
"220009","295-UM","2017/11/13 13:49:18","新北市板橋區太和街6巷2號","121.47385","25.0200033333333","6500100","板橋區"
"220032","296-UM","2017/11/13 13:49:23","新北市板橋區大觀路二段150巷57-1號","121.441568333333","25.0001916666667","6500100","板橋區"
"220023","297-UM","2017/11/13 13:49:23","新北市板橋區大觀路一段13號","121.45038","25.0085183333333","6500100","板橋區"
"220041","299-UM","2017/11/13 00:45:18","新北市板橋區民生路二段161巷9號","121.470005","25.019465","6500100","板橋區"
"220010","303-R5","2017/11/13 13:49:25","新北市板橋區中山路二段25號","121.472526666667","25.01517","6500100","板橋區"
"220047","317-R6","2017/11/13 13:49:21","新北市板橋區民生路二段120號","121.470481666667","25.0198916666667","6500100","板橋區"
"220012","486-VK","2017/11/13 13:49:24","新北市板橋區民生路二段15-1號","121.473073333333","25.0159383333333","6500100","板橋區"
"220037","491-VK","2017/11/13 13:49:21","新北市板橋區民生路二段175號","121.46982","25.020255","6500100","板橋區"
"220104","560-BX","2017/11/13 13:49:31","新北市板橋區中正路325巷47號","121.453065","25.018785","6500100","板橋區"
"220052","561-BX","2017/11/13 13:49:29","新北市板橋區民生路二段161巷1號","121.470246666667","25.0198816666667","6500100","板橋區"
"220031","568-UM","2017/11/13 13:49:28","新北市板橋區大觀路二段22巷36號","121.444953333333","25.0037333333333","6500100","板橋區"
"220011","609-BX","2017/11/13 00:20:15","新北市板橋區民生路二段161巷1號","121.469803333333","25.0200233333333","6500100","板橋區"
"220040","637-BX","2017/11/13 13:49:32","新北市板橋區民生路二段161巷1號","121.469958333333","25.0199966666667","6500100","板橋區"
"220005","686-BX","2017/11/13 13:49:23","新北市板橋區南雅南路二段120-24號","121.452015","24.99882","6500100","板橋區"
"220025","687-BX","2017/11/13 13:49:16","新北市板橋區金門街55號","121.43331","24.993025","6500100","板橋區"
"220042","689-BX","2017/11/13 13:49:13","新北市板橋區民生路二段161巷1號","121.470005","25.020165","6500100","板橋區"
"220002","741-BX","2017/11/13 13:49:20","新北市板橋區華東街11號","121.450755","24.9978583333333","6500100","板橋區"
"220003","827-TW","2017/11/13 13:49:28","新北市板橋區南雅南路二段118號","121.452436666667","25.0002366666667","6500100","板橋區"
"220014","829-TW","2017/11/13 13:49:35","新北市板橋區中山路二段37號","121.473146666667","25.015725","6500100","板橋區"
"220051","830-TW","2017/11/11 21:34:14","新北市板橋區民生路二段161巷7號","121.470111666667","25.01963","6500100","板橋區"
"220045","831-TW","2017/11/13 13:49:24","新北市板橋區民生路二段120號","121.470608333333","25.0194983333333","6500100","板橋區"
"220038","833-TW","2017/11/13 13:49:18","新北市板橋區民生路二段120號","121.470516666667","25.0195366666667","6500100","板橋區"
"220022","895-R6","2017/11/13 13:49:30","新北市板橋區府中路32號","121.458371666667","25.0095766666667","6500100","板橋區"
"220021","985-R7","2017/11/13 13:49:16","新北市板橋區館前西路121號","121.456655","25.00755","6500100","板橋區"
"220046","AAC-210","2017/11/13 13:49:31","新北市板橋區民生路二段161巷3號","121.470168333333","25.019825","6500100","板橋區"
"220018","AAC-253","2017/11/13 13:49:24","新北市板橋區館前西路4-1號","121.459145","25.0071133333333","6500100","板橋區"
