"lineid","car","time","location","longitude","latitude","cityid","cityname"
"234007","207-UY","2017/11/13 18:19:13","新北市永和區永貞路391號","121.507896666667","25.0088016666667","6500400","永和區"
"234042","862-TW","2017/11/13 18:19:23","新北市永和區福和路1號","121.526076666667","25.009775","6500400","永和區"
"234050","863-TW","2017/11/13 16:11:07","新北市永和區福和路1號","121.526461666667","25.009895","6500400","永和區"
"234026","9381-KE","2017/11/13 18:19:28","新北市永和區大新街19巷4號","121.51504","25.0088983333333","6500400","永和區"
"249005","172-UM","2017/11/13 18:19:23","新北市八里區荖阡坑路15-30號","121.400293333333","25.1405833333333","6502300","八里區"
"249001","173-UM","2017/11/13 18:19:18","新北市八里區龍米路一段200號","121.451936666667","25.1279016666667","6502300","八里區"
"249004","303-UY","2017/11/13 18:19:28","新北市八里區龍米路二段202號","121.433476666667","25.1585566666667","6502300","八里區"
"249002","305-UY","2017/11/13 18:19:09","新北市八里區龍形二街37號","121.45033","25.1327833333333","6502300","八里區"
"248014","025-BX","2017/11/13 18:19:22","新北市五股區自強路20號","121.434398333333","25.0741266666667","6501500","五股區"
"248016","026-BX","2017/11/13 18:19:20","新北市五股區成泰路三段477巷18號","121.44984","25.098945","6501500","五股區"
"248006","077-UY","2017/11/13 18:19:23","新北市五股區中興路一段164-1號","121.46406","25.07394","6501500","五股區"
"248008","095-VK","2017/11/13 18:19:20","新北市五股區更洲路32巷8弄14號","121.459236666667","25.079635","6501500","五股區"
"248018","225-UY","2017/11/13 18:18:26","新北市五股區御史路205-1號","121.431366666667","25.10053","6501500","五股區"
"248012","247-BX","2017/11/13 18:19:20","新北市五股區御史路9號","121.441825","25.0905","6501500","五股區"
"248010","272-BY","2017/11/13 18:19:14","新北市五股區成泰路一段187號","121.434986666667","25.0765233333333","6501500","五股區"
"248004","677-BX","2017/11/13 18:19:11","新北市五股區成泰路二段87號","121.438206666667","25.0841383333333","6501500","五股區"
"248002","678-BX","2017/11/13 18:19:27","新北市五股區西雲路66號","121.443595","25.0916583333333","6501500","五股區"
"232011","375-UM","2017/11/13 18:19:22","新北市坪林區坪雙路一段21號","121.712883333333","24.94133","6502000","坪林區"
"244013","069-UM","2017/11/13 18:19:27","新北市林口區佳林路101巷36號","121.386996666667","25.0799833333333","6501700","林口區"
"244006","080-UY","2017/11/13 16:51:29","新北市林口區粉寮路二段160巷40號","121.405605","25.091195","6501700","林口區"
"244019","403-UM","2017/11/13 18:19:26","新北市林口區文化一路一段124號","121.374836666667","25.07219","6501700","林口區"
"244025","742-UY","2017/11/13 18:19:20","新北市林口區文化北路一段151號","121.357156666667","25.0702","6501700","林口區"
"244009","410-SL","2017/11/13 18:19:18","新北市林口區民生路166號","121.379815","25.0877316666667","6501700","林口區"
"244023","483-VK","2017/11/13 18:19:22","新北市林口區仁愛路二段50號","121.384915","25.0757216666667","6501700","林口區"
"244017","485-VK","2017/11/13 18:19:16","新北市林口區八德路20巷3號","121.367888333333","25.0675316666667","6501700","林口區"
"244007","656-BX","2017/11/13 18:19:16","新北市林口區湖子17-9號","121.385033333333","25.0912616666667","6501700","林口區"
"244011","701-TV","2017/11/13 18:19:26","新北市林口區中正路85號","121.394676666667","25.0773616666667","6501700","林口區"
"244021","838-TS","2017/11/13 18:19:16","新北市林口區自強五街23號","121.400128333333","25.07578","6501700","林口區"
"243009","297-R6","2017/11/13 15:45:43","新北市泰山區黎明路25號","121.421963333333","25.0610283333333","6501600","泰山區"
"243013","646-TV","2017/11/13 18:19:11","新北市泰山區南林路93號","121.415498333333","25.051175","6501600","泰山區"
"222003","436-BY","2017/11/13 18:19:20","新北市深坑區旺耽路67號","121.626248333333","25.0029833333333","6501800","深坑區"
"222002","659-BX","2017/11/13 18:19:11","新北市深坑區雲鄉路102號","121.622261666667","24.9987266666667","6501800","深坑區"
"231041","002-UM","2017/11/13 18:19:13","新北市新店區安華路28-1號","121.519716666667","24.9606616666667","6500600","新店區"
"231059","046-UY","2017/11/13 18:19:22","新北市新店區安華路28-1號","121.519481666667","24.9608916666667","6500600","新店區"
"231061","047-UY","2017/11/13 18:19:28","新北市新店區安華路28-1號","121.519031666667","24.96096","6500600","新店區"
"231060","106-UY","2017/11/13 18:19:21","新北市新店區安華路28-1號","121.519651666667","24.9608283333333","6500600","新店區"
"231047","108-UY","2017/11/13 18:19:14","新北市新店區安華路28-1號","121.51932","24.9607483333333","6500600","新店區"
"231052","187-VK","2017/11/13 18:19:12","新北市新店區安華路28-1號","121.519646666667","24.9611166666667","6500600","新店區"
"231050","KEA-2219","2017/11/13 18:19:25","新北市新店區安華路28-1號","121.519895","24.9611816666667","6500600","新店區"
"231057","256-BX","2017/11/13 18:19:17","新北市新店區安華路28-1號","121.51988","24.961085","6500600","新店區"
"231046","278-BY","2017/11/13 18:19:21","新北市新店區直潭七街60號","121.532205","24.9398333333333","6500600","新店區"
"231054","AAD-862","2017/11/13 18:19:15","新北市新店區安華路28-1號","121.51981","24.96113","6500600","新店區"
"231058","3712-VJ","2017/11/13 18:19:20","新北市新店區秀山路72號","121.531208333333","24.9609433333333","6500600","新店區"
"231056","3713-VJ","2017/11/13 18:19:19","新北市新店區安康路一段35號","121.531573333333","24.9607983333333","6500600","新店區"
"231055","4716-K9","2017/11/13 18:19:31","新北市新店區安康路一段3-1號","121.534243333333","24.9606666666667","6500600","新店區"
"231067","4772-VM","2017/11/13 18:19:17","新北市新店區安華路1-1號","121.519105","24.9605883333333","6500600","新店區"
"231065","512-UM","2017/11/13 18:19:16","新北市新店區安華路28-1號","121.519165","24.9612933333333","6500600","新店區"
"231064","515-UM","2017/11/13 18:19:23","新北市新店區安華路28-1號","121.51982","24.961105","6500600","新店區"
"231040","619-UM","2017/11/13 18:19:23","新北市新店區安華路28-1號","121.519488333333","24.9606183333333","6500600","新店區"
"231042","641-BX","2017/11/13 18:19:27","新北市新店區安華路28-1號","121.519701666667","24.9608166666667","6500600","新店區"
"231049","719-UM","2017/11/13 18:19:16","新北市新店區安華路28-1號","121.519401666667","24.9612733333333","6500600","新店區"
"231051","719-UY","2017/11/13 18:19:12","新北市新店區安華路28-1號","121.519703333333","24.9606016666667","6500600","新店區"
"231062","720-UM","2017/11/13 18:19:15","新北市新店區安華路28-1號","121.519325","24.9611783333333","6500600","新店區"
"231044","897-TW","2017/11/13 18:19:22","新北市新店區安華路28-1號","121.519376666667","24.9607083333333","6500600","新店區"
"231066","AKT-0513","2017/11/13 18:19:12","新北市新店區安華路28-1號","121.519325","24.9605816666667","6500600","新店區"
"241017","063-VK","2017/11/13 18:19:26","新北市八里區中山路三段409號","121.368328333333","25.13482","6500200","三重區"
"241033","AAC-255","2017/11/13 18:19:26","新北市三重區中興北街42巷31號","121.46817","25.049285","6500200","三重區"
"235066","003-UY","2017/11/13 18:19:13","新北市中和區中山路二段172號","121.501045","25.0028483333333","6500300","中和區"
"235064","005-UY","2017/11/13 18:19:13","新北市中和區中正路137號","121.499476666667","24.99353","6500300","中和區"
"235063","006-UY","2017/11/13 18:19:11","新北市中和區中正路571巷2弄11號","121.486116666667","24.993735","6500300","中和區"
"235039","097-UM","2017/11/13 18:19:22","新北市中和區中正路23號","121.50256","24.9934483333333","6500300","中和區"
"235065","098-UM","2017/11/13 18:19:21","新北市中和區莊敬路49巷18號","121.50162","25.00615","6500300","中和區"
"235040","150-BY","2017/11/13 16:00:05","新北市中和區和城路一段271巷1號","121.485461666667","24.991665","6500300","中和區"
"235058","151-BY","2017/11/13 18:19:23","新北市中和區錦和路408號","121.49112","24.98965","6500300","中和區"
"235055","183-VK","2017/11/13 18:19:11","新北市中和區員山路36巷16-3號","121.48502","24.991455","6500300","中和區"
"235038","185-VK","2017/11/13 18:19:25","新北市中和區大智街42巷9號","121.522468333333","24.9920183333333","6500300","中和區"
"235049","186-VK","2017/11/13 18:19:18","新北市中和區中正路637巷60弄61號","121.485431666667","24.99331","6500300","中和區"
"235067","255-BX","2017/11/13 18:19:31","新北市中和區員山路36巷16-6號","121.485338333333","24.9921233333333","6500300","中和區"
"235043","352-BY","2017/11/13 18:19:25","新北市中和區中正路288號","121.49458","24.9940583333333","6500300","中和區"
"235068","377-QA","2017/11/13 18:19:19","新北市中和區員山路36巷16-3號","121.484985","24.9911633333333","6500300","中和區"
"235061","378-QA","2017/11/13 18:19:30","新北市中和區國光街215巷24弄3-3號","121.467058333333","25.0003433333333","6500300","中和區"
"235050","4979-A6","2017/11/13 18:19:25","新北市中和區捷運路61巷14號","121.508845","24.98932","6500300","中和區"
"235069","4980-A6","2017/11/13 18:19:16","新北市中和區圓通路164號","121.497393333333","24.9949366666667","6500300","中和區"
"235042","551-UM","2017/11/13 18:19:21","新北市中和區大仁街20巷25弄19號","121.518606666667","24.9935833333333","6500300","中和區"
"235070","558-UM","2017/11/13 18:19:23","新北市中和區中正路226號","121.496233333333","24.9940416666667","6500300","中和區"
"235045","565-BX","2017/11/13 18:19:22","新北市中和區景安路227號","121.50421","24.9912666666667","6500300","中和區"
"235054","640-BX","2017/11/13 18:19:16","新北市中和區莒光路185號","121.472561666667","24.9990316666667","6500300","中和區"
"235047","732-UM","2017/11/13 18:17:51","新北市中和區中正路303號","121.49291","24.99394","6500300","中和區"
"235046","733-UM","2017/11/13 18:19:31","新北市中和區員山路36巷12號","121.484005","24.9908566666667","6500300","中和區"
"235062","800-TS","2017/11/13 18:19:18","新北市中和區景平路999巷1號","121.495411666667","25.0059683333333","6500300","中和區"
"235057","801-TS","2017/11/13 18:19:18","新北市中和區員山路84號","121.480808333333","24.99419","6500300","中和區"
"235041","802-TS","2017/11/13 18:19:17","新北市中和區景安路34號","121.507158333333","24.99836","6500300","中和區"
"235052","805-TS","2017/11/13 18:19:25","新北市中和區南山路272號","121.507926666667","24.9880766666667","6500300","中和區"
"235048","896-TW","2017/11/13 18:19:18","新北市中和區中正路637巷52弄1號","121.485381666667","24.9934133333333","6500300","中和區"
"235053","900-TW","2017/11/13 18:19:14","新北市中和區員山路36巷13號","121.48433","24.9907266666667","6500300","中和區"
"235060","911-UM","2017/11/13 18:19:17","新北市中和區員山路82巷6-3號","121.481366666667","24.9935416666667","6500300","中和區"
"235037","157-BY","2017/11/13 18:19:25","新北市中和區忠孝街39-13號","121.512111666667","24.9845266666667","6500300","中和區"
"235037","AAC-213","2017/11/13 18:19:31","新北市中和區景平路73號","121.518968333333","24.9914383333333","6500300","中和區"
"235059","AAC-215","2017/11/13 18:19:11","新北市中和區員山路36巷16-3號","121.485046666667","24.9916883333333","6500300","中和區"
"247008","053-VK","2017/11/13 18:19:24","新北市八里區商港路2-1號","121.39732","25.1442766666667","6501400","蘆洲區"
"228003","097-TW","2017/11/13 18:19:14","新北市貢寮區真理里美艷山街44號","121.92476","25.0662133333333","6502600","貢寮區"
"228002","585-TW","2017/11/13 18:19:17","新北市貢寮區福連里馬崗街1號","121.998163333333","25.0163016666667","6502600","貢寮區"
"228001","670-TC","2017/11/13 18:19:27","新北市貢寮區真理里新港街26巷55弄2-1號","121.927378333333","25.05287","6502600","貢寮區"
"224006","676-BX","2017/11/13 18:19:16","新北市瑞芳區民權街3-2號","121.808123333333","25.1074283333333","6501200","瑞芳區"
"224002","639-TC","2017/11/13 18:19:21","新北市瑞芳區三爪子坑路97號","121.811168333333","25.1073083333333","6501200","瑞芳區"
"224009","285-BY","2017/11/13 18:19:14","新北市瑞芳區金光路162號","121.855486666667","25.1066016666667","6501200","瑞芳區"
"224008","275-VK","2017/11/13 18:19:27","新北市瑞芳區逢甲路9號","121.809981666667","25.1084766666667","6501200","瑞芳區"
"224007","273-VK","2017/11/13 18:19:12","新北市瑞芳區大埔路61號","121.76437","25.1019183333333","6501200","瑞芳區"
"224005","271-BY","2017/11/13 18:19:29","新北市瑞芳區建基路二段110-1號","121.812066666667","25.13244","6501200","瑞芳區"
"227008","642-TC","2017/11/13 18:19:11","新北市雙溪區牡丹里牡丹73號","121.851673333333","25.0593483333333","6502500","雙溪區"
"227001","400-TW","2017/11/13 18:19:27","新北市雙溪區共和里中山路2號","121.863758333333","25.0337883333333","6502500","雙溪區"
"253005","032-BX","2017/11/13 18:19:30","新北市石門區中央路4-1號","121.565395","25.2913733333333","6502200","石門區"
"253006","295-VK","2017/11/13 18:19:28","新北市石門區老梅路99號","121.546858333333","25.28922","6502200","石門區"
"222001","KEA-2212","2017/11/13 18:19:21","新北市深坑區北深路二段58號","121.619075","25.0043566666667","6501800","深坑區"
"208002","742-BX","2017/11/13 18:19:15","新北市金山區清泉里清水路60巷20號","121.634786666667","25.2340233333333","6502700","金山區"
"208003","665-BX","2017/11/13 18:19:16","新北市金山區民生路4號","121.649613333333","25.2246866666667","6502700","金山區"
"208001","761-BX","2017/11/13 18:19:23","新北市金山區環金路19號","121.64117","25.2176316666667","6502700","金山區"
"251004","009-UM","2017/11/13 18:19:18","新北市淡水區民族路33巷16-19號","121.462403333333","25.135845","6501000","淡水區"
"251005","010-UM","2017/11/13 18:19:30","新北市淡水區水源街一段122巷39號","121.447083333333","25.1703533333333","6501000","淡水區"
"251001","011-UM","2017/11/13 18:19:28","新北市淡水區自立路1巷21號","121.462316666667","25.1294783333333","6501000","淡水區"
"251008","181-VK","2017/11/13 18:19:23","新北市淡水區淡金路204號","121.45989","25.1665733333333","6501000","淡水區"
"251013","182-VK","2017/11/13 18:19:15","新北市淡水區行忠路592號","121.468851666667","25.199245","6501000","淡水區"
"251010","413-VK","2017/11/13 18:19:20","新北市淡水區淡海路188號","121.420318333333","25.1852033333333","6501000","淡水區"
"251012","441-VK","2017/11/13 18:19:22","新北市淡水區北新路二段77-5號","121.48047","25.185525","6501000","淡水區"
"251015","442-VK","2017/11/13 18:19:24","新北市淡水區興福寮88巷1號","121.485493333333","25.1650983333333","6501000","淡水區"
"251006","561-UM","2017/11/13 18:19:17","新北市淡水區新民街76巷32號","121.439183333333","25.1774116666667","6501000","淡水區"
"251011","650-BX","2017/11/13 18:19:17","新北市淡水區坪頂路51巷2號","121.458423333333","25.162615","6501000","淡水區"
"251002","672-BX","2017/11/13 18:19:29","新北市淡水區中正東路一段34號","121.452506666667","25.1623966666667","6501000","淡水區"
"251003","766-UM","2017/11/13 18:19:18","新北市淡水區北新路135號","121.449403333333","25.1788216666667","6501000","淡水區"
"207003","550-UM","2017/11/13 18:19:30","新北市萬里區野柳里港東路6-4號","121.686736666667","25.2032833333333","6502800","萬里區"
"207004","225-TW","2017/11/13 18:19:16","新北市萬里區中幅里中福路186號","121.673971666667","25.165625","6502800","萬里區"
"252005","073-UM","2017/11/13 15:16:54","","121.50449","25.2644483333333","6502100","三芝區"
"252002","178-VK","2017/11/13 18:19:11","新北市三芝區中山路二段39號","121.502943333333","25.2551633333333","6502100","三芝區"
"252003","249-BX","2017/11/13 18:19:28","新北市三芝區錫板里南勢崗5-3號","121.48","25.262605","6502100","三芝區"
"252001","292-VK","2017/11/13 18:19:25","新北市三芝區中興街二段2號","121.498341666667","25.2566916666667","6502100","三芝區"
"237004","078-UY","2017/11/13 18:19:20","新北市三峽區添福14-43號","121.367703333333","24.8998216666667","6500900","三峽區"
"237007","153-BY","2017/11/13 18:19:16","新北市三峽區中正路二段582號","121.359281666667","24.9059683333333","6500900","三峽區"
"237009","210-TH","2017/11/13 18:19:22","新北市三峽區大勇路36巷3號","121.366821666667","24.9371733333333","6500900","三峽區"
"237013","252-BX","2017/11/13 18:19:29","新北市三峽區大同路2-1號","121.378403333333","24.9300333333333","6500900","三峽區"
"237012","275-BY","2017/11/13 18:19:27","新北市三峽區民生街1巷5號","121.378546666667","24.9361416666667","6500900","三峽區"
"237008","302-VK","2017/11/13 18:19:13","新北市三峽區白雞68-65號","121.392605","24.9088733333333","6500900","三峽區"
"237014","433-BY","2017/11/13 18:19:18","新北市三峽區復興路110巷1弄15號","121.37236","24.9382966666667","6500900","三峽區"
"237011","572-TV","2017/11/13 18:09:22","新北市三峽區介壽路三段20號","121.395985","24.936225","6500900","三峽區"
"237015","649-BX","2017/11/13 18:19:20","新北市三峽區紫新路1號","121.422883333333","24.9204833333333","6500900","三峽區"
"237005","AKY-6261","2017/11/13 18:19:13","新北市三峽區忠孝街27-6號","121.371465","24.9344566666667","6500900","三峽區"
"236069","105-UM","2017/11/13 18:19:28","新北市土城區永豐路202巷7號","121.466273333333","24.9832816666667","6501300","土城區"
"236042","107-UM","2017/11/13 18:19:27","新北市土城區樂利街3巷15號","121.448521666667","24.9864883333333","6501300","土城區"
"236078","166-UM","2017/11/13 18:19:17","新北市土城區永安街115巷22號","121.429005","24.9632916666667","6501300","土城區"
"236030","253-BX","2017/11/13 18:19:29","新北市土城區順風路24號","121.440733333333","24.9767083333333","6501300","土城區"
"236026","269-VK","2017/11/13 18:19:27","新北市土城區承天路18號","121.43939","24.9635066666667","6501300","土城區"
"236014","270-VK","2017/11/13 18:19:20","新北市土城區青雲路39巷7號","121.460265","24.9873566666667","6501300","土城區"
"236036","271-VK","2017/11/13 18:19:25","新北市土城區青雲路451巷8弄9號","121.459593333333","24.9744383333333","6501300","土城區"
"236020","401-BY","2017/11/13 18:19:16","新北市土城區明德路二段8巷2號","121.452266666667","24.9803083333333","6501300","土城區"
"236058","912-UM","2017/11/13 18:19:32","新北市土城區中央路四段332號","121.41354","24.9554533333333","6501300","土城區"
"236048","913-UM","2017/11/13 18:19:20","新北市土城區明德路一段361-3號","121.456258333333","24.9777183333333","6501300","土城區"
"236062","915-UM","2017/11/13 18:19:14","新北市土城區清水路318號","121.463563333333","24.9849666666667","6501300","土城區"
"236053","AAC-216","2017/11/13 18:19:21","新北市土城區中華路二段92號","121.438215","24.97477","6501300","土城區"
"242031","AAC-296","2017/11/13 18:19:10","新北市新莊區新泰路255巷25號","121.445076666667","25.0396433333333","6500500","新莊區"
"242029","986-R7","2017/11/13 18:19:22","新北市新莊區中平路194號","121.444863333333","25.0483066666667","6500500","新莊區"
"242050","751-BX","2017/11/13 18:19:25","新北市新莊區民本街11巷24號","121.428871666667","25.0202766666667","6500500","新莊區"
"242025","615-BX","2017/11/13 18:19:17","新北市新莊區五權一路12巷10號","121.457206666667","25.064585","6500500","新莊區"
"242023","613-BX","2017/11/13 18:19:18","新北市新莊區新泰路528號","121.441996666667","25.0475716666667","6500500","新莊區"
"242027","612-BX","2017/11/13 18:19:24","新北市新莊區幸福路821號","121.4453","25.04896","6500500","新莊區"
"242044","497-BY","2017/11/13 18:19:23","新北市新莊區新北大道七段339號","121.41294","25.0276416666667","6500500","新莊區"
"242048","441-UM","2017/11/13 18:19:23","新北市樹林區中正路175號","121.423883333333","25.00262","6500500","新莊區"
"242053","440-UM","2017/11/13 18:19:16","新北市新莊區民安西路408號","121.428811666667","25.0099016666667","6500500","新莊區"
"242042","400-BY","2017/11/13 18:19:25","新北市新莊區天祥街80號","121.415648333333","25.02936","6500500","新莊區"
"242060","362-BY","2017/11/13 18:19:12","新北市新莊區後港一路214號","121.433731666667","25.0283266666667","6500500","新莊區"
"242058","353-BY","2017/11/13 18:19:32","新北市新莊區新北大道七段762號","121.412751666667","25.0253733333333","6500500","新莊區"
"242007","132-UY","2017/11/13 18:19:26","新北市新莊區自治街35號","121.4541","25.0479083333333","6500500","新莊區"
"242036","133-UY","2017/11/13 18:19:18","新北市新莊區後港一路31巷3弄2號","121.425021666667","25.0267166666667","6500500","新莊區"
"242046","172-VK","2017/11/13 18:19:24","新北市新莊區中正路829巷22弄41號","121.42074","25.0268483333333","6500500","新莊區"
"242009","173-VK","2017/11/13 18:19:26","新北市新莊區幸福路600號","121.45315","25.049435","6500500","新莊區"
"242015","175-VK","2017/11/13 18:19:24","新北市新莊區中和街122號","121.447465","25.0478133333333","6500500","新莊區"
"242002","176-VK","2017/11/13 18:19:30","新北市新莊區碧江街31號","121.45226","25.03316","6500500","新莊區"
"242001","233-RS","2017/11/13 14:44:09","新北市新莊區環河路48-7號","121.436956666667","25.0098166666667","6500500","新莊區"
"242056","349-TH","2017/11/13 18:19:11","新北市新莊區新泰路3巷39號","121.449078333333","25.031745","6500500","新莊區"
"242011","351-TH","2017/11/13 18:19:11","新北市新莊區中港路591巷17號","121.450318333333","25.052395","6500500","新莊區"
"238015","755-BX","2017/11/13 18:19:11","新北市樹林區啟智街82-12號","121.418776666667","24.99053","6500700","樹林區"
"238023","601-UM","2017/11/13 18:19:30","新北市樹林區三福街47巷10號","121.407946666667","25.0158333333333","6500700","樹林區"
"238019","599-UM","2017/11/13 18:19:15","新北市樹林區八德街119號","121.421595","24.979975","6500700","樹林區"
"238018","571-TV","2017/11/13 18:19:28","新北市樹林區鎮前街53號","121.425173333333","24.9914833333333","6500700","樹林區"
"238024","5061-A6","2017/11/13 18:19:25","新北市樹林區中山路一段174號","121.421961666667","24.9890416666667","6500700","樹林區"
"238021","KEA-2217","2017/11/13 18:19:14","新北市樹林區柑園街二段9號","121.388118333333","24.9558116666667","6500700","樹林區"
"238022","KEA-2213","2017/11/13 18:19:15","新北市樹林區中山路三段125-3號","121.396776666667","24.9733166666667","6500700","樹林區"
"238025","303-VK","2017/11/13 18:19:21","新北市樹林區保安街一段332號","121.41821","24.9977166666667","6500700","樹林區"
"238017","283-BY","2017/11/13 18:19:12","新北市樹林區中正路865號","121.408835","25.0182416666667","6500700","樹林區"
"238014","282-BY","2017/11/13 18:19:28","新北市樹林區潭興街107巷21弄26號","121.423683333333","24.9985283333333","6500700","樹林區"
"238020","268-VK","2017/11/13 18:19:28","新北市樹林區三俊街65巷38號","121.413385","25.0177366666667","6500700","樹林區"
"238026","172-UY","2017/11/13 18:19:24","新北市樹林區佳園路一段75巷11弄47號","121.39506","24.96999","6500700","樹林區"
"238016","169-UY","2017/11/13 18:19:23","新北市樹林區文化街28號","121.419246666667","24.987705","6500700","樹林區"
"239007","AAC-297","2017/11/13 18:19:19","新北市鶯歌區尖山埔路1號","121.349606666667","24.95105","6500800","鶯歌區"
"239006","891-R6","2017/11/13 18:19:21","新北市鶯歌區鶯桃路365巷56號","121.331905","24.9624483333333","6500800","鶯歌區"
"239008","527-UM","2017/11/13 18:19:13","新北市鶯歌區國際一路179號","121.336201666667","24.9765233333333","6500800","鶯歌區"
"239005","526-UM","2017/11/13 18:19:23","新北市鶯歌區鶯桃路668巷23號","121.328998333333","24.97027","6500800","鶯歌區"
"239001","417-VK","2017/11/13 18:19:18","新北市鶯歌區國中街195號","121.338261666667","24.93917","6500800","鶯歌區"
"239003","360-BY","2017/11/13 18:19:23","新北市鶯歌區福安街58號","121.335543333333","24.965215","6500800","鶯歌區"
"239002","359-BY","2017/11/13 18:19:22","新北市鶯歌區國慶街155號","121.35105","24.953215","6500800","鶯歌區"
"239004","193-VK","2017/11/13 18:19:28","新北市鶯歌區尖山路174巷35弄3號","121.344306666667","24.9485566666667","6500800","鶯歌區"
"221008","489-VK","2017/11/13 18:19:25","新北市汐止區康寧街706-2號","121.638531666667","25.0731183333333","6501100","汐止區"
"221036","130-UY","2017/11/13 18:19:13","新北市汐止區長安路18號","121.667641666667","25.0778316666667","6501100","汐止區"
"221015","131-UY","2017/11/13 18:19:25","新北市汐止區鄉長路二段23巷10號","121.667413333333","25.0829383333333","6501100","汐止區"
"221010","269-BY","2017/11/13 18:19:26","新北市汐止區祥雲街12號","121.64617","25.0897683333333","6501100","汐止區"
"221012","278-VK","2017/11/13 18:19:24","新北市汐止區保長路27巷13號","121.672991666667","25.0803216666667","6501100","汐止區"
"221023","279-VK","2017/11/13 18:19:18","新北市汐止區中興路250號","121.629141666667","25.068535","6501100","汐止區"
"221032","280-BY","2017/11/13 18:19:25","新北市汐止區力行街31號","121.616826666667","25.0504","6501100","汐止區"
"221027","281-BY","2017/11/13 18:19:23","新北市汐止區和平街3-1號","121.66345","25.0707166666667","6501100","汐止區"
"221021","299-VK","2017/11/13 18:19:26","新北市汐止區龍安路173號","121.653775","25.0629916666667","6501100","汐止區"
"221035","622-UM","2017/11/13 18:19:21","新北市汐止區大同路二段118號","121.650923333333","25.0637716666667","6501100","汐止區"
"221025","623-UM","2017/11/13 18:19:19","新北市汐止區勤進路12巷39號","121.659056666667","25.062805","6501100","汐止區"
"221038","646-BX","2017/11/13 18:19:28","新北市汐止區仁愛路203號","121.664836666667","25.06613","6501100","汐止區"
"221033","647-BX","2017/11/13 18:19:29","新北市汐止區宜興街40巷7弄2號","121.622491666667","25.041545","6501100","汐止區"
"221002","707-TV","2017/11/13 18:19:27","新北市汐止區福德一路213巷35號","121.635781666667","25.0648966666667","6501100","汐止區"
"221018","753-BX","2017/11/13 18:19:22","新北市汐止區茄苳路118號","121.668031666667","25.0701916666667","6501100","汐止區"
"220062","303-R5","2017/11/13 18:19:15","新北市板橋區民生路二段120號","121.470446666667","25.0198616666667","6500100","板橋區"
"242021","280-VK","2017/11/13 18:19:27","新北市新莊區新興街36巷2號","121.45075","25.0369366666667","6500500","新莊區"
