"lineid","car","time","location","longitude","latitude","cityid","cityname"
"234046","148-BY","2017/11/13 19:39:22","新北市永和區秀朗路二段99號","121.523406666667","25.001745","6500400","永和區"
"234013","149-BY","2017/11/13 19:39:29","新北市永和區永平路224號","121.508991666667","25.010545","6500400","永和區"
"234007","207-UY","2017/11/13 19:39:13","新北市永和區永和路一段2號","121.512758333333","25.0044533333333","6500400","永和區"
"234081","298-R6","2017/11/13 19:39:20","新北市永和區林森路20巷11號","121.525585","25.0059916666667","6500400","永和區"
"234038","336-UY","2017/11/13 19:39:25","新北市永和區秀朗路二段181巷25號","121.526683333333","25.0015116666667","6500400","永和區"
"234064","337-UY","2017/11/13 19:39:10","新北市永和區秀朗路一段192巷6弄12號","121.519076666667","25.002385","6500400","永和區"
"234086","338-UY","2017/11/13 19:39:25","新北市永和區永亨路165巷1-5號","121.526161666667","25.004095","6500400","永和區"
"234070","552-UM","2017/11/13 19:39:28","新北市永和區永和路二段234號","121.515815","25.0145333333333","6500400","永和區"
"234054","553-UM","2017/11/13 19:39:27","新北市永和區竹林路39巷22號","121.518885","25.01474","6500400","永和區"
"234017","745-BX","2017/11/13 19:39:28","新北市永和區永和路二段425巷18號","121.514676666667","25.0176916666667","6500400","永和區"
"234030","746-BX","2017/11/13 19:39:28","新北市永和區民生路37巷11號","121.523823333333","24.9980583333333","6500400","永和區"
"234061","AAD-866","2017/11/13 19:39:14","新北市永和區中正路399號","121.517133333333","25.00433","6500400","永和區"
"234042","862-TW","2017/11/13 19:39:23","新北市永和區永貞路300號","121.51225","25.0045716666667","6500400","永和區"
"234050","863-TW","2017/11/13 19:39:30","新北市永和區保福路二段157號","121.50942","25.0146983333333","6500400","永和區"
"234026","9381-KE","2017/11/13 19:39:28","新北市永和區中和路523號","121.511086666667","25.002685","6500400","永和區"
"249002","305-UY","2017/11/13 19:39:29","新北市八里區頂寮二街33-1號","121.45033","25.1252316666667","6502300","八里區"
"249003","593-UM","2017/11/13 19:39:22","新北市八里區華新村1-1號","121.399476666667","25.146075","6502300","八里區"
"248014","025-BX","2017/11/13 19:39:13","新北市五股區工商路164-1號","121.433523333333","25.0880383333333","6501500","五股區"
"248016","026-BX","2017/11/13 19:39:25","新北市五股區成泰路三段476號","121.45184","25.1014033333333","6501500","五股區"
"248008","095-VK","2017/11/13 19:39:20","新北市五股區四維路118巷13號","121.469183333333","25.0742616666667","6501500","五股區"
"248018","225-UY","2017/11/13 19:29:06","新北市五股區壟路16號","121.41537","25.0855983333333","6501500","五股區"
"248012","247-BX","2017/11/13 19:39:13","新北市五股區民義路一段48號","121.4369","25.0847316666667","6501500","五股區"
"248010","272-BY","2017/11/13 19:39:14","新北市五股區水碓一路23號","121.43063","25.071205","6501500","五股區"
"248004","677-BX","2017/11/13 19:39:16","新北市五股區工商路116號","121.43695","25.08559","6501500","五股區"
"248002","678-BX","2017/11/13 19:39:27","新北市五股區成泰路三段577巷49號","121.450743333333","25.103195","6501500","五股區"
"234077","969-R7","2017/11/13 19:39:26","新北市永和區民族街67巷25號","121.519408333333","24.9971533333333","6500400","永和區"
"234074","AAC-211","2017/11/13 19:39:15","新北市永和區竹林路225巷7號","121.521346666667","25.00857","6500400","永和區"
"234067","AAC-212","2017/11/13 19:39:23","新北市永和區中山路一段186號","121.509045","25.0089216666667","6500400","永和區"
"234003","AAC-295","2017/11/13 19:39:25","新北市永和區自由街71號","121.513448333333","25.005165","6500400","永和區"
"244006","080-UY","2017/11/13 16:51:29","新北市林口區粉寮路二段160巷40號","121.405605","25.091195","6501700","林口區"
"244019","403-UM","2017/11/13 19:39:26","新北市林口區文化二路一段490-8號","121.375893333333","25.0781683333333","6501700","林口區"
"243012","AAD-798","2017/11/13 19:39:14","新北市泰山區仁愛路100巷30號","121.433443333333","25.054975","6501600","泰山區"
"243009","297-R6","2017/11/13 19:39:09","新北市泰山區美寧街76號","121.431515","25.0646","6501600","泰山區"
"243015","380-SR","2017/11/13 19:39:21","新北市泰山區民權街69號","121.428845","25.0499133333333","6501600","泰山區"
"243014","421-VK","2017/11/13 19:39:29","新北市泰山區仁愛路159號","121.435083333333","25.0563816666667","6501600","泰山區"
"243010","KEA-2215","2017/11/13 19:39:29","新北市泰山區明志路二段7巷11號","121.430651666667","25.0533733333333","6501600","泰山區"
"243011","KEA-2216","2017/11/13 19:39:30","新北市泰山區新北大道六段196號","121.42715","25.0372233333333","6501600","泰山區"
"243013","646-TV","2017/11/13 19:39:15","新北市泰山區應化街13號","121.423815","25.0436866666667","6501600","泰山區"
"243016","680-BX","2017/11/13 19:39:23","新北市泰山區中山路三段79號","121.418106666667","25.0321016666667","6501600","泰山區"
"222003","436-BY","2017/11/13 19:33:30","新北市深坑區深南路51-1號","121.621108333333","25.0100316666667","6501800","深坑區"
"222002","659-BX","2017/11/13 19:39:11","新北市深坑區北深路一段177號","121.632501666667","25.010875","6501800","深坑區"
"231041","002-UM","2017/11/13 19:39:12","新北市新店區中正路487號","121.533748333333","24.9821166666667","6500600","新店區"
"231059","046-UY","2017/11/13 19:39:22","新北市新店區安和路二段218-1號","121.518035","24.9753016666667","6500600","新店區"
"231061","047-UY","2017/11/13 19:39:08","新北市新店區安民街125號","121.516333333333","24.968755","6500600","新店區"
"231060","106-UY","2017/11/13 19:39:21","新北市新店區安康路二段163號","121.510073333333","24.9592783333333","6500600","新店區"
"231047","108-UY","2017/11/13 19:39:13","新北市新店區中興路一段288巷7號","121.546421666667","24.96877","6500600","新店區"
"231052","187-VK","2017/11/13 19:39:12","新北市新店區新烏路二段422號","121.551731666667","24.9090783333333","6500600","新店區"
"231050","KEA-2219","2017/11/13 19:39:25","新北市新店區郵政路99號","121.55446","24.9514016666667","6500600","新店區"
"231057","256-BX","2017/11/13 19:39:15","新北市新店區橘園一路11號","121.547978333333","24.934015","6500600","新店區"
"231063","268-BY","2017/11/13 19:39:11","新北市新店區達觀路43號","121.503111666667","24.9380183333333","6500600","新店區"
"231046","278-BY","2017/11/13 19:39:21","新北市新店區自由街21號","121.535346666667","24.9746266666667","6500600","新店區"
"231054","AAD-862","2017/11/13 19:39:15","新北市新店區北宜路一段47號","121.538456666667","24.9570016666667","6500600","新店區"
"231058","3712-VJ","2017/11/13 19:39:19","新北市新店區中正路102巷8弄4號","121.543505","24.971175","6500600","新店區"
"231067","4772-VM","2017/11/13 19:39:17","新北市新店區太平路28巷42號","121.533085","24.9596166666667","6500600","新店區"
"231065","512-UM","2017/11/13 19:39:17","新北市新店區安祥路109巷85弄1號","121.477888333333","24.96034","6500600","新店區"
"231064","515-UM","2017/11/13 19:39:23","新北市新店區安康路二段85號","121.51349","24.9627216666667","6500600","新店區"
"231040","619-UM","2017/11/13 19:39:23","新北市新店區北新路一段96巷23號","121.542991666667","24.9688433333333","6500600","新店區"
"231042","641-BX","2017/11/13 19:39:27","新北市新店區中興路一段216號","121.543908333333","24.9656416666667","6500600","新店區"
"231049","719-UM","2017/11/13 19:39:25","新北市新店區大豐路50號","121.540048333333","24.97984","6500600","新店區"
"231051","719-UY","2017/11/13 19:39:12","新北市新店區中央四街60號","121.527276666667","24.97533","6500600","新店區"
"231062","720-UM","2017/11/13 19:39:15","新北市新店區碧潭路2號","121.534865","24.9565166666667","6500600","新店區"
"231044","897-TW","2017/11/13 19:39:02","新北市新店區北新路三段81號","121.541586666667","24.9814766666667","6500600","新店區"
"231045","898-TW","2017/11/13 19:39:24","新北市新店區北宜路二段285號","121.555345","24.9537183333333","6500600","新店區"
"231043","899-TW","2017/11/13 19:39:23","新北市新店區北新路二段6號","121.542823333333","24.9710916666667","6500600","新店區"
"231066","AKT-0513","2017/11/13 19:39:32","新北市新店區安康路二段341巷5號","121.496938333333","24.9548533333333","6500600","新店區"
"241011","013-R5","2017/11/13 19:39:30","新北市三重區秀江街184號","121.49785","25.07166","6500200","三重區"
"241028","022-UY","2017/11/13 19:39:20","新北市三重區集美街89巷1號","121.488551666667","25.0531816666667","6500200","三重區"
"241008","059-VK","2017/11/13 19:39:28","新北市三重區永福街135巷1號","121.478595","25.07684","6500200","三重區"
"241009","060-VK","2017/11/13 19:39:12","新北市三重區永安北路一段105-1號","121.480138333333","25.0793466666667","6500200","三重區"
"241031","061-VK","2017/11/13 19:39:11","新北市三重區重新路四段248號","121.486131666667","25.0534333333333","6500200","三重區"
"241015","062-VK","2017/11/13 19:39:20","新北市三重區福德北路34號","121.502138333333","25.0651633333333","6500200","三重區"
"241017","063-VK","2017/11/13 19:39:26","新北市三重區民生街59號","121.490995","25.0662866666667","6500200","三重區"
"241026","066-VK","2017/11/13 19:39:17","新北市三重區文化南路65巷23號","121.499321666667","25.0607716666667","6500200","三重區"
"241022","267-UM","2017/11/13 19:39:26","新北市三重區三民街175巷21號","121.48395","25.0657333333333","6500200","三重區"
"241032","269-UM","2017/11/13 19:39:18","新北市三重區重陽路一段60巷76號","121.484258333333","25.0581833333333","6500200","三重區"
"241013","270-UM","2017/11/13 19:39:17","新北市三重區仁愛街129巷4號","121.495831666667","25.0750583333333","6500200","三重區"
"241025","271-UM","2017/11/13 19:39:18","新北市三重區頂崁街189號","121.477561666667","25.0663766666667","6500200","三重區"
"241019","478-VK","2017/11/13 19:39:22","新北市三重區六張街194巷1弄1號","121.488526666667","25.0682283333333","6500200","三重區"
"241030","480-VK","2017/11/13 19:39:12","新北市三重區環河南路221巷19號","121.491446666667","25.052505","6500200","三重區"
"241014","543-UM","2017/11/13 19:39:18","新北市三重區河邊北街82號","121.504193333333","25.0689616666667","6500200","三重區"
"241023","545-UM","2017/11/13 19:39:16","新北市三重區忠孝路三段99巷22號","121.479436666667","25.0642566666667","6500200","三重區"
"241001","547-UM","2017/11/13 19:39:22","新北市三重區仁愛街315巷2號","121.492693333333","25.0793916666667","6500200","三重區"
"241006","AAD-863","2017/11/13 19:39:19","新北市三重區聯華街108號","121.485301666667","25.0751566666667","6500200","三重區"
"241035","743-BX","2017/11/13 19:39:26","新北市三重區信義西街5號","121.498046666667","25.0646733333333","6500200","三重區"
"241007","887-TS","2017/11/13 19:39:31","新北市三重區三和路四段125巷64號","121.486908333333","25.0784566666667","6500200","三重區"
"241012","941-UM","2017/11/13 19:39:18","新北市三重區仁興街33巷39號","121.500991666667","25.0760733333333","6500200","三重區"
"241029","942-UM","2017/11/13 19:39:32","新北市三重區同安街122-1號","121.493311666667","25.056055","6500200","三重區"
"235066","003-UY","2017/11/13 19:39:13","新北市中和區中和路196巷11號","121.505235","24.9990833333333","6500300","中和區"
"235064","005-UY","2017/11/13 19:39:13","新北市中和區連城路2號","121.499271666667","25.002385","6500300","中和區"
"235063","006-UY","2017/11/13 19:39:31","新北市中和區連城路164號","121.494106666667","24.9976616666667","6500300","中和區"
"235056","096-UM","2017/11/13 19:39:29","新北市中和區員山路581巷31弄15號","121.476815","25.0103383333333","6500300","中和區"
"235039","097-UM","2017/11/13 19:39:22","新北市中和區秀峰街119巷8弄9號","121.519076666667","24.98991","6500300","中和區"
"235065","098-UM","2017/11/13 19:39:21","新北市中和區永和路24號","121.499515","25.0034266666667","6500300","中和區"
"235040","150-BY","2017/11/13 19:39:17","新北市中和區宜安路92巷5號","121.510751666667","24.997955","6500300","中和區"
"235058","151-BY","2017/11/13 19:39:23","新北市中和區員山路114號","121.481061666667","24.9957366666667","6500300","中和區"
"235055","183-VK","2017/11/13 19:39:27","新北市中和區中山路三段179巷5號","121.472923333333","25.0059016666667","6500300","中和區"
"235038","185-VK","2017/11/13 19:39:25","新北市中和區自立路37號","121.522086666667","24.9953483333333","6500300","中和區"
"235049","186-VK","2017/11/13 19:39:18","新北市中和區景新街224號","121.507241666667","24.9949833333333","6500300","中和區"
"235067","255-BX","2017/11/13 19:39:11","新北市中和區新生街186巷5弄1號","121.482991666667","24.99965","6500300","中和區"
"235044","293-VK","2017/11/13 19:39:26","新北市中和區興南路一段152號","121.508406666667","24.9869583333333","6500300","中和區"
"235072","301-VK","2017/11/13 19:39:13","新北市中和區連城路265巷6弄1號","121.491458333333","24.99583","6500300","中和區"
"235043","352-BY","2017/11/13 19:39:24","新北市中和區興南路一段20-1號","121.511368333333","24.9910766666667","6500300","中和區"
"235068","377-QA","2017/11/13 19:39:19","新北市中和區圓通路158巷2號","121.497646666667","24.996115","6500300","中和區"
"235061","378-QA","2017/11/13 19:39:13","新北市中和區民利街9巷2弄2號","121.480613333333","24.9987183333333","6500300","中和區"
"235071","269-TV","2017/11/13 19:39:29","新北市中和區中正路839巷29號","121.483541666667","25.002375","6500300","中和區"
"235050","4979-A6","2017/11/13 19:39:25","新北市中和區員山路36巷16-3號","121.484693333333","24.99101","6500300","中和區"
"235042","551-UM","2017/11/13 19:39:21","新北市中和區中和路262巷43弄3號","121.509553333333","24.99957","6500300","中和區"
"235070","558-UM","2017/11/13 19:39:23","新北市中和區景平路624號","121.500446666667","24.9974266666667","6500300","中和區"
"235045","565-BX","2017/11/13 19:39:21","新北市中和區景新街467巷26號","121.514495","24.9885233333333","6500300","中和區"
"235054","640-BX","2017/11/13 19:39:16","新北市中和區國光街112巷20弄5號","121.4706","25.0018983333333","6500300","中和區"
"235047","732-UM","2017/11/13 18:56:03","新北市中和區興南路二段54巷2-4號","121.506168333333","24.985455","6500300","中和區"
"235046","733-UM","2017/11/13 19:39:11","新北市中和區景新街496巷8弄1號","121.513333333333","24.98673","6500300","中和區"
"235057","801-TS","2017/11/13 19:39:18","新北市中和區員山路244號","121.481323333333","25.001465","6500300","中和區"
"235041","802-TS","2017/11/13 19:39:17","新北市中和區永貞路274-3號","121.513435","25.0038866666667","6500300","中和區"
"235052","805-TS","2017/11/13 19:39:25","新北市中和區華新街206巷21弄4號","121.50581","24.98274","6500300","中和區"
"235048","896-TW","2017/11/13 19:39:18","新北市中和區忠孝街1巷2-1號","121.509211666667","24.9831533333333","6500300","中和區"
"235053","900-TW","2017/11/13 19:39:14","新北市中和區國光街142巷1號","121.468195","25.0015866666667","6500300","中和區"
"235060","911-UM","2017/11/13 19:39:16","新北市中和區新生街114巷8號","121.483045","25.002475","6500300","中和區"
"235037","157-BY","2017/11/13 19:39:25","新北市中和區南山路261號","121.503828333333","24.992665","6500300","中和區"
"235037","AAC-213","2017/11/13 19:39:11","新北市中和區秀朗路三段10巷21弄8號","121.525295","24.9961116666667","6500300","中和區"
"235059","AAC-215","2017/11/13 19:39:30","新北市中和區圓通路284號","121.491535","24.9906266666667","6500300","中和區"
"220068","013-TV","2017/11/13 19:39:25","新北市板橋區中山路二段416巷2號","121.482895","25.0209766666667","6500100","板橋區"
"220065","072-UY","2017/11/13 19:39:25","新北市板橋區國泰街22號","121.469051666667","25.0068583333333","6500100","板橋區"
"220086","073-UY","2017/11/13 19:39:21","新北市板橋區國光路160號","121.460061666667","25.0181666666667","6500100","板橋區"
"220106","075-UY","2017/11/13 19:39:27","新北市板橋區文化路二段366號","121.47317","25.0308016666667","6500100","板橋區"
"220069","AAD-861","2017/11/13 19:39:30","新北市板橋區稚暉街1號","121.455946666667","25.0045066666667","6500100","板橋區"
"220090","120-SR","2017/11/13 19:39:26","新北市板橋區長江路一段48巷19弄1號","121.459555","25.0280466666667","6500100","板橋區"
"247004","335-TH","2017/11/13 19:39:20","新北市蘆洲區中華街6巷8號","121.463161666667","25.081905","6501400","蘆洲區"
"247008","053-VK","2017/11/13 19:39:23","新北市蘆洲區中山一路174號","121.474351666667","25.0812333333333","6501400","蘆洲區"
"226004","312-R5","2017/11/13 19:39:29","新北市平溪區靜安路三段355號","121.779991666667","25.0450616666667","6502400","平溪區"
"228003","097-TW","2017/11/13 19:39:14","新北市貢寮區真理里美艷山街15-3號","121.923716666667","25.0679766666667","6502600","貢寮區"
"228001","670-TC","2017/11/13 19:39:27","新北市貢寮區真理里延平街49號","121.924631666667","25.0556333333333","6502600","貢寮區"
"224010","AGQ-8101","2017/11/13 19:39:31","新北市瑞芳區基山街4-8號","121.845245","25.1093766666667","6501200","瑞芳區"
"224002","639-TC","2017/11/13 19:39:22","新北市瑞芳區民享新村20號","121.81687","25.1056916666667","6501200","瑞芳區"
"227008","642-TC","2017/11/13 19:39:23","新北市雙溪區新基里新基北街18號","121.86715","25.0386483333333","6502500","雙溪區"
"227001","400-TW","2017/11/13 19:39:27","新北市雙溪區雙溪里太平路33號","121.864578333333","25.035385","6502500","雙溪區"
"222001","KEA-2212","2017/11/13 19:39:21","新北市深坑區深坑街156號","121.612895","25.0013866666667","6501800","深坑區"
"208002","742-BX","2017/11/13 19:39:15","新北市金山區三民街1號","121.634805","25.2223533333333","6502700","金山區"
"208003","665-BX","2017/11/13 19:39:16","新北市金山區仁愛路31號","121.636611666667","25.219365","6502700","金山區"
"208001","761-BX","2017/11/13 19:39:23","新北市金山區南勢湖13號","121.621243333333","25.219315","6502700","金山區"
"251009","008-UM","2017/11/13 19:39:21","新北市淡水區中山北路一段186巷13弄8號","121.445571666667","25.1790883333333","6501000","淡水區"
"251005","010-UM","2017/11/13 19:39:30","新北市淡水區原德路114號","121.44363","25.1739633333333","6501000","淡水區"
"251001","011-UM","2017/11/13 19:39:26","新北市淡水區民權路51號","121.459763333333","25.1390033333333","6501000","淡水區"
"251007","179-VK","2017/11/13 19:39:27","新北市淡水區中正東路一段111巷26號","121.45542","25.1605633333333","6501000","淡水區"
"251008","181-VK","2017/11/13 19:39:23","新北市淡水區中正路382號","121.429435","25.1755416666667","6501000","淡水區"
"251013","182-VK","2017/11/13 19:39:15","新北市淡水區店子後9號","121.459933333333","25.2188366666667","6501000","淡水區"
"251010","413-VK","2017/11/13 19:39:20","新北市淡水區崁頂三路167號","121.430658333333","25.20132","6501000","淡水區"
"251012","441-VK","2017/11/13 19:39:18","新北市淡水區中山北路三段164號","121.445688333333","25.1965683333333","6501000","淡水區"
"251015","442-VK","2017/11/13 19:39:28","新北市淡水區泉洲厝25-8號","121.484025","25.1901433333333","6501000","淡水區"
"251006","561-UM","2017/11/13 19:39:16","新北市淡水區中山北路一段207巷10號","121.443785","25.1791416666667","6501000","淡水區"
"251011","650-BX","2017/11/13 19:39:23","新北市淡水區中正東路二段69-12號","121.460681666667","25.154345","6501000","淡水區"
"207003","550-UM","2017/11/13 19:39:10","新北市萬里區大鵬里下社33-2號","121.649326666667","25.2166566666667","6502800","萬里區"
"207004","225-TW","2017/11/13 19:39:16","新北市萬里區萬里里瑪鋉路21號","121.68739","25.1754766666667","6502800","萬里區"
"252005","073-UM","2017/11/13 15:16:54","","121.50449","25.2644483333333","6502100","三芝區"
"252002","178-VK","2017/11/13 19:39:11","新北市三芝區中正路一段18巷48號","121.504126666667","25.258935","6502100","三芝區"
"252001","292-VK","2017/11/13 19:39:25","新北市三芝區公正街9號","121.499758333333","25.257485","6502100","三芝區"
"237004","078-UY","2017/11/13 19:39:20","新北市三峽區有木189-1號","121.395423333333","24.8739566666667","6500900","三峽區"
"237007","153-BY","2017/11/13 19:39:16","新北市三峽區二鬮路61-1號","121.359766666667","24.9075166666667","6500900","三峽區"
"237009","210-TH","2017/11/13 19:39:16","新北市三峽區中園街20-1號","121.368205","24.9267483333333","6500900","三峽區"
"237013","252-BX","2017/11/13 19:39:28","新北市三峽區介壽路一段406-1號","121.383878333333","24.93096","6500900","三峽區"
"237012","275-BY","2017/11/13 19:39:27","新北市三峽區民生街85號","121.374705","24.935445","6500900","三峽區"
"237008","302-VK","2017/11/13 19:39:12","新北市三峽區永安街135號","121.37375","24.92831","6500900","三峽區"
"237014","433-BY","2017/11/13 19:39:18","新北市三峽區嘉添67號","121.368631666667","24.9104066666667","6500900","三峽區"
"237015","649-BX","2017/11/13 19:39:20","新北市三峽區成福路249號","121.42655","24.9248316666667","6500900","三峽區"
"237005","AKY-6261","2017/11/13 19:39:13","新北市三峽區中山路167號","121.364473333333","24.9364216666667","6500900","三峽區"
"236069","105-UM","2017/11/13 19:39:28","新北市土城區裕民路223號","121.454115","24.9835716666667","6501300","土城區"
"236042","107-UM","2017/11/13 19:39:27","新北市土城區學士路13號","121.453626666667","24.9829083333333","6501300","土城區"
"236078","166-UM","2017/11/13 19:39:17","新北市土城區中州路27巷34-1號","121.413128333333","24.9570166666667","6501300","土城區"
"236026","269-VK","2017/11/13 19:39:27","新北市土城區中央路二段61巷26號","121.443268333333","24.978685","6501300","土城區"
"236036","271-VK","2017/11/13 19:39:24","新北市土城區清水路98巷3弄7號","121.457806666667","24.9809133333333","6501300","土城區"
"236020","401-BY","2017/11/13 19:39:16","新北市土城區峰廷街3號","121.469133333333","24.987335","6501300","土城區"
"236030","752-BX","2017/11/13 19:39:26","新北市土城區福祥街74號","121.44178","24.9818216666667","6501300","土城區"
"236048","913-UM","2017/11/13 19:39:20","新北市土城區明德路一段55號","121.465395","24.984665","6501300","土城區"
"236053","AAC-216","2017/11/13 19:39:20","新北市土城區學府路一段216號","121.452278333333","24.985235","6501300","土城區"
"242031","AAC-296","2017/11/13 19:39:22","新北市新莊區新泰路213巷29號","121.444978333333","25.0383583333333","6500500","新莊區"
"242050","751-BX","2017/11/13 19:39:20","新北市新莊區瓊林路206-6號","121.435565","25.0222016666667","6500500","新莊區"
"242025","615-BX","2017/11/13 19:39:16","新北市新莊區中平路441號","121.44438","25.0556383333333","6500500","新莊區"
"242027","612-BX","2017/11/13 19:39:33","新北市新莊區新泰路357巷3弄57號","121.442206666667","25.03926","6500500","新莊區"
"242044","497-BY","2017/11/13 19:39:19","新北市泰山區中山路二段326號","121.43195","25.043445","6500500","新莊區"
"242004","442-UM","2017/11/13 19:39:28","新北市新莊區化成路29巷34號","121.463776666667","25.0439083333333","6500500","新莊區"
"242009","173-VK","2017/11/13 19:39:26","新北市新莊區三和路12-21號","121.442128333333","25.0386983333333","6500500","新莊區"
"242001","233-RS","2017/11/13 14:44:09","新北市新莊區環河路48-7號","121.436956666667","25.0098166666667","6500500","新莊區"
"242013","347-TH","2017/11/13 19:39:27","新北市新莊區中誠街147巷5號","121.448876666667","25.047085","6500500","新莊區"
"242019","348-TH","2017/11/13 18:27:43","新北市新莊區新泰路357巷3弄57號","121.442021666667","25.039465","6500500","新莊區"
"238015","755-BX","2017/11/13 19:39:25","新北市樹林區育英街61號","121.420671666667","24.98926","6500700","樹林區"
"238023","601-UM","2017/11/13 19:39:30","新北市樹林區三福街114號","121.406361666667","25.0163383333333","6500700","樹林區"
"238018","571-TV","2017/11/13 19:39:28","新北市樹林區中山路三段210-2號","121.380726666667","24.9662933333333","6500700","樹林區"
"238024","5061-A6","2017/11/13 19:39:25","新北市樹林區佳園路一段72巷9號","121.392788333333","24.9699633333333","6500700","樹林區"
"238021","KEA-2217","2017/11/13 19:39:14","新北市樹林區學府路212號","121.377776666667","24.950205","6500700","樹林區"
"238022","KEA-2213","2017/11/13 19:39:15","新北市樹林區名園街78巷2號","121.420116666667","24.9778183333333","6500700","樹林區"
"238025","303-VK","2017/11/13 19:39:21","新北市樹林區中山路一段163號","121.421823333333","24.9886233333333","6500700","樹林區"
"238017","283-BY","2017/11/13 19:39:12","新北市樹林區光興街155巷2號","121.407775","25.00357","6500700","樹林區"
"238014","282-BY","2017/11/13 19:39:16","新北市樹林區千歲街30巷26弄3號","121.426418333333","24.9959833333333","6500700","樹林區"
"238020","268-VK","2017/11/13 19:39:28","新北市樹林區俊保路60號","121.425055","25.0095533333333","6500700","樹林區"
"238016","169-UY","2017/11/13 19:39:23","新北市樹林區東和街50號","121.398741666667","24.9839083333333","6500700","樹林區"
"239007","AAC-297","2017/11/13 19:39:18","新北市鶯歌區大湖路197號","121.346281666667","24.9716783333333","6500800","鶯歌區"
"239006","891-R6","2017/11/13 19:39:31","新北市鶯歌區永昌街29號","121.342616666667","24.9497516666667","6500800","鶯歌區"
"221008","489-VK","2017/11/13 19:39:25","新北市汐止區康寧街61巷53號","121.619895","25.06768","6501100","汐止區"
"221036","130-UY","2017/11/13 19:39:13","新北市汐止區汐萬路一段256巷1號","121.651748333333","25.0748866666667","6501100","汐止區"
"221015","131-UY","2017/11/13 19:39:25","新北市汐止區康寧街901號","121.651401666667","25.0750483333333","6501100","汐止區"
"221010","269-BY","2017/11/13 19:39:17","新北市汐止區汐萬路二段23巷2號","121.649426666667","25.0811","6501100","汐止區"
"221012","278-VK","2017/11/13 19:39:24","新北市汐止區汐平路一段5號","121.680751666667","25.0712683333333","6501100","汐止區"
"221023","279-VK","2017/11/13 19:39:26","新北市汐止區中興路270號","121.628868333333","25.0688183333333","6501100","汐止區"
"221032","280-BY","2017/11/13 19:39:25","新北市汐止區大同路二段273號","121.652361666667","25.067615","6501100","汐止區"
"221027","281-BY","2017/11/13 19:39:24","新北市汐止區忠孝東路9號","121.658228333333","25.0659133333333","6501100","汐止區"
"221029","298-VK","2017/11/13 19:39:26","新北市汐止區康寧街901號","121.651505","25.0750066666667","6501100","汐止區"
"221021","299-VK","2017/11/13 19:39:30","新北市汐止區南興路6巷2號","121.651705","25.0632866666667","6501100","汐止區"
"221025","623-UM","2017/11/13 19:39:19","新北市汐止區福安街20巷3號","121.662513333333","25.06496","6501100","汐止區"
"221038","646-BX","2017/11/13 19:39:28","新北市汐止區忠孝東路220號","121.662238333333","25.0666516666667","6501100","汐止區"
"221033","647-BX","2017/11/13 19:39:29","新北市汐止區南勢街1巷1號","121.62708","25.037435","6501100","汐止區"
"221002","707-TV","2017/11/13 19:39:27","新北市汐止區大同路一段339-2號","121.63818","25.0599283333333","6501100","汐止區"
"220079","145-BY","2017/11/13 19:39:22","新北市板橋區建國街97號","121.459748333333","25.017405","6500100","板橋區"
"220080","200-UY","2017/11/13 19:39:10","新北市板橋區大觀路二段37巷298號","121.45008","25.001985","6500100","板橋區"
"220082","610-BX","2017/11/13 19:39:31","新北市板橋區大觀路三段160巷36號","121.430011666667","24.9939783333333","6500100","板橋區"
"220056","276-BY","2017/11/13 19:39:31","新北市板橋區四川路二段47巷6弄2號","121.454226666667","24.9944933333333","6500100","板橋區"
"220072","277-BY","2017/11/13 19:39:16","新北市板橋區金門街253巷16弄11號","121.432736666667","24.98795","6500100","板橋區"
"220101","280-UM","2017/11/13 19:39:14","新北市板橋區縣民大道三段37號","121.473951666667","25.0208933333333","6500100","板橋區"
"220071","283-VK","2017/11/13 19:39:24","新北市板橋區四川路一段325巷12號","121.45895","25.00033","6500100","板橋區"
"220094","285-UM","2017/11/13 19:39:24","新北市板橋區銘傳街78號","121.469113333333","25.0313866666667","6500100","板橋區"
"220053","285-VK","2017/11/13 19:39:13","新北市板橋區中山路二段176號","121.477288333333","25.017435","6500100","板橋區"
"220081","287-VK","2017/11/13 19:39:10","新北市板橋區大觀路一段29巷131弄33-16號","121.45055","25.0041716666667","6500100","板橋區"
"220061","295-UM","2017/11/13 19:39:05","新北市板橋區中山路二段94號","121.475408333333","25.016385","6500100","板橋區"
"220084","296-UM","2017/11/13 19:39:21","新北市板橋區滿平街84巷100弄5號","121.426301666667","24.9864133333333","6500100","板橋區"
"220075","297-UM","2017/11/13 19:39:29","新北市板橋區大勇街17號","121.454526666667","25.0172083333333","6500100","板橋區"
"220092","299-UM","2017/11/13 19:39:13","新北市板橋區自由路6號","121.46557","25.0224116666667","6500100","板橋區"
"220062","303-R5","2017/11/13 19:39:14","新北市板橋區三民路二段73號","121.479551666667","25.01688","6500100","板橋區"
"220098","317-R6","2017/11/13 19:39:23","新北市板橋區四維路269巷40號","121.461588333333","25.0276433333333","6500100","板橋區"
"220064","486-VK","2017/11/13 19:39:18","新北市板橋區中山路一段85號","121.461505","25.01006","6500100","板橋區"
"220088","491-VK","2017/11/13 19:39:19","新北市板橋區文化路二段556號","121.47624","25.034195","6500100","板橋區"
"220035","560-BX","2017/11/13 19:39:16","新北市板橋區金華街85巷14號","121.458601666667","25.021325","6500100","板橋區"
"220103","561-BX","2017/11/13 19:39:12","新北市板橋區文化路一段339號","121.466531666667","25.02077","6500100","板橋區"
"220083","568-UM","2017/11/13 19:39:21","新北市板橋區龍興街65巷22號","121.443136666667","25.0015783333333","6500100","板橋區"
"220063","609-BX","2017/11/13 19:39:27","新北市板橋區中山路二段505巷25號","121.482061666667","25.0220383333333","6500100","板橋區"
"220091","637-BX","2017/11/13 19:39:22","新北市板橋區懷德街139巷20弄2號","121.479896666667","25.03073","6500100","板橋區"
"220057","686-BX","2017/11/13 19:39:31","新北市板橋區和平路29號","121.45971","24.99575","6500100","板橋區"
"220077","687-BX","2017/11/13 19:39:10","新北市板橋區僑中一街94號","121.446948333333","25.0116916666667","6500100","板橋區"
"220093","689-BX","2017/11/13 19:39:17","新北市板橋區長江路一段5號","121.457861666667","25.0287666666667","6500100","板橋區"
"220054","741-BX","2017/11/13 19:39:19","新北市板橋區忠孝路201巷1號","121.46499","25.0026666666667","6500100","板橋區"
"220055","827-TW","2017/11/13 19:39:20","新北市板橋區國慶路149巷21弄2號","121.46091","24.9974266666667","6500100","板橋區"
"220067","829-TW","2017/11/13 19:39:27","新北市板橋區長安街140號","121.472656666667","25.0101033333333","6500100","板橋區"
"220102","830-TW","2017/11/13 19:39:29","新北市板橋區松柏街36巷5號","121.475418333333","25.0296616666667","6500100","板橋區"
"220096","831-TW","2017/11/13 19:39:30","新北市板橋區民生路二段250號","121.468526666667","25.0233683333333","6500100","板橋區"
"220089","833-TW","2017/11/13 19:39:27","新北市板橋區英士路11-1號","121.462","25.02526","6500100","板橋區"
"220074","895-R6","2017/11/13 19:39:13","新北市板橋區倉後街1-5號","121.455523333333","25.0090533333333","6500100","板橋區"
"220073","985-R7","2017/11/13 19:39:29","新北市板橋區國光路49巷17號","121.458993333333","25.01878","6500100","板橋區"
"220097","AAC-210","2017/11/13 19:39:28","新北市板橋區幸福路32巷9號","121.46141","25.020795","6500100","板橋區"
"220070","AAC-253","2017/11/13 19:39:13","新北市板橋區民族路296號","121.470438333333","25.00675","6500100","板橋區"
