"lineid","car","time","location","longitude","latitude","cityid","cityname"
"234046","148-BY","2017/11/13 20:09:22","新北市永和區成功路一段137號","121.526845","25.001605","6500400","永和區"
"234013","149-BY","2017/11/13 20:09:09","新北市永和區永貞路435號","121.506853333333","25.0098416666667","6500400","永和區"
"234007","207-UY","2017/11/13 20:09:13","新北市永和區保生路22巷8號","121.507141666667","25.0079983333333","6500400","永和區"
"234081","298-R6","2017/11/13 20:09:20","新北市永和區永亨路107號","121.52336","25.0047433333333","6500400","永和區"
"234038","336-UY","2017/11/13 20:09:26","新北市永和區成功路一段116號","121.526781666667","25.0024566666667","6500400","永和區"
"234064","337-UY","2017/11/13 20:09:10","新北市永和區永元路95巷3號","121.522238333333","25.0019833333333","6500400","永和區"
"234086","338-UY","2017/11/13 20:09:25","新北市永和區福和路152號","121.52165","25.00785","6500400","永和區"
"234070","552-UM","2017/11/13 20:09:28","新北市永和區福和路201號","121.519416666667","25.0075633333333","6500400","永和區"
"234054","553-UM","2017/11/13 20:09:24","新北市永和區博愛街29號","121.518316666667","25.0158083333333","6500400","永和區"
"234017","745-BX","2017/11/13 20:09:27","新北市永和區文化路123號","121.512316666667","25.0153333333333","6500400","永和區"
"234030","746-BX","2017/11/13 20:09:28","新北市永和區民權路49巷36號","121.521878333333","24.9975266666667","6500400","永和區"
"234061","AAD-866","2017/11/13 20:09:14","新北市永和區中正路283巷84號","121.515453333333","24.9988683333333","6500400","永和區"
"234042","862-TW","2017/11/13 20:09:23","新北市永和區雙和街64巷17號","121.509545","25.0034483333333","6500400","永和區"
"234050","863-TW","2017/11/13 20:09:10","新北市永和區保安路292號","121.505001666667","25.0119033333333","6500400","永和區"
"234011","9373-KE","2017/11/13 20:09:13","新北市永和區仁愛路352巷122弄11號","121.500663333333","25.0087716666667","6500400","永和區"
"249005","172-UM","2017/11/13 20:09:23","新北市八里區下罟子47-5號","121.384071666667","25.1369966666667","6502300","八里區"
"249001","173-UM","2017/11/13 20:09:16","新北市八里區中華路二段320號","121.403445","25.1480983333333","6502300","八里區"
"249004","303-UY","2017/11/13 20:09:05","新北市八里區中山路一段157巷67號","121.41227","25.1577266666667","6502300","八里區"
"249002","305-UY","2017/11/13 20:09:29","新北市八里區龍米路一段51號","121.456455","25.1193","6502300","八里區"
"249003","593-UM","2017/11/13 20:09:22","新北市八里區中山路二段540巷28號","121.397071666667","25.14696","6502300","八里區"
"248014","025-BX","2017/11/13 20:09:33","新北市五股區五福路12號","121.434336666667","25.0885466666667","6501500","五股區"
"248016","026-BX","2017/11/13 20:09:25","新北市五股區天乙路67號","121.448125","25.1046816666667","6501500","五股區"
"248008","095-VK","2017/11/13 20:09:20","新北市五股區中興路一段1巷12弄15號","121.469363333333","25.0708866666667","6501500","五股區"
"248018","225-UY","2017/11/13 20:09:26","新北市五股區登林路92號","121.428773333333","25.06936","6501500","五股區"
"248012","247-BX","2017/11/13 20:09:13","新北市五股區民義路一段212號","121.43044","25.0895383333333","6501500","五股區"
"248010","272-BY","2017/11/13 20:09:17","新北市五股區成泰路一段15號","121.433691666667","25.0666816666667","6501500","五股區"
"248004","677-BX","2017/11/13 20:09:31","新北市五股區成泰路一段149-1號","121.435381666667","25.07333","6501500","五股區"
"248002","678-BX","2017/11/13 20:09:27","新北市五股區成泰路三段369-2號","121.448821666667","25.095985","6501500","五股區"
"234023","9380-KE","2017/11/13 20:09:22","新北市永和區中正路654巷17號","121.517245","25.0086433333333","6500400","永和區"
"234077","969-R7","2017/11/13 20:09:26","新北市永和區民光街18號","121.515793333333","24.9959","6500400","永和區"
"234074","AAC-211","2017/11/13 20:09:14","新北市永和區豫溪街187巷1號","121.52248","25.0104583333333","6500400","永和區"
"234067","AAC-212","2017/11/13 20:09:23","新北市永和區保平路214巷9號","121.509003333333","25.0067566666667","6500400","永和區"
"234003","AAC-295","2017/11/13 20:09:32","新北市永和區自強街32巷8號","121.515926666667","25.007865","6500400","永和區"
"244006","080-UY","2017/11/13 16:51:29","新北市林口區粉寮路二段160巷40號","121.405605","25.091195","6501700","林口區"
"243012","AAD-798","2017/11/13 20:09:14","新北市泰山區楓江路81號","121.436846666667","25.06339","6501600","泰山區"
"243009","297-R6","2017/11/13 20:09:29","新北市泰山區泰林路二段116巷3弄2號","121.435183333333","25.0595783333333","6501600","泰山區"
"243015","380-SR","2017/11/13 20:09:21","新北市泰山區明志路一段453-1號","121.430728333333","25.0563083333333","6501600","泰山區"
"243014","421-VK","2017/11/13 20:09:10","新北市五股區成泰路一段1號","121.433508333333","25.0663933333333","6501600","泰山區"
"243010","KEA-2215","2017/11/13 20:09:30","新北市泰山區明志路二段136巷11號","121.426613333333","25.051485","6501600","泰山區"
"243011","KEA-2216","2017/11/13 20:09:10","新北市泰山區明志路三段529號","121.42059","25.029975","6501600","泰山區"
"243013","646-TV","2017/11/13 20:09:15","新北市泰山區明志路三段74巷3號","121.424613333333","25.0416716666667","6501600","泰山區"
"243016","680-BX","2017/11/13 20:09:28","新北市泰山區新北大道六段301號","121.423996666667","25.0339983333333","6501600","泰山區"
"222003","436-BY","2017/11/13 20:09:30","新北市深坑區埔新街60號","121.620146666667","25.0024766666667","6501800","深坑區"
"222002","659-BX","2017/11/13 20:09:31","新北市深坑區北深路三段160號","121.602563333333","25.00333","6501800","深坑區"
"231041","002-UM","2017/11/13 20:09:12","新北市新店區中正路468號","121.533963333333","24.97938","6500600","新店區"
"231059","046-UY","2017/11/13 20:09:22","新北市新店區安德街33-1號","121.51136","24.9624916666667","6500600","新店區"
"231061","047-UY","2017/11/13 20:09:28","新北市新店區安興路32號","121.515636666667","24.9702266666667","6500600","新店區"
"231060","106-UY","2017/11/13 20:09:21","新北市新店區安康路三段179-1號","121.488348333333","24.9517666666667","6500600","新店區"
"231047","108-UY","2017/11/13 20:09:13","新北市新店區寶橋路59-1號","121.545036666667","24.9750733333333","6500600","新店區"
"231052","187-VK","2017/11/13 20:09:12","新北市新店區新烏路三段寶島巷2弄3號","121.552013333333","24.8986583333333","6500600","新店區"
"231050","KEA-2219","2017/11/13 20:09:25","新北市新店區北新路一段96巷23號","121.542758333333","24.968815","6500600","新店區"
"231057","256-BX","2017/11/13 20:09:15","新北市新店區花園一路一段2號","121.55314","24.932425","6500600","新店區"
"231063","268-BY","2017/11/13 20:09:11","新北市新店區黎明路56巷2號","121.502361666667","24.9478216666667","6500600","新店區"
"231046","278-BY","2017/11/13 20:06:45","新北市新店區安豐路3號","121.501765","24.9573366666667","6500600","新店區"
"231054","AAD-862","2017/11/13 20:09:15","新北市新店區檳榔路34號","121.541508333333","24.9638133333333","6500600","新店區"
"231058","3712-VJ","2017/11/13 20:09:19","新北市新店區安康路二段320巷15弄2號","121.50428","24.9596766666667","6500600","新店區"
"231056","3713-VJ","2017/11/13 20:09:18","新北市新店區北新路二段59巷5號","121.542253333333","24.973045","6500600","新店區"
"231055","4716-K9","2017/11/13 20:09:31","新北市新店區中華路48巷40號","121.541275","24.9695016666667","6500600","新店區"
"231067","4772-VM","2017/11/13 20:09:17","新北市新店區溪洲路101-1號","121.532186666667","24.962375","6500600","新店區"
"231065","512-UM","2017/11/13 20:09:16","新北市新店區安祥路106巷272號","121.472943333333","24.95867","6500600","新店區"
"231064","515-UM","2017/11/13 20:09:24","新北市新店區安康路二段118-11號","121.513096666667","24.9634566666667","6500600","新店區"
"231040","619-UM","2017/11/13 20:09:23","新北市新店區中正路106號","121.543108333333","24.97061","6500600","新店區"
"231042","641-BX","2017/11/13 20:09:27","新北市新店區中興路二段226號","121.547956666667","24.9751566666667","6500600","新店區"
"231068","718-UY","2017/11/13 20:09:14","新北市新店區力行路11巷57號","121.538635","24.961725","6500600","新店區"
"231049","719-UM","2017/11/13 20:09:16","新北市新店區北新路二段121巷1-2號","121.542183333333","24.9748733333333","6500600","新店區"
"231051","719-UY","2017/11/13 20:09:12","新北市新店區中央六街6號","121.530271666667","24.9744383333333","6500600","新店區"
"231062","720-UM","2017/11/13 20:09:15","新北市新店區安忠路57巷13號","121.513373333333","24.957445","6500600","新店區"
"231044","897-TW","2017/11/13 20:09:22","新北市新店區寶慶街58巷6號","121.542076666667","24.987045","6500600","新店區"
"231045","898-TW","2017/11/13 20:09:26","新北市新店區北宜路一段143號","121.541196666667","24.9529316666667","6500600","新店區"
"231043","899-TW","2017/11/13 20:09:03","新北市新店區民族路190號","121.536411666667","24.97556","6500600","新店區"
"231066","AKT-0513","2017/11/13 20:09:32","新北市新店區安德街60巷21號","121.51047","24.9632883333333","6500600","新店區"
"241011","013-R5","2017/11/13 20:09:22","新北市三重區三和路三段49號","121.495433333333","25.0714916666667","6500200","三重區"
"241028","022-UY","2017/11/13 20:09:21","新北市三重區仁化街141號","121.494621666667","25.0573716666667","6500200","三重區"
"241008","059-VK","2017/11/13 20:09:28","新北市三重區永福街197巷35號","121.478203333333","25.074195","6500200","三重區"
"241009","060-VK","2017/11/13 20:09:12","新北市三重區力行路二段202號","121.483611666667","25.0778266666667","6500200","三重區"
"241031","061-VK","2017/11/13 20:09:11","新北市三重區過圳街9-1號","121.48874","25.060185","6500200","三重區"
"241015","062-VK","2017/11/13 20:09:20","新北市三重區福德北路45號","121.502341666667","25.0649916666667","6500200","三重區"
"241017","063-VK","2017/11/13 20:09:26","新北市三重區大智街108號","121.493178333333","25.0667283333333","6500200","三重區"
"241026","066-VK","2017/11/13 20:09:17","新北市三重區福德南路65巷2號","121.50238","25.0604916666667","6500200","三重區"
"241002","090-VK","2017/11/13 20:09:22","新北市三重區五華街35巷68號","121.49589","25.081945","6500200","三重區"
"241003","091-VK","2017/11/13 20:09:20","新北市三重區仁愛街466號","121.489896666667","25.082235","6500200","三重區"
"241005","262-UM","2017/11/13 20:09:18","新北市三重區碧華街294巷11號","121.489198333333","25.0841583333333","6500200","三重區"
"241024","265-UM","2017/11/13 20:09:12","新北市三重區中正北路294號","121.480155","25.068805","6500200","三重區"
"241016","266-UM","2017/11/13 20:09:22","新北市三重區正德街58號","121.49548","25.0633816666667","6500200","三重區"
"241022","267-UM","2017/11/13 20:09:26","新北市三重區新北大道一段42號","121.488005","25.0612883333333","6500200","三重區"
"241018","268-UM","2017/11/13 20:09:22","新北市三重區正義北路250號","121.496","25.0684183333333","6500200","三重區"
"241032","269-UM","2017/11/13 20:09:18","新北市三重區捷運路61號","121.483538333333","25.0556233333333","6500200","三重區"
"241013","270-UM","2017/11/13 20:09:17","新北市三重區三和路三段139巷40號","121.49422","25.0740616666667","6500200","三重區"
"241025","271-UM","2017/11/13 20:09:18","新北市三重區中正北路430-5號","121.474475","25.0705583333333","6500200","三重區"
"241004","475-VK","2017/11/13 20:09:14","新北市三重區自強路四段110號","121.491543333333","25.079935","6500200","三重區"
"241019","478-VK","2017/11/13 20:09:22","新北市三重區自強路二段33巷13號","121.490091666667","25.06956","6500200","三重區"
"241030","480-VK","2017/11/13 20:09:32","新北市三重區成功路145巷11號","121.487281666667","25.0526916666667","6500200","三重區"
"241014","543-UM","2017/11/13 20:09:18","新北市三重區長樂街57號","121.500746666667","25.0692533333333","6500200","三重區"
"241023","545-UM","2017/11/13 20:09:16","新北市三重區頂崁街220巷2號","121.476955","25.0681183333333","6500200","三重區"
"241001","547-UM","2017/11/13 20:09:22","新北市三重區溪尾街16號","121.491226666667","25.075925","6500200","三重區"
"241006","AAD-863","2017/11/13 20:09:19","新北市三重區力行路二段122-1號","121.482208333333","25.0751783333333","6500200","三重區"
"241035","743-BX","2017/11/13 20:09:28","新北市三重區平安街7號","121.498796666667","25.0643166666667","6500200","三重區"
"241007","887-TS","2017/11/13 20:09:31","新北市三重區三和路四段111-9號","121.486541666667","25.077545","6500200","三重區"
"241012","941-UM","2017/11/13 20:09:18","新北市三重區仁福街64巷23號","121.497635","25.07536","6500200","三重區"
"241029","942-UM","2017/11/13 20:09:12","新北市三重區光明路32巷14號","121.491706666667","25.0586466666667","6500200","三重區"
"241033","AAC-255","2017/11/13 20:09:15","新北市三重區光復路一段70號","121.471916666667","25.049495","6500200","三重區"
"235066","003-UY","2017/11/13 20:09:13","新北市中和區水源路136巷3號","121.507885","25.00309","6500300","中和區"
"235039","097-UM","2017/11/13 20:09:22","新北市中和區大勇街25巷39弄1號","121.514885","24.994215","6500300","中和區"
"235065","098-UM","2017/11/13 20:09:24","新北市中和區永和路82號","121.497523333333","25.005165","6500300","中和區"
"235040","150-BY","2017/11/13 20:09:17","新北市中和區保健路42號","121.509193333333","24.9972916666667","6500300","中和區"
"235058","151-BY","2017/11/13 20:09:23","新北市中和區員山路102號","121.481118333333","24.9954033333333","6500300","中和區"
"235055","183-VK","2017/11/13 20:09:11","新北市中和區中山路三段3號","121.479845","25.0059266666667","6500300","中和區"
"235044","293-VK","2017/11/13 20:09:26","新北市中和區復興路293號","121.50178","24.9902866666667","6500300","中和區"
"235068","377-QA","2017/11/13 20:09:19","新北市中和區永和路39巷10號","121.49761","25.0050016666667","6500300","中和區"
"235050","4979-A6","2017/11/13 20:09:25","新北市中和區景平路336號","121.511858333333","24.9929566666667","6500300","中和區"
"235069","4980-A6","2017/11/13 20:09:16","新北市中和區圓通路192號","121.496351666667","24.9945466666667","6500300","中和區"
"235070","558-UM","2017/11/13 20:09:23","新北市中和區圓通路160號","121.49774","24.9955216666667","6500300","中和區"
"235054","640-BX","2017/11/13 20:09:16","新北市中和區莒光路11號","121.47188","25.0057666666667","6500300","中和區"
"235046","733-UM","2017/11/13 20:09:31","新北市中和區信義街115號","121.512135","24.9867933333333","6500300","中和區"
"235048","896-TW","2017/11/13 20:09:17","新北市中和區景新街444號","121.513281666667","24.9880516666667","6500300","中和區"
"235037","157-BY","2017/11/13 20:09:25","新北市中和區景安路198號","121.504201666667","24.991315","6500300","中和區"
"235037","AAC-213","2017/11/13 20:09:11","新北市中和區自立路141巷17號","121.52328","24.9937533333333","6500300","中和區"
"235059","AAC-215","2017/11/13 20:09:30","新北市中和區圓通路335巷37弄2號","121.493861666667","24.9893116666667","6500300","中和區"
"220068","013-TV","2017/11/13 20:09:25","新北市板橋區中山路二段480號","121.484925","25.0219466666667","6500100","板橋區"
"220065","072-UY","2017/11/13 20:09:17","新北市板橋區縣民大道三段260-1號","121.477996666667","25.0230883333333","6500100","板橋區"
"220106","075-UY","2017/11/13 20:09:27","新北市板橋區文聖街13號","121.475558333333","25.032295","6500100","板橋區"
"220069","AAD-861","2017/11/13 20:09:30","新北市板橋區大明街25巷2弄30-3號","121.457313333333","25.002765","6500100","板橋區"
"247022","893-R6","2017/11/13 20:09:11","新北市蘆洲區三民路152號","121.470341666667","25.08791","6501400","蘆洲區"
"247012","546-UM","2017/11/13 20:09:13","新北市蘆洲區民族路191-1號","121.47859","25.0889966666667","6501400","蘆洲區"
"247020","500-BY","2017/11/13 20:09:24","新北市蘆洲區民權路106巷5弄2-1號","121.474321666667","25.0891216666667","6501400","蘆洲區"
"247010","339-TH","2017/11/13 20:09:23","新北市蘆洲區信義路148號","121.479376666667","25.0832183333333","6501400","蘆洲區"
"247002","337-TH","2017/11/13 20:09:17","新北市蘆洲區永康街52號","121.459203333333","25.0862633333333","6501400","蘆洲區"
"247004","335-TH","2017/11/13 20:09:20","新北市蘆洲區永安南路二段328巷15弄7號","121.456348333333","25.0836433333333","6501400","蘆洲區"
"247016","057-VK","2017/11/13 20:09:29","新北市蘆洲區光華路151號","121.465571666667","25.0820633333333","6501400","蘆洲區"
"247006","056-VK","2017/11/13 20:09:31","新北市蘆洲區中山二路300巷2號","121.468575","25.07701","6501400","蘆洲區"
"247008","053-VK","2017/11/13 20:09:23","新北市蘆洲區三民路1號","121.475593333333","25.0816866666667","6501400","蘆洲區"
"247014","007-UY","2017/11/13 20:09:22","新北市蘆洲區中山二路239號","121.470176666667","25.0799966666667","6501400","蘆洲區"
"247024","002-UY","2017/11/13 20:09:30","新北市蘆洲區光榮路66巷17號","121.463558333333","25.088175","6501400","蘆洲區"
"247018","001-UY","2017/11/13 20:09:28","新北市蘆洲區民族路314巷5號","121.47755","25.0903483333333","6501400","蘆洲區"
"226004","312-R5","2017/11/13 20:09:29","新北市平溪區十分里十分街66巷2號","121.775738333333","25.04211","6502400","平溪區"
"222001","KEA-2212","2017/11/13 20:09:21","新北市深坑區北深路三段202號","121.601406666667","25.0037433333333","6501800","深坑區"
"208003","665-BX","2017/11/13 20:09:15","新北市金山區海興路1-3號","121.634011666667","25.24478","6502700","金山區"
"251009","008-UM","2017/11/13 20:09:21","新北市淡水區清水街2號","121.445588333333","25.1703666666667","6501000","淡水區"
"251004","009-UM","2017/11/13 20:09:29","新北市淡水區民族路29巷42號","121.461675","25.13689","6501000","淡水區"
"251005","010-UM","2017/11/13 20:09:30","新北市淡水區學府路136巷46號","121.452211666667","25.1725883333333","6501000","淡水區"
"251008","181-VK","2017/11/13 20:09:28","新北市淡水區淡海路72巷30弄2號","121.424375","25.1824116666667","6501000","淡水區"
"251013","182-VK","2017/11/13 20:09:20","新北市淡水區奎柔山路381號","121.461975","25.20479","6501000","淡水區"
"251010","413-VK","2017/11/13 20:09:20","新北市淡水區新市二路二段8號","121.42452","25.1966","6501000","淡水區"
"251012","441-VK","2017/11/13 20:09:17","新北市淡水區下圭柔山56巷4號","121.44681","25.2051083333333","6501000","淡水區"
"251015","442-VK","2017/11/13 20:09:24","新北市淡水區淡金路三段256號","121.448973333333","25.2064483333333","6501000","淡水區"
"251006","561-UM","2017/11/13 20:09:16","新北市淡水區北新路141巷29號","121.448225","25.179565","6501000","淡水區"
"251002","672-BX","2017/11/13 20:09:09","新北市淡水區中正路296號","121.437485","25.1720783333333","6501000","淡水區"
"207003","550-UM","2017/11/13 20:09:10","新北市萬里區大鵬里萬里加投186號","121.642821666667","25.2156583333333","6502800","萬里區"
"207004","225-TW","2017/11/13 20:09:18","新北市萬里區北基里大勇路16號","121.682066666667","25.1766783333333","6502800","萬里區"
"252005","073-UM","2017/11/13 15:16:54","","121.50449","25.2644483333333","6502100","三芝區"
"252002","178-VK","2017/11/13 20:09:11","新北市三芝區三民街26號","121.504876666667","25.2587533333333","6502100","三芝區"
"252001","292-VK","2017/11/13 20:09:25","新北市三芝區公正街9號","121.499781666667","25.2575083333333","6502100","三芝區"
"237007","153-BY","2017/11/13 20:09:16","新北市三峽區二鬮路136巷37號","121.358391666667","24.90849","6500900","三峽區"
"237012","275-BY","2017/11/13 20:09:27","新北市三峽區安溪路313號","121.37118","24.930635","6500900","三峽區"
"237015","649-BX","2017/11/13 20:09:20","新北市三峽區介壽路三段9號","121.395553333333","24.9363466666667","6500900","三峽區"
"237005","AKY-6261","2017/11/13 20:09:13","新北市三峽區三樹路44巷8號","121.378141666667","24.9375766666667","6500900","三峽區"
"236069","105-UM","2017/11/13 20:09:28","新北市土城區大安路2號","121.432916666667","24.9654683333333","6501300","土城區"
"236042","107-UM","2017/11/13 20:09:27","新北市土城區學成路22巷3號","121.453435","24.9873866666667","6501300","土城區"
"236078","166-UM","2017/11/13 20:09:17","新北市土城區三民路25號","121.420138333333","24.9638283333333","6501300","土城區"
"236026","269-VK","2017/11/13 20:09:27","新北市土城區裕生路81號","121.44692","24.984235","6501300","土城區"
"236014","270-VK","2017/11/13 20:09:19","新北市土城區廣興街36號","121.455218333333","24.9916416666667","6501300","土城區"
"236036","271-VK","2017/11/13 20:09:24","新北市土城區延吉街296巷14號","121.46444","24.9846916666667","6501300","土城區"
"236020","401-BY","2017/11/13 20:09:16","新北市土城區延吉街83號","121.471888333333","24.987105","6501300","土城區"
"236030","752-BX","2017/11/13 20:09:26","新北市土城區中央路一段118巷1弄10號","121.445858333333","24.987905","6501300","土城區"
"236058","912-UM","2017/11/13 20:09:13","新北市土城區中央路一段325號","121.443731666667","24.9829833333333","6501300","土城區"
"236048","913-UM","2017/11/13 20:09:20","新北市土城區金城路三段151號","121.46862","24.9882833333333","6501300","土城區"
"236062","915-UM","2017/11/13 20:09:14","新北市土城區金城路三段73巷9弄17號","121.46565","24.9873166666667","6501300","土城區"
"236053","AAC-216","2017/11/13 20:09:20","新北市土城區學府路一段131號","121.45408","24.9865366666667","6501300","土城區"
"242031","AAC-296","2017/11/13 20:09:22","新北市新莊區忠孝街29巷7號","121.443611666667","25.0355966666667","6500500","新莊區"
"242029","986-R7","2017/11/13 20:09:17","新北市新莊區中原路349號","121.44509","25.054245","6500500","新莊區"
"242050","751-BX","2017/11/13 20:09:20","新北市新莊區民安西路172巷3號","121.42562","25.015975","6500500","新莊區"
"242025","615-BX","2017/11/13 20:09:30","新北市新莊區五工三路78巷1號","121.458973333333","25.0652583333333","6500500","新莊區"
"242023","613-BX","2017/11/13 20:09:16","新北市新莊區化成路560號","121.466195","25.0539916666667","6500500","新莊區"
"242027","612-BX","2017/11/13 20:09:13","新北市新莊區幸福路815號","121.445583333333","25.0489416666667","6500500","新莊區"
"242039","566-BX","2017/11/13 20:09:15","新北市新莊區民安西路80號","121.427155","25.0196316666667","6500500","新莊區"
"242044","497-BY","2017/11/13 20:09:21","桃園市龜山區萬壽路一段27號","121.410313333333","25.0205366666667","6500500","新莊區"
"242004","442-UM","2017/11/13 20:09:15","新北市新莊區頭興街9巷1號","121.462378333333","25.0535016666667","6500500","新莊區"
"242048","441-UM","2017/11/13 20:09:24","新北市新莊區四維路152巷15號","121.422336666667","25.022955","6500500","新莊區"
"242053","440-UM","2017/11/13 20:09:23","新北市新莊區西盛街387巷34弄5號","121.428521666667","25.0129316666667","6500500","新莊區"
"242034","415-TV","2017/11/13 20:09:12","新北市新莊區建中街103號","121.446498333333","25.0361","6500500","新莊區"
"242042","400-BY","2017/11/13 20:09:28","新北市新莊區青山路一段63號","121.407286666667","25.027835","6500500","新莊區"
"242060","362-BY","2017/11/13 20:09:22","新北市新莊區瓊林路96-4號","121.443931666667","25.0272283333333","6500500","新莊區"
"242058","353-BY","2017/11/13 20:09:12","新北市新莊區龍安路266巷3號","121.421693333333","25.0191066666667","6500500","新莊區"
"242007","132-UY","2017/11/13 20:09:20","新北市新莊區思源路419巷1弄9號","121.459345","25.0521","6500500","新莊區"
"242036","133-UY","2017/11/13 20:09:22","新北市新莊區建安街35巷20號","121.429926666667","25.0259116666667","6500500","新莊區"
"242046","172-VK","2017/11/13 20:09:23","新北市新莊區裕民街85巷17號","121.419536666667","25.0233266666667","6500500","新莊區"
"242009","173-VK","2017/11/13 20:09:26","新北市新莊區昌盛街35巷2弄2號","121.454103333333","25.05024","6500500","新莊區"
"242015","175-VK","2017/11/13 20:09:10","新北市新莊區中平路26巷34號","121.44626","25.0432466666667","6500500","新莊區"
"242002","176-VK","2017/11/13 20:09:25","新北市新莊區中正路59號","121.461653333333","25.0395616666667","6500500","新莊區"
"242001","233-RS","2017/11/13 14:44:09","新北市新莊區環河路48-7號","121.436956666667","25.0098166666667","6500500","新莊區"
"242013","347-TH","2017/11/13 20:09:27","新北市新莊區幸福路678巷3弄1號","121.450223333333","25.04962","6500500","新莊區"
"242019","348-TH","2017/11/13 20:09:24","新北市新莊區博愛路1巷2號","121.456525","25.0427683333333","6500500","新莊區"
"242056","349-TH","2017/11/13 20:09:31","新北市新莊區新莊路649巷15弄1號","121.444976666667","25.031465","6500500","新莊區"
"242017","350-TH","2017/11/13 20:09:28","新北市新莊區中港路373號","121.451783333333","25.0465716666667","6500500","新莊區"
"242011","351-TH","2017/11/13 20:09:30","新北市新莊區中信街49號","121.449738333333","25.0506766666667","6500500","新莊區"
"238021","KEA-2217","2017/11/13 20:09:14","新北市樹林區田尾街170號","121.402246666667","24.9505116666667","6500700","樹林區"
"221008","489-VK","2017/11/13 20:09:25","台北市內湖區康樂街206-3號","121.623545","25.0787883333333","6501100","汐止區"
"221036","130-UY","2017/11/13 20:09:13","新北市汐止區新台五路二段41巷3號","121.663008333333","25.0666866666667","6501100","汐止區"
"221015","131-UY","2017/11/13 20:09:25","新北市汐止區建成路25號","121.664245","25.0725866666667","6501100","汐止區"
"221010","269-BY","2017/11/13 20:09:17","新北市汐止區八連路一段206號","121.641565","25.080775","6501100","汐止區"
"221012","278-VK","2017/11/13 20:09:24","新北市汐止區汐平路二段66號","121.698463333333","25.060935","6501100","汐止區"
"221023","279-VK","2017/11/13 20:09:16","新北市汐止區明峰街298巷7弄1號","121.624928333333","25.0688033333333","6501100","汐止區"
"221032","280-BY","2017/11/13 20:09:25","新北市汐止區弘道街8巷3弄2號","121.617131666667","25.0480233333333","6501100","汐止區"
"221027","281-BY","2017/11/13 20:09:24","新北市汐止區和平街103號","121.66086","25.0699616666667","6501100","汐止區"
"221029","298-VK","2017/11/13 20:09:26","新北市汐止區樟樹一路119巷10弄1號","121.641186666667","25.0645183333333","6501100","汐止區"
"221021","299-VK","2017/11/13 20:09:30","新北市汐止區莊敬街128-2號","121.65479","25.0613316666667","6501100","汐止區"
"221035","622-UM","2017/11/13 20:09:28","新北市汐止區長江街67巷2弄8號","121.657011666667","25.072295","6501100","汐止區"
"221025","623-UM","2017/11/13 20:09:19","新北市汐止區秀峰路62號","121.659711666667","25.06464","6501100","汐止區"
"221038","646-BX","2017/11/13 20:09:28","新北市汐止區大同路三段66-3號","121.668046666667","25.0771766666667","6501100","汐止區"
"221033","647-BX","2017/11/13 20:09:08","新北市汐止區東勢街201巷104號","121.633543333333","25.0429033333333","6501100","汐止區"
"221002","707-TV","2017/11/13 20:09:26","新北市汐止區工建路366號","121.633293333333","25.0595433333333","6501100","汐止區"
"220080","200-UY","2017/11/13 20:09:29","新北市板橋區大觀路二段169巷15號","121.446028333333","24.99999","6500100","板橋區"
"220072","277-BY","2017/11/13 20:09:16","新北市板橋區金門街94-2號","121.433085","24.9924816666667","6500100","板橋區"
"220101","280-UM","2017/11/13 20:09:14","新北市板橋區莒光路171巷1弄18-4號","121.474491666667","25.02467","6500100","板橋區"
"220071","283-VK","2017/11/13 20:09:24","新北市板橋區廣權路127號","121.46553","24.9932583333333","6500100","板橋區"
"220053","285-VK","2017/11/13 20:09:13","新北市板橋區懷仁街91號","121.477501666667","25.0181416666667","6500100","板橋區"
"220081","287-VK","2017/11/13 20:09:28","新北市板橋區僑中一街102巷7弄3號","121.446713333333","25.01287","6500100","板橋區"
"220061","295-UM","2017/11/13 20:09:25","新北市板橋區縣民大道二段200巷3號","121.469795","25.0172283333333","6500100","板橋區"
"220084","296-UM","2017/11/13 20:09:21","新北市板橋區溪崑二街126號","121.426048333333","24.988025","6500100","板橋區"
"220092","299-UM","2017/11/13 20:09:24","新北市板橋區文化路一段45巷11號","121.46036","25.01401","6500100","板橋區"
"220062","303-R5","2017/11/13 20:06:54","新北市三重區重新路五段326巷25-1號","121.479618333333","25.0426516666667","6500100","板橋區"
"220098","317-R6","2017/11/13 20:09:23","新北市板橋區新海路198號","121.460895","25.0235","6500100","板橋區"
"242021","280-VK","2017/11/13 20:09:26","新北市新莊區新泰路150巷10弄15號","121.448178333333","25.0380266666667","6500500","新莊區"
"220088","491-VK","2017/11/13 20:09:19","新北市板橋區民治街67號","121.479568333333","25.0329366666667","6500100","板橋區"
"220103","561-BX","2017/11/13 20:09:12","新北市板橋區自由路26巷19號","121.46645","25.0225816666667","6500100","板橋區"
"220083","568-UM","2017/11/13 20:09:21","新北市板橋區僑中二街90巷17號","121.445416666667","25.0092466666667","6500100","板橋區"
"220057","686-BX","2017/11/13 20:09:27","新北市板橋區大觀路一段29巷59-5號","121.451668333333","25.00727","6500100","板橋區"
"220093","689-BX","2017/11/13 20:09:27","新北市板橋區長江路一段144號","121.460806666667","25.0300983333333","6500100","板橋區"
"220054","741-BX","2017/11/13 20:09:30","新北市板橋區忠孝路忠義巷3弄22號","121.465311666667","25.0040783333333","6500100","板橋區"
"220055","827-TW","2017/11/13 20:09:20","新北市板橋區仁愛路71號","121.460876666667","24.9997683333333","6500100","板橋區"
"220067","829-TW","2017/11/13 20:09:22","新北市板橋區中山路一段208號","121.469811666667","25.0138116666667","6500100","板橋區"
"220102","830-TW","2017/11/13 20:09:30","新北市板橋區民治街135號","121.477713333333","25.0307533333333","6500100","板橋區"
"220089","833-TW","2017/11/13 20:09:27","新北市板橋區互助街65號","121.460491666667","25.0262666666667","6500100","板橋區"
"220074","895-R6","2017/11/13 20:09:13","新北市板橋區府後街1巷18號","121.459615","25.0111966666667","6500100","板橋區"
"220097","AAC-210","2017/11/13 20:09:28","新北市板橋區光正街23巷8號","121.462138333333","25.0169566666667","6500100","板橋區"
"220070","AAC-253","2017/11/13 20:09:13","新北市板橋區四川路二段99巷24弄43號","121.453208333333","24.9934883333333","6500100","板橋區"
