"lineid","car","time","location","longitude","latitude","cityid","cityname"
"234046","148-BY","2017/11/13 20:19:22","新北市永和區得和路322號","121.52295","24.99957","6500400","永和區"
"234013","149-BY","2017/11/13 20:19:09","新北市永和區保生路40巷1號","121.505901666667","25.0082233333333","6500400","永和區"
"234007","207-UY","2017/11/13 20:19:13","新北市永和區保順路27號","121.50392","25.0101433333333","6500400","永和區"
"234081","298-R6","2017/11/13 20:19:20","新北市永和區國中路130號","121.523493333333","25.006795","6500400","永和區"
"234038","336-UY","2017/11/13 20:19:25","新北市永和區成功路一段93巷21弄2號","121.528323333333","25.0026533333333","6500400","永和區"
"234064","337-UY","2017/11/13 20:19:10","新北市永和區得和路131號","121.519076666667","25.0002033333333","6500400","永和區"
"234086","338-UY","2017/11/13 20:19:25","新北市永和區中正路625號","121.515665","25.0098433333333","6500400","永和區"
"234070","552-UM","2017/11/13 20:19:27","新北市永和區福和路263巷22號","121.517931666667","25.0064783333333","6500400","永和區"
"234054","553-UM","2017/11/13 20:19:24","新北市永和區光復街2巷16弄1號","121.517138333333","25.0163116666667","6500400","永和區"
"234017","745-BX","2017/11/13 20:19:27","新北市永和區永和路二段185號","121.515095","25.01345","6500400","永和區"
"234030","746-BX","2017/11/13 20:19:28","新北市中和區自強路2號","121.520288333333","24.9960183333333","6500400","永和區"
"234061","AAD-866","2017/11/13 20:19:19","新北市永和區安樂路100巷5號","121.514225","24.99938","6500400","永和區"
"234042","862-TW","2017/11/13 20:19:30","新北市永和區中和路451號","121.509815","25.0014716666667","6500400","永和區"
"234050","863-TW","2017/11/13 20:19:30","新北市永和區環河西路二段37號","121.5074","25.0155883333333","6500400","永和區"
"249005","172-UM","2017/11/13 20:19:23","新北市八里區下罟子6-4號","121.38606","25.1410233333333","6502300","八里區"
"249001","173-UM","2017/11/13 20:19:16","新北市八里區中華路二段462號","121.400955","25.146185","6502300","八里區"
"249004","303-UY","2017/11/13 20:09:05","新北市八里區中山路一段157巷67號","121.41227","25.1577266666667","6502300","八里區"
"249002","305-UY","2017/11/13 20:19:29","新北市八里區龍米路二段32巷15號","121.44891","25.140525","6502300","八里區"
"249003","593-UM","2017/11/13 20:19:22","新北市八里區訊埔路12號","121.397561666667","25.1454583333333","6502300","八里區"
"248014","025-BX","2017/11/13 20:19:13","新北市五股區凌雲路二段66號","121.438601666667","25.106325","6501500","五股區"
"248016","026-BX","2017/11/13 20:19:25","新北市五股區凌雲路一段158巷18號","121.448351666667","25.10345","6501500","五股區"
"248008","095-VK","2017/11/13 20:19:20","新北市五股區中興路二段37巷28號","121.46017","25.0750033333333","6501500","五股區"
"248012","247-BX","2017/11/13 20:19:13","新北市五股區六合街42號","121.432786666667","25.089395","6501500","五股區"
"248010","272-BY","2017/11/13 20:19:14","新北市五股區成泰路一段7巷3號","121.433376666667","25.0666516666667","6501500","五股區"
"248004","677-BX","2017/11/13 20:19:11","新北市五股區中興路四段42號","121.438281666667","25.0829133333333","6501500","五股區"
"248002","678-BX","2017/11/13 20:19:27","新北市五股區成泰路三段165號","121.44517","25.0918616666667","6501500","五股區"
"234023","9380-KE","2017/11/13 20:19:22","新北市永和區永和路二段232號","121.51614","25.0143116666667","6500400","永和區"
"234077","969-R7","2017/11/13 20:19:26","新北市永和區中正路102號","121.514325","24.9958583333333","6500400","永和區"
"234074","AAC-211","2017/11/13 20:19:27","新北市永和區竹林路201巷22弄4號","121.522238333333","25.0092916666667","6500400","永和區"
"234067","AAC-212","2017/11/13 20:19:23","新北市永和區保平路270號","121.508583333333","25.0052233333333","6500400","永和區"
"234003","AAC-295","2017/11/13 20:19:25","新北市永和區大新街40號","121.515645","25.0083866666667","6500400","永和區"
"244006","080-UY","2017/11/13 16:51:29","新北市林口區粉寮路二段160巷40號","121.405605","25.091195","6501700","林口區"
"243012","AAD-798","2017/11/13 20:19:14","新北市泰山區楓江路57號","121.435878333333","25.06269","6501600","泰山區"
"243009","297-R6","2017/11/13 20:19:30","新北市泰山區泰林路二段284巷1號","121.431135","25.0627833333333","6501600","泰山區"
"243015","380-SR","2017/11/13 20:19:21","新北市泰山區仁德路67號","121.434321666667","25.05657","6501600","泰山區"
"243014","421-VK","2017/11/13 20:19:29","新北市泰山區泰林路二段280巷2號","121.431596666667","25.0623916666667","6501600","泰山區"
"243010","KEA-2215","2017/11/13 20:19:30","新北市泰山區明志路二段254號","121.426726666667","25.0476166666667","6501600","泰山區"
"243011","KEA-2216","2017/11/13 20:19:27","新北市泰山區壽山路134巷26號","121.418473333333","25.0312683333333","6501600","泰山區"
"243013","646-TV","2017/11/13 20:19:15","新北市泰山區新民路26號","121.42672","25.0445983333333","6501600","泰山區"
"243016","680-BX","2017/11/13 20:19:22","新北市泰山區明志路三段277號","121.423038333333","25.0368316666667","6501600","泰山區"
"222003","436-BY","2017/11/13 20:19:30","新北市深坑區文化街74號","121.618141666667","25.0019566666667","6501800","深坑區"
"222002","659-BX","2017/11/13 20:19:11","新北市深坑區萬福路69號","121.602013333333","25.0086883333333","6501800","深坑區"
"231041","002-UM","2017/11/13 20:19:12","新北市新店區民權路42-1號","121.540278333333","24.9828916666667","6500600","新店區"
"231059","046-UY","2017/11/13 20:19:26","新北市新店區安德街138號","121.508438333333","24.96007","6500600","新店區"
"231061","047-UY","2017/11/13 20:19:28","新北市新店區安興路32號","121.515766666667","24.97038","6500600","新店區"
"231060","106-UY","2017/11/13 20:19:21","新北市新店區錦秀路1-3號","121.479088333333","24.9454383333333","6500600","新店區"
"231047","108-UY","2017/11/13 20:19:13","新北市新店區寶橋路132號","121.547473333333","24.97606","6500600","新店區"
"231052","187-VK","2017/11/13 20:19:12","新北市新店區新烏路二段369巷353-1號","121.55055","24.9102916666667","6500600","新店區"
"231050","KEA-2219","2017/11/13 20:19:25","新北市新店區北新路一段96巷21號","121.5427","24.9687916666667","6500600","新店區"
"231057","256-BX","2017/11/13 20:19:16","新北市新店區花園十二路1號","121.55478","24.934645","6500600","新店區"
"231063","268-BY","2017/11/13 20:19:11","新北市新店區安康路二段320巷6號","121.50455","24.95959","6500600","新店區"
"231054","AAD-862","2017/11/13 20:18:55","新北市新店區檳榔路109號","121.544523333333","24.96165","6500600","新店區"
"231058","3712-VJ","2017/11/13 20:19:19","新北市新店區中央路15號","121.533365","24.978345","6500600","新店區"
"231056","3713-VJ","2017/11/13 20:19:19","新北市新店區中正路275巷6號","121.537481666667","24.9740166666667","6500600","新店區"
"231055","4716-K9","2017/11/13 20:19:31","新北市新店區中華路48巷7號","121.540066666667","24.9686583333333","6500600","新店區"
"231067","4772-VM","2017/11/13 20:19:17","新北市新店區溪洲路8巷94號","121.533283333333","24.9626","6500600","新店區"
"231065","512-UM","2017/11/13 20:19:15","新北市新店區安祥路104-10號","121.479131666667","24.9620466666667","6500600","新店區"
"231064","515-UM","2017/11/13 20:19:23","新北市新店區安樂街12號","121.520786666667","24.97338","6500600","新店區"
"231040","619-UM","2017/11/13 20:19:23","新北市新店區中正路199號","121.540378333333","24.972515","6500600","新店區"
"231042","641-BX","2017/11/13 20:19:27","新北市新店區中興路二段233號","121.547608333333","24.97505","6500600","新店區"
"231068","718-UY","2017/11/13 20:19:14","新北市新店區寶安街30號","121.5421","24.9824","6500600","新店區"
"231049","719-UM","2017/11/13 20:19:16","新北市新店區北新路一段123號","121.53932","24.9624133333333","6500600","新店區"
"231051","719-UY","2017/11/13 20:19:12","新北市新店區中央六街46號","121.52838","24.9755483333333","6500600","新店區"
"231062","720-UM","2017/11/13 20:19:15","新北市新店區安泰路7巷16號","121.485693333333","24.9509266666667","6500600","新店區"
"231044","897-TW","2017/11/13 20:19:21","新北市新店區順安街4-1號","121.541201666667","24.9848033333333","6500600","新店區"
"231045","898-TW","2017/11/13 20:19:12","新北市新店區五峰路145巷7號","121.546295","24.9646316666667","6500600","新店區"
"231043","899-TW","2017/11/13 20:19:23","新北市新店區建國路133號","121.539336666667","24.9781733333333","6500600","新店區"
"231066","AKT-0513","2017/11/13 20:19:12","新北市新店區安興路105-1號","121.514705","24.9778166666667","6500600","新店區"
"241011","013-R5","2017/11/13 20:19:22","新北市三重區龍門路203號","121.499875","25.0733633333333","6500200","三重區"
"241028","022-UY","2017/11/13 20:19:21","新北市三重區大同南路137號","121.496505","25.0575766666667","6500200","三重區"
"241008","059-VK","2017/11/13 20:19:28","新北市三重區永福街211巷18號","121.479231666667","25.0740133333333","6500200","三重區"
"241009","060-VK","2017/11/13 20:19:32","新北市三重區三和路四段382巷78號","121.480238333333","25.0781366666667","6500200","三重區"
"241031","061-VK","2017/11/13 20:19:30","新北市三重區三寧街18號","121.489375","25.0598283333333","6500200","三重區"
"241015","062-VK","2017/11/13 20:19:20","新北市三重區重新路一段126號","121.50033","25.06287","6500200","三重區"
"241017","063-VK","2017/11/13 20:19:26","新北市三重區自強路一段165號","121.493165","25.06731","6500200","三重區"
"241026","066-VK","2017/11/13 20:19:17","新北市三重區重新路一段52號","121.502665","25.0636016666667","6500200","三重區"
"241002","090-VK","2017/11/13 20:19:22","新北市三重區仁義街101巷2號","121.497966666667","25.0801833333333","6500200","三重區"
"241003","091-VK","2017/11/13 20:19:20","新北市三重區富華街52號","121.490248333333","25.0829266666667","6500200","三重區"
"241005","262-UM","2017/11/13 20:19:18","新北市三重區仁愛街508號","121.48802","25.082075","6500200","三重區"
"241024","265-UM","2017/11/13 20:19:12","新北市三重區忠孝路三段23號","121.481331666667","25.0674533333333","6500200","三重區"
"241016","266-UM","2017/11/13 20:19:22","新北市三重區大同北路97-3號","121.494326666667","25.0636216666667","6500200","三重區"
"241022","267-UM","2017/11/13 20:19:25","新北市三重區中正北路18號","121.488781666667","25.0633483333333","6500200","三重區"
"241018","268-UM","2017/11/13 20:19:22","新北市三重區自強路一段155-1號","121.493571666667","25.0671516666667","6500200","三重區"
"241032","269-UM","2017/11/13 20:19:18","新北市三重區捷運路19巷6弄20號","121.48438","25.0567466666667","6500200","三重區"
"241013","270-UM","2017/11/13 20:19:17","新北市三重區三和路三段167巷7號","121.49224","25.07411","6500200","三重區"
"241025","271-UM","2017/11/13 20:19:18","新北市三重區三民街237號","121.480088333333","25.06736","6500200","三重區"
"241004","475-VK","2017/11/13 20:19:14","新北市三重區仁政街205號","121.49059","25.0804683333333","6500200","三重區"
"241019","478-VK","2017/11/13 20:19:22","新北市三重區大智街188號","121.4897","25.0705683333333","6500200","三重區"
"241030","480-VK","2017/11/13 20:19:32","新北市三重區集美街89巷2號","121.488661666667","25.0530716666667","6500200","三重區"
"241014","543-UM","2017/11/13 20:19:18","新北市三重區長樂街135巷4號","121.503615","25.0698633333333","6500200","三重區"
"241023","545-UM","2017/11/13 20:19:16","新北市三重區頂崁街140號","121.477658333333","25.06509","6500200","三重區"
"241001","547-UM","2017/11/13 20:19:22","新北市三重區自強路四段3巷29號","121.489896666667","25.0763783333333","6500200","三重區"
"241035","743-BX","2017/11/13 20:19:25","新北市三重區文化北路18號","121.499243333333","25.06392","6500200","三重區"
"241007","887-TS","2017/11/13 20:19:31","新北市三重區溪尾街108巷58號","121.487076666667","25.07801","6500200","三重區"
"241012","941-UM","2017/11/13 20:19:18","新北市三重區河邊北街379-1號","121.501765","25.0764366666667","6500200","三重區"
"241029","942-UM","2017/11/13 20:19:12","新北市三重區光明路98號","121.492491666667","25.0565333333333","6500200","三重區"
"241033","AAC-255","2017/11/13 20:19:15","新北市三重區五谷王北街50巷6號","121.475758333333","25.0514066666667","6500200","三重區"
"235066","003-UY","2017/11/13 20:19:13","新北市中和區保平路336號","121.506708333333","25.0042816666667","6500300","中和區"
"235039","097-UM","2017/11/13 20:19:22","新北市中和區立人街24-5號","121.518848333333","24.99411","6500300","中和區"
"235065","098-UM","2017/11/13 20:19:21","新北市中和區永和路128巷47號","121.4977","25.006905","6500300","中和區"
"235068","377-QA","2017/11/13 20:19:19","新北市中和區中山路二段248號","121.497718333333","25.0025683333333","6500300","中和區"
"235050","4979-A6","2017/11/13 20:19:25","新北市中和區景平路402號","121.509231666667","24.9930766666667","6500300","中和區"
"235069","4980-A6","2017/11/13 20:19:16","新北市中和區中正路434號","121.491233333333","24.9942366666667","6500300","中和區"
"235070","558-UM","2017/11/13 20:19:23","新北市中和區中正路740號","121.485423333333","24.9979316666667","6500300","中和區"
"235037","AAC-213","2017/11/13 20:19:31","新北市中和區中正路60號","121.501581666667","24.99362","6500300","中和區"
"235059","AAC-215","2017/11/13 20:19:10","新北市中和區圓通路356-10號","121.485236666667","24.9868233333333","6500300","中和區"
"220065","072-UY","2017/11/13 20:19:17","新北市五股區凌雲路一段22巷9號","121.452895","25.1005766666667","6500100","板橋區"
"247022","893-R6","2017/11/13 20:19:31","新北市蘆洲區民族路455號","121.467383333333","25.0885516666667","6501400","蘆洲區"
"247012","546-UM","2017/11/13 20:19:13","新北市蘆洲區中興街15巷18號","121.480301666667","25.087625","6501400","蘆洲區"
"247020","500-BY","2017/11/13 20:19:24","新北市蘆洲區仁愛街41號","121.472046666667","25.0930883333333","6501400","蘆洲區"
"247010","339-TH","2017/11/13 20:19:19","新北市蘆洲區信義路188巷2弄1號","121.479635","25.0843633333333","6501400","蘆洲區"
"247002","337-TH","2017/11/13 20:19:17","新北市蘆洲區環堤大道108號","121.455483333333","25.086575","6501400","蘆洲區"
"247004","335-TH","2017/11/13 20:19:20","新北市蘆洲區長安街220巷32-1號","121.45962","25.0851066666667","6501400","蘆洲區"
"247016","057-VK","2017/11/13 20:19:29","新北市蘆洲區光華路132巷30號","121.465778333333","25.08352","6501400","蘆洲區"
"247006","056-VK","2017/11/13 20:19:31","新北市蘆洲區九芎街136號","121.464956666667","25.0790283333333","6501400","蘆洲區"
"247008","053-VK","2017/11/13 20:19:23","新北市蘆洲區集賢路225號","121.482521666667","25.0861566666667","6501400","蘆洲區"
"247014","007-UY","2017/11/13 20:19:22","新北市蘆洲區中山一路262號","121.471903333333","25.0796516666667","6501400","蘆洲區"
"247024","002-UY","2017/11/13 20:19:30","新北市蘆洲區光榮路120巷8弄37號","121.464636666667","25.087985","6501400","蘆洲區"
"247018","001-UY","2017/11/13 20:19:28","新北市蘆洲區民族路408巷14號","121.474886666667","25.0920483333333","6501400","蘆洲區"
"226004","312-R5","2017/11/13 20:19:10","新北市平溪區南山里南山坪24號","121.771631666667","25.0366","6502400","平溪區"
"222001","KEA-2212","2017/11/13 20:19:26","新北市深坑區北深路三段213號","121.600311666667","25.0040233333333","6501800","深坑區"
"251004","009-UM","2017/11/13 20:19:09","新北市淡水區民生路45號","121.462051666667","25.1389466666667","6501000","淡水區"
"251008","181-VK","2017/11/13 20:19:23","新北市淡水區淡海路150巷19號","121.42231","25.1843183333333","6501000","淡水區"
"251013","182-VK","2017/11/13 20:19:20","新北市淡水區奎柔山路752巷31號","121.47434","25.20523","6501000","淡水區"
"251010","413-VK","2017/11/13 20:19:20","新北市淡水區新民街一段136號","121.427648333333","25.1890683333333","6501000","淡水區"
"251012","441-VK","2017/11/13 20:19:18","新北市淡水區淡金路三段405-2號","121.449033333333","25.2083466666667","6501000","淡水區"
"251015","442-VK","2017/11/13 20:19:24","新北市淡水區興仁路162號","121.451555","25.22059","6501000","淡水區"
"251006","561-UM","2017/11/13 20:19:16","新北市淡水區北新路169巷4號","121.450246666667","25.1794716666667","6501000","淡水區"
"251002","672-BX","2017/11/13 20:19:29","新北市淡水區中正路156號","121.440726666667","25.1697166666667","6501000","淡水區"
"251003","766-UM","2017/11/13 20:19:18","新北市淡水區中山北路一段229號","121.444448333333","25.1795383333333","6501000","淡水區"
"207004","225-TW","2017/11/13 20:19:24","新北市萬里區北基里大仁路1號","121.681716666667","25.1750933333333","6502800","萬里區"
"252005","073-UM","2017/11/13 15:16:54","","121.50449","25.2644483333333","6502100","三芝區"
"252002","178-VK","2017/11/13 20:19:12","新北市三芝區中正路一段3號","121.502645","25.2589783333333","6502100","三芝區"
"252001","292-VK","2017/11/13 20:19:25","新北市三芝區中山路一段14號","121.50068","25.25812","6502100","三芝區"
"237015","649-BX","2017/11/13 20:19:20","新北市三峽區介壽路二段138巷16號","121.395823333333","24.9347616666667","6500900","三峽區"
"237005","AKY-6261","2017/11/13 20:19:13","新北市三峽區三樹路98巷119號","121.382285","24.9390766666667","6500900","三峽區"
"236069","105-UM","2017/11/13 20:19:28","新北市土城區中山路99號","121.432928333333","24.9709466666667","6501300","土城區"
"236078","166-UM","2017/11/13 20:19:17","新北市土城區德安街4巷5號","121.422065","24.9649166666667","6501300","土城區"
"236026","269-VK","2017/11/13 20:19:27","新北市土城區裕生路86巷6號","121.44685","24.9852183333333","6501300","土城區"
"236014","270-VK","2017/11/13 20:19:19","新北市土城區廣明街90巷18號","121.455465","24.9944683333333","6501300","土城區"
"236036","271-VK","2017/11/13 20:19:24","新北市土城區明德路一段71號","121.46562","24.983345","6501300","土城區"
"236020","401-BY","2017/11/13 20:19:16","新北市土城區延吉街111巷12弄20號","121.471493333333","24.9854516666667","6501300","土城區"
"236030","752-BX","2017/11/13 20:19:26","新北市土城區學成路128巷11號","121.44955","24.9900433333333","6501300","土城區"
"236058","912-UM","2017/11/13 20:19:12","新北市土城區中央路二段223-5號","121.4406","24.973425","6501300","土城區"
"236053","AAC-216","2017/11/13 20:19:20","新北市土城區城林路3號","121.437078333333","24.975795","6501300","土城區"
"242031","AAC-296","2017/11/13 20:19:22","新北市新莊區義豐街11號","121.441063333333","25.034745","6500500","新莊區"
"242029","986-R7","2017/11/13 20:19:22","新北市新莊區中原路239號","121.449478333333","25.054285","6500500","新莊區"
"242050","751-BX","2017/11/13 20:19:20","新北市新莊區民安西路212巷1弄1號","121.4257","25.0147816666667","6500500","新莊區"
"242025","615-BX","2017/11/13 20:19:16","新北市新莊區五工二路70巷3號","121.460401666667","25.0660116666667","6500500","新莊區"
"242023","613-BX","2017/11/13 20:19:16","新北市新莊區化成路768號","121.46523","25.05888","6500500","新莊區"
"242027","612-BX","2017/11/13 20:19:29","新北市新莊區幸福路541號","121.454876666667","25.0492733333333","6500500","新莊區"
"242039","566-BX","2017/11/13 20:19:15","新北市新莊區龍安路441號","121.42443","25.0185483333333","6500500","新莊區"
"242044","497-BY","2017/11/13 20:19:19","新北市新莊區中正路893巷40號","121.413733333333","25.0206916666667","6500500","新莊區"
"242004","442-UM","2017/11/13 20:19:15","新北市新莊區頭前路14號","121.46812","25.05245","6500500","新莊區"
"242048","441-UM","2017/11/13 20:19:23","新北市新莊區四維路186巷1號","121.421865","25.02111","6500500","新莊區"
"242053","440-UM","2017/11/13 20:19:23","新北市新莊區民安西路261巷18號","121.426766666667","25.0130383333333","6500500","新莊區"
"242034","415-TV","2017/11/13 20:19:12","新北市新莊區建中街116巷3弄17號","121.445136666667","25.0370616666667","6500500","新莊區"
"242042","400-BY","2017/11/13 20:19:12","新北市新莊區壽山路49號","121.414483333333","25.0311666666667","6500500","新莊區"
"242060","362-BY","2017/11/13 20:19:22","新北市新莊區新樹路172-13號","121.43459","25.02162","6500500","新莊區"
"242058","353-BY","2017/11/13 20:19:25","新北市新莊區四維路205號","121.421796666667","25.02046","6500500","新莊區"
"242007","132-UY","2017/11/13 20:19:20","新北市新莊區福壽街94巷19弄2號","121.459351666667","25.050055","6500500","新莊區"
"242036","133-UY","2017/11/13 20:19:18","新北市新莊區建安街66號","121.427005","25.0245333333333","6500500","新莊區"
"242046","172-VK","2017/11/13 20:19:28","新北市新莊區中正路新生巷33號","121.417208333333","25.0234016666667","6500500","新莊區"
"242009","173-VK","2017/11/13 20:19:26","新北市新莊區昌平街29號","121.454826666667","25.0518383333333","6500500","新莊區"
"242015","175-VK","2017/11/13 20:19:30","新北市新莊區中和街31巷22號","121.447148333333","25.04387","6500500","新莊區"
"242002","176-VK","2017/11/13 20:19:33","新北市新莊區化成路82號","121.465188333333","25.043925","6500500","新莊區"
"242001","233-RS","2017/11/13 14:44:09","新北市新莊區環河路48-7號","121.436956666667","25.0098166666667","6500500","新莊區"
"242013","347-TH","2017/11/13 20:19:27","新北市新莊區中和街186巷2弄6號","121.447678333333","25.0496116666667","6500500","新莊區"
"242019","348-TH","2017/11/13 20:19:24","新北市新莊區復興路二段196巷1號","121.459448333333","25.0440333333333","6500500","新莊區"
"242056","349-TH","2017/11/13 20:19:31","新北市新莊區豐年街20巷9號","121.44595","25.0324066666667","6500500","新莊區"
"242017","350-TH","2017/11/13 20:19:28","新北市新莊區中港一街141號","121.448058333333","25.0450066666667","6500500","新莊區"
"242011","351-TH","2017/11/13 20:19:30","新北市新莊區中信街23巷1號","121.450996666667","25.0505166666667","6500500","新莊區"
"238021","KEA-2217","2017/11/13 20:19:14","新北市樹林區佳園路三段99巷87號","121.395173333333","24.9528766666667","6500700","樹林區"
"221008","489-VK","2017/11/13 20:19:25","新北市汐止區康寧街60號","121.618903333333","25.066585","6501100","汐止區"
"221036","130-UY","2017/11/13 20:19:13","新北市汐止區福安街57巷2號","121.663915","25.0637816666667","6501100","汐止區"
"221015","131-UY","2017/11/13 20:19:25","新北市汐止區建成路142巷19弄9號","121.662001666667","25.0738583333333","6501100","汐止區"
"221010","269-BY","2017/11/13 20:19:17","新北市汐止區八連路二段335號","121.629786666667","25.10024","6501100","汐止區"
"221012","278-VK","2017/11/13 20:19:24","新北市汐止區保新街158號","121.689795","25.0682816666667","6501100","汐止區"
"221023","279-VK","2017/11/13 20:19:16","新北市汐止區明峰街309號","121.624985","25.0674066666667","6501100","汐止區"
"221032","280-BY","2017/11/13 20:19:25","新北市汐止區橫科路52巷9弄5號","121.61953","25.05022","6501100","汐止區"
"221027","281-BY","2017/11/13 20:19:24","新北市汐止區光明街6號","121.660921666667","25.0688533333333","6501100","汐止區"
"221029","298-VK","2017/11/13 20:19:26","新北市汐止區工建路66號","121.640528333333","25.0630483333333","6501100","汐止區"
"221021","299-VK","2017/11/13 20:19:30","新北市汐止區水源路一段249號","121.654195","25.0598583333333","6501100","汐止區"
"221035","622-UM","2017/11/13 20:19:20","新北市汐止區長江街101-5號","121.658696666667","25.0732283333333","6501100","汐止區"
"221025","623-UM","2017/11/13 20:19:19","新北市汐止區水源路二段72巷6弄5號","121.655685","25.05565","6501100","汐止區"
"221038","646-BX","2017/11/13 20:19:28","新北市汐止區忠孝東路478號","121.666356666667","25.0736616666667","6501100","汐止區"
"221033","647-BX","2017/11/13 20:19:29","新北市汐止區東勢街201巷104號","121.633521666667","25.0429466666667","6501100","汐止區"
"221002","707-TV","2017/11/13 20:19:26","新北市汐止區福德二路16巷14-1號","121.635451666667","25.068635","6501100","汐止區"
"220080","200-UY","2017/11/13 20:19:29","新北市板橋區館前西路164號","121.452583333333","25.0085666666667","6500100","板橋區"
"220101","280-UM","2017/11/13 20:19:14","新北市板橋區莊敬路77號","121.473068333333","25.0267916666667","6500100","板橋區"
"220071","283-VK","2017/11/13 20:19:24","新北市中和區中山路二段493號","121.482555","25.0050233333333","6500100","板橋區"
"220061","295-UM","2017/11/13 20:19:25","新北市板橋區中山路一段22號","121.460151666667","25.0081716666667","6500100","板橋區"
"220062","303-R5","2017/11/13 20:19:14","新北市八里區商港路120號","121.392808333333","25.1500883333333","6500100","板橋區"
"242021","280-VK","2017/11/13 20:19:26","新北市新莊區復興路一段5號","121.445603333333","25.041485","6500500","新莊區"
"220088","491-VK","2017/11/13 20:19:19","新北市三重區光復路二段87巷63號","121.47549","25.0586483333333","6500100","板橋區"
"220103","561-BX","2017/11/13 20:19:32","新北市板橋區陽明街279巷1弄1號","121.461841666667","25.02603","6500100","板橋區"
"220083","568-UM","2017/11/13 20:19:21","新北市板橋區僑中二街102巷14號","121.445565","25.0084916666667","6500100","板橋區"
"220057","686-BX","2017/11/13 20:19:27","新北市五股區成泰路四段22巷6-3號","121.453908333333","25.1053016666667","6500100","板橋區"
"220093","689-BX","2017/11/13 20:19:17","新北市三重區五谷王北街141巷1號","121.478531666667","25.0526833333333","6500100","板橋區"
"220055","827-TW","2017/11/13 20:19:20","新北市板橋區仁愛路23號","121.458948333333","24.9994233333333","6500100","板橋區"
"220102","830-TW","2017/11/13 20:19:10","新北市板橋區漢生東路83巷10-1號","121.467436666667","25.0160433333333","6500100","板橋區"
"220089","833-TW","2017/11/13 20:19:27","新北市板橋區四維路195號","121.464141666667","25.026925","6500100","板橋區"
"220097","AAC-210","2017/11/13 20:19:28","新北市板橋區光正街45巷2弄4號","121.461708333333","25.017485","6500100","板橋區"
"220070","AAC-253","2017/11/13 20:19:13","新北市板橋區四川路二段253號","121.450483333333","24.9933383333333","6500100","板橋區"
