"lineid","car","time","location","longitude","latitude","cityid","cityname"
"234007","207-UY","2017/11/13 20:29:13","新北市永和區環河西路二段219號","121.501316666667","25.01002","6500400","永和區"
"234081","298-R6","2017/11/13 20:29:20","新北市永和區永亨路70號","121.520898333333","25.0058","6500400","永和區"
"234038","336-UY","2017/11/13 20:29:26","新北市永和區民樂街31巷17弄6號","121.528483333333","25.0018633333333","6500400","永和區"
"234064","337-UY","2017/11/13 20:29:30","新北市永和區中正路439號","121.517065","25.005195","6500400","永和區"
"234086","338-UY","2017/11/13 20:29:25","新北市永和區永和路二段344號","121.516346666667","25.017145","6500400","永和區"
"234070","552-UM","2017/11/13 20:29:28","新北市永和區永亨路11號","121.51948","25.0058633333333","6500400","永和區"
"234054","553-UM","2017/11/13 20:29:24","新北市永和區光復街60巷25號","121.517758333333","25.0175283333333","6500400","永和區"
"234030","746-BX","2017/11/13 20:29:28","新北市永和區民族街81巷62號","121.520343333333","24.9964866666667","6500400","永和區"
"234061","AAD-866","2017/11/13 20:29:13","新北市永和區安樂路194巷6號","121.515636666667","25.0009766666667","6500400","永和區"
"234042","862-TW","2017/11/13 20:29:23","新北市永和區安樂路270號","121.51451","25.0041416666667","6500400","永和區"
"234050","863-TW","2017/11/13 20:29:30","新北市永和區新生路19號","121.509341666667","25.0167733333333","6500400","永和區"
"249005","172-UM","2017/11/13 20:29:23","新北市八里區中山路三段305號","121.379761666667","25.1389166666667","6502300","八里區"
"249001","173-UM","2017/11/13 20:29:16","新北市八里區中山路三段106號","121.393338333333","25.1438533333333","6502300","八里區"
"249004","303-UY","2017/11/13 20:29:25","新北市八里區中山路一段129巷19-1號","121.413975","25.1586233333333","6502300","八里區"
"249002","305-UY","2017/11/13 20:29:29","新北市八里區龍米路二段125巷23號","121.445881666667","25.1455566666667","6502300","八里區"
"249003","593-UM","2017/11/13 20:29:22","新北市八里區華峰一街27號","121.399141666667","25.146465","6502300","八里區"
"248002","678-BX","2017/11/13 20:29:27","新北市五股區成泰路三段45號","121.442585","25.0891216666667","6501500","五股區"
"234023","9380-KE","2017/11/13 20:29:22","新北市永和區博愛街32巷1號","121.518763333333","25.0157583333333","6500400","永和區"
"234074","AAC-211","2017/11/13 20:29:14","新北市永和區豫溪街189巷1號","121.522608333333","25.0102466666667","6500400","永和區"
"234067","AAC-212","2017/11/13 20:29:03","新北市永和區保平路292巷42號","121.507481666667","25.005295","6500400","永和區"
"244006","080-UY","2017/11/13 16:51:29","新北市林口區粉寮路二段160巷40號","121.405605","25.091195","6501700","林口區"
"243012","AAD-798","2017/11/13 20:29:14","新北市泰山區忠孝街17巷2號","121.42756","25.0653816666667","6501600","泰山區"
"243009","297-R6","2017/11/13 20:29:29","新北市泰山區忠孝街14-1號","121.427776666667","25.0649516666667","6501600","泰山區"
"243015","380-SR","2017/11/13 20:29:21","新北市泰山區泰林路二段73巷6號","121.434711666667","25.0583216666667","6501600","泰山區"
"243014","421-VK","2017/11/13 20:29:29","新北市泰山區泰林路二段455號","121.425701666667","25.064","6501600","泰山區"
"243010","KEA-2215","2017/11/13 20:29:30","新北市泰山區新生路29號","121.427426666667","25.0454583333333","6501600","泰山區"
"243011","KEA-2216","2017/11/13 20:29:10","新北市泰山區中山路二段687號","121.429391666667","25.03978","6501600","泰山區"
"243013","646-TV","2017/11/13 20:29:15","新北市泰山區民國街32號","121.425768333333","25.04301","6501600","泰山區"
"243016","680-BX","2017/11/13 20:29:22","新北市泰山區新生路22巷1號","121.428571666667","25.0448733333333","6501600","泰山區"
"222003","436-BY","2017/11/13 20:29:30","新北市深坑區深坑街49號","121.615318333333","25.0017916666667","6501800","深坑區"
"222002","659-BX","2017/11/13 20:26:31","新北市深坑區萬福路16巷35號","121.608675","25.008835","6501800","深坑區"
"231041","002-UM","2017/11/13 20:29:12","新北市新店區中正路501-2號","121.533621666667","24.9837416666667","6500600","新店區"
"231059","046-UY","2017/11/13 20:29:22","新北市新店區安豐路46號","121.500075","24.9548916666667","6500600","新店區"
"231061","047-UY","2017/11/13 20:29:28","新北市新店區新和街34號","121.519088333333","24.984745","6500600","新店區"
"231060","106-UY","2017/11/13 20:29:21","新北市新店區錦秀路11巷96弄21號","121.478835","24.9416733333333","6500600","新店區"
"231047","108-UY","2017/11/13 20:29:13","新北市新店區寶慶街58巷10號","121.542045","24.987185","6500600","新店區"
"231052","187-VK","2017/11/13 20:29:12","新北市新店區松林路38號","121.546231666667","24.91025","6500600","新店區"
"231050","KEA-2219","2017/11/13 20:29:25","新北市新店區博愛街21號","121.541321666667","24.9736233333333","6500600","新店區"
"231057","256-BX","2017/11/13 20:29:15","新北市新店區花園五路二段3號","121.553596666667","24.93423","6500600","新店區"
"231063","268-BY","2017/11/13 20:29:31","新北市新店區玫瑰路4-1號","121.493596666667","24.9513683333333","6500600","新店區"
"231054","AAD-862","2017/11/13 20:29:15","新北市新店區檳榔路103號","121.544826666667","24.9616766666667","6500600","新店區"
"231058","3712-VJ","2017/11/13 20:29:25","新北市新店區自由街2號","121.535521666667","24.9751983333333","6500600","新店區"
"231056","3713-VJ","2017/11/13 20:29:18","新北市新店區中正路302巷12號","121.537988333333","24.97517","6500600","新店區"
"231065","512-UM","2017/11/13 20:29:15","新北市新店區安祥路102巷42弄87號","121.486725","24.96298","6500600","新店區"
"231064","515-UM","2017/11/13 20:29:23","新北市新店區新和街59巷1號","121.519891666667","24.9854416666667","6500600","新店區"
"231040","619-UM","2017/11/13 20:29:23","新北市新店區中正路348號","121.536281666667","24.9752383333333","6500600","新店區"
"231042","641-BX","2017/11/13 20:29:27","新北市新店區寶橋路230號","121.551556666667","24.9788533333333","6500600","新店區"
"231068","718-UY","2017/11/13 20:29:14","新北市新店區民權路13號","121.542385","24.982875","6500600","新店區"
"231049","719-UM","2017/11/13 20:29:16","新北市新店區永業路81巷26號","121.530483333333","24.948335","6500600","新店區"
"231051","719-UY","2017/11/13 20:29:12","新北市新店區中央七街103號","121.526033333333","24.977505","6500600","新店區"
"231062","720-UM","2017/11/13 20:29:15","新北市新店區安泰路60巷94號","121.484","24.945365","6500600","新店區"
"231044","897-TW","2017/11/13 20:29:22","新北市新店區民族路47號","121.540246666667","24.9786333333333","6500600","新店區"
"231045","898-TW","2017/11/13 20:29:32","新北市新店區新坡一街15號","121.549526666667","24.9629133333333","6500600","新店區"
"231043","899-TW","2017/11/13 20:29:28","新北市新店區建國路129號","121.539581666667","24.9780316666667","6500600","新店區"
"231066","AKT-0513","2017/11/13 20:29:12","新北市新店區安興路105號","121.514811666667","24.977805","6500600","新店區"
"241011","013-R5","2017/11/13 20:29:22","新北市三重區三和路三段53號","121.495253333333","25.0716383333333","6500200","三重區"
"241028","022-UY","2017/11/13 20:29:21","新北市三重區光興街91號","121.497423333333","25.0598983333333","6500200","三重區"
"241008","059-VK","2017/11/13 20:29:28","新北市三重區永福街273號","121.482243333333","25.07425","6500200","三重區"
"241009","060-VK","2017/11/13 20:29:12","新北市三重區永福街1號","121.482928333333","25.0782766666667","6500200","三重區"
"241031","061-VK","2017/11/13 20:29:30","新北市三重區三寧街18號","121.489433333333","25.0598366666667","6500200","三重區"
"241015","062-VK","2017/11/13 20:29:23","新北市三重區長元西街1號","121.498785","25.065625","6500200","三重區"
"241017","063-VK","2017/11/13 20:29:26","新北市三重區自強路一段290號","121.491461666667","25.0683316666667","6500200","三重區"
"241026","066-VK","2017/11/13 20:29:17","新北市三重區環河南路29號","121.503233333333","25.0621766666667","6500200","三重區"
"241002","090-VK","2017/11/13 20:29:22","新北市三重區仁義街211巷21號","121.497446666667","25.0822416666667","6500200","三重區"
"241003","091-VK","2017/11/13 20:29:20","新北市三重區富華街99號","121.492126666667","25.084135","6500200","三重區"
"241005","262-UM","2017/11/13 20:29:18","新北市三重區碧華街396號","121.491668333333","25.0847683333333","6500200","三重區"
"241024","265-UM","2017/11/13 20:29:12","新北市三重區三民街270號","121.479008333333","25.0680816666667","6500200","三重區"
"241016","266-UM","2017/11/13 20:29:22","新北市三重區正義北路104號","121.497068333333","25.0650083333333","6500200","三重區"
"241022","267-UM","2017/11/13 20:29:25","新北市三重區重陽路二段19巷3號","121.48732","25.0624116666667","6500200","三重區"
"241018","268-UM","2017/11/13 20:29:22","新北市三重區正義北路216巷5號","121.495875","25.06754","6500200","三重區"
"241032","269-UM","2017/11/13 20:29:20","新北市三重區重陽路一段120巷30號","121.485456666667","25.0601283333333","6500200","三重區"
"241013","270-UM","2017/11/13 20:29:18","新北市三重區溪尾街8號","121.491503333333","25.0744716666667","6500200","三重區"
"241025","271-UM","2017/11/13 20:29:18","新北市三重區頂崁街210巷23弄1號","121.47588","25.0681433333333","6500200","三重區"
"241004","475-VK","2017/11/13 20:29:14","新北市三重區溪尾街182號","121.48852","25.08074","6500200","三重區"
"241019","478-VK","2017/11/13 20:29:22","新北市三重區重陽路四段77號","121.492458333333","25.07099","6500200","三重區"
"241030","480-VK","2017/11/13 20:29:16","新北市三重區成功路72號","121.488391666667","25.0510316666667","6500200","三重區"
"241014","543-UM","2017/11/13 20:29:18","新北市三重區長壽街120巷23號","121.502365","25.06927","6500200","三重區"
"241023","545-UM","2017/11/13 20:29:16","新北市三重區自由街17巷1號","121.479818333333","25.0665816666667","6500200","三重區"
"241001","547-UM","2017/11/13 20:29:22","新北市三重區福隆路12號","121.490263333333","25.0774183333333","6500200","三重區"
"241035","743-BX","2017/11/13 20:29:25","新北市三重區正義北路96號","121.49704","25.0648216666667","6500200","三重區"
"241007","887-TS","2017/11/13 20:29:31","新北市三重區福隆路2號","121.489413333333","25.0774383333333","6500200","三重區"
"241012","941-UM","2017/11/13 20:29:18","新北市三重區龍濱路261號","121.501476666667","25.0729166666667","6500200","三重區"
"241029","942-UM","2017/11/13 20:29:12","新北市三重區集美街225號","121.491991666667","25.0551566666667","6500200","三重區"
"241033","AAC-255","2017/11/13 20:29:15","新北市三重區五谷王北街82號","121.476023333333","25.05274","6500200","三重區"
"235039","097-UM","2017/11/13 20:29:22","新北市中和區大勇街29巷12-1號","121.51592","24.9945883333333","6500300","中和區"
"235068","377-QA","2017/11/13 20:29:19","新北市中和區勝利路35巷1弄1號","121.498998333333","25.0074616666667","6500300","中和區"
"235050","4979-A6","2017/11/13 20:29:25","新北市中和區景新街160巷5弄1號","121.505358333333","24.9969683333333","6500300","中和區"
"235069","4980-A6","2017/11/13 20:29:16","新北市中和區新生街226號","121.483793333333","24.998295","6500300","中和區"
"235059","AAC-215","2017/11/13 20:29:10","新北市中和區員山路32號","121.481108333333","24.9876866666667","6500300","中和區"
"247022","893-R6","2017/11/13 20:29:31","新北市蘆洲區中正路323號","121.466151666667","25.0887683333333","6501400","蘆洲區"
"247012","546-UM","2017/11/13 20:29:13","新北市蘆洲區復興路210號","121.478703333333","25.0890133333333","6501400","蘆洲區"
"247020","500-BY","2017/11/13 20:29:24","新北市蘆洲區民族路424號","121.473863333333","25.0917483333333","6501400","蘆洲區"
"247010","339-TH","2017/11/13 20:29:19","新北市蘆洲區集賢路300號","121.481443333333","25.0851633333333","6501400","蘆洲區"
"247002","337-TH","2017/11/13 20:29:17","新北市蘆洲區環堤大道116號","121.455633333333","25.0870266666667","6501400","蘆洲區"
"247004","335-TH","2017/11/13 20:29:20","新北市蘆洲區永康街49號","121.456893333333","25.085215","6501400","蘆洲區"
"247016","057-VK","2017/11/13 20:29:09","新北市蘆洲區光華路63號","121.4683","25.0827166666667","6501400","蘆洲區"
"247006","056-VK","2017/11/13 20:29:11","新北市蘆洲區和平路121巷8弄41號","121.465796666667","25.0806766666667","6501400","蘆洲區"
"247008","053-VK","2017/11/13 20:29:23","新北市蘆洲區重陽街91號","121.482368333333","25.0853283333333","6501400","蘆洲區"
"247014","007-UY","2017/11/13 20:29:22","新北市蘆洲區中山二路19號","121.474841666667","25.0816766666667","6501400","蘆洲區"
"247024","002-UY","2017/11/13 20:29:30","新北市蘆洲區光復路70巷19號","121.464756666667","25.0853016666667","6501400","蘆洲區"
"247018","001-UY","2017/11/13 20:29:28","新北市蘆洲區民族路327巷46號","121.47456","25.0909133333333","6501400","蘆洲區"
"226004","312-R5","2017/11/13 20:29:29","新北市平溪區石底里公園街18-3號","121.733301666667","25.025675","6502400","平溪區"
"222001","KEA-2212","2017/11/13 20:29:21","新北市深坑區北深路三段345號","121.597161666667","25.0050333333333","6501800","深坑區"
"251001","011-UM","2017/11/13 20:29:26","新北市淡水區新市一路三段16號","121.445141666667","25.1829266666667","6501000","淡水區"
"251008","181-VK","2017/11/13 20:29:23","新北市淡水區淡海路204號","121.420361666667","25.185625","6501000","淡水區"
"251013","182-VK","2017/11/13 20:29:25","新北市淡水區後坑子6號","121.463716666667","25.206615","6501000","淡水區"
"251010","413-VK","2017/11/13 20:29:20","新北市淡水區沙崙路181巷15號","121.423921666667","25.1843283333333","6501000","淡水區"
"251012","441-VK","2017/11/13 20:29:17","新北市淡水區頂田寮路19號","121.454545","25.21655","6501000","淡水區"
"251015","442-VK","2017/11/13 20:29:24","新北市淡水區興仁路162號","121.4516","25.2205966666667","6501000","淡水區"
"251006","561-UM","2017/11/13 20:29:16","新北市淡水區商工路300號","121.4612","25.1859283333333","6501000","淡水區"
"251011","650-BX","2017/11/13 20:27:22","新北市淡水區崁頂128號","121.432053333333","25.2050333333333","6501000","淡水區"
"251002","672-BX","2017/11/13 20:29:29","新北市淡水區中正路19號","121.442698333333","25.1695216666667","6501000","淡水區"
"251003","766-UM","2017/11/13 20:29:18","新北市淡水區新生街94號","121.439695","25.1748066666667","6501000","淡水區"
"207004","225-TW","2017/11/13 20:29:25","新北市萬里區北基里忠五街14號","121.684388333333","25.1761566666667","6502800","萬里區"
"252005","073-UM","2017/11/13 15:16:54","","121.50449","25.2644483333333","6502100","三芝區"
"252002","178-VK","2017/11/13 20:29:31","新北市三芝區淡金路二段47-2號","121.503655","25.2605283333333","6502100","三芝區"
"252001","292-VK","2017/11/13 20:29:25","新北市三芝區中山路一段14號","121.500715","25.2580783333333","6502100","三芝區"
"237005","AKY-6261","2017/11/13 20:29:13","新北市三峽區三樹路98巷91號","121.381981666667","24.9399466666667","6500900","三峽區"
"236069","105-UM","2017/11/13 20:29:28","新北市土城區福安街100-3號","121.417431666667","24.9642133333333","6501300","土城區"
"236014","270-VK","2017/11/13 20:29:19","新北市土城區廣明街63巷31號","121.453701666667","24.9929716666667","6501300","土城區"
"236020","401-BY","2017/11/13 20:29:16","新北市土城區延吉街7巷1號","121.472153333333","24.9891216666667","6501300","土城區"
"242031","AAC-296","2017/11/13 20:29:22","新北市泰山區民生路180號","121.43574","25.0393533333333","6500500","新莊區"
"242029","986-R7","2017/11/13 20:29:28","新北市新莊區中華路二段141號","121.453035","25.0509033333333","6500500","新莊區"
"242050","751-BX","2017/11/13 20:29:20","新北市新莊區民安西路270號","121.426088333333","25.0130233333333","6500500","新莊區"
"242025","615-BX","2017/11/13 20:29:16","新北市新莊區五工三路62巷11號","121.459981666667","25.0648583333333","6500500","新莊區"
"242023","613-BX","2017/11/13 20:29:16","新北市新莊區化成路1002號","121.465093333333","25.064675","6500500","新莊區"
"242027","612-BX","2017/11/13 20:29:13","新北市新莊區思源路315號","121.459903333333","25.0491816666667","6500500","新莊區"
"242039","566-BX","2017/11/13 20:29:15","新北市新莊區成功街39號","121.425306666667","25.021","6500500","新莊區"
"242044","497-BY","2017/11/13 20:29:19","新北市新莊區中正路新建巷10號","121.413936666667","25.02249","6500500","新莊區"
"242004","442-UM","2017/11/13 20:29:15","新北市新莊區化成路746巷39號","121.466891666667","25.0581466666667","6500500","新莊區"
"242048","441-UM","2017/11/13 20:29:23","新北市新莊區成功街145號","121.423363333333","25.016835","6500500","新莊區"
"242053","440-UM","2017/11/13 20:29:23","新北市新莊區民安西路245巷8號","121.426596666667","25.01367","6500500","新莊區"
"242034","415-TV","2017/11/13 20:29:18","新北市新莊區新泰路98號","121.448593333333","25.0359133333333","6500500","新莊區"
"242042","400-BY","2017/11/13 20:29:27","新北市新莊區中正路694巷68號","121.417633333333","25.029285","6500500","新莊區"
"242060","362-BY","2017/11/13 20:29:22","新北市新莊區民全街2號","121.429043333333","25.0210283333333","6500500","新莊區"
"242058","353-BY","2017/11/13 20:29:12","新北市新莊區四維路129-1號","121.422888333333","25.0226783333333","6500500","新莊區"
"242007","132-UY","2017/11/13 20:29:31","新北市新莊區思源路287巷1弄74號","121.45929","25.0473883333333","6500500","新莊區"
"242036","133-UY","2017/11/13 20:29:18","新北市新莊區後港一路76巷3弄2號","121.42735","25.0257216666667","6500500","新莊區"
"242046","172-VK","2017/11/13 20:29:23","新北市新莊區裕民街54巷27號","121.417603333333","25.02459","6500500","新莊區"
"242009","173-VK","2017/11/13 20:29:26","新北市新莊區昌隆街58巷1弄12號","121.455468333333","25.0506083333333","6500500","新莊區"
"242015","175-VK","2017/11/13 20:29:30","新北市新莊區中平路36巷26號","121.445806666667","25.0434733333333","6500500","新莊區"
"242002","176-VK","2017/11/13 20:29:13","新北市新莊區中正路78-1號","121.45853","25.0378066666667","6500500","新莊區"
"242001","233-RS","2017/11/13 14:44:09","新北市新莊區環河路48-7號","121.436956666667","25.0098166666667","6500500","新莊區"
"242013","347-TH","2017/11/13 20:29:27","新北市新莊區中平路292巷1弄2號","121.445415","25.0522133333333","6500500","新莊區"
"242019","348-TH","2017/11/13 20:29:24","新北市新莊區銘德街49巷2弄2號","121.45722","25.0434416666667","6500500","新莊區"
"242056","349-TH","2017/11/13 20:29:31","新北市新莊區新莊路713巷28號","121.443556666667","25.0318216666667","6500500","新莊區"
"242017","350-TH","2017/11/13 20:29:30","新北市新莊區中港三街8號","121.451113333333","25.0465733333333","6500500","新莊區"
"242011","351-TH","2017/11/13 20:29:11","新北市新莊區中義街49號","121.449358333333","25.051105","6500500","新莊區"
"221008","489-VK","2017/11/13 20:29:25","新北市汐止區康寧街397號","121.62956","25.0678666666667","6501100","汐止區"
"221036","130-UY","2017/11/13 20:29:12","新北市汐止區福安街37巷8號","121.663228333333","25.0650316666667","6501100","汐止區"
"221015","131-UY","2017/11/13 20:29:25","新北市汐止區建成路142巷19弄13號","121.661943333333","25.0739","6501100","汐止區"
"221010","269-BY","2017/11/13 20:29:16","新北市汐止區八連路二段337巷3號","121.62966","25.101425","6501100","汐止區"
"221012","278-VK","2017/11/13 20:29:24","新北市汐止區大同路三段279號","121.674171666667","25.0750966666667","6501100","汐止區"
"221023","279-VK","2017/11/13 20:29:16","新北市汐止區湖東街5巷46-1號","121.635321666667","25.0739883333333","6501100","汐止區"
"221032","280-BY","2017/11/13 20:29:25","新北市汐止區弘道街53巷11號","121.618658333333","25.0489466666667","6501100","汐止區"
"221027","281-BY","2017/11/13 20:29:24","新北市汐止區中正路302號","121.656396666667","25.068145","6501100","汐止區"
"221029","298-VK","2017/11/13 20:29:07","新北市汐止區樟樹一路129巷30號","121.64064","25.065165","6501100","汐止區"
"221021","299-VK","2017/11/13 20:29:10","新北市汐止區水源路一段284號","121.65424","25.058295","6501100","汐止區"
"221035","622-UM","2017/11/13 20:29:20","新北市汐止區長江街101-5號","121.658746666667","25.073165","6501100","汐止區"
"221025","623-UM","2017/11/13 20:29:19","新北市汐止區水源路二段88巷1弄9號","121.656623333333","25.0554333333333","6501100","汐止區"
"221038","646-BX","2017/11/13 20:29:28","新北市汐止區忠孝東路324號","121.66479","25.0693033333333","6501100","汐止區"
"221033","647-BX","2017/11/13 20:29:29","新北市汐止區林森街132巷6弄6號","121.624488333333","25.0406133333333","6501100","汐止區"
"221002","707-TV","2017/11/13 20:29:26","新北市汐止區福德一路8號","121.638985","25.06969","6501100","汐止區"
"221018","753-BX","2017/11/13 20:29:22","新北市汐止區茄苳路225巷11弄1號","121.671423333333","25.06926","6501100","汐止區"
"220061","295-UM","2017/11/13 20:29:05","新北市板橋區四川路一段326號","121.457771666667","25.0004516666667","6500100","板橋區"
"220062","303-R5","2017/11/13 20:29:14","新北市林口區太平里180號","121.367303333333","25.1337366666667","6500100","板橋區"
"242021","280-VK","2017/11/13 20:29:26","新北市新莊區公園路10巷1號","121.447841666667","25.0387316666667","6500500","新莊區"
"220103","561-BX","2017/11/13 20:29:12","新北市板橋區漢生東路23巷56弄12號","121.466278333333","25.017955","6500100","板橋區"
"220083","568-UM","2017/11/13 20:29:21","新北市板橋區僑中二街106巷1號","121.445911666667","25.00752","6500100","板橋區"
"220057","686-BX","2017/11/13 20:29:27","新北市八里區中山路三段382號","121.368536666667","25.1361","6500100","板橋區"
"220093","689-BX","2017/11/13 20:29:17","新北市八里區荖阡坑路34-1號","121.401123333333","25.1306166666667","6500100","板橋區"
"220102","830-TW","2017/11/13 20:29:30","新北市板橋區民生路二段163號","121.469731666667","25.01993","6500100","板橋區"
"220089","833-TW","2017/11/13 20:29:27","新北市板橋區陽明街162號","121.463383333333","25.0243716666667","6500100","板橋區"
"220070","AAC-253","2017/11/13 20:29:13","新北市新莊區中環路一段30號","121.442523333333","25.0273066666667","6500100","板橋區"
