"lineid","car","time","location","longitude","latitude","cityid","cityname"
"234064","337-UY","2017/11/13 20:39:10","新北市永和區環河西路二段179號","121.50449","25.0130933333333","6500400","永和區"
"234030","746-BX","2017/11/13 20:39:28","新北市板橋區民生路二段210-1號","121.469236666667","25.0212466666667","6500400","永和區"
"234061","AAD-866","2017/11/13 20:39:13","新北市永和區秀朗路一段175號","121.517066666667","25.0036933333333","6500400","永和區"
"234042","862-TW","2017/11/13 20:39:23","新北市永和區永和路二段55號","121.514695","25.01091","6500400","永和區"
"234050","863-TW","2017/11/13 20:39:10","新北市永和區新生路118巷1弄17號","121.506675","25.0144016666667","6500400","永和區"
"249001","173-UM","2017/11/13 20:39:16","新北市八里區中山路三段372號","121.3687","25.136155","6502300","八里區"
"249004","303-UY","2017/11/13 20:39:25","新北市八里區中山路一段157巷43號","121.412825","25.1579883333333","6502300","八里區"
"249002","305-UY","2017/11/13 20:39:29","新北市八里區龍米路三段52號","121.424566666667","25.159155","6502300","八里區"
"234023","9380-KE","2017/11/13 20:39:22","新北市永和區竹林路25巷21號","121.51819","25.014965","6500400","永和區"
"234074","AAC-211","2017/11/13 20:39:14","新北市永和區竹林路119巷30弄2號","121.52205","25.011565","6500400","永和區"
"244006","080-UY","2017/11/13 16:51:29","新北市林口區粉寮路二段160巷40號","121.405605","25.091195","6501700","林口區"
"243014","421-VK","2017/11/13 20:39:09","新北市泰山區泰林路三段630號","121.40649","25.0726666666667","6501600","泰山區"
"243010","KEA-2215","2017/11/13 20:39:30","新北市泰山區泰林路二段607巷1-7號","121.420923333333","25.0640583333333","6501600","泰山區"
"243011","KEA-2216","2017/11/13 20:39:30","新北市泰山區明志路二段202-1號","121.427418333333","25.0493033333333","6501600","泰山區"
"243016","680-BX","2017/11/13 20:39:22","新北市泰山區文程路6號","121.427981666667","25.0493833333333","6501600","泰山區"
"222003","436-BY","2017/11/13 20:39:30","新北市深坑區阿柔洋8-1號","121.612793333333","24.9997866666667","6501800","深坑區"
"222002","659-BX","2017/11/13 20:39:11","新北市深坑區萬福路43號","121.59939","25.0068766666667","6501800","深坑區"
"231041","002-UM","2017/11/13 20:39:12","新北市新店區中正路543-4號","121.53373","24.987535","6500600","新店區"
"231059","046-UY","2017/11/13 20:39:22","新北市新店區僑愛三路8號","121.499536666667","24.9446683333333","6500600","新店區"
"231061","047-UY","2017/11/13 20:39:28","新北市新店區新和街46號","121.519436666667","24.9849466666667","6500600","新店區"
"231060","106-UY","2017/11/13 20:39:21","新北市新店區安康路三段628號","121.478171666667","24.9456366666667","6500600","新店區"
"231047","108-UY","2017/11/13 20:39:13","新北市新店區寶慶街2-1號","121.543705","24.9868316666667","6500600","新店區"
"231052","187-VK","2017/11/13 20:39:12","新北市新店區廣興路5巷3號","121.545616666667","24.9117116666667","6500600","新店區"
"231050","KEA-2219","2017/11/13 20:39:25","新北市新店區建興街9巷1號","121.539861666667","24.9763066666667","6500600","新店區"
"231057","256-BX","2017/11/13 20:39:31","新北市新店區花園六路二段12號","121.554803333333","24.9334166666667","6500600","新店區"
"231063","268-BY","2017/11/13 20:39:11","新北市新店區玫瑰路4-1號","121.493615","24.95136","6500600","新店區"
"231054","AAD-862","2017/11/13 20:39:15","新北市新店區行政街45號","121.543041666667","24.9655533333333","6500600","新店區"
"231058","3712-VJ","2017/11/13 20:39:19","新北市新店區中正路309號","121.536615","24.9747633333333","6500600","新店區"
"231056","3713-VJ","2017/11/13 20:39:18","新北市新店區中央路2號","121.533828333333","24.978835","6500600","新店區"
"231065","512-UM","2017/11/13 20:39:26","新北市新店區安祥路102巷113號","121.486503333333","24.96419","6500600","新店區"
"231064","515-UM","2017/11/13 20:39:23","新北市新店區安和路三段110巷9號","121.517486666667","24.9857433333333","6500600","新店區"
"231040","619-UM","2017/11/13 20:39:23","新北市新店區中正路263號","121.538656666667","24.9736216666667","6500600","新店區"
"231042","641-BX","2017/11/13 20:39:27","新北市新店區寶高路120巷1號","121.554641666667","24.9760333333333","6500600","新店區"
"231068","718-UY","2017/11/13 20:39:14","新北市新店區寶慶街35巷1弄2號","121.54318","24.9863133333333","6500600","新店區"
"231049","719-UM","2017/11/13 20:39:16","新北市新店區永業路81巷9弄9號","121.531123333333","24.950715","6500600","新店區"
"231051","719-UY","2017/11/13 20:39:32","新北市新店區中央六街57號","121.52792","24.9759266666667","6500600","新店區"
"231062","720-UM","2017/11/13 20:39:15","新北市新店區安康路三段206號","121.488705","24.951765","6500600","新店區"
"231044","897-TW","2017/11/13 20:39:21","新北市新店區建國路251號","121.53741","24.982675","6500600","新店區"
"231045","898-TW","2017/11/13 20:39:12","新北市新店區長春路169號","121.558258333333","24.9618133333333","6500600","新店區"
"231043","899-TW","2017/11/13 20:39:23","新北市新店區博愛街13巷29號","121.540421666667","24.9743933333333","6500600","新店區"
"231066","AKT-0513","2017/11/13 20:39:12","新北市新店區安興路105-1號","121.514693333333","24.9778366666667","6500600","新店區"
"241011","013-R5","2017/11/13 20:39:22","新北市三重區龍濱路285號","121.501075","25.0733666666667","6500200","三重區"
"241028","022-UY","2017/11/13 20:39:21","新北市三重區光興街89號","121.497445","25.05989","6500200","三重區"
"241008","059-VK","2017/11/13 20:39:28","新北市三重區下竹圍街42號","121.481011666667","25.07491","6500200","三重區"
"241009","060-VK","2017/11/13 20:39:12","新北市三重區三和路四段233號","121.481188333333","25.0800716666667","6500200","三重區"
"241031","061-VK","2017/11/13 20:39:30","新北市三重區重陽路一段113巷1弄46號","121.48825","25.0587166666667","6500200","三重區"
"241015","062-VK","2017/11/13 20:39:20","新北市三重區文化北路105號","121.497818333333","25.0684516666667","6500200","三重區"
"241017","063-VK","2017/11/13 20:39:26","新北市三重區大同北路269號","121.490878333333","25.0673016666667","6500200","三重區"
"241026","066-VK","2017/11/13 20:39:17","新北市三重區文化南路8號","121.500096666667","25.0624433333333","6500200","三重區"
"241002","090-VK","2017/11/13 20:39:22","新北市三重區仁義街167巷40號","121.4988","25.0826383333333","6500200","三重區"
"241003","091-VK","2017/11/13 20:39:25","新北市三重區進安街196號","121.493776666667","25.0861966666667","6500200","三重區"
"241005","262-UM","2017/11/13 20:39:18","新北市三重區集賢路87-1號","121.493886666667","25.087015","6500200","三重區"
"241024","265-UM","2017/11/13 20:39:28","新北市三重區中正北路165巷2號","121.478545","25.0696566666667","6500200","三重區"
"241016","266-UM","2017/11/13 20:39:22","新北市三重區長壽西街143-3號","121.494368333333","25.0666983333333","6500200","三重區"
"241022","267-UM","2017/11/13 20:39:25","新北市三重區新北大道一段46巷18弄10號","121.488456666667","25.061975","6500200","三重區"
"241018","268-UM","2017/11/13 20:39:22","新北市三重區重陽路四段1號","121.491103333333","25.0686416666667","6500200","三重區"
"241032","269-UM","2017/11/13 20:39:18","新北市三重區重陽路一段120巷35號","121.485106666667","25.0601733333333","6500200","三重區"
"241013","270-UM","2017/11/13 20:39:17","新北市三重區仁愛街118號","121.49523","25.0744883333333","6500200","三重區"
"241025","271-UM","2017/11/13 20:39:18","新北市三重區金華街85號","121.477311666667","25.0650583333333","6500200","三重區"
"241004","475-VK","2017/11/13 20:39:25","新北市三重區仁愛街416號","121.49052","25.0813366666667","6500200","三重區"
"241019","478-VK","2017/11/13 20:39:22","新北市三重區重陽路四段126巷6號","121.492175","25.0710333333333","6500200","三重區"
"241030","480-VK","2017/11/13 20:39:32","新北市三重區成功路73巷12號","121.489415","25.0518766666667","6500200","三重區"
"241014","543-UM","2017/11/13 20:39:18","新北市三重區三和路二段119號","121.498893333333","25.06898","6500200","三重區"
"241023","545-UM","2017/11/13 20:39:26","新北市三重區自由街30號","121.479313333333","25.0667083333333","6500200","三重區"
"241001","547-UM","2017/11/13 20:39:22","新北市三重區自強路三段110巷2號","121.486831666667","25.0746966666667","6500200","三重區"
"241035","743-BX","2017/11/13 20:39:25","新北市三重區正義北路275-1號","121.495191666667","25.070115","6500200","三重區"
"241007","887-TS","2017/11/13 20:39:10","新北市三重區自強路四段32-2號","121.488995","25.0769783333333","6500200","三重區"
"241012","941-UM","2017/11/13 20:39:18","新北市三重區秀江街2號","121.502743333333","25.07307","6500200","三重區"
"241029","942-UM","2017/11/13 20:39:32","新北市三重區集美街126巷26號","121.490001666667","25.0538566666667","6500200","三重區"
"241033","AAC-255","2017/11/13 20:39:15","新北市三重區光復路二段87巷31弄6號","121.47415","25.0577016666667","6500200","三重區"
"235069","4980-A6","2017/11/13 20:39:16","新北市中和區員山路359巷1弄8號","121.481006666667","25.0016133333333","6500300","中和區"
"247022","893-R6","2017/11/13 20:39:31","新北市蘆洲區中正路243巷7弄5號","121.467353333333","25.0862066666667","6501400","蘆洲區"
"247012","546-UM","2017/11/13 20:39:13","新北市蘆洲區中興街130號","121.482188333333","25.089315","6501400","蘆洲區"
"247020","500-BY","2017/11/13 20:39:24","新北市蘆洲區民族路424號","121.473865","25.0917633333333","6501400","蘆洲區"
"247010","339-TH","2017/11/13 20:39:19","新北市蘆洲區集賢路406號","121.480108333333","25.0818616666667","6501400","蘆洲區"
"247002","337-TH","2017/11/13 20:39:17","新北市蘆洲區長安街375巷13號","121.456491666667","25.087805","6501400","蘆洲區"
"247004","335-TH","2017/11/13 20:39:20","新北市蘆洲區長安街222號","121.45817","25.0850283333333","6501400","蘆洲區"
"247016","057-VK","2017/11/13 20:39:09","新北市蘆洲區和平路62號","121.470106666667","25.07912","6501400","蘆洲區"
"247006","056-VK","2017/11/13 20:39:31","新北市蘆洲區和平路141-1號","121.467108333333","25.08037","6501400","蘆洲區"
"247008","053-VK","2017/11/13 20:39:23","新北市蘆洲區重陽街32號","121.48097","25.0822516666667","6501400","蘆洲區"
"247014","007-UY","2017/11/13 20:39:25","新北市蘆洲區復興路30-7號","121.472826666667","25.0844666666667","6501400","蘆洲區"
"247024","002-UY","2017/11/13 20:39:10","新北市蘆洲區長樂路56-2號","121.463078333333","25.08623","6501400","蘆洲區"
"222001","KEA-2212","2017/11/13 20:39:21","新北市深坑區北深路三段213號","121.600355","25.00391","6501800","深坑區"
"251001","011-UM","2017/11/13 20:39:29","新北市淡水區淡金路65號","121.45606","25.1614933333333","6501000","淡水區"
"251013","182-VK","2017/11/13 20:39:20","新北市淡水區下圭柔山28巷19號","121.458045","25.204145","6501000","淡水區"
"251010","413-VK","2017/11/13 20:39:20","新北市淡水區沙崙路181巷15號","121.42388","25.184375","6501000","淡水區"
"251012","441-VK","2017/11/13 20:39:17","新北市淡水區興仁路108號","121.451691666667","25.2181366666667","6501000","淡水區"
"251015","442-VK","2017/11/13 20:39:24","新北市淡水區興仁路162號","121.451585","25.2206016666667","6501000","淡水區"
"251006","561-UM","2017/11/13 20:39:16","新北市淡水區商工路188號","121.450236666667","25.18836","6501000","淡水區"
"251011","650-BX","2017/11/13 20:39:22","新北市淡水區新市一路一段359號","121.43616","25.1862316666667","6501000","淡水區"
"251002","672-BX","2017/11/13 20:39:29","新北市淡水區中正路38-1號","121.443708333333","25.169275","6501000","淡水區"
"251003","766-UM","2017/11/13 20:39:18","新北市淡水區新民街120巷15號","121.438151666667","25.1780866666667","6501000","淡水區"
"252005","073-UM","2017/11/13 15:16:54","","121.50449","25.2644483333333","6502100","三芝區"
"252002","178-VK","2017/11/13 20:39:31","新北市三芝區淡金路二段89-1號","121.504028333333","25.2609","6502100","三芝區"
"252001","292-VK","2017/11/13 20:39:25","新北市三芝區長安街49號","121.5013","25.2564783333333","6502100","三芝區"
"242031","AAC-296","2017/11/13 20:39:25","新北市新莊區三泰路17號","121.43789","25.0351883333333","6500500","新莊區"
"242029","986-R7","2017/11/13 20:39:28","新北市新莊區中華路二段115號","121.452791666667","25.0501083333333","6500500","新莊區"
"242050","751-BX","2017/11/13 20:39:20","新北市新莊區西盛街256號","121.42798","25.0158783333333","6500500","新莊區"
"242025","615-BX","2017/11/13 20:39:16","新北市新莊區化成路579巷1號","121.464403333333","25.0661616666667","6500500","新莊區"
"242023","613-BX","2017/11/13 20:39:16","新北市新莊區化成路482號","121.466093333333","25.0516783333333","6500500","新莊區"
"242027","612-BX","2017/11/13 20:39:13","新北市新莊區思源路63號","121.459885","25.0404016666667","6500500","新莊區"
"242039","566-BX","2017/11/13 20:39:30","新北市新莊區民安路281-1號","121.428688333333","25.022175","6500500","新莊區"
"242044","497-BY","2017/11/13 20:39:19","新北市新莊區龍安路90號","121.417643333333","25.0207416666667","6500500","新莊區"
"242004","442-UM","2017/11/13 20:39:30","新北市新莊區化成路363巷55號","121.463346666667","25.0569366666667","6500500","新莊區"
"242048","441-UM","2017/11/13 20:39:23","新北市新莊區中正路863-3號","121.418653333333","25.0276966666667","6500500","新莊區"
"242053","440-UM","2017/11/13 20:39:23","新北市新莊區西盛街324巷10號","121.427611666667","25.014755","6500500","新莊區"
"242034","415-TV","2017/11/13 20:39:12","新北市新莊區中正路393號","121.445615","25.0345533333333","6500500","新莊區"
"242042","400-BY","2017/11/13 20:39:12","新北市新莊區天祥街47巷22號","121.416105","25.0278616666667","6500500","新莊區"
"242060","362-BY","2017/11/13 20:39:22","新北市新莊區新樹路262號","121.432678333333","25.0147983333333","6500500","新莊區"
"242058","353-BY","2017/11/13 20:39:12","新北市新莊區民安路138號","121.424165","25.0253316666667","6500500","新莊區"
"242007","132-UY","2017/11/13 20:39:19","新北市新莊區思源路287巷1弄1號","121.459421666667","25.048235","6500500","新莊區"
"242036","133-UY","2017/11/13 20:39:18","新北市新莊區後港一路94巷1弄2號","121.427855","25.026455","6500500","新莊區"
"242046","172-VK","2017/11/13 20:39:23","新北市新莊區裕民街57號","121.41875","25.0245333333333","6500500","新莊區"
"242009","173-VK","2017/11/13 20:39:26","新北市新莊區福壽街99巷8弄15號","121.456635","25.0506733333333","6500500","新莊區"
"242015","175-VK","2017/11/13 20:39:30","新北市新莊區中港一街155號","121.447545","25.04502","6500500","新莊區"
"242002","176-VK","2017/11/13 20:39:21","新北市新莊區中港路17號","121.455028333333","25.0372333333333","6500500","新莊區"
"242001","233-RS","2017/11/13 14:44:09","新北市新莊區環河路48-7號","121.436956666667","25.0098166666667","6500500","新莊區"
"242013","347-TH","2017/11/13 20:39:27","新北市新莊區中和街175巷11號","121.447161666667","25.0505133333333","6500500","新莊區"
"242019","348-TH","2017/11/13 20:39:24","新北市新莊區銘德街138號","121.45469","25.0429","6500500","新莊區"
"242056","349-TH","2017/11/13 20:39:11","新北市新莊區瓊泰路105號","121.443248333333","25.030015","6500500","新莊區"
"242011","351-TH","2017/11/13 20:39:30","新北市新莊區中榮街122巷2號","121.446616666667","25.0531433333333","6500500","新莊區"
"221008","489-VK","2017/11/13 20:39:25","新北市汐止區康寧街706-1號","121.638325","25.072945","6501100","汐止區"
"221036","130-UY","2017/11/13 20:39:12","新北市汐止區新台五路二段78-1號","121.662061666667","25.06581","6501100","汐止區"
"221015","131-UY","2017/11/13 20:39:32","新北市汐止區建成路48號","121.66384","25.0728066666667","6501100","汐止區"
"221012","278-VK","2017/11/13 20:39:24","新北市汐止區大同路三段241號","121.672688333333","25.0766466666667","6501100","汐止區"
"221023","279-VK","2017/11/13 20:39:16","新北市汐止區湖東街31號","121.634666666667","25.0725816666667","6501100","汐止區"
"221032","280-BY","2017/11/13 20:39:25","新北市汐止區弘道街53巷30弄1號","121.61894","25.050085","6501100","汐止區"
"221027","281-BY","2017/11/13 20:39:25","新北市汐止區中正路153號","121.659511666667","25.0691683333333","6501100","汐止區"
"221029","298-VK","2017/11/13 20:38:46","新北市汐止區大同路一段425號","121.642725","25.0612783333333","6501100","汐止區"
"221021","299-VK","2017/11/13 20:39:30","新北市汐止區水源路一段284號","121.654223333333","25.0582433333333","6501100","汐止區"
"221035","622-UM","2017/11/13 20:39:20","新北市汐止區長江街101-5號","121.658728333333","25.073135","6501100","汐止區"
"221025","623-UM","2017/11/13 20:39:19","新北市汐止區水源路二段271-1號","121.659131666667","25.0498616666667","6501100","汐止區"
"221038","646-BX","2017/11/13 20:39:28","新北市汐止區大同路二段184巷7號","121.653868333333","25.0641733333333","6501100","汐止區"
"221033","647-BX","2017/11/13 20:39:29","新北市汐止區合順街18巷8弄5號","121.620293333333","25.0418816666667","6501100","汐止區"
"221002","707-TV","2017/11/13 20:39:26","新北市汐止區福德二路132巷2號","121.631218333333","25.065295","6501100","汐止區"
"221018","753-BX","2017/11/13 20:39:22","新北市汐止區茄苳路59號","121.666613333333","25.070745","6501100","汐止區"
"220062","303-R5","2017/11/13 20:39:14","新北市五股區中直路11-15號","121.426416666667","25.1097166666667","6500100","板橋區"
"242021","280-VK","2017/11/13 20:39:26","新北市新莊區公園路118號","121.451471666667","25.0400316666667","6500500","新莊區"
"220103","561-BX","2017/11/13 20:39:32","新北市板橋區漢生東路83巷28號","121.467446666667","25.0167933333333","6500100","板橋區"
"220083","568-UM","2017/11/13 20:39:21","新北市板橋區僑中二街116巷11號","121.445106666667","25.0064716666667","6500100","板橋區"
"220057","686-BX","2017/11/13 20:39:27","新北市林口區汕頭32號","121.366488333333","25.134885","6500100","板橋區"
"220093","689-BX","2017/11/13 20:39:17","新北市林口區汕頭32號","121.366576666667","25.1349483333333","6500100","板橋區"
"220089","833-TW","2017/11/13 20:39:27","新北市板橋區四維路322號","121.4623","25.030095","6500100","板橋區"
"220070","AAC-253","2017/11/13 20:39:13","新北市五股區凌雲路三段24巷7號","121.437466666667","25.1065416666667","6500100","板橋區"
