"lineid","car","time","location","longitude","latitude","cityid","cityname"
"248005","653-BX","2017/11/14 07:14:33","新北市五股區明德路12巷3號","121.433333333333","25.0717766666667","6501500","五股區"
"232002","290-BY","2017/11/14 07:19:16","新北市坪林區大粗坑27-5號","121.707791666667","24.96276","6502000","坪林區"
"232013","291-BY","2017/11/14 07:19:23","新北市坪林區北宜路七段172號","121.68454","24.936265","6502000","坪林區"
"232006","758-BX","2017/11/14 07:19:10","新北市坪林區坪雙路一段35號","121.711698333333","24.9427566666667","6502000","坪林區"
"244002","657-BX","2017/11/14 07:19:24","新北市林口區頂福里71-22號","121.353838333333","25.0797616666667","6501700","林口區"
"222004","289-BY","2017/11/14 07:19:24","新北市深坑區平埔街22巷19號","121.614693333333","25.0010683333333","6501800","深坑區"
"226005","5620-A6","2017/11/14 07:19:32","新北市平溪區靜安路二段274巷6號","121.727598333333","25.0221316666667","6502400","平溪區"
"226002","7418-A5","2017/11/14 07:18:09","新北市平溪區南山里南山坪7號","121.7637","25.031905","6502400","平溪區"
"226003","AGD-0702","2017/11/14 07:19:12","新北市平溪區靜安路二段271號","121.726936666667","25.02192","6502400","平溪區"
"223006","022-BY","2017/11/14 07:19:21","新北市坪林區坪碇路322號","121.684506666667","24.9515116666667","6501900","石碇區"
"223002","198-BX","2017/11/14 07:19:23","新北市石碇區北宜路六段塗潭巷2號","121.644425","24.9370516666667","6501900","石碇區"
"223001","205-TH","2017/11/14 07:13:20","新北市石碇區蓬菜寮16號","121.649526666667","24.9728833333333","6501900","石碇區"
"223008","406-TH","2017/11/14 07:19:09","新北市石碇區南勢坑2-6號","121.701478333333","24.99344","6501900","石碇區"
"223001","592-UM","2017/11/14 07:19:26","新北市石碇區中楒子腳3-3號","121.640538333333","24.9716733333333","6501900","石碇區"
"223004","660-BX","2017/11/14 07:19:22","新北市石碇區新興坑28-2號","121.651705","25.01475","6501900","石碇區"
"223007","661-BX","2017/11/14 07:19:21","新北市石碇區蚯蚓坑19-8號","121.6869","24.9998983333333","6501900","石碇區"
"223005","677-TV","2017/11/14 07:19:21","新北市石碇區新興坑28-2號","121.651375","25.0146683333333","6501900","石碇區"
"227006","282-VK","2017/11/14 07:19:13","新北市雙溪區新基里自強路5-1號","121.866335","25.0391133333333","6502500","雙溪區"
"252004","249-BX","2017/11/14 07:19:29","新北市三芝區福德里大湖8-2號","121.503818333333","25.22553","6502100","三芝區"
"252007","AAC-283","2017/11/14 07:19:25","新北市三芝區錫板里海尾13-2號","121.479061666667","25.2578583333333","6502100","三芝區"
"237001","159-UY","2017/11/14 07:19:19","新北市三峽區隆恩街551號","121.356996666667","24.940155","6500900","三峽區"
"236008","165-UM","2017/11/14 07:19:16","新北市土城區學成路4號","121.453458333333","24.986395","6501300","土城區"
"236002","339-SR","2017/11/14 07:19:15","新北市土城區南天母路139-1號","121.447806666667","24.9535683333333","6501300","土城區"
"220028","461-BY","2017/11/14 07:19:24","新北市板橋區國光路31巷16號","121.457931666667","25.01809","6500100","板橋區"
