"lineid","car","time","location","longitude","latitude","cityid","cityname"
"248005","653-BX","2017/11/11 08:13:38","新北市五股區明德路12巷8號","121.433371666667","25.07194","6501500","五股區"
"244005","657-BX","2017/11/11 08:29:17","新北市林口區嘉寶里97號","121.32649","25.1213433333333","6501700","林口區"
"222004","289-BY","2017/11/11 08:29:15","新北市深坑區王軍寮1-10號","121.617725","24.9889566666667","6501800","深坑區"
"231008","192-VK","2017/11/11 08:29:11","新北市新店區新烏路三段99巷8號","121.552893333333","24.9024383333333","6500600","新店區"
"231007","719-UM","2017/11/11 08:29:24","新北市新店區環湖路5-1號","121.528521666667","24.9261833333333","6500600","新店區"
"247024","335-TH","2017/11/11 08:29:25","新北市五股區中興路三段5號","121.449655","25.0790733333333","6501400","蘆洲區"
"226002","5620-A6","2017/11/11 08:29:25","新北市平溪區十分里十分街154號","121.777818333333","25.04336","6502400","平溪區"
"226002","7418-A5","2017/11/11 08:29:04","新北市平溪區東勢里芊蓁林52號","121.75557","25.0094683333333","6502400","平溪區"
"226003","AGD-0702","2017/11/11 08:29:26","新北市平溪區十分里十分街53號","121.77518","25.0414133333333","6502400","平溪區"
"223006","022-BY","2017/11/11 08:29:26","新北市深坑區昇高坑路51-1號","121.630296666667","24.9941233333333","6501900","石碇區"
"223001","205-TH","2017/11/11 08:29:33","新北市石碇區北宜路六段水底寮巷18號","121.662505","24.9412883333333","6501900","石碇區"
"223008","406-TH","2017/11/11 08:29:22","新北市石碇區碇南路二段松柏崎巷7號","121.674141666667","25.0191383333333","6501900","石碇區"
"223004","437-BY","2017/11/11 08:29:20","新北市石碇區碇坪路一段109號","121.663765","24.98829","6501900","石碇區"
"223001","592-UM","2017/11/11 08:29:14","新北市石碇區北宜路六段水底寮巷9號","121.664895","24.9478083333333","6501900","石碇區"
"223007","661-BX","2017/11/11 08:29:20","新北市石碇區碇南路二段松柏崎巷7號","121.674111666667","25.01908","6501900","石碇區"
"223005","677-TV","2017/11/11 08:29:18","新北市石碇區碇坪路一段107號","121.663603333333","24.9889066666667","6501900","石碇區"
"227006","282-VK","2017/11/11 08:29:25","新北市雙溪區上林里大瀨1號","121.830425","25.0263683333333","6502500","雙溪區"
"253003","6232-TK","2017/11/11 08:29:19","新北市石門區內石門50-2號","121.572623333333","25.2623633333333","6502200","石門區"
"253001","6251-TK","2017/11/11 08:28:51","新北市石門區白沙灣別墅31號","121.510908333333","25.2774583333333","6502200","石門區"
"253002","637-UY","2017/11/11 08:29:17","新北市石門區九芎林1號","121.556153333333","25.2756816666667","6502200","石門區"
"253004","8270-PC","2017/11/11 08:29:23","新北市石門區竹子湖1號","121.613501666667","25.2665533333333","6502200","石門區"
"252004","249-BX","2017/11/11 08:29:16","新北市三芝區興華里田心子1號","121.502018333333","25.204505","6502100","三芝區"
"252007","AAC-283","2017/11/11 08:29:32","新北市三芝區後厝里土地公坑62-5號","121.463736666667","25.244575","6502100","三芝區"
"237001","159-UY","2017/11/11 08:29:11","新北市三峽區大觀路12-4號","121.37564","24.9440533333333","6500900","三峽區"
"236011","165-UM","2017/11/11 08:29:13","新北市土城區金城路二段46巷16-1號","121.454148333333","24.97399","6501300","土城區"
"236002","339-SR","2017/11/11 08:29:14","新北市土城區大暖路88號","121.422218333333","24.95849","6501300","土城區"
"236005","498-BY","2017/11/11 08:29:15","新北市土城區中央路四段27巷10弄15號","121.42533","24.9622033333333","6501300","土城區"
"242001","233-RS","2017/11/11 08:25:59","新北市新莊區環河路48-7號","121.436921666667","25.0097983333333","6500500","新莊區"
"220028","461-BY","2017/11/11 08:29:22","新北市八里區中山路三段382號","121.368666666667","25.13589","6500100","板橋區"
