"lineid","car","time","location","longitude","latitude","cityid","cityname"
"244020","838-TS","2017/11/11 10:49:19","新北市林口區文化一路一段15巷8-1號","121.368838333333","25.0693116666667","6501700","林口區"
"231008","192-VK","2017/11/11 10:49:31","新北市新店區新烏路二段300號","121.548438333333","24.9129","6500600","新店區"
"231007","719-UM","2017/11/11 10:49:23","新北市新店區新潭路三段87號","121.504306666667","24.9099366666667","6500600","新店區"
"247024","335-TH","2017/11/11 10:49:29","新北市蘆洲區永安南路二段132-1號","121.462695","25.0784683333333","6501400","蘆洲區"
"227006","282-VK","2017/11/11 10:49:25","新北市雙溪區共和里中山路9號","121.864988333333","25.0328966666667","6502500","雙溪區"
"252007","AAC-283","2017/11/11 10:48:45","新北市三芝區埔坪里埔頭坑41號","121.504466666667","25.2644133333333","6502100","三芝區"
"242001","233-RS","2017/11/11 08:25:59","新北市新莊區環河路48-7號","121.436921666667","25.0097983333333","6500500","新莊區"
"220028","461-BY","2017/11/11 09:04:45","新北市板橋區華東街1-9號","121.448068333333","24.9948416666667","6500100","板橋區"
