"lineid","car","time","location","longitude","latitude","cityid","cityname"
"234044","148-BY","2017/11/11 12:49:15","新北市永和區秀朗路二段148巷12弄16號","121.524805","25.0011033333333","6500400","永和區"
"234012","149-BY","2017/11/11 12:49:21","新北市永和區仁愛路202巷26號","121.508881666667","25.0129766666667","6500400","永和區"
"234005","207-UY","2017/11/11 12:49:30","新北市永和區文化路46號","121.514745","25.0150983333333","6500400","永和區"
"234078","298-R6","2017/11/11 12:49:29","新北市永和區永利路83-1號","121.521278333333","25.0034783333333","6500400","永和區"
"234036","336-UY","2017/11/11 12:49:20","新北市永和區成功路一段24號","121.527045","25.00487","6500400","永和區"
"234062","337-UY","2017/11/11 12:49:18","新北市永和區福和路1號","121.526295","25.009615","6500400","永和區"
"234084","338-UY","2017/11/11 12:49:21","新北市永和區中正路76號","121.513635","24.9951816666667","6500400","永和區"
"234068","552-UM","2017/11/11 12:49:19","新北市永和區竹林路96巷9號","121.519141666667","25.012065","6500400","永和區"
"234052","553-UM","2017/11/11 12:49:15","新北市永和區豫溪街217巷1號","121.525301666667","25.00967","6500400","永和區"
"234015","745-BX","2017/11/11 12:49:30","新北市永和區永和路二段303號","121.515793333333","25.01661","6500400","永和區"
"234028","746-BX","2017/11/11 12:49:27","新北市永和區得和路321號","121.523453333333","24.9995883333333","6500400","永和區"
"234060","AAD-866","2017/11/11 12:49:18","新北市永和區福和路303號","121.516373333333","25.0073016666667","6500400","永和區"
"234040","862-TW","2017/11/11 12:49:26","新北市永和區永貞路306號","121.511881666667","25.0048666666667","6500400","永和區"
"234048","863-TW","2017/11/11 12:49:15","新北市永和區保安路2號","121.510895","25.0174466666667","6500400","永和區"
"234025","9381-KE","2017/11/11 12:49:28","新北市永和區中正路657號","121.514875","25.0102483333333","6500400","永和區"
"234010","9373-KE","2017/11/11 12:49:20","新北市永和區保福路二段158巷1號","121.50914","25.0150283333333","6500400","永和區"
"248017","225-UY","2017/11/11 12:49:26","新北市五股區中興路二段83巷26-6號","121.460023333333","25.075215","6501500","五股區"
"234022","9380-KE","2017/11/11 12:49:15","新北市永和區竹林路119巷45號","121.521846666667","25.0118483333333","6500400","永和區"
"234076","969-R7","2017/11/11 12:49:33","新北市永和區中正路22號","121.512668333333","24.9939666666667","6500400","永和區"
"234072","AAC-211","2017/11/11 12:49:20","新北市永和區福和路1號","121.526038333333","25.00964","6500400","永和區"
"234066","AAC-212","2017/11/11 12:49:27","新北市永和區中和路625號","121.512943333333","25.00495","6500400","永和區"
"234001","AAC-295","2017/11/11 12:49:25","新北市永和區中正路643號","121.515265","25.0101333333333","6500400","永和區"
"244020","838-TS","2017/11/11 11:28:19","新北市林口區粉寮69號","121.404856666667","25.0908483333333","6501700","林口區"
"231028","046-UY","2017/11/11 12:49:21","新北市新店區安華路28-1號","121.519606666667","24.9608316666667","6500600","新店區"
"231030","047-UY","2017/11/11 12:49:23","新北市新店區安華路28-1號","121.51926","24.9608366666667","6500600","新店區"
"231012","108-UY","2017/11/11 12:49:26","新北市新店區安華路28-1號","121.519333333333","24.9608466666667","6500600","新店區"
"231017","KEA-2219","2017/11/11 12:49:19","新北市新店區安華路28-1號","121.520146666667","24.9611033333333","6500600","新店區"
"231026","256-BX","2017/11/11 12:49:27","新北市新店區安華路28-1號","121.51973","24.961085","6500600","新店區"
"231010","278-BY","2017/11/11 00:40:58","新北市新店區安華路28-1號","121.519696666667","24.9611266666667","6500600","新店區"
"231023","AAD-862","2017/11/11 12:49:26","新北市新店區安華路28-1號","121.519836666667","24.96126","6500600","新店區"
"231027","3712-VJ","2017/11/11 12:49:12","新北市新店區安華路3號","121.518923333333","24.960355","6500600","新店區"
"231025","3713-VJ","2017/11/11 12:49:21","新北市新店區安華路28-1號","121.519345","24.9607","6500600","新店區"
"231024","4716-K9","2017/11/11 12:49:17","新北市新店區安華路28-1號","121.519253333333","24.9611283333333","6500600","新店區"
"231038","4715-K9","2017/11/11 12:49:23","新北市新店區安華路1-1號","121.519286666667","24.9605116666667","6500600","新店區"
"231036","512-UM","2017/11/11 12:49:20","新北市新店區安華路28-1號","121.519551666667","24.9612916666667","6500600","新店區"
"231001","619-UM","2017/11/11 12:49:31","新北市新店區安華路28-1號","121.5194","24.9607983333333","6500600","新店區"
"231003","641-BX","2017/11/11 12:49:26","新北市新店區安華路1-1號","121.519526666667","24.960475","6500600","新店區"
"231013","719-UM","2017/11/11 12:49:11","新北市新店區安華路28-1號","121.519375","24.9611","6500600","新店區"
"231033","720-UM","2017/11/11 12:49:17","新北市新店區安華路28-1號","121.51918","24.96113","6500600","新店區"
"231004","899-TW","2017/11/11 03:43:32","新北市新店區安華路28-1號","121.519296666667","24.9608516666667","6500600","新店區"
"235029","098-UM","2017/11/11 12:49:20","新北市中和區員山路36巷16-3號","121.485196666667","24.99117","6500300","中和區"
"235002","185-VK","2017/11/11 12:49:33","新北市中和區錦和路350-1號","121.490168333333","24.9935883333333","6500300","中和區"
"235031","255-BX","2017/11/11 12:49:20","新北市中和區中正路1155號","121.481875","25.0082483333333","6500300","中和區"
"235025","378-QA","2017/11/11 12:19:53","新北市中和區員山路36巷16-2號","121.485376666667","24.9914816666667","6500300","中和區"
"247024","335-TH","2017/11/11 11:26:04","新北市五股區中興路三段163號","121.449128333333","25.0808816666667","6501400","蘆洲區"
"228005","097-TW","2017/11/11 12:49:28","新北市貢寮區福連里福連街1號","121.988251666667","25.01801","6502600","貢寮區"
"228004","212-TW","2017/11/11 12:49:31","新北市貢寮區吉林里內寮街20-1號","121.889851666667","24.9947866666667","6502600","貢寮區"
"208004","AAC-292","2017/11/11 12:49:19","新北市金山區磺清路135號","121.639303333333","25.2277816666667","6502700","金山區"
"207002","749-BX","2017/11/11 12:49:28","新北市萬里區雙興里二坪路32號","121.644708333333","25.1686833333333","6502800","萬里區"
"207001","662-BX","2017/11/11 12:49:27","新北市萬里區萬里里瑪鋉路261-1號","121.689823333333","25.1794933333333","6502800","萬里區"
"252007","AAC-283","2017/11/11 10:48:45","新北市三芝區埔坪里埔頭坑41號","121.504466666667","25.2644133333333","6502100","三芝區"
"242001","233-RS","2017/11/11 08:25:59","新北市新莊區環河路48-7號","121.436921666667","25.0097983333333","6500500","新莊區"
"221012","276-VK","2017/11/11 12:49:28","新北市汐止區中正路150號","121.659838333333","25.069325","6501100","汐止區"
"221032","280-BY","2017/11/11 12:49:12","新北市汐止區大同路二段492號","121.66063","25.06814","6501100","汐止區"
"221018","753-BX","2017/11/11 12:49:20","新北市汐止區康寧街753巷1-1號","121.63882","25.0737516666667","6501100","汐止區"
"220028","461-BY","2017/11/11 09:04:45","新北市板橋區華東街1-9號","121.448068333333","24.9948416666667","6500100","板橋區"
