"lineid","car","time","location","longitude","latitude","cityid","cityname"
"247001","402-BY","2017/07/16 16:29:24","新北市五股區中興路三段3-6號","121.449548333333","25.07885","6501400","蘆洲區"
"251013","179-VK","2017/07/16 16:29:06","新北市淡水區楓樹湖16號","121.502303333333","25.1870033333333","6501000","淡水區"
"251014","180-VK","2017/07/16 16:29:07","新北市淡水區中正路二段12號","121.420465","25.1807433333333","6501000","淡水區"
"251015","182-VK","2017/07/16 16:29:16","新北市淡水區中山路108巷3號","121.442048333333","25.1709883333333","6501000","淡水區"
"251016","442-VK","2017/07/16 16:29:13","新北市淡水區水頭42號","121.47813","25.1851","6501000","淡水區"
