"lineid","car","time","location","longitude","latitude","cityid","cityname"
"247001","402-BY","2017/07/16 16:30:57","新北市五股區中興路三段3-6號","121.449536666667","25.0788566666667","6501400","蘆洲區"
"251013","179-VK","2017/07/16 16:49:06","新北市淡水區泉洲厝32號","121.489273333333","25.192565","6501000","淡水區"
"251014","180-VK","2017/07/16 16:49:07","新北市淡水區淡金路四段476號","121.452445","25.2239133333333","6501000","淡水區"
"251015","182-VK","2017/07/16 16:49:15","新北市淡水區忠愛街5-1號","121.460748333333","25.171755","6501000","淡水區"
"251016","442-VK","2017/07/16 16:49:14","新北市淡水區水頭42號","121.478165","25.185105","6501000","淡水區"
