"lineid","car","time","location","longitude","latitude","cityid","cityname"
"247001","402-BY","2017/07/16 16:30:57","新北市五股區中興路三段3-6號","121.449536666667","25.0788566666667","6501400","蘆洲區"
"251013","179-VK","2017/07/16 17:09:06","新北市淡水區桂花樹1號","121.482838333333","25.196625","6501000","淡水區"
"251014","180-VK","2017/07/16 17:09:07","新北市淡水區八里堆9-6號","121.465336666667","25.224475","6501000","淡水區"
"251015","182-VK","2017/07/16 17:09:15","新北市淡水區鄧公路36巷15號","121.455801666667","25.1691883333333","6501000","淡水區"
"251016","442-VK","2017/07/16 17:09:13","新北市淡水區社厝坑1-1號","121.481708333333","25.1875216666667","6501000","淡水區"
