"lineid","car","time","location","longitude","latitude","cityid","cityname"
"247001","402-BY","2017/07/16 16:30:57","新北市五股區中興路三段3-6號","121.449536666667","25.0788566666667","6501400","蘆洲區"
"224011","AGQ-8101","2017/07/16 18:59:16","新北市瑞芳區汽車路7號","121.847063333333","25.1109983333333","6501200","瑞芳區"
"251013","179-VK","2017/07/16 18:59:06","新北市淡水區小坑子頭3-1號","121.489111666667","25.2130966666667","6501000","淡水區"
"251014","180-VK","2017/07/16 18:59:07","新北市淡水區崙頂2-5號","121.492505","25.2237483333333","6501000","淡水區"
"251015","182-VK","2017/07/16 18:56:35","新北市淡水區糞箕湖123號","121.488078333333","25.172445","6501000","淡水區"
"251016","442-VK","2017/07/16 18:59:13","新北市淡水區淡金路三段333號","121.448883333333","25.2063216666667","6501000","淡水區"
