"lineid","car","time","location","longitude","latitude","cityid","cityname"
"235026","911-UM","2017/07/16 19:39:19","新北市中和區連城路263巷4弄12號","121.49175","24.9952333333333","6500300","中和區"
"247001","402-BY","2017/07/16 16:30:57","新北市五股區中興路三段3-6號","121.449536666667","25.0788566666667","6501400","蘆洲區"
"224011","AGQ-8101","2017/07/16 19:39:03","新北市瑞芳區基山街49號","121.84544","25.1087166666667","6501200","瑞芳區"
"251013","179-VK","2017/07/16 19:39:06","新北市淡水區店子後10號","121.460215","25.21903","6501000","淡水區"
"251014","180-VK","2017/07/16 19:39:07","新北市淡水區桂竹圍4-3號","121.475715","25.2321283333333","6501000","淡水區"
"251015","182-VK","2017/07/16 19:39:15","新北市淡水區大埤頭5-28號","121.48962","25.1965883333333","6501000","淡水區"
"251016","442-VK","2017/07/16 19:39:13","新北市淡水區下圭柔山119-51號","121.450811666667","25.2084333333333","6501000","淡水區"
