"lineid","car","time","location","longitude","latitude","cityid","cityname"
"247001","402-BY","2017/07/16 16:30:57","新北市五股區中興路三段3-6號","121.449536666667","25.0788566666667","6501400","蘆洲區"
"251013","179-VK","2017/07/16 20:59:06","新北市淡水區行忠路590號","121.468306666667","25.19944","6501000","淡水區"
"251014","180-VK","2017/07/16 20:59:07","新北市淡水區淡金路五段93號","121.456296666667","25.23637","6501000","淡水區"
"251015","182-VK","2017/07/16 20:59:15","新北市淡水區淡金路四段542巷17號","121.452646666667","25.22709","6501000","淡水區"
"251016","442-VK","2017/07/16 20:59:13","新北市淡水區興仁路165號","121.451483333333","25.2201","6501000","淡水區"
