"lineid","car","time","location","longitude","latitude","cityid","cityname"
"232005","290-BY","2017/07/15 07:33:47","新北市坪林區北宜路八段558號","121.717903333333","24.9091683333333","6502000","坪林區"
"232001","291-BY","2017/07/17 07:29:19","新北市坪林區上坑子口1-2號","121.698046666667","24.9561816666667","6502000","坪林區"
"232010","375-UM","2017/07/17 07:28:35","新北市坪林區水聳淒坑5-2號","121.725333333333","24.9282133333333","6502000","坪林區"
"232012","705-BZ","2017/07/17 07:29:20","新北市坪林區金瓜寮13-2號","121.68187","24.9157533333333","6502000","坪林區"
"232017","758-BX","2017/07/17 07:29:11","新北市坪林區樟空子10-2號","121.726985","24.97466","6502000","坪林區"
"244001","248-BX","2017/07/17 07:29:15","新北市林口區頂福里73號","121.342118333333","25.0936716666667","6501700","林口區"
"247001","402-BY","2017/07/17 07:29:08","新北市蘆洲區三民路157-2號","121.470951666667","25.086595","6501400","蘆洲區"
"226005","5620-A6","2017/07/17 07:29:13","新北市平溪區石底里公園街8號","121.738093333333","25.0251316666667","6502400","平溪區"
"226001","7418-A5","2017/07/17 07:24:16","新北市平溪區南山里南山坪4號","121.763203333333","25.0319066666667","6502400","平溪區"
"226003","AGD-0702","2017/07/17 07:29:03","新北市平溪區平溪里平溪街22號","121.738826666667","25.0253","6502400","平溪區"
"223006","022-BY","2017/07/17 07:29:02","新北市石碇區番子坑24-3號","121.678373333333","25.0024516666667","6501900","石碇區"
"223002","198-BX","2017/07/17 07:29:19","新北市石碇區碇格路二段2-1號","121.646571666667","24.9605733333333","6501900","石碇區"
"223003","205-TH","2017/07/17 07:29:02","新北市石碇區中楒子腳1號","121.647336666667","24.9716166666667","6501900","石碇區"
"223008","406-TH","2017/07/17 07:29:06","新北市石碇區番子坑24-2號","121.677441666667","25.0051","6501900","石碇區"
"223001","437-BY","2017/07/17 07:29:13","新北市石碇區中楒子腳1號","121.646791666667","24.971385","6501900","石碇區"
"223004","660-BX","2017/07/17 07:29:02","新北市石碇區新興坑30號","121.647933333333","25.01804","6501900","石碇區"
"223007","661-BX","2017/07/17 07:29:10","新北市石碇區番子坑14號","121.680065","25.0003066666667","6501900","石碇區"
"223005","677-TV","2017/07/17 07:29:03","新北市石碇區新興坑30號","121.647906666667","25.0181916666667","6501900","石碇區"
"227005","282-VK","2017/07/17 07:29:05","新北市雙溪區新基里自強路5號","121.866361666667","25.0390666666667","6502500","雙溪區"
"252006","073-UM","2017/07/17 07:28:51","新北市三芝區錫板里海尾13-1號","121.478701666667","25.2579533333333","6502100","三芝區"
"252004","249-BX","2017/07/17 07:29:11","新北市三芝區店子里店子48號","121.503705","25.206695","6502100","三芝區"
"236007","165-UM","2017/07/17 07:29:19","新北市土城區永豐路5號","121.461126666667","24.989065","6501300","土城區"
"236001","370-SL","2017/07/17 07:26:34","新北市土城區南天母路111巷15號","121.448345","24.9557683333333","6501300","土城區"
"242020","AAC-296","2017/07/17 07:29:04","新北市新莊區新泰路357巷3弄57號","121.442141666667","25.03925","6500500","新莊區"
"242047","751-BX","2017/07/17 07:29:07","新北市新莊區新泰路357巷3弄57號","121.442121666667","25.0391916666667","6500500","新莊區"
"242022","613-BX","2017/07/17 07:29:01","新北市新莊區新泰路255巷83號","121.442225","25.0391533333333","6500500","新莊區"
"242026","612-BX","2017/07/17 07:29:14","新北市新莊區新泰路357巷3弄57號","121.442316666667","25.039265","6500500","新莊區"
"242035","566-BX","2017/07/17 07:29:12","新北市新莊區新泰路357巷3弄57號","121.442081666667","25.0391083333333","6500500","新莊區"
"242049","440-UM","2017/07/17 07:29:14","新北市新莊區新泰路357巷3弄57號","121.442096666667","25.0392316666667","6500500","新莊區"
"242038","400-BY","2017/07/17 07:29:16","新北市新莊區新泰路357巷3弄57號","121.442215","25.0395833333333","6500500","新莊區"
"242010","132-UY","2017/07/17 07:29:11","新北市新莊區三和路18-23號","121.441841666667","25.0389316666667","6500500","新莊區"
"242033","133-UY","2017/07/17 07:29:12","新北市新莊區新泰路255巷83號","121.442036666667","25.038875","6500500","新莊區"
"242043","172-VK","2017/07/17 04:22:55","新北市新莊區三和路12-21號","121.441875","25.0387933333333","6500500","新莊區"
"242012","346-TH","2017/07/17 04:31:00","新北市新莊區三和路12-16號","121.441968333333","25.037385","6500500","新莊區"
"242014","350-TH","2017/07/17 07:28:38","新北市新莊區新泰路255巷83號","121.442088333333","25.0389266666667","6500500","新莊區"
"242008","351-TH","2017/07/17 07:29:04","新北市新莊區三和路18-25號","121.440826666667","25.0396316666667","6500500","新莊區"
