"lineid","car","time","location","longitude","latitude","cityid","cityname"
"232005","290-BY","2017/07/17 07:49:15","新北市坪林區九芎林24-2號","121.70426","24.925225","6502000","坪林區"
"232001","291-BY","2017/07/17 07:49:19","新北市坪林區下坑子口12號","121.721521666667","24.9411683333333","6502000","坪林區"
"232010","375-UM","2017/07/17 07:49:15","新北市坪林區磨壁潭2-1號","121.720131666667","24.9387716666667","6502000","坪林區"
"232012","705-BZ","2017/07/17 07:49:01","新北市坪林區金瓜寮34-1號","121.676141666667","24.904655","6502000","坪林區"
"232017","758-BX","2017/07/17 07:49:11","新北市坪林區坪雙路二段111號","121.753396666667","24.965565","6502000","坪林區"
"244001","248-BX","2017/07/17 07:49:15","新北市林口區頂福22號","121.352145","25.0951533333333","6501700","林口區"
"244018","403-UM","2017/07/17 07:44:30","新北市林口區粉寮69號","121.405041666667","25.09076","6501700","林口區"
"222005","289-BY","2017/07/17 07:49:12","新北市深坑區萬福路36-1號","121.605475","25.0122783333333","6501800","深坑區"
"231008","188-VK","2017/07/17 07:49:08","新北市新店區安康路一段355-3號","121.519716666667","24.962035","6500600","新店區"
"231007","189-VK","2017/07/17 07:49:07","新北市新店區安華路28-1號","121.519816666667","24.9614683333333","6500600","新店區"
"247001","402-BY","2017/07/17 07:49:08","新北市蘆洲區民權路79號","121.473325","25.0885683333333","6501400","蘆洲區"
"226005","5620-A6","2017/07/17 07:49:13","新北市平溪區嶺腳里嶺腳寮74-1號","121.747693333333","25.0325433333333","6502400","平溪區"
"226001","7418-A5","2017/07/17 07:49:16","新北市平溪區平湖里坑頭3號","121.783186666667","25.025965","6502400","平溪區"
"226003","AGD-0702","2017/07/17 07:49:03","新北市平溪區嶺腳里嶺腳寮106-3號","121.745733333333","25.03872","6502400","平溪區"
"223006","022-BY","2017/07/17 07:49:02","新北市石碇區靜安路一段292巷10號","121.691873333333","25.0058383333333","6501900","石碇區"
"223002","198-BX","2017/07/17 07:45:19","新北市石碇區北宜路五段竹坑巷12-1號","121.626535","24.9437966666667","6501900","石碇區"
"223003","205-TH","2017/07/17 07:48:02","新北市石碇區中楒子腳1號","121.646126666667","24.97104","6501900","石碇區"
"223008","406-TH","2017/07/17 07:47:04","新北市石碇區靜安路一段337號","121.698808333333","25.01457","6501900","石碇區"
"223001","437-BY","2017/07/17 07:49:14","新北市石碇區烏塗窟37號","121.65684","24.971345","6501900","石碇區"
"223004","660-BX","2017/07/17 07:49:02","新北市石碇區靜安路一段8號","121.64169","25.0110883333333","6501900","石碇區"
"223007","661-BX","2017/07/17 07:49:11","新北市石碇區靜安路一段292巷2號","121.691718333333","25.00604","6501900","石碇區"
"223005","677-TV","2017/07/17 07:49:03","新北市石碇區靜安路一段1號","121.641521666667","25.0111883333333","6501900","石碇區"
"227005","282-VK","2017/07/17 07:49:05","新北市雙溪區雙溪里太平路54號","121.864743333333","25.035455","6502500","雙溪區"
"252006","073-UM","2017/07/17 07:48:31","新北市三芝區古庄里茂興店60-2號","121.487585","25.265985","6502100","三芝區"
"252004","249-BX","2017/07/17 07:49:10","新北市三芝區店子里菜公坑78號","121.509026666667","25.2041166666667","6502100","三芝區"
"237001","159-UY","2017/07/14 13:43:26","桃園市八德區興豐路2350巷501號","121.326505","24.9437783333333","6500900","三峽區"
"236007","165-UM","2017/07/17 07:49:19","新北市土城區清水路318號","121.463716666667","24.985075","6501300","土城區"
"236001","370-SL","2017/07/17 07:41:53","新北市土城區龍泉路157號","121.449406666667","24.9443483333333","6501300","土城區"
"242020","AAC-296","2017/07/17 07:49:04","新北市新莊區中港一街142號","121.446868333333","25.0449466666667","6500500","新莊區"
"242028","986-R7","2017/07/17 07:49:12","新北市新莊區中港路349號","121.452141666667","25.0456866666667","6500500","新莊區"
"242047","751-BX","2017/07/17 07:49:07","新北市新莊區龍安路253號","121.419605","25.020055","6500500","新莊區"
"242024","615-BX","2017/07/17 07:49:08","新北市新莊區中港一街142號","121.446631666667","25.0449516666667","6500500","新莊區"
"242022","613-BX","2017/07/17 07:49:21","新北市新莊區中港一街142號","121.446886666667","25.044925","6500500","新莊區"
"242026","612-BX","2017/07/17 07:49:14","新北市新莊區新泰路488號","121.44247","25.045885","6500500","新莊區"
"242035","566-BX","2017/07/17 07:49:12","新北市新莊區新樹路166號","121.43496","25.0224066666667","6500500","新莊區"
"242040","497-BY","2017/07/17 07:49:17","新北市新莊區新樹路4號","121.440863333333","25.0331983333333","6500500","新莊區"
"242003","442-UM","2017/07/17 07:49:12","新北市新莊區中港一街145號","121.447796666667","25.0450366666667","6500500","新莊區"
"242045","441-UM","2017/07/17 07:49:11","新北市新莊區新樹路67巷22號","121.440145","25.030085","6500500","新莊區"
"242049","440-UM","2017/07/17 07:49:14","新北市新莊區瓊林南路50號","121.435698333333","25.0171283333333","6500500","新莊區"
"242030","415-TV","2017/07/17 07:49:22","新北市新莊區新泰路417-2號","121.44323","25.0447083333333","6500500","新莊區"
"242001","413-TV","2017/07/17 07:49:09","新北市新莊區瓊林路118號","121.44222","25.0256333333333","6500500","新莊區"
"242038","400-BY","2017/07/17 07:49:16","新北市新莊區中正路487號","121.441066666667","25.0336166666667","6500500","新莊區"
"242059","362-BY","2017/07/17 07:49:17","新北市新莊區新泰路255巷83號","121.442513333333","25.038695","6500500","新莊區"
"242057","353-BY","2017/07/17 07:49:08","新北市新莊區新泰路357巷3弄57號","121.442476666667","25.0395733333333","6500500","新莊區"
"242010","132-UY","2017/07/17 07:49:11","新北市新莊區中誠街1號","121.452216666667","25.0480333333333","6500500","新莊區"
"242033","133-UY","2017/07/17 07:49:12","新北市新莊區瓊林路46-7號","121.447183333333","25.0292383333333","6500500","新莊區"
"242018","135-UY","2017/07/17 07:49:07","新北市新莊區中港路304號","121.452736666667","25.0449516666667","6500500","新莊區"
"242043","172-VK","2017/07/17 07:49:16","新北市新莊區四維路1號","121.423873333333","25.0248","6500500","新莊區"
"242006","173-VK","2017/07/17 00:36:50","新北市新莊區三和路12-21號","121.442155","25.0387433333333","6500500","新莊區"
"242055","176-VK","2017/07/17 07:49:18","新北市新莊區新泰路357巷1弄10號","121.442606666667","25.0410283333333","6500500","新莊區"
"242012","346-TH","2017/07/17 07:49:03","新北市新莊區新泰路488號","121.442543333333","25.0457833333333","6500500","新莊區"
"242016","348-TH","2017/07/17 07:49:11","新北市新莊區永樂街212號","121.446858333333","25.044855","6500500","新莊區"
"242052","349-TH","2017/07/17 07:49:15","新北市新莊區瓊林路59-17號","121.44217","25.0249266666667","6500500","新莊區"
"242014","350-TH","2017/07/17 07:49:19","新北市新莊區建中街152號","121.444823333333","25.0364516666667","6500500","新莊區"
"242008","351-TH","2017/07/17 07:49:04","新北市新莊區新泰路528號","121.442173333333","25.0470966666667","6500500","新莊區"
