"lineid","car","time","location","longitude","latitude","cityid","cityname"
"224011","AGQ-8101","2017/10/29 18:31:47","新北市瑞芳區崙頂路41號","121.844825","25.107195","6501200","瑞芳區"
"251013","179-VK","2017/10/29 18:31:54","新北市淡水區椿子林19-1號","121.480456666667","25.204025","6501000","淡水區"
"251014","180-VK","2017/10/29 18:31:59","新北市淡水區崙頂10-1號","121.492665","25.22","6501000","淡水區"
"251015","182-VK","2017/10/29 18:31:49","新北市淡水區興福寮88巷216號","121.486016666667","25.16663","6501000","淡水區"
"251016","442-VK","2017/10/29 18:31:45","新北市淡水區下圭柔山105-2號","121.445338333333","25.2096","6501000","淡水區"
