"lineid","car","time","location","longitude","latitude","cityid","cityname"
"232001","290-BY","2017/10/30 07:49:46","新北市坪林區上坑子口22號","121.701615","24.9517383333333","6502000","坪林區"
"232012","291-BY","2017/10/30 07:49:53","新北市坪林區金瓜寮23-1號","121.679221666667","24.9113","6502000","坪林區"
"232010","375-UM","2017/10/30 07:49:49","新北市坪林區磨壁潭10-1號","121.722911666667","24.9381916666667","6502000","坪林區"
"232017","705-BZ","2017/10/30 07:49:40","新北市坪林區乾溪8號","121.74856","24.9658816666667","6502000","坪林區"
"232005","758-BX","2017/10/30 07:49:51","新北市坪林區九芎林23-4號","121.705938333333","24.9261083333333","6502000","坪林區"
"244022","483-VK","2017/10/30 07:49:57","新北市林口區粉寮69號","121.405015","25.09081","6501700","林口區"
"244016","485-VK","2017/10/30 07:49:50","新北市林口區粉寮69號","121.404926666667","25.0908083333333","6501700","林口區"
"244001","657-BX","2017/10/30 07:49:39","新北市林口區頂福里50號","121.342638333333","25.095945","6501700","林口區"
"244020","838-TS","2017/10/30 07:49:20","新北市林口區粉寮69號","121.40482","25.0908233333333","6501700","林口區"
"222005","289-BY","2017/10/30 07:47:11","新北市深坑區文化街41號","121.618631666667","25.0009083333333","6501800","深坑區"
"231007","189-VK","2017/10/30 07:50:02","新北市新店區安華路28-1號","121.519556666667","24.96125","6500600","新店區"
"231008","192-VK","2017/10/30 07:49:42","新北市新店區安華路28-1號","121.519246666667","24.9612433333333","6500600","新店區"
"226005","5620-A6","2017/10/30 07:49:47","新北市平溪區嶺腳里嶺腳寮74-1號","121.747668333333","25.0325166666667","6502400","平溪區"
"226001","7418-A5","2017/10/30 07:49:39","新北市平溪區平湖里大厝1號","121.780133333333","25.0384966666667","6502400","平溪區"
"226003","AGD-0702","2017/10/30 07:49:51","新北市平溪區嶺腳里嶺腳寮89號","121.746088333333","25.0359533333333","6502400","平溪區"
"223006","022-BY","2017/10/30 07:49:58","新北市石碇區十八重溪16-3號","121.677558333333","25.0112733333333","6501900","石碇區"
"223002","198-BX","2017/10/30 07:49:55","新北市石碇區北宜路五段竹坑巷26號","121.626821666667","24.9391433333333","6501900","石碇區"
"223003","205-TH","2017/10/30 07:49:53","新北市石碇區烏塗窟8號","121.655851666667","24.9750066666667","6501900","石碇區"
"223008","406-TH","2017/10/30 07:45:40","新北市石碇區靜安路一段337號","121.698681666667","25.0145066666667","6501900","石碇區"
"223001","437-BY","2017/10/30 07:49:53","新北市石碇區橫坪5號","121.662751666667","24.9703383333333","6501900","石碇區"
"223004","660-BX","2017/10/30 07:49:55","新北市石碇區楓子林30號","121.642323333333","25.0095483333333","6501900","石碇區"
"223007","661-BX","2017/10/30 07:49:48","新北市石碇區靜安路一段337號","121.698901666667","25.0144833333333","6501900","石碇區"
"223005","677-TV","2017/10/30 07:49:45","新北市石碇區楓子林43號","121.642221666667","25.010085","6501900","石碇區"
"227005","282-VK","2017/10/30 07:49:56","新北市雙溪區雙溪里長安街15號","121.864845","25.0347966666667","6502500","雙溪區"
"252006","073-UM","2017/10/30 07:49:55","新北市三芝區古庄里茂興店78號","121.490151666667","25.2664716666667","6502100","三芝區"
"252004","249-BX","2017/10/30 07:49:56","新北市三芝區店子里菜公坑103號","121.516505","25.2069766666667","6502100","三芝區"
"237001","159-UY","2017/10/30 07:49:49","新北市三峽區學成路258號","121.375353333333","24.9424583333333","6500900","三峽區"
"236007","165-UM","2017/10/30 07:49:44","新北市土城區延壽路8號","121.471373333333","24.990355","6501300","土城區"
"236001","339-SR","2017/10/30 07:49:40","新北市土城區石門路56-1號","121.452986666667","24.9505783333333","6501300","土城區"
"242030","AAC-296","2017/10/30 04:40:49","新北市新莊區新泰路357巷3弄57號","121.442123333333","25.0392983333333","6500500","新莊區"
"242028","986-R7","2017/10/30 07:49:42","新北市新莊區新泰路502巷2號","121.442533333333","25.04647","6500500","新莊區"
"242049","751-BX","2017/10/30 07:49:38","新北市新莊區瓊林南路1號","121.438581666667","25.0207416666667","6500500","新莊區"
"242024","615-BX","2017/10/30 07:49:56","新北市新莊區新泰路496號","121.44253","25.04635","6500500","新莊區"
"242022","613-BX","2017/10/30 07:49:40","新北市新莊區中港一街161號","121.447386666667","25.0449666666667","6500500","新莊區"
"242026","612-BX","2017/10/30 07:49:54","新北市新莊區中港一街161號","121.447108333333","25.04491","6500500","新莊區"
"242038","566-BX","2017/10/30 07:49:43","新北市新莊區民安路298號","121.428195","25.0218466666667","6500500","新莊區"
"242043","497-BY","2017/10/30 07:49:41","新北市新莊區富國路100號","121.421395","25.0254966666667","6500500","新莊區"
"242047","441-UM","2017/10/30 07:49:51","新北市新莊區龍安路253號","121.419515","25.0201","6500500","新莊區"
"242052","440-UM","2017/10/30 07:49:45","新北市新莊區瓊林路59-66號","121.441443333333","25.0227933333333","6500500","新莊區"
"242033","415-TV","2017/10/30 07:50:00","新北市新莊區新莊路751巷126號","121.442215","25.0297566666667","6500500","新莊區"
"242003","413-TV","2017/10/30 07:49:29","新北市新莊區中平路89號","121.444798333333","25.0460866666667","6500500","新莊區"
"242040","400-BY","2017/10/30 07:49:44","新北市新莊區新樹路12-1號","121.439661666667","25.0312283333333","6500500","新莊區"
"242059","362-BY","2017/10/30 07:49:47","新北市新莊區三和路10號","121.441983333333","25.0359383333333","6500500","新莊區"
"242057","353-BY","2017/10/30 07:49:46","新北市新莊區三和路12-13號","121.44195","25.037165","6500500","新莊區"
"242006","132-UY","2017/10/30 07:49:52","新北市新莊區新泰路502巷20號","121.443101666667","25.0464683333333","6500500","新莊區"
"242035","133-UY","2017/10/30 07:49:54","新北市新莊區民安路431號","121.433875","25.02295","6500500","新莊區"
"242020","135-UY","2017/10/30 07:49:57","新北市新莊區中港一街153號","121.447596666667","25.0449383333333","6500500","新莊區"
"242045","172-VK","2017/10/30 07:49:40","新北市新莊區中正路473-1號","121.442038333333","25.0329216666667","6500500","新莊區"
"242008","173-VK","2017/10/30 00:37:41","新北市新莊區三和路12-21號","121.442081666667","25.0387316666667","6500500","新莊區"
"242014","175-VK","2017/10/30 07:50:02","新北市新莊區新泰路472號","121.442921666667","25.0452633333333","6500500","新莊區"
"242001","176-VK","2017/10/30 07:49:46","新北市新莊區中環路一段281號","121.442096666667","25.0310833333333","6500500","新莊區"
"242001","233-RS","2017/10/30 07:49:41","新北市新莊區中港路303號","121.452826666667","25.0445333333333","6500500","新莊區"
"242012","347-TH","2017/10/30 00:37:18","新北市新莊區三和路12-16號","121.4421","25.0373616666667","6500500","新莊區"
"242018","348-TH","2017/10/30 07:49:59","新北市新莊區中港路245號","121.454108333333","25.042795","6500500","新莊區"
"242055","349-TH","2017/10/30 07:49:55","新北市新莊區三和路10號","121.441945","25.035985","6500500","新莊區"
"242016","350-TH","2017/10/30 07:49:55","新北市新莊區中港一街157號","121.447508333333","25.0449966666667","6500500","新莊區"
"242010","280-VK","2017/10/30 07:49:44","新北市新莊區中港一街149號","121.447696666667","25.0450266666667","6500500","新莊區"
