"lineid","car","time","location","longitude","latitude"
"248005","653-BX","2017/06/03 09:59:28","新北市五股區中興路二段182巷50號","121.453956666667","25.0808916666667"
"222004","289-BY","2017/06/03 09:59:29","新北市深坑區深坑街75號","121.6147","25.00123"
"231008","192-VK","2017/06/03 09:50:16","新北市新店區平廣路一段256號","121.507896666667","24.8884"
"247001","402-BY","2017/06/03 09:59:28","新北市蘆洲區民族路167巷6號","121.478528333333","25.0881783333333"
"223002","198-BX","2017/06/03 08:44:30","新北市石碇區小粗坑(潭邊里)6號","121.675085","24.9842483333333"
"223003","205-TH","2017/06/03 09:49:17","新北市石碇區小粗坑(潭邊里)9-2號","121.678605","24.9858083333333"
"227006","282-VK","2017/06/03 09:59:17","新北市雙溪區長源里柑腳29號","121.80427","25.0139966666667"
"252004","249-BX","2017/06/03 09:59:13","新北市三芝區福德里埔尾10-1號","121.504213333333","25.24478"
"252007","AAC-283","2017/06/03 00:12:36","新北市三芝區埔坪里埔頭坑41號","121.504446666667","25.2645116666667"
