"lineid","car","time","location","longitude","latitude"
"248005","653-BX","2017/06/03 10:29:28","新北市五股區中興路二段37巷24號","121.460675","25.0750066666667"
"222004","289-BY","2017/06/03 10:29:09","新北市樹林區佳園路三段97號","121.387491666667","24.9522283333333"
"231008","192-VK","2017/06/03 10:28:59","新北市新店區平廣路一段151號","121.521618333333","24.8909266666667"
"247001","402-BY","2017/06/03 10:29:08","新北市蘆洲區民族路408巷54號","121.474403333333","25.093635"
"223003","205-TH","2017/06/03 09:49:17","新北市石碇區小粗坑(潭邊里)9-2號","121.678605","24.9858083333333"
"227006","282-VK","2017/06/03 10:29:16","新北市雙溪區長源里柑腳18號","121.804698333333","25.0141133333333"
"207004","225-TW","2017/06/03 10:29:12","新北市萬里區萬里里瑪鋉路30巷2弄7號","121.69049","25.1761216666667"
"252007","AAC-283","2017/06/03 00:12:36","新北市三芝區埔坪里埔頭坑41號","121.504446666667","25.2645116666667"
