"lineid","car","time","location","longitude","latitude"
"222004","289-BY","2017/06/03 10:49:09","新北市樹林區佳園路二段165號","121.389808333333","24.95662"
"231008","192-VK","2017/06/03 10:48:19","新北市新店區小坑一路21-1號","121.531015","24.9115816666667"
"247001","402-BY","2017/06/03 10:49:08","新北市蘆洲區民族路422巷114弄55號","121.47191","25.0951483333333"
"223003","205-TH","2017/06/03 09:49:17","新北市石碇區小粗坑(潭邊里)9-2號","121.678605","24.9858083333333"
"224008","702-BZ","2017/06/03 10:49:21","新北市平溪區新寮里五分寮10-3號","121.79685","25.07777"
"227006","282-VK","2017/06/03 10:49:16","新北市雙溪區新基里新基東街15-2號","121.87255","25.042055"
"252007","AAC-283","2017/06/03 00:12:36","新北市三芝區埔坪里埔頭坑41號","121.504446666667","25.2645116666667"
