"lineid","car","time","location","longitude","latitude"
"231008","192-VK","2017/06/03 11:19:19","新北市新店區松林路16巷41號","121.547276666667","24.90778"
"247001","402-BY","2017/06/03 11:19:08","新北市五股區新五路二段372巷20號","121.451788333333","25.0857166666667"
"223003","205-TH","2017/06/03 09:49:17","新北市石碇區小粗坑(潭邊里)9-2號","121.678605","24.9858083333333"
"224008","702-BZ","2017/06/03 11:19:21","新北市瑞芳區傑魚坑路99號","121.791946666667","25.11041"
"227006","282-VK","2017/06/03 11:19:16","新北市雙溪區魚行里坤溪8號","121.866345","25.0212516666667"
"252007","AAC-283","2017/06/03 00:12:36","新北市三芝區埔坪里埔頭坑41號","121.504446666667","25.2645116666667"
