"lineid","car","time","location","longitude","latitude"
"231008","192-VK","2017/06/03 11:41:19","新北市新店區成功路91-1號","121.537671666667","24.8951466666667"
"247001","402-BY","2017/06/03 11:31:12","新北市五股區中興路三段3-6號","121.449643333333","25.0788783333333"
"223003","205-TH","2017/06/03 09:49:17","新北市石碇區小粗坑(潭邊里)9-2號","121.678605","24.9858083333333"
"228004","212-TW","2017/06/03 11:59:06","新北市貢寮區貢寮里朝陽街1-2號","121.912203333333","25.02128"
"228005","828-UM","2017/06/03 11:58:19","新北市貢寮區貢寮里朝陽街1-2號","121.912351666667","25.0212883333333"
"224008","702-BZ","2017/06/03 11:32:42","新北市瑞芳區民權街3-1號","121.809245","25.1083283333333"
"227006","282-VK","2017/06/03 11:59:16","新北市雙溪區魚行里魚杭1號","121.883825","25.0266266666667"
"252007","AAC-283","2017/06/03 00:12:36","新北市三芝區埔坪里埔頭坑41號","121.504446666667","25.2645116666667"
