"lineid","car","time","location","longitude","latitude"
"234044","148-BY","2017/06/03 14:09:14","新北市永和區成功路一段139號","121.526816666667","25.0015466666667"
"234012","149-BY","2017/06/03 14:09:03","新北市永和區永貞路377號","121.508223333333","25.0083816666667"
"234005","207-UY","2017/06/03 14:09:18","新北市永和區永貞路372號","121.510025","25.0067983333333"
"234078","298-R6","2017/06/03 14:09:16","新北市永和區永亨路105巷4號","121.523613333333","25.00499"
"234036","336-UY","2017/06/03 14:09:07","新北市永和區成功路一段93巷23弄13號","121.528478333333","25.00331"
"234062","337-UY","2017/06/03 14:09:15","新北市永和區永利路152號","121.522488333333","25.0027683333333"
"234084","338-UY","2017/06/03 14:09:10","新北市永和區福和路261號","121.517821666667","25.0074316666667"
"234068","552-UM","2017/06/03 14:09:10","新北市永和區福和路247號","121.517995","25.0074483333333"
"234052","553-UM","2017/06/03 14:09:05","新北市永和區博愛街19巷1號","121.517405","25.0159283333333"
"234015","745-BX","2017/06/03 14:09:20","新北市永和區仁愛路54-1號","121.513628333333","25.0133566666667"
"234028","746-BX","2017/06/03 14:09:15","新北市永和區民權路84號","121.519745","24.997085"
"234060","AAD-866","2017/06/03 14:09:20","新北市中和區安平路222號","121.514051666667","25.000095"
"234040","862-TW","2017/06/03 14:09:08","新北市永和區雙和街1號","121.509808333333","25.0016616666667"
"234048","863-TW","2017/06/03 14:09:05","新北市永和區環河西路二段39號","121.50739","25.0155933333333"
"234025","9371-KE","2017/06/03 14:09:15","新北市永和區安樂路274號","121.514513333333","25.0042216666667"
"234010","9373-KE","2017/06/03 14:09:16","新北市永和區仁愛路352巷124號","121.500253333333","25.0086033333333"
"248017","225-UY","2017/06/03 14:09:01","新北市五股區民義路二段5號","121.421195","25.0962416666667"
"234022","9380-KE","2017/06/03 14:09:08","新北市永和區博愛街32巷17-1號","121.518925","25.0152683333333"
"234076","969-R7","2017/06/03 14:09:08","新北市永和區民族街182巷1號","121.518241666667","24.9966716666667"
"234072","AAC-211","2017/06/03 14:09:13","新北市永和區豫溪街217巷1號","121.524951666667","25.009245"
"234066","AAC-212","2017/06/03 14:09:02","新北市永和區永貞路358號","121.510188333333","25.0066016666667"
"234001","AAC-295","2017/06/03 14:07:40","新北市永和區永和路二段8號","121.514588333333","25.0102016666667"
"244005","248-BX","2017/06/03 14:09:14","新北市林口區竹林路267號","121.38961","25.080845"
"231030","001-UM","2017/06/03 14:09:15","新北市新店區安民街65巷21-2號","121.515131666667","24.9674283333333"
"231002","002-UM","2017/06/03 14:09:20","新北市新店區中正路485號","121.533768333333","24.9818933333333"
"231025","0291-UT","2017/06/03 14:09:04","新北市新店區中正路348號","121.536246666667","24.9752383333333"
"231028","046-UY","2017/06/03 14:09:18","新北市新店區安和路二段163號","121.518873333333","24.9742383333333"
"231029","106-UY","2017/06/03 14:09:09","新北市新店區安康路二段156號","121.512296666667","24.9608766666667"
"231018","107-UY","2017/06/03 14:09:06","新北市新店區中央五街5號","121.530071666667","24.9741833333333"
"231012","108-UY","2017/06/03 14:09:11","新北市新店區中興路一段216號","121.544225","24.9655566666667"
"231020","187-VK","2017/06/03 14:09:07","新北市新店區屈尺路75號","121.545665","24.9227066666667"
"231034","268-BY","2017/06/03 14:09:04","新北市新店區黎明路3號","121.503533333333","24.9524166666667"
"231017","AAD-862","2017/06/03 14:09:21","新北市新店區郵政路1巷6號","121.557315","24.952095"
"231001","355-BY","2017/06/03 14:09:05","新北市新店區中華路52號","121.539586666667","24.9685133333333"
"231027","3712-VJ","2017/06/03 14:09:09","新北市新店區光明街138巷13弄7號","121.540253333333","24.9615133333333"
"231037","4715-K9","2017/06/03 14:09:18","新北市新店區安康路二段341巷29號","121.497123333333","24.9544916666667"
"231036","512-UM","2017/06/03 14:09:07","新北市新店區安祥路109巷85弄15號","121.4781","24.9601416666667"
"231023","513-UM","2017/06/03 14:09:19","新北市新店區北宜路一段20號","121.538148333333","24.9571566666667"
"231035","515-UM","2017/06/03 14:09:04","新北市新店區安和路二段83號","121.518438333333","24.96902"
"231006","617-UM","2017/06/03 14:09:19","新北市新店區北宜路二段126號","121.556798333333","24.9539083333333"
"231003","641-BX","2017/06/03 14:09:11","新北市新店區中興路一段152號","121.542406666667","24.9638433333333"
"231013","719-UM","2017/06/03 14:09:16","新北市新店區北新路3段65巷34弄29-1號","121.540028333333","24.98205"
"231033","720-UM","2017/06/03 14:09:03","新北市新店區永業路55號","121.531901666667","24.95446"
"231005","897-TW","2017/06/03 14:09:04","新北市新店區中興路三段293號","121.54231","24.9849166666667"
"231004","899-TW","2017/06/03 14:09:07","新北市新店區北新路二段200號","121.542905","24.9768416666667"
"231038","AKT-0513","2017/06/03 14:09:10","新北市新店區溪洲路121號","121.531218333333","24.9627516666667"
"235030","003-UY","2017/06/03 14:09:18","新北市中和區廣福路50號","121.504021666667","25.00205"
"235028","005-UY","2017/06/03 14:09:09","新北市中和區泰和街38巷25號","121.498623333333","25.0009666666667"
"235027","006-UY","2017/06/03 14:09:18","新北市中和區中正路588號","121.485941666667","24.9949433333333"
"235020","096-UM","2017/06/03 14:09:09","新北市中和區員山路514巷2號","121.479433333333","25.009455"
"235003","097-UM","2017/06/03 14:09:11","新北市中和區秀朗路三段179號","121.524365","24.9908866666667"
"235029","098-UM","2017/06/03 14:09:16","新北市中和區中山路二段136巷33號","121.500968333333","25.0043583333333"
"235004","150-BY","2017/06/03 14:09:16","新北市中和區宜安路85號","121.5109","24.997505"
"235022","151-BY","2017/06/03 14:09:23","新北市中和區連城路573-1號","121.478948333333","24.9943266666667"
"235019","183-VK","2017/06/03 14:09:11","新北市中和區德光路43號","121.470398333333","25.004155"
"235002","185-VK","2017/06/03 14:09:14","新北市中和區立人街24-5號","121.518903333333","24.9941733333333"
"235013","186-VK","2017/06/03 14:09:11","新北市中和區景安路139號","121.505695","24.9955316666667"
"235031","255-BX","2017/06/03 14:09:21","新北市中和區新生街168號","121.483653333333","25.000165"
"235008","293-VK","2017/06/03 14:09:16","新北市中和區復興路280巷33弄6號","121.501136666667","24.9915183333333"
"235036","301-VK","2017/06/03 14:09:10","新北市中和區中山路二段238號","121.498076666667","25.0024916666667"
"235007","352-BY","2017/06/03 14:09:21","新北市中和區景平路4號","121.524418333333","24.99056"
"235015","376-QA","2017/06/03 14:09:08","新北市中和區興南路一段9號","121.511403333333","24.9911"
"235032","377-QA","2017/06/03 14:09:12","新北市中和區連城路75巷6弄2號","121.498056666667","24.9988666666667"
"235025","378-QA","2017/06/03 14:09:20","新北市中和區中山路三段63巷9號","121.477188333333","25.0042916666667"
"235014","4979-A6","2017/06/03 14:08:10","新北市中和區復興路280巷36弄6號","121.501588333333","24.99201"
"235033","4980-A6","2017/06/03 14:09:18","新北市中和區中山路二段181巷12號","121.500711666667","25.0023483333333"
"235006","551-UM","2017/06/03 14:09:06","新北市中和區自立路117巷5號","121.522433333333","24.9945766666667"
"235034","558-UM","2017/06/03 14:09:19","新北市中和區安和路216號","121.506171666667","24.999305"
"235009","565-BX","2017/06/03 14:09:20","新北市中和區景新街467巷20弄18號","121.51432","24.9879616666667"
"235018","640-BX","2017/06/03 14:09:06","新北市中和區民享街11號","121.474031666667","25.0054566666667"
"235024","647-TV","2017/06/03 14:09:02","新北市中和區民治街17巷2號","121.475253333333","25.0028866666667"
"235011","732-UM","2017/06/03 14:09:09","新北市中和區興南路一段56巷1弄2號","121.510731666667","24.99079"
"235010","733-UM","2017/06/03 14:09:03","新北市中和區忠孝街1巷61號","121.508285","24.9845216666667"
"235035","783-BX","2017/06/03 14:09:05","新北市中和區建一路183號","121.488346666667","24.9982666666667"
"235026","800-TS","2017/06/03 14:09:06","新北市中和區中山路二段380巷31號","121.490788333333","25.0048633333333"
"235021","801-TS","2017/06/03 14:09:21","新北市中和區民利街68巷5弄38號","121.477356666667","24.99873"
"235005","802-TS","2017/06/03 14:09:20","新北市中和區中安街178巷13弄2號","121.51023","24.998635"
"235016","805-TS","2017/06/03 14:09:12","新北市中和區興南路二段114巷2號","121.504328333333","24.9841966666667"
"235012","896-TW","2017/06/03 14:09:15","新北市中和區工專路147號","121.508383333333","24.9787966666667"
"235017","900-TW","2017/06/03 14:09:09","新北市板橋區和平路190巷26號","121.464826666667","24.99459"
"235001","AAC-213","2017/06/03 14:09:19","新北市中和區自立路99巷36弄18號","121.523946666667","24.9940116666667"
"235023","AAC-215","2017/06/03 14:09:08","新北市中和區圓通路294巷17-5號","121.488658333333","24.9904466666667"
"220016","013-TV","2017/06/03 14:09:09","新北市板橋區翠華街6巷29號","121.481421666667","25.0244833333333"
"220013","072-UY","2017/06/03 14:09:13","新北市板橋區民族路219巷7號","121.469411666667","25.00792"
"220034","073-UY","2017/06/03 14:09:14","新北市板橋區中正路257號","121.455736666667","25.0184283333333"
"220105","075-UY","2017/06/03 14:09:09","新北市板橋區文化路二段126號","121.469935","25.0264266666667"
"220017","AAD-861","2017/06/03 14:09:11","新北市板橋區南雅南路一段1巷1弄3號","121.45737","25.0062216666667"
"220045","120-SR","2017/06/03 14:09:01","新北市板橋區雙十路二段47巷17號","121.47565","25.025805"
"247019","893-R6","2017/06/03 14:09:10","新北市蘆洲區民族路422巷15弄21號","121.473145","25.09285"
"247009","546-UM","2017/06/03 14:09:14","新北市蘆洲區民族路24號","121.476181666667","25.0841966666667"
"247017","500-BY","2017/06/03 14:09:10","新北市蘆洲區民族路201巷7號","121.477511666667","25.0889233333333"
"247001","402-BY","2017/06/03 14:09:24","新北市蘆洲區集賢路271號","121.481183333333","25.0837433333333"
"247005","341-TH","2017/06/03 14:09:17","新北市蘆洲區九芎街71巷9弄6號","121.466716666667","25.078135"
"247007","339-TH","2017/06/03 14:09:17","新北市蘆洲區中山一路266號","121.47183","25.0796216666667"
"247023","337-TH","2017/06/03 14:09:07","新北市蘆洲區光榮路87號","121.462136666667","25.08851"
"247013","057-VK","2017/06/03 14:09:17","新北市蘆洲區忠孝路98號","121.471455","25.08604"
"247001","056-VK","2017/06/03 14:09:02","新北市蘆洲區長安街102巷4號","121.46193","25.0814583333333"
"247011","007-UY","2017/06/03 14:09:08","新北市蘆洲區信義路317號","121.478356666667","25.086375"
"247021","002-UY","2017/06/03 14:09:22","新北市蘆洲區三民路157-1號","121.470765","25.08663"
"247015","001-UY","2017/06/03 14:09:05","新北市蘆洲區光華路46巷25號","121.468181666667","25.0837983333333"
"223003","205-TH","2017/06/03 09:49:17","新北市石碇區小粗坑(潭邊里)9-2號","121.678605","24.9858083333333"
"228004","212-TW","2017/06/03 14:09:06","新北市貢寮區雙玉里下雙溪街6-2號","121.914415","25.015835"
"228005","828-UM","2017/06/03 14:08:19","新北市貢寮區美豐里土地公嶺21-2號","121.889263333333","25.0623766666667"
"253003","6232-TK","2017/06/03 14:09:04","新北市石門區尖子鹿53-2號","121.579926666667","25.2706116666667"
"253001","6251-TK","2017/06/03 14:09:12","新北市石門區下員坑53號","121.520931666667","25.2713083333333"
"253002","637-UY","2017/06/03 14:04:38","新北市石門區七股61號","121.556326666667","25.251125"
"253004","8270-PC","2017/06/03 14:00:05","新北市石門區草埔尾26號","121.604436666667","25.26399"
"208004","AAC-292","2017/06/03 14:09:13","新北市金山區重和里六股林口75號","121.60131","25.216865"
"207002","749-BX","2017/06/03 14:09:12","新北市萬里區溪底里瑞泉路20號","121.605328333333","25.1475233333333"
"252005","073-UM","2017/06/03 14:02:18","新北市三芝區圓山里二坪頂46號","121.539586666667","25.23043"
"252007","AAC-283","2017/06/03 00:12:36","新北市三芝區埔坪里埔頭坑41號","121.504446666667","25.2645116666667"
"236068","105-UM","2017/06/03 14:09:08","新北市土城區金城路一段88巷26號","121.44605","24.9733266666667"
"236041","107-UM","2017/06/03 14:09:06","新北市土城區裕生路64號","121.447608333333","24.98614"
"236075","166-UM","2017/06/03 14:09:06","新北市土城區永寧路29號","121.43045","24.9632583333333"
"236029","253-BX","2017/06/03 14:09:14","新北市土城區城林路6巷80號","121.438351666667","24.9797683333333"
"236025","269-VK","2017/06/03 14:09:06","新北市土城區承天路18號","121.439466666667","24.9634883333333"
"236013","270-VK","2017/06/03 14:09:11","新北市土城區學府路一段172號","121.453875","24.9864683333333"
"236035","271-VK","2017/06/03 14:09:07","新北市土城區青雲路449號","121.458825","24.9748383333333"
"236017","401-BY","2017/06/03 14:09:04","新北市土城區城林路6巷80號","121.438383333333","24.97964"
"236006","498-BY","2017/06/03 14:09:14","新北市土城區中華路一段56巷27號","121.444386666667","24.9895833333333"
"236057","912-UM","2017/06/03 14:09:10","新北市土城區中央路四段56-1號","121.420296666667","24.9605066666667"
"236045","913-UM","2017/06/03 14:09:08","新北市土城區明德路一段365-1號","121.453558333333","24.979055"
"236061","915-UM","2017/06/03 14:09:15","新北市土城區金城路三段168號","121.467428333333","24.987565"
"236054","AAC-216","2017/06/03 14:09:15","新北市土城區中華路二段98號","121.438125","24.974455"
"242044","172-VK","2017/06/03 14:06:14","新北市樹林區中山路三段214號","121.379996666667","24.9678333333333"
"221010","269-BY","2017/06/03 13:53:40","新北市汐止區八連路二段625-3號","121.620608333333","25.1133166666667"
"221032","280-BY","2017/06/03 14:09:16","新北市新店區薏仁坑路自強巷1號","121.497738333333","24.9576316666667"
"220027","145-BY","2017/06/03 14:09:19","新北市板橋區民權路260巷20號","121.458531666667","25.0153033333333"
"220050","245-BX","2017/06/03 14:09:03","新北市板橋區莊敬路144-3號","121.47142","25.02306"
"220052","257-TC","2017/06/03 14:09:19","新北市板橋區介壽街84巷48號","121.468803333333","25.01837"
"220043","267-BY","2017/06/03 14:09:06","新北市板橋區光武街155號","121.46539","25.0295566666667"
"220004","276-BY","2017/06/03 14:09:15","新北市板橋區信義路110巷1弄3號","121.45803","24.9922366666667"
"220020","277-BY","2017/06/03 14:09:12","新北市板橋區金門街369巷81號","121.42851","24.98266"
"220012","280-UM","2017/06/03 14:09:08","新北市板橋區板新路97號","121.473005","25.01409"
"220019","283-VK","2017/06/03 14:09:17","新北市板橋區忠孝路154巷33號","121.464325","25.00127"
"220001","285-VK","2017/06/03 14:09:16","新北市板橋區懷仁街14巷15號","121.47569","25.0196316666667"
"220031","286-VK","2017/06/03 14:09:09","新北市板橋區龍興街99巷2號","121.444166666667","25.0029583333333"
"220029","287-VK","2017/06/03 14:09:00","新北市板橋區光華街39巷18號","121.453256666667","25.0130983333333"
"220039","288-VK","2017/06/03 14:09:10","新北市板橋區裕民街54號","121.461428333333","25.0286466666667"
"220009","293-UM","2017/06/03 14:09:08","新北市板橋區中山路二段256號","121.478826666667","25.018375"
"220032","296-UM","2017/06/03 14:09:19","新北市板橋區溪崑一街47巷7號","121.430556666667","24.9908066666667"
"220023","297-UM","2017/06/03 14:09:15","新北市板橋區大智街25巷8號","121.45485","25.0147516666667"
"220010","305-R5","2017/06/03 14:09:18","新北市板橋區三民路二段居仁巷20號","121.47981","25.01312"
"220041","307-R5","2017/06/03 14:09:22","新北市板橋區文化路二段225巷58號","121.46932","25.0284383333333"
"220047","317-R6","2017/06/03 14:09:20","新北市板橋區自由路51巷8號","121.465135","25.0235266666667"
"220028","461-BY","2017/06/03 14:09:20","新北市板橋區大觀路二段37巷302號","121.450325","25.00214"
"220038","487-VK","2017/06/03 14:09:14","新北市板橋區文化路二段419號","121.474671666667","25.0325966666667"
"220037","491-VK","2017/06/03 14:08:09","新北市板橋區莊敬路56號","121.472666666667","25.0269483333333"
"220104","560-BX","2017/06/03 14:09:14","新北市板橋區中正路413巷2弄2號","121.453955","25.0226333333333"
"220011","609-BX","2017/06/03 14:09:17","新北市板橋區三民路二段167號","121.479185","25.01453"
"220040","637-BX","2017/06/03 14:09:06","新北市板橋區縣民大道三段247巷14號","121.481773333333","25.0263166666667"
"220005","686-BX","2017/06/03 14:08:52","新北市板橋區重慶路183號","121.462801666667","25.00236"
"220025","687-BX","2017/06/03 14:09:20","新北市板橋區大觀路二段91號","121.44632","25.0019383333333"
"220042","689-BX","2017/06/03 14:09:19","新北市板橋區長江路二段41號","121.463923333333","25.0312683333333"
"220002","741-BX","2017/06/03 14:09:07","新北市板橋區重慶路89巷4號","121.46252","25.006445"
"220030","806-UM","2017/06/03 14:09:13","新北市板橋區溪崑二街63號","121.428095","24.9905133333333"
"220003","827-TW","2017/06/03 14:09:08","新北市板橋區中山路一段146號","121.463715","25.0110366666667"
"220014","829-TW","2017/06/03 14:09:18","新北市板橋區中山路二段90巷43弄7號","121.476633333333","25.0150533333333"
"220051","830-TW","2017/06/03 14:09:22","新北市板橋區田單街49巷1弄1號","121.482761666667","25.02839"
"220022","895-R6","2017/06/03 14:09:10","新北市板橋區林園街51號","121.453721666667","25.0100733333333"
"220021","985-R7","2017/06/03 14:09:13","新北市板橋區中正路187號","121.456358333333","25.0168183333333"
"220046","AAC-210","2017/06/03 14:09:04","新北市板橋區新海路135巷4號","121.459878333333","25.0229533333333"
"220018","AAC-253","2017/06/03 14:09:16","新北市板橋區四川路一段489號","121.457046666667","24.9972533333333"
