"lineid","car","time","location","longitude","latitude"
"231030","001-UM","2017/06/03 15:59:15","新北市新店區安和路三段33-1號","121.516861666667","24.9801983333333"
"231018","107-UY","2017/06/03 15:59:06","新北市新店區中正路663巷1弄2號","121.532921666667","24.9900333333333"
"231012","108-UY","2017/06/03 15:59:11","新北市新店區民族路243號","121.536451666667","24.9755416666667"
"231034","268-BY","2017/06/03 15:59:03","新北市新店區吉祥街5巷1號","121.497298333333","24.9477566666667"
"231046","278-BY","2017/06/03 15:59:18","新北市新店區安華路28-1號","121.51967","24.961465"
"231017","AAD-862","2017/06/03 15:59:01","新北市新店區中正路236號","121.539633333333","24.9730916666667"
"231037","4715-K9","2017/06/03 15:59:18","新北市新店區吉安街39號","121.515398333333","24.966245"
"231035","515-UM","2017/06/03 15:59:09","新北市新店區安民街269巷12號","121.51682","24.97325"
"231003","641-BX","2017/06/03 15:59:14","新北市新店區寶興路40號","121.548813333333","24.9739833333333"
"231013","719-UM","2017/06/03 15:59:04","新北市新店區永業路81巷3弄2號","121.529993333333","24.94924"
"231005","897-TW","2017/06/03 15:59:03","新北市新店區安華路30巷1號","121.519463333333","24.9596816666667"
"231038","AKT-0513","2017/06/03 15:59:02","新北市新店區安康路二段228巷15號","121.509516666667","24.959875"
"241011","013-R5","2017/06/03 15:59:08","新北市三重區文化北路224巷20號","121.497291666667","25.06877"
"241028","022-UY","2017/06/03 15:59:19","新北市三重區電信街90號","121.495741666667","25.058195"
"241008","059-VK","2017/06/03 15:59:07","新北市三重區重新路四段121號","121.484891666667","25.05196"
"241015","062-VK","2017/06/03 15:59:17","新北市三重區重新路四段121號","121.485133333333","25.0521083333333"
"241017","063-VK","2017/06/03 15:59:04","新北市三重區大仁街48巷28號","121.4908","25.06437"
"241024","065-VK","2017/06/03 15:59:03","新北市三重區名源街61巷17號","121.48088","25.0590516666667"
"241005","262-UM","2017/06/03 15:59:12","新北市三重區集賢路110號","121.491835","25.0895866666667"
"241016","266-UM","2017/06/03 15:59:12","新北市三重區重新路四段121號","121.484981666667","25.0519916666667"
"241022","267-UM","2017/06/03 15:59:04","新北市三重區中正北路176巷27號","121.482708333333","25.0660666666667"
"241018","268-UM","2017/06/03 15:59:17","新北市三重區大仁街20-1號","121.491601666667","25.0634733333333"
"241013","270-UM","2017/06/03 15:59:19","新北市三重區三和路三段18號","121.49693","25.0702666666667"
"241025","271-UM","2017/06/03 15:59:13","新北市三重區忠孝路三段52號","121.480698333333","25.0657116666667"
"241007","398-BY","2017/06/03 15:59:13","新北市三重區力行路二段90號","121.481988333333","25.074345"
"241020","412-TH","2017/06/03 15:59:17","新北市三重區忠孝路二段35號","121.485888333333","25.0710883333333"
"241004","475-VK","2017/06/03 15:59:19","新北市三重區泉州街96巷14號","121.495561666667","25.0540616666667"
"241014","543-UM","2017/06/03 15:59:08","新北市三重區重新路四段121號","121.4851","25.0521633333333"
"241023","545-UM","2017/06/03 15:59:15","新北市三重區中正北路178號","121.483295","25.0669166666667"
"241001","547-UM","2017/06/03 15:59:10","新北市三重區忠孝路三段56-1號","121.480528333333","25.0654216666667"
"241006","AAD-863","2017/06/03 15:59:05","新北市三重區力行路一段137號","121.485768333333","25.0684533333333"
"241026","887-TS","2017/06/03 15:59:00","新北市三重區光興街114號","121.495165","25.0595416666667"
"241012","941-UM","2017/06/03 15:59:10","新北市三重區正義北路105號","121.496956666667","25.0655183333333"
"241029","942-UM","2017/06/03 15:59:09","新北市三重區大同南路212巷15號","121.497288333333","25.0565866666667"
"241033","AAC-255","2017/06/03 15:59:18","新北市三重區重新路五段506號","121.473001666667","25.046775"
"235003","097-UM","2017/06/03 15:58:51","新北市八里區中山路三段409號","121.368768333333","25.1340383333333"
"235015","376-QA","2017/06/03 15:59:22","新北市中和區員山路36巷12號","121.483971666667","24.990575"
"235026","800-TS","2017/06/03 15:59:06","新北市中和區永和路171巷1弄1號","121.492338333333","25.0069483333333"
"247001","402-BY","2017/06/03 15:59:19","新北市八里區中山路三段382號","121.3687","25.13584"
"223003","205-TH","2017/06/03 09:49:17","新北市石碇區小粗坑(潭邊里)9-2號","121.678605","24.9858083333333"
"224007","273-VK","2017/06/03 15:59:02","新北市瑞芳區楓子瀨路70號","121.767403333333","25.0992533333333"
"224005","271-BY","2017/06/03 10:00:21","新北市瑞芳區大寮路356-1號","121.78463","25.1035516666667"
"227002","642-TC","2017/06/03 15:59:17","新北市雙溪區平林里外平林61號","121.844891666667","25.034885"
"227010","400-TW","2017/06/03 15:59:06","新北市雙溪區三港里雙澳路26號","121.869491666667","25.0483066666667"
"253004","8270-PC","2017/06/03 15:59:03","新北市石門區中山路62-7號","121.567435","25.2902533333333"
"251008","181-VK","2017/06/03 15:59:12","新北市淡水區中正東路36-1號","121.448843333333","25.165725"
"252005","073-UM","2017/06/03 15:56:51","新北市三芝區埔坪里埔頭坑41號","121.504545","25.2644483333333"
"252007","AAC-283","2017/06/03 00:12:36","新北市三芝區埔坪里埔頭坑41號","121.504446666667","25.2645116666667"
"236068","105-UM","2017/06/03 15:59:07","新北市土城區民權街8號","121.415495","24.9630966666667"
"236075","166-UM","2017/06/03 15:59:06","新北市土城區中山路11-1號","121.41533","24.9617333333333"
"236017","401-BY","2017/06/03 15:59:15","新北市土城區延吉街21巷1號","121.47241","24.9885016666667"
"236057","912-UM","2017/06/03 15:59:09","新北市土城區中央路二段223號","121.440778333333","24.9737016666667"
"236054","AAC-216","2017/06/03 15:59:15","新北市土城區中華路二段80號","121.438733333333","24.9758216666667"
"221032","280-BY","2017/06/03 15:07:34","新北市汐止區汐萬路一段256巷1號","121.651985","25.0748583333333"
"220073","985-R7","2017/06/03 15:14:21","新北市板橋區華東街1-10號","121.448346666667","24.9949733333333"
