"lineid","car","time","location","longitude","latitude","cityid","cityname"
"234026","9381-KE","2017/11/18 17:49:37","新北市永和區中山路一段102號","121.511216666667","25.0105233333333","6500400","永和區"
"249005","172-UM","2017/11/18 17:49:29","新北市八里區荖阡坑路27號","121.401931666667","25.1359983333333","6502300","八里區"
"249001","173-UM","2017/11/18 17:49:25","新北市八里區龍米路二段129巷1號","121.445903333333","25.14672","6502300","八里區"
"249004","303-UY","2017/11/18 17:49:40","新北市八里區中華路一段81巷18號","121.419566666667","25.1555466666667","6502300","八里區"
"249002","305-UY","2017/11/18 17:49:35","新北市八里區龍形三街26號","121.448096666667","25.1319266666667","6502300","八里區"
"249003","593-UM","2017/11/18 17:49:34","新北市八里區中山路二段125號","121.405438333333","25.151785","6502300","八里區"
"248016","026-BX","2017/11/18 17:49:40","新北市五股區中興路二段83巷26-6號","121.459998333333","25.0752566666667","6501500","五股區"
"248006","077-UY","2017/11/18 17:49:30","新北市五股區中興路二段37巷28號","121.460148333333","25.075","6501500","五股區"
"232011","375-UM","2017/11/18 17:49:25","新北市坪林區北宜路八段120號","121.706221666667","24.9346916666667","6502000","坪林區"
"244013","069-UM","2017/11/18 17:49:35","新北市林口區中正路491號","121.383618333333","25.0777183333333","6501700","林口區"
"244007","080-UY","2017/11/18 17:49:35","新北市林口區竹林路265號","121.38945","25.0808433333333","6501700","林口區"
"244019","403-UM","2017/11/18 17:49:26","新北市林口區文化一路一段83巷14弄58號","121.372528333333","25.072075","6501700","林口區"
"244025","742-UY","2017/11/18 17:49:35","新北市林口區忠孝三路42號","121.360163333333","25.0700183333333","6501700","林口區"
"244023","483-VK","2017/11/18 17:49:40","新北市林口區東湖路62號","121.387425","25.0740616666667","6501700","林口區"
"244017","485-VK","2017/11/18 17:49:23","新北市林口區忠孝路377號","121.369318333333","25.0715883333333","6501700","林口區"
"244009","656-BX","2017/11/18 17:49:32","新北市林口區民享路230號","121.382971666667","25.084985","6501700","林口區"
"244021","838-TS","2017/11/18 17:49:33","新北市林口區仁愛路一段165號","121.39836","25.0727383333333","6501700","林口區"
"222003","436-BY","2017/11/18 17:49:31","新北市深坑區阿柔洋60-1號","121.60861","24.99854","6501800","深坑區"
"222002","659-BX","2017/11/18 17:49:34","新北市深坑區平埔街22巷17弄1號","121.614858333333","25.0008","6501800","深坑區"
"231046","278-BY","2017/11/18 17:49:41","新北市新店區下石厝路11-5號","121.531198333333","24.92903","6500600","新店區"
"241024","065-VK","2017/11/18 17:49:42","新北市三重區國道路一段39巷7號","121.483795","25.0730133333333","6500200","三重區"
"241016","266-UM","2017/11/18 17:49:26","新北市三重區新北大道一段7號","121.489798333333","25.0615133333333","6500200","三重區"
"241033","AAC-255","2017/11/18 17:49:31","新北市三重區重新路五段523號","121.471285","25.04628","6500200","三重區"
"235065","098-UM","2017/11/18 17:49:35","新北市中和區員山路36巷16-3號","121.485175","24.9911266666667","6500300","中和區"
"235067","255-BX","2017/11/18 17:49:40","新北市中和區和城路一段271巷1號","121.485738333333","24.9918516666667","6500300","中和區"
"235061","378-QA","2017/11/18 15:23:50","新北市中和區員山路36巷13號","121.48447","24.9911783333333","6500300","中和區"
"235062","800-TS","2017/11/18 17:49:21","新北市中和區員山路36巷16-3號","121.484843333333","24.9913966666667","6500300","中和區"
"235064","911-UM","2017/11/18 15:50:01","新北市中和區員山路36巷16-3號","121.485","24.9912733333333","6500300","中和區"
"247022","893-R6","2017/11/18 17:49:22","新北市蘆洲區中正路377號","121.464615","25.090665","6501400","蘆洲區"
"247012","546-UM","2017/11/18 17:49:41","新北市蘆洲區復興路21號","121.475633333333","25.0869566666667","6501400","蘆洲區"
"247020","500-BY","2017/11/18 17:49:37","新北市蘆洲區民權路190-6號","121.471996666667","25.091025","6501400","蘆洲區"
"247010","339-TH","2017/11/18 17:49:31","新北市蘆洲區信義路214號","121.479021666667","25.0850066666667","6501400","蘆洲區"
"247002","337-TH","2017/11/18 17:49:22","新北市蘆洲區永平街32巷21弄31號","121.458093333333","25.0921333333333","6501400","蘆洲區"
"247004","335-TH","2017/11/18 17:49:29","新北市蘆洲區永康街75號","121.455788333333","25.0852316666667","6501400","蘆洲區"
"247016","057-VK","2017/11/18 17:49:25","新北市蘆洲區中正路185巷23弄26號","121.467521666667","25.0839183333333","6501400","蘆洲區"
"247006","056-VK","2017/11/18 17:49:29","新北市蘆洲區九芎街113號","121.465655","25.0794983333333","6501400","蘆洲區"
"247008","053-VK","2017/11/18 17:49:39","新北市蘆洲區成功路40號","121.473253333333","25.079485","6501400","蘆洲區"
"247014","007-UY","2017/11/18 17:49:24","新北市蘆洲區保和街45號","121.470113333333","25.0863433333333","6501400","蘆洲區"
"247024","002-UY","2017/11/18 17:49:30","新北市蘆洲區長樂路120巷2號","121.462275","25.089725","6501400","蘆洲區"
"247018","001-UY","2017/11/18 17:49:35","新北市蘆洲區復興路227巷2弄2號","121.48002","25.0899783333333","6501400","蘆洲區"
"228003","097-TW","2017/11/18 17:49:37","新北市貢寮區真理里美艷山街6-2號","121.92892","25.060715","6502600","貢寮區"
"228001","212-TW","2017/11/18 17:49:29","新北市貢寮區仁理村仁愛路95-1號","121.927718333333","25.0554633333333","6502600","貢寮區"
"228002","585-TW","2017/11/18 17:49:41","新北市貢寮區福隆里龜壽谷街11-1號","121.954668333333","25.00685","6502600","貢寮區"
"224006","676-BX","2017/11/18 17:49:41","新北市瑞芳區傑魚坑路266-1號","121.788628333333","25.108525","6501200","瑞芳區"
"224002","639-TC","2017/11/18 17:49:31","新北市瑞芳區明燈路二段48-1號","121.80942","25.108085","6501200","瑞芳區"
"224009","285-BY","2017/11/18 17:49:27","新北市瑞芳區新山路14號","121.85238","25.1102616666667","6501200","瑞芳區"
"224008","275-VK","2017/11/18 17:49:37","新北市瑞芳區明燈路一段186號","121.818488333333","25.1080916666667","6501200","瑞芳區"
"224005","271-BY","2017/11/18 17:49:31","新北市瑞芳區建基路一段54號","121.817455","25.1273316666667","6501200","瑞芳區"
"253006","295-VK","2017/11/18 17:49:32","新北市石門區中山路64-1號","121.567273333333","25.2906133333333","6502200","石門區"
"222001","KEA-2212","2017/11/18 17:49:27","新北市深坑區文山路三段110號","121.608676666667","24.9994866666667","6501800","深坑區"
"208002","742-BX","2017/11/18 17:49:35","新北市金山區磺清路135號","121.639318333333","25.2277066666667","6502700","金山區"
"208003","665-BX","2017/11/18 17:49:39","新北市金山區磺清路135號","121.639275","25.227635","6502700","金山區"
"251009","008-UM","2017/11/18 17:49:31","新北市淡水區長興街8號","121.44386","25.1707283333333","6501000","淡水區"
"251004","009-UM","2017/11/18 17:49:39","新北市淡水區民權一街17巷15號","121.459361666667","25.136615","6501000","淡水區"
"251005","010-UM","2017/11/18 17:49:40","新北市淡水區學府路102巷1號","121.450461666667","25.172","6501000","淡水區"
"251014","180-VK","2017/11/18 17:49:25","新北市淡水區公埔子16-6號","121.481018333333","25.2245583333333","6501000","淡水區"
"251008","181-VK","2017/11/18 17:49:24","新北市淡水區八勢路一段123巷5弄3號","121.466615","25.15651","6501000","淡水區"
"251010","413-VK","2017/11/18 17:49:26","新北市淡水區中正路二段96號","121.417461666667","25.1859933333333","6501000","淡水區"
"251012","441-VK","2017/11/18 17:49:38","新北市淡水區北新路一段339號","121.466591666667","25.182255","6501000","淡水區"
"251016","442-VK","2017/11/18 17:49:31","新北市淡水區埤島39-15號","121.452795","25.1959033333333","6501000","淡水區"
"251001","559-UM","2017/11/18 17:49:33","新北市淡水區民權路92巷35-1號","121.462223333333","25.1266916666667","6501000","淡水區"
"251006","561-UM","2017/11/18 17:49:25","新北市淡水區大信街1巷2號","121.440961666667","25.176785","6501000","淡水區"
"251011","650-BX","2017/11/18 17:44:23","新北市淡水區吳(仔)厝65號","121.48306","25.1506566666667","6501000","淡水區"
"251002","672-BX","2017/11/18 17:49:41","新北市淡水區中山路66號","121.443663333333","25.170655","6501000","淡水區"
"251003","673-BX","2017/11/18 17:49:38","新北市淡水區大忠街47號","121.44469","25.1764416666667","6501000","淡水區"
"207003","550-UM","2017/11/18 17:49:41","新北市萬里區野柳里東澳路66號","121.692661666667","25.2009116666667","6502800","萬里區"
"207004","225-TW","2017/11/18 17:49:29","新北市萬里區萬里里瑪鋉頂街61號","121.688386666667","25.1804433333333","6502800","萬里區"
"252002","178-VK","2017/11/18 17:49:41","新北市三芝區智成街33號","121.503791666667","25.2565483333333","6502100","三芝區"
"252001","292-VK","2017/11/18 17:49:35","新北市三芝區中興街一段12號","121.497455","25.2592683333333","6502100","三芝區"
"237004","078-UY","2017/11/18 17:49:31","新北市三峽區民權街151-1號","121.36859","24.9316083333333","6500900","三峽區"
"237007","153-BY","2017/11/18 17:49:29","新北市三峽區中正路二段3號","121.367371666667","24.9195866666667","6500900","三峽區"
"237009","210-TH","2017/11/18 17:49:22","新北市三峽區大勇路3巷28號","121.36772","24.9368116666667","6500900","三峽區"
"237013","252-BX","2017/11/18 17:49:39","新北市三峽區愛國路16巷11號","121.373646666667","24.9332966666667","6500900","三峽區"
"237012","275-BY","2017/11/18 17:49:35","新北市三峽區文化路29號","121.373018333333","24.9360933333333","6500900","三峽區"
"237008","302-VK","2017/11/18 17:49:40","新北市三峽區中園街237-1號","121.366776666667","24.9194133333333","6500900","三峽區"
"237014","433-BY","2017/11/18 17:49:34","新北市三峽區文化路120巷19號","121.370986666667","24.936805","6500900","三峽區"
"237006","5529-G3","2017/11/18 17:49:29","新北市三峽區介壽路二段136巷106弄2號","121.3919","24.9333183333333","6500900","三峽區"
"237011","572-TV","2017/11/18 17:49:27","新北市三峽區中正路一段47號","121.375608333333","24.93048","6500900","三峽區"
"237016","649-BX","2017/11/18 17:49:27","新北市三峽區白雞149-2號","121.40016","24.9055566666667","6500900","三峽區"
"237005","AKY-6261","2017/11/18 17:49:27","新北市三峽區中山路459巷92號","121.354473333333","24.9359683333333","6500900","三峽區"
"236073","105-UM","2017/11/18 17:49:36","新北市土城區明德路一段398號","121.453181666667","24.9794616666667","6501300","土城區"
"236043","107-UM","2017/11/18 17:49:29","新北市土城區城林路6巷80號","121.438513333333","24.9797283333333","6501300","土城區"
"236079","166-UM","2017/11/18 17:49:30","新北市土城區中央路三段191號","121.430833333333","24.9648916666667","6501300","土城區"
"236027","269-VK","2017/11/18 17:49:25","新北市土城區承天路1號","121.435856666667","24.966575","6501300","土城區"
"236015","270-VK","2017/11/18 17:49:36","新北市土城區城林路6巷80號","121.438516666667","24.9796516666667","6501300","土城區"
"236038","271-VK","2017/11/18 17:49:31","新北市土城區城林路6巷80號","121.438445","24.9797266666667","6501300","土城區"
"236023","401-BY","2017/11/18 17:49:28","新北市土城區城林路6巷80號","121.438601666667","24.97975","6501300","土城區"
"236031","752-BX","2017/11/18 17:49:37","新北市土城區城林路6巷80號","121.438483333333","24.9796216666667","6501300","土城區"
"236059","912-UM","2017/11/18 17:49:23","新北市土城區城林路6巷80號","121.438396666667","24.9797516666667","6501300","土城區"
"236063","915-UM","2017/11/18 17:49:29","新北市土城區城林路6巷80號","121.438526666667","24.9796283333333","6501300","土城區"
"236055","AAC-216","2017/11/18 17:49:30","新北市土城區城林路6巷80號","121.438535","24.979705","6501300","土城區"
"242031","AAC-296","2017/11/18 17:49:38","新北市新莊區新泰路321巷37號","121.443026666667","25.0411733333333","6500500","新莊區"
"242029","986-R7","2017/11/18 17:49:29","新北市新莊區復興路一段93號","121.448771666667","25.042865","6500500","新莊區"
"242051","751-BX","2017/11/18 17:49:28","新北市新莊區西盛街311巷12號","121.428865","25.0151166666667","6500500","新莊區"
"242027","705-TV","2017/11/18 17:49:36","新北市新莊區福壽街171號","121.458026666667","25.0538166666667","6500500","新莊區"
"242025","615-BX","2017/11/18 17:49:40","新北市三重區光復路二段168-2號","121.471626666667","25.0612833333333","6500500","新莊區"
"242023","613-BX","2017/11/18 17:49:32","新北市新莊區福樂街46號","121.457773333333","25.045735","6500500","新莊區"
"242044","497-BY","2017/11/18 17:49:34","新北市新莊區中正路857號","121.419615","25.0278683333333","6500500","新莊區"
"242039","442-UM","2017/11/18 17:49:37","新北市新莊區民安路179號","121.425828333333","25.0230916666667","6500500","新莊區"
"242048","441-UM","2017/11/18 17:49:32","新北市新莊區萬安街102巷14號","121.420375","25.0228683333333","6500500","新莊區"
"242053","440-UM","2017/11/18 17:49:33","新北市新莊區民安西路468-1號","121.431756666667","25.00797","6500500","新莊區"
"242034","415-TV","2017/11/18 17:49:38","新北市新莊區新莊路801號","121.440826666667","25.032645","6500500","新莊區"
"242004","413-TV","2017/11/18 17:49:33","新北市新莊區自立街257號","121.45912","25.0456216666667","6500500","新莊區"
"242042","400-BY","2017/11/18 17:49:30","新北市新莊區中正路612-1號","121.426146666667","25.0302266666667","6500500","新莊區"
"242061","362-BY","2017/11/18 17:49:30","新北市新莊區新樹路294號","121.432746666667","25.007","6500500","新莊區"
"242058","353-BY","2017/11/18 17:49:37","新北市新莊區中正路726-5號","121.415811666667","25.0241733333333","6500500","新莊區"
"242007","132-UY","2017/11/18 17:49:42","新北市新莊區福樂街73號","121.456818333333","25.047805","6500500","新莊區"
"242036","133-UY","2017/11/18 17:49:31","新北市新莊區後港一路87號","121.42758","25.0267533333333","6500500","新莊區"
"242021","135-UY","2017/11/18 17:49:43","新北市新莊區中港路141號","121.455155","25.0406533333333","6500500","新莊區"
"242046","172-VK","2017/11/18 17:49:39","新北市新莊區建國一路29號","121.434118333333","25.0312683333333","6500500","新莊區"
"242009","173-VK","2017/11/18 17:49:25","新北市新莊區昌明街30巷3弄2號","121.456625","25.0526616666667","6500500","新莊區"
"242015","175-VK","2017/11/18 17:49:36","新北市新莊區新泰路440號","121.443306666667","25.0447016666667","6500500","新莊區"
"242002","176-VK","2017/11/18 17:49:40","新北市新莊區新莊路214巷9號","121.452441666667","25.0350583333333","6500500","新莊區"
"242001","233-RS","2017/11/18 08:32:31","新北市新莊區環河路48-7號","121.436921666667","25.009785","6500500","新莊區"
"242013","346-TH","2017/11/18 17:49:35","新北市新莊區中誠街168號","121.448116666667","25.0474316666667","6500500","新莊區"
"242017","347-TH","2017/11/18 17:49:40","新北市新莊區永安街74號","121.450895","25.0446816666667","6500500","新莊區"
"242019","348-TH","2017/11/18 17:49:26","新北市新莊區復興路二段9號","121.453605","25.0439433333333","6500500","新莊區"
"242056","349-TH","2017/11/18 17:49:30","新北市新莊區瓊林路38巷39號","121.446573333333","25.03042","6500500","新莊區"
"242011","351-TH","2017/11/18 17:49:39","新北市新莊區中港路728號","121.450531666667","25.0577016666667","6500500","新莊區"
"238015","755-BX","2017/11/18 17:49:31","新北市樹林區大安路249巷7號","121.419898333333","24.994155","6500700","樹林區"
"238023","601-UM","2017/11/18 17:49:32","新北市樹林區福興街13巷7號","121.404256666667","25.01676","6500700","樹林區"
"238019","599-UM","2017/11/18 17:49:32","新北市樹林區太平路148號","121.418548333333","24.9781333333333","6500700","樹林區"
"238018","571-TV","2017/11/18 17:49:39","新北市樹林區博愛街39-3號","121.427261666667","24.9923083333333","6500700","樹林區"
"238021","KEA-2217","2017/11/18 17:49:36","新北市樹林區柑園街一段172號","121.396288333333","24.956695","6500700","樹林區"
"238022","KEA-2213","2017/11/18 17:49:34","新北市樹林區太順街47-1號","121.418023333333","24.979275","6500700","樹林區"
"238025","303-VK","2017/11/18 17:49:28","新北市樹林區三俊街43號","121.412616666667","25.01563","6500700","樹林區"
"238017","283-BY","2017/11/18 17:49:28","新北市樹林區三德街30巷22號","121.414653333333","25.0124133333333","6500700","樹林區"
"238014","282-BY","2017/11/18 17:49:35","新北市樹林區保安街一段293號","121.417973333333","24.9972116666667","6500700","樹林區"
"238020","268-VK","2017/11/18 17:49:35","新北市樹林區三俊街213-1號","121.420721666667","25.0153466666667","6500700","樹林區"
"238026","172-UY","2017/11/18 17:49:27","新北市樹林區中洲街51巷2號","121.396801666667","24.9711316666667","6500700","樹林區"
"238016","169-UY","2017/11/18 17:49:37","新北市樹林區復興路246號","121.418481666667","24.9892133333333","6500700","樹林區"
"239007","AAC-297","2017/11/18 17:49:35","新北市鶯歌區鶯桃路98號","121.339236666667","24.9539583333333","6500800","鶯歌區"
"239006","891-R6","2017/11/18 17:49:29","新北市鶯歌區鶯桃路413巷72號","121.329826666667","24.9630266666667","6500800","鶯歌區"
"239008","527-UM","2017/11/18 17:49:41","新北市鶯歌區香賓街13巷1號","121.336878333333","24.979775","6500800","鶯歌區"
"239005","526-UM","2017/11/18 17:49:38","桃園市八德區桃鶯路48號","121.327048333333","24.9711","6500800","鶯歌區"
"239001","417-VK","2017/11/18 17:49:41","新北市鶯歌區中正三路307號","121.329055","24.936005","6500800","鶯歌區"
"239003","360-BY","2017/11/18 17:49:39","新北市鶯歌區永吉街7巷1號","121.336775","24.95867","6500800","鶯歌區"
"239002","359-BY","2017/11/18 17:49:28","新北市鶯歌區國華路56號","121.342813333333","24.9553083333333","6500800","鶯歌區"
"239004","193-VK","2017/11/18 17:49:20","新北市鶯歌區尖山路101巷8號","121.346498333333","24.9438066666667","6500800","鶯歌區"
"221008","489-VK","2017/11/18 17:49:44","新北市汐止區康寧街901號","121.651286666667","25.07504","6501100","汐止區"
"221036","130-UY","2017/11/18 17:49:29","新北市汐止區汐萬路一段39-3號","121.654776666667","25.069755","6501100","汐止區"
"221010","269-BY","2017/11/18 17:49:35","新北市汐止區汐萬路二段62巷1號","121.649363333333","25.082285","6501100","汐止區"
"221012","276-VK","2017/11/18 13:28:23","新北市汐止區汐萬路一段256巷3號","121.653478333333","25.0746666666667","6501100","汐止區"
"221015","277-VK","2017/11/18 17:49:25","新北市汐止區長江街249-1號","121.662828333333","25.07934","6501100","汐止區"
"221012","278-VK","2017/11/18 17:49:27","新北市汐止區長江街101號","121.658605","25.0729883333333","6501100","汐止區"
"221023","279-VK","2017/11/18 17:49:34","新北市汐止區民族二街21巷1號","121.634493333333","25.0702883333333","6501100","汐止區"
"221032","280-BY","2017/11/18 17:49:40","新北市汐止區大同路一段5號","121.621948333333","25.0549433333333","6501100","汐止區"
"221027","281-BY","2017/11/18 17:49:35","新北市汐止區汐萬路一段312號","121.650435","25.07527","6501100","汐止區"
"221029","298-VK","2017/11/18 17:49:25","新北市汐止區康寧街901號","121.651603333333","25.0748883333333","6501100","汐止區"
"221021","299-VK","2017/11/18 17:49:23","新北市汐止區水源路一段18號","121.657165","25.0666383333333","6501100","汐止區"
"221031","353-TW","2017/11/18 17:49:38","新北市汐止區康寧街861巷1號","121.645511666667","25.07593","6501100","汐止區"
"221035","622-UM","2017/11/18 17:49:27","新北市汐止區汐萬路一段188號","121.652165","25.0721133333333","6501100","汐止區"
"221025","623-UM","2017/11/18 17:49:29","新北市汐止區新台五路一段131號","121.652313333333","25.0621116666667","6501100","汐止區"
"221038","646-BX","2017/11/18 17:49:20","新北市汐止區汐萬路一段312號","121.650576666667","25.075385","6501100","汐止區"
"221033","647-BX","2017/11/18 17:49:28","新北市汐止區林森街78號","121.624191666667","25.0406916666667","6501100","汐止區"
"221002","707-TV","2017/11/18 17:49:27","新北市汐止區康寧街901號","121.651458333333","25.0749816666667","6501100","汐止區"
"221018","753-BX","2017/11/18 17:49:22","新北市汐止區忠孝東路382巷1弄1號","121.665655","25.069755","6501100","汐止區"
"220004","276-BY","2017/11/18 16:09:07","新北市板橋區華東街1-9號","121.448125","24.9949516666667","6500100","板橋區"
