"lineid","car","time","location","longitude","latitude","cityid","cityname"
"234046","148-BY","2017/11/18 18:39:38","新北市永和區秀朗路二段66巷1號","121.522621666667","25.0015033333333","6500400","永和區"
"234013","149-BY","2017/11/18 18:39:21","新北市永和區保福路二段105號","121.51019","25.0133183333333","6500400","永和區"
"234007","207-UY","2017/11/18 18:39:31","新北市永和區文化路170號","121.511761666667","25.0155066666667","6500400","永和區"
"234038","336-UY","2017/11/18 18:39:24","新北市永和區福和路1號","121.526463333333","25.0100383333333","6500400","永和區"
"234086","338-UY","2017/11/18 18:39:21","新北市中和區安平路116號","121.511736666667","24.9975966666667","6500400","永和區"
"234070","552-UM","2017/11/18 18:39:26","新北市永和區福和路1號","121.525521666667","25.0093016666667","6500400","永和區"
"234054","553-UM","2017/11/18 18:39:32","新北市永和區福和路1號","121.525843333333","25.0096566666667","6500400","永和區"
"234017","745-BX","2017/11/18 18:39:29","新北市永和區福和路1號","121.525635","25.0093883333333","6500400","永和區"
"234030","746-BX","2017/11/18 18:39:26","新北市永和區得和路382-1號","121.524885","24.9993116666667","6500400","永和區"
"234061","AAD-866","2017/11/18 18:39:42","新北市永和區福和路27號","121.523938333333","25.0082816666667","6500400","永和區"
"234081","847-RS","2017/11/18 18:39:39","新北市永和區林森路85號","121.52377","25.00384","6500400","永和區"
"234042","862-TW","2017/11/18 18:39:38","新北市永和區永貞路302號","121.51203","25.004715","6500400","永和區"
"234050","863-TW","2017/11/18 18:39:39","新北市永和區保安路2號","121.51087","25.0174283333333","6500400","永和區"
"234011","9373-KE","2017/11/18 18:39:22","新北市永和區文化路9巷22弄48號","121.514068333333","25.0145316666667","6500400","永和區"
"249005","172-UM","2017/11/18 18:39:29","新北市八里區中華路三段34-2號","121.388763333333","25.1254466666667","6502300","八里區"
"249001","173-UM","2017/11/18 18:39:25","新北市八里區龍米路一段398號","121.45139","25.1328916666667","6502300","八里區"
"249004","303-UY","2017/11/18 18:39:40","新北市八里區忠六街1號","121.422526666667","25.1590016666667","6502300","八里區"
"249002","305-UY","2017/11/18 18:39:35","新北市八里區龍形一街33巷1-6號","121.449373333333","25.129455","6502300","八里區"
"248014","025-BX","2017/11/18 18:39:42","新北市五股區蓬萊路32號","121.434308333333","25.079775","6501500","五股區"
"248016","026-BX","2017/11/18 18:39:40","新北市五股區凌雲路一段149巷7號","121.448911666667","25.1016333333333","6501500","五股區"
"248008","095-VK","2017/11/18 18:39:35","新北市五股區中興路一段148號","121.464645","25.07404","6501500","五股區"
"248020","225-UY","2017/11/18 18:39:22","新北市五股區孝義路94號","121.44677","25.1191816666667","6501500","五股區"
"248012","247-BX","2017/11/18 18:39:43","新北市五股區成泰路三段43-7號","121.442501666667","25.0890683333333","6501500","五股區"
"248010","272-BY","2017/11/18 18:39:26","新北市五股區水碓三路120號","121.431733333333","25.0735933333333","6501500","五股區"
"248004","677-BX","2017/11/18 18:39:35","新北市五股區六合街19號","121.431133333333","25.088605","6501500","五股區"
"248002","678-BX","2017/11/18 18:39:31","新北市五股區西雲路207號","121.448635","25.0965683333333","6501500","五股區"
"234023","9380-KE","2017/11/18 18:39:31","新北市永和區福和路76巷5弄14號","121.522281666667","25.0083566666667","6500400","永和區"
"234077","969-R7","2017/11/18 18:39:24","新北市永和區中正路370號","121.517626666667","25.00083","6500400","永和區"
"234074","AAC-211","2017/11/18 18:39:37","新北市永和區福和路1號","121.526593333333","25.0098266666667","6500400","永和區"
"234003","AAC-295","2017/11/18 18:39:28","新北市永和區福和路1號","121.526513333333","25.00996","6500400","永和區"
"232011","375-UM","2017/11/18 18:20:21","新北市坪林區坪雙路一段43號","121.711735","24.942435","6502000","坪林區"
"244013","069-UM","2017/11/18 18:39:35","新北市林口區中正路512號","121.381765","25.0771166666667","6501700","林口區"
"244007","080-UY","2017/11/18 18:39:35","新北市林口區後坑20號","121.354471666667","25.1278616666667","6501700","林口區"
"244019","403-UM","2017/11/18 18:39:26","新北市林口區忠孝路568巷18號","121.374596666667","25.0674466666667","6501700","林口區"
"244025","742-UY","2017/11/18 18:39:24","新北市林口區南勢街350號","121.357495","25.0773383333333","6501700","林口區"
"244023","483-VK","2017/11/18 18:39:40","新北市林口區民享路70號","121.380855","25.0810366666667","6501700","林口區"
"244017","485-VK","2017/11/18 18:39:42","新北市林口區文化二路一段98號","121.366815","25.070075","6501700","林口區"
"244009","656-BX","2017/11/18 18:39:33","新北市林口區民生路102-1號","121.377141666667","25.0879666666667","6501700","林口區"
"244021","838-TS","2017/11/18 18:39:33","新北市林口區自強三街23號","121.398063333333","25.0774883333333","6501700","林口區"
"243015","380-SR","2017/11/18 11:50:44","新北市泰山區黎明路25號","121.422181666667","25.0606433333333","6501600","泰山區"
"222003","436-BY","2017/11/18 18:39:31","新北市深坑區翠谷街29號","121.626663333333","25.0090183333333","6501800","深坑區"
"222002","659-BX","2017/11/18 18:39:34","新北市深坑區文山路一段62巷3號","121.622783333333","25.0008666666667","6501800","深坑區"
"231041","002-UM","2017/11/18 18:39:43","新北市新店區安華路28-1號","121.519763333333","24.9608283333333","6500600","新店區"
"231059","046-UY","2017/11/18 18:39:23","新北市新店區安華路28-1號","121.519546666667","24.9608533333333","6500600","新店區"
"231061","047-UY","2017/11/18 18:39:41","新北市新店區安華路28-1號","121.519266666667","24.96096","6500600","新店區"
"231060","106-UY","2017/11/18 18:39:38","新北市新店區安華路28-1號","121.519746666667","24.9608616666667","6500600","新店區"
"231048","108-UY","2017/11/18 18:39:23","新北市新店區安康路一段79巷3號","121.529958333333","24.961175","6500600","新店區"
"231052","187-VK","2017/11/18 18:39:31","新北市新店區永興路15號","121.544228333333","24.9393383333333","6500600","新店區"
"231050","KEA-2219","2017/11/18 18:39:30","新北市新店區安華路28-1號","121.519785","24.9612966666667","6500600","新店區"
"231057","256-BX","2017/11/18 18:39:24","新北市新店區新烏路一段140-1號","121.546541666667","24.93223","6500600","新店區"
"231046","278-BY","2017/11/18 18:39:20","新北市新店區直潭二街1號","121.535551666667","24.9431566666667","6500600","新店區"
"231054","AAD-862","2017/11/18 18:39:34","新北市新店區安華路28-1號","121.519911666667","24.9612066666667","6500600","新店區"
"231044","355-BY","2017/11/18 18:39:19","新北市新店區安康路一段61號","121.53051","24.9609816666667","6500600","新店區"
"231058","3712-VJ","2017/11/18 18:39:36","新北市新店區能仁街16號","121.540623333333","24.955455","6500600","新店區"
"231056","3713-VJ","2017/11/18 18:39:28","新北市新店區大豐路95號","121.538158333333","24.9789","6500600","新店區"
"231055","4716-K9","2017/11/18 18:39:41","新北市新店區華興街42號","121.536983333333","24.96921","6500600","新店區"
"231067","4772-VM","2017/11/18 18:39:33","新北市新店區安華路28-1號","121.519565","24.9609266666667","6500600","新店區"
"231065","512-UM","2017/11/18 18:39:37","新北市新店區安華路28-1號","121.519356666667","24.9611633333333","6500600","新店區"
"231064","515-UM","2017/11/18 16:43:51","新北市新店區安華路28-1號","121.519656666667","24.96119","6500600","新店區"
"231042","616-UM","2017/11/18 18:39:35","新北市新店區安華路28-1號","121.51966","24.96076","6500600","新店區"
"231045","617-UM","2017/11/18 18:39:37","新北市新店區安華路28-1號","121.519531666667","24.96083","6500600","新店區"
"231040","619-UM","2017/11/18 18:39:24","新北市新店區安華路28-1號","121.519498333333","24.960745","6500600","新店區"
"231063","645-TV","2017/11/18 18:39:37","新北市新店區安華路28-1號","121.519216666667","24.9606133333333","6500600","新店區"
"231049","719-UM","2017/11/18 18:39:26","新北市新店區秀山路66號","121.530845","24.96095","6500600","新店區"
"231051","719-UY","2017/11/18 18:39:40","新北市新店區中央路75號","121.532456666667","24.976745","6500600","新店區"
"231062","720-UM","2017/11/18 18:39:33","新北市新店區安華路28-1號","121.519226666667","24.961295","6500600","新店區"
"231043","899-TW","2017/11/18 18:39:35","新北市新店區安華路28-1號","121.519108333333","24.9608933333333","6500600","新店區"
"231066","AKT-0513","2017/11/18 18:39:41","新北市新店區安華路1-1號","121.519451666667","24.96037","6500600","新店區"
"241035","462-BY","2017/11/18 18:39:24","新北市三重區重新路四段121號","121.484693333333","25.05202","6500200","三重區"
"235066","003-UY","2017/11/18 18:39:38","新北市中和區水源路34巷1號","121.504898333333","25.003555","6500300","中和區"
"235063","006-UY","2017/11/18 18:39:26","新北市中和區連城路347巷4弄3號","121.488153333333","24.9955","6500300","中和區"
"235056","096-UM","2017/11/18 18:39:39","新北市中和區員山路611巷5弄1號","121.477878333333","25.0111233333333","6500300","中和區"
"235039","097-UM","2017/11/18 18:39:32","新北市中和區安樂路243巷9-3號","121.513901666667","24.999615","6500300","中和區"
"235065","098-UM","2017/11/18 18:39:35","新北市中和區莊敬路49巷27號","121.501481666667","25.006","6500300","中和區"
"235040","150-BY","2017/11/18 18:39:28","新北市中和區宜安路41號","121.511848333333","24.996405","6500300","中和區"
"235058","151-BY","2017/11/18 18:39:31","新北市中和區圓通路369巷30弄16號","121.489626666667","24.9851266666667","6500300","中和區"
"235055","183-VK","2017/11/18 18:39:37","新北市中和區民生街2號","121.471051666667","25.00652","6500300","中和區"
"235038","185-VK","2017/11/18 18:39:29","新北市中和區自強路8巷1弄2號","121.519751666667","24.9959616666667","6500300","中和區"
"235049","186-VK","2017/11/18 18:39:34","新北市中和區景平路480號","121.50509","24.9936816666667","6500300","中和區"
"235067","255-BX","2017/11/18 18:39:20","新北市中和區新生街2號","121.483108333333","25.004705","6500300","中和區"
"235044","293-VK","2017/11/18 18:39:32","新北市中和區復興路280巷7號","121.50219","24.99109","6500300","中和區"
"235072","301-VK","2017/11/18 18:39:23","新北市中和區連城路103號","121.496351666667","24.9996066666667","6500300","中和區"
"235043","352-BY","2017/11/18 18:39:37","新北市中和區景平路105號","121.516891666667","24.9919116666667","6500300","中和區"
"235068","377-QA","2017/11/18 18:39:38","新北市中和區中正路152號","121.498821666667","24.993745","6500300","中和區"
"235061","378-QA","2017/11/18 18:39:29","新北市中和區民享街92巷6號","121.474673333333","24.99991","6500300","中和區"
"235050","4979-A6","2017/11/18 18:39:23","新北市中和區景新街496巷28弄12號","121.513011666667","24.9859116666667","6500300","中和區"
"235069","4980-A6","2017/11/18 18:39:38","新北市中和區連城路65巷15號","121.49804","25.00073","6500300","中和區"
"235070","558-UM","2017/11/18 18:39:41","新北市中和區景平路580號","121.501305","24.995645","6500300","中和區"
"235045","565-BX","2017/11/18 18:39:30","新北市中和區南山路236巷9號","121.505798333333","24.9888466666667","6500300","中和區"
"235054","640-BX","2017/11/18 18:39:28","新北市中和區民享街86巷6號","121.474215","25.000915","6500300","中和區"
"235060","647-TV","2017/11/18 18:39:38","新北市中和區中山路二段481號","121.48298","25.005","6500300","中和區"
"235047","732-UM","2017/11/18 18:39:37","新北市中和區南山路320巷1號","121.50769","24.986535","6500300","中和區"
"235046","733-UM","2017/11/18 18:39:33","新北市中和區仁愛街95號","121.511778333333","24.9867683333333","6500300","中和區"
"235062","800-TS","2017/11/18 18:39:41","新北市中和區中山路二段312巷24號","121.495208333333","25.0041833333333","6500300","中和區"
"235057","801-TS","2017/11/18 18:39:35","新北市中和區員山路327巷96號","121.479315","25.002345","6500300","中和區"
"235041","802-TS","2017/11/18 18:39:42","新北市中和區宜安路173號","121.50819","24.9993166666667","6500300","中和區"
"235052","805-TS","2017/11/18 18:39:29","新北市中和區興南路三段70號","121.492408333333","24.9745016666667","6500300","中和區"
"235048","896-TW","2017/11/18 18:39:19","新北市中和區南山路367號","121.50612","24.9906","6500300","中和區"
"235053","900-TW","2017/11/18 18:39:35","新北市中和區民德路260號","121.467853333333","24.9969333333333","6500300","中和區"
"235064","911-UM","2017/11/18 18:39:35","新北市中和區連城路139巷48號","121.496598333333","24.9974283333333","6500300","中和區"
"235037","157-BY","2017/11/18 18:39:22","新北市中和區華新街143巷106弄7號","121.50611","24.9788566666667","6500300","中和區"
"235037","AAC-213","2017/11/18 18:39:22","新北市中和區景平路111巷65號","121.515153333333","24.9903166666667","6500300","中和區"
"235059","AAC-215","2017/11/18 18:39:40","新北市中和區錦和路354巷3號","121.490368333333","24.9914983333333","6500300","中和區"
"220065","072-UY","2017/11/18 18:39:35","新北市板橋區民族路166號","121.464946666667","25.0084783333333","6500100","板橋區"
"220086","073-UY","2017/11/18 18:39:34","新北市板橋區南雅西路二段192巷3號","121.452058333333","25.0144183333333","6500100","板橋區"
"220069","AAD-861","2017/11/18 18:39:29","新北市板橋區華東街1-10號","121.448358333333","24.9951266666667","6500100","板橋區"
"220102","120-SR","2017/11/18 18:39:28","新北市板橋區民生路二段161巷3號","121.470135","25.01977","6500100","板橋區"
"247010","339-TH","2017/11/18 18:39:31","新北市五股區凌雲路三段15-3號","121.429415","25.1085466666667","6501400","蘆洲區"
"226004","205-ST","2017/11/18 18:39:37","新北市平溪區平溪里三坑路49-1號","121.73178","25.034135","6502400","平溪區"
"228003","097-TW","2017/11/18 18:39:37","新北市貢寮區和美里龍洞街40-1號","121.915581666667","25.1116516666667","6502600","貢寮區"
"228001","212-TW","2017/11/18 18:39:29","新北市貢寮區仁理村研海街12-1號","121.92377","25.0516466666667","6502600","貢寮區"
"228002","585-TW","2017/11/18 18:39:41","新北市貢寮區福隆里東興街6-11號","121.950765","25.0210216666667","6502600","貢寮區"
"224010","AGQ-8101","2017/11/18 18:39:26","新北市瑞芳區基山街31巷24號","121.84643","25.11047","6501200","瑞芳區"
"224006","676-BX","2017/11/18 18:39:41","新北市瑞芳區明燈路三段88號","121.805543333333","25.1082583333333","6501200","瑞芳區"
"224002","639-TC","2017/11/18 18:39:31","新北市瑞芳區靜安路四段91號","121.793345","25.1091216666667","6501200","瑞芳區"
"224009","285-BY","2017/11/18 18:39:27","新北市瑞芳區祈堂路40號","121.858925","25.1105483333333","6501200","瑞芳區"
"224008","275-VK","2017/11/18 18:39:37","新北市瑞芳區瑞芳街139號","121.804921666667","25.1099233333333","6501200","瑞芳區"
"224007","273-VK","2017/11/18 18:39:21","新北市瑞芳區大埔路115巷27號","121.762945","25.1012333333333","6501200","瑞芳區"
"224005","271-BY","2017/11/18 18:39:31","新北市瑞芳區建基路一段1號","121.819823333333","25.1209916666667","6501200","瑞芳區"
"227010","642-TC","2017/11/18 18:39:25","新北市雙溪區牡丹里下坑11號","121.851005","25.0561816666667","6502500","雙溪區"
"227002","400-TW","2017/11/18 18:39:32","新北市雙溪區魚行里坤溪3-5號","121.876211666667","25.020765","6502500","雙溪區"
"253005","032-BX","2017/11/18 18:39:30","新北市石門區石門街47號","121.56655","25.2903733333333","6502200","石門區"
"253006","295-VK","2017/11/18 18:39:30","新北市石門區崁子腳28-1號","121.539883333333","25.28989","6502200","石門區"
"222001","KEA-2212","2017/11/18 18:39:27","新北市深坑區北深路一段84號","121.636238333333","25.010635","6501800","深坑區"
"208002","742-BX","2017/11/18 18:39:41","新北市金山區忠孝一路20巷2號","121.638578333333","25.2193866666667","6502700","金山區"
"208003","665-BX","2017/11/18 18:39:39","新北市金山區中山路345號","121.634955","25.224285","6502700","金山區"
"208001","761-BX","2017/11/18 18:39:15","新北市金山區文化三路7號","121.635116666667","25.22485","6502700","金山區"
"251004","009-UM","2017/11/18 18:39:39","新北市淡水區中正東路二段143巷2弄1號","121.460693333333","25.147255","6501000","淡水區"
"251014","180-VK","2017/11/18 18:39:25","新北市淡水區崙頂12-8號","121.495575","25.2172366666667","6501000","淡水區"
"251008","181-VK","2017/11/18 18:39:23","新北市淡水區北投子62-13號","121.455765","25.180165","6501000","淡水區"
"251010","413-VK","2017/11/18 18:39:26","新北市淡水區沙崙路126號","121.423515","25.1828166666667","6501000","淡水區"
"251012","441-VK","2017/11/18 18:39:38","新北市淡水區北新路188號","121.449688333333","25.1788533333333","6501000","淡水區"
"251016","442-VK","2017/11/18 18:39:31","新北市淡水區下圭柔山80號","121.43846","25.205125","6501000","淡水區"
"251001","559-UM","2017/11/18 18:39:33","新北市淡水區自強路166號","121.465556666667","25.1341783333333","6501000","淡水區"
"251006","561-UM","2017/11/18 18:39:25","新北市淡水區中山北路三段16巷20號","121.443938333333","25.1902566666667","6501000","淡水區"
"251011","650-BX","2017/11/18 18:39:23","新北市淡水區鄧公路36巷15號","121.455658333333","25.169205","6501000","淡水區"
"251002","672-BX","2017/11/18 18:39:41","新北市淡水區中正東路71-4號","121.447331666667","25.1674583333333","6501000","淡水區"
"251003","673-BX","2017/11/18 18:39:38","新北市淡水區中山北路一段212巷34號","121.446073333333","25.1792366666667","6501000","淡水區"
"207003","550-UM","2017/11/18 18:39:41","新北市萬里區野柳里八斗60-1號","121.675228333333","25.201425","6502800","萬里區"
"207004","225-TW","2017/11/18 18:39:29","新北市萬里區萬里里獅頭路7號","121.691943333333","25.1784333333333","6502800","萬里區"
"252002","178-VK","2017/11/18 18:39:21","新北市三芝區民生街64巷7號","121.50355","25.25521","6502100","三芝區"
"252003","249-BX","2017/11/18 18:39:39","新北市三芝區後厝里土地公坑54-15號","121.46625","25.2496383333333","6502100","三芝區"
"252001","292-VK","2017/11/18 18:39:35","新北市三芝區中興街二段262號","121.501926666667","25.25286","6502100","三芝區"
"237004","078-UY","2017/11/18 18:39:30","新北市三峽區插角230號","121.414595","24.86879","6500900","三峽區"
"237007","153-BY","2017/11/18 18:39:29","新北市三峽區中正路三段262號","121.337605","24.897955","6500900","三峽區"
"237009","210-TH","2017/11/18 18:39:42","新北市三峽區民權街179號","121.367868333333","24.92982","6500900","三峽區"
"237013","252-BX","2017/11/18 18:39:39","新北市三峽區光明路69巷25號","121.376638333333","24.929215","6500900","三峽區"
"237012","275-BY","2017/11/18 18:39:35","新北市三峽區三樹路340號","121.383968333333","24.9433516666667","6500900","三峽區"
"237008","302-VK","2017/11/18 18:39:40","新北市三峽區白雞57-15號","121.389768333333","24.9117733333333","6500900","三峽區"
"237014","433-BY","2017/11/18 18:39:33","新北市三峽區復興路480巷52-1號","121.36186","24.9410983333333","6500900","三峽區"
"237006","5529-G3","2017/11/18 18:39:28","新北市三峽區溪東路211巷37號","121.405336666667","24.934665","6500900","三峽區"
"237011","572-TV","2017/11/18 18:03:09","新北市三峽區介壽路三段20號","121.39599","24.9362216666667","6500900","三峽區"
"237016","649-BX","2017/11/18 18:39:27","新北市三峽區竹崙路82號","121.432311666667","24.9188083333333","6500900","三峽區"
"237010","706-TV","2017/11/18 18:39:01","新北市三峽區復興路174巷2號","121.37062","24.9386633333333","6500900","三峽區"
"237005","AKY-6261","2017/11/18 18:39:27","新北市三峽區復興路30-1號","121.37437","24.93619","6500900","三峽區"
"236073","105-UM","2017/11/18 18:39:36","新北市土城區永豐路157巷1號","121.46755","24.9818233333333","6501300","土城區"
"236043","107-UM","2017/11/18 18:39:34","新北市土城區學成路108巷6號","121.45015","24.9895166666667","6501300","土城區"
"236079","166-UM","2017/11/18 18:39:30","新北市土城區中央路四段52巷42弄1號","121.418773333333","24.960345","6501300","土城區"
"236027","269-VK","2017/11/18 18:39:24","新北市土城區金城路一段42號","121.442046666667","24.9701766666667","6501300","土城區"
"236015","270-VK","2017/11/18 18:39:36","新北市土城區清水路207巷15號","121.459813333333","24.9823266666667","6501300","土城區"
"236038","271-VK","2017/11/18 18:39:30","新北市土城區明德路一段291巷11弄21號","121.461228333333","24.9760816666667","6501300","土城區"
"236023","401-BY","2017/11/18 18:39:28","新北市土城區延吉街327-1號","121.465578333333","24.9842633333333","6501300","土城區"
"236031","752-BX","2017/11/18 18:39:37","新北市土城區慶利街33號","121.438838333333","24.9744416666667","6501300","土城區"
"236059","912-UM","2017/11/18 18:39:23","新北市土城區中央路四段29號","121.423978333333","24.962225","6501300","土城區"
"236049","913-UM","2017/11/18 18:39:38","新北市土城區延吉街331號","121.465398333333","24.9841166666667","6501300","土城區"
"236063","915-UM","2017/11/18 18:39:34","新北市土城區延壽路55巷9弄2號","121.469545","24.991615","6501300","土城區"
"236055","AAC-216","2017/11/18 18:39:30","新北市土城區中華路一段23號","121.446761666667","24.9892033333333","6501300","土城區"
"242058","353-BY","2017/11/18 18:39:37","新北市泰山區新北大道六段375號","121.42222","25.0326683333333","6500500","新莊區"
"242007","132-UY","2017/11/18 18:39:22","新北市新莊區瓊林南路77-41號","121.437543333333","25.0130433333333","6500500","新莊區"
"242001","233-RS","2017/11/18 08:32:31","新北市新莊區環河路48-7號","121.436921666667","25.009785","6500500","新莊區"
"238015","755-BX","2017/11/18 18:39:31","新北市樹林區大安路502號","121.41394","24.9862783333333","6500700","樹林區"
"238023","601-UM","2017/11/18 18:39:32","新北市樹林區三福街114號","121.406495","25.0163283333333","6500700","樹林區"
"238019","599-UM","2017/11/18 18:39:31","新北市樹林區中華路190-16號","121.411751666667","24.9805883333333","6500700","樹林區"
"238018","571-TV","2017/11/18 18:39:37","新北市樹林區樹新路66號","121.429058333333","24.9971533333333","6500700","樹林區"
"238024","5061-A6","2017/11/18 18:39:29","新北市樹林區太順街79巷12號","121.416825","24.97816","6500700","樹林區"
"238022","KEA-2213","2017/11/18 18:39:34","新北市樹林區中山路三段361號","121.389476666667","24.97025","6500700","樹林區"
"238025","303-VK","2017/11/18 18:39:28","新北市樹林區中山路三段22號","121.395666666667","24.9729333333333","6500700","樹林區"
"238017","283-BY","2017/11/18 18:39:28","新北市樹林區光興街50號","121.40984","25.0027016666667","6500700","樹林區"
"238014","282-BY","2017/11/18 18:39:35","新北市樹林區大安路111巷11號","121.423116666667","24.9975516666667","6500700","樹林區"
"238020","268-VK","2017/11/18 18:39:37","新北市樹林區三俊街312號","121.4233","25.0139466666667","6500700","樹林區"
"238026","172-UY","2017/11/18 18:39:27","新北市樹林區育德街78-1號","121.387481666667","24.96813","6500700","樹林區"
"238016","169-UY","2017/11/18 18:39:29","新北市樹林區文化街23號","121.419298333333","24.9876466666667","6500700","樹林區"
"239007","AAC-297","2017/11/18 18:39:35","新北市鶯歌區中正一路461-2號","121.363181666667","24.956715","6500800","鶯歌區"
"239006","891-R6","2017/11/18 18:39:29","新北市鶯歌區鶯桃路296巷91號","121.336385","24.9618116666667","6500800","鶯歌區"
"239008","527-UM","2017/11/18 18:39:35","新北市鶯歌區國際一路14號","121.336183333333","24.97654","6500800","鶯歌區"
"239005","526-UM","2017/11/18 18:39:38","新北市鶯歌區大湖路361巷17號","121.331085","24.97735","6500800","鶯歌區"
"239001","417-VK","2017/11/18 18:39:41","新北市鶯歌區尖山埔路二段31號","121.342391666667","24.9488933333333","6500800","鶯歌區"
"239003","360-BY","2017/11/18 18:39:38","新北市鶯歌區永和街91巷1號","121.333145","24.96795","6500800","鶯歌區"
"239002","359-BY","2017/11/18 18:39:28","新北市鶯歌區中山路286-1號","121.344021666667","24.9570466666667","6500800","鶯歌區"
"239004","193-VK","2017/11/18 18:39:40","新北市鶯歌區中正三路247巷67弄2號","121.33394","24.9362733333333","6500800","鶯歌區"
"221008","489-VK","2017/11/18 18:39:24","新北市汐止區康寧街901號","121.651395","25.0750066666667","6501100","汐止區"
"221036","130-UY","2017/11/18 18:39:29","新北市汐止區忠孝東路314巷19弄12號","121.665028333333","25.068465","6501100","汐止區"
"221010","269-BY","2017/11/18 18:39:35","新北市汐止區汐萬路三段252巷23號","121.644733333333","25.1049516666667","6501100","汐止區"
"221012","276-VK","2017/11/18 13:28:23","新北市汐止區汐萬路一段256巷3號","121.653478333333","25.0746666666667","6501100","汐止區"
"221015","277-VK","2017/11/18 18:39:25","新北市汐止區吉祥街12巷4號","121.668445","25.080225","6501100","汐止區"
"221012","278-VK","2017/11/18 18:39:27","新北市汐止區吉祥街27巷2號","121.667641666667","25.0815333333333","6501100","汐止區"
"221023","279-VK","2017/11/18 18:39:34","新北市汐止區明峰街1號","121.635768333333","25.0709066666667","6501100","汐止區"
"221032","280-BY","2017/11/18 18:39:40","新北市汐止區福山街58巷18號","121.618031666667","25.0459883333333","6501100","汐止區"
"221027","281-BY","2017/11/18 18:39:35","新北市汐止區汐萬路一段165號","121.652961666667","25.07105","6501100","汐止區"
"221029","298-VK","2017/11/18 18:39:25","新北市汐止區樟樹一路142號","121.642306666667","25.0650133333333","6501100","汐止區"
"221021","299-VK","2017/11/18 18:39:43","新北市汐止區新興路42號","121.657028333333","25.0631816666667","6501100","汐止區"
"221031","353-TW","2017/11/18 18:39:38","新北市汐止區新台五路一段21-1號","121.635706666667","25.05645","6501100","汐止區"
"221035","622-UM","2017/11/18 18:39:27","新北市汐止區大同路二段298號","121.655291666667","25.0664733333333","6501100","汐止區"
"221025","623-UM","2017/11/18 18:39:37","新北市汐止區仁愛路113巷20號","121.661885","25.06416","6501100","汐止區"
"221038","646-BX","2017/11/18 18:39:20","新北市汐止區汐萬路一段256巷3號","121.652421666667","25.0746133333333","6501100","汐止區"
"221033","647-BX","2017/11/18 18:39:28","新北市汐止區南勢街3號","121.627096666667","25.0373983333333","6501100","汐止區"
"221002","707-TV","2017/11/18 18:39:27","新北市汐止區中興路25號","121.636923333333","25.0596433333333","6501100","汐止區"
"221018","753-BX","2017/11/18 18:39:40","新北市汐止區茄苳路250巷1-1號","121.671496666667","25.0682133333333","6501100","汐止區"
"220082","610-BX","2017/11/18 18:39:31","新北市板橋區篤行路一段18號","121.432016666667","24.9948716666667","6500100","板橋區"
"220056","276-BY","2017/11/18 18:39:41","新北市板橋區四川路二段113號","121.451523333333","24.9942866666667","6500100","板橋區"
"220072","277-BY","2017/11/18 18:39:36","新北市板橋區大觀路二段435-10號","121.445785","24.9941516666667","6500100","板橋區"
"220094","283-UM","2017/11/18 18:39:31","新北市板橋區民生路二段161巷1號","121.470041666667","25.0198066666667","6500100","板橋區"
"220071","283-VK","2017/11/18 18:39:34","新北市板橋區華東街1-10號","121.448818333333","24.9946833333333","6500100","板橋區"
"220053","285-VK","2017/11/18 18:39:30","新北市板橋區民生路二段161巷1號","121.470178333333","25.020065","6500100","板橋區"
"220083","286-VK","2017/11/18 18:39:21","新北市板橋區華東街1-10號","121.447896666667","24.99551","6500100","板橋區"
"220081","287-VK","2017/11/18 18:39:38","新北市板橋區南雅南路二段120-1號","121.452348333333","24.9997066666667","6500100","板橋區"
"220090","288-VK","2017/11/18 18:39:28","新北市板橋區民生路二段161巷5號","121.470211666667","25.0197083333333","6500100","板橋區"
"220061","293-UM","2017/11/18 18:39:26","新北市板橋區民生路二段120號","121.470375","25.0196233333333","6500100","板橋區"
"220084","296-UM","2017/11/18 18:39:26","新北市板橋區板城路271號","121.450226666667","24.9978483333333","6500100","板橋區"
"220075","297-UM","2017/11/18 18:39:38","新北市板橋區南雅南路二段120-16號","121.452031666667","24.9992066666667","6500100","板橋區"
"220062","305-R5","2017/11/18 18:39:22","新北市板橋區民生路二段120號","121.470318333333","25.0197633333333","6500100","板橋區"
"220064","486-VK","2017/11/18 18:39:42","新北市板橋區民生路二段36-1號","121.47216","25.016765","6500100","板橋區"
"242053","280-VK","2017/11/18 18:39:29","新北市新莊區民安西路356號","121.427356666667","25.0111933333333","6500500","新莊區"
"220035","560-BX","2017/11/18 18:39:25","新北市板橋區南雅西路二段145巷10號","121.451533333333","25.01202","6500100","板橋區"
"220063","609-BX","2017/11/18 18:39:37","新北市板橋區民生路二段177號","121.469871666667","25.020295","6500100","板橋區"
"220057","686-BX","2017/11/18 18:39:33","新北市板橋區華東街1-9號","121.44819","24.9948683333333","6500100","板橋區"
"220077","687-BX","2017/11/18 18:39:31","新北市板橋區四川路二段橋頭1號","121.44611","24.994135","6500100","板橋區"
"220054","741-BX","2017/11/18 18:39:27","新北市板橋區華東街1-9號","121.448061666667","24.9949083333333","6500100","板橋區"
"220055","827-TW","2017/11/18 18:39:29","新北市板橋區華東街1-9號","121.448151666667","24.9949033333333","6500100","板橋區"
"220067","829-TW","2017/11/18 18:39:22","新北市板橋區民生路二段161巷5號","121.47022","25.019725","6500100","板橋區"
"220073","985-R7","2017/11/18 18:39:35","新北市板橋區南雅南路二段132號","121.452036666667","24.9966316666667","6500100","板橋區"
"220070","AAC-253","2017/11/18 18:39:33","新北市板橋區板城路407號","121.44744","24.99519","6500100","板橋區"
