"lineid","car","time","location","longitude","latitude","cityid","cityname"
"249002","305-UY","2017/11/18 21:29:28","新北市八里區博物館路15號","121.415328333333","25.1639466666667","6502300","八里區"
"234074","AAC-211","2017/11/18 21:29:36","新北市永和區福和路1號","121.525421666667","25.0095183333333","6500400","永和區"
"244019","403-UM","2017/11/18 20:51:44","新北市林口區粉寮69號","121.405085","25.0907766666667","6501700","林口區"
"231050","KEA-2219","2017/11/18 21:29:29","新北市新店區中正路269號","121.537821666667","24.97424","6500600","新店區"
"231063","645-TV","2017/11/18 21:29:37","新北市新店區吉祥街7巷1號","121.497323333333","24.9475433333333","6500600","新店區"
"241017","063-VK","2017/11/18 21:29:36","新北市三重區新北大道一段3-1號","121.49012","25.0613816666667","6500200","三重區"
"241024","065-VK","2017/11/18 21:29:22","新北市三重區中正北路145巷14號","121.484155","25.0677833333333","6500200","三重區"
"241003","091-VK","2017/11/18 21:29:35","新北市三重區進安街190號","121.494328333333","25.0865066666667","6500200","三重區"
"241005","262-UM","2017/11/18 21:29:21","新北市三重區碧華街50號","121.48349","25.08123","6500200","三重區"
"241016","266-UM","2017/11/18 21:29:26","新北市三重區正義北路113號","121.496835","25.065705","6500200","三重區"
"241007","398-BY","2017/11/18 21:29:19","新北市三重區正義北路113號","121.496873333333","25.06569","6500200","三重區"
"235026","800-TS","2017/11/18 20:27:09","新北市中和區員山路36巷16-3號","121.484663333333","24.9915766666667","6500300","中和區"
"247020","500-BY","2017/11/18 21:29:21","新北市蘆洲區永平街32巷21弄35號","121.457598333333","25.0922616666667","6501400","蘆洲區"
"247010","339-TH","2017/11/18 21:29:33","新北市蘆洲區鷺江街69號","121.477203333333","25.0829083333333","6501400","蘆洲區"
"247008","053-VK","2017/11/18 21:29:28","新北市五股區四維路185巷60號","121.462413333333","25.0781633333333","6501400","蘆洲區"
"247014","007-UY","2017/11/18 21:29:26","新北市蘆洲區永康街75號","121.455911666667","25.08521","6501400","蘆洲區"
"247024","002-UY","2017/11/18 21:29:26","新北市五股區成泰路四段2號","121.452785","25.1061833333333","6501400","蘆洲區"
"251009","008-UM","2017/11/18 21:29:31","新北市淡水區民族路33巷16-3號","121.463398333333","25.1360233333333","6501000","淡水區"
"251004","009-UM","2017/11/18 21:29:36","新北市淡水區民權路119號","121.460176666667","25.1369516666667","6501000","淡水區"
"251005","010-UM","2017/11/18 21:29:40","新北市淡水區水源街一段44號","121.443905","25.172205","6501000","淡水區"
"251014","180-VK","2017/11/18 21:29:24","新北市淡水區淡金路四段523號","121.451466666667","25.22912","6501000","淡水區"
"251008","181-VK","2017/11/18 21:29:32","新北市淡水區水源街二段148號","121.45421","25.1750133333333","6501000","淡水區"
"251010","413-VK","2017/11/18 21:29:26","新北市淡水區沙崙路25巷21號","121.420621666667","25.182445","6501000","淡水區"
"251012","441-VK","2017/11/18 21:29:38","新北市淡水區石頭埔10-1號","121.451698333333","25.2326733333333","6501000","淡水區"
"251016","442-VK","2017/11/18 21:26:18","新北市淡水區新市二路四段265號","121.445511666667","25.1922316666667","6501000","淡水區"
"251001","559-UM","2017/11/18 21:29:32","新北市淡水區濱海路二段200號","121.434701666667","25.1901833333333","6501000","淡水區"
"251006","561-UM","2017/11/18 21:29:24","新北市淡水區公明街67號","121.443741666667","25.1685266666667","6501000","淡水區"
"251011","650-BX","2017/11/18 21:29:26","新北市淡水區新民街166號","121.436991666667","25.17855","6501000","淡水區"
"251002","672-BX","2017/11/18 21:29:20","新北市淡水區英專路151號","121.448425","25.174805","6501000","淡水區"
"251003","673-BX","2017/11/18 21:29:38","新北市淡水區崁頂15-5號","121.43902","25.1858416666667","6501000","淡水區"
"242048","441-UM","2017/11/18 21:29:32","新北市樹林區八德街67號","121.399865","24.969295","6500500","新莊區"
"242001","233-RS","2017/11/18 08:32:31","新北市新莊區環河路48-7號","121.436921666667","25.009785","6500500","新莊區"
"221012","276-VK","2017/11/18 13:28:23","新北市汐止區汐萬路一段256巷3號","121.653478333333","25.0746666666667","6501100","汐止區"
"220062","305-R5","2017/11/18 21:29:29","新北市板橋區民生路二段161巷9號","121.470296666667","25.0196816666667","6500100","板橋區"
"220070","AAC-253","2017/11/18 21:29:32","新北市五股區成泰路三段358號","121.45081","25.097825","6500100","板橋區"
