"lineid","car","time","location","longitude","latitude","cityid","cityname"
"249002","305-UY","2017/11/18 21:39:27","新北市八里區博物館路15號","121.415313333333","25.1639","6502300","八里區"
"234074","AAC-211","2017/11/18 21:39:36","新北市永和區福和路1號","121.525821666667","25.0094833333333","6500400","永和區"
"244019","403-UM","2017/11/18 20:51:44","新北市林口區粉寮69號","121.405085","25.0907766666667","6501700","林口區"
"231050","KEA-2219","2017/11/18 21:39:29","新北市新店區環河路182號","121.524991666667","24.97572","6500600","新店區"
"231063","645-TV","2017/11/18 21:39:37","新北市新店區如意街34號","121.493461666667","24.94838","6500600","新店區"
"241005","262-UM","2017/11/18 21:39:41","新北市三重區碧華街1號","121.483481666667","25.0811083333333","6500200","三重區"
"235026","800-TS","2017/11/18 20:27:09","新北市中和區員山路36巷16-3號","121.484663333333","24.9915766666667","6500300","中和區"
"251009","008-UM","2017/11/18 21:39:31","新北市淡水區民族路29巷2弄2號","121.462696666667","25.1373766666667","6501000","淡水區"
"251004","009-UM","2017/11/18 21:39:36","新北市淡水區民生路1-2號","121.460223333333","25.1378083333333","6501000","淡水區"
"251005","010-UM","2017/11/18 21:39:40","新北市淡水區水源街一段60號","121.444896666667","25.1720816666667","6501000","淡水區"
"251014","180-VK","2017/11/18 21:39:24","新北市淡水區下圭柔山431-1號","121.449838333333","25.2110033333333","6501000","淡水區"
"251008","181-VK","2017/11/18 21:39:23","新北市淡水區水源街二段76號","121.451061666667","25.1741916666667","6501000","淡水區"
"251010","413-VK","2017/11/18 21:39:26","新北市淡水區沙崙路216巷15號","121.426206666667","25.1841183333333","6501000","淡水區"
"251012","441-VK","2017/11/18 21:39:38","新北市淡水區淡金路四段225號","121.451655","25.22249","6501000","淡水區"
"251016","442-VK","2017/11/18 21:26:18","新北市淡水區新市二路四段265號","121.445511666667","25.1922316666667","6501000","淡水區"
"251001","559-UM","2017/11/18 21:39:32","新北市淡水區崁頂49-6號","121.439085","25.1975766666667","6501000","淡水區"
"251006","561-UM","2017/11/18 21:39:24","新北市淡水區中正路107號","121.43993","25.1695766666667","6501000","淡水區"
"251011","650-BX","2017/11/18 21:39:26","新北市淡水區新民街226巷1號","121.436116666667","25.18065","6501000","淡水區"
"251002","672-BX","2017/11/18 21:39:40","新北市淡水區學府路170號","121.44649","25.1752283333333","6501000","淡水區"
"251003","673-BX","2017/11/18 21:39:38","新北市淡水區新春街48號","121.437741666667","25.181835","6501000","淡水區"
"242048","441-UM","2017/11/18 21:39:32","新北市新莊區瓊林南路61-16號","121.439946666667","25.0189583333333","6500500","新莊區"
"242001","233-RS","2017/11/18 08:32:31","新北市新莊區環河路48-7號","121.436921666667","25.009785","6500500","新莊區"
"221012","276-VK","2017/11/18 13:28:23","新北市汐止區汐萬路一段256巷3號","121.653478333333","25.0746666666667","6501100","汐止區"
"220062","305-R5","2017/11/18 21:39:28","新北市板橋區民生路二段161巷7號","121.470291666667","25.0197166666667","6500100","板橋區"
"220070","AAC-253","2017/11/18 21:39:32","新北市五股區新五路二段126號","121.437466666667","25.0766333333333","6500100","板橋區"
