"lineid","car","time","location","longitude","latitude","cityid","cityname"
"244012","069-UM","2017/08/03 08:59:39","新北市林口區佳林路101巷28號","121.386811666667","25.0795116666667","6501700","林口區"
"244006","080-UY","2017/08/03 08:59:38","新北市林口區林口路202號","121.387213333333","25.0832133333333","6501700","林口區"
"244003","248-BX","2017/08/03 08:58:06","新北市林口區嘉寶里89-1號","121.333118333333","25.1217416666667","6501700","林口區"
"244018","742-UY","2017/08/03 08:59:30","新北市林口區文化一路一段89-5號","121.371886666667","25.0703933333333","6501700","林口區"
"244008","410-SL","2017/08/03 08:59:35","新北市林口區文林一街115巷20號","121.378863333333","25.0876933333333","6501700","林口區"
"244022","483-VK","2017/08/03 08:59:20","新北市林口區隆林街125號","121.384205","25.0745466666667","6501700","林口區"
"244016","485-VK","2017/08/03 08:59:38","新北市林口區文化二路一段68巷10-3號","121.3662","25.068795","6501700","林口區"
"244024","656-BX","2017/08/03 08:59:30","新北市林口區仁愛二路101-1號","121.367791666667","25.075155","6501700","林口區"
"244010","701-TV","2017/08/03 08:59:22","新北市林口區興林路17巷5弄6號","121.39061","25.0771316666667","6501700","林口區"
"222006","289-BY","2017/08/03 08:42:54","新北市深坑區土庫尖路75-1號","121.631283333333","25.018205","6501800","深坑區"
"222001","696-SL","2017/08/03 08:59:26","新北市深坑區北深路一段26號","121.639001666667","25.01045","6501800","深坑區"
"231069","189-VK","2017/08/03 08:55:40","新北市新店區新潭路三段275-1號","121.50218","24.9026816666667","6500600","新店區"
"231008","192-VK","2017/08/03 08:59:23","新北市新店區桂山路35號","121.558433333333","24.9029433333333","6500600","新店區"
"235016","805-TS","2017/08/03 08:59:19","新北市中和區忠孝街1號","121.508895","24.98299","6500300","中和區"
"226005","5620-A6","2017/08/03 08:59:20","新北市平溪區南山里南山坪94號","121.776953333333","25.0412083333333","6502400","平溪區"
"226002","7418-A5","2017/08/03 08:59:25","新北市平溪區東勢里芊蓁林9-1號","121.73569","24.9904283333333","6502400","平溪區"
"226003","AGD-0702","2017/08/03 08:59:24","新北市平溪區十分里十分街238號","121.778086666667","25.0441","6502400","平溪區"
"223002","198-BX","2017/08/03 08:59:38","新北市石碇區北宜路五段大湖巷2號","121.63071","24.9488016666667","6501900","石碇區"
"223003","205-TH","2017/08/03 08:59:39","新北市石碇區北宜路六段直潭巷1號","121.658796666667","24.936715","6501900","石碇區"
"223008","406-TH","2017/08/03 08:59:29","新北市石碇區碇南路二段松柏崎巷3號","121.673508333333","25.0183266666667","6501900","石碇區"
"223001","437-BY","2017/08/03 08:59:32","新北市石碇區北宜路六段直潭巷1號","121.658881666667","24.9369083333333","6501900","石碇區"
"223004","592-UM","2017/08/03 08:59:32","新北市石碇區崩山46號","121.680208333333","24.96859","6501900","石碇區"
"223007","661-BX","2017/08/03 08:59:30","新北市石碇區碇南路二段松柏崎巷7號","121.67397","25.0189816666667","6501900","石碇區"
"223005","677-TV","2017/08/03 08:59:36","新北市石碇區崩山53號","121.682365","24.9688533333333","6501900","石碇區"
"228002","585-TW","2017/08/03 07:09:04","新北市貢寮區福隆里興隆街40號","121.944093333333","25.01907","6502600","貢寮區"
"253003","6232-TK","2017/08/03 08:59:34","新北市石門區尖子鹿8-1號","121.57525","25.279915","6502200","石門區"
"253001","6251-TK","2017/08/03 08:59:39","新北市石門區八甲60-5號","121.526058333333","25.2710433333333","6502200","石門區"
"253002","637-UY","2017/08/03 08:59:30","新北市石門區尖山湖17號","121.561378333333","25.2451533333333","6502200","石門區"
"253004","8270-PC","2017/08/03 08:54:23","新北市石門區草埔尾34號","121.603496666667","25.2663366666667","6502200","石門區"
"252004","249-BX","2017/08/03 08:59:38","新北市三芝區興華里田心子22-1號","121.492136666667","25.1997383333333","6502100","三芝區"
"252007","AAC-283","2017/08/03 08:59:22","新北市三芝區古庄里四棧橋24-1號","121.486455","25.262015","6502100","三芝區"
"237001","159-UY","2017/08/03 08:59:35","新北市三峽區大學路192號","121.372431666667","24.9467383333333","6500900","三峽區"
"236003","339-SR","2017/08/03 08:59:34","新北市土城區中央路三段93號","121.43751","24.96779","6501300","土城區"
"236009","370-SL","2017/08/03 08:41:27","新北市土城區石門路85號","121.465653333333","24.95867","6501300","土城區"
"236005","498-BY","2017/08/03 08:59:26","新北市土城區承天路8巷4號","121.436808333333","24.9641166666667","6501300","土城區"
"242020","AAC-296","2017/08/03 08:59:31","新北市新莊區建中街32巷4號","121.448945","25.03781","6500500","新莊區"
"242028","986-R7","2017/08/03 08:59:38","新北市新莊區中原路349號","121.445118333333","25.05431","6500500","新莊區"
"242047","751-BX","2017/08/03 08:59:36","新北市新莊區四維路126巷3號","121.422966666667","25.0240833333333","6500500","新莊區"
"242024","615-BX","2017/08/03 08:59:31","新北市新莊區五工二路78巷20號","121.460621666667","25.066665","6500500","新莊區"
"242022","613-BX","2017/08/03 08:59:23","新北市新莊區化成路766號","121.465275","25.0587916666667","6500500","新莊區"
"242026","612-BX","2017/08/03 08:59:27","新北市新莊區立信三街12巷16號","121.444131666667","25.0511516666667","6500500","新莊區"
"242035","566-BX","2017/08/03 08:59:33","新北市新莊區民安路207巷30弄26號","121.428206666667","25.0239983333333","6500500","新莊區"
"242003","442-UM","2017/08/03 08:59:21","新北市新莊區化成路63巷24弄14號","121.462195","25.046065","6500500","新莊區"
"242045","441-UM","2017/08/03 08:59:22","新北市新莊區富國路77巷23號","121.420375","25.026525","6500500","新莊區"
"242049","440-UM","2017/08/03 08:59:36","新北市新莊區民安西路263號","121.426118333333","25.01305","6500500","新莊區"
"242030","415-TV","2017/08/03 08:59:39","新北市新莊區公園一路112號","121.444695","25.0378383333333","6500500","新莊區"
"242001","413-TV","2017/08/03 08:59:30","新北市新莊區思源路23號","121.460248333333","25.0388316666667","6500500","新莊區"
"242038","400-BY","2017/08/03 08:59:37","新北市新莊區龍安路481號","121.425478333333","25.0181633333333","6500500","新莊區"
"242059","362-BY","2017/08/03 08:59:27","新北市新莊區瓊林路204-16號","121.43699","25.0214883333333","6500500","新莊區"
"242057","353-BY","2017/08/03 08:59:28","新北市新莊區八德街45號","121.424876666667","25.0222516666667","6500500","新莊區"
"242040","132-UY","2017/08/03 08:59:22","新北市新莊區壽山路61-2號","121.410773333333","25.0326516666667","6500500","新莊區"
"242033","133-UY","2017/08/03 08:59:24","新北市新莊區公園一路126號","121.44572","25.0379433333333","6500500","新莊區"
"242018","135-UY","2017/08/03 08:59:19","新北市新莊區博愛路5巷2號","121.456321666667","25.04327","6500500","新莊區"
"242043","172-VK","2017/08/03 08:59:27","新北市新莊區新北大道七段626號","121.412003333333","25.0284133333333","6500500","新莊區"
"242006","173-VK","2017/08/03 08:59:23","新北市新莊區思源路419巷1弄3號","121.45939","25.0523666666667","6500500","新莊區"
"242012","175-VK","2017/08/03 08:59:29","新北市新莊區中和街155巷2號","121.447196666667","25.0498466666667","6500500","新莊區"
"242055","176-VK","2017/08/03 08:59:26","新北市新莊區新泰路87號","121.448733333333","25.034475","6500500","新莊區"
"242010","346-TH","2017/08/03 08:59:37","新北市新莊區中和街206號","121.44776","25.0505216666667","6500500","新莊區"
"242016","348-TH","2017/08/03 08:59:32","新北市新莊區中港二街95號","121.44932","25.045765","6500500","新莊區"
"242052","349-TH","2017/08/03 08:59:34","新北市新莊區民安西路410巷19號","121.427603333333","25.0091","6500500","新莊區"
"242014","350-TH","2017/08/03 08:59:40","新北市新莊區新泰路343號","121.444805","25.0419916666667","6500500","新莊區"
"242008","351-TH","2017/08/03 08:59:33","新北市新莊區昌隆街108號","121.456801666667","25.050835","6500500","新莊區"
