"lineid","car","time","location","longitude","latitude","cityid","cityname"
"244018","742-UY","2017/08/03 10:59:30","新北市林口區粉寮路二段160巷40號","121.40554","25.0910233333333","6501700","林口區"
"244025","656-BX","2017/08/03 09:22:30","新北市林口區粉寮路二段160巷28號","121.405215","25.0907683333333","6501700","林口區"
"231069","189-VK","2017/08/03 10:59:20","新北市新店區新潭路一段212號","121.529218333333","24.92951","6500600","新店區"
"231008","192-VK","2017/08/03 10:59:23","新北市新店區小坑一路22號","121.53304","24.91348","6500600","新店區"
"228002","585-TW","2017/08/03 07:09:04","新北市貢寮區福隆里興隆街40號","121.944093333333","25.01907","6502600","貢寮區"
"252007","AAC-283","2017/08/03 10:47:59","新北市三芝區埔坪里埔頭坑41號","121.504495","25.2644116666667","6502100","三芝區"
