"lineid","car","time","location","longitude","latitude","cityid","cityname"
"244018","742-UY","2017/08/03 11:15:36","新北市林口區粉寮69號","121.405086666667","25.09079","6501700","林口區"
"244025","656-BX","2017/08/03 09:22:30","新北市林口區粉寮路二段160巷28號","121.405215","25.0907683333333","6501700","林口區"
"231008","192-VK","2017/08/03 11:42:03","新北市新店區成功路91號","121.537408333333","24.8950216666667","6500600","新店區"
"235031","255-BX","2017/08/03 11:59:34","新北市中和區和城路一段271巷1號","121.48545","24.9918033333333","6500300","中和區"
"228005","097-TW","2017/08/03 11:59:29","新北市貢寮區貢寮里朝陽街1-2號","121.912363333333","25.0212416666667","6502600","貢寮區"
"228004","212-TW","2017/08/03 11:59:43","新北市貢寮區貢寮里朝陽街1-2號","121.912196666667","25.02127","6502600","貢寮區"
"252007","AAC-283","2017/08/03 10:47:59","新北市三芝區埔坪里埔頭坑41號","121.504495","25.2644116666667","6502100","三芝區"
"242003","442-UM","2017/08/03 11:28:28","新北市新莊區三和路12-21號","121.441893333333","25.03885","6500500","新莊區"
