"lineid","car","time","location","longitude","latitude","cityid","cityname"
"234044","148-BY","2017/08/03 14:09:16","新北市永和區林森路62號","121.52399","25.00423","6500400","永和區"
"234012","149-BY","2017/08/03 14:09:19","新北市永和區永平路306號","121.507128333333","25.01238","6500400","永和區"
"234005","207-UY","2017/08/03 14:09:30","新北市中和區中和路310號","121.509186666667","25.000365","6500400","永和區"
"234078","298-R6","2017/08/03 14:09:21","新北市永和區國中路37號","121.524616666667","25.0056266666667","6500400","永和區"
"234036","336-UY","2017/08/03 14:09:21","新北市永和區成功路一段47巷8號","121.527461666667","25.0040333333333","6500400","永和區"
"234062","337-UY","2017/08/03 14:09:13","新北市永和區永利路150號","121.522398333333","25.0027266666667","6500400","永和區"
"234084","338-UY","2017/08/03 14:09:15","新北市永和區福和路41-1號","121.52343","25.007975","6500400","永和區"
"234068","552-UM","2017/08/03 14:09:27","新北市永和區永安街7巷7號","121.518428333333","25.0061016666667","6500400","永和區"
"234052","553-UM","2017/08/03 14:09:26","新北市永和區竹林路39巷48號","121.520306666667","25.0153016666667","6500400","永和區"
"234015","745-BX","2017/08/03 14:09:24","新北市永和區仁愛路50號","121.513881666667","25.0133766666667","6500400","永和區"
"234028","746-BX","2017/08/03 14:09:33","新北市永和區民權路84號","121.519866666667","24.99699","6500400","永和區"
"234060","AAD-866","2017/08/03 14:09:27","新北市永和區中正路129巷5號","121.515541666667","24.9980966666667","6500400","永和區"
"234040","862-TW","2017/08/03 14:09:31","新北市永和區雙和街64巷22弄5-1號","121.509736666667","25.0028933333333","6500400","永和區"
"234048","863-TW","2017/08/03 14:09:24","新北市永和區保安路290號","121.505293333333","25.0121416666667","6500400","永和區"
"234025","9371-KE","2017/08/03 14:09:33","新北市永和區安樂路272巷43弄32號","121.514933333333","25.0046316666667","6500400","永和區"
"234010","9373-KE","2017/08/03 14:09:27","新北市永和區仁愛路352巷112弄15號","121.501071666667","25.0086216666667","6500400","永和區"
"248015","026-BX","2017/08/03 14:09:29","新北市五股區成泰路三段543巷52-1號","121.449705","25.10303","6501500","五股區"
"248007","095-VK","2017/08/03 14:09:30","新北市五股區中興路一段201號","121.463573333333","25.0741683333333","6501500","五股區"
"248011","247-BX","2017/08/03 14:09:18","新北市五股區工商路36巷7號","121.439713333333","25.084225","6501500","五股區"
"248017","261-SL","2017/08/03 14:09:30","新北市五股區民義路一段312-22號","121.422745","25.095245","6501500","五股區"
"248009","272-BY","2017/08/03 14:09:27","新北市五股區水碓一路23號","121.430563333333","25.0712366666667","6501500","五股區"
"248003","677-BX","2017/08/03 14:09:11","新北市五股區六合街3號","121.431781666667","25.088505","6501500","五股區"
"248001","678-BX","2017/08/03 14:09:18","新北市五股區成泰路三段577巷24號","121.45137","25.1029633333333","6501500","五股區"
"234022","9380-KE","2017/08/03 14:09:20","新北市永和區博愛街32巷17-1號","121.518891666667","25.0152183333333","6500400","永和區"
"234076","969-R7","2017/08/03 14:09:23","新北市永和區民治街59巷8號","121.51825","24.9974916666667","6500400","永和區"
"234072","AAC-211","2017/08/03 14:09:17","新北市永和區竹林路201巷24弄4號","121.52222","25.0096","6500400","永和區"
"234066","AAC-212","2017/08/03 14:09:21","新北市永和區永貞路313號","121.510095","25.0065166666667","6500400","永和區"
"234001","AAC-295","2017/08/03 14:09:26","新北市永和區中正路625號","121.515685","25.0099533333333","6500400","永和區"
"244025","656-BX","2017/08/03 09:22:30","新北市林口區粉寮路二段160巷28號","121.405215","25.0907683333333","6501700","林口區"
"243005","AAD-798","2017/08/03 14:09:22","新北市泰山區明志路三段231巷4弄1號","121.424236666667","25.0375866666667","6501600","泰山區"
"243001","297-R6","2017/08/03 14:09:25","新北市泰山區楓樹街15巷13號","121.434738333333","25.063015","6501600","泰山區"
"243007","380-SR","2017/08/03 14:09:27","新北市泰山區明志路一段493-1號","121.43067","25.0550983333333","6501600","泰山區"
"243006","421-VK","2017/08/03 14:09:21","新北市泰山區泰林路二段429號","121.426311666667","25.0641833333333","6501600","泰山區"
"243002","548-UM","2017/08/03 14:09:13","新北市泰山區明志路一段483巷1弄1號","121.431071666667","25.05544","6501600","泰山區"
"243003","549-UM","2017/08/03 14:09:25","新北市泰山區中央路7巷2號","121.426473333333","25.043295","6501600","泰山區"
"243004","646-TV","2017/08/03 14:09:19","新北市泰山區辭修路36巷8弄5號","121.427923333333","25.0586","6501600","泰山區"
"243008","680-BX","2017/08/03 14:09:16","新北市泰山區明志路二段373號","121.425233333333","25.043915","6501600","泰山區"
"231002","002-UM","2017/08/03 14:09:14","新北市新店區中正路513號","121.533545","24.9849083333333","6500600","新店區"
"231025","0291-UT","2017/08/03 14:09:14","新北市新店區中正路328巷18號","121.53754","24.9756216666667","6500600","新店區"
"231028","046-UY","2017/08/03 14:09:11","新北市新店區安和路二段232號","121.516575","24.9772316666667","6500600","新店區"
"231030","047-UY","2017/08/03 14:09:13","新北市新店區安民街65巷21-2號","121.515123333333","24.96736","6500600","新店區"
"231029","106-UY","2017/08/03 14:09:16","新北市新店區安康路二段109號","121.512613333333","24.961865","6500600","新店區"
"231018","107-UY","2017/08/03 14:09:19","新北市新店區中央五街38號","121.528473333333","24.9748266666667","6500600","新店區"
"231011","108-UY","2017/08/03 14:09:20","新北市新店區中興路一段282-4號","121.54625","24.968345","6500600","新店區"
"231021","187-VK","2017/08/03 14:09:23","新北市新店區新烏路二段198巷2弄2號","121.547733333333","24.91698","6500600","新店區"
"231007","189-VK","2017/08/03 12:02:41","新北市新店區安華路28-1號","121.51978","24.9609216666667","6500600","新店區"
"231068","260-TV","2017/08/03 14:09:11","新北市新店區僑愛四路20-1號","121.501036666667","24.9451983333333","6500600","新店區"
"231034","268-BY","2017/08/03 14:09:23","新北市新店區黎明路3號","121.503638333333","24.952465","6500600","新店區"
"231017","AAD-862","2017/08/03 14:09:27","新北市新店區郵政路3巷5號","121.55733","24.9520466666667","6500600","新店區"
"231027","3712-VJ","2017/08/03 14:09:18","新北市新店區北宜路一段3號","121.538581666667","24.9584783333333","6500600","新店區"
"231024","3713-VJ","2017/08/03 14:09:23","新北市新店區安和路三段4巷3號","121.519016666667","24.981","6500600","新店區"
"231038","4715-K9","2017/08/03 14:09:22","新北市新店區溪洲路121號","121.531196666667","24.9627633333333","6500600","新店區"
"231036","512-UM","2017/08/03 14:09:23","新北市新店區安祥路109巷6弄49號","121.475485","24.9572583333333","6500600","新店區"
"231023","513-UM","2017/08/03 14:09:13","新北市新店區文中路45號","121.539616666667","24.9566333333333","6500600","新店區"
"231035","515-UM","2017/08/03 14:09:29","新北市新店區安和路二段39號","121.5181","24.96788","6500600","新店區"
"231001","619-UM","2017/08/03 14:09:24","新北市新店區中華路52號","121.53962","24.9685483333333","6500600","新店區"
"231003","641-BX","2017/08/03 14:09:16","新北市新店區中興路一段82號","121.53982","24.9599983333333","6500600","新店區"
"231013","719-UM","2017/08/03 14:09:11","新北市新店區北新路三段65巷34弄21號","121.539968333333","24.9816416666667","6500600","新店區"
"231031","719-UY","2017/08/03 14:09:32","新北市新店區秀山路53號","121.530591666667","24.9605816666667","6500600","新店區"
"231005","897-TW","2017/08/03 14:09:26","新北市新店區中興路三段327號","121.541961666667","24.9864283333333","6500600","新店區"
"231006","898-TW","2017/08/03 14:09:12","新北市新店區北宜路二段126號","121.556801666667","24.953855","6500600","新店區"
"231004","899-TW","2017/08/03 14:09:31","新北市新店區民族路1號","121.542291666667","24.9786833333333","6500600","新店區"
"231037","AKT-0513","2017/08/03 14:09:19","新北市新店區安康路二段341巷28號","121.49705","24.9546316666667","6500600","新店區"
"235030","003-UY","2017/08/03 14:09:28","新北市中和區廣福路12號","121.505611666667","25.0028483333333","6500300","中和區"
"235028","005-UY","2017/08/03 14:09:16","新北市中和區泰和街38巷1號","121.499266666667","25.000105","6500300","中和區"
"235027","006-UY","2017/08/03 14:09:18","新北市中和區中正路636號","121.485503333333","24.9962666666667","6500300","中和區"
"235020","096-UM","2017/08/03 14:09:23","新北市中和區中正路1222號","121.479683333333","25.0109383333333","6500300","中和區"
"235003","097-UM","2017/08/03 14:09:28","新北市中和區秀峰街52號","121.5212","24.9903016666667","6500300","中和區"
"235029","098-UM","2017/08/03 14:09:13","新北市中和區中山路二段136巷8號","121.50184","25.0037433333333","6500300","中和區"
"235004","150-BY","2017/08/03 14:09:32","新北市中和區宜安路116號","121.510255","24.9979233333333","6500300","中和區"
"235022","151-BY","2017/08/03 14:09:23","新北市中和區員山路106號","121.481031666667","24.9955466666667","6500300","中和區"
"235019","183-VK","2017/08/03 14:09:27","新北市中和區德光路47號","121.470296666667","25.0040733333333","6500300","中和區"
"235002","185-VK","2017/08/03 14:09:32","新北市中和區立人街20號","121.519038333333","24.9942033333333","6500300","中和區"
"235013","186-VK","2017/08/03 14:09:28","新北市中和區明禮街36號","121.504336666667","24.9962666666667","6500300","中和區"
"235031","255-BX","2017/08/03 14:09:14","新北市中和區新生街277號","121.483761666667","24.9978516666667","6500300","中和區"
"235008","293-VK","2017/08/03 14:09:26","新北市中和區中興街161巷4弄1號","121.500611666667","24.9908766666667","6500300","中和區"
"235036","301-VK","2017/08/03 14:09:25","新北市中和區中山路二段123號","121.502711666667","25.0035716666667","6500300","中和區"
"235007","352-BY","2017/08/03 14:09:29","新北市中和區景平路4號","121.524105","24.9904866666667","6500300","中和區"
"235015","376-QA","2017/08/03 14:09:29","新北市中和區仁愛街36巷51號","121.511493333333","24.986135","6500300","中和區"
"235032","377-QA","2017/08/03 14:09:16","新北市中和區圓通路162-1號","121.497463333333","24.9953583333333","6500300","中和區"
"235025","378-QA","2017/08/03 14:09:17","新北市中和區員山路394巷12弄11號","121.481431666667","25.0039233333333","6500300","中和區"
"235014","4979-A6","2017/08/03 14:09:10","新北市中和區復興路280巷36弄10號","121.501686666667","24.9921616666667","6500300","中和區"
"235033","4980-A6","2017/08/03 14:09:26","新北市中和區中山路二段178巷1號","121.500723333333","25.0027583333333","6500300","中和區"
"235006","551-UM","2017/08/03 14:09:25","新北市中和區立人街7號","121.521713333333","24.9938333333333","6500300","中和區"
"235034","558-UM","2017/08/03 14:09:13","新北市中和區安和路205號","121.505981666667","24.9986366666667","6500300","中和區"
"235009","565-BX","2017/08/03 14:09:18","新北市中和區景新街467巷38弄2號","121.514515","24.98863","6500300","中和區"
"235018","640-BX","2017/08/03 14:09:16","新北市中和區民享街86巷5號","121.474165","25.0008516666667","6500300","中和區"
"235024","647-TV","2017/08/03 14:09:24","新北市中和區民治街130巷1號","121.475236666667","25.0025933333333","6500300","中和區"
"235011","732-UM","2017/08/03 14:09:25","新北市中和區興南路一段91號","121.509736666667","24.9887066666667","6500300","中和區"
"235010","733-UM","2017/08/03 14:09:18","新北市中和區忠孝街1巷52號","121.50837","24.9844316666667","6500300","中和區"
"235035","783-BX","2017/08/03 14:09:18","新北市中和區立言街48號","121.488316666667","25.0067016666667","6500300","中和區"
"235026","800-TS","2017/08/03 14:09:12","新北市中和區中山路二段372號","121.491948333333","25.00296","6500300","中和區"
"235021","801-TS","2017/08/03 14:09:23","新北市中和區民利街58巷1號","121.478861666667","24.9989383333333","6500300","中和區"
"235005","802-TS","2017/08/03 14:09:19","新北市中和區中安街98-1號","121.511776666667","25.0011883333333","6500300","中和區"
"235016","805-TS","2017/08/03 14:09:16","新北市中和區興南路二段188號","121.503453333333","24.9822583333333","6500300","中和區"
"235012","896-TW","2017/08/03 14:09:18","新北市中和區工專路147號","121.508398333333","24.9787533333333","6500300","中和區"
"235017","900-TW","2017/08/03 14:09:21","新北市板橋區和平路197號","121.464243333333","24.9964516666667","6500300","中和區"
"235001","AAC-213","2017/08/03 14:09:22","新北市中和區秀朗路三段10巷16弄2號","121.524081666667","24.9961883333333","6500300","中和區"
"235023","AAC-215","2017/08/03 14:09:22","新北市中和區圓通路294巷17-5號","121.488628333333","24.9904316666667","6500300","中和區"
"220016","013-TV","2017/08/03 14:09:28","新北市板橋區翠華街6巷16號","121.481035","25.02429","6500100","板橋區"
"220034","073-UY","2017/08/03 14:09:28","新北市板橋區中正路236巷35號","121.45744","25.0193316666667","6500100","板橋區"
"220105","075-UY","2017/08/03 14:09:28","新北市板橋區文化路二段231號","121.471061666667","25.0284016666667","6500100","板橋區"
"220017","AAD-861","2017/08/03 14:09:11","新北市板橋區華興街73-1號","121.457036666667","25.00507","6500100","板橋區"
"220045","120-SR","2017/08/03 14:09:31","新北市板橋區雙十路二段47巷17號","121.475616666667","25.0258183333333","6500100","板橋區"
"247019","893-R6","2017/08/03 14:09:27","新北市蘆洲區民族路436巷5號","121.472948333333","25.0927133333333","6501400","蘆洲區"
"247009","546-UM","2017/08/03 14:09:27","新北市蘆洲區三民路52號","121.475321666667","25.0836033333333","6501400","蘆洲區"
"247005","341-TH","2017/08/03 14:09:22","新北市蘆洲區九芎街77號","121.46672","25.0790416666667","6501400","蘆洲區"
"247023","337-TH","2017/08/03 14:09:25","新北市蘆洲區光榮路118-2號","121.465005","25.0891366666667","6501400","蘆洲區"
"247001","336-TH","2017/08/03 14:09:21","新北市蘆洲區永平街47號","121.457935","25.0912116666667","6501400","蘆洲區"
"247013","057-VK","2017/08/03 14:09:31","新北市蘆洲區三民路155號","121.471433333333","25.0868416666667","6501400","蘆洲區"
"247003","056-VK","2017/08/03 14:09:26","新北市蘆洲區長安街102巷6號","121.462101666667","25.0814616666667","6501400","蘆洲區"
"247011","007-UY","2017/08/03 14:09:22","新北市蘆洲區信義路317號","121.47836","25.0863883333333","6501400","蘆洲區"
"247021","002-UY","2017/08/03 14:09:29","新北市蘆洲區三民路165號","121.471278333333","25.0869233333333","6501400","蘆洲區"
"247015","001-UY","2017/08/03 14:09:16","新北市蘆洲區光華路46巷18號","121.468361666667","25.0836583333333","6501400","蘆洲區"
"228005","097-TW","2017/08/03 14:09:29","新北市貢寮區美豐里雞母嶺街52號","121.891053333333","25.0667166666667","6502600","貢寮區"
"228004","212-TW","2017/08/03 14:09:23","新北市貢寮區雙玉里下雙溪街10-3號","121.916103333333","25.0136133333333","6502600","貢寮區"
"208004","AAC-292","2017/08/03 14:09:24","新北市金山區六股里下六股65號","121.614423333333","25.2237033333333","6502700","金山區"
"207002","749-BX","2017/08/03 14:09:12","新北市萬里區溪底里瑞泉路12號","121.603038333333","25.1441916666667","6502800","萬里區"
"207001","662-BX","2017/08/03 14:09:22","新北市萬里區磺潭里清水18號","121.637865","25.1976133333333","6502800","萬里區"
"252005","AAC-283","2017/08/03 14:09:32","新北市三芝區橫山里橫山33號","121.543611666667","25.2586","6502100","三芝區"
"236066","105-UM","2017/08/03 14:09:22","新北市土城區金城路一段88巷22號","121.445695","24.9728983333333","6501300","土城區"
"236040","107-UM","2017/08/03 14:09:22","新北市土城區裕生路61號","121.447645","24.9861183333333","6501300","土城區"
"236076","166-UM","2017/08/03 14:09:19","新北市土城區永寧路29號","121.430411666667","24.9633283333333","6501300","土城區"
"236028","253-BX","2017/08/03 14:09:18","新北市土城區城林路6巷80號","121.43837","24.9797883333333","6501300","土城區"
"236024","269-VK","2017/08/03 14:09:27","新北市土城區承天路65號","121.439698333333","24.96364","6501300","土城區"
"236012","270-VK","2017/08/03 14:09:28","新北市土城區學府路一段144巷2號","121.45512","24.9872333333333","6501300","土城區"
"236033","271-VK","2017/08/03 14:09:14","新北市土城區明德路一段365-1號","121.453575","24.9790366666667","6501300","土城區"
"236018","401-BY","2017/08/03 14:09:11","新北市土城區學士路123號","121.446438333333","24.97587","6501300","土城區"
"236005","498-BY","2017/08/03 14:09:19","新北市土城區中華路一段10-1號","121.448005","24.99069","6501300","土城區"
"236056","912-UM","2017/08/03 14:09:25","新北市土城區中央路四段24號","121.420885","24.9608533333333","6501300","土城區"
"236047","913-UM","2017/08/03 14:09:10","新北市土城區明德路一段365-1號","121.45355","24.979025","6501300","土城區"
"236060","915-UM","2017/08/03 14:09:21","新北市土城區金城路二段386號","121.463488333333","24.9856616666667","6501300","土城區"
"236052","AAC-216","2017/08/03 14:09:22","新北市土城區中華路二段100號","121.438116666667","24.9743666666667","6501300","土城區"
"242003","442-UM","2017/08/03 11:28:28","新北市新莊區三和路12-21號","121.441893333333","25.03885","6500500","新莊區"
"242043","172-VK","2017/08/03 14:09:31","新北市樹林區中山路三段210-2號","121.381235","24.9657283333333","6500500","新莊區"
"221032","280-BY","2017/08/03 14:09:32","新北市汐止區橫科路367巷26號","121.623363333333","25.0483483333333","6501100","汐止區"
"220027","145-BY","2017/08/03 14:09:18","新北市板橋區民權路202巷14弄16號","121.46124","25.01557","6500100","板橋區"
"220028","200-UY","2017/08/03 14:09:28","新北市板橋區大觀路二段7巷106號","121.450305","25.002885","6500100","板橋區"
"220030","610-BX","2017/08/03 14:09:29","新北市板橋區滿平街148號","121.429096666667","24.9879333333333","6500100","板橋區"
"220051","257-TC","2017/08/03 14:09:29","新北市板橋區田單街2巷26號","121.482138333333","25.0280266666667","6500100","板橋區"
"220043","267-BY","2017/08/03 14:09:22","新北市板橋區光武街159號","121.465398333333","25.02973","6500100","板橋區"
"220004","276-BY","2017/08/03 14:09:14","新北市板橋區信義路110巷2弄1號","121.457978333333","24.9922283333333","6500100","板橋區"
"220020","277-BY","2017/08/03 14:09:19","新北市板橋區金門街379巷23號","121.428783333333","24.9841916666667","6500100","板橋區"
"220050","285-UM","2017/08/03 14:09:20","新北市板橋區莊敬路211號","121.471896666667","25.0221866666667","6500100","板橋區"
"220001","285-VK","2017/08/03 14:09:16","新北市板橋區懷仁街14巷23號","121.475601666667","25.0195516666667","6500100","板橋區"
"220031","286-VK","2017/08/03 14:09:31","新北市板橋區大觀路一段38巷2號","121.443735","25.00439","6500100","板橋區"
"220029","287-VK","2017/08/03 14:09:26","新北市板橋區南雅西路二段156巷55號","121.452493333333","25.0126433333333","6500100","板橋區"
"220039","288-VK","2017/08/03 14:09:17","新北市板橋區四維路269巷16號","121.46247","25.0281833333333","6500100","板橋區"
"220009","293-UM","2017/08/03 14:09:32","新北市板橋區中山路二段288巷2弄1號","121.479801666667","25.0182716666667","6500100","板橋區"
"220013","295-UM","2017/08/03 14:09:23","新北市板橋區民族路219巷7號","121.46941","25.007955","6500100","板橋區"
"220032","296-UM","2017/08/03 14:09:30","新北市板橋區篤行路一段16-1號","121.431266666667","24.9954683333333","6500100","板橋區"
"220023","297-UM","2017/08/03 14:09:20","新北市板橋區大仁街113號","121.45238","25.01562","6500100","板橋區"
"220047","299-UM","2017/08/03 14:09:23","新北市板橋區四維路129號","121.465085","25.025105","6500100","板橋區"
"220010","303-R5","2017/08/03 14:09:28","新北市中和區環中路120號","121.481881666667","25.0124483333333","6500100","板橋區"
"220041","307-R5","2017/08/03 14:09:31","新北市板橋區文化路二段225巷62號","121.46922","25.0284733333333","6500100","板橋區"
"220012","486-VK","2017/08/03 02:36:08","新北市板橋區民生路二段36-1號","121.472296666667","25.0167466666667","6500100","板橋區"
"220038","487-VK","2017/08/03 14:09:32","新北市板橋區文化路二段516號","121.475663333333","25.0335483333333","6500100","板橋區"
"220037","491-VK","2017/08/03 14:09:13","新北市板橋區文化路二段182巷9弄9號","121.472641666667","25.0269766666667","6500100","板橋區"
"220104","560-BX","2017/08/03 14:09:28","新北市板橋區中正路379巷3弄38-1號","121.453231666667","25.02128","6500100","板橋區"
"220052","561-BX","2017/08/03 14:09:24","新北市板橋區文化路一段188巷9弄21號","121.468553333333","25.0194283333333","6500100","板橋區"
"220019","568-UM","2017/08/03 14:09:13","新北市板橋區忠孝路132號","121.463365","25.0022133333333","6500100","板橋區"
"220011","609-BX","2017/08/03 14:09:31","新北市板橋區三民路二段72號","121.479251666667","25.0171","6500100","板橋區"
"220040","637-BX","2017/08/03 14:09:23","新北市板橋區萬板路378號","121.478403333333","25.02545","6500100","板橋區"
"220005","686-BX","2017/08/03 14:09:17","新北市板橋區重慶路78號","121.461816666667","25.006215","6500100","板橋區"
"220025","687-BX","2017/08/03 14:09:13","新北市板橋區大觀路二段174巷190號","121.442215","25.0038616666667","6500100","板橋區"
"220042","689-BX","2017/08/03 14:09:28","新北市板橋區民生路三段257號","121.464368333333","25.0293033333333","6500100","板橋區"
"220002","741-BX","2017/08/03 14:09:24","新北市板橋區重慶路93巷23號","121.462928333333","25.0058833333333","6500100","板橋區"
"220003","827-TW","2017/08/03 14:09:22","新北市板橋區中山路一段140號","121.463428333333","25.0109566666667","6500100","板橋區"
"220014","829-TW","2017/08/03 14:09:14","新北市板橋區中山路二段90巷43弄18-2號","121.476946666667","25.0151916666667","6500100","板橋區"
"220022","895-R6","2017/08/03 14:09:17","新北市板橋區府中路127號","121.456075","25.00954","6500100","板橋區"
"220021","985-R7","2017/08/03 14:09:32","新北市板橋區中正路42號","121.45642","25.0140683333333","6500100","板橋區"
"220046","AAC-210","2017/08/03 14:09:16","新北市板橋區新生街98巷22號","121.459063333333","25.0215216666667","6500100","板橋區"
"220018","AAC-253","2017/08/03 14:09:21","新北市板橋區忠孝路2號","121.45943","25.001695","6500100","板橋區"
