"lineid","car","time","location","longitude","latitude","cityid","cityname"
"234044","148-BY","2017/08/03 14:19:25","新北市永和區成功路二段89號","121.526863333333","24.9993066666667","6500400","永和區"
"234012","149-BY","2017/08/03 14:19:19","新北市永和區仁愛路273號","121.506003333333","25.0098183333333","6500400","永和區"
"234005","207-UY","2017/08/03 14:19:24","新北市中和區中和路232號","121.50673","24.999505","6500400","永和區"
"234078","298-R6","2017/08/03 14:19:21","新北市永和區永貞路39巷13號","121.52243","25.0064116666667","6500400","永和區"
"234036","336-UY","2017/08/03 14:19:24","新北市永和區成功路一段93巷2號","121.527245","25.0027216666667","6500400","永和區"
"234062","337-UY","2017/08/03 14:19:33","新北市永和區得和路110號","121.518375","25.0001683333333","6500400","永和區"
"234084","338-UY","2017/08/03 14:19:17","新北市永和區中正路575-1號","121.516728333333","25.0086366666667","6500400","永和區"
"234068","552-UM","2017/08/03 14:19:27","新北市永和區永寧街20號","121.520071666667","25.006955","6500400","永和區"
"234052","553-UM","2017/08/03 14:19:26","新北市永和區博愛街18巷1號","121.517651666667","25.015785","6500400","永和區"
"234028","746-BX","2017/08/03 14:19:13","新北市中和區景平路1號","121.526293333333","24.9888383333333","6500400","永和區"
"234060","AAD-866","2017/08/03 14:19:27","新北市永和區得和路49號","121.51669","25.0001183333333","6500400","永和區"
"234040","862-TW","2017/08/03 14:19:30","新北市中和區中安街188號","121.511241666667","24.9993583333333","6500400","永和區"
"234048","863-TW","2017/08/03 14:19:24","新北市永和區環河西路二段33號","121.50736","25.015825","6500400","永和區"
"234025","9371-KE","2017/08/03 14:19:12","新北市永和區中正路51號","121.514386666667","24.996435","6500400","永和區"
"234010","9373-KE","2017/08/03 14:19:27","新北市永和區仁愛路352巷120號","121.500205","25.0084816666667","6500400","永和區"
"248015","026-BX","2017/08/03 14:19:29","新北市五股區成洲五路12號","121.452361666667","25.1015466666667","6501500","五股區"
"248007","095-VK","2017/08/03 14:19:10","新北市五股區中興路二段83巷26-6號","121.4601","25.0752633333333","6501500","五股區"
"248011","247-BX","2017/08/03 14:19:23","新北市五股區成泰路二段91巷8號","121.437685","25.084405","6501500","五股區"
"248017","261-SL","2017/08/03 14:19:10","新北市五股區壟路17-1號","121.414076666667","25.0850916666667","6501500","五股區"
"248009","272-BY","2017/08/03 14:19:26","新北市五股區水碓一路23號","121.430546666667","25.0712583333333","6501500","五股區"
"248003","677-BX","2017/08/03 14:19:30","新北市五股區五福路45號","121.43311","25.0895666666667","6501500","五股區"
"248001","678-BX","2017/08/03 14:19:27","新北市五股區成泰路三段635號","121.452666666667","25.1045433333333","6501500","五股區"
"234022","9380-KE","2017/08/03 14:19:20","新北市永和區竹林路23號","121.51719","25.0147566666667","6500400","永和區"
"234076","969-R7","2017/08/03 14:19:20","新北市永和區民族街182巷1號","121.51826","24.9966066666667","6500400","永和區"
"234072","AAC-211","2017/08/03 14:19:17","新北市永和區福和路74號","121.523093333333","25.0080033333333","6500400","永和區"
"234066","AAC-212","2017/08/03 14:19:21","新北市永和區保平路214巷1弄1號","121.509508333333","25.00606","6500400","永和區"
"234001","AAC-295","2017/08/03 14:19:26","新北市永和區中正路696號","121.516555","25.0096516666667","6500400","永和區"
"244025","656-BX","2017/08/03 09:22:30","新北市林口區粉寮路二段160巷28號","121.405215","25.0907683333333","6501700","林口區"
"243005","AAD-798","2017/08/03 14:19:22","新北市泰山區明志路三段145巷53弄1號","121.426643333333","25.0393433333333","6501600","泰山區"
"243001","297-R6","2017/08/03 14:19:25","新北市泰山區明志路一段17號","121.433693333333","25.06576","6501600","泰山區"
"243007","380-SR","2017/08/03 14:19:27","新北市泰山區公園路18號","121.429516666667","25.0541416666667","6501600","泰山區"
"243006","421-VK","2017/08/03 14:19:28","新北市泰山區泰林路二段94號","121.434851666667","25.0587933333333","6501600","泰山區"
"243002","548-UM","2017/08/03 14:19:13","新北市泰山區明志路二段7巷4號","121.430515","25.05338","6501600","泰山區"
"243003","549-UM","2017/08/03 14:19:24","新北市泰山區貴子路120號","121.428333333333","25.0406333333333","6501600","泰山區"
"243004","646-TV","2017/08/03 14:19:19","新北市泰山區仁義路222號","121.433008333333","25.0536566666667","6501600","泰山區"
"243008","680-BX","2017/08/03 14:19:19","新北市泰山區工專路4號","121.424056666667","25.0394616666667","6501600","泰山區"
"231002","002-UM","2017/08/03 14:19:14","新北市新店區中正路468-2號","121.533851666667","24.9798683333333","6500600","新店區"
"231025","0291-UT","2017/08/03 14:19:14","新北市新店區二十張路107號","121.536526666667","24.9796016666667","6500600","新店區"
"231028","046-UY","2017/08/03 14:19:11","新北市新店區安和路二段35號","121.51802","24.9677583333333","6500600","新店區"
"231030","047-UY","2017/08/03 14:19:13","新北市新店區安民街11號","121.515286666667","24.9644933333333","6500600","新店區"
"231029","106-UY","2017/08/03 14:19:16","新北市新店區安康路二段204號","121.510243333333","24.9596016666667","6500600","新店區"
"231018","107-UY","2017/08/03 14:19:19","新北市新店區中央四街60號","121.52727","24.9752466666667","6500600","新店區"
"231011","108-UY","2017/08/03 14:19:20","新北市新店區五峰路61巷16號","121.549136666667","24.969555","6500600","新店區"
"231021","187-VK","2017/08/03 14:19:23","新北市新店區桂山路81巷1號","121.567203333333","24.8992866666667","6500600","新店區"
"231031","188-VK","2017/08/03 14:19:23","新北市新店區秀山路66號","121.53068","24.9608833333333","6500600","新店區"
"231007","189-VK","2017/08/03 12:02:41","新北市新店區安華路28-1號","121.51978","24.9609216666667","6500600","新店區"
"231068","260-TV","2017/08/03 14:15:19","新北市新店區僑信路25號","121.499538333333","24.9513483333333","6500600","新店區"
"231034","268-BY","2017/08/03 14:19:23","新北市新店區黎明路3號","121.50362","24.952465","6500600","新店區"
"231017","AAD-862","2017/08/03 14:19:27","新北市新店區中生路125-1號","121.565948333333","24.9507566666667","6500600","新店區"
"231027","3712-VJ","2017/08/03 14:19:18","新北市新店區光明街286巷4號","121.540575","24.96381","6500600","新店區"
"231038","4715-K9","2017/08/03 14:19:22","新北市新店區安康路一段17號","121.533201666667","24.960245","6500600","新店區"
"231036","512-UM","2017/08/03 14:19:23","新北市新店區安祥路109巷92號","121.478228333333","24.9594716666667","6500600","新店區"
"231023","513-UM","2017/08/03 14:19:13","新北市新店區光明街35號","121.538546666667","24.9597116666667","6500600","新店區"
"231035","515-UM","2017/08/03 14:19:29","新北市新店區安民街93號","121.51642","24.968175","6500600","新店區"
"231001","619-UM","2017/08/03 14:19:24","新北市新店區北新路一段263號","121.541018333333","24.9664966666667","6500600","新店區"
"231003","641-BX","2017/08/03 14:19:14","新北市新店區中興路一段216號","121.543906666667","24.9656183333333","6500600","新店區"
"231013","719-UM","2017/08/03 14:19:11","新北市新店區大豐路66號","121.539283333333","24.9795366666667","6500600","新店區"
"231005","897-TW","2017/08/03 14:19:26","新北市新店區中興路三段221-1號","121.543313333333","24.9826566666667","6500600","新店區"
"231006","898-TW","2017/08/03 14:19:12","新北市新店區北宜路二段599號","121.568628333333","24.9557783333333","6500600","新店區"
"231004","899-TW","2017/08/03 14:19:31","新北市新店區北新路二段6號","121.54286","24.9710483333333","6500600","新店區"
"231037","AKT-0513","2017/08/03 14:19:19","新北市新店區車子路63號","121.503955","24.9514333333333","6500600","新店區"
"235030","003-UY","2017/08/03 14:19:28","新北市中和區景新街2號","121.502591666667","24.9996583333333","6500300","中和區"
"235028","005-UY","2017/08/03 14:19:29","新北市中和區中和路40巷3號","121.4996","25.00119","6500300","中和區"
"235027","006-UY","2017/08/03 14:19:18","新北市中和區連城路249巷8弄2-3號","121.493638333333","24.9967416666667","6500300","中和區"
"235020","096-UM","2017/08/03 14:19:23","新北市中和區員山路568號","121.478678333333","25.0105516666667","6500300","中和區"
"235003","097-UM","2017/08/03 14:19:28","新北市中和區秀峰街119巷8弄1號","121.519318333333","24.9897783333333","6500300","中和區"
"235029","098-UM","2017/08/03 14:19:11","新北市中和區中山路二段64巷14弄26號","121.503851666667","25.0061933333333","6500300","中和區"
"235004","150-BY","2017/08/03 14:19:12","新北市中和區保健路78號","121.511713333333","24.9963466666667","6500300","中和區"
"235022","151-BY","2017/08/03 14:19:23","新北市中和區員山路36巷16-3號","121.48511","24.9914666666667","6500300","中和區"
"235019","183-VK","2017/08/03 14:19:27","新北市中和區莒光路41號","121.47208","25.0048616666667","6500300","中和區"
"235002","185-VK","2017/08/03 14:19:12","新北市中和區大仁街20巷21號","121.51848","24.9933216666667","6500300","中和區"
"235013","186-VK","2017/08/03 14:19:28","新北市中和區景新街228-6號","121.508245","24.994295","6500300","中和區"
"235031","255-BX","2017/08/03 14:19:14","新北市中和區新生街191號","121.48372","25.0002283333333","6500300","中和區"
"235008","293-VK","2017/08/03 14:19:26","新北市中和區中興街222-5號","121.50067","24.9895816666667","6500300","中和區"
"235036","301-VK","2017/08/03 14:19:25","新北市中和區景平路707號","121.496583333333","25.003645","6500300","中和區"
"235007","352-BY","2017/08/03 14:19:24","新北市中和區景平路296號","121.51284","24.9925333333333","6500300","中和區"
"235015","376-QA","2017/08/03 14:19:29","新北市中和區興南路一段56巷3弄6號","121.510331666667","24.9910183333333","6500300","中和區"
"235032","377-QA","2017/08/03 14:19:16","新北市中和區安邦街87號","121.496971666667","24.9962933333333","6500300","中和區"
"235025","378-QA","2017/08/03 14:19:17","新北市中和區員山路150-17號","121.481441666667","24.9978333333333","6500300","中和區"
"235033","4980-A6","2017/08/03 14:19:12","新北市中和區中山路二段220號","121.49946","25.0028316666667","6500300","中和區"
"235006","551-UM","2017/08/03 14:19:14","新北市中和區安樂路185號","121.51484","24.9980266666667","6500300","中和區"
"235034","558-UM","2017/08/03 14:19:13","新北市中和區中和路143號","121.502143333333","24.9997633333333","6500300","中和區"
"235009","565-BX","2017/08/03 14:19:18","新北市中和區景新街437巷6號","121.51367","24.9891316666667","6500300","中和區"
"235018","640-BX","2017/08/03 14:19:16","新北市中和區民德路187號","121.468543333333","24.9992433333333","6500300","中和區"
"235024","647-TV","2017/08/03 14:19:24","新北市中和區民有街49號","121.475906666667","25.0047283333333","6500300","中和區"
"235011","732-UM","2017/08/03 14:19:25","新北市中和區和平街54巷8弄1號","121.50896","24.9913566666667","6500300","中和區"
"235010","733-UM","2017/08/03 14:19:18","新北市中和區華新街115號","121.507295","24.9820516666667","6500300","中和區"
"235035","783-BX","2017/08/03 14:19:18","新北市中和區新生街280號","121.483718333333","24.996795","6500300","中和區"
"235026","800-TS","2017/08/03 14:19:32","新北市中和區橋和路112巷6號","121.491336666667","25.004715","6500300","中和區"
"235021","801-TS","2017/08/03 14:19:23","新北市中和區民利街48號","121.479341666667","24.99883","6500300","中和區"
"235005","802-TS","2017/08/03 14:19:19","新北市中和區宜安路118巷32號","121.511176666667","24.9990383333333","6500300","中和區"
"235016","805-TS","2017/08/03 14:19:28","新北市中和區興南路二段114巷4號","121.50417","24.9842716666667","6500300","中和區"
"235012","896-TW","2017/08/03 14:19:18","新北市中和區華新街109巷1弄1號","121.508718333333","24.9825333333333","6500300","中和區"
"235017","900-TW","2017/08/03 14:19:21","新北市中和區華安街30巷2號","121.46701","24.9977533333333","6500300","中和區"
"235001","AAC-213","2017/08/03 14:19:22","新北市中和區秀朗路三段60-1號","121.526238333333","24.99502","6500300","中和區"
"235023","AAC-215","2017/08/03 14:19:22","新北市中和區圓通路286巷26號","121.492041666667","24.9915366666667","6500300","中和區"
"220016","013-TV","2017/08/03 14:19:15","新北市板橋區林森街1巷33-3號","121.482836666667","25.0243683333333","6500100","板橋區"
"220034","073-UY","2017/08/03 14:19:28","新北市板橋區中正路216巷53號","121.457445","25.0189133333333","6500100","板橋區"
"220105","075-UY","2017/08/03 14:19:28","新北市板橋區文化路二段369巷29號","121.472028333333","25.03182","6500100","板橋區"
"220017","AAD-861","2017/08/03 14:19:11","新北市板橋區華興街41號","121.457998333333","25.0046183333333","6500100","板橋區"
"220045","120-SR","2017/08/03 14:19:16","新北市板橋區大同街14-4號","121.477461666667","25.0269583333333","6500100","板橋區"
"247019","893-R6","2017/08/03 14:19:27","新北市蘆洲區仁愛街35巷12號","121.47147","25.092685","6501400","蘆洲區"
"247009","546-UM","2017/08/03 14:19:27","新北市蘆洲區三民路26巷26弄1號","121.477666666667","25.083025","6501400","蘆洲區"
"247005","341-TH","2017/08/03 14:19:19","新北市蘆洲區永安南路二段16巷17弄39號","121.466521666667","25.0779716666667","6501400","蘆洲區"
"247007","339-TH","2017/08/03 14:19:21","新北市蘆洲區中山一路225號","121.473895","25.0807","6501400","蘆洲區"
"247023","337-TH","2017/08/03 14:19:25","新北市蘆洲區長榮路709號","121.461066666667","25.092955","6501400","蘆洲區"
"247001","336-TH","2017/08/03 14:19:21","新北市蘆洲區永樂街52-1號","121.457483333333","25.0885266666667","6501400","蘆洲區"
"247013","057-VK","2017/08/03 14:19:31","新北市蘆洲區成功路49巷2號","121.47245","25.080325","6501400","蘆洲區"
"247003","056-VK","2017/08/03 14:19:26","新北市蘆洲區長安街152號","121.459918333333","25.082525","6501400","蘆洲區"
"247017","053-VK","2017/08/03 14:19:23","新北市蘆洲區民族路408巷16號","121.474995","25.0921466666667","6501400","蘆洲區"
"247011","007-UY","2017/08/03 14:19:22","新北市蘆洲區民權路38巷8號","121.476388333333","25.0865766666667","6501400","蘆洲區"
"247021","002-UY","2017/08/03 14:19:09","新北市蘆洲區三民路230號","121.468678333333","25.0897033333333","6501400","蘆洲區"
"247015","001-UY","2017/08/03 14:19:16","新北市蘆洲區中正路185巷25弄2號","121.466728333333","25.084305","6501400","蘆洲區"
"228005","097-TW","2017/08/03 14:18:29","新北市貢寮區美豐里土地公嶺5-2號","121.8961","25.0593166666667","6502600","貢寮區"
"228004","212-TW","2017/08/03 14:19:23","新北市貢寮區雙玉里田寮洋街39號","121.924838333333","25.0138083333333","6502600","貢寮區"
"228002","585-TW","2017/08/03 14:19:13","新北市貢寮區貢寮里朝陽街2號","121.913151666667","25.0216016666667","6502600","貢寮區"
"208004","AAC-292","2017/08/03 14:19:24","新北市金山區六股里下六股65號","121.61443","25.2236333333333","6502700","金山區"
"207002","749-BX","2017/08/03 14:19:32","新北市萬里區溪底里溪底路21號","121.612818333333","25.1492283333333","6502800","萬里區"
"207001","662-BX","2017/08/03 14:19:22","新北市萬里區磺潭里清水18號","121.637826666667","25.1976733333333","6502800","萬里區"
"252005","AAC-283","2017/08/03 14:19:20","新北市三芝區橫山里大坑85號","121.5298","25.2590633333333","6502100","三芝區"
"236066","105-UM","2017/08/03 14:19:23","新北市土城區明德路一段128巷2號","121.463235","24.9790783333333","6501300","土城區"
"236040","107-UM","2017/08/03 14:19:22","新北市土城區裕生路21巷6弄21號","121.448758333333","24.9868816666667","6501300","土城區"
"236076","166-UM","2017/08/03 14:19:19","新北市土城區永平街6號","121.427883333333","24.9628833333333","6501300","土城區"
"236028","253-BX","2017/08/03 14:19:18","新北市土城區順風路30號","121.440078333333","24.977065","6501300","土城區"
"236024","269-VK","2017/08/03 14:19:27","新北市土城區承天路43巷6號","121.439348333333","24.96389","6501300","土城區"
"236012","270-VK","2017/08/03 14:19:28","新北市土城區青雲路39巷7號","121.460305","24.9875466666667","6501300","土城區"
"236033","271-VK","2017/08/03 14:19:14","新北市土城區青雲路483巷9號","121.459346666667","24.97362","6501300","土城區"
"236018","401-BY","2017/08/03 14:19:11","新北市土城區延吉街302號","121.464271666667","24.984065","6501300","土城區"
"236005","498-BY","2017/08/03 14:19:24","新北市土城區中華路一段70巷23號","121.443703333333","24.98938","6501300","土城區"
"236056","912-UM","2017/08/03 14:19:25","新北市土城區中央路四段268號","121.414643333333","24.9566883333333","6501300","土城區"
"236047","913-UM","2017/08/03 14:19:10","新北市土城區明德路一段355-5號","121.457008333333","24.97755","6501300","土城區"
"236060","915-UM","2017/08/03 14:19:21","新北市土城區延壽路44巷11號","121.471413333333","24.9929316666667","6501300","土城區"
"236052","AAC-216","2017/08/03 14:19:22","新北市土城區中華路二段193號","121.438203333333","24.9743566666667","6501300","土城區"
"242003","442-UM","2017/08/03 11:28:28","新北市新莊區三和路12-21號","121.441893333333","25.03885","6500500","新莊區"
"242043","172-VK","2017/08/03 14:19:11","新北市樹林區育德街78-1號","121.3882","24.9681683333333","6500500","新莊區"
"221032","280-BY","2017/08/03 14:19:12","台北市南港區舊莊街一段3巷52號","121.619156666667","25.0431533333333","6501100","汐止區"
"220027","145-BY","2017/08/03 14:19:19","新北市板橋區民權路202巷13弄38號","121.458463333333","25.0163833333333","6500100","板橋區"
"220028","200-UY","2017/08/03 14:19:28","新北市板橋區大觀路二段19巷113號","121.450388333333","25.0026483333333","6500100","板橋區"
"220030","610-BX","2017/08/03 14:19:20","新北市板橋區溪崑二街25號","121.428576666667","24.991315","6500100","板橋區"
"220051","257-TC","2017/08/03 14:19:29","新北市板橋區田單街49巷1弄35號","121.482298333333","25.0295283333333","6500100","板橋區"
"220043","267-BY","2017/08/03 14:19:22","新北市板橋區吳鳳路19-9號","121.466938333333","25.030735","6500100","板橋區"
"220004","276-BY","2017/08/03 14:19:27","新北市板橋區信義路89號","121.45788","24.9942183333333","6500100","板橋區"
"220020","277-BY","2017/08/03 14:19:19","新北市板橋區金門街280巷11號","121.429063333333","24.9862433333333","6500100","板橋區"
"220050","285-UM","2017/08/03 14:19:20","新北市板橋區雙十路二段47巷27號","121.475273333333","25.02559","6500100","板橋區"
"220001","285-VK","2017/08/03 14:19:20","新北市板橋區富山街7巷5號","121.47856","25.0215133333333","6500100","板橋區"
"220031","286-VK","2017/08/03 14:19:19","新北市板橋區大觀路二段174巷165弄18號","121.44115","25.0037333333333","6500100","板橋區"
"220029","287-VK","2017/08/03 14:19:25","新北市板橋區南雅西路一段186號","121.452975","25.0081916666667","6500100","板橋區"
"220039","288-VK","2017/08/03 14:19:17","新北市板橋區四維路298號","121.462745","25.02937","6500100","板橋區"
"220009","293-UM","2017/08/03 14:19:12","新北市板橋區中山路二段318巷20弄27號","121.481108333333","25.019265","6500100","板橋區"
"220013","295-UM","2017/08/03 14:19:23","新北市板橋區民族路129巷1號","121.467448333333","25.0081783333333","6500100","板橋區"
"220032","296-UM","2017/08/03 14:19:27","新北市板橋區溪崑二街22巷9號","121.428198333333","24.991495","6500100","板橋區"
"220023","297-UM","2017/08/03 14:19:20","新北市板橋區大智街30號","121.455383333333","25.01493","6500100","板橋區"
"220047","299-UM","2017/08/03 14:19:23","新北市板橋區四維路115-3號","121.465365","25.024775","6500100","板橋區"
"220010","303-R5","2017/08/03 14:19:26","新北市板橋區三民路二段居仁巷1弄37號","121.480388333333","25.0136583333333","6500100","板橋區"
"220041","307-R5","2017/08/03 14:19:31","新北市板橋區光武街48巷32號","121.468271666667","25.026985","6500100","板橋區"
"220012","486-VK","2017/08/03 02:36:08","新北市板橋區民生路二段36-1號","121.472296666667","25.0167466666667","6500100","板橋區"
"220038","487-VK","2017/08/03 14:19:20","新北市板橋區文化路二段164號","121.470405","25.027145","6500100","板橋區"
"220037","491-VK","2017/08/03 14:19:13","新北市板橋區雙十路二段239號","121.472725","25.0290083333333","6500100","板橋區"
"220104","560-BX","2017/08/03 14:19:28","新北市板橋區新生街23巷19號","121.456536666667","25.0225266666667","6500100","板橋區"
"220052","561-BX","2017/08/03 14:19:14","新北市板橋區文化路一段188巷7弄13號","121.467593333333","25.0197283333333","6500100","板橋區"
"220019","568-UM","2017/08/03 14:19:18","新北市板橋區重慶路327巷17號","121.464588333333","24.9986616666667","6500100","板橋區"
"220011","609-BX","2017/08/03 14:19:11","新北市板橋區三民路二段202-16號","121.47884","25.0135666666667","6500100","板橋區"
"220040","637-BX","2017/08/03 14:19:23","新北市板橋區縣民大道三段189號","121.479503333333","25.02476","6500100","板橋區"
"220005","686-BX","2017/08/03 14:19:17","新北市板橋區國慶路280號","121.463291666667","24.9989916666667","6500100","板橋區"
"220025","687-BX","2017/08/03 14:19:12","新北市板橋區龍興街10號","121.442786666667","24.9996866666667","6500100","板橋區"
"220042","689-BX","2017/08/03 14:19:28","新北市板橋區文化路一段407號","121.46731","25.0221266666667","6500100","板橋區"
"220002","741-BX","2017/08/03 14:19:24","新北市板橋區四川路一段160號","121.459958333333","25.00329","6500100","板橋區"
"220003","827-TW","2017/08/03 14:19:22","新北市板橋區館前東路156巷10號","121.464313333333","25.007225","6500100","板橋區"
"220014","829-TW","2017/08/03 14:19:30","新北市板橋區長安街138巷3弄47號","121.474001666667","25.0096816666667","6500100","板橋區"
"220022","895-R6","2017/08/03 14:19:17","新北市板橋區北門街17號","121.456996666667","25.0110116666667","6500100","板橋區"
"220021","985-R7","2017/08/03 14:19:32","新北市板橋區民權路217號","121.457728333333","25.0151633333333","6500100","板橋區"
"220046","AAC-210","2017/08/03 14:19:16","新北市板橋區幸福路70巷1號","121.460771666667","25.0199266666667","6500100","板橋區"
"220018","AAC-253","2017/08/03 14:19:21","新北市板橋區四川路一段316號","121.458423333333","25.00019","6500100","板橋區"
