"lineid","car","time","location","longitude","latitude","cityid","cityname"
"234044","148-BY","2017/08/03 14:49:16","新北市五股區五工一路112號","121.45618","25.0712883333333","6500400","永和區"
"234005","207-UY","2017/08/03 14:49:24","新北市永和區安樂路208-1號","121.515031666667","25.0020616666667","6500400","永和區"
"234036","336-UY","2017/08/03 14:49:21","新北市板橋區民生路三段160-1號","121.46577","25.0275466666667","6500400","永和區"
"234028","746-BX","2017/08/03 14:49:28","新北市中和區中正路190-1號","121.497996666667","24.993785","6500400","永和區"
"234025","9371-KE","2017/08/03 14:49:33","新北市永和區雙和街52巷1號","121.508961666667","25.0032366666667","6500400","永和區"
"248013","025-BX","2017/08/03 14:49:29","新北市五股區五福路22巷2號","121.434408333333","25.0889416666667","6501500","五股區"
"248015","026-BX","2017/08/03 14:49:29","新北市五股區成泰路三段577巷80弄25號","121.449528333333","25.1045483333333","6501500","五股區"
"248007","095-VK","2017/08/03 14:49:30","新北市五股區四維路171巷4號","121.467626666667","25.0751666666667","6501500","五股區"
"248011","247-BX","2017/08/03 14:49:18","新北市五股區民義路一段216號","121.430418333333","25.08957","6501500","五股區"
"248017","261-SL","2017/08/03 14:24:10","新北市五股區外寮路9-7號","121.420143333333","25.0782216666667","6501500","五股區"
"248009","272-BY","2017/08/03 14:49:26","新北市五股區成泰路一段87號","121.434758333333","25.0688533333333","6501500","五股區"
"248003","677-BX","2017/08/03 14:49:30","新北市五股區成泰路一段163號","121.4352","25.074355","6501500","五股區"
"248001","678-BX","2017/08/03 14:49:18","新北市五股區成泰路三段165號","121.445193333333","25.09183","6501500","五股區"
"234066","AAC-212","2017/08/03 14:49:21","新北市板橋區萬安街20巷4弄16號","121.485358333333","25.0229766666667","6500400","永和區"
"244025","656-BX","2017/08/03 09:22:30","新北市林口區粉寮路二段160巷28號","121.405215","25.0907683333333","6501700","林口區"
"243005","AAD-798","2017/08/03 14:49:02","新北市泰山區應化街13號","121.42383","25.043655","6501600","泰山區"
"243001","297-R6","2017/08/03 14:49:25","新北市泰山區泰林路二段116巷1弄1號","121.434853333333","25.05942","6501600","泰山區"
"243007","380-SR","2017/08/03 14:49:28","新北市泰山區明志路一段452號","121.430718333333","25.0557366666667","6501600","泰山區"
"243006","421-VK","2017/08/03 14:49:21","新北市泰山區明志路一段24號","121.43356","25.0654416666667","6501600","泰山區"
"243002","548-UM","2017/08/03 14:49:23","新北市泰山區新生路31巷10號","121.42769","25.046075","6501600","泰山區"
"243003","549-UM","2017/08/03 14:49:24","新北市新莊區丹鳳街36號","121.421635","25.0295766666667","6501600","泰山區"
"243004","646-TV","2017/08/03 14:49:19","新北市泰山區楓江路86巷7號","121.4372","25.0628966666667","6501600","泰山區"
"243008","680-BX","2017/08/03 14:49:21","新北市泰山區新北大道六段287號","121.424453333333","25.0341833333333","6501600","泰山區"
"231002","002-UM","2017/08/03 14:49:14","新北市新店區民權路101-1號","121.536795","24.9828666666667","6500600","新店區"
"231025","0291-UT","2017/08/03 14:49:14","新北市新店區建國路196號","121.5378","24.980495","6500600","新店區"
"231028","046-UY","2017/08/03 14:49:23","新北市新店區安德街143號","121.508463333333","24.960045","6500600","新店區"
"231030","047-UY","2017/08/03 14:49:33","新北市新店區安民街317號","121.51748","24.9742233333333","6500600","新店區"
"231029","106-UY","2017/08/03 14:49:16","新北市新店區錦秀路1-3號","121.479026666667","24.945465","6500600","新店區"
"231018","107-UY","2017/08/03 14:49:19","新北市新店區中央路234號","121.52924","24.9726783333333","6500600","新店區"
"231011","108-UY","2017/08/03 14:49:20","新北市新店區寶橋路56號","121.546098333333","24.9752333333333","6500600","新店區"
"231021","187-VK","2017/08/03 14:49:23","新北市新店區永福路61號","121.557888333333","24.929045","6500600","新店區"
"231031","188-VK","2017/08/03 14:49:22","新北市新店區安和路二段232-1號","121.517026666667","24.9769883333333","6500600","新店區"
"231007","189-VK","2017/08/03 12:02:41","新北市新店區安華路28-1號","121.51978","24.9609216666667","6500600","新店區"
"231026","256-BX","2017/08/03 14:49:22","新北市新店區安康路一段355-3號","121.519813333333","24.9625683333333","6500600","新店區"
"231068","260-TV","2017/08/03 14:40:01","新北市新店區黎明路54巷40號","121.500721666667","24.9485183333333","6500600","新店區"
"231034","268-BY","2017/08/03 14:49:23","新北市新店區車子路1-1號","121.504805","24.9578883333333","6500600","新店區"
"231017","AAD-862","2017/08/03 14:49:27","新北市新店區北宜路三段132號","121.583201666667","24.9501766666667","6500600","新店區"
"231027","3712-VJ","2017/08/03 14:49:18","新北市新店區三民路191號","121.53549","24.9757183333333","6500600","新店區"
"231036","512-UM","2017/08/03 14:49:23","新北市新店區安祥路104-5號","121.47995","24.9622616666667","6500600","新店區"
"231023","513-UM","2017/08/03 14:49:13","新北市新店區檳榔路109號","121.544421666667","24.9615866666667","6500600","新店區"
"231035","515-UM","2017/08/03 14:49:29","新北市新店區安利街26號","121.519238333333","24.974725","6500600","新店區"
"231001","619-UM","2017/08/03 14:49:24","新北市新店區三民路21巷1號","121.53904","24.9713066666667","6500600","新店區"
"231003","641-BX","2017/08/03 14:49:14","新北市新店區中興路二段121巷1號","121.547428333333","24.971995","6500600","新店區"
"231039","718-UY","2017/08/03 14:49:15","新北市新店區安康路一段355號","121.519858333333","24.9635683333333","6500600","新店區"
"231013","719-UM","2017/08/03 14:49:31","新北市新店區北新路二段97巷9弄2號","121.542045","24.9740833333333","6500600","新店區"
"231005","897-TW","2017/08/03 14:49:26","新北市新店區復興路2號","121.532335","24.98828","6500600","新店區"
"231006","898-TW","2017/08/03 14:49:32","新北市新店區北宜路一段145號","121.541326666667","24.95298","6500600","新店區"
"231004","899-TW","2017/08/03 14:49:31","新北市新店區民族路99號","121.53851","24.9777083333333","6500600","新店區"
"231037","AKT-0513","2017/08/03 14:49:19","新北市新店區柴埕路60巷15-3號","121.508026666667","24.9655683333333","6500600","新店區"
"235030","003-UY","2017/08/03 14:49:19","新北市中和區南工路1號","121.50513","24.99974","6500300","中和區"
"235028","005-UY","2017/08/03 14:49:16","新北市中和區圓通路6號","121.501791666667","24.9980616666667","6500300","中和區"
"235027","006-UY","2017/08/03 14:49:18","新北市中和區連城路139巷64號","121.49671","24.9968516666667","6500300","中和區"
"235020","096-UM","2017/08/03 14:49:23","新北市中和區員山路581巷31弄18號","121.476835","25.0103866666667","6500300","中和區"
"235003","097-UM","2017/08/03 14:49:28","新北市中和區安平路212號","121.513698333333","24.99988","6500300","中和區"
"235029","098-UM","2017/08/03 14:49:31","新北市中和區福美路269號","121.498151666667","25.0049866666667","6500300","中和區"
"235004","150-BY","2017/08/03 14:49:32","新北市中和區景新街157號","121.506653333333","24.9963","6500300","中和區"
"235022","151-BY","2017/08/03 14:49:23","新北市中和區員山路146-1號","121.481376666667","24.9967883333333","6500300","中和區"
"235019","183-VK","2017/08/03 14:49:27","新北市中和區民生街59號","121.46943","25.0051066666667","6500300","中和區"
"235002","185-VK","2017/08/03 14:49:12","新北市中和區自立路29巷14弄30號","121.522875","24.9951016666667","6500300","中和區"
"235013","186-VK","2017/08/03 14:49:28","新北市中和區景平路544號","121.502506666667","24.9947216666667","6500300","中和區"
"235031","255-BX","2017/08/03 14:49:13","新北市中和區新生街198號","121.483751666667","24.999305","6500300","中和區"
"235008","293-VK","2017/08/03 14:49:27","新北市中和區興南路一段106-1號","121.509431666667","24.9884433333333","6500300","中和區"
"235036","301-VK","2017/08/03 14:49:25","新北市中和區中和路74號","121.500585","25.0002216666667","6500300","中和區"
"235007","352-BY","2017/08/03 14:49:24","新北市中和區安平路31號","121.509446666667","24.9946783333333","6500300","中和區"
"235015","376-QA","2017/08/03 14:49:30","新北市中和區中興街233巷8弄6號","121.501258333333","24.9895333333333","6500300","中和區"
"235032","377-QA","2017/08/03 14:49:16","新北市中和區福美路245號","121.499118333333","25.0051933333333","6500300","中和區"
"235014","4979-A6","2017/08/03 14:49:30","新北市中和區景平路241巷64弄1號","121.507621666667","24.992415","6500300","中和區"
"235033","4980-A6","2017/08/03 14:49:12","新北市中和區景平路630巷11號","121.500356666667","24.9984883333333","6500300","中和區"
"235034","558-UM","2017/08/03 14:49:20","新北市中和區景平路583號","121.497718333333","25.000335","6500300","中和區"
"235018","640-BX","2017/08/03 14:49:16","新北市中和區莒光路68號","121.472263333333","25.0031533333333","6500300","中和區"
"235024","647-TV","2017/08/03 14:49:24","新北市中和區新生街16巷9號","121.482721666667","25.0043116666667","6500300","中和區"
"235011","732-UM","2017/08/03 14:49:25","新北市中和區和平街25-1號","121.507853333333","24.99084","6500300","中和區"
"235010","733-UM","2017/08/03 14:49:18","新北市中和區仁愛街106號","121.511505","24.98703","6500300","中和區"
"235035","783-BX","2017/08/03 14:49:18","新北市中和區建一路91號","121.487941666667","25.0022883333333","6500300","中和區"
"235026","800-TS","2017/08/03 14:49:12","新北市中和區錦和路27號","121.486635","25.0027566666667","6500300","中和區"
"235021","801-TS","2017/08/03 14:49:34","新北市中和區員山路169號","121.481153333333","24.99686","6500300","中和區"
"235005","802-TS","2017/08/03 14:49:19","新北市中和區安平路38號","121.509991666667","24.9949866666667","6500300","中和區"
"235016","805-TS","2017/08/03 14:49:16","新北市中和區華新街206巷16號","121.50626","24.982555","6500300","中和區"
"235012","896-TW","2017/08/03 14:49:18","新北市中和區忠孝街99-3號","121.511895","24.9861183333333","6500300","中和區"
"235017","900-TW","2017/08/03 14:49:21","新北市中和區民德路146巷14號","121.467893333333","25.0004533333333","6500300","中和區"
"235001","AAC-213","2017/08/03 14:49:22","新北市中和區秀朗路三段10巷21弄8號","121.525165","24.9960833333333","6500300","中和區"
"235023","AAC-215","2017/08/03 14:49:22","新北市中和區圓通路305巷5弄42號","121.494746666667","24.9902833333333","6500300","中和區"
"220016","013-TV","2017/08/03 14:49:22","新北市板橋區中山路二段412巷29弄15號","121.484276666667","25.02017","6500100","板橋區"
"220034","073-UY","2017/08/03 14:49:28","新北市板橋區中正路1巷4號","121.455666666667","25.0118816666667","6500100","板橋區"
"220105","075-UY","2017/08/03 14:49:28","新北市板橋區民治街26巷2號","121.477735","25.0339616666667","6500100","板橋區"
"220017","AAD-861","2017/08/03 14:49:31","新北市板橋區縣民大道一段64巷2號","121.455246666667","25.0039933333333","6500100","板橋區"
"220045","120-SR","2017/08/03 14:49:22","新北市板橋區莒光路40巷13號","121.470335","25.02341","6500100","板橋區"
"247005","341-TH","2017/08/03 14:49:19","新北市蘆洲區中華街40號","121.462406666667","25.0809216666667","6501400","蘆洲區"
"247007","339-TH","2017/08/03 14:49:21","新北市蘆洲區信義路30號","121.474281666667","25.0793383333333","6501400","蘆洲區"
"247001","336-TH","2017/08/03 14:49:21","新北市蘆洲區長安街335號","121.457246666667","25.0867333333333","6501400","蘆洲區"
"247013","057-VK","2017/08/03 14:49:31","新北市蘆洲區成功路154號","121.471798333333","25.0832766666667","6501400","蘆洲區"
"247003","056-VK","2017/08/03 14:49:26","新北市蘆洲區長安街289號","121.458113333333","25.08452","6501400","蘆洲區"
"247017","053-VK","2017/08/03 14:49:22","新北市蘆洲區民權路70號","121.47487","25.087255","6501400","蘆洲區"
"247021","002-UY","2017/08/03 14:49:28","新北市蘆洲區中正路454號","121.462503333333","25.09491","6501400","蘆洲區"
"228005","097-TW","2017/08/03 14:49:29","新北市貢寮區美豐里丹裡街50號","121.905405","25.06091","6502600","貢寮區"
"228004","212-TW","2017/08/03 14:49:23","新北市貢寮區福隆里福隆街2巷12號","121.945756666667","25.0156266666667","6502600","貢寮區"
"208004","AAC-292","2017/08/03 14:49:24","新北市金山區半嶺3號","121.617231666667","25.23421","6502700","金山區"
"207002","749-BX","2017/08/03 14:49:12","新北市萬里區崁腳里崁腳路73號","121.647628333333","25.15959","6502800","萬里區"
"207001","662-BX","2017/08/03 14:40:22","新北市萬里區雙興里豐稟路21-1號","121.640248333333","25.1855733333333","6502800","萬里區"
"252005","AAC-283","2017/08/03 14:49:18","新北市三芝區埔坪里埔頭坑164-1號","121.507913333333","25.2480766666667","6502100","三芝區"
"236066","105-UM","2017/08/03 14:49:22","新北市土城區金城路二段267號","121.463913333333","24.9859166666667","6501300","土城區"
"236040","107-UM","2017/08/03 14:49:22","新北市土城區裕民路114巷13號","121.450553333333","24.9859366666667","6501300","土城區"
"236076","166-UM","2017/08/03 14:49:28","新北市土城區中央路四段165巷55號","121.416586666667","24.95596","6501300","土城區"
"236028","253-BX","2017/08/03 14:49:18","新北市土城區忠義路36巷16號","121.43989","24.9698666666667","6501300","土城區"
"236024","269-VK","2017/08/03 14:49:27","新北市土城區慶安街59號","121.440931666667","24.972935","6501300","土城區"
"236012","270-VK","2017/08/03 14:49:28","新北市土城區金城路二段354巷18號","121.460863333333","24.9841666666667","6501300","土城區"
"236033","271-VK","2017/08/03 14:49:14","新北市土城區明德路一段195巷3弄3號","121.464241666667","24.9785416666667","6501300","土城區"
"236018","401-BY","2017/08/03 14:49:20","新北市土城區延吉街251號","121.467623333333","24.98482","6501300","土城區"
"236056","912-UM","2017/08/03 14:49:25","新北市土城區中央路三段155號","121.432073333333","24.9654316666667","6501300","土城區"
"236047","913-UM","2017/08/03 14:49:30","新北市土城區青雲路35號","121.46","24.9885133333333","6501300","土城區"
"236060","915-UM","2017/08/03 14:49:21","新北市土城區金城路三段249號","121.471495","24.9900983333333","6501300","土城區"
"236052","AAC-216","2017/08/03 14:49:23","新北市土城區裕民路112號","121.450918333333","24.9865566666667","6501300","土城區"
"242003","442-UM","2017/08/03 11:28:28","新北市新莊區三和路12-21號","121.441893333333","25.03885","6500500","新莊區"
"238018","571-TV","2017/08/03 14:49:20","新北市樹林區育德街78-1號","121.387281666667","24.9681116666667","6500700","樹林區"
"221032","280-BY","2017/08/03 14:49:12","新北市汐止區東勢街216巷22弄23號","121.63453","25.0390233333333","6501100","汐止區"
"220027","145-BY","2017/08/03 14:49:18","新北市板橋區中正路183巷50號","121.454821666667","25.015935","6500100","板橋區"
"220028","200-UY","2017/08/03 14:49:28","新北市板橋區大觀路二段37巷5號","121.447193333333","25.0028716666667","6500100","板橋區"
"220030","610-BX","2017/08/03 14:49:29","新北市板橋區金門街208-3號","121.43237","24.99007","6500100","板橋區"
"220051","257-TC","2017/08/03 14:49:29","新北市板橋區雙十路二段70巷7號","121.475535","25.0283883333333","6500100","板橋區"
"220043","267-BY","2017/08/03 14:49:26","新北市板橋區溪頭街72號","121.458415","25.0296","6500100","板橋區"
"220004","276-BY","2017/08/03 14:49:13","新北市板橋區德興街36號","121.453458333333","24.9937366666667","6500100","板橋區"
"220020","277-BY","2017/08/03 14:49:19","新北市板橋區金門街215巷41號","121.433388333333","24.9895983333333","6500100","板橋區"
"220050","285-UM","2017/08/03 14:49:31","新北市板橋區莊敬路245號","121.473098333333","25.0214683333333","6500100","板橋區"
"220001","285-VK","2017/08/03 14:49:16","新北市板橋區中山路二段60巷9號","121.474256666667","25.0153466666667","6500100","板橋區"
"220031","286-VK","2017/08/03 14:49:19","新北市板橋區龍興街63巷1號","121.442901666667","25.00127","6500100","板橋區"
"220029","287-VK","2017/08/03 14:49:33","新北市板橋區大觀路一段29巷4弄1號","121.45016","25.0077066666667","6500100","板橋區"
"220039","288-VK","2017/08/03 14:49:17","新北市板橋區龍泉街54巷8弄14號","121.457443333333","25.0269033333333","6500100","板橋區"
"220009","293-UM","2017/08/03 14:49:22","新北市板橋區板新路106號","121.47163","25.01521","6500100","板橋區"
"220013","295-UM","2017/08/03 14:49:23","新北市板橋區國泰街39巷7弄2號","121.468686666667","25.0056566666667","6500100","板橋區"
"220032","296-UM","2017/08/03 14:49:30","新北市板橋區溪崑二街118巷3號","121.425545","24.9886316666667","6500100","板橋區"
"220023","297-UM","2017/08/03 14:49:20","新北市板橋區中正路253巷58號","121.453435","25.0174583333333","6500100","板橋區"
"220047","299-UM","2017/08/03 14:49:23","新北市板橋區四維路269巷78號","121.460155","25.027","6500100","板橋區"
"220010","303-R5","2017/08/03 14:49:26","新北市板橋區光復街23號","121.481333333333","25.0193483333333","6500100","板橋區"
"220041","307-R5","2017/08/03 14:49:31","新北市板橋區四維路170號","121.464688333333","25.0261633333333","6500100","板橋區"
"220012","486-VK","2017/08/03 14:49:21","新北市板橋區公園街30號","121.462818333333","25.00871","6500100","板橋區"
"220038","487-VK","2017/08/03 14:49:32","新北市板橋區陽明街259號","121.462675","25.0254066666667","6500100","板橋區"
"220037","491-VK","2017/08/03 14:49:13","新北市板橋區民治街11-2號","121.477483333333","25.034435","6500100","板橋區"
"220104","560-BX","2017/08/03 14:49:28","新北市板橋區金華街121號","121.459365","25.0209433333333","6500100","板橋區"
"220052","561-BX","2017/08/03 14:49:14","新北市板橋區陽明街46-2號","121.465668333333","25.0219066666667","6500100","板橋區"
"220019","568-UM","2017/08/03 14:49:16","新北市板橋區信義路279巷19號","121.464676666667","24.9903383333333","6500100","板橋區"
"220011","609-BX","2017/08/03 14:49:25","新北市板橋區三民路一段31巷13號","121.47991","25.0232616666667","6500100","板橋區"
"220040","637-BX","2017/08/03 14:49:23","新北市板橋區懷德街139巷20弄1號","121.480036666667","25.0307683333333","6500100","板橋區"
"220005","686-BX","2017/08/03 14:49:17","新北市板橋區廣和街68號","121.462163333333","24.9939883333333","6500100","板橋區"
"220025","687-BX","2017/08/03 14:49:32","新北市板橋區僑中二街126巷2號","121.445298333333","25.0053","6500100","板橋區"
"220042","689-BX","2017/08/03 14:49:28","新北市板橋區長江路一段103號","121.459548333333","25.029645","6500100","板橋區"
"220002","741-BX","2017/08/03 14:49:30","新北市板橋區忠孝路忠義巷15弄3號","121.465781666667","25.0038683333333","6500100","板橋區"
"220003","827-TW","2017/08/03 14:49:23","新北市板橋區仁愛路62巷2號","121.459765","24.9991883333333","6500100","板橋區"
"220014","829-TW","2017/08/03 14:49:30","新北市板橋區漢生東路193巷93號","121.473121666667","25.0120716666667","6500100","板橋區"
"220022","895-R6","2017/08/03 14:49:17","新北市板橋區民權路87號","121.461013333333","25.0122066666667","6500100","板橋區"
"220021","985-R7","2017/08/03 14:49:32","新北市板橋區中正路235號","121.455908333333","25.0180033333333","6500100","板橋區"
"220046","AAC-210","2017/08/03 14:49:16","新北市板橋區漢生西路89巷4-2號","121.462441666667","25.0195433333333","6500100","板橋區"
"220018","AAC-253","2017/08/03 14:49:21","新北市板橋區館前東路2號","121.459566666667","25.00696","6500100","板橋區"
