"lineid","car","time","location","longitude","latitude","cityid","cityname"
"234044","148-BY","2017/08/03 15:09:16","新北市林口區太平里180號","121.368188333333","25.134485","6500400","永和區"
"234036","336-UY","2017/08/03 15:09:21","新北市八里區下罟子5-11號","121.385928333333","25.1454783333333","6500400","永和區"
"234028","746-BX","2017/08/03 15:09:28","新北市八里區荖阡坑路34號","121.402515","25.1287533333333","6500400","永和區"
"248007","095-VK","2017/08/03 15:09:10","新北市五股區中興路一段1巷13號","121.46968","25.07141","6501500","五股區"
"248003","677-BX","2017/08/03 15:09:10","新北市五股區成泰路一段106-1號","121.435716666667","25.0718683333333","6501500","五股區"
"244025","656-BX","2017/08/03 09:22:30","新北市林口區粉寮路二段160巷28號","121.405215","25.0907683333333","6501700","林口區"
"243001","297-R6","2017/08/03 15:09:25","新北市泰山區泰林路二段542巷1弄31號","121.422535","25.0639633333333","6501600","泰山區"
"243006","421-VK","2017/08/03 15:09:21","新北市泰山區泰林路三段745巷145號","121.405548333333","25.0679383333333","6501600","泰山區"
"243003","549-UM","2017/08/03 15:09:24","新北市泰山區新北大道六段266-1號","121.426403333333","25.0361316666667","6501600","泰山區"
"243004","646-TV","2017/08/03 15:09:19","新北市泰山區忠孝街19巷1弄2號","121.427456666667","25.0657383333333","6501600","泰山區"
"243008","680-BX","2017/08/03 15:09:28","新北市泰山區明志路二段368號","121.425545","25.0448416666667","6501600","泰山區"
"231002","002-UM","2017/08/03 15:09:07","新北市新店區中正路543-2號","121.533535","24.9872033333333","6500600","新店區"
"231025","0291-UT","2017/08/03 15:09:13","新北市新店區二十張路33巷11號","121.538876666667","24.981175","6500600","新店區"
"231028","046-UY","2017/08/03 15:09:11","新北市新店區僑愛五路7號","121.499608333333","24.9440266666667","6500600","新店區"
"231030","047-UY","2017/08/03 15:09:13","新北市新店區安民街339號","121.51695","24.9748683333333","6500600","新店區"
"231029","106-UY","2017/08/03 15:09:16","新北市新店區安康路三段738號","121.47387","24.9419766666667","6500600","新店區"
"231018","107-UY","2017/08/03 15:09:19","新北市新店區中央六街68號","121.527416666667","24.9761533333333","6500600","新店區"
"231011","108-UY","2017/08/03 15:09:20","新北市新店區中興路三段307號","121.542116666667","24.9857716666667","6500600","新店區"
"231021","187-VK","2017/08/03 15:09:23","新北市新店區湖興路128-18號","121.562003333333","24.9305133333333","6500600","新店區"
"231031","188-VK","2017/08/03 15:09:22","新北市新店區安泰路60巷134弄44號","121.484116666667","24.944035","6500600","新店區"
"231007","189-VK","2017/08/03 12:02:41","新北市新店區安華路28-1號","121.51978","24.9609216666667","6500600","新店區"
"231026","256-BX","2017/08/03 15:09:23","新北市新店區建國路83-1號","121.540336666667","24.976485","6500600","新店區"
"231068","260-TV","2017/08/03 15:09:18","新北市新店區僑信路97巷14號","121.500763333333","24.947885","6500600","新店區"
"231034","268-BY","2017/08/03 15:09:22","新北市新店區玫瑰路4-1號","121.493588333333","24.95139","6500600","新店區"
"231017","AAD-862","2017/08/03 15:06:08","新北市新店區明山路29號","121.564816666667","24.956735","6500600","新店區"
"231027","3712-VJ","2017/08/03 15:09:18","新北市新店區薏仁坑路自強巷1號","121.497568333333","24.957615","6500600","新店區"
"231024","3713-VJ","2017/08/03 15:09:23","新北市新店區北新路一段297巷37號","121.540325","24.9684383333333","6500600","新店區"
"231036","512-UM","2017/08/03 15:09:31","新北市新店區安祥路102巷42弄1號","121.48436","24.9642766666667","6500600","新店區"
"231023","513-UM","2017/08/03 15:09:13","新北市新店區檳榔路109號","121.544471666667","24.9616483333333","6500600","新店區"
"231035","515-UM","2017/08/03 15:09:09","新北市新店區安和路三段112號","121.517211666667","24.9853433333333","6500600","新店區"
"231001","619-UM","2017/08/03 15:09:24","新北市新店區中正路272號","121.538935","24.9736416666667","6500600","新店區"
"231003","641-BX","2017/08/03 15:09:14","新北市新店區寶橋路188號","121.549678333333","24.9777016666667","6500600","新店區"
"231039","718-UY","2017/08/03 15:09:15","新北市新店區中興路三段223號","121.543195","24.9829783333333","6500600","新店區"
"231005","897-TW","2017/08/03 15:09:28","新北市新店區順安街74號","121.54102","24.9866566666667","6500600","新店區"
"231006","898-TW","2017/08/03 15:09:12","新北市新店區新坡一街52-2號","121.550795","24.9624916666667","6500600","新店區"
"231004","899-TW","2017/08/03 15:09:11","新北市新店區建國路40號","121.540505","24.9747833333333","6500600","新店區"
"231037","AKT-0513","2017/08/03 15:09:19","新北市新店區安民街365巷5號","121.516136666667","24.9755416666667","6500600","新店區"
"235030","003-UY","2017/08/03 15:09:28","新北市永和區保平路290號","121.507895","25.0045933333333","6500300","中和區"
"235020","096-UM","2017/08/03 15:09:23","新北市中和區中山路三段172號","121.472843333333","25.0065866666667","6500300","中和區"
"235003","097-UM","2017/08/03 15:09:08","新北市中和區安樂路217巷54號","121.512886666667","24.9976083333333","6500300","中和區"
"235029","098-UM","2017/08/03 15:09:11","新北市中和區永和路128巷11號","121.497693333333","25.006965","6500300","中和區"
"235004","150-BY","2017/08/03 15:09:12","新北市中和區景安路79巷21號","121.506958333333","24.9966933333333","6500300","中和區"
"235031","255-BX","2017/08/03 15:09:13","新北市中和區新生街176巷26號","121.482518333333","24.9998183333333","6500300","中和區"
"235008","293-VK","2017/08/03 15:09:26","新北市中和區中興街116號","121.50005","24.9930983333333","6500300","中和區"
"235007","352-BY","2017/08/03 15:09:27","新北市中和區興南路二段159巷7號","121.505375","24.9830916666667","6500300","中和區"
"235032","377-QA","2017/08/03 15:09:20","新北市中和區勝利路35巷16號","121.498978333333","25.0072233333333","6500300","中和區"
"235014","4979-A6","2017/08/03 15:09:10","新北市中和區景新街272號","121.51077","24.9924166666667","6500300","中和區"
"235033","4980-A6","2017/08/03 15:09:14","新北市中和區南山路127巷27弄14號","121.50332","24.9978916666667","6500300","中和區"
"235034","558-UM","2017/08/03 15:08:13","新北市中和區連城路75巷9號","121.49852","24.9986033333333","6500300","中和區"
"235018","640-BX","2017/08/03 15:09:16","新北市中和區民享街43號","121.47407","25.0028933333333","6500300","中和區"
"235010","733-UM","2017/08/03 15:09:18","新北市中和區忠孝街28號","121.510645","24.9831233333333","6500300","中和區"
"235035","783-BX","2017/08/03 15:09:18","新北市中和區立德街329號","121.481605","25.0104883333333","6500300","中和區"
"235021","801-TS","2017/08/03 15:09:23","新北市三重區光復路二段192號","121.470781666667","25.0630433333333","6500300","中和區"
"235016","805-TS","2017/08/03 15:09:16","新北市中和區華新街192巷22弄7號","121.506615","24.9832983333333","6500300","中和區"
"235012","896-TW","2017/08/03 15:09:18","新北市中和區興南路一段164號","121.508025","24.9865766666667","6500300","中和區"
"235017","900-TW","2017/08/03 15:09:21","新北市中和區民德路202號","121.468276666667","24.9985483333333","6500300","中和區"
"235001","AAC-213","2017/08/03 15:09:22","新北市中和區自立路36號","121.522521666667","24.9927666666667","6500300","中和區"
"235023","AAC-215","2017/08/03 15:09:29","新北市中和區圓通路335巷37弄33號","121.493831666667","24.9888416666667","6500300","中和區"
"220016","013-TV","2017/08/03 15:09:15","新北市板橋區光復街234-1號","121.484698333333","25.0216016666667","6500100","板橋區"
"220105","075-UY","2017/08/03 15:09:29","新北市板橋區仁化街150-2號","121.477856666667","25.0332666666667","6500100","板橋區"
"220017","AAD-861","2017/08/03 15:09:11","新北市板橋區大明街13號","121.458895","25.002565","6500100","板橋區"
"220045","120-SR","2017/08/03 15:09:16","新北市板橋區莒光路16巷5號","121.469653333333","25.0243583333333","6500100","板橋區"
"247005","341-TH","2017/08/03 15:07:39","新北市五股區中直路21號","121.42147","25.11197","6501400","蘆洲區"
"247017","053-VK","2017/08/03 15:09:22","新北市蘆洲區民族路287號","121.475453333333","25.090895","6501400","蘆洲區"
"228004","212-TW","2017/08/03 15:09:23","新北市貢寮區雙玉里田寮洋街17號","121.92184","25.0247816666667","6502600","貢寮區"
"208004","AAC-292","2017/08/03 15:09:24","新北市金山區六股里下六股15-1號","121.625176666667","25.2242433333333","6502700","金山區"
"207002","749-BX","2017/08/03 15:09:11","新北市萬里區崁腳里內中福路21號","121.660653333333","25.165715","6502800","萬里區"
"207001","662-BX","2017/08/03 15:09:22","新北市萬里區雙興里麗水路7-2號","121.650956666667","25.185855","6502800","萬里區"
"252005","AAC-283","2017/08/03 15:09:11","新北市三芝區淡金路一段34號","121.500276666667","25.2591116666667","6502100","三芝區"
"236066","105-UM","2017/08/03 15:09:22","新北市土城區學成路166巷1弄8號","121.447596666667","24.98888","6501300","土城區"
"236040","107-UM","2017/08/03 15:09:22","新北市土城區學士路35號","121.452818333333","24.9821133333333","6501300","土城區"
"236076","166-UM","2017/08/03 15:09:27","新北市土城區中州路12巷17號","121.41513","24.9575116666667","6501300","土城區"
"236028","253-BX","2017/08/03 15:09:18","新北市土城區中央路二段78號","121.44225","24.9789666666667","6501300","土城區"
"236024","269-VK","2017/08/03 15:09:27","新北市土城區中正路19號","121.443271666667","24.9753883333333","6501300","土城區"
"236012","270-VK","2017/08/03 15:09:28","新北市土城區學府路一段75巷1弄1號","121.457178333333","24.9879083333333","6501300","土城區"
"236033","271-VK","2017/08/03 15:09:14","新北市土城區仁愛路38號","121.461753333333","24.9795416666667","6501300","土城區"
"236018","401-BY","2017/08/03 15:09:31","新北市土城區延吉街185號","121.469136666667","24.9856066666667","6501300","土城區"
"236056","912-UM","2017/08/03 15:09:25","新北市土城區清水路25巷25號","121.453088333333","24.9804066666667","6501300","土城區"
"236047","913-UM","2017/08/03 15:09:30","新北市土城區清水路161號","121.458763333333","24.9815433333333","6501300","土城區"
"236052","AAC-216","2017/08/03 15:09:22","新北市土城區學成路8號","121.453418333333","24.9864883333333","6501300","土城區"
"242003","442-UM","2017/08/03 11:28:28","新北市新莊區三和路12-21號","121.441893333333","25.03885","6500500","新莊區"
"238002","755-BX","2017/08/03 15:09:21","新北市樹林區八德街1016號","121.391271666667","24.96846","6500700","樹林區"
"238010","601-UM","2017/08/03 15:09:16","新北市樹林區八德街608號","121.397303333333","24.9700433333333","6500700","樹林區"
"238006","599-UM","2017/08/03 15:09:17","新北市樹林區八德街634號","121.397036666667","24.9691933333333","6500700","樹林區"
"238005","571-TV","2017/08/03 15:09:20","新北市樹林區八德街272號","121.411905","24.9702783333333","6500700","樹林區"
"238011","5061-A6","2017/08/03 15:09:22","新北市樹林區八德街395號","121.415675","24.9714566666667","6500700","樹林區"
"238009","312-TH","2017/08/03 15:09:21","新北市樹林區八德街682號","121.39614","24.968935","6500700","樹林區"
"238008","311-TH","2017/08/03 15:09:27","新北市樹林區佳園路二段28號","121.391581666667","24.962945","6500700","樹林區"
"238012","303-VK","2017/08/03 15:09:13","新北市樹林區八德街612號","121.39728","24.9699783333333","6500700","樹林區"
"238004","283-BY","2017/08/03 15:09:03","新北市樹林區八德街1014號","121.391308333333","24.9685733333333","6500700","樹林區"
"238001","282-BY","2017/08/03 15:09:11","新北市樹林區八德街1014號","121.391326666667","24.9685016666667","6500700","樹林區"
"238007","268-VK","2017/08/03 01:51:11","新北市樹林區中山路三段204號","121.386748333333","24.9682433333333","6500700","樹林區"
"238013","172-UY","2017/08/03 02:17:17","新北市樹林區育德街78-1號","121.388111666667","24.9680183333333","6500700","樹林區"
"238003","169-UY","2017/08/03 15:09:14","新北市樹林區八德街676號","121.395925","24.9689033333333","6500700","樹林區"
"221032","280-BY","2017/08/03 15:09:12","新北市汐止區橫科路407巷30弄28號","121.627538333333","25.0484183333333","6501100","汐止區"
"220028","200-UY","2017/08/03 15:09:27","新北市板橋區大觀路二段153巷44弄53號","121.446033333333","24.9990116666667","6500100","板橋區"
"220030","610-BX","2017/08/03 15:09:29","新北市板橋區溪北路72號","121.427898333333","24.9895416666667","6500100","板橋區"
"220051","257-TC","2017/08/03 15:09:29","新北市板橋區文聖街59號","121.476695","25.0312683333333","6500100","板橋區"
"220043","267-BY","2017/08/03 15:09:22","新北市板橋區陽明街10號","121.466616666667","25.0216933333333","6500100","板橋區"
"220020","277-BY","2017/08/03 15:09:19","新北市板橋區金門街101號","121.433341666667","24.99228","6500100","板橋區"
"220050","285-UM","2017/08/03 15:09:20","新北市板橋區雙十路一段44巷36號","121.4773","25.0249","6500100","板橋區"
"220031","286-VK","2017/08/03 15:09:19","新北市板橋區僑中二街88巷27號","121.444975","25.009565","6500100","板橋區"
"220029","287-VK","2017/08/03 15:09:25","新北市板橋區僑中一街124巷20弄2號","121.446286666667","25.0140166666667","6500100","板橋區"
"220039","288-VK","2017/08/03 15:09:17","新北市板橋區幸福路32巷59號","121.460328333333","25.0221866666667","6500100","板橋區"
"220009","293-UM","2017/08/03 15:09:12","新北市板橋區大華街33號","121.459226666667","25.005865","6500100","板橋區"
"220013","295-UM","2017/08/03 15:09:23","新北市板橋區新府路1-1號","121.464558333333","25.0119066666667","6500100","板橋區"
"220023","297-UM","2017/08/03 15:09:20","新北市板橋區金華街10巷48弄71號","121.459613333333","25.0203883333333","6500100","板橋區"
"220047","299-UM","2017/08/03 15:09:31","新北市板橋區新海路72巷5弄28-3號","121.461693333333","25.0229033333333","6500100","板橋區"
"220010","303-R5","2017/08/03 15:09:26","新北市板橋區中山路二段613號","121.485625","25.0223733333333","6500100","板橋區"
"220041","307-R5","2017/08/03 15:09:31","新北市板橋區裕民街128巷6號","121.458818333333","25.0278316666667","6500100","板橋區"
"220012","486-VK","2017/08/03 15:09:30","新北市板橋區海山路39號","121.467256666667","25.0097366666667","6500100","板橋區"
"220038","487-VK","2017/08/03 15:09:24","新北市板橋區龍泉街108巷23號","121.456455","25.0239733333333","6500100","板橋區"
"220037","491-VK","2017/08/03 15:09:12","新北市板橋區懷德街127巷2號","121.478995","25.03077","6500100","板橋區"
"220052","561-BX","2017/08/03 15:09:14","新北市板橋區英士路58巷9號","121.460646666667","25.0251833333333","6500100","板橋區"
"220019","568-UM","2017/08/03 15:09:15","新北市板橋區廣權路133號","121.465633333333","24.9934016666667","6500100","板橋區"
"220011","609-BX","2017/08/03 15:09:31","新北市板橋區中山路二段420號","121.483111666667","25.02109","6500100","板橋區"
"220040","637-BX","2017/08/03 15:09:23","新北市板橋區民治街119巷5號","121.478548333333","25.030715","6500100","板橋區"
"220005","686-BX","2017/08/03 15:09:25","新北市板橋區四川路二段130巷9號","121.449705","24.9938833333333","6500100","板橋區"
"220025","687-BX","2017/08/03 15:09:12","新北市板橋區僑中一街124巷17弄2號","121.446036666667","25.0138233333333","6500100","板橋區"
"220042","689-BX","2017/08/03 15:09:19","新北市板橋區長江路二段320號","121.471643333333","25.0334966666667","6500100","板橋區"
"220003","827-TW","2017/08/03 15:09:22","新北市板橋區仁愛路25號","121.458995","24.9995033333333","6500100","板橋區"
"220014","829-TW","2017/08/03 15:09:10","新北市板橋區三民路一段80號","121.479496666667","25.0218733333333","6500100","板橋區"
"220021","985-R7","2017/08/03 15:09:12","新北市板橋區南雅西路二段2-1號","121.453125","25.0087733333333","6500100","板橋區"
"220046","AAC-210","2017/08/03 15:09:16","新北市板橋區光正街18巷15號","121.462735","25.0178566666667","6500100","板橋區"
"220018","AAC-253","2017/08/03 15:09:21","新北市板橋區民族路83號","121.465706666667","25.0085966666667","6500100","板橋區"
