"lineid","car","time","location","longitude","latitude","cityid","cityname"
"244025","656-BX","2017/08/03 09:22:30","新北市林口區粉寮路二段160巷28號","121.405215","25.0907683333333","6501700","林口區"
"231030","047-UY","2017/08/03 15:49:16","新北市新店區永安街28-2號","121.517465","24.986495","6500600","新店區"
"231029","106-UY","2017/08/03 15:49:16","新北市新店區安康路二段317號","121.49971","24.956805","6500600","新店區"
"231018","107-UY","2017/08/03 15:49:19","新北市新店區中正路545號","121.533681666667","24.9876533333333","6500600","新店區"
"231011","108-UY","2017/08/03 15:49:20","新北市新店區文化路23-1號","121.543405","24.9797566666667","6500600","新店區"
"231021","187-VK","2017/08/03 15:49:23","新北市新店區新烏路一段85巷6-6號","121.549751666667","24.9426583333333","6500600","新店區"
"231031","188-VK","2017/08/03 15:49:22","新北市新店區雙城路150號","121.493981666667","24.94543","6500600","新店區"
"231007","189-VK","2017/08/03 12:02:41","新北市新店區安華路28-1號","121.51978","24.9609216666667","6500600","新店區"
"231026","256-BX","2017/08/03 15:49:22","新北市新店區中正路420號","121.534266666667","24.9778566666667","6500600","新店區"
"231068","260-TV","2017/08/03 15:38:46","新北市新店區安華路28-1號","121.519656666667","24.96053","6500600","新店區"
"231034","268-BY","2017/08/03 15:49:22","新北市新店區玫瑰路57巷25號","121.496601666667","24.9463366666667","6500600","新店區"
"231046","278-BY","2017/08/03 14:08:02","新北市新店區安華路28-1號","121.519735","24.96115","6500600","新店區"
"231017","AAD-862","2017/08/03 15:49:27","新北市新店區中華路83巷2弄5號","121.538931666667","24.9685483333333","6500600","新店區"
"231038","4715-K9","2017/08/03 15:49:22","新北市新店區安康路二段115-1號","121.51252","24.9616283333333","6500600","新店區"
"231035","515-UM","2017/08/03 15:49:29","新北市新店區安民街382號","121.516223333333","24.9768466666667","6500600","新店區"
"231003","641-BX","2017/08/03 15:49:14","新北市新店區寶興路60巷3號","121.549888333333","24.9718016666667","6500600","新店區"
"231013","719-UM","2017/08/03 15:48:46","新北市新店區永業路81巷5弄7號","121.530388333333","24.9491666666667","6500600","新店區"
"231037","AKT-0513","2017/08/03 15:49:19","新北市新店區安興路112號","121.514565","24.97748","6500600","新店區"
"241011","013-R5","2017/08/03 15:49:11","新北市三重區文化北路248號","121.497425","25.0699366666667","6500200","三重區"
"241028","022-UY","2017/08/03 15:49:28","新北市三重區中正南路41巷1號","121.493816666667","25.0599633333333","6500200","三重區"
"241015","062-VK","2017/08/03 15:49:09","新北市三重區重新路四段121號","121.485101666667","25.0518816666667","6500200","三重區"
"241017","063-VK","2017/08/03 15:49:27","新北市三重區大仁街38號","121.491633333333","25.06421","6500200","三重區"
"241024","065-VK","2017/08/03 15:49:18","新北市三重區忠孝路三段99巷4號","121.480131666667","25.0640683333333","6500200","三重區"
"241026","066-VK","2017/08/03 15:49:16","新北市三重區泉州街84巷20號","121.495861666667","25.0543583333333","6500200","三重區"
"241003","091-VK","2017/08/03 15:49:28","新北市三重區泉州街84巷18號","121.495835","25.05427","6500200","三重區"
"241005","262-UM","2017/08/03 15:49:08","新北市三重區環河南路127號","121.496816666667","25.05504","6500200","三重區"
"241016","266-UM","2017/08/03 15:49:17","新北市三重區重新路四段121號","121.485003333333","25.0519483333333","6500200","三重區"
"241022","267-UM","2017/08/03 15:49:17","新北市三重區重新路四段121號","121.484761666667","25.0524933333333","6500200","三重區"
"241018","268-UM","2017/08/03 15:49:26","新北市三重區成功路92號","121.487966666667","25.0514083333333","6500200","三重區"
"241013","270-UM","2017/08/03 15:49:17","新北市三重區六張街26號","121.495361666667","25.0705933333333","6500200","三重區"
"241007","398-BY","2017/08/03 15:49:22","新北市三重區重新路四段121號","121.485245","25.0520383333333","6500200","三重區"
"241020","413-TH","2017/08/03 15:49:24","新北市三重區忠孝路二段48號","121.485101666667","25.0702933333333","6500200","三重區"
"241019","478-VK","2017/08/03 15:49:28","新北市三重區新北大道一段250號","121.479865","25.0613966666667","6500200","三重區"
"241014","543-UM","2017/08/03 15:49:11","新北市三重區重新路四段121號","121.485058333333","25.05186","6500200","三重區"
"241023","545-UM","2017/08/03 15:49:22","新北市三重區名源街29巷2號","121.480026666667","25.0608583333333","6500200","三重區"
"241006","AAD-863","2017/08/03 15:49:16","新北市三重區重新路四段121號","121.4846","25.0521316666667","6500200","三重區"
"241012","941-UM","2017/08/03 15:49:11","新北市三重區自強路一段42-1號","121.497736666667","25.0670716666667","6500200","三重區"
"241029","942-UM","2017/08/03 15:49:15","新北市三重區大同南路242號","121.49697","25.0559316666667","6500200","三重區"
"241033","AAC-255","2017/08/03 15:49:27","新北市三重區五谷王北街80巷60號","121.474215","25.05276","6500200","三重區"
"235014","4979-A6","2017/08/03 15:49:30","新北市中和區建一路245號","121.488286666667","24.99696","6500300","中和區"
"235033","4980-A6","2017/08/03 15:49:12","新北市中和區中正路637巷32號","121.48491","24.9945983333333","6500300","中和區"
"235026","800-TS","2017/08/03 15:49:12","新北市中和區橋和路92號","121.4904","25.0054283333333","6500300","中和區"
"235021","801-TS","2017/08/03 15:49:23","新北市五股區新城八路18號","121.447886666667","25.08938","6500300","中和區"
"235023","AAC-215","2017/08/03 15:49:22","新北市中和區員山路66-4號","121.481913333333","24.9918566666667","6500300","中和區"
"224007","273-VK","2017/08/03 15:49:12","新北市瑞芳區大寮路356-1號","121.784998333333","25.1033816666667","6501200","瑞芳區"
"224005","271-BY","2017/08/03 15:49:09","新北市瑞芳區中山路266號","121.798975","25.1084433333333","6501200","瑞芳區"
"227004","642-TC","2017/08/03 15:49:23","新北市雙溪區平林里外平林44號","121.85289","25.03633","6502500","雙溪區"
"227010","030-BX","2017/08/03 15:49:21","新北市雙溪區牡丹里中正路54號","121.865431666667","25.0401883333333","6502500","雙溪區"
"252005","AAC-283","2017/08/03 15:31:33","新北市三芝區埔坪里埔頭坑41號","121.5045","25.2644","6502100","三芝區"
"236066","105-UM","2017/08/03 15:49:22","新北市土城區亞洲路59號","121.433248333333","24.9710716666667","6501300","土城區"
"236076","166-UM","2017/08/03 15:49:26","新北市土城區三民路61巷1號","121.419683333333","24.9643183333333","6501300","土城區"
"236028","253-BX","2017/08/03 15:49:18","新北市土城區學成路151號","121.448546666667","24.98935","6501300","土城區"
"236024","269-VK","2017/08/03 15:49:27","新北市土城區中央路一段249巷10弄16號","121.445811666667","24.9853066666667","6501300","土城區"
"236012","270-VK","2017/08/03 15:49:28","新北市土城區廣明街76號","121.454946666667","24.99391","6501300","土城區"
"236018","401-BY","2017/08/03 15:49:11","新北市土城區延吉街111巷12弄15-3號","121.47168","24.9850383333333","6501300","土城區"
"236056","912-UM","2017/08/03 15:49:25","新北市土城區中央路一段205號","121.445845","24.9867533333333","6501300","土城區"
"236047","913-UM","2017/08/03 15:49:10","新北市土城區金城路三段115號","121.467716666667","24.98784","6501300","土城區"
"236052","AAC-216","2017/08/03 15:49:23","新北市土城區中華路一段22號","121.447491666667","24.9903283333333","6501300","土城區"
"242003","442-UM","2017/08/03 11:28:28","新北市新莊區三和路12-21號","121.441893333333","25.03885","6500500","新莊區"
"238002","755-BX","2017/08/03 15:49:21","新北市樹林區啟智街44巷1號","121.420405","24.9928333333333","6500700","樹林區"
"238010","601-UM","2017/08/03 15:49:16","新北市樹林區龍興街16號","121.402781666667","25.0163316666667","6500700","樹林區"
"238006","599-UM","2017/08/03 15:49:17","新北市樹林區水源街71號","121.425606666667","24.9816816666667","6500700","樹林區"
"238005","571-TV","2017/08/03 15:49:20","新北市樹林區中華路89號","121.422693333333","24.982895","6500700","樹林區"
"238011","5061-A6","2017/08/03 15:49:22","新北市樹林區中山路三段54號","121.394041666667","24.9723633333333","6500700","樹林區"
"238009","312-TH","2017/08/03 15:49:21","新北市樹林區太順街47-1號","121.417988333333","24.9792633333333","6500700","樹林區"
"238008","311-TH","2017/08/03 15:49:07","新北市樹林區柑園街一段250號","121.391228333333","24.9565033333333","6500700","樹林區"
"238012","303-VK","2017/08/03 15:49:24","新北市樹林區中山路一段149-3號","121.422078333333","24.989185","6500700","樹林區"
"238004","283-BY","2017/08/03 15:49:23","新北市樹林區光華街12號","121.413353333333","25.0034283333333","6500700","樹林區"
"238001","282-BY","2017/08/03 15:49:19","新北市樹林區保安二街10號","121.425128333333","24.9938766666667","6500700","樹林區"
"238007","268-VK","2017/08/03 15:49:13","新北市樹林區三俊街253-1號","121.422233333333","25.0145166666667","6500700","樹林區"
"238013","172-UY","2017/08/03 15:49:23","新北市樹林區中洲街16號","121.397323333333","24.9724016666667","6500700","樹林區"
"238003","169-UY","2017/08/03 15:49:14","新北市樹林區復興路375號","121.416876666667","24.98696","6500700","樹林區"
"220038","487-VK","2017/08/03 15:49:12","新北市板橋區四維路367號","121.462063333333","25.030265","6500100","板橋區"
