"lineid","car","time","location","longitude","latitude","cityid","cityname"
"244025","656-BX","2017/08/03 09:22:30","新北市林口區粉寮路二段160巷28號","121.405215","25.0907683333333","6501700","林口區"
"243009","297-R6","2017/08/03 16:01:06","新北市泰山區黎明路25號","121.422053333333","25.0609783333333","6501600","泰山區"
"231007","189-VK","2017/08/03 12:02:41","新北市新店區安華路28-1號","121.51978","24.9609216666667","6500600","新店區"
"231068","260-TV","2017/08/03 15:38:46","新北市新店區安華路28-1號","121.519656666667","24.96053","6500600","新店區"
"231034","268-BY","2017/08/03 16:29:22","新北市新店區薏仁坑路自強巷6號","121.496283333333","24.958365","6500600","新店區"
"231046","278-BY","2017/08/03 16:29:23","新北市新店區灣潭路3-3號","121.538205","24.9508166666667","6500600","新店區"
"231035","515-UM","2017/08/03 16:29:09","新北市新店區安康路二段318-1號","121.50473","24.9581566666667","6500600","新店區"
"231037","AKT-0513","2017/08/03 16:29:19","新北市新店區安華路28-1號","121.519503333333","24.9606266666667","6500600","新店區"
"241011","013-R5","2017/08/03 16:29:17","新北市三重區秀江街57號","121.50093","25.0725866666667","6500200","三重區"
"241028","022-UY","2017/08/03 16:29:28","新北市三重區中正南路212號","121.494018333333","25.0555516666667","6500200","三重區"
"241008","059-VK","2017/08/03 16:29:19","新北市三重區力行路二段136巷45弄12號","121.479203333333","25.0754116666667","6500200","三重區"
"241031","061-VK","2017/08/03 16:29:11","新北市三重區重陽路一段58號","121.486506666667","25.0581033333333","6500200","三重區"
"241015","062-VK","2017/08/03 16:29:29","新北市三重區信義街71號","121.501566666667","25.065085","6500200","三重區"
"241017","063-VK","2017/08/03 16:29:11","新北市三重區大同北路79號","121.495023333333","25.0636883333333","6500200","三重區"
"241024","065-VK","2017/08/03 16:29:18","新北市三重區中正北路315巷14號","121.474801666667","25.0715416666667","6500200","三重區"
"241026","066-VK","2017/08/03 16:29:16","新北市三重區光興街1號","121.500361666667","25.060405","6500200","三重區"
"241002","090-VK","2017/08/03 16:29:25","新北市三重區五華街9-2號","121.495256666667","25.0800966666667","6500200","三重區"
"241003","091-VK","2017/08/03 16:29:28","新北市三重區五華街57巷8號","121.493181666667","25.0826966666667","6500200","三重區"
"241032","156-TC","2017/08/03 16:29:26","新北市三重區三陽路100巷3弄13號","121.482931666667","25.0580683333333","6500200","三重區"
"241005","262-UM","2017/08/03 16:29:28","新北市三重區溪尾街300-2號","121.487455","25.0836933333333","6500200","三重區"
"241009","265-UM","2017/08/03 16:29:23","新北市三重區三和路四段191巷74號","121.484203333333","25.0797816666667","6500200","三重區"
"241016","266-UM","2017/08/03 16:29:17","新北市三重區大智街21號","121.494246666667","25.0658083333333","6500200","三重區"
"241022","267-UM","2017/08/03 16:29:17","新北市三重區新北大道一段66號","121.487275","25.0615016666667","6500200","三重區"
"241018","268-UM","2017/08/03 16:29:26","新北市三重區重陽路四段77號","121.492403333333","25.0707933333333","6500200","三重區"
"241013","270-UM","2017/08/03 16:29:17","新北市三重區三和路三段83巷148號","121.498383333333","25.0732666666667","6500200","三重區"
"241025","271-UM","2017/08/03 16:29:16","新北市三重區中正北路560巷100弄2號","121.472555","25.06825","6500200","三重區"
"241007","398-BY","2017/08/03 16:29:22","新北市三重區三和路四段167巷192號","121.488193333333","25.0804016666667","6500200","三重區"
"241020","413-TH","2017/08/03 16:29:24","新北市三重區車路頭街37巷14號","121.484231666667","25.0718183333333","6500200","三重區"
"241004","475-VK","2017/08/03 16:29:13","新北市三重區仁愛街377巷2號","121.49167","25.080435","6500200","三重區"
"241019","478-VK","2017/08/03 16:29:28","新北市三重區重陽路三段89號","121.489998333333","25.0677316666667","6500200","三重區"
"241030","480-VK","2017/08/03 16:29:19","新北市三重區成功路106-1號","121.487548333333","25.051525","6500200","三重區"
"241014","543-UM","2017/08/03 16:29:10","新北市三重區河邊北街72-6號","121.504378333333","25.0684333333333","6500200","三重區"
"241023","545-UM","2017/08/03 16:29:22","新北市三重區忠孝路三段50巷47號","121.482926666667","25.0644316666667","6500200","三重區"
"241001","547-UM","2017/08/03 16:29:16","新北市三重區福隆路56號","121.492691666667","25.0785766666667","6500200","三重區"
"241006","AAD-863","2017/08/03 16:29:16","新北市三重區永福街20號","121.48264","25.0780433333333","6500200","三重區"
"241012","941-UM","2017/08/03 16:29:10","新北市三重區河邊北街351號","121.502141666667","25.0756116666667","6500200","三重區"
"241029","942-UM","2017/08/03 16:29:15","新北市三重區集美街126巷2號","121.489051666667","25.0535783333333","6500200","三重區"
"241033","AAC-255","2017/08/03 16:29:27","新北市三重區重新路五段317巷3弄1號","121.477376666667","25.0495583333333","6500200","三重區"
"235026","800-TS","2017/08/03 16:29:12","新北市中和區建八路139巷9弄1號","121.490201666667","24.999615","6500300","中和區"
"247014","057-VK","2017/08/03 16:29:16","新北市五股區中興路三段2巷10號","121.449291666667","25.0809866666667","6501400","蘆洲區"
"247016","001-UY","2017/08/03 16:29:14","新北市五股區中興路三段2巷10號","121.449113333333","25.0810333333333","6501400","蘆洲區"
"224006","676-BX","2017/08/03 16:29:20","新北市瑞芳區傑魚坑路92號","121.792373333333","25.1104766666667","6501200","瑞芳區"
"224008","275-VK","2017/08/03 16:29:24","新北市瑞芳區民權街3-1號","121.809321666667","25.1083616666667","6501200","瑞芳區"
"224007","273-VK","2017/08/03 16:29:17","新北市瑞芳區瑞竹路83號","121.76401","25.1032166666667","6501200","瑞芳區"
"224005","271-BY","2017/08/03 16:29:23","新北市瑞芳區瑞芳街32-10號","121.821965","25.120555","6501200","瑞芳區"
"227004","642-TC","2017/08/03 16:28:03","新北市雙溪區上林里內平林120-1號","121.8251","25.0265333333333","6502500","雙溪區"
"227010","030-BX","2017/08/03 16:29:21","新北市雙溪區三港里雙澳路4號","121.86898","25.0475916666667","6502500","雙溪區"
"251008","181-VK","2017/08/03 16:29:17","新北市淡水區民生路69號","121.46317","25.1383366666667","6501000","淡水區"
"251014","182-VK","2017/08/03 16:29:21","新北市淡水區濱海路一段221號","121.437975","25.1894216666667","6501000","淡水區"
"251016","442-VK","2017/08/03 16:29:19","新北市淡水區中山北路一段207巷37弄8號","121.442831666667","25.1787116666667","6501000","淡水區"
"252002","178-VK","2017/08/03 16:29:10","新北市三芝區忠孝街132號","121.506083333333","25.25794","6502100","三芝區"
"252005","AAC-283","2017/08/03 15:31:33","新北市三芝區埔坪里埔頭坑41號","121.5045","25.2644","6502100","三芝區"
"242003","442-UM","2017/08/03 11:28:28","新北市新莊區三和路12-21號","121.441893333333","25.03885","6500500","新莊區"
"238010","601-UM","2017/08/03 16:29:16","新北市樹林區中正路255號","121.422111666667","25.0044766666667","6500700","樹林區"
"238005","571-TV","2017/08/03 16:29:20","新北市樹林區中山路三段210-2號","121.380571666667","24.9668716666667","6500700","樹林區"
"238004","283-BY","2017/08/03 16:29:23","新北市樹林區光武街28號","121.415821666667","25.005485","6500700","樹林區"
"238001","282-BY","2017/08/03 16:29:11","新北市樹林區中正路22-1號","121.427846666667","24.9996883333333","6500700","樹林區"
"238007","268-VK","2017/08/03 16:29:13","新北市樹林區三俊街260號","121.421751666667","25.014595","6500700","樹林區"
