"lineid","car","time","location","longitude","latitude","cityid","cityname"
"249005","172-UM","2017/08/03 16:39:18","新北市八里區中山路一段268巷5弄22號","121.414251666667","25.1613183333333","6502300","八里區"
"249004","303-UY","2017/08/03 16:39:19","新北市八里區挖子尾街6號","121.415486666667","25.164165","6502300","八里區"
"244025","656-BX","2017/08/03 09:22:30","新北市林口區粉寮路二段160巷28號","121.405215","25.0907683333333","6501700","林口區"
"243009","297-R6","2017/08/03 16:01:06","新北市泰山區黎明路25號","121.422053333333","25.0609783333333","6501600","泰山區"
"231007","189-VK","2017/08/03 12:02:41","新北市新店區安華路28-1號","121.51978","24.9609216666667","6500600","新店區"
"231068","260-TV","2017/08/03 15:38:46","新北市新店區安華路28-1號","121.519656666667","24.96053","6500600","新店區"
"231034","268-BY","2017/08/03 16:39:22","新北市新店區薏仁坑路自強巷6號","121.496373333333","24.9583916666667","6500600","新店區"
"231046","278-BY","2017/08/03 16:39:23","新北市新店區灣潭路46-1號","121.542571666667","24.9454883333333","6500600","新店區"
"241011","013-R5","2017/08/03 16:39:11","新北市三重區仁愛街43巷6號","121.496991666667","25.071755","6500200","三重區"
"241028","022-UY","2017/08/03 16:39:28","新北市三重區重新路三段84號","121.493323333333","25.0607066666667","6500200","三重區"
"241008","059-VK","2017/08/03 16:39:19","新北市三重區永安北路一段27巷7號","121.476841666667","25.075535","6500200","三重區"
"241031","061-VK","2017/08/03 16:39:11","新北市三重區重新路四段39-4號","121.487971666667","25.0578516666667","6500200","三重區"
"241015","062-VK","2017/08/03 16:39:09","新北市三重區文化北路37號","121.498945","25.065005","6500200","三重區"
"241017","063-VK","2017/08/03 16:39:11","新北市三重區中正北路25巷9號","121.492688333333","25.0621216666667","6500200","三重區"
"241024","065-VK","2017/08/03 16:39:18","新北市三重區中正北路315巷6弄82號","121.477211666667","25.0726583333333","6500200","三重區"
"241026","066-VK","2017/08/03 16:39:16","新北市三重區和平街57號","121.502025","25.06258","6500200","三重區"
"241002","090-VK","2017/08/03 16:39:19","新北市三重區自強路五段115號","121.496015","25.08238","6500200","三重區"
"241003","091-VK","2017/08/03 16:39:08","新北市三重區仁義街228巷8號","121.494511666667","25.0845883333333","6500200","三重區"
"241032","156-TC","2017/08/03 16:39:26","新北市三重區三民街28號","121.485671666667","25.0612666666667","6500200","三重區"
"241005","262-UM","2017/08/03 16:39:08","新北市三重區仁華街118巷25號","121.485948333333","25.0836966666667","6500200","三重區"
"241009","265-UM","2017/08/03 16:39:23","新北市三重區三和路四段203巷86號","121.484001666667","25.0800966666667","6500200","三重區"
"241016","266-UM","2017/08/03 16:39:17","新北市三重區大智街56號","121.494381666667","25.0652716666667","6500200","三重區"
"241022","267-UM","2017/08/03 16:39:17","新北市三重區三民街86號","121.485398333333","25.062675","6500200","三重區"
"241018","268-UM","2017/08/03 16:39:26","新北市三重區六張街71號","121.493548333333","25.0702166666667","6500200","三重區"
"241013","270-UM","2017/08/03 16:39:17","新北市三重區三和路三段103號","121.494543333333","25.0725683333333","6500200","三重區"
"241025","271-UM","2017/08/03 16:39:16","新北市三重區中正北路428巷7弄9號","121.47417","25.0701166666667","6500200","三重區"
"241007","398-BY","2017/08/03 16:39:22","新北市三重區三和路四段167巷90號","121.485458333333","25.079565","6500200","三重區"
"241020","413-TH","2017/08/03 16:39:24","新北市三重區車路頭街51巷8號","121.484743333333","25.0725283333333","6500200","三重區"
"241004","475-VK","2017/08/03 16:39:13","新北市三重區五華街72號","121.493196666667","25.0817616666667","6500200","三重區"
"241019","478-VK","2017/08/03 16:39:28","新北市三重區力行路一段1號","121.4888","25.06652","6500200","三重區"
"241030","480-VK","2017/08/03 16:39:19","新北市三重區環河南路288號","121.4887","25.0489516666667","6500200","三重區"
"241014","543-UM","2017/08/03 16:39:10","新北市三重區長安街120號","121.502915","25.067955","6500200","三重區"
"241023","545-UM","2017/08/03 16:39:22","新北市三重區忠孝路三段50巷45號","121.482861666667","25.0643566666667","6500200","三重區"
"241001","547-UM","2017/08/03 16:39:16","新北市三重區仁愛街202號","121.493853333333","25.077425","6500200","三重區"
"241006","AAD-863","2017/08/03 16:39:17","新北市三重區力行路二段136巷23弄35號","121.48121","25.07635","6500200","三重區"
"241012","941-UM","2017/08/03 16:39:10","新北市三重區仁興街3巷48號","121.500945","25.0741716666667","6500200","三重區"
"241029","942-UM","2017/08/03 16:39:15","新北市三重區集美街168號","121.490093333333","25.0530333333333","6500200","三重區"
"241033","AAC-255","2017/08/03 16:39:27","新北市三重區光復路一段138-1號","121.472108333333","25.0531466666667","6500200","三重區"
"235067","255-BX","2017/08/03 16:29:40","新北市中和區員山路36巷13號","121.48435","24.99133","6500300","中和區"
"235026","800-TS","2017/08/03 16:39:12","新北市中和區中正路414號","121.492","24.9942216666667","6500300","中和區"
"247014","057-VK","2017/08/03 16:39:15","新北市蘆洲區三民路378號","121.464018333333","25.0916916666667","6501400","蘆洲區"
"247004","056-VK","2017/08/03 16:39:15","新北市五股區中興路三段173號","121.445055","25.08096","6501400","蘆洲區"
"247016","001-UY","2017/08/03 16:39:14","新北市蘆洲區中正路516巷5號","121.461305","25.098185","6501400","蘆洲區"
"228001","212-TW","2017/08/03 16:39:08","新北市貢寮區貢寮里朝陽街1-2號","121.912211666667","25.0212633333333","6502600","貢寮區"
"224006","676-BX","2017/08/03 16:39:11","新北市瑞芳區大寮路356-1號","121.784755","25.1032933333333","6501200","瑞芳區"
"224008","275-VK","2017/08/03 16:39:24","新北市瑞芳區民權街3-1號","121.809263333333","25.10835","6501200","瑞芳區"
"224007","273-VK","2017/08/03 16:39:12","新北市瑞芳區月眉路19號","121.760566666667","25.1076716666667","6501200","瑞芳區"
"224005","271-BY","2017/08/03 16:39:23","新北市瑞芳區洞頂路188號","121.8619","25.11967","6501200","瑞芳區"
"227004","642-TC","2017/08/03 16:39:24","新北市雙溪區外柑里外柑腳38號","121.808716666667","25.01807","6502500","雙溪區"
"227010","030-BX","2017/08/03 16:39:21","新北市雙溪區牡丹里中正路97號","121.861961666667","25.0471083333333","6502500","雙溪區"
"251008","181-VK","2017/08/03 16:39:17","新北市淡水區樹梅坑9號","121.472773333333","25.142655","6501000","淡水區"
"251014","182-VK","2017/08/03 16:39:21","新北市淡水區興仁路157號","121.451595","25.2194516666667","6501000","淡水區"
"251016","442-VK","2017/08/03 16:39:18","新北市淡水區水頭42號","121.478155","25.185105","6501000","淡水區"
"252002","178-VK","2017/08/03 16:39:10","新北市三芝區芝柏路95號","121.510875","25.25742","6502100","三芝區"
"252001","292-VK","2017/08/03 16:39:15","新北市三芝區埔坪里埔頭坑61-1號","121.506953333333","25.26421","6502100","三芝區"
"252005","AAC-283","2017/08/03 15:31:33","新北市三芝區埔坪里埔頭坑41號","121.5045","25.2644","6502100","三芝區"
"242003","442-UM","2017/08/03 11:28:28","新北市新莊區三和路12-21號","121.441893333333","25.03885","6500500","新莊區"
"242011","346-TH","2017/08/03 14:49:59","新北市新莊區三和路12-21號","121.442155","25.0379883333333","6500500","新莊區"
"238010","601-UM","2017/08/03 16:39:16","新北市樹林區中山路二段175號","121.405725","24.9785083333333","6500700","樹林區"
"238004","283-BY","2017/08/03 16:39:23","新北市樹林區光武街28號","121.41582","25.0054566666667","6500700","樹林區"
"238001","282-BY","2017/08/03 16:39:11","新北市樹林區中正路22-1號","121.427795","24.9995883333333","6500700","樹林區"
"239003","360-BY","2017/08/03 16:39:11","新北市鶯歌區二甲路12-2號","121.345603333333","24.93508","6500800","鶯歌區"
