"lineid","car","time","location","longitude","latitude","cityid","cityname"
"249005","172-UM","2017/08/03 16:59:18","新北市八里區渡船頭2號","121.434043333333","25.15172","6502300","八里區"
"249001","173-UM","2017/08/03 16:59:25","新北市八里區中山路三段106號","121.392483333333","25.14325","6502300","八里區"
"249004","303-UY","2017/08/03 16:59:19","新北市八里區挖子尾街58號","121.415445","25.1662616666667","6502300","八里區"
"249002","305-UY","2017/08/03 16:59:13","新北市八里區牛寮埔4號","121.433406666667","25.1422616666667","6502300","八里區"
"249003","593-UM","2017/08/03 16:59:21","新北市八里區中山路二段277號","121.401653333333","25.148785","6502300","八里區"
"244007","080-UY","2017/08/03 16:59:20","新北市林口區林口路296號","121.385705","25.0854683333333","6501700","林口區"
"244019","742-UY","2017/08/03 16:59:20","新北市林口區粉寮1號","121.397463333333","25.07999","6501700","林口區"
"244023","483-VK","2017/08/03 16:59:00","新北市林口區粉寮69號","121.405086666667","25.09078","6501700","林口區"
"244017","485-VK","2017/08/03 16:59:24","新北市林口區粉寮69號","121.404886666667","25.0908233333333","6501700","林口區"
"244025","656-BX","2017/08/03 09:22:30","新北市林口區粉寮路二段160巷28號","121.405215","25.0907683333333","6501700","林口區"
"244021","657-BX","2017/08/03 16:59:16","新北市林口區粉寮69號","121.404833333333","25.0909233333333","6501700","林口區"
"244011","701-TV","2017/08/03 16:59:26","新北市林口區粉寮路二段160巷28號","121.405191666667","25.090765","6501700","林口區"
"243009","297-R6","2017/08/03 16:01:06","新北市泰山區黎明路25號","121.422053333333","25.0609783333333","6501600","泰山區"
"231007","189-VK","2017/08/03 12:02:41","新北市新店區安華路28-1號","121.51978","24.9609216666667","6500600","新店區"
"231068","260-TV","2017/08/03 15:38:46","新北市新店區安華路28-1號","121.519656666667","24.96053","6500600","新店區"
"231046","278-BY","2017/08/03 16:59:23","新北市新店區灣潭路12-2號","121.537893333333","24.946295","6500600","新店區"
"241011","013-R5","2017/08/03 16:59:11","新北市三重區仁愛街55巷166號","121.499945","25.0730833333333","6500200","三重區"
"241028","022-UY","2017/08/03 16:59:08","新北市三重區中正南路42號","121.49383","25.0600766666667","6500200","三重區"
"241008","059-VK","2017/08/03 16:59:19","新北市三重區永安北路一段3巷29號","121.477316666667","25.0747283333333","6500200","三重區"
"241031","061-VK","2017/08/03 16:59:12","新北市三重區三寧街18號","121.48925","25.0597533333333","6500200","三重區"
"241015","062-VK","2017/08/03 16:59:09","新北市三重區三和路二段2號","121.501568333333","25.0663816666667","6500200","三重區"
"241017","063-VK","2017/08/03 16:59:11","新北市三重區大同北路54巷1號","121.494258333333","25.0635766666667","6500200","三重區"
"241024","065-VK","2017/08/03 16:59:18","新北市三重區大勇街82巷15弄30號","121.48115","25.0719266666667","6500200","三重區"
"241026","066-VK","2017/08/03 16:59:16","新北市三重區文化南路42號","121.500415","25.060245","6500200","三重區"
"241002","090-VK","2017/08/03 16:59:19","新北市三重區仁義街101巷28號","121.498908333333","25.080355","6500200","三重區"
"241003","091-VK","2017/08/03 16:59:28","新北市三重區五華街71巷52號","121.49327","25.0835783333333","6500200","三重區"
"241032","156-TC","2017/08/03 16:59:06","新北市三重區重陽路一段120巷25號","121.485708333333","25.0601633333333","6500200","三重區"
"241005","262-UM","2017/08/03 16:59:28","新北市三重區仁華街106號","121.485301666667","25.08317","6500200","三重區"
"241009","265-UM","2017/08/03 16:59:23","新北市三重區仁美街108巷13號","121.484868333333","25.08057","6500200","三重區"
"241016","266-UM","2017/08/03 16:59:17","新北市三重區大智街3號","121.495085","25.0648366666667","6500200","三重區"
"241022","267-UM","2017/08/03 16:56:07","新北市三重區貴陽街47巷19弄10號","121.48487","25.062315","6500200","三重區"
"241018","268-UM","2017/08/03 16:59:26","新北市三重區六張街90巷7號","121.49299","25.0696766666667","6500200","三重區"
"241013","270-UM","2017/08/03 16:59:17","新北市三重區仁愛街83號","121.495791666667","25.07331","6500200","三重區"
"241025","271-UM","2017/08/03 16:59:16","新北市三重區中正北路357號","121.472793333333","25.0717483333333","6500200","三重區"
"241007","398-BY","2017/08/03 16:59:22","新北市三重區三和路四段145巷213號","121.488771666667","25.0794283333333","6500200","三重區"
"241020","413-TH","2017/08/03 16:59:24","新北市三重區忠孝路二段34號","121.485786666667","25.0710066666667","6500200","三重區"
"241004","475-VK","2017/08/03 16:59:12","新北市三重區仁愛街397巷116號","121.492853333333","25.0822433333333","6500200","三重區"
"241019","478-VK","2017/08/03 16:59:08","新北市三重區自強路二段74巷19號","121.488028333333","25.06996","6500200","三重區"
"241030","480-VK","2017/08/03 16:59:19","新北市三重區昌隆街50號","121.491365","25.051505","6500200","三重區"
"241014","543-UM","2017/08/03 16:59:10","新北市三重區介壽路39巷94號","121.5007","25.0706","6500200","三重區"
"241023","545-UM","2017/08/03 16:59:22","新北市三重區新北大道一段252號","121.479911666667","25.061675","6500200","三重區"
"241001","547-UM","2017/08/03 16:59:16","新北市三重區仁政街11號","121.49342","25.0764266666667","6500200","三重區"
"241006","AAD-863","2017/08/03 16:59:16","新北市三重區聯華街143號","121.484311666667","25.075215","6500200","三重區"
"241012","941-UM","2017/08/03 16:59:10","新北市三重區仁壽街200號","121.501088333333","25.0748783333333","6500200","三重區"
"241029","942-UM","2017/08/03 16:59:16","新北市三重區集美街257號","121.492368333333","25.0556716666667","6500200","三重區"
"241033","AAC-255","2017/08/03 16:59:26","新北市三重區中興北街271號","121.4691","25.0606983333333","6500200","三重區"
"235067","255-BX","2017/08/03 16:29:40","新北市中和區員山路36巷13號","121.48435","24.99133","6500300","中和區"
"235062","800-TS","2017/08/03 16:52:28","新北市中和區員山路36巷16-3號","121.484995","24.9913516666667","6500300","中和區"
"247020","893-R6","2017/08/03 16:59:24","新北市蘆洲區民族路422巷82弄2號","121.4736","25.0936866666667","6501400","蘆洲區"
"247006","341-TH","2017/08/03 16:59:10","新北市蘆洲區長安街99巷8號","121.461306666667","25.0804083333333","6501400","蘆洲區"
"247008","339-TH","2017/08/03 16:59:13","新北市蘆洲區信義路52號","121.475253333333","25.079685","6501400","蘆洲區"
"247024","337-TH","2017/08/03 16:59:16","新北市蘆洲區長興路255號","121.460513333333","25.0875333333333","6501400","蘆洲區"
"247002","336-TH","2017/08/03 16:59:23","新北市蘆洲區永平街20號","121.459108333333","25.0906766666667","6501400","蘆洲區"
"247014","057-VK","2017/08/03 16:59:15","新北市蘆洲區中央路20巷14號","121.474146666667","25.0827833333333","6501400","蘆洲區"
"247004","056-VK","2017/08/03 16:58:55","新北市蘆洲區長安街131巷4弄1號","121.460198333333","25.0810016666667","6501400","蘆洲區"
"247018","053-VK","2017/08/03 16:59:15","新北市蘆洲區復興路111-6號","121.476491666667","25.0883266666667","6501400","蘆洲區"
"247012","007-UY","2017/08/03 16:59:23","新北市蘆洲區信義路296號","121.477623333333","25.0875333333333","6501400","蘆洲區"
"247022","002-UY","2017/08/03 16:59:23","新北市蘆洲區三民路128巷140號","121.468543333333","25.092185","6501400","蘆洲區"
"247016","001-UY","2017/08/03 16:59:14","新北市蘆洲區光華路71號","121.468098333333","25.0825733333333","6501400","蘆洲區"
"228003","097-TW","2017/08/03 16:59:25","新北市貢寮區福隆里興隆街36號","121.942603333333","25.016545","6502600","貢寮區"
"228001","212-TW","2017/08/03 16:59:08","新北市貢寮區貢寮里朝陽街1-2號","121.912376666667","25.0212533333333","6502600","貢寮區"
"228002","585-TW","2017/08/03 16:59:22","新北市貢寮區貢寮里朝陽街140巷5號","121.907363333333","25.0225066666667","6502600","貢寮區"
"224010","AGQ-8101","2017/08/03 14:34:34","新北市瑞芳區民權街3-1號","121.809458333333","25.108255","6501200","瑞芳區"
"224006","676-BX","2017/08/03 16:59:11","新北市瑞芳區大寮路356-1號","121.784761666667","25.1032683333333","6501200","瑞芳區"
"224009","285-BY","2017/08/03 16:59:21","新北市瑞芳區明燈路一段1號","121.826581666667","25.10935","6501200","瑞芳區"
"224008","275-VK","2017/08/03 16:59:24","新北市瑞芳區明燈路一段15號","121.824088333333","25.1074983333333","6501200","瑞芳區"
"224007","273-VK","2017/08/03 16:59:11","新北市瑞芳區瑞竹路46號","121.7636","25.1033833333333","6501200","瑞芳區"
"224005","271-BY","2017/08/03 16:59:23","新北市瑞芳區明里路54號","121.869328333333","25.1228083333333","6501200","瑞芳區"
"227004","642-TC","2017/08/03 16:59:23","新北市雙溪區長源里土地公山1-1號","121.799566666667","25.0133116666667","6502500","雙溪區"
"227010","030-BX","2017/08/03 16:59:21","新北市雙溪區牡丹里聖南10-2號","121.860643333333","25.0497933333333","6502500","雙溪區"
"251007","179-VK","2017/08/03 16:59:23","新北市淡水區中山路24號","121.44443","25.1695966666667","6501000","淡水區"
"251008","181-VK","2017/08/03 16:59:17","新北市淡水區樹梅坑9號","121.472733333333","25.1426866666667","6501000","淡水區"
"251014","182-VK","2017/08/03 16:59:21","新北市淡水區淡金路四段472巷24號","121.452971666667","25.2239633333333","6501000","淡水區"
"251010","413-VK","2017/08/03 16:59:24","新北市淡水區崁頂三路113號","121.43397","25.1999433333333","6501000","淡水區"
"251012","441-VK","2017/08/03 16:59:08","新北市淡水區沙崙路198號","121.424498333333","25.1837833333333","6501000","淡水區"
"251016","442-VK","2017/08/03 16:59:18","新北市淡水區瓦坑8-2號","121.477978333333","25.1831083333333","6501000","淡水區"
"251005","443-VK","2017/08/03 16:59:21","新北市淡水區中正路一段17號","121.42652","25.17622","6501000","淡水區"
"251006","561-UM","2017/08/03 16:59:22","新北市淡水區中正路二段31號","121.419565","25.1815266666667","6501000","淡水區"
"251009","575-R6","2017/08/03 16:59:19","新北市淡水區中正路一段156巷1號","121.420973333333","25.1799183333333","6501000","淡水區"
"251011","650-BX","2017/08/03 16:59:19","新北市淡水區真理街1號","121.43816","25.1728916666667","6501000","淡水區"
"251003","766-UM","2017/08/03 16:59:08","新北市淡水區中正路二段31號","121.419461666667","25.1815066666667","6501000","淡水區"
"252002","178-VK","2017/08/03 16:59:10","新北市三芝區忠孝街173號","121.505418333333","25.26141","6502100","三芝區"
"252001","292-VK","2017/08/03 16:59:15","新北市三芝區淡金路二段89號","121.503938333333","25.2607483333333","6502100","三芝區"
"242029","986-R7","2017/08/03 16:59:11","新北市新莊區新泰路357巷3弄57號","121.441955","25.03926","6500500","新莊區"
"242048","751-BX","2017/08/03 16:59:20","新北市新莊區三和路18-25號","121.441676666667","25.0391666666667","6500500","新莊區"
"242023","613-BX","2017/08/03 16:59:06","新北市新莊區新泰路357巷3弄57號","121.44199","25.0391066666667","6500500","新莊區"
"242027","612-BX","2017/08/03 16:59:26","新北市新莊區新泰路357巷3弄57號","121.441938333333","25.03918","6500500","新莊區"
"242036","566-BX","2017/08/03 16:59:23","新北市新莊區新泰路357巷3弄57號","121.442001666667","25.039055","6500500","新莊區"
"242003","442-UM","2017/08/03 11:28:28","新北市新莊區三和路12-21號","121.441893333333","25.03885","6500500","新莊區"
"242046","441-UM","2017/08/03 16:59:27","新北市新莊區三和路12-21號","121.442233333333","25.03859","6500500","新莊區"
"242051","440-UM","2017/08/03 16:59:17","新北市新莊區新泰路357巷3弄57號","121.442018333333","25.039285","6500500","新莊區"
"242031","415-TV","2017/08/03 16:59:06","新北市新莊區新泰路357巷3弄57號","121.442051666667","25.0393833333333","6500500","新莊區"
"242039","400-BY","2017/08/03 16:59:11","新北市新莊區新泰路357巷3弄57號","121.442268333333","25.0395883333333","6500500","新莊區"
"242061","362-BY","2017/08/03 16:59:09","新北市新莊區三和路12-21號","121.44205","25.0386483333333","6500500","新莊區"
"242058","353-BY","2017/08/03 16:59:09","新北市新莊區新泰路255巷83號","121.442186666667","25.0388066666667","6500500","新莊區"
"242034","133-UY","2017/08/03 16:59:21","新北市新莊區新泰路255巷83號","121.442186666667","25.0389866666667","6500500","新莊區"
"242044","172-VK","2017/08/03 14:42:54","新北市新莊區三和路12-21號","121.442061666667","25.0387266666667","6500500","新莊區"
"242007","173-VK","2017/08/03 10:24:53","新北市新莊區三和路18-21號","121.441666666667","25.0388316666667","6500500","新莊區"
"242013","175-VK","2017/08/03 16:59:17","新北市新莊區三和路18-21號","121.44162","25.038705","6500500","新莊區"
"242056","176-VK","2017/08/03 16:59:25","新北市新莊區三和路12-21號","121.441675","25.038705","6500500","新莊區"
"242011","346-TH","2017/08/03 14:49:59","新北市新莊區三和路12-21號","121.442155","25.0379883333333","6500500","新莊區"
"242017","348-TH","2017/08/03 16:59:17","新北市新莊區新泰路357巷3弄57號","121.442018333333","25.03953","6500500","新莊區"
"242053","349-TH","2017/08/03 10:56:45","新北市新莊區三和路12-15號","121.442013333333","25.0373533333333","6500500","新莊區"
"242015","350-TH","2017/08/03 16:59:15","新北市新莊區新泰路255巷83號","121.442046666667","25.0389883333333","6500500","新莊區"
"242009","351-TH","2017/08/03 16:59:25","新北市新莊區新泰路357巷3弄27號","121.441978333333","25.0406033333333","6500500","新莊區"
"238010","601-UM","2017/08/03 16:59:16","新北市樹林區中山路二段219號","121.402571666667","24.97638","6500700","樹林區"
"238019","599-UM","2017/08/03 16:59:17","新北市樹林區育德街78-1號","121.387673333333","24.9681266666667","6500700","樹林區"
"238004","283-BY","2017/08/03 16:59:23","新北市樹林區光武街28號","121.415786666667","25.0055383333333","6500700","樹林區"
"238001","282-BY","2017/08/03 16:58:31","新北市樹林區大慶街99-1號","121.42762","24.999945","6500700","樹林區"
"239007","AAC-297","2017/08/03 16:59:19","新北市鶯歌區環河路177-16號","121.345675","24.9355983333333","6500800","鶯歌區"
"239006","891-R6","2017/08/03 00:45:33","新北市鶯歌區二甲路13號","121.34416","24.9351983333333","6500800","鶯歌區"
"239008","527-UM","2017/08/03 16:59:20","新北市鶯歌區環河路175號","121.346308333333","24.93607","6500800","鶯歌區"
"239005","526-UM","2017/08/03 16:59:24","新北市鶯歌區環河路159號","121.346583333333","24.9378333333333","6500800","鶯歌區"
"239001","417-VK","2017/08/03 16:59:16","新北市鶯歌區二甲路12-2號","121.345608333333","24.9350266666667","6500800","鶯歌區"
"239003","360-BY","2017/08/03 16:59:11","新北市鶯歌區環河路159號","121.34654","24.93798","6500800","鶯歌區"
"239002","359-BY","2017/08/01 20:24:03","新北市鶯歌區二甲路13-16號","121.345065","24.93502","6500800","鶯歌區"
"239004","193-VK","2017/08/03 03:53:49","新北市鶯歌區二甲路171-1號","121.343958333333","24.935905","6500800","鶯歌區"
