"lineid","car","time","location","longitude","latitude","cityid","cityname"
"234046","148-BY","2017/08/03 17:59:27","新北市永和區福和路1號","121.5265","25.0099016666667","6500400","永和區"
"234026","9371-KE","2017/08/03 17:56:20","新北市永和區福和路1號","121.525833333333","25.0090133333333","6500400","永和區"
"234011","9373-KE","2017/08/03 17:59:09","新北市永和區福和路1號","121.52554","25.0094316666667","6500400","永和區"
"249005","172-UM","2017/08/03 17:59:18","新北市八里區荖阡坑路20-9號","121.398318333333","25.1370783333333","6502300","八里區"
"249001","173-UM","2017/08/03 17:59:25","新北市八里區龍米路二段30號","121.448575","25.1400116666667","6502300","八里區"
"249004","303-UY","2017/08/03 17:59:18","新北市八里區賢一街51號","121.420246666667","25.158125","6502300","八里區"
"249002","305-UY","2017/08/03 17:59:13","新北市八里區龍米路一段432號","121.450811666667","25.1339216666667","6502300","八里區"
"249003","593-UM","2017/08/03 17:59:21","新北市八里區中山路二段56巷1號","121.40715","25.154105","6502300","八里區"
"248014","025-BX","2017/08/03 17:59:14","新北市五股區中興路二段103巷14號","121.458438333333","25.0765283333333","6501500","五股區"
"248016","026-BX","2017/08/03 17:59:15","新北市五股區中興路二段83巷26-6號","121.460048333333","25.07528","6501500","五股區"
"248006","077-UY","2017/08/03 17:59:08","新北市五股區中興路二段37巷28號","121.460218333333","25.074915","6501500","五股區"
"248008","095-VK","2017/08/03 17:59:17","新北市五股區更洲路6號","121.458496666667","25.0786483333333","6501500","五股區"
"248020","225-UY","2017/08/03 17:59:20","新北市五股區中興路二段83巷26-3號","121.460111666667","25.0753333333333","6501500","五股區"
"248010","272-BY","2017/08/03 17:59:16","新北市五股區中興路二段103巷16號","121.458658333333","25.0761766666667","6501500","五股區"
"248004","677-BX","2017/08/03 17:59:08","新北市五股區中興路二段157巷11號","121.45818","25.07737","6501500","五股區"
"248002","678-BX","2017/08/03 17:59:19","新北市五股區中興路二段37巷28號","121.460138333333","25.0749816666667","6501500","五股區"
"232011","375-UM","2017/08/03 17:59:10","新北市坪林區北宜路八段363號","121.709701666667","24.932765","6502000","坪林區"
"244013","069-UM","2017/08/03 17:59:11","新北市林口區中山路79號","121.390235","25.078745","6501700","林口區"
"244007","080-UY","2017/08/03 17:59:20","新北市林口區竹林路159號","121.388776666667","25.0799533333333","6501700","林口區"
"244019","742-UY","2017/08/03 17:59:20","新北市林口區忠孝路552巷1號","121.374053333333","25.06789","6501700","林口區"
"244009","410-SL","2017/08/03 17:59:20","新北市林口區林口路241號","121.386668333333","25.0837816666667","6501700","林口區"
"244023","483-VK","2017/08/03 17:59:20","新北市林口區育林街30號","121.385796666667","25.07368","6501700","林口區"
"244017","485-VK","2017/08/03 17:59:05","新北市林口區文化二路一段260巷1-1號","121.371316666667","25.0733583333333","6501700","林口區"
"244025","656-BX","2017/08/03 17:59:22","新北市林口區忠孝三路42號","121.360276666667","25.069915","6501700","林口區"
"244021","657-BX","2017/08/03 17:59:16","新北市林口區新寮29號","121.39845","25.0670216666667","6501700","林口區"
"244011","701-TV","2017/08/03 17:59:26","新北市林口區中正路103號","121.39396","25.0771966666667","6501700","林口區"
"243013","AAD-798","2017/08/03 17:59:13","新北市泰山區大科路45-17號","121.404433333333","25.0551383333333","6501600","泰山區"
"243009","297-R6","2017/08/03 16:01:06","新北市泰山區黎明路25號","121.422053333333","25.0609783333333","6501600","泰山區"
"222003","436-BY","2017/08/03 17:59:08","新北市深坑區炮子崙24號","121.603888333333","24.9872483333333","6501800","深坑區"
"222002","659-BX","2017/08/03 17:59:08","新北市深坑區深坑街35號","121.616006666667","25.00183","6501800","深坑區"
"222001","696-SL","2017/08/03 17:59:08","新北市深坑區北深路三段25巷15-2號","121.608785","24.9999766666667","6501800","深坑區"
"231007","189-VK","2017/08/03 12:02:41","新北市新店區安華路28-1號","121.51978","24.9609216666667","6500600","新店區"
"231068","260-TV","2017/08/03 15:38:46","新北市新店區安華路28-1號","121.519656666667","24.96053","6500600","新店區"
"231046","278-BY","2017/08/03 17:59:11","新北市新店區康雅崙路25號","121.536421666667","24.92707","6500600","新店區"
"241017","063-VK","2017/08/03 17:59:11","新北市三重區新北大道一段7號","121.489778333333","25.06133","6500200","三重區"
"241005","262-UM","2017/08/03 17:58:48","新北市三重區集賢路87-1號","121.493955","25.08705","6500200","三重區"
"241016","266-UM","2017/08/03 17:59:17","新北市三重區新北大道一段50號","121.487591666667","25.0614616666667","6500200","三重區"
"241022","267-UM","2017/08/03 17:59:17","新北市三重區重新路四段121號","121.484805","25.052085","6500200","三重區"
"241024","743-BX","2017/08/03 17:59:22","新北市三重區力行路二段9巷3號","121.482381666667","25.072135","6500200","三重區"
"241020","887-TS","2017/08/03 17:59:06","新北市三重區新北大道一段250號","121.479891666667","25.0612983333333","6500200","三重區"
"241033","AAC-255","2017/08/03 17:59:26","新北市三重區重新路五段613號","121.468206666667","25.0444733333333","6500200","三重區"
"235063","006-UY","2017/08/03 17:59:22","新北市中和區員山路36巷16-3號","121.485071666667","24.99132","6500300","中和區"
"235065","098-UM","2017/08/03 17:59:10","新北市中和區連城路469巷4號","121.483553333333","24.99555","6500300","中和區"
"235058","151-BY","2017/08/03 17:59:10","新北市中和區中正路521號","121.488388333333","24.9935366666667","6500300","中和區"
"235055","183-VK","2017/08/03 17:59:12","新北市中和區員山路36巷16-3號","121.485141666667","24.9914066666667","6500300","中和區"
"235038","185-VK","2017/08/03 17:59:28","新北市中和區錦和路216號","121.490375","24.9940316666667","6500300","中和區"
"235067","255-BX","2017/08/03 16:29:40","新北市中和區員山路36巷13號","121.48435","24.99133","6500300","中和區"
"235071","783-BX","2017/08/03 17:59:12","新北市中和區員山路36巷16-3號","121.485165","24.9911916666667","6500300","中和區"
"235062","800-TS","2017/08/03 17:59:20","新北市中和區中正路589巷15號","121.485878333333","24.9936416666667","6500300","中和區"
"235052","805-TS","2017/08/03 17:37:08","新北市中和區員山路36巷13號","121.484303333333","24.991525","6500300","中和區"
"247020","893-R6","2017/08/03 17:59:23","新北市蘆洲區民權路121巷16弄1號","121.47132","25.0892733333333","6501400","蘆洲區"
"247006","341-TH","2017/08/03 17:59:10","新北市蘆洲區中華街34號","121.462603333333","25.0811016666667","6501400","蘆洲區"
"247008","339-TH","2017/08/03 17:59:13","新北市蘆洲區成功路36號","121.4733","25.0793583333333","6501400","蘆洲區"
"247024","337-TH","2017/08/03 17:59:16","新北市蘆洲區長興路50巷3號","121.463818333333","25.0839016666667","6501400","蘆洲區"
"247002","336-TH","2017/08/03 17:59:23","新北市蘆洲區永平街32巷57弄14號","121.459331666667","25.0932366666667","6501400","蘆洲區"
"247004","056-VK","2017/08/03 17:59:15","新北市五股區凌雲路三段24巷19-1號","121.435355","25.1072183333333","6501400","蘆洲區"
"247018","053-VK","2017/08/03 17:59:15","新北市蘆洲區復興路298號","121.481195","25.09","6501400","蘆洲區"
"247012","007-UY","2017/08/03 17:59:23","新北市蘆洲區民族路150號","121.47943","25.086015","6501400","蘆洲區"
"228003","097-TW","2017/08/03 17:59:25","新北市貢寮區真理里美艷山街6-2號","121.928895","25.060705","6502600","貢寮區"
"228001","212-TW","2017/08/03 17:59:14","新北市貢寮區真理里新港街26巷53號","121.928066666667","25.0535516666667","6502600","貢寮區"
"228002","585-TW","2017/08/03 17:59:22","新北市貢寮區福連里香蘭街3號","121.97128","25.0243766666667","6502600","貢寮區"
"224006","676-BX","2017/08/03 17:59:11","新北市瑞芳區瑞興新村22巷2號","121.788396666667","25.10827","6501200","瑞芳區"
"224002","639-TC","2017/08/03 17:59:14","新北市瑞芳區三爪子坑路139號","121.810411666667","25.1065333333333","6501200","瑞芳區"
"224011","420-VK","2017/08/03 17:59:23","新北市瑞芳區三爪子坑路49號","121.81286","25.10796","6501200","瑞芳區"
"224009","285-BY","2017/08/03 17:59:21","新北市瑞芳區山尖路92號","121.853848333333","25.1143766666667","6501200","瑞芳區"
"224008","275-VK","2017/08/03 17:59:24","新北市瑞芳區明燈路一段45巷61-7號","121.821873333333","25.1050416666667","6501200","瑞芳區"
"224007","273-VK","2017/08/03 17:59:11","新北市瑞芳區大寮路84號","121.78039","25.10128","6501200","瑞芳區"
"224005","271-BY","2017/08/03 17:59:23","新北市瑞芳區深澳路163-1號","121.81971","25.133025","6501200","瑞芳區"
"253006","032-BX","2017/08/03 17:59:23","新北市石門區大丘田45-2號","121.549826666667","25.2748383333333","6502200","石門區"
"253005","295-VK","2017/08/03 17:59:26","新北市石門區中山路62-11號","121.567546666667","25.2896816666667","6502200","石門區"
"208002","742-BX","2017/08/03 17:59:28","新北市金山區三界壇路26號","121.625476666667","25.228505","6502700","金山區"
"208003","665-BX","2017/08/03 17:59:21","新北市金山區磺港里磺港路203號","121.644926666667","25.2275683333333","6502700","金山區"
"208001","761-BX","2017/08/03 17:59:24","新北市金山區磺港里磺港路248號","121.643911666667","25.22505","6502700","金山區"
"251004","009-UM","2017/08/03 17:59:16","新北市淡水區民權路185-10號","121.459275","25.1336566666667","6501000","淡水區"
"251007","179-VK","2017/08/03 17:59:23","新北市淡水區中正東路二段161巷11弄10號","121.461503333333","25.1460766666667","6501000","淡水區"
"251008","181-VK","2017/08/03 17:59:24","新北市淡水區八勢一街55號","121.46189","25.15549","6501000","淡水區"
"251014","182-VK","2017/08/03 17:59:21","新北市淡水區公埔子16-6號","121.481021666667","25.2245566666667","6501000","淡水區"
"251010","413-VK","2017/08/03 17:59:24","新北市淡水區淡海路46號","121.423203333333","25.1799833333333","6501000","淡水區"
"251012","441-VK","2017/08/03 17:59:08","新北市淡水區北新路三段16號","121.483121666667","25.1856066666667","6501000","淡水區"
"251016","442-VK","2017/08/03 17:59:18","新北市淡水區埤島35-2號","121.449348333333","25.1970216666667","6501000","淡水區"
"251005","443-VK","2017/08/03 17:59:21","新北市淡水區英專路133號","121.446445","25.1727533333333","6501000","淡水區"
"251001","559-UM","2017/08/03 17:59:07","新北市淡水區民權路94巷1號","121.463208333333","25.124885","6501000","淡水區"
"251006","561-UM","2017/08/03 17:59:22","新北市淡水區新生街20-5號","121.438905","25.17386","6501000","淡水區"
"251009","575-R6","2017/08/03 17:59:19","新北市淡水區中山路192號","121.441721666667","25.1746083333333","6501000","淡水區"
"251011","650-BX","2017/08/03 17:59:19","新北市淡水區三空泉5號","121.477321666667","25.1620383333333","6501000","淡水區"
"251002","672-BX","2017/08/03 17:59:12","新北市淡水區鼻頭街18-1號","121.446875","25.1666966666667","6501000","淡水區"
"251003","766-UM","2017/08/03 17:59:28","新北市淡水區大忠街79-6號","121.445808333333","25.1771016666667","6501000","淡水區"
"207003","550-UM","2017/08/03 17:59:19","新北市萬里區港東路野柳風景區攤販66號","121.691306666667","25.2058283333333","6502800","萬里區"
"207004","225-TW","2017/08/03 17:59:09","新北市萬里區中幅里中福路48號","121.683311666667","25.174095","6502800","萬里區"
"252002","178-VK","2017/08/03 17:59:10","新北市三芝區中山路一段88巷15號","121.50293","25.2567433333333","6502100","三芝區"
"252001","292-VK","2017/08/03 17:59:15","新北市三芝區中興街一段31號","121.49733","25.2583983333333","6502100","三芝區"
"237004","078-UY","2017/08/03 17:59:14","新北市三峽區中正路二段122-1號","121.36642","24.9174266666667","6500900","三峽區"
"237007","153-BY","2017/08/03 17:59:14","新北市三峽區中園街126-16號","121.367011666667","24.9211633333333","6500900","三峽區"
"237009","210-TH","2017/08/03 17:59:09","新北市三峽區文化路266-13號","121.3661","24.93568","6500900","三峽區"
"237013","252-BX","2017/08/03 17:59:21","新北市三峽區介壽路一段232號","121.378405","24.9305283333333","6500900","三峽區"
"237012","275-BY","2017/08/03 17:59:25","新北市三峽區民生街27巷1號","121.37605","24.93633","6500900","三峽區"
"237008","302-VK","2017/08/03 17:59:16","新北市三峽區白雞30號","121.369061666667","24.9123683333333","6500900","三峽區"
"237014","433-BY","2017/08/03 17:59:16","新北市三峽區復興路101巷1弄26號","121.37119","24.937645","6500900","三峽區"
"237006","5529-G3","2017/08/03 17:59:20","新北市三峽區介壽路二段138巷1弄90-6號","121.39746","24.932015","6500900","三峽區"
"237011","572-TV","2017/08/03 16:49:28","新北市三峽區中山路459巷163-3號","121.348641666667","24.9329733333333","6500900","三峽區"
"237016","649-BX","2017/08/03 17:59:10","新北市三峽區詩朗139號","121.40551","24.910965","6500900","三峽區"
"237010","706-TV","2017/08/03 17:59:26","新北市三峽區民權街134號","121.36863","24.9318816666667","6500900","三峽區"
"237005","AKY-6261","2017/08/03 17:59:22","新北市三峽區復興路237巷38號","121.369075","24.9378433333333","6500900","三峽區"
"236071","105-UM","2017/08/03 17:59:21","新北市土城區青雲路665-2號","121.466301666667","24.9648333333333","6501300","土城區"
"236042","107-UM","2017/08/03 17:59:18","新北市土城區裕生路65-1號","121.447545","24.98581","6501300","土城區"
"236078","166-UM","2017/08/03 17:59:19","新北市土城區永寧路32巷10弄1號","121.428908333333","24.9609983333333","6501300","土城區"
"236030","253-BX","2017/08/03 17:59:25","新北市土城區城林路6巷80號","121.438518333333","24.979565","6501300","土城區"
"236026","269-VK","2017/08/03 17:59:20","新北市土城區承天路43巷4號","121.439218333333","24.9638733333333","6501300","土城區"
"236014","270-VK","2017/08/03 17:59:10","新北市土城區城林路6巷80號","121.43827","24.9799083333333","6501300","土城區"
"236037","271-VK","2017/08/03 17:59:27","新北市土城區城林路6巷80號","121.438425","24.9797183333333","6501300","土城區"
"236021","401-BY","2017/08/03 17:59:23","新北市土城區城林路6巷80號","121.438736666667","24.9798783333333","6501300","土城區"
"236058","912-UM","2017/08/03 17:59:08","新北市土城區中央路三段119-1號","121.434168333333","24.9656933333333","6501300","土城區"
"236051","913-UM","2017/08/03 17:59:23","新北市土城區城林路6巷80號","121.438483333333","24.9795633333333","6501300","土城區"
"236062","915-UM","2017/08/03 17:59:21","新北市土城區城林路6巷80號","121.438351666667","24.9797116666667","6501300","土城區"
"236053","AAC-216","2017/08/03 17:59:17","新北市土城區中央路二段280號","121.440785","24.9740183333333","6501300","土城區"
"242021","AAC-296","2017/08/03 17:59:09","新北市新莊區中華路一段2號","121.452141666667","25.036285","6500500","新莊區"
"242029","986-R7","2017/08/03 17:59:11","新北市新莊區中平路61號","121.444726666667","25.0445483333333","6500500","新莊區"
"242048","751-BX","2017/08/03 17:59:20","新北市新莊區萬安街47巷21號","121.422465","25.0244516666667","6500500","新莊區"
"242025","615-BX","2017/08/03 17:59:23","新北市新莊區新北大道二段370號","121.46218","25.0608516666667","6500500","新莊區"
"242023","613-BX","2017/08/03 17:59:06","新北市新莊區福壽街35號","121.458183333333","25.0484483333333","6500500","新莊區"
"242027","612-BX","2017/08/03 17:59:06","新北市新莊區思源路457號","121.459821666667","25.0535233333333","6500500","新莊區"
"242036","566-BX","2017/08/03 17:59:23","新北市新莊區建福路31號","121.426391666667","25.0286266666667","6500500","新莊區"
"242004","442-UM","2017/08/03 17:59:15","新北市新莊區福樂街56巷15號","121.458638333333","25.0464966666667","6500500","新莊區"
"242046","441-UM","2017/08/03 17:59:23","新北市新莊區福營路125巷13號","121.43346","25.0311733333333","6500500","新莊區"
"242051","440-UM","2017/08/03 17:59:16","新北市新莊區民安西路137號","121.426441666667","25.017425","6500500","新莊區"
"242031","415-TV","2017/08/03 17:59:26","新北市新莊區新泰路289巷48號","121.443413333333","25.0404","6500500","新莊區"
"242002","413-TV","2017/08/03 17:59:12","新北市新莊區中正路147號","121.458071666667","25.037385","6500500","新莊區"
"242039","400-BY","2017/08/03 17:59:11","新北市新莊區民安西路24巷21號","121.426116666667","25.0206166666667","6500500","新莊區"
"242061","362-BY","2017/08/03 17:59:17","新北市新莊區新樹路541號","121.43274","25.0082","6500500","新莊區"
"242058","353-BY","2017/08/03 17:59:09","新北市新莊區雙鳳路134巷5號","121.412733333333","25.02807","6500500","新莊區"
"242042","132-UY","2017/08/03 17:59:21","新北市泰山區壽山路10號","121.421346666667","25.0290583333333","6500500","新莊區"
"242034","133-UY","2017/08/03 17:59:21","新北市新莊區景德路414號","121.444633333333","25.033425","6500500","新莊區"
"242019","135-UY","2017/08/03 17:59:22","新北市新莊區明中街47巷15號","121.456946666667","25.03866","6500500","新莊區"
"242044","172-VK","2017/08/03 17:59:18","新北市新莊區雙鳳路107號","121.414051666667","25.0278983333333","6500500","新莊區"
"242007","173-VK","2017/08/03 17:59:14","新北市新莊區自信街67號","121.455436666667","25.048235","6500500","新莊區"
"242013","175-VK","2017/08/03 17:59:17","新北市新莊區中和街125巷6號","121.447143333333","25.04861","6500500","新莊區"
"242056","176-VK","2017/08/03 17:59:25","新北市新莊區豐年街124巷6弄2號","121.44599","25.0298583333333","6500500","新莊區"
"242011","346-TH","2017/08/03 17:59:18","新北市新莊區中原路235巷1弄7號","121.450031666667","25.0540266666667","6500500","新莊區"
"242017","348-TH","2017/08/03 17:59:17","新北市新莊區永樂街94號","121.450388333333","25.0450416666667","6500500","新莊區"
"242053","349-TH","2017/08/03 17:59:22","新北市新莊區民安西路415巷4號","121.430823333333","25.009245","6500500","新莊區"
"242015","350-TH","2017/08/03 17:59:15","新北市新莊區中平路119巷3號","121.44446","25.046615","6500500","新莊區"
"242009","351-TH","2017/08/03 17:59:18","新北市新莊區中華路二段252號","121.452728333333","25.052965","6500500","新莊區"
"238015","755-BX","2017/08/03 17:59:17","新北市樹林區文德街2巷17號","121.419706666667","24.991835","6500700","樹林區"
"238023","601-UM","2017/08/03 17:59:16","新北市樹林區龍興街32巷35號","121.401798333333","25.0154366666667","6500700","樹林區"
"238019","599-UM","2017/08/03 17:59:17","新北市樹林區水源街15號","121.425148333333","24.9829233333333","6500700","樹林區"
"238018","571-TV","2017/08/03 17:59:20","新北市樹林區樹新路98號","121.429481666667","24.9975616666667","6500700","樹林區"
"238022","312-TH","2017/08/03 17:59:21","新北市樹林區太順街79巷2號","121.416695","24.9783416666667","6500700","樹林區"
"238021","311-TH","2017/08/03 17:59:16","新北市樹林區柑園街一段23-2號","121.404543333333","24.9604316666667","6500700","樹林區"
"238012","303-VK","2017/08/03 17:59:14","新北市樹林區俊興街209-4號","121.41753","25.01413","6500700","樹林區"
"238017","283-BY","2017/08/03 17:59:23","新北市樹林區三德街64-2號","121.416318333333","25.0146883333333","6500700","樹林區"
"238014","282-BY","2017/08/03 17:59:11","新北市樹林區保安街一段225號","121.420348333333","24.9963966666667","6500700","樹林區"
"238020","268-VK","2017/08/03 17:16:13","新北市樹林區大安路43號","121.423906666667","24.9992833333333","6500700","樹林區"
"238026","172-UY","2017/08/03 17:59:19","新北市樹林區中洲街5號","121.397315","24.9727183333333","6500700","樹林區"
"238016","169-UY","2017/08/03 17:59:14","新北市樹林區啟智街137巷4號","121.417286666667","24.9880983333333","6500700","樹林區"
"239007","AAC-297","2017/08/03 17:59:19","新北市鶯歌區鶯桃路94巷59弄13號","121.341303333333","24.9551933333333","6500800","鶯歌區"
"239006","891-R6","2017/08/03 17:59:06","新北市鶯歌區鶯桃路413巷70號","121.330095","24.9631266666667","6500800","鶯歌區"
"239008","527-UM","2017/08/03 17:59:20","新北市鶯歌區香賓街13巷16號","121.336401666667","24.9800133333333","6500800","鶯歌區"
"239005","526-UM","2017/08/03 17:59:24","新北市鶯歌區鶯桃路658巷10號","121.329575","24.9694816666667","6500800","鶯歌區"
"239001","417-VK","2017/08/03 17:59:16","新北市鶯歌區中正三路220號","121.33173","24.9376683333333","6500800","鶯歌區"
"239003","360-BY","2017/08/03 17:59:11","新北市鶯歌區鶯桃路213-1號","121.336973333333","24.9589066666667","6500800","鶯歌區"
"239002","359-BY","2017/08/03 17:59:17","新北市鶯歌區中山路249巷4弄65號","121.347666666667","24.9565733333333","6500800","鶯歌區"
"221008","489-VK","2017/08/03 17:59:17","新北市汐止區明峰街23號","121.634443333333","25.0714","6501100","汐止區"
"221036","130-UY","2017/08/03 17:59:13","新北市汐止區大同路三段34號","121.667085","25.0765733333333","6501100","汐止區"
"221015","131-UY","2017/08/03 17:57:40","新北市汐止區長江街321號","121.66649","25.0816066666667","6501100","汐止區"
"221010","269-BY","2017/08/03 17:59:19","新北市汐止區汐萬路二段122巷26號","121.648428333333","25.086275","6501100","汐止區"
"221012","278-VK","2017/08/03 01:37:11","新北市汐止區汐萬路一段256巷1號","121.651845","25.0748183333333","6501100","汐止區"
"221023","279-VK","2017/08/03 02:10:52","新北市汐止區汐萬路一段256巷1號","121.651793333333","25.0749133333333","6501100","汐止區"
"221032","280-BY","2017/08/03 17:59:10","新北市汐止區橫科路73巷16號","121.619593333333","25.0512633333333","6501100","汐止區"
"221027","281-BY","2017/08/03 17:59:15","新北市汐止區汐萬路一段10號","121.656125","25.06738","6501100","汐止區"
"221038","297-VK","2017/08/03 17:59:21","新北市汐止區連興街128巷7弄8號","121.65348","25.0613633333333","6501100","汐止區"
"221029","298-VK","2017/08/03 17:59:14","新北市汐止區樟樹二路330巷1號","121.641698333333","25.070275","6501100","汐止區"
"221021","299-VK","2017/08/03 17:28:00","新北市汐止區汐萬路一段256巷1號","121.652026666667","25.0748366666667","6501100","汐止區"
"221031","353-TW","2017/08/03 17:59:27","新北市汐止區中興路62號","121.635455","25.0615516666667","6501100","汐止區"
"221035","622-UM","2017/08/03 17:59:18","新北市汐止區新江北路30巷20號","121.651906666667","25.069565","6501100","汐止區"
"221025","623-UM","2017/08/03 17:59:20","新北市汐止區仁愛路39號","121.659466666667","25.0634233333333","6501100","汐止區"
"221033","647-BX","2017/08/03 17:59:13","新北市汐止區合順街46號","121.620433333333","25.0431283333333","6501100","汐止區"
"221002","707-TV","2017/08/03 17:59:12","新北市汐止區工建路31號","121.639391666667","25.063585","6501100","汐止區"
"221002","753-BX","2017/08/03 17:59:07","新北市汐止區招商街11巷1號","121.66654","25.0688283333333","6501100","汐止區"
