"lineid","car","time","location","longitude","latitude","cityid","cityname"
"234046","148-BY","2017/08/03 19:49:27","新北市永和區成功路一段76號","121.526355","25.0033316666667","6500400","永和區"
"234013","149-BY","2017/08/03 19:49:18","新北市永和區永平路246號","121.508733333333","25.011045","6500400","永和區"
"234007","207-UY","2017/08/03 19:49:16","新北市中和區南工路56號","121.505981666667","25.0015783333333","6500400","永和區"
"234081","298-R6","2017/08/03 19:49:21","新北市永和區永亨路98號","121.523086666667","25.0048283333333","6500400","永和區"
"234038","336-UY","2017/08/03 19:49:15","新北市永和區成功路二段165號","121.526648333333","24.9971716666667","6500400","永和區"
"234064","337-UY","2017/08/03 19:49:10","新北市永和區中正路362號","121.517886666667","25.0008516666667","6500400","永和區"
"234086","338-UY","2017/08/03 19:49:21","新北市永和區永利路2號","121.51729","25.005905","6500400","永和區"
"234070","552-UM","2017/08/03 19:49:24","新北市永和區國光路51號","121.519013333333","25.0082816666667","6500400","永和區"
"234054","553-UM","2017/08/03 19:49:27","新北市永和區竹林路75巷1-1號","121.5191","25.0132466666667","6500400","永和區"
"234017","745-BX","2017/08/03 19:49:10","新北市永和區文化路5號","121.515531666667","25.014985","6500400","永和區"
"234030","746-BX","2017/08/03 19:49:15","新北市永和區民生路47巷16號","121.523831666667","24.9975983333333","6500400","永和區"
"234061","AAD-866","2017/08/03 19:49:18","新北市永和區中正路264號","121.516825","24.99872","6500400","永和區"
"234042","862-TW","2017/08/03 19:49:26","新北市永和區中和路389巷24號","121.50818","25.001315","6500400","永和區"
"234050","863-TW","2017/08/03 19:49:07","新北市永和區保安路46號","121.51033","25.0168316666667","6500400","永和區"
"234026","9371-KE","2017/08/03 17:56:20","新北市永和區福和路1號","121.525833333333","25.0090133333333","6500400","永和區"
"234026","9381-KE","2017/08/03 19:49:14","新北市永和區雙和街14號","121.509575","25.0019633333333","6500400","永和區"
"234011","9373-KE","2017/08/03 19:49:09","新北市永和區仁愛路352巷94號","121.501168333333","25.00802","6500400","永和區"
"249001","173-UM","2017/08/03 19:49:25","新北市八里區中華路二段250號","121.405405","25.1497216666667","6502300","八里區"
"249004","303-UY","2017/08/03 19:49:09","新北市八里區仁愛路19號","121.413343333333","25.160895","6502300","八里區"
"249002","305-UY","2017/08/03 19:49:13","新北市八里區頂寮五街26號","121.451211666667","25.12608","6502300","八里區"
"249003","593-UM","2017/08/03 19:49:16","新北市八里區華峰三街37號","121.398603333333","25.1455333333333","6502300","八里區"
"248014","025-BX","2017/08/03 19:49:10","新北市五股區五福路42巷10號","121.43429","25.08963","6501500","五股區"
"248016","026-BX","2017/08/03 19:49:14","新北市五股區成泰路四段16號","121.453496666667","25.1067433333333","6501500","五股區"
"248008","095-VK","2017/08/03 19:49:20","新北市五股區四維路169號","121.467681666667","25.075115","6501500","五股區"
"248020","225-UY","2017/08/03 19:49:20","新北市五股區中直路65-3號","121.418138333333","25.1181833333333","6501500","五股區"
"248012","247-BX","2017/08/03 19:49:09","新北市五股區蓬萊路24號","121.433875","25.0799066666667","6501500","五股區"
"248010","272-BY","2017/08/03 19:49:16","新北市五股區登林路貿商巷2弄2號","121.430545","25.069585","6501500","五股區"
"248004","677-BX","2017/08/03 19:49:08","新北市五股區成泰路一段220號","121.43649","25.07965","6501500","五股區"
"248002","678-BX","2017/08/03 19:49:19","新北市五股區成泰路四段14號","121.453315","25.10682","6501500","五股區"
"234077","969-R7","2017/08/03 19:49:07","新北市永和區中正路264號","121.516881666667","24.9986483333333","6500400","永和區"
"234074","AAC-211","2017/08/03 19:49:16","新北市永和區竹林路213巷20號","121.521821666667","25.0089033333333","6500400","永和區"
"234067","AAC-212","2017/08/03 19:49:09","新北市永和區永貞路353號","121.509063333333","25.0075116666667","6500400","永和區"
"234003","AAC-295","2017/08/03 19:49:26","新北市永和區福和路343號","121.515555","25.0071233333333","6500400","永和區"
"244019","742-UY","2017/08/03 19:49:20","新北市林口區湖南里70-9號","121.37597","25.089735","6501700","林口區"
"243013","AAD-798","2017/08/03 19:49:12","新北市泰山區應化街7號","121.42386","25.04372","6501600","泰山區"
"243009","297-R6","2017/08/03 19:49:15","新北市泰山區美寧街58號","121.43084","25.0646883333333","6501600","泰山區"
"243015","380-SR","2017/08/03 19:49:07","新北市泰山區明志路二段239號","121.427263333333","25.04815","6501600","泰山區"
"243014","421-VK","2017/08/03 19:49:18","新北市泰山區泰林路二段33-7號","121.435233333333","25.05641","6501600","泰山區"
"243010","548-UM","2017/08/03 19:49:19","新北市泰山區民生路33號","121.430685","25.05219","6501600","泰山區"
"243011","549-UM","2017/08/03 19:49:11","新北市泰山區明志路三段196巷37號","121.421998333333","25.0396283333333","6501600","泰山區"
"243012","646-TV","2017/08/03 19:49:21","新北市泰山區全興路13號","121.432351666667","25.0589366666667","6501600","泰山區"
"243016","680-BX","2017/08/03 19:49:22","新北市泰山區明志路三段516號","121.420843333333","25.030735","6501600","泰山區"
"222003","436-BY","2017/08/03 19:33:32","新北市深坑區深南路51-1號","121.62114","25.0099916666667","6501800","深坑區"
"222002","659-BX","2017/08/03 19:49:28","新北市深坑區北深路二段2巷1號","121.621346666667","25.0046383333333","6501800","深坑區"
"222001","696-SL","2017/08/03 19:49:08","新北市深坑區北深路三段70號","121.607795","25.00135","6501800","深坑區"
"231041","001-UM","2017/08/03 19:49:09","新北市新店區中央路208-1號","121.530126666667","24.9737233333333","6500600","新店區"
"231056","0291-UT","2017/08/03 19:49:23","新北市新店區安民街121巷12號","121.51544","24.96925","6500600","新店區"
"231059","046-UY","2017/08/03 19:49:20","新北市新店區安和路二段35號","121.518111666667","24.9678283333333","6500600","新店區"
"231060","106-UY","2017/08/03 19:49:22","新北市新店區安康路二段159巷6號","121.510115","24.95923","6500600","新店區"
"231051","107-UY","2017/08/03 19:49:08","新北市新店區中央三街72號","121.526475","24.9751266666667","6500600","新店區"
"231047","108-UY","2017/08/03 19:49:13","新北市新店區中興路二段100巷1號","121.547666666667","24.9715083333333","6500600","新店區"
"231052","187-VK","2017/08/03 19:49:22","新北市新店區新烏路三段108號","121.55304","24.903525","6500600","新店區"
"231007","189-VK","2017/08/03 12:02:41","新北市新店區安華路28-1號","121.51978","24.9609216666667","6500600","新店區"
"231057","256-BX","2017/08/03 19:49:10","新北市新店區梅崗三路1號","121.558353333333","24.9312666666667","6500600","新店區"
"231068","260-TV","2017/08/03 15:38:46","新北市新店區安華路28-1號","121.519656666667","24.96053","6500600","新店區"
"231063","268-BY","2017/08/03 19:49:25","新北市新店區車子路11號","121.50305","24.9520116666667","6500600","新店區"
"231046","278-BY","2017/08/03 19:49:11","新北市新店區福園街10巷3號","121.532668333333","24.9728316666667","6500600","新店區"
"231050","AAD-862","2017/08/03 19:46:02","新北市新店區北宜路二段579巷2號","121.565466666667","24.95417","6500600","新店區"
"231067","4772-VM","2017/08/03 19:49:22","新北市新店區精忠路10-1號","121.532678333333","24.9590933333333","6500600","新店區"
"231065","512-UM","2017/08/03 19:49:11","新北市新店區安祥路109巷151弄5號","121.478285","24.9586516666667","6500600","新店區"
"231054","513-UM","2017/08/03 19:49:09","新北市新店區光明街136號","121.539456666667","24.9612366666667","6500600","新店區"
"231064","515-UM","2017/08/03 19:49:10","新北市新店區安和路二段117巷10號","121.518368333333","24.9702366666667","6500600","新店區"
"231061","618-UM","2017/08/03 19:49:22","新北市新店區安民街257號","121.517403333333","24.9725283333333","6500600","新店區"
"231040","619-UM","2017/08/03 19:49:12","新北市新店區北新路一段96巷23號","121.543038333333","24.96888","6500600","新店區"
"231042","641-BX","2017/08/03 19:49:09","新北市新店區中興路一段268巷4號","121.54529","24.9673716666667","6500600","新店區"
"231068","718-UY","2017/08/03 19:49:11","新北市新店區安華路28-1號","121.519108333333","24.9608166666667","6500600","新店區"
"231049","719-UM","2017/08/03 19:49:24","新北市新店區二十張路46巷37弄21號","121.535791666667","24.9816583333333","6500600","新店區"
"231062","719-UY","2017/08/03 19:49:13","新北市新店區永業路68號","121.531661666667","24.9522533333333","6500600","新店區"
"231044","897-TW","2017/08/03 19:49:18","新北市新店區復興路58號","121.538016666667","24.986855","6500600","新店區"
"231045","898-TW","2017/08/03 19:49:18","新北市新店區北宜路二段382號","121.564486666667","24.9529466666667","6500600","新店區"
"231043","899-TW","2017/08/03 19:49:18","新北市新店區中正路199號","121.540381666667","24.9725133333333","6500600","新店區"
"241011","013-R5","2017/08/03 19:49:20","新北市三重區介壽路39巷6號","121.498896666667","25.0700783333333","6500200","三重區"
"241028","022-UY","2017/08/03 19:49:15","新北市三重區中正南路157號","121.493818333333","25.0560716666667","6500200","三重區"
"241008","059-VK","2017/08/03 19:49:19","新北市三重區永福街80號","121.47886","25.0764","6500200","三重區"
"241031","061-VK","2017/08/03 19:49:11","新北市三重區重新路四段248號","121.486106666667","25.05342","6500200","三重區"
"241015","062-VK","2017/08/03 19:49:13","新北市三重區三和路一段6號","121.503895","25.0644983333333","6500200","三重區"
"241017","063-VK","2017/08/03 19:49:11","新北市三重區重陽路三段27巷1號","121.489626666667","25.0665683333333","6500200","三重區"
"241024","065-VK","2017/08/03 19:49:18","新北市三重區大勇街89號","121.479723333333","25.0714516666667","6500200","三重區"
"241026","066-VK","2017/08/03 19:49:16","新北市三重區文化南路42號","121.500423333333","25.0602733333333","6500200","三重區"
"241003","091-VK","2017/08/03 19:49:10","新北市三重區五華街93巷67號","121.493425","25.084665","6500200","三重區"
"241032","156-TC","2017/08/03 19:49:06","新北市三重區重陽路一段68號","121.486396666667","25.0587083333333","6500200","三重區"
"241009","265-UM","2017/08/03 19:49:23","新北市三重區三和路四段394號","121.48159","25.079345","6500200","三重區"
"241016","266-UM","2017/08/03 19:49:17","新北市三重區正德街67號","121.495548333333","25.0634016666667","6500200","三重區"
"241022","267-UM","2017/08/03 18:27:48","新北市三重區重新路四段121號","121.484783333333","25.0520666666667","6500200","三重區"
"241018","268-UM","2017/08/03 19:49:17","新北市三重區雙園街57巷3號","121.494855","25.0676066666667","6500200","三重區"
"241013","270-UM","2017/08/03 19:49:26","新北市三重區仁愛街112巷14號","121.494713333333","25.074005","6500200","三重區"
"241025","271-UM","2017/08/03 19:49:09","新北市三重區頂崁街210巷16號","121.476511666667","25.0677516666667","6500200","三重區"
"241007","398-BY","2017/08/03 19:49:22","新北市三重區三和路四段135巷4號","121.484815","25.0780916666667","6500200","三重區"
"241022","412-TH","2017/08/03 19:49:25","新北市三重區新北大道一段7號","121.489756666667","25.0617116666667","6500200","三重區"
"241035","462-BY","2017/08/03 19:49:11","新北市三重區文化北路33號","121.499331666667","25.0641116666667","6500200","三重區"
"241004","475-VK","2017/08/03 19:49:15","新北市三重區五華街74號","121.493411666667","25.0820316666667","6500200","三重區"
"241019","478-VK","2017/08/03 19:49:08","新北市三重區自強路二段67巷17號","121.489413333333","25.07021","6500200","三重區"
"241030","480-VK","2017/08/03 19:49:19","新北市三重區環河南路253號","121.491143333333","25.0506233333333","6500200","三重區"
"241014","543-UM","2017/08/03 19:49:10","新北市三重區長元街98巷18弄20號","121.501988333333","25.0674416666667","6500200","三重區"
"241023","545-UM","2017/08/03 19:49:22","新北市三重區頂崁街172號","121.477606666667","25.0659833333333","6500200","三重區"
"241001","547-UM","2017/08/03 19:49:18","新北市三重區仁愛街327巷85號","121.494055","25.0805483333333","6500200","三重區"
"241006","AAD-863","2017/08/03 19:49:12","新北市三重區永福街295號","121.483726666667","25.074535","6500200","三重區"
"241020","887-TS","2017/08/03 19:49:22","新北市三重區後竹圍街18號","121.491423333333","25.0735783333333","6500200","三重區"
"241012","941-UM","2017/08/03 19:49:10","新北市三重區仁興街28巷36號","121.498481666667","25.0751433333333","6500200","三重區"
"241029","942-UM","2017/08/03 19:49:27","新北市三重區光明路11號","121.491051666667","25.0588816666667","6500200","三重區"
"241033","AAC-255","2017/08/03 19:49:23","新北市三重區中興南街66號","121.470658333333","25.0440166666667","6500200","三重區"
"235066","003-UY","2017/08/03 19:49:09","新北市中和區南工路26號","121.505578333333","25.0009183333333","6500300","中和區"
"235064","005-UY","2017/08/03 19:49:06","新北市中和區南山路30號","121.501931666667","24.9978916666667","6500300","中和區"
"235063","006-UY","2017/08/03 19:49:21","新北市中和區連城路176號","121.493128333333","24.99701","6500300","中和區"
"235056","096-UM","2017/08/03 19:49:10","新北市中和區中山路三段100號","121.477118333333","25.0058733333333","6500300","中和區"
"235039","097-UM","2017/08/03 19:49:11","新北市中和區景德街1號","121.519198333333","24.9912483333333","6500300","中和區"
"235065","098-UM","2017/08/03 19:49:10","新北市中和區中山路二段178巷1號","121.50059","25.0027866666667","6500300","中和區"
"235040","150-BY","2017/08/03 19:49:20","新北市中和區保健路50巷66號","121.509398333333","24.9951183333333","6500300","中和區"
"235058","151-BY","2017/08/03 19:49:10","新北市中和區員山路146巷15號","121.482216666667","24.9968116666667","6500300","中和區"
"235055","183-VK","2017/08/03 19:49:12","新北市中和區中山路三段181巷16號","121.472796666667","25.0054066666667","6500300","中和區"
"235038","185-VK","2017/08/03 19:49:27","新北市中和區自立路15巷4號","121.522703333333","24.9958816666667","6500300","中和區"
"235049","186-VK","2017/08/03 19:49:13","新北市中和區中正路2號","121.503221666667","24.9938766666667","6500300","中和區"
"235067","255-BX","2017/08/03 19:49:26","新北市中和區連城路340巷14弄2號","121.483353333333","24.9971866666667","6500300","中和區"
"235044","293-VK","2017/08/03 19:49:10","新北市中和區興南路一段156號","121.508395","24.9868833333333","6500300","中和區"
"235043","352-BY","2017/08/03 19:49:26","新北市中和區華新街230號","121.506076666667","24.9817683333333","6500300","中和區"
"235051","376-QA","2017/08/03 19:49:10","新北市中和區中興街123號","121.499998333333","24.99175","6500300","中和區"
"235068","377-QA","2017/08/03 19:49:20","新北市中和區永和路8巷23弄3號","121.500845","25.0037766666667","6500300","中和區"
"235061","378-QA","2017/08/03 19:49:20","新北市中和區員山路226巷5弄1號","121.48168","25.0007416666667","6500300","中和區"
"235050","4979-A6","2017/08/03 19:49:26","新北市中和區中正路271號","121.496011666667","24.99375","6500300","中和區"
"235069","4980-A6","2017/08/03 19:49:24","新北市中和區圓通路231號","121.49628","24.9941966666667","6500300","中和區"
"235042","551-UM","2017/08/03 19:49:05","新北市中和區景安路79巷3號","121.506706666667","24.9972966666667","6500300","中和區"
"235070","558-UM","2017/08/03 19:49:16","新北市中和區連勝街21號","121.498656666667","24.9980933333333","6500300","中和區"
"235045","565-BX","2017/08/03 19:49:06","新北市中和區景新街336號","121.511988333333","24.9907666666667","6500300","中和區"
"235054","640-BX","2017/08/03 19:49:12","新北市中和區國光街107巷4弄24號","121.469966666667","24.9990366666667","6500300","中和區"
"235060","647-TV","2017/08/03 19:49:07","新北市中和區新生街16巷1號","121.483025","25.0042566666667","6500300","中和區"
"235047","732-UM","2017/08/03 19:22:28","新北市中和區景平路239巷34號","121.508463333333","24.9922133333333","6500300","中和區"
"235046","733-UM","2017/08/03 19:49:08","新北市中和區四維街26號","121.512833333333","24.9871133333333","6500300","中和區"
"235071","783-BX","2017/08/03 19:49:12","新北市中和區立德街200巷36號","121.48541","25.0100366666667","6500300","中和區"
"235057","801-TS","2017/08/03 19:49:09","新北市中和區員山路172號","121.481401666667","24.9999616666667","6500300","中和區"
"235041","802-TS","2017/08/03 19:49:26","新北市永和區中和路545號","121.51154","25.0032566666667","6500300","中和區"
"235052","805-TS","2017/08/03 19:49:15","新北市中和區華新街190號","121.506873333333","24.98219","6500300","中和區"
"235048","896-TW","2017/08/03 19:49:15","新北市中和區興南路二段22-3號","121.507501666667","24.9858683333333","6500300","中和區"
"235053","900-TW","2017/08/03 19:49:20","新北市中和區民德路44號","121.468225","25.0021883333333","6500300","中和區"
"235037","AAC-213","2017/08/03 19:49:13","新北市中和區秀朗路三段10巷29弄5號","121.525053333333","24.996005","6500300","中和區"
"235059","AAC-215","2017/08/03 19:49:27","新北市中和區圓通路305巷18號","121.495018333333","24.9890833333333","6500300","中和區"
"220068","013-TV","2017/08/03 19:49:23","新北市板橋區光復街192巷16弄26號","121.486263333333","25.0192233333333","6500100","板橋區"
"220086","073-UY","2017/08/03 19:49:20","新北市板橋區西門街42號","121.454318333333","25.00942","6500100","板橋區"
"220106","075-UY","2017/08/03 19:49:21","新北市板橋區文化路608巷50-1號","121.479526666667","25.03448","6500100","板橋區"
"220069","AAD-861","2017/08/03 19:49:12","新北市板橋區稚暉街22號","121.45572","25.004395","6500100","板橋區"
"220096","120-SR","2017/08/03 19:49:25","新北市板橋區民生路二段240巷44號","121.46954","25.0229383333333","6500100","板橋區"
"247006","341-TH","2017/08/03 19:49:27","新北市蘆洲區永安南路二段38-1號","121.466863333333","25.0773016666667","6501400","蘆洲區"
"247008","339-TH","2017/08/03 19:49:23","新北市蘆洲區信義路113巷1弄20號","121.477663333333","25.080325","6501400","蘆洲區"
"247002","336-TH","2017/08/03 19:49:17","新北市蘆洲區永平街30號","121.458763333333","25.0908466666667","6501400","蘆洲區"
"247014","057-VK","2017/08/03 19:49:23","新北市蘆洲區保和街67號","121.469463333333","25.0860466666667","6501400","蘆洲區"
"247004","056-VK","2017/08/03 19:49:17","新北市蘆洲區中原路21巷7弄19號","121.461346666667","25.0828183333333","6501400","蘆洲區"
"247016","001-UY","2017/08/03 19:49:09","新北市蘆洲區保和街81號","121.469153333333","25.0860883333333","6501400","蘆洲區"
"226004","312-R5","2017/08/03 19:49:21","新北市平溪區十分里十分街311號","121.77506","25.0438966666667","6502400","平溪區"
"228003","097-TW","2017/08/03 19:49:05","新北市貢寮區真理里美艷山街11-6號","121.927635","25.0601033333333","6502600","貢寮區"
"228001","212-TW","2017/08/03 19:49:07","新北市貢寮區真理里大澳街10巷50號","121.92577","25.0564666666667","6502600","貢寮區"
"224002","639-TC","2017/08/03 19:49:14","新北市瑞芳區員山子路員山巷40-1號","121.816608333333","25.1041283333333","6501200","瑞芳區"
"224011","420-VK","2017/08/03 19:46:03","新北市瑞芳區崙頂路1-6號","121.847058333333","25.10475","6501200","瑞芳區"
"227004","642-TC","2017/08/03 19:49:09","新北市雙溪區雙溪里內挖路47號","121.86321","25.0367683333333","6502500","雙溪區"
"227010","030-BX","2017/08/03 19:49:10","新北市雙溪區新基里中華路90-1號","121.86604","25.039015","6502500","雙溪區"
"208002","742-BX","2017/08/03 19:49:22","新北市金山區中山路313巷28-1號","121.634763333333","25.22311","6502700","金山區"
"208003","665-BX","2017/08/03 19:49:11","新北市金山區中正路95號","121.633148333333","25.2216633333333","6502700","金山區"
"208001","761-BX","2017/08/03 19:49:24","新北市金山區重和里茅埔頭2號","121.60412","25.2173533333333","6502700","金山區"
"251004","009-UM","2017/08/03 19:49:15","新北市淡水區民權路185巷17號","121.460373333333","25.1338966666667","6501000","淡水區"
"251008","181-VK","2017/08/03 19:49:24","新北市淡水區中正路一段24巷9號","121.42659","25.1770633333333","6501000","淡水區"
"251014","182-VK","2017/08/03 19:49:21","新北市淡水區番社前3號","121.471225","25.2372633333333","6501000","淡水區"
"251012","441-VK","2017/08/03 19:49:28","新北市淡水區淡金路二段605號","121.446473333333","25.1932816666667","6501000","淡水區"
"251016","442-VK","2017/08/03 19:49:18","新北市淡水區三塊厝4-1號","121.457528333333","25.21152","6501000","淡水區"
"251005","443-VK","2017/08/03 19:49:20","新北市淡水區原德路62號","121.442645","25.1728066666667","6501000","淡水區"
"251001","559-UM","2017/08/03 19:49:12","新北市淡水區中正東路二段81號","121.459503333333","25.1535283333333","6501000","淡水區"
"251006","561-UM","2017/08/03 19:49:22","新北市淡水區水碓街15號","121.443503333333","25.176985","6501000","淡水區"
"251009","575-R6","2017/08/03 19:49:18","新北市淡水區中正路36號","121.443773333333","25.1692666666667","6501000","淡水區"
"251011","650-BX","2017/08/03 19:49:18","新北市淡水區水源街二段194號","121.456883333333","25.1758483333333","6501000","淡水區"
"207003","550-UM","2017/08/03 19:49:18","新北市萬里區大鵬里萬里加投51-1號","121.641981666667","25.211625","6502800","萬里區"
"207004","225-TW","2017/08/03 19:49:09","新北市萬里區萬里里瑪鋉路207號","121.690358333333","25.179395","6502800","萬里區"
"252002","178-VK","2017/08/03 19:49:10","新北市三芝區三民街31號","121.504598333333","25.2585066666667","6502100","三芝區"
"252001","292-VK","2017/08/03 19:49:15","新北市三芝區公正街9號","121.49978","25.257495","6502100","三芝區"
"237004","078-UY","2017/08/03 19:49:14","新北市三峽區添福14-8號","121.373835","24.9018116666667","6500900","三峽區"
"237007","153-BY","2017/08/03 19:49:14","新北市三峽區二鬮路112號","121.359921666667","24.9088","6500900","三峽區"
"237009","210-TH","2017/08/03 19:49:09","新北市三峽區中園街105號","121.367821666667","24.924685","6500900","三峽區"
"237013","252-BX","2017/08/03 19:49:21","新北市三峽區橫溪路96號","121.397866666667","24.9354666666667","6500900","三峽區"
"237012","275-BY","2017/08/03 19:49:25","新北市三峽區光明路21號","121.373245","24.9312283333333","6500900","三峽區"
"237008","302-VK","2017/08/03 19:49:16","新北市三峽區永安街181巷12號","121.373503333333","24.9272916666667","6500900","三峽區"
"237014","433-BY","2017/08/03 19:49:16","新北市三峽區嘉添31號","121.368716666667","24.9115483333333","6500900","三峽區"
"237006","5529-G3","2017/08/03 19:49:20","新北市三峽區中正路一段336巷15弄2號","121.369946666667","24.9249566666667","6500900","三峽區"
"237016","649-BX","2017/08/03 19:49:10","新北市三峽區成福路3號","121.416703333333","24.9281166666667","6500900","三峽區"
"237005","AKY-6261","2017/08/03 19:49:22","新北市三峽區民生街119-3號","121.373626666667","24.9352683333333","6500900","三峽區"
"236071","105-UM","2017/08/03 19:49:21","新北市土城區中央路二段214號","121.44203","24.97556","6501300","土城區"
"236042","107-UM","2017/08/03 19:49:23","新北市土城區裕民路280號","121.455408333333","24.9821533333333","6501300","土城區"
"236078","166-UM","2017/08/03 19:49:27","新北市土城區溪頭路111號","121.41002","24.9516883333333","6501300","土城區"
"236030","253-BX","2017/08/03 19:49:05","新北市土城區中央路一段294號","121.443291666667","24.9823916666667","6501300","土城區"
"236026","269-VK","2017/08/03 19:49:20","新北市土城區中央路二段61巷22號","121.443158333333","24.978725","6501300","土城區"
"236037","271-VK","2017/08/03 19:49:21","新北市土城區國際路158巷29號","121.468506666667","24.9758383333333","6501300","土城區"
"236021","401-BY","2017/08/03 19:49:22","新北市土城區金城路三段198號","121.468508333333","24.9879533333333","6501300","土城區"
"236058","912-UM","2017/08/03 19:49:08","新北市土城區中央路二段20-2號","121.442871666667","24.980355","6501300","土城區"
"236051","913-UM","2017/08/03 19:49:22","新北市土城區青雲路250-1號","121.459028333333","24.9799866666667","6501300","土城區"
"236062","915-UM","2017/08/03 19:49:20","新北市土城區延和路105巷6弄1號","121.467333333333","24.9910416666667","6501300","土城區"
"236053","AAC-216","2017/08/03 19:49:24","新北市土城區延和路56號","121.4655","24.98893","6501300","土城區"
"242029","986-R7","2017/08/03 19:49:08","新北市新莊區新泰路413巷25號","121.442443333333","25.0443583333333","6500500","新莊區"
"242048","751-BX","2017/08/03 19:49:20","新北市新莊區建安街76巷1弄15號","121.426011666667","25.0242366666667","6500500","新莊區"
"242023","613-BX","2017/08/03 19:49:19","新北市新莊區化成路162號","121.465483333333","25.0453016666667","6500500","新莊區"
"242027","612-BX","2017/08/03 19:49:20","新北市新莊區中平路286號","121.444868333333","25.0509683333333","6500500","新莊區"
"242036","566-BX","2017/08/03 19:49:23","新北市新莊區建安街58號","121.42726","25.024665","6500500","新莊區"
"242004","442-UM","2017/08/03 19:48:55","新北市新莊區化成路63巷24弄15號","121.462675","25.0459966666667","6500500","新莊區"
"242031","415-TV","2017/08/03 19:49:22","新北市新莊區忠孝街89號","121.443908333333","25.0368766666667","6500500","新莊區"
"242002","413-TV","2017/08/03 19:49:28","新北市新莊區新泰路67號","121.449443333333","25.03424","6500500","新莊區"
"242039","400-BY","2017/08/03 19:49:14","新北市新莊區民安路299巷33號","121.42929","25.02324","6500500","新莊區"
"242061","362-BY","2017/08/03 19:49:23","新北市新莊區中正路473-1號","121.44202","25.0329866666667","6500500","新莊區"
"242058","353-BY","2017/08/03 19:49:08","新北市新莊區八德街19號","121.425231666667","25.02259","6500500","新莊區"
"242042","132-UY","2017/08/03 19:49:21","新北市新莊區新北大道七段510號","121.412185","25.029185","6500500","新莊區"
"242007","173-VK","2017/08/03 19:49:14","新北市新莊區福壽街336號","121.457725","25.0584566666667","6500500","新莊區"
"242013","175-VK","2017/08/03 19:49:25","新北市新莊區中誠街53巷38號","121.451251666667","25.047035","6500500","新莊區"
"242017","348-TH","2017/08/03 19:49:17","新北市新莊區中華路一段226號","121.452538333333","25.0430266666667","6500500","新莊區"
"242015","350-TH","2017/08/03 19:49:15","新北市新莊區中港一街161號","121.447195","25.0449366666667","6500500","新莊區"
"242009","351-TH","2017/08/03 19:49:11","新北市新莊區中誠街108號","121.449621666667","25.047835","6500500","新莊區"
"238015","755-BX","2017/08/03 19:49:22","新北市樹林區中山路一段135-4號","121.422446666667","24.9897566666667","6500700","樹林區"
"238023","601-UM","2017/08/03 19:49:16","新北市樹林區三福街138號","121.405595","25.01602","6500700","樹林區"
"238018","571-TV","2017/08/03 19:49:19","新北市樹林區中山路三段206-1號","121.384681666667","24.967525","6500700","樹林區"
"238021","311-TH","2017/08/03 19:49:16","新北市樹林區佳園路三段183號","121.38532","24.9479616666667","6500700","樹林區"
"238012","303-VK","2017/08/03 19:49:15","新北市樹林區中山路二段156-1號","121.412601666667","24.9827033333333","6500700","樹林區"
"238014","282-BY","2017/08/03 19:49:11","新北市樹林區千歲街48號","121.425948333333","24.9969666666667","6500700","樹林區"
"238020","268-VK","2017/08/03 19:49:20","新北市樹林區俊英街102號","121.427481666667","25.0051166666667","6500700","樹林區"
"238016","169-UY","2017/08/03 19:49:14","新北市樹林區福德街3號","121.401638333333","24.9757133333333","6500700","樹林區"
"239007","AAC-297","2017/08/03 19:49:19","新北市鶯歌區大湖路326巷8號","121.346093333333","24.9703016666667","6500800","鶯歌區"
"239006","891-R6","2017/08/03 19:49:24","新北市鶯歌區重慶街6-1號","121.351943333333","24.9527216666667","6500800","鶯歌區"
"239004","193-VK","2017/08/03 19:49:15","新北市鶯歌區二甲路佳美巷27號","121.337503333333","24.933895","6500800","鶯歌區"
"221008","489-VK","2017/08/03 19:49:17","新北市汐止區康寧街83巷2-1號","121.61988","25.06683","6501100","汐止區"
"221036","130-UY","2017/08/03 19:49:12","新北市汐止區汐萬路一段160號","121.652553333333","25.0715166666667","6501100","汐止區"
"221015","131-UY","2017/08/03 19:49:20","新北市汐止區大同路二段537號","121.661978333333","25.0691816666667","6501100","汐止區"
"221010","269-BY","2017/08/03 19:49:19","新北市汐止區汐萬路一段333巷1號","121.649955","25.0761716666667","6501100","汐止區"
"221012","278-VK","2017/08/03 01:37:11","新北市汐止區汐萬路一段256巷1號","121.651845","25.0748183333333","6501100","汐止區"
"221023","279-VK","2017/08/03 02:10:52","新北市汐止區汐萬路一段256巷1號","121.651793333333","25.0749133333333","6501100","汐止區"
"221032","280-BY","2017/08/03 19:49:09","新北市汐止區橫科路407巷25弄13號","121.62613","25.0486133333333","6501100","汐止區"
"221027","281-BY","2017/08/03 19:49:16","新北市汐止區忠孝東路9號","121.658305","25.0659316666667","6501100","汐止區"
"221038","297-VK","2017/08/03 19:49:15","新北市汐止區忠孝東路318號","121.664706666667","25.069215","6501100","汐止區"
"221029","298-VK","2017/08/03 19:49:14","新北市汐止區康寧街901號","121.651466666667","25.0750566666667","6501100","汐止區"
"221021","299-VK","2017/08/03 18:30:20","新北市汐止區南興路8號","121.65173","25.0628916666667","6501100","汐止區"
"221031","353-TW","2017/08/03 19:49:07","新北市汐止區福德三路127號","121.63355","25.0675583333333","6501100","汐止區"
"221035","622-UM","2017/08/03 19:49:21","新北市汐止區長江街9號","121.654583333333","25.071155","6501100","汐止區"
"221025","623-UM","2017/08/03 19:49:20","新北市汐止區秀峰路81巷19號","121.661043333333","25.0645416666667","6501100","汐止區"
"221033","647-BX","2017/08/03 19:49:13","新北市汐止區東勢街60號","121.632298333333","25.039415","6501100","汐止區"
"221002","753-BX","2017/08/03 19:49:07","新北市汐止區大同路二段535號","121.661905","25.0690783333333","6501100","汐止區"
"220079","145-BY","2017/08/03 19:49:18","新北市板橋區建國街54巷18號","121.459543333333","25.0168583333333","6500100","板橋區"
"220080","200-UY","2017/08/03 19:49:22","新北市板橋區大觀路二段153巷46弄60號","121.449453333333","25.000325","6500100","板橋區"
"220082","610-BX","2017/08/03 19:49:08","新北市板橋區大觀路三段180巷30號","121.429885","24.99376","6500100","板橋區"
"220102","257-TC","2017/08/03 19:49:12","新北市板橋區雙十路二段46巷35號","121.476158333333","25.0290016666667","6500100","板橋區"
"220094","267-BY","2017/08/03 19:49:14","新北市板橋區長江路二段165號","121.46657","25.0319","6500100","板橋區"
"220056","276-BY","2017/08/03 19:49:16","新北市板橋區四川路二段99-1號","121.452651666667","24.99458","6500100","板橋區"
"220072","277-BY","2017/08/03 19:49:13","新北市板橋區金門街215巷55號","121.433828333333","24.9894716666667","6500100","板橋區"
"220101","285-UM","2017/08/03 19:49:15","新北市板橋區莒光路196巷1號","121.474183333333","25.0224033333333","6500100","板橋區"
"220053","285-VK","2017/08/03 19:49:24","新北市板橋區中山路二段90巷10號","121.47526","25.0159066666667","6500100","板橋區"
"220083","286-VK","2017/08/03 19:49:12","新北市板橋區龍興街63巷37號","121.441936666667","25.0016916666667","6500100","板橋區"
"220081","287-VK","2017/08/03 19:49:16","新北市板橋區大觀路一段29巷131弄31號","121.450566666667","25.0046116666667","6500100","板橋區"
"220090","288-VK","2017/08/03 19:49:16","新北市板橋區龍泉街54巷8弄12號","121.457388333333","25.0269066666667","6500100","板橋區"
"220061","293-UM","2017/08/03 19:49:22","新北市板橋區板新路200巷22號","121.468655","25.016565","6500100","板橋區"
"220013","295-UM","2017/08/03 19:49:12","新北市板橋區國泰街39巷5弄1號","121.468586666667","25.0060516666667","6500100","板橋區"
"220084","296-UM","2017/08/03 19:49:10","新北市板橋區滿平二街2巷1弄12號","121.425066666667","24.986565","6500100","板橋區"
"220075","297-UM","2017/08/03 19:49:22","新北市板橋區中正路253巷76號","121.452563333333","25.0171233333333","6500100","板橋區"
"220098","299-UM","2017/08/03 19:49:19","新北市板橋區新海路388巷12-3號","121.45962","25.0264883333333","6500100","板橋區"
"220062","303-R5","2017/08/03 19:49:17","新北市板橋區中山路二段416巷38弄27-1號","121.48189","25.0194","6500100","板橋區"
"220092","307-R5","2017/08/03 19:49:23","新北市板橋區陽明街164巷15號","121.463996666667","25.0245033333333","6500100","板橋區"
"220064","486-VK","2017/08/03 19:49:20","新北市板橋區實踐路132號","121.46448","25.00265","6500100","板橋區"
"220089","487-VK","2017/08/03 19:49:25","新北市板橋區龍泉街82巷11-4號","121.455858333333","25.025485","6500100","板橋區"
"220088","491-VK","2017/08/03 19:49:27","新北市板橋區仁化街189號","121.478501666667","25.0340616666667","6500100","板橋區"
"220035","560-BX","2017/08/03 19:49:12","新北市板橋區金華街86號","121.45798","25.0207","6500100","板橋區"
"220103","561-BX","2017/08/03 19:49:15","新北市板橋區陽明街23巷6弄15號","121.465351666667","25.0211633333333","6500100","板橋區"
"220071","568-UM","2017/08/03 19:49:04","新北市板橋區四川路一段387號","121.457976666667","24.9991566666667","6500100","板橋區"
"220063","609-BX","2017/08/03 19:49:21","新北市板橋區三民路一段22號","121.478976666667","25.023175","6500100","板橋區"
"220091","637-BX","2017/08/03 19:49:14","新北市板橋區懷德街127巷23弄33號","121.480393333333","25.0321283333333","6500100","板橋區"
"220057","686-BX","2017/08/03 19:49:13","新北市板橋區和平路101巷27號","121.461973333333","24.995485","6500100","板橋區"
"220077","687-BX","2017/08/03 19:49:21","新北市板橋區僑中一街130號","121.445638333333","25.0117883333333","6500100","板橋區"
"220093","689-BX","2017/08/03 19:49:15","新北市板橋區長江路二段221號","121.468136666667","25.0325383333333","6500100","板橋區"
"220054","741-BX","2017/08/03 19:49:19","新北市板橋區忠孝路237號","121.466126666667","25.0030816666667","6500100","板橋區"
"220055","827-TW","2017/08/03 19:49:17","新北市板橋區國慶路149巷29弄5-1號","121.4607","24.99766","6500100","板橋區"
"220067","829-TW","2017/08/03 19:49:13","新北市板橋區漢生東路193巷56號","121.47288","25.0118566666667","6500100","板橋區"
"220074","895-R6","2017/08/03 19:49:23","新北市板橋區府中路111號","121.456418333333","25.0095366666667","6500100","板橋區"
"220073","985-R7","2017/08/03 19:49:05","新北市板橋區中正路170號","121.456555","25.01722","6500100","板橋區"
"220097","AAC-210","2017/08/03 19:49:16","新北市板橋區文化路一段299-1號","121.4647","25.0191983333333","6500100","板橋區"
"220070","AAC-253","2017/08/03 19:49:17","新北市板橋區四川路一段10巷1號","121.459465","25.0066366666667","6500100","板橋區"
