"lineid","car","time","location","longitude","latitude","cityid","cityname"
"234046","148-BY","2017/08/03 19:59:07","新北市永和區永利路212號","121.523253333333","25.0025716666667","6500400","永和區"
"234013","149-BY","2017/08/03 19:59:17","新北市永和區仁愛路243巷2號","121.508961666667","25.0116166666667","6500400","永和區"
"234007","207-UY","2017/08/03 19:59:16","新北市永和區保生路22巷21號","121.507265","25.0082283333333","6500400","永和區"
"234081","298-R6","2017/08/03 19:59:01","新北市永和區永亨路108號","121.52358","25.00452","6500400","永和區"
"234038","336-UY","2017/08/03 19:59:16","新北市永和區成功路二段2號","121.526786666667","25.0012783333333","6500400","永和區"
"234064","337-UY","2017/08/03 19:59:09","新北市永和區中正路368巷1弄47號","121.519171666667","25.0012","6500400","永和區"
"234086","338-UY","2017/08/03 19:59:21","新北市永和區福和路5-2號","121.524755","25.0086816666667","6500400","永和區"
"234070","552-UM","2017/08/03 19:59:10","新北市永和區福和路175號","121.51992","25.0074483333333","6500400","永和區"
"234054","553-UM","2017/08/03 19:59:06","新北市永和區環河東路一段122號","121.520646666667","25.0154633333333","6500400","永和區"
"234017","745-BX","2017/08/03 19:59:24","新北市永和區信義路126-1號","121.512403333333","25.0150966666667","6500400","永和區"
"234030","746-BX","2017/08/03 19:59:15","新北市永和區民權路49巷5弄18號","121.52131","24.9977566666667","6500400","永和區"
"234061","AAD-866","2017/08/03 19:59:18","新北市永和區中正路142號","121.51477","24.99618","6500400","永和區"
"234042","862-TW","2017/08/03 19:59:06","新北市永和區中和路421巷16弄1號","121.508678333333","25.0011466666667","6500400","永和區"
"234050","863-TW","2017/08/03 19:59:07","新北市永和區保安路232號","121.507005","25.01325","6500400","永和區"
"234026","9371-KE","2017/08/03 17:56:20","新北市永和區福和路1號","121.525833333333","25.0090133333333","6500400","永和區"
"234026","9381-KE","2017/08/03 19:59:14","新北市永和區水源街33巷1號","121.510771666667","25.0044366666667","6500400","永和區"
"234011","9373-KE","2017/08/03 19:59:09","新北市永和區仁愛路352巷92弄16號","121.501378333333","25.00823","6500400","永和區"
"249005","172-UM","2017/08/03 19:59:18","新北市八里區楓林路1-12號","121.385593333333","25.1310466666667","6502300","八里區"
"249001","173-UM","2017/08/03 19:59:25","新北市八里區中華路二段312號","121.40373","25.14838","6502300","八里區"
"249004","303-UY","2017/08/03 19:59:09","新北市八里區中華路一段333-1號","121.413055","25.1541066666667","6502300","八里區"
"249002","305-UY","2017/08/03 19:59:13","新北市八里區頂寮一街1號","121.452196666667","25.12406","6502300","八里區"
"249003","593-UM","2017/08/03 19:59:16","新北市八里區中華路二段560巷3號","121.398636666667","25.1450816666667","6502300","八里區"
"248014","025-BX","2017/08/03 19:59:24","新北市五股區五福路14巷4號","121.434661666667","25.0887233333333","6501500","五股區"
"248016","026-BX","2017/08/03 19:59:15","新北市五股區成泰路三段577巷80弄7號","121.449526666667","25.1043116666667","6501500","五股區"
"248008","095-VK","2017/08/03 19:59:17","新北市五股區中興路一段1巷13號","121.469645","25.07149","6501500","五股區"
"248020","225-UY","2017/08/03 19:59:21","新北市五股區凌雲路三段21-1號","121.43064","25.1096633333333","6501500","五股區"
"248012","247-BX","2017/08/03 19:59:09","新北市五股區民義路一段100號","121.435526666667","25.085155","6501500","五股區"
"248010","272-BY","2017/08/03 19:59:24","新北市五股區登林路33號","121.431476666667","25.0689966666667","6501500","五股區"
"248004","677-BX","2017/08/03 19:59:22","新北市五股區成泰路一段32巷48號","121.434688333333","25.0671416666667","6501500","五股區"
"248002","678-BX","2017/08/03 19:59:19","新北市五股區成泰路三段436號","121.450868333333","25.0995","6501500","五股區"
"234023","9380-KE","2017/08/03 19:59:20","新北市永和區中正路702巷18號","121.516453333333","25.0104933333333","6500400","永和區"
"234077","969-R7","2017/08/03 19:59:27","新北市永和區民有街23巷1號","121.516831666667","24.9963766666667","6500400","永和區"
"234074","AAC-211","2017/08/03 19:59:16","新北市永和區豫溪街189巷1號","121.522621666667","25.0102216666667","6500400","永和區"
"234067","AAC-212","2017/08/03 19:59:09","新北市永和區中山路一段275號","121.507175","25.00704","6500400","永和區"
"234003","AAC-295","2017/08/03 19:59:06","新北市永和區永和路二段5號","121.514423333333","25.00998","6500400","永和區"
"244019","742-UY","2017/08/03 19:58:20","新北市林口區嘉寶里11鄰67號","121.338975","25.1105483333333","6501700","林口區"
"243013","AAD-798","2017/08/03 19:59:12","新北市泰山區應化街7號","121.423863333333","25.0437183333333","6501600","泰山區"
"243009","297-R6","2017/08/03 19:59:22","新北市泰山區楓江路16巷15號","121.433975","25.0616633333333","6501600","泰山區"
"243015","380-SR","2017/08/03 19:59:27","新北市泰山區明志路二段194號","121.427445","25.0496566666667","6501600","泰山區"
"243014","421-VK","2017/08/03 19:59:25","新北市泰山區泰林路二段171號","121.433661666667","25.06065","6501600","泰山區"
"243010","548-UM","2017/08/03 19:59:19","新北市泰山區中華街10巷1號","121.427855","25.0524916666667","6501600","泰山區"
"243011","549-UM","2017/08/03 19:59:11","新北市泰山區明志路三段201號","121.424101666667","25.0385233333333","6501600","泰山區"
"243012","646-TV","2017/08/03 19:59:21","新北市泰山區全興路184號","121.433345","25.05741","6501600","泰山區"
"243016","680-BX","2017/08/03 19:59:22","新北市泰山區新北大道六段310號","121.425138333333","25.035175","6501600","泰山區"
"222003","436-BY","2017/08/03 19:59:25","新北市深坑區埔新街10號","121.62071","25.004","6501800","深坑區"
"222002","659-BX","2017/08/03 19:59:08","新北市深坑區北深路二段81巷8弄3號","121.618271666667","25.003035","6501800","深坑區"
"222001","696-SL","2017/08/03 19:59:08","新北市深坑區北深路三段166號","121.602298333333","25.00348","6501800","深坑區"
"231041","001-UM","2017/08/03 19:59:09","新北市新店區中正路352號","121.535935","24.975495","6500600","新店區"
"231056","0291-UT","2017/08/03 19:59:23","新北市新店區民權路155號","121.53422","24.9827166666667","6500600","新店區"
"231059","046-UY","2017/08/03 19:59:06","新北市新店區安康路二段147號","121.51122","24.9599216666667","6500600","新店區"
"231060","106-UY","2017/08/03 19:59:22","新北市新店區安康路二段406號","121.496846666667","24.95533","6500600","新店區"
"231051","107-UY","2017/08/03 19:59:08","新北市新店區中央二街16號","121.528791666667","24.9732566666667","6500600","新店區"
"231047","108-UY","2017/08/03 19:59:13","新北市新店區中興路二段196號","121.548336666667","24.973885","6500600","新店區"
"231052","187-VK","2017/08/03 19:59:22","新北市新店區新烏路三段251號","121.546321666667","24.8952766666667","6500600","新店區"
"231007","189-VK","2017/08/03 12:02:41","新北市新店區安華路28-1號","121.51978","24.9609216666667","6500600","新店區"
"231057","256-BX","2017/08/03 19:59:10","新北市新店區花園二路一段11號","121.555551666667","24.932435","6500600","新店區"
"231068","260-TV","2017/08/03 15:38:46","新北市新店區安華路28-1號","121.519656666667","24.96053","6500600","新店區"
"231063","268-BY","2017/08/03 19:59:25","新北市新店區黎明路9號","121.502725","24.9507916666667","6500600","新店區"
"231046","278-BY","2017/08/03 19:59:11","新北市新店區環河路113-1號","121.531185","24.9710483333333","6500600","新店區"
"231050","AAD-862","2017/08/03 19:59:22","新北市新店區北宜路二段360-1號","121.564726666667","24.9523333333333","6500600","新店區"
"231055","3713-VJ","2017/08/03 19:59:12","新北市新店區力行路64號","121.538756666667","24.9659266666667","6500600","新店區"
"231067","4772-VM","2017/08/03 19:59:22","新北市新店區秀山路11巷14號","121.531831666667","24.9593266666667","6500600","新店區"
"231065","512-UM","2017/08/03 19:59:11","新北市新店區安祥路109巷1弄6號","121.475455","24.9588833333333","6500600","新店區"
"231054","513-UM","2017/08/03 19:59:09","新北市新店區光明街135號","121.539495","24.9619516666667","6500600","新店區"
"231064","515-UM","2017/08/03 19:59:10","新北市新店區碧安街15巷2號","121.517331666667","24.9690233333333","6500600","新店區"
"231061","618-UM","2017/08/03 19:59:22","新北市新店區安民街351號","121.516878333333","24.9755016666667","6500600","新店區"
"231040","619-UM","2017/08/03 19:59:12","新北市新店區中正路74號","121.543938333333","24.9702966666667","6500600","新店區"
"231042","641-BX","2017/08/03 19:59:09","新北市新店區中興路一段292號","121.545963333333","24.9692366666667","6500600","新店區"
"231068","718-UY","2017/08/03 19:59:11","新北市新店區安華路28-1號","121.519205","24.9607583333333","6500600","新店區"
"231049","719-UM","2017/08/03 19:59:23","新北市新店區民族路9號","121.541685","24.97874","6500600","新店區"
"231062","719-UY","2017/08/03 19:59:13","新北市新店區華城路36巷1-3號","121.527421666667","24.9554283333333","6500600","新店區"
"231044","897-TW","2017/08/03 19:59:18","新北市新店區復興路38號","121.538853333333","24.9867","6500600","新店區"
"231045","898-TW","2017/08/03 19:59:18","新北市新店區北宜路二段146號","121.557478333333","24.95389","6500600","新店區"
"231043","899-TW","2017/08/03 19:59:18","新北市新店區中正路263-3號","121.538428333333","24.9738416666667","6500600","新店區"
"241011","013-R5","2017/08/03 19:59:18","新北市三重區三和路二段139號","121.498395","25.0693116666667","6500200","三重區"
"241028","022-UY","2017/08/03 19:59:15","新北市三重區重新路三段80號","121.49308","25.0611433333333","6500200","三重區"
"241008","059-VK","2017/08/03 19:59:19","新北市三重區永福街179巷8號","121.47878","25.074915","6500200","三重區"
"241031","061-VK","2017/08/03 19:59:11","新北市三重區重新路四段184巷16號","121.48711","25.0549116666667","6500200","三重區"
"241015","062-VK","2017/08/03 19:59:13","新北市三重區三和路二段27號","121.501103333333","25.06699","6500200","三重區"
"241017","063-VK","2017/08/03 19:59:11","新北市三重區自強路一段215號","121.491335","25.0684733333333","6500200","三重區"
"241024","065-VK","2017/08/03 19:59:18","新北市三重區力行路一段178巷17號","121.481345","25.0713766666667","6500200","三重區"
"241026","066-VK","2017/08/03 19:59:16","新北市三重區中央南路9號","121.501218333333","25.0628483333333","6500200","三重區"
"241003","091-VK","2017/08/03 19:59:10","新北市三重區仁愛街445巷36號","121.49144","25.0833333333333","6500200","三重區"
"241032","156-TC","2017/08/03 19:59:06","新北市三重區捷運路37巷32號","121.483928333333","25.0575483333333","6500200","三重區"
"241009","265-UM","2017/08/03 19:59:23","新北市三重區三和路四段390巷43號","121.480125","25.0785616666667","6500200","三重區"
"241016","266-UM","2017/08/03 19:59:16","新北市三重區正義北路36巷16號","121.496521666667","25.0633516666667","6500200","三重區"
"241018","268-UM","2017/08/03 19:59:17","新北市三重區雙園街64號","121.495798333333","25.0676283333333","6500200","三重區"
"241013","270-UM","2017/08/03 19:59:26","新北市三重區三和路三段125巷20號","121.49347","25.0736533333333","6500200","三重區"
"241025","271-UM","2017/08/03 19:59:09","新北市三重區頂崁街210巷16號","121.476483333333","25.0677","6500200","三重區"
"241007","398-BY","2017/08/03 19:59:22","新北市三重區溪尾街160號","121.488715","25.08014","6500200","三重區"
"241022","412-TH","2017/08/03 19:59:06","新北市三重區新北大道一段9號","121.488908333333","25.0607","6500200","三重區"
"241035","462-BY","2017/08/03 19:59:11","新北市三重區大榮街9號","121.498266666667","25.06312","6500200","三重區"
"241004","475-VK","2017/08/03 19:59:15","新北市三重區五華街74號","121.493423333333","25.0820266666667","6500200","三重區"
"241019","478-VK","2017/08/03 19:59:08","新北市三重區自強路二段9號","121.490168333333","25.06904","6500200","三重區"
"241030","480-VK","2017/08/03 19:59:19","新北市三重區成功路171號","121.48622","25.05248","6500200","三重區"
"241014","543-UM","2017/08/03 19:58:50","新北市三重區三和路二段89號","121.499608333333","25.0683616666667","6500200","三重區"
"241023","545-UM","2017/08/03 19:59:22","新北市三重區大有街1-9號","121.477596666667","25.0660083333333","6500200","三重區"
"241001","547-UM","2017/08/03 19:59:18","新北市三重區仁愛街283巷24號","121.493851666667","25.079705","6500200","三重區"
"241006","AAD-863","2017/08/03 19:59:12","新北市三重區力行路二段76巷19號","121.480908333333","25.07358","6500200","三重區"
"241020","887-TS","2017/08/03 19:59:22","新北市三重區忠孝路一段101號","121.48954","25.072205","6500200","三重區"
"241012","941-UM","2017/08/03 19:59:12","新北市三重區河邊北街276號","121.501493333333","25.076725","6500200","三重區"
"241029","942-UM","2017/08/03 19:59:19","新北市三重區重新路三段204號","121.49001","25.0584666666667","6500200","三重區"
"241033","AAC-255","2017/08/03 19:59:23","新北市三重區中興北街43號","121.469578333333","25.0470416666667","6500200","三重區"
"235066","003-UY","2017/08/03 19:59:09","新北市中和區光華街3號","121.504298333333","25.0043833333333","6500300","中和區"
"235056","096-UM","2017/08/03 19:59:10","新北市中和區漢民路405號","121.472275","25.0070733333333","6500300","中和區"
"235039","097-UM","2017/08/03 19:59:11","新北市中和區大勇街27巷25號","121.516391666667","24.99377","6500300","中和區"
"235065","098-UM","2017/08/03 19:59:10","新北市中和區福祥路98號","121.499158333333","25.0059833333333","6500300","中和區"
"235040","150-BY","2017/08/03 19:59:20","新北市中和區保健路21-1號","121.508221666667","24.998225","6500300","中和區"
"235058","151-BY","2017/08/03 19:59:10","新北市中和區員山路150巷2弄39號","121.481748333333","24.99744","6500300","中和區"
"235055","183-VK","2017/08/03 19:59:12","新北市中和區德光路15巷17號","121.471375","25.0035833333333","6500300","中和區"
"235038","185-VK","2017/08/03 19:59:08","新北市中和區大智街55巷30弄20號","121.521185","24.9932","6500300","中和區"
"235049","186-VK","2017/08/03 19:59:13","新北市中和區景平路385巷58號","121.501113333333","24.9943466666667","6500300","中和區"
"235067","255-BX","2017/08/03 19:59:06","新北市中和區新生街233巷16號","121.484331666667","24.9990733333333","6500300","中和區"
"235044","293-VK","2017/08/03 19:59:10","新北市中和區南山路311號","121.504841666667","24.991505","6500300","中和區"
"235043","352-BY","2017/08/03 19:59:06","新北市中和區興南路二段159巷7號","121.505238333333","24.9831566666667","6500300","中和區"
"235051","376-QA","2017/08/03 19:59:10","新北市中和區中興街233巷8弄8號","121.50121","24.9893483333333","6500300","中和區"
"235068","377-QA","2017/08/03 19:59:20","新北市中和區福美路301巷21號","121.49759","25.00406","6500300","中和區"
"235061","378-QA","2017/08/03 19:59:20","新北市中和區新生街166巷23號","121.482633333333","25.0001116666667","6500300","中和區"
"235050","4979-A6","2017/08/03 19:59:06","新北市中和區景平路241巷76號","121.50744","24.9921466666667","6500300","中和區"
"235069","4980-A6","2017/08/03 19:59:04","新北市中和區景新街34巷2弄7號","121.502825","24.99908","6500300","中和區"
"235070","558-UM","2017/08/03 19:59:16","新北市中和區景平路487號","121.500125","24.9976116666667","6500300","中和區"
"235054","640-BX","2017/08/03 19:59:12","新北市中和區莒光路4號","121.471898333333","25.00473","6500300","中和區"
"235060","647-TV","2017/08/03 19:59:27","新北市中和區新生街45號","121.483451666667","25.0030066666667","6500300","中和區"
"235047","732-UM","2017/08/03 19:59:08","新北市中和區和平街29-1號","121.507466666667","24.9911133333333","6500300","中和區"
"235046","733-UM","2017/08/03 19:59:08","新北市中和區興南路一段93巷10弄1號","121.510063333333","24.9875883333333","6500300","中和區"
"235057","801-TS","2017/08/03 19:59:09","新北市中和區員山路146-4號","121.481293333333","24.996995","6500300","中和區"
"235041","802-TS","2017/08/03 19:59:26","新北市中和區永貞路256號","121.513986666667","25.0037","6500300","中和區"
"235052","805-TS","2017/08/03 19:59:14","新北市中和區華新街28-6號","121.507471666667","24.9844833333333","6500300","中和區"
"235048","896-TW","2017/08/03 19:59:16","新北市中和區興南路一段20號","121.511338333333","24.9912133333333","6500300","中和區"
"235053","900-TW","2017/08/03 19:59:20","新北市中和區國光街215巷47號","121.467238333333","25.0004616666667","6500300","中和區"
"235037","AAC-213","2017/08/03 19:59:13","新北市中和區秀朗路三段130號","121.524613333333","24.99208","6500300","中和區"
"235059","AAC-215","2017/08/03 19:59:26","新北市中和區圓通路367巷2號","121.491291666667","24.9894616666667","6500300","中和區"
"220068","013-TV","2017/08/03 19:59:24","新北市板橋區中山路二段318巷4號","121.480108333333","25.0191716666667","6500100","板橋區"
"220106","075-UY","2017/08/03 19:59:15","新北市板橋區民治街96巷2號","121.47892","25.03177","6500100","板橋區"
"220069","AAD-861","2017/08/03 19:59:12","新北市板橋區貴興路106巷16弄2號","121.454778333333","25.0034466666667","6500100","板橋區"
"220096","120-SR","2017/08/03 19:59:10","新北市板橋區文化路二段124巷34弄4號","121.47122","25.0253116666667","6500100","板橋區"
"247020","893-R6","2017/08/03 19:59:21","新北市蘆洲區民義街53號","121.47286","25.0898083333333","6501400","蘆洲區"
"247018","500-BY","2017/08/03 19:59:22","新北市蘆洲區民族路292號","121.477861666667","25.089675","6501400","蘆洲區"
"247006","341-TH","2017/08/03 19:59:20","新北市蘆洲區九芎街111號","121.46563","25.07968","6501400","蘆洲區"
"247008","339-TH","2017/08/03 19:59:23","新北市蘆洲區中山一路97巷30號","121.475808333333","25.0809333333333","6501400","蘆洲區"
"247024","337-TH","2017/08/03 19:59:24","新北市蘆洲區光榮路120巷8弄39號","121.46467","25.0878783333333","6501400","蘆洲區"
"247002","336-TH","2017/08/03 19:59:17","新北市蘆洲區永樂街31巷1號","121.458108333333","25.087415","6501400","蘆洲區"
"247014","057-VK","2017/08/03 19:59:23","新北市蘆洲區得勝街145號","121.471825","25.0830816666667","6501400","蘆洲區"
"247004","056-VK","2017/08/03 19:59:17","新北市蘆洲區中原路93號","121.45761","25.0815266666667","6501400","蘆洲區"
"247012","007-UY","2017/08/03 19:59:14","新北市蘆洲區民族路234號","121.4794","25.088365","6501400","蘆洲區"
"247022","002-UY","2017/08/03 19:59:17","新北市蘆洲區中正路285號","121.466878333333","25.088015","6501400","蘆洲區"
"247016","001-UY","2017/08/03 19:59:09","新北市蘆洲區光華路89號","121.467696666667","25.082445","6501400","蘆洲區"
"226004","312-R5","2017/08/03 19:59:21","新北市平溪區靜安路二段561號","121.748781666667","25.02451","6502400","平溪區"
"228003","097-TW","2017/08/03 19:59:25","新北市貢寮區仁理村仁和路222號","121.9239","25.0535266666667","6502600","貢寮區"
"224011","420-VK","2017/08/03 19:46:03","新北市瑞芳區崙頂路1-6號","121.847058333333","25.10475","6501200","瑞芳區"
"227004","642-TC","2017/08/03 19:59:09","新北市雙溪區雙溪里長安街16號","121.864988333333","25.0347033333333","6502500","雙溪區"
"227010","030-BX","2017/08/03 19:59:10","新北市雙溪區新基里新基南街18號","121.866345","25.0381066666667","6502500","雙溪區"
"208002","742-BX","2017/08/03 19:59:24","新北市金山區中正路134-1號","121.63192","25.220825","6502700","金山區"
"208003","665-BX","2017/08/03 19:59:11","新北市金山區海興路176號","121.632935","25.240075","6502700","金山區"
"208001","761-BX","2017/08/03 19:59:24","新北市金山區南勢85號","121.624875","25.21994","6502700","金山區"
"251004","009-UM","2017/08/03 19:59:15","新北市淡水區民權路177巷7號","121.460926666667","25.1356183333333","6501000","淡水區"
"251008","181-VK","2017/08/03 19:59:17","新北市淡水區淡海路61號","121.42294","25.1809266666667","6501000","淡水區"
"251014","182-VK","2017/08/03 19:59:21","新北市淡水區石頭厝12-3號","121.46163","25.236415","6501000","淡水區"
"251010","413-VK","2017/08/03 19:59:23","新北市淡水區崁頂里77號","121.430606666667","25.20314","6501000","淡水區"
"251012","441-VK","2017/08/03 19:59:08","新北市淡水區下圭柔山61-5號","121.447808333333","25.2048616666667","6501000","淡水區"
"251016","442-VK","2017/08/03 19:59:18","新北市淡水區淡金路五段14-8號","121.45344","25.2323516666667","6501000","淡水區"
"251005","443-VK","2017/08/03 19:59:20","新北市淡水區學府路104號","121.44984","25.1717666666667","6501000","淡水區"
"251001","559-UM","2017/08/03 19:59:27","新北市淡水區忠愛街12號","121.457523333333","25.17495","6501000","淡水區"
"251006","561-UM","2017/08/03 19:59:22","新北市淡水區水碓街75號","121.444918333333","25.1774616666667","6501000","淡水區"
"251009","575-R6","2017/08/03 19:59:18","新北市淡水區英專路21巷13號","121.445038333333","25.1697033333333","6501000","淡水區"
"251011","650-BX","2017/08/03 19:59:18","新北市淡水區崁頂55-3號","121.442298333333","25.1966516666667","6501000","淡水區"
"207003","550-UM","2017/08/03 19:59:18","新北市萬里區磺潭里公館崙5號","121.641891666667","25.2142266666667","6502800","萬里區"
"207004","225-TW","2017/08/03 19:59:09","新北市萬里區北基里忠二街35號","121.68566","25.1757366666667","6502800","萬里區"
"252002","178-VK","2017/08/03 19:59:10","新北市三芝區三民街39巷12號","121.505245","25.2578916666667","6502100","三芝區"
"252001","292-VK","2017/08/03 19:59:15","新北市三芝區公正街66號","121.499803333333","25.2574483333333","6502100","三芝區"
"237004","078-UY","2017/08/03 19:58:54","新北市三峽區嘉添127號","121.36937","24.9110666666667","6500900","三峽區"
"237007","153-BY","2017/08/03 19:59:14","新北市三峽區二鬮路136巷91號","121.35629","24.9097966666667","6500900","三峽區"
"237009","210-TH","2017/08/03 19:59:09","新北市三峽區民權街221號","121.367773333333","24.928205","6500900","三峽區"
"237012","275-BY","2017/08/03 19:59:25","新北市三峽區中華路3巷2號","121.374773333333","24.9322383333333","6500900","三峽區"
"237008","302-VK","2017/08/03 19:59:16","新北市三峽區中正路一段292巷12弄4號","121.37104","24.9261216666667","6500900","三峽區"
"237014","433-BY","2017/08/03 19:59:16","新北市三峽區添福133號","121.37539","24.901005","6500900","三峽區"
"237006","5529-G3","2017/08/03 19:59:20","新北市三峽區中正路二段168號","121.36602","24.9155833333333","6500900","三峽區"
"237016","649-BX","2017/08/03 19:59:10","新北市三峽區橫溪路99巷30號","121.400083333333","24.93666","6500900","三峽區"
"237005","AKY-6261","2017/08/03 19:59:22","新北市三峽區民生街1巷17號","121.380475","24.935675","6500900","三峽區"
"236071","105-UM","2017/08/03 19:59:21","新北市土城區忠義路45巷2號","121.44108","24.9694866666667","6501300","土城區"
"236042","107-UM","2017/08/03 19:59:18","新北市土城區學府路一段143巷10號","121.453941666667","24.9857933333333","6501300","土城區"
"236078","166-UM","2017/08/03 19:59:16","新北市土城區福安街72-3號","121.418238333333","24.96452","6501300","土城區"
"236030","253-BX","2017/08/03 19:59:25","新北市土城區中央路一段250巷1-1號","121.444063333333","24.9847066666667","6501300","土城區"
"236026","269-VK","2017/08/03 19:59:23","新北市土城區中央路二段89號","121.442293333333","24.97812","6501300","土城區"
"236037","271-VK","2017/08/03 19:59:07","新北市土城區國際路139巷52號","121.468426666667","24.9775383333333","6501300","土城區"
"236021","401-BY","2017/08/03 19:59:23","新北市土城區延吉街137巷11號","121.47094","24.9858083333333","6501300","土城區"
"236058","912-UM","2017/08/03 19:59:08","新北市土城區中央路一段146號","121.446178333333","24.98744","6501300","土城區"
"236051","913-UM","2017/08/03 19:59:22","新北市土城區金城路三段135號","121.468146666667","24.9880683333333","6501300","土城區"
"236062","915-UM","2017/08/03 19:59:20","新北市土城區延和路43號","121.46608","24.9894016666667","6501300","土城區"
"236053","AAC-216","2017/08/03 19:59:17","新北市土城區金城路三段197號","121.470156666667","24.9890783333333","6501300","土城區"
"242021","AAC-296","2017/08/03 19:59:18","新北市新莊區建中街16巷27號","121.44908","25.038705","6500500","新莊區"
"242029","986-R7","2017/08/03 19:59:08","新北市新莊區中平路359號","121.444636666667","25.0517633333333","6500500","新莊區"
"242048","751-BX","2017/08/03 19:59:19","新北市新莊區富國路111號","121.423411666667","25.02491","6500500","新莊區"
"242025","615-BX","2017/08/03 19:59:25","新北市新莊區五工二路86巷12號","121.459935","25.0666533333333","6500500","新莊區"
"242023","613-BX","2017/08/03 19:59:19","新北市新莊區化成路372號","121.465873333333","25.049735","6500500","新莊區"
"242027","612-BX","2017/08/03 19:59:20","新北市新莊區幸福路900號","121.443171666667","25.0493416666667","6500500","新莊區"
"242036","566-BX","2017/08/03 19:59:23","新北市新莊區建安街39號","121.428976666667","25.0255383333333","6500500","新莊區"
"242004","442-UM","2017/08/03 19:59:15","新北市新莊區化成路366號","121.465828333333","25.0496116666667","6500500","新莊區"
"242051","440-UM","2017/08/03 19:59:15","新北市新莊區西盛街141號","121.428235","25.0183816666667","6500500","新莊區"
"242031","415-TV","2017/08/03 19:59:22","新北市新莊區公園一路55號","121.443106666667","25.036075","6500500","新莊區"
"242002","413-TV","2017/08/03 19:59:08","新北市新莊區中正路175號","121.454126666667","25.0364466666667","6500500","新莊區"
"242039","400-BY","2017/08/03 19:59:14","新北市新莊區民安路287-5號","121.428808333333","25.0230833333333","6500500","新莊區"
"242061","362-BY","2017/08/03 19:59:23","新北市新莊區瓊泰路1號","121.445058333333","25.0285616666667","6500500","新莊區"
"242058","353-BY","2017/08/03 19:59:08","新北市新莊區八德街107號","121.42418","25.0210933333333","6500500","新莊區"
"242042","132-UY","2017/08/03 19:59:21","新北市新莊區青山路一段28巷1號","121.410771666667","25.027875","6500500","新莊區"
"242034","133-UY","2017/08/03 19:59:21","新北市新莊區建中街98號","121.446595","25.0366116666667","6500500","新莊區"
"242019","135-UY","2017/08/03 19:59:10","新北市新莊區民生街26號","121.45612","25.04222","6500500","新莊區"
"242044","172-VK","2017/08/03 19:59:18","新北市新莊區中正路746巷43號","121.41174","25.0253766666667","6500500","新莊區"
"242007","173-VK","2017/08/03 19:59:14","新北市新莊區思源路593巷5弄12號","121.458528333333","25.0594783333333","6500500","新莊區"
"242013","175-VK","2017/08/03 19:59:25","新北市新莊區幸福路670巷2弄1號","121.451006666667","25.049585","6500500","新莊區"
"242056","176-VK","2017/08/03 19:59:25","新北市新莊區中正路347巷17弄4號","121.447341666667","25.0343383333333","6500500","新莊區"
"242011","346-TH","2017/08/03 19:59:20","新北市新莊區中港路531巷23號","121.450515","25.0514333333333","6500500","新莊區"
"242017","348-TH","2017/08/03 19:59:17","新北市新莊區中港路320號","121.452561666667","25.0458266666667","6500500","新莊區"
"242015","350-TH","2017/08/03 19:59:15","新北市新莊區復興路一段47巷9號","121.446766666667","25.0426266666667","6500500","新莊區"
"242009","351-TH","2017/08/03 19:59:11","新北市新莊區昌盛街12號","121.453536666667","25.0499233333333","6500500","新莊區"
"238015","755-BX","2017/08/03 19:59:22","新北市樹林區中山路三段176號","121.388303333333","24.9696416666667","6500700","樹林區"
"238023","601-UM","2017/08/03 19:59:15","新北市樹林區中正路251號","121.422165","25.0043933333333","6500700","樹林區"
"238021","311-TH","2017/08/03 19:59:16","新北市樹林區佳園路三段113巷3號","121.38704","24.9505716666667","6500700","樹林區"
"238012","303-VK","2017/08/03 19:59:14","新北市樹林區中山路三段202-1號","121.38584","24.9684316666667","6500700","樹林區"
"238020","268-VK","2017/08/03 19:59:13","新北市板橋區金門街337巷14弄18號","121.431705","24.9825683333333","6500700","樹林區"
"239006","891-R6","2017/08/03 19:59:06","新北市鶯歌區文化路62-1號","121.356133333333","24.9545233333333","6500800","鶯歌區"
"221008","489-VK","2017/08/03 19:59:17","台北市內湖區康樂街118號","121.619183333333","25.0712566666667","6501100","汐止區"
"221036","130-UY","2017/08/03 19:59:24","新北市汐止區新台五路二段85巷18號","121.664248333333","25.0674266666667","6501100","汐止區"
"221015","131-UY","2017/08/03 19:59:20","新北市汐止區大同路三段21號","121.666423333333","25.076105","6501100","汐止區"
"221010","269-BY","2017/08/03 19:59:19","新北市汐止區連峰街270號","121.644371666667","25.0815966666667","6501100","汐止區"
"221012","278-VK","2017/08/03 01:37:11","新北市汐止區汐萬路一段256巷1號","121.651845","25.0748183333333","6501100","汐止區"
"221023","279-VK","2017/08/03 02:10:52","新北市汐止區汐萬路一段256巷1號","121.651793333333","25.0749133333333","6501100","汐止區"
"221032","280-BY","2017/08/03 19:59:10","新北市汐止區橫科路18巷33弄2號","121.617233333333","25.04958","6501100","汐止區"
"221027","281-BY","2017/08/03 19:59:17","新北市汐止區中正路44號","121.662056666667","25.0702683333333","6501100","汐止區"
"221038","297-VK","2017/08/03 19:59:15","新北市汐止區忠孝東路457號","121.666033333333","25.0724983333333","6501100","汐止區"
"221029","298-VK","2017/08/03 19:59:14","新北市汐止區樟樹一路137巷26號","121.641031666667","25.0659966666667","6501100","汐止區"
"221021","299-VK","2017/08/03 18:30:20","新北市汐止區南興路8號","121.65173","25.0628916666667","6501100","汐止區"
"221031","353-TW","2017/08/03 19:59:27","新北市汐止區福德一路176巷5號","121.63519","25.0666666666667","6501100","汐止區"
"221035","622-UM","2017/08/03 19:59:18","新北市汐止區長江街39巷21號","121.655278333333","25.0720383333333","6501100","汐止區"
"221025","623-UM","2017/08/03 19:59:20","新北市汐止區秀峰路107號","121.660263333333","25.0634233333333","6501100","汐止區"
"221033","647-BX","2017/08/03 19:59:13","新北市汐止區東勢街190巷3號","121.633853333333","25.0415983333333","6501100","汐止區"
"221002","753-BX","2017/08/03 19:59:27","新北市汐止區茄苳路223號","121.670908333333","25.0687366666667","6501100","汐止區"
"220079","145-BY","2017/08/03 19:58:53","新北市板橋區中正路183巷13號","121.455766666667","25.0162066666667","6500100","板橋區"
"220080","200-UY","2017/08/03 19:59:22","新北市板橋區大觀路二段57號","121.446681666667","25.0027716666667","6500100","板橋區"
"220082","610-BX","2017/08/03 19:59:08","新北市板橋區溪北路101號","121.429046666667","24.9893033333333","6500100","板橋區"
"220102","257-TC","2017/08/03 19:59:12","新北市板橋區仁化街53號","121.475131666667","25.03178","6500100","板橋區"
"220094","267-BY","2017/08/03 19:59:14","新北市板橋區雨農路13號","121.462193333333","25.02472","6500100","板橋區"
"220072","277-BY","2017/08/03 19:59:13","新北市板橋區金門街127巷15號","121.433633333333","24.991165","6500100","板橋區"
"220101","285-UM","2017/08/03 19:59:15","新北市板橋區莊敬路234號","121.473323333333","25.02142","6500100","板橋區"
"220053","285-VK","2017/08/03 19:59:04","新北市板橋區永豐街143號","121.47501","25.0199883333333","6500100","板橋區"
"220083","286-VK","2017/08/03 19:59:12","新北市板橋區僑中二街8巷23號","121.44603","25.0112566666667","6500100","板橋區"
"220081","287-VK","2017/08/03 19:59:16","新北市板橋區大觀路一段28巷88號","121.449941666667","25.011055","6500100","板橋區"
"220090","288-VK","2017/08/03 19:59:16","新北市板橋區英士路153號","121.459756666667","25.0234516666667","6500100","板橋區"
"220061","293-UM","2017/08/03 19:59:20","新北市板橋區觀光街3巷10號","121.471516666667","25.0156783333333","6500100","板橋區"
"220013","295-UM","2017/08/03 19:59:12","新北市板橋區民族路69巷18弄20號","121.46633","25.0099266666667","6500100","板橋區"
"220084","296-UM","2017/08/03 19:59:24","新北市板橋區滿平街45號","121.427106666667","24.9895916666667","6500100","板橋區"
"220075","297-UM","2017/08/03 19:59:22","新北市板橋區大勇街2號","121.455701666667","25.0177616666667","6500100","板橋區"
"220098","299-UM","2017/08/03 19:59:19","新北市板橋區新海路72巷64號","121.461751666667","25.02358","6500100","板橋區"
"220062","303-R5","2017/08/03 19:59:17","新北市板橋區萬安街140-3號","121.483956666667","25.0261966666667","6500100","板橋區"
"220092","307-R5","2017/08/03 19:59:23","新北市板橋區四維路259巷69號","121.460675","25.0267033333333","6500100","板橋區"
"220064","486-VK","2017/08/03 19:59:20","新北市板橋區海山路53號","121.466836666667","25.0103283333333","6500100","板橋區"
"220089","487-VK","2017/08/03 19:59:25","新北市板橋區龍泉街55巷22號","121.45761","25.02527","6500100","板橋區"
"220088","491-VK","2017/08/03 19:59:07","新北市板橋區大同街52號","121.478905","25.0276366666667","6500100","板橋區"
"220035","560-BX","2017/08/03 19:59:23","新北市板橋區新生街21號","121.456096666667","25.0212733333333","6500100","板橋區"
"220103","561-BX","2017/08/03 19:59:14","新北市板橋區陽明街29巷1弄17號","121.464246666667","25.02184","6500100","板橋區"
"220071","568-UM","2017/08/03 19:59:24","新北市板橋區廣權路89號","121.464256666667","24.9924516666667","6500100","板橋區"
"220063","609-BX","2017/08/03 19:59:21","新北市板橋區中山路二段111號","121.474513333333","25.0160966666667","6500100","板橋區"
"220091","637-BX","2017/08/03 19:59:14","新北市板橋區文聖街101巷13號","121.47819","25.0297066666667","6500100","板橋區"
"220057","686-BX","2017/08/03 19:59:13","新北市板橋區廣權路9號","121.460653333333","24.9913083333333","6500100","板橋區"
"220077","687-BX","2017/08/03 19:59:21","新北市板橋區僑中一街124巷70-5號","121.448518333333","25.0166583333333","6500100","板橋區"
"220093","689-BX","2017/08/03 19:59:21","新北市板橋區文化路二段503號","121.476046666667","25.0344733333333","6500100","板橋區"
"220054","741-BX","2017/08/03 19:59:25","新北市板橋區忠孝路忠義巷15弄24號","121.465765","25.004195","6500100","板橋區"
"220055","827-TW","2017/08/03 19:59:25","新北市板橋區國慶路149巷40號","121.460998333333","24.9980533333333","6500100","板橋區"
"220067","829-TW","2017/08/03 19:59:13","新北市板橋區中山路一段206巷101號","121.472443333333","25.0135266666667","6500100","板橋區"
"220074","895-R6","2017/08/03 19:59:18","新北市板橋區府中路111號","121.456553333333","25.0096216666667","6500100","板橋區"
"220073","985-R7","2017/08/03 19:59:25","新北市板橋區南雅西路二段275號","121.451888333333","25.0151183333333","6500100","板橋區"
"220097","AAC-210","2017/08/03 19:59:15","新北市板橋區光正街40號","121.461866666667","25.0173033333333","6500100","板橋區"
"220070","AAC-253","2017/08/03 19:59:17","新北市板橋區民族路286號","121.470213333333","25.0068266666667","6500100","板橋區"
