"lineid","car","time","location","longitude","latitude","cityid","cityname"
"234013","149-BY","2017/08/03 20:29:17","新北市永和區保生路54號","121.505588333333","25.0085983333333","6500400","永和區"
"234007","207-UY","2017/08/03 20:29:16","新北市永和區環河西路二段229巷5號","121.50144","25.0098533333333","6500400","永和區"
"234081","298-R6","2017/08/03 20:29:21","新北市永和區永貞路82號","121.520205","25.00505","6500400","永和區"
"234038","336-UY","2017/08/03 20:29:15","新北市永和區環河東路四段38號","121.52882","24.9989216666667","6500400","永和區"
"234064","337-UY","2017/08/03 20:29:09","新北市永和區中正路385號","121.517288333333","25.0039616666667","6500400","永和區"
"234086","338-UY","2017/08/03 20:29:21","新北市永和區光復街30號","121.51661","25.01739","6500400","永和區"
"234054","553-UM","2017/08/03 20:29:27","新北市永和區環河東路一段82號","121.519626666667","25.0164683333333","6500400","永和區"
"234030","746-BX","2017/08/03 20:29:15","新北市永和區成功路二段76號","121.52648","24.99918","6500400","永和區"
"234061","AAD-866","2017/08/03 20:29:18","新北市永和區安樂路96號","121.514298333333","24.999175","6500400","永和區"
"234042","862-TW","2017/08/03 20:29:06","新北市永和區安樂路242-20號","121.51481","25.00318","6500400","永和區"
"234050","863-TW","2017/08/03 20:29:07","新北市永和區新生路118巷3弄18號","121.506456666667","25.014525","6500400","永和區"
"234026","9371-KE","2017/08/03 17:56:20","新北市永和區福和路1號","121.525833333333","25.0090133333333","6500400","永和區"
"249005","172-UM","2017/08/03 20:28:58","新北市八里區中山路三段305號","121.379703333333","25.138365","6502300","八里區"
"249001","173-UM","2017/08/03 20:29:05","新北市八里區下罟子5-11號","121.38685","25.1422783333333","6502300","八里區"
"249004","303-UY","2017/08/03 20:29:09","新北市八里區中山路一段129巷19-1號","121.413956666667","25.15858","6502300","八里區"
"249002","305-UY","2017/08/03 20:28:53","新北市八里區龍米路二段125巷13號","121.445903333333","25.145545","6502300","八里區"
"249003","593-UM","2017/08/03 20:29:16","新北市八里區華峰一街43號","121.398738333333","25.146365","6502300","八里區"
"248002","678-BX","2017/08/03 20:29:19","新北市五股區成泰路三段43-7號","121.44256","25.0890533333333","6501500","五股區"
"234023","9380-KE","2017/08/03 20:29:20","新北市永和區博愛街32巷23號","121.518888333333","25.0151133333333","6500400","永和區"
"234074","AAC-211","2017/08/03 20:29:17","新北市永和區豫溪街189巷1號","121.522583333333","25.0102416666667","6500400","永和區"
"234067","AAC-212","2017/08/03 20:29:10","新北市永和區保平路236巷7弄16號","121.508205","25.0057083333333","6500400","永和區"
"234003","AAC-295","2017/08/03 20:29:26","新北市永和區大新街48號","121.515863333333","25.008325","6500400","永和區"
"244019","742-UY","2017/08/03 20:29:00","新北市八里區長道坑26號","121.398373333333","25.1024816666667","6501700","林口區"
"243013","AAD-798","2017/08/03 20:29:13","新北市泰山區貴子路9-1號","121.425473333333","25.04215","6501600","泰山區"
"243009","297-R6","2017/08/03 20:29:15","新北市泰山區忠孝街43號","121.42877","25.0654866666667","6501600","泰山區"
"243015","380-SR","2017/08/03 20:29:13","新北市泰山區仁德路10號","121.434608333333","25.0571166666667","6501600","泰山區"
"243014","421-VK","2017/08/03 20:29:18","新北市泰山區泰林路二段2-9號","121.419856666667","25.0650466666667","6501600","泰山區"
"243010","548-UM","2017/08/03 20:29:22","新北市泰山區明志路二段237巷32號","121.428138333333","25.0480216666667","6501600","泰山區"
"243011","549-UM","2017/08/03 20:29:11","新北市泰山區明志路二段304號","121.426473333333","25.0463","6501600","泰山區"
"243012","646-TV","2017/08/03 20:29:21","新北市泰山區泰林路二段337號","121.429241666667","25.0634483333333","6501600","泰山區"
"243016","680-BX","2017/08/03 20:29:22","新北市泰山區文程路19-1號","121.428196666667","25.0493633333333","6501600","泰山區"
"222003","436-BY","2017/08/03 20:29:25","新北市深坑區深坑街54號","121.614841666667","25.001685","6501800","深坑區"
"222002","659-BX","2017/08/03 20:28:48","新北市深坑區萬福路16巷35號","121.608826666667","25.0089433333333","6501800","深坑區"
"222001","696-SL","2017/08/03 20:29:08","新北市深坑區北深路三段329號","121.597211666667","25.0050433333333","6501800","深坑區"
"231041","001-UM","2017/08/03 20:29:09","新北市新店區中正路501-4號","121.533658333333","24.983775","6500600","新店區"
"231056","0291-UT","2017/08/03 20:29:22","新北市新店區中正路328巷42弄10號","121.538386666667","24.975995","6500600","新店區"
"231059","046-UY","2017/08/03 20:29:06","新北市新店區安康路二段309-1號","121.501565","24.957105","6500600","新店區"
"231060","106-UY","2017/08/03 20:29:22","新北市新店區錦秀路11巷96弄21號","121.47885","24.9417883333333","6500600","新店區"
"231051","107-UY","2017/08/03 20:29:08","新北市新店區中央七街95號","121.526363333333","24.9772583333333","6500600","新店區"
"231047","108-UY","2017/08/03 20:29:13","新北市新店區寶慶街58巷12號","121.54204","24.9872483333333","6500600","新店區"
"231052","187-VK","2017/08/03 20:29:22","新北市新店區松林路38號","121.546225","24.91025","6500600","新店區"
"231007","189-VK","2017/08/03 12:02:41","新北市新店區安華路28-1號","121.51978","24.9609216666667","6500600","新店區"
"231057","256-BX","2017/08/03 20:29:10","新北市新店區花園五路二段3號","121.553573333333","24.934215","6500600","新店區"
"231068","260-TV","2017/08/03 15:38:46","新北市新店區安華路28-1號","121.519656666667","24.96053","6500600","新店區"
"231063","268-BY","2017/08/03 20:29:25","新北市新店區安康路二段458號","121.494323333333","24.9541433333333","6500600","新店區"
"231050","AAD-862","2017/08/03 20:29:22","新北市新店區博愛街11巷1號","121.540851666667","24.9730416666667","6500600","新店區"
"231058","3712-VJ","2017/08/03 20:29:17","新北市新店區安德街60巷19號","121.51036","24.9631716666667","6500600","新店區"
"231067","4772-VM","2017/08/03 20:29:22","新北市新店區安康路一段355-3號","121.519846666667","24.96266","6500600","新店區"
"231065","512-UM","2017/08/03 20:29:11","新北市新店區安祥路102巷42弄43號","121.485493333333","24.9633833333333","6500600","新店區"
"231054","513-UM","2017/08/03 20:29:09","新北市新店區檳榔路109號","121.544565","24.9616233333333","6500600","新店區"
"231064","515-UM","2017/08/03 20:29:19","新北市新店區永安街74巷13號","121.519408333333","24.98603","6500600","新店區"
"231061","618-UM","2017/08/03 20:29:22","新北市新店區安民街133巷26號","121.515405","24.969525","6500600","新店區"
"231040","619-UM","2017/08/03 20:29:12","新北市新店區三民路145號","121.534171666667","24.9727633333333","6500600","新店區"
"231042","641-BX","2017/08/03 20:29:09","新北市新店區寶橋路221號","121.549348333333","24.9775533333333","6500600","新店區"
"231068","718-UY","2017/08/03 20:29:11","新北市新店區寶元路一段65號","121.542223333333","24.98581","6500600","新店區"
"231049","719-UM","2017/08/03 20:29:04","新北市新店區永業路81巷1弄1-1號","121.52946","24.9492666666667","6500600","新店區"
"231062","719-UY","2017/08/03 20:29:13","新北市新店區安泰路60巷53-2號","121.483963333333","24.94568","6500600","新店區"
"231044","897-TW","2017/08/03 20:29:18","新北市新店區建國路112號","121.539785","24.9781866666667","6500600","新店區"
"231045","898-TW","2017/08/03 20:29:17","新北市新店區新坡一街65號","121.549898333333","24.963625","6500600","新店區"
"231043","899-TW","2017/08/03 20:29:18","新北市新店區民族路28號","121.540643333333","24.9787733333333","6500600","新店區"
"231066","AKT-0513","2017/08/03 20:29:11","新北市新店區安興路105-1號","121.514648333333","24.9777","6500600","新店區"
"241011","013-R5","2017/08/03 20:29:18","新北市三重區龍門路27號","121.495575","25.0718933333333","6500200","三重區"
"241028","022-UY","2017/08/03 20:29:15","新北市三重區光興街91號","121.497361666667","25.0599266666667","6500200","三重區"
"241008","059-VK","2017/08/03 20:29:19","新北市三重區力行路二段49-1號","121.48212","25.0742716666667","6500200","三重區"
"241005","060-VK","2017/08/03 20:29:18","新北市三重區溪尾街325巷3弄2號","121.48835","25.0843283333333","6500200","三重區"
"241031","061-VK","2017/08/03 20:29:11","新北市三重區三寧街15號","121.489413333333","25.059805","6500200","三重區"
"241015","062-VK","2017/08/03 20:29:13","新北市三重區文化北路41號","121.498965","25.0652066666667","6500200","三重區"
"241017","063-VK","2017/08/03 20:29:11","新北市三重區大仁街20號","121.49159","25.0635316666667","6500200","三重區"
"241024","065-VK","2017/08/03 20:29:18","新北市三重區三民街283巷1號","121.479351666667","25.0684083333333","6500200","三重區"
"241026","066-VK","2017/08/03 20:29:16","新北市三重區福德南路20號","121.50278","25.0632516666667","6500200","三重區"
"241002","090-VK","2017/08/03 20:29:19","新北市三重區仁義街211巷13號","121.49747","25.0820416666667","6500200","三重區"
"241003","091-VK","2017/08/03 20:29:10","新北市三重區富華街86號","121.491031666667","25.0834466666667","6500200","三重區"
"241032","156-TC","2017/08/03 20:29:06","新北市三重區重陽路一段120巷46號","121.485081666667","25.0601","6500200","三重區"
"241009","265-UM","2017/08/03 20:29:23","新北市三重區永福街16號","121.482803333333","25.0782333333333","6500200","三重區"
"241016","266-UM","2017/08/03 20:29:16","新北市三重區正義北路188號","121.496295","25.066845","6500200","三重區"
"241018","268-UM","2017/08/03 20:29:21","新北市三重區正義北路216巷7號","121.495851666667","25.06748","6500200","三重區"
"241013","270-UM","2017/08/03 20:29:26","新北市三重區三和路三段167巷32號","121.49294","25.07453","6500200","三重區"
"241025","271-UM","2017/08/03 20:29:09","新北市三重區頂崁街210巷23弄1號","121.47588","25.0681583333333","6500200","三重區"
"241007","398-BY","2017/08/03 20:29:22","新北市三重區三和路四段101巷26號","121.489108333333","25.077135","6500200","三重區"
"241022","412-TH","2017/08/03 20:29:18","新北市三重區重陽路二段19巷6號","121.487483333333","25.062535","6500200","三重區"
"241035","462-BY","2017/08/03 20:29:11","新北市三重區正義北路22號","121.497596666667","25.063035","6500200","三重區"
"241004","475-VK","2017/08/03 20:29:15","新北市三重區溪尾街165巷31號","121.490058333333","25.0803483333333","6500200","三重區"
"241019","478-VK","2017/08/03 20:29:28","新北市三重區重陽路四段81號","121.492605","25.0709766666667","6500200","三重區"
"241030","480-VK","2017/08/03 20:29:18","新北市三重區成功路75號","121.488593333333","25.0511533333333","6500200","三重區"
"241014","543-UM","2017/08/03 20:29:10","新北市三重區長興街88號","121.501598333333","25.06913","6500200","三重區"
"241023","545-UM","2017/08/03 20:29:22","新北市三重區自由街19號","121.479811666667","25.06661","6500200","三重區"
"241001","547-UM","2017/08/03 20:29:18","新北市三重區福隆路2號","121.489493333333","25.0774166666667","6500200","三重區"
"241020","887-TS","2017/08/03 20:29:22","新北市三重區明德街43號","121.492291666667","25.0723033333333","6500200","三重區"
"241012","941-UM","2017/08/03 20:29:14","新北市三重區龍濱路186號","121.501273333333","25.0730583333333","6500200","三重區"
"241029","942-UM","2017/08/03 20:29:19","新北市三重區集美街225號","121.492015","25.0551816666667","6500200","三重區"
"241033","AAC-255","2017/08/03 20:29:23","新北市三重區五谷王北街80巷59號","121.47464","25.0529233333333","6500200","三重區"
"235039","097-UM","2017/08/03 20:29:11","新北市中和區大勇街27巷8號","121.517103333333","24.9938366666667","6500300","中和區"
"235065","098-UM","2017/08/03 20:29:10","新北市中和區景平路782-2號","121.496046666667","25.0054433333333","6500300","中和區"
"235050","4979-A6","2017/08/03 20:29:16","新北市中和區景平路470號","121.505558333333","24.993685","6500300","中和區"
"235069","4980-A6","2017/08/03 20:29:24","新北市中和區連城路347巷16弄1號","121.488461666667","24.9948566666667","6500300","中和區"
"235037","AAC-213","2017/08/03 20:29:13","新北市中和區秀朗路三段175巷23號","121.525901666667","24.9909683333333","6500300","中和區"
"235059","AAC-215","2017/08/03 20:29:07","新北市中和區員山路31-10號","121.48149","24.988525","6500300","中和區"
"247020","893-R6","2017/08/03 20:29:21","新北市蘆洲區民族路424-1號","121.47387","25.091835","6501400","蘆洲區"
"247010","546-UM","2017/08/03 20:29:17","新北市蘆洲區信義路222巷59號","121.48115","25.0853383333333","6501400","蘆洲區"
"247018","500-BY","2017/08/03 20:29:22","新北市蘆洲區民族路327巷3號","121.47445","25.0910816666667","6501400","蘆洲區"
"247006","341-TH","2017/08/03 20:29:19","新北市蘆洲區和平路121巷14弄38號","121.466071666667","25.0802116666667","6501400","蘆洲區"
"247008","339-TH","2017/08/03 20:29:23","新北市蘆洲區重陽二街21號","121.48247","25.084815","6501400","蘆洲區"
"247024","337-TH","2017/08/03 20:29:24","新北市蘆洲區長樂路2-17號","121.464768333333","25.0838516666667","6501400","蘆洲區"
"247002","336-TH","2017/08/03 20:29:22","新北市蘆洲區環堤大道128-1號","121.455661666667","25.0876833333333","6501400","蘆洲區"
"247014","057-VK","2017/08/03 20:29:23","新北市蘆洲區中山二路76號","121.473281666667","25.08214","6501400","蘆洲區"
"247004","056-VK","2017/08/03 20:29:17","新北市蘆洲區長安街299巷5號","121.457615","25.0846816666667","6501400","蘆洲區"
"247012","007-UY","2017/08/03 20:29:14","新北市蘆洲區復興路314號","121.481571666667","25.0901133333333","6501400","蘆洲區"
"247022","002-UY","2017/08/03 20:29:17","新北市蘆洲區中正路285號","121.466788333333","25.087975","6501400","蘆洲區"
"247016","001-UY","2017/08/03 20:29:09","新北市蘆洲區中山二路150號","121.471133333333","25.0812216666667","6501400","蘆洲區"
"224011","420-VK","2017/08/03 20:29:21","新北市瑞芳區明燈路二段66號","121.80929","25.1076216666667","6501200","瑞芳區"
"251008","181-VK","2017/08/03 20:29:17","新北市淡水區淡海路189巷9號","121.419861666667","25.1844066666667","6501000","淡水區"
"251014","182-VK","2017/08/03 20:29:21","新北市淡水區石頭厝8-7號","121.460451666667","25.237765","6501000","淡水區"
"251010","413-VK","2017/08/03 20:29:23","新北市淡水區沙崙路181巷15號","121.423986666667","25.1843716666667","6501000","淡水區"
"251012","441-VK","2017/08/03 20:29:08","新北市淡水區頂田寮路5號","121.453685","25.216695","6501000","淡水區"
"251016","442-VK","2017/08/03 20:29:18","新北市淡水區後洲子19號","121.450533333333","25.2237966666667","6501000","淡水區"
"251001","559-UM","2017/08/03 20:29:07","新北市淡水區中山北路二段14號","121.444405","25.1835316666667","6501000","淡水區"
"251006","561-UM","2017/08/03 20:29:22","新北市淡水區商工路329號","121.464158333333","25.1859133333333","6501000","淡水區"
"251009","575-R6","2017/08/03 20:29:18","新北市淡水區崁頂里77號","121.430668333333","25.2030333333333","6501000","淡水區"
"251011","650-BX","2017/08/03 20:29:18","新北市淡水區崁頂36-7號","121.438458333333","25.1932433333333","6501000","淡水區"
"251002","672-BX","2017/08/03 20:29:10","新北市淡水區中正路27號","121.442495","25.1696066666667","6501000","淡水區"
"251003","766-UM","2017/08/03 20:29:07","新北市淡水區新生街108巷2號","121.440141666667","25.1747433333333","6501000","淡水區"
"207004","225-TW","2017/08/03 20:29:09","新北市萬里區北基里孝一街1-1號","121.68489","25.1769383333333","6502800","萬里區"
"252002","178-VK","2017/08/03 20:29:10","新北市三芝區中正路一段54號","121.503521666667","25.2580166666667","6502100","三芝區"
"252001","292-VK","2017/08/03 20:29:15","新北市三芝區中山路一段67號","121.501016666667","25.2571033333333","6502100","三芝區"
"236071","105-UM","2017/08/03 20:29:21","新北市土城區中山路13號","121.415691666667","24.9627816666667","6501300","土城區"
"236078","166-UM","2017/08/03 20:29:16","新北市樹林區八德街65-2號","121.40061","24.96929","6501300","土城區"
"236026","269-VK","2017/08/03 20:29:20","新北市土城區城林路6巷80號","121.4385","24.9800633333333","6501300","土城區"
"236014","270-VK","2017/08/03 20:29:10","新北市土城區廣明街61號","121.455001666667","24.9935983333333","6501300","土城區"
"236021","401-BY","2017/08/03 20:29:22","新北市土城區延吉街120號","121.469761666667","24.986035","6501300","土城區"
"242021","AAC-296","2017/08/03 20:29:18","新北市新莊區和興街15號","121.447628333333","25.0392333333333","6500500","新莊區"
"242029","986-R7","2017/08/03 20:29:14","新北市新莊區中華路二段187號","121.452435","25.05243","6500500","新莊區"
"242048","751-BX","2017/08/03 20:29:19","新北市新莊區龍安路249巷1號","121.419146666667","25.0210183333333","6500500","新莊區"
"242025","615-BX","2017/08/03 20:29:25","新北市新莊區五工二路57號","121.460485","25.0654166666667","6500500","新莊區"
"242023","613-BX","2017/08/03 20:29:19","新北市新莊區化成路537號","121.46512","25.0643266666667","6500500","新莊區"
"242027","612-BX","2017/08/03 20:29:20","新北市新莊區幸福路1號","121.459756666667","25.0494666666667","6500500","新莊區"
"242036","566-BX","2017/08/03 20:29:23","新北市新莊區後港一路76巷12弄2號","121.427228333333","25.0259366666667","6500500","新莊區"
"242004","442-UM","2017/08/03 20:29:15","新北市新莊區化成路746巷41號","121.46686","25.05823","6500500","新莊區"
"242046","441-UM","2017/08/03 20:29:07","新北市新莊區裕民街90巷18號","121.417996666667","25.023765","6500500","新莊區"
"242051","440-UM","2017/08/03 20:29:15","新北市新莊區民安西路189巷14號","121.426695","25.015325","6500500","新莊區"
"242031","415-TV","2017/08/03 20:29:22","新北市新莊區三和路60-23號","121.437355","25.0389066666667","6500500","新莊區"
"242002","413-TV","2017/08/03 20:29:08","新北市新莊區中正路97號","121.460505","25.03901","6500500","新莊區"
"242039","400-BY","2017/08/03 20:29:14","新北市新莊區成功街9號","121.425756666667","25.02175","6500500","新莊區"
"242061","362-BY","2017/08/03 20:29:23","新北市新莊區新樹路244巷42號","121.431313333333","25.01905","6500500","新莊區"
"242058","353-BY","2017/08/03 20:29:08","新北市新莊區四維路169號","121.422408333333","25.0215983333333","6500500","新莊區"
"242042","132-UY","2017/08/03 20:29:20","新北市新莊區中正路694巷76號","121.417511666667","25.02942","6500500","新莊區"
"242034","133-UY","2017/08/03 20:29:21","新北市新莊區公園一路148號","121.44672","25.0383483333333","6500500","新莊區"
"242019","135-UY","2017/08/03 20:29:27","新北市新莊區長青街6-1號","121.457638333333","25.0427166666667","6500500","新莊區"
"242044","172-VK","2017/08/03 20:29:18","新北市新莊區中正路新建巷10號","121.41398","25.02248","6500500","新莊區"
"242007","173-VK","2017/08/03 20:29:14","新北市新莊區思源路287巷1弄76號","121.459326666667","25.0473133333333","6500500","新莊區"
"242013","175-VK","2017/08/03 20:29:25","新北市新莊區中平路302巷6號","121.445426666667","25.051665","6500500","新莊區"
"242056","176-VK","2017/08/03 20:29:25","新北市新莊區瓊泰路154號","121.443153333333","25.032425","6500500","新莊區"
"242011","346-TH","2017/08/03 20:29:20","新北市新莊區中義街6號","121.451451666667","25.0513083333333","6500500","新莊區"
"242017","348-TH","2017/08/03 20:29:17","新北市新莊區中港三街11號","121.45107","25.0465","6500500","新莊區"
"242053","349-TH","2017/08/03 20:29:21","新北市新莊區西盛街362巷14號","121.427216666667","25.0136833333333","6500500","新莊區"
"242015","350-TH","2017/08/03 20:29:15","新北市新莊區中平路38號","121.444803333333","25.0435983333333","6500500","新莊區"
"242009","351-TH","2017/08/03 20:29:11","新北市新莊區昌盛街103巷2號","121.456201666667","25.0502133333333","6500500","新莊區"
"238023","601-UM","2017/08/03 20:29:15","新北市樹林區育德街78-1號","121.387456666667","24.9682916666667","6500700","樹林區"
"221008","489-VK","2017/08/03 20:29:17","新北市汐止區康寧街543號","121.634313333333","25.0690966666667","6501100","汐止區"
"221036","130-UY","2017/08/03 20:29:12","新北市汐止區仁愛路151巷48號","121.663565","25.0658","6501100","汐止區"
"221015","131-UY","2017/08/03 20:29:20","新北市汐止區建成路142巷19弄17號","121.661801666667","25.073925","6501100","汐止區"
"221010","269-BY","2017/08/03 20:29:19","新北市汐止區八連路二段636-3號","121.625838333333","25.1105016666667","6501100","汐止區"
"221012","278-VK","2017/08/03 01:37:11","新北市汐止區汐萬路一段256巷1號","121.651845","25.0748183333333","6501100","汐止區"
"221023","279-VK","2017/08/03 02:10:52","新北市汐止區汐萬路一段256巷1號","121.651793333333","25.0749133333333","6501100","汐止區"
"221032","280-BY","2017/08/03 20:29:09","新北市汐止區弘道街53巷22號","121.61877","25.0495116666667","6501100","汐止區"
"221027","281-BY","2017/08/03 20:29:16","新北市汐止區中正路272號","121.657021666667","25.0684933333333","6501100","汐止區"
"221038","297-VK","2017/08/03 20:29:15","新北市汐止區忠孝東路460號","121.666288333333","25.0730466666667","6501100","汐止區"
"221029","298-VK","2017/08/03 20:29:14","新北市汐止區樟樹一路129巷31號","121.640455","25.0649","6501100","汐止區"
"221021","299-VK","2017/08/03 18:30:20","新北市汐止區南興路8號","121.65173","25.0628916666667","6501100","汐止區"
"221031","353-TW","2017/08/03 20:29:07","新北市汐止區中興路110巷10號","121.633755","25.06414","6501100","汐止區"
"221035","622-UM","2017/08/03 20:29:18","新北市汐止區長江街101-5號","121.658646666667","25.0732316666667","6501100","汐止區"
"221025","623-UM","2017/08/03 20:29:20","新北市汐止區水源路二段88巷1弄4號","121.656386666667","25.0556816666667","6501100","汐止區"
"221033","647-BX","2017/08/03 20:29:13","新北市汐止區林森街73巷5號","121.623528333333","25.0409516666667","6501100","汐止區"
"221002","707-TV","2017/08/03 20:29:12","新北市汐止區福德三路12號","121.637501666667","25.0695283333333","6501100","汐止區"
"221002","753-BX","2017/08/03 20:29:07","新北市汐止區茄苳路225巷13號","121.671451666667","25.06923","6501100","汐止區"
"220102","257-TC","2017/08/03 20:29:26","新北市板橋區文化路一段112號","121.464848333333","25.0183933333333","6500100","板橋區"
"220083","286-VK","2017/08/03 20:29:12","新北市板橋區僑中二街102巷1-4號","121.445896666667","25.0082216666667","6500100","板橋區"
"220081","287-VK","2017/08/03 20:29:18","新北市板橋區大觀路二段62號","121.445226666667","25.0006616666667","6500100","板橋區"
"220061","293-UM","2017/08/03 20:29:14","新北市板橋區文華街3巷3號","121.457265","25.0007266666667","6500100","板橋區"
"220089","487-VK","2017/08/03 20:29:25","新北市板橋區互助街38號","121.461968333333","25.0271433333333","6500100","板橋區"
"220103","561-BX","2017/08/03 20:29:14","新北市板橋區漢生東路23巷47號","121.465923333333","25.0180833333333","6500100","板橋區"
"220055","827-TW","2017/08/03 20:29:17","新北市板橋區仁愛路30號","121.458918333333","24.9994183333333","6500100","板橋區"
"220074","895-R6","2017/08/03 20:29:20","新北市板橋區南雅南路一段7巷22弄11號","121.455675","25.0046","6500100","板橋區"
"220070","AAC-253","2017/08/03 20:29:17","新北市板橋區四川路二段245巷53號","121.45214","24.9923966666667","6500100","板橋區"
