"lineid","car","time","location","longitude","latitude","cityid","cityname"
"234078","298-R6","2017/09/30 12:19:44","新北市永和區福和路1號","121.526416666667","25.00982","6500400","永和區"
"234015","745-BX","2017/09/30 12:19:58","新北市永和區福和路1號","121.52659","25.009875","6500400","永和區"
"234010","9373-KE","2017/09/30 12:19:46","新北市永和區福和路1號","121.525645","25.009335","6500400","永和區"
"231008","192-VK","2017/09/30 12:19:53","新北市新店區新烏路二段9號","121.544363333333","24.9293333333333","6500600","新店區"
"247001","335-TH","2017/09/30 10:56:21","新北市五股區中興路三段163號","121.449028333333","25.08089","6501400","蘆洲區"
"228005","097-TW","2017/09/30 12:19:56","新北市貢寮區福連里馬崗街1號","121.99663","25.0168183333333","6502600","貢寮區"
"228004","212-TW","2017/09/30 12:19:44","新北市貢寮區貢寮里長泰路13-1號","121.898466666667","25.0205116666667","6502600","貢寮區"
"252007","AAC-283","2017/09/30 10:48:06","新北市三芝區埔坪里埔頭坑41號","121.504446666667","25.2644316666667","6502100","三芝區"
"221012","276-VK","2017/09/30 12:19:42","新北市汐止區中正路229號","121.657921666667","25.0687683333333","6501100","汐止區"
