"lineid","car","time","location","longitude","latitude","cityid","cityname"
"234044","148-BY","2017/09/30 13:39:49","新北市永和區秀朗路二段161巷3號","121.524905","25.0017533333333","6500400","永和區"
"234012","149-BY","2017/09/30 13:39:51","新北市永和區保福路一段100號","121.5119","25.0106183333333","6500400","永和區"
"234005","208-UY","2017/09/30 13:39:36","新北市永和區永和路一段106號","121.513431666667","25.007265","6500400","永和區"
"234078","298-R6","2017/09/30 13:39:44","新北市永和區林森路20巷7號","121.525846666667","25.0057616666667","6500400","永和區"
"234036","336-UY","2017/09/30 13:39:56","新北市永和區環河東路四段22號","121.52861","24.999575","6500400","永和區"
"234062","337-UY","2017/09/30 13:39:51","新北市永和區秀朗路一段192巷6弄10號","121.519086666667","25.0023733333333","6500400","永和區"
"234084","338-UY","2017/09/30 13:39:52","新北市永和區永亨路165巷10號","121.526318333333","25.004175","6500400","永和區"
"234068","552-UM","2017/09/30 13:39:43","新北市永和區永和路二段234號","121.515838333333","25.0145966666667","6500400","永和區"
"234052","553-UM","2017/09/30 13:39:46","新北市永和區竹林路39巷26號","121.519076666667","25.0147516666667","6500400","永和區"
"234015","745-BX","2017/09/30 13:39:38","新北市永和區忠孝街26巷8號","121.515393333333","25.0167016666667","6500400","永和區"
"234028","746-BX","2017/09/30 13:39:45","新北市永和區民權路29巷7號","121.520563333333","24.99791","6500400","永和區"
"234060","AAD-866","2017/09/30 13:39:39","新北市永和區中正路456號","121.517445","25.002935","6500400","永和區"
"234012","847-RS","2017/09/30 13:39:44","新北市永和區保福路二段66號","121.510771666667","25.0125766666667","6500400","永和區"
"234040","862-TW","2017/09/30 13:39:41","新北市永和區中和路305巷2弄1號","121.506728333333","25.0000883333333","6500400","永和區"
"234048","863-TW","2017/09/30 13:39:40","新北市永和區保安路23號","121.510265","25.0167216666667","6500400","永和區"
"234010","9373-KE","2017/09/30 13:39:46","新北市永和區保福路二段15巷7號","121.510648333333","25.0109966666667","6500400","永和區"
"248017","225-UY","2017/09/30 13:39:53","新北市五股區民義路二段48巷5-10號","121.413981666667","25.103285","6501500","五股區"
"234022","9380-KE","2017/09/30 13:39:40","新北市永和區中正路702巷19號","121.51644","25.0106316666667","6500400","永和區"
"234076","969-R7","2017/09/30 13:39:37","新北市永和區得和路237號","121.520218333333","25.0002016666667","6500400","永和區"
"234072","AAC-211","2017/09/30 13:39:51","新北市永和區竹林路213巷44號","121.523273333333","25.009145","6500400","永和區"
"234066","AAC-212","2017/09/30 13:39:37","新北市永和區中山路一段191巷7弄4號","121.509671666667","25.0082583333333","6500400","永和區"
"234001","AAC-295","2017/09/30 13:39:40","新北市永和區福和路346號","121.514958333333","25.0073983333333","6500400","永和區"
"244005","657-BX","2017/09/30 13:39:47","新北市林口區竹林路266號","121.38967","25.0807883333333","6501700","林口區"
"231002","002-UM","2017/09/30 13:39:40","新北市新店區中央三街127號","121.52411","24.9769566666667","6500600","新店區"
"231028","046-UY","2017/09/30 13:39:44","新北市新店區安和路二段166號","121.519613333333","24.9737616666667","6500600","新店區"
"231030","047-UY","2017/09/30 13:39:46","新北市新店區安康路一段136號","121.526683333333","24.9630016666667","6500600","新店區"
"231029","106-UY","2017/09/30 13:39:44","新北市新店區安康路二段240號","121.509183333333","24.9591333333333","6500600","新店區"
"231018","107-UY","2017/09/30 13:39:45","新北市新店區百忍街18號","121.534458333333","24.97577","6500600","新店區"
"231012","108-UY","2017/09/30 13:39:46","新北市新店區德正街27巷29弄60號","121.545798333333","24.9729766666667","6500600","新店區"
"231020","187-VK","2017/09/30 13:39:50","新北市新店區永興路132號","121.543926666667","24.9317116666667","6500600","新店區"
"231017","215-TC","2017/09/30 13:39:40","新北市新店區竹林路2巷32號","121.550206666667","24.9503166666667","6500600","新店區"
"231026","256-BX","2017/09/30 13:39:47","新北市新店區北新路一段347號","121.541975","24.9690516666667","6500600","新店區"
"231034","268-BY","2017/09/30 13:39:43","新北市新店區車子路109號","121.505246666667","24.952175","6500600","新店區"
"231010","278-BY","2017/09/30 13:39:42","新北市新店區中正路309號","121.53661","24.97481","6500600","新店區"
"231023","AAD-862","2017/09/30 13:39:38","新北市新店區新店路162-1號","121.537111666667","24.9556183333333","6500600","新店區"
"231027","3712-VJ","2017/09/30 13:39:52","新北市新店區北宜路一段105巷4弄3號","121.539971666667","24.9554866666667","6500600","新店區"
"231024","3713-VJ","2017/09/30 13:39:41","新北市新店區華興街38巷5號","121.537148333333","24.9692416666667","6500600","新店區"
"231025","4716-K9","2017/09/30 13:39:56","新北市新店區中央七街61巷28號","121.529558333333","24.9758366666667","6500600","新店區"
"231038","4715-K9","2017/09/30 13:39:45","新北市新店區安華路30巷1號","121.519566666667","24.9593183333333","6500600","新店區"
"231036","512-UM","2017/09/30 13:39:55","新北市新店區安祥路147巷46號","121.476625","24.956865","6500600","新店區"
"231035","515-UM","2017/09/30 13:39:51","新北市新店區安忠路20號","121.514555","24.9620916666667","6500600","新店區"
"231006","617-UM","2017/09/30 13:39:50","新北市新店區北宜路一段97號","121.539063333333","24.955475","6500600","新店區"
"231001","619-UM","2017/09/30 13:39:44","新北市新店區中正路394號","121.534695","24.9773066666667","6500600","新店區"
"231003","641-BX","2017/09/30 13:39:44","新北市新店區中正路84號","121.543655","24.9704533333333","6500600","新店區"
"231013","719-UM","2017/09/30 13:39:33","新北市新店區二十張路96號","121.536053333333","24.9796266666667","6500600","新店區"
"231033","720-UM","2017/09/30 13:39:37","新北市新店區莒光路44巷21弄11-2號","121.51964","24.953465","6500600","新店區"
"231005","897-TW","2017/09/30 13:39:51","新北市新店區寶中路61號","121.547121666667","24.980325","6500600","新店區"
"231004","899-TW","2017/09/30 13:39:38","新北市新店區北新路二段15號","121.542635","24.9714983333333","6500600","新店區"
"231037","AKT-0513","2017/09/30 13:39:35","新北市新店區安康路三段148號","121.490251666667","24.9518766666667","6500600","新店區"
"235030","003-UY","2017/09/30 13:39:49","新北市中和區水源路43號","121.504751666667","25.003625","6500300","中和區"
"235028","005-UY","2017/09/30 13:39:52","新北市中和區連城路110號","121.496343333333","24.99973","6500300","中和區"
"235027","006-UY","2017/09/30 13:39:41","新北市中和區連城路387號","121.486605","24.9961933333333","6500300","中和區"
"235020","096-UM","2017/09/30 13:39:36","新北市中和區員山路466巷21弄4號","121.481068333333","25.0066683333333","6500300","中和區"
"235003","097-UM","2017/09/30 13:39:52","新北市中和區景平路278巷14弄5號","121.514231666667","24.993125","6500300","中和區"
"235029","098-UM","2017/09/30 13:39:53","新北市中和區莊敬路33巷22弄8號","121.500856666667","25.0064483333333","6500300","中和區"
"235004","150-BY","2017/09/30 13:39:54","新北市中和區保健路50巷66號","121.509388333333","24.995205","6500300","中和區"
"235022","151-BY","2017/09/30 13:39:48","新北市中和區圓通路369巷35號","121.489395","24.986735","6500300","中和區"
"235019","183-VK","2017/09/30 13:39:46","新北市中和區莒光路120巷17弄2號","121.471686666667","25.0009316666667","6500300","中和區"
"235002","185-VK","2017/09/30 13:39:50","新北市永和區民有街75巷10弄20號","121.519081666667","24.99583","6500300","中和區"
"235049","186-VK","2017/09/30 13:39:44","新北市中和區景安路132巷33號","121.503705","24.9945633333333","6500300","中和區"
"235031","255-BX","2017/09/30 13:39:54","新北市中和區新生街220巷4號","121.482968333333","24.99854","6500300","中和區"
"235008","293-VK","2017/09/30 13:39:39","新北市中和區復興路261號","121.502915","24.9902983333333","6500300","中和區"
"235036","301-VK","2017/09/30 13:39:41","新北市中和區安邦街8號","121.495578333333","24.9982033333333","6500300","中和區"
"235007","352-BY","2017/09/30 13:39:43","新北市中和區景平路155號","121.5136","24.9923683333333","6500300","中和區"
"235032","375-QA","2017/09/30 13:39:13","新北市中和區中正路211巷13弄1號","121.497058333333","24.99294","6500300","中和區"
"235015","376-QA","2017/09/30 13:39:44","新北市中和區華新街143巷106弄19號","121.50649","24.9784516666667","6500300","中和區"
"235025","378-QA","2017/09/30 13:39:48","新北市中和區民享街99號","121.474906666667","24.99987","6500300","中和區"
"235035","956-SL","2017/09/30 13:39:38","新北市中和區光環路二段309號","121.487595","25.0139366666667","6500300","中和區"
"235014","4979-A6","2017/09/30 13:39:50","新北市中和區景新街496巷32弄2號","121.513456666667","24.9853733333333","6500300","中和區"
"235033","4980-A6","2017/09/30 13:39:43","新北市中和區連城路53號","121.497803333333","25.001645","6500300","中和區"
"235006","551-UM","2017/09/30 13:39:39","新北市中和區成功路41巷7號","121.526585","24.9931566666667","6500300","中和區"
"235034","558-UM","2017/09/30 13:36:33","新北市中和區景平路385巷23號","121.502028333333","24.994285","6500300","中和區"
"235001","565-BX","2017/09/30 13:39:37","新北市中和區復興路49巷4號","121.504575","24.9897233333333","6500300","中和區"
"235018","640-BX","2017/09/30 13:39:53","新北市中和區民享街86巷28號","121.473228333333","25.0006266666667","6500300","中和區"
"235024","647-TV","2017/09/30 13:39:55","新北市中和區中山路二段624號","121.481366666667","25.0055116666667","6500300","中和區"
"235011","732-UM","2017/09/30 13:39:51","新北市中和區興南路一段164號","121.508026666667","24.9866633333333","6500300","中和區"
"235010","733-UM","2017/09/30 13:39:46","新北市中和區興南路一段85巷26號","121.51017","24.9881116666667","6500300","中和區"
"235026","800-TS","2017/09/30 13:39:47","新北市中和區中山路二段312巷14號","121.495395","25.0038216666667","6500300","中和區"
"235021","801-TS","2017/09/30 13:39:49","新北市中和區民享街97巷19號","121.475375","24.9996066666667","6500300","中和區"
"235005","802-TS","2017/09/30 13:39:50","新北市中和區中和路400巷15號","121.511515","25.0025316666667","6500300","中和區"
"235016","805-TS","2017/09/30 13:39:39","新北市中和區興南路三段52巷6-1號","121.493575","24.9762933333333","6500300","中和區"
"235012","896-TW","2017/09/30 13:39:54","新北市中和區中正路76號","121.500738333333","24.99365","6500300","中和區"
"235017","900-TW","2017/09/30 13:39:52","新北市中和區民享街462號","121.469663333333","24.992275","6500300","中和區"
"235001","AAC-213","2017/09/30 13:39:49","新北市中和區景平路111巷68號","121.514981666667","24.9903533333333","6500300","中和區"
"235023","AAC-215","2017/09/30 00:39:42","新北市中和區員山路36巷16-3號","121.48486","24.9911883333333","6500300","中和區"
"220013","072-UY","2017/09/30 13:39:43","新北市板橋區華東街1-8號","121.447486666667","24.995075","6500100","板橋區"
"220034","073-UY","2017/09/30 13:39:53","新北市板橋區南雅西路二段170號","121.451686666667","25.013785","6500100","板橋區"
"220017","AAD-861","2017/09/30 13:39:53","新北市板橋區華東街1-10號","121.448418333333","24.9951383333333","6500100","板橋區"
"220016","120-SR","2017/09/30 13:39:34","新北市板橋區民生路二段120號","121.470575","25.019815","6500100","板橋區"
"247009","339-TH","2017/09/30 13:39:52","新北市五股區新五路二段258號","121.440945","25.0823216666667","6501400","蘆洲區"
"247001","335-TH","2017/09/30 10:56:21","新北市五股區中興路三段163號","121.449028333333","25.08089","6501400","蘆洲區"
"247015","057-VK","2017/09/30 13:39:50","新北市五股區凌雲路一段20號","121.452508333333","25.10064","6501400","蘆洲區"
"247005","056-VK","2017/09/30 13:39:52","新北市蘆洲區永安南路二段292號","121.457175","25.0816833333333","6501400","蘆洲區"
"247007","053-VK","2017/09/30 13:39:48","新北市蘆洲區復興路323巷166-1號","121.478511666667","25.0964083333333","6501400","蘆洲區"
"247017","001-UY","2017/09/30 13:39:42","新北市五股區中興路三段163號","121.449201666667","25.0808766666667","6501400","蘆洲區"
"228005","097-TW","2017/09/30 13:39:36","新北市貢寮區美豐里文秀坑1-3號","121.905013333333","25.0539566666667","6502600","貢寮區"
"228004","212-TW","2017/09/30 13:39:24","新北市貢寮區龍崗里嵩陽街17號","121.907501666667","25.008995","6502600","貢寮區"
"208004","AAC-292","2017/09/30 13:39:56","新北市金山區重和里茅埔頭12號","121.603111666667","25.2153983333333","6502700","金山區"
"207002","749-BX","2017/09/30 13:39:46","新北市萬里區崁腳里崁腳路166號","121.645191666667","25.1560733333333","6502800","萬里區"
"252005","073-UM","2017/09/30 13:39:48","新北市三芝區圓山里石曹子坑38-1號","121.536603333333","25.2290533333333","6502100","三芝區"
"207001","662-BX","2017/09/30 13:39:52","新北市萬里區磺潭里公館崙20號","121.637151666667","25.214185","6502800","萬里區"
"236041","107-UM","2017/09/30 13:39:38","新北市土城區城林路6巷80號","121.438411666667","24.9799066666667","6501300","土城區"
"236075","166-UM","2017/09/30 13:39:54","新北市土城區城林路6巷80號","121.438441666667","24.97979","6501300","土城區"
"236029","253-BX","2017/09/30 13:39:38","新北市土城區城林路6巷80號","121.438548333333","24.97974","6501300","土城區"
"236013","270-VK","2017/09/30 13:39:46","新北市土城區城林路6巷80號","121.43858","24.9797333333333","6501300","土城區"
"236035","271-VK","2017/09/30 13:39:48","新北市土城區城林路6巷80號","121.438446666667","24.9798416666667","6501300","土城區"
"236006","498-BY","2017/09/30 13:39:39","新北市土城區中華路二段147號","121.438925","24.9759816666667","6501300","土城區"
"236057","912-UM","2017/09/30 13:39:56","新北市土城區城林路6巷80號","121.438516666667","24.979785","6501300","土城區"
"236045","913-UM","2017/09/30 13:38:50","新北市土城區城林路6巷80號","121.438445","24.9798483333333","6501300","土城區"
"236061","915-UM","2017/09/30 13:39:46","新北市土城區城林路6巷80號","121.438428333333","24.979895","6501300","土城區"
"236054","AAC-216","2017/09/30 13:39:45","新北市土城區城林路6巷80號","121.438395","24.9798883333333","6501300","土城區"
"221012","276-VK","2017/09/30 13:30:58","新北市汐止區汐萬路一段256巷3號","121.653381666667","25.0746933333333","6501100","汐止區"
"221032","280-BY","2017/09/30 13:39:45","新北市汐止區仁愛路27號","121.65939","25.0637383333333","6501100","汐止區"
"221018","753-BX","2017/09/30 13:39:53","新北市汐止區福德二路77-2號","121.633206666667","25.06595","6501100","汐止區"
"220027","145-BY","2017/09/30 13:39:49","新北市板橋區國光路31號","121.457058333333","25.0176566666667","6500100","板橋區"
"220028","200-UY","2017/09/30 13:39:40","新北市板橋區板城路407號","121.447161666667","24.99506","6500100","板橋區"
"220030","610-BX","2017/09/30 13:39:45","新北市板橋區華東街1-8號","121.447593333333","24.9949966666667","6500100","板橋區"
"220004","276-BY","2017/09/30 13:39:35","新北市板橋區四川路二段140巷12號","121.44952","24.99329","6500100","板橋區"
"220012","280-UM","2017/09/30 13:39:49","新北市板橋區縣民大道二段82號","121.465163333333","25.014325","6500100","板橋區"
"220043","283-UM","2017/09/30 13:39:52","新北市板橋區民生路二段161巷1號","121.470138333333","25.0198533333333","6500100","板橋區"
"220019","283-VK","2017/09/30 13:39:48","新北市板橋區華東街1-9號","121.448141666667","24.9948633333333","6500100","板橋區"
"220001","285-VK","2017/09/30 13:39:50","新北市板橋區民生路二段120號","121.470331666667","25.0199333333333","6500100","板橋區"
"220029","287-VK","2017/09/30 13:39:38","新北市板橋區華東街1-10號","121.44832","24.994985","6500100","板橋區"
"220039","288-VK","2017/09/30 13:39:42","新北市板橋區民生路二段120號","121.47036","25.0197733333333","6500100","板橋區"
"220009","293-UM","2017/09/30 13:39:42","新北市板橋區民生路二段120號","121.470356666667","25.0197233333333","6500100","板橋區"
"220010","295-UM","2017/09/30 13:39:45","新北市板橋區民生路二段188號","121.470351666667","25.020515","6500100","板橋區"
"220032","296-UM","2017/09/30 13:39:44","新北市板橋區板城路407號","121.447495","24.9952866666667","6500100","板橋區"
"220023","297-UM","2017/09/30 13:39:34","新北市板橋區板城路421號","121.448001666667","24.99564","6500100","板橋區"
"220104","560-BX","2017/09/30 13:39:48","新北市板橋區南雅西路二段145巷6號","121.451656666667","25.0117566666667","6500100","板橋區"
"220040","637-BX","2017/09/30 13:39:44","新北市板橋區民生路二段161巷3號","121.470181666667","25.0198116666667","6500100","板橋區"
"220025","687-BX","2017/09/30 13:39:43","新北市板橋區大觀路三段180巷30號","121.429745","24.9937116666667","6500100","板橋區"
"220014","829-TW","2017/09/30 13:39:36","新北市板橋區民生路二段120號","121.47048","25.0200366666667","6500100","板橋區"
"220022","895-R6","2017/09/30 13:39:43","新北市板橋區南雅南路一段8-9號","121.455933333333","25.0064316666667","6500100","板橋區"
"220021","985-R7","2017/09/30 13:39:53","新北市板橋區華東街1-10號","121.448305","24.9950266666667","6500100","板橋區"
"220018","AAC-253","2017/09/30 13:39:44","新北市板橋區華東街1-9號","121.448193333333","24.995","6500100","板橋區"
