"lineid","car","time","location","longitude","latitude","cityid","cityname"
"234012","149-BY","2017/09/30 14:39:39","新北市永和區福和路1號","121.526746666667","25.0099666666667","6500400","永和區"
"234028","746-BX","2017/09/30 14:49:45","新北市板橋區文化路二段656號","121.480938333333","25.038855","6500400","永和區"
"234025","9371-KE","2017/09/30 14:49:35","新北市永和區水源街54號","121.510405","25.00435","6500400","永和區"
"248017","225-UY","2017/09/30 14:16:14","新北市五股區壟路16號","121.415266666667","25.0855166666667","6501500","五股區"
"244005","657-BX","2017/09/30 14:49:47","新北市林口區竹林路265號","121.389483333333","25.08076","6501700","林口區"
"231002","002-UM","2017/09/30 14:49:44","新北市新店區民權路42-1號","121.540293333333","24.9829583333333","6500600","新店區"
"231028","046-UY","2017/09/30 14:49:44","新北市新店區安德街148巷1號","121.508238333333","24.9597666666667","6500600","新店區"
"231030","047-UY","2017/09/30 14:49:46","新北市新店區安民街379巷16號","121.515528333333","24.9767666666667","6500600","新店區"
"231029","106-UY","2017/09/30 14:49:44","新北市新店區錦秀路11巷96弄2號","121.480013333333","24.9419616666667","6500600","新店區"
"231018","107-UY","2017/09/30 14:49:45","新北市新店區中央路218號","121.529591666667","24.973205","6500600","新店區"
"231012","108-UY","2017/09/30 14:49:43","新北市新店區永華街44號","121.545026666667","24.9751033333333","6500600","新店區"
"231020","187-VK","2017/09/30 14:49:31","新北市新店區永福路54號","121.558096666667","24.9287216666667","6500600","新店區"
"231017","215-TC","2017/09/30 14:49:40","新北市新店區北宜路三段187號","121.586811666667","24.952825","6500600","新店區"
"231026","256-BX","2017/09/30 14:49:38","新北市新店區安康路一段355-3號","121.519786666667","24.961785","6500600","新店區"
"231034","268-BY","2017/09/30 14:48:58","新北市新店區安康路二段362號","121.501785","24.9574633333333","6500600","新店區"
"231023","AAD-862","2017/09/30 14:49:38","新北市新店區檳榔路109號","121.544428333333","24.96183","6500600","新店區"
"231024","3713-VJ","2017/09/30 14:49:41","新北市新店區新生街1號","121.540385","24.965655","6500600","新店區"
"231025","4716-K9","2017/09/30 14:49:50","新北市新店區建國路163號","121.538683333333","24.97914","6500600","新店區"
"231036","512-UM","2017/09/30 14:49:35","新北市新店區安祥路104-7號","121.479563333333","24.9622066666667","6500600","新店區"
"231035","515-UM","2017/09/30 14:49:38","新北市新店區安樂街1號","121.519716666667","24.9738366666667","6500600","新店區"
"231006","617-UM","2017/09/30 14:49:44","新北市新店區北宜路一段170號","121.540728333333","24.95304","6500600","新店區"
"231001","619-UM","2017/09/30 14:49:44","新北市新店區三民路84號","121.53444","24.9726533333333","6500600","新店區"
"231003","641-BX","2017/09/30 14:49:44","新北市新店區中興路二段121巷1號","121.54746","24.9720266666667","6500600","新店區"
"231039","718-UY","2017/09/30 14:49:51","新北市新店區安康路一段355-3號","121.519678333333","24.96164","6500600","新店區"
"231013","719-UM","2017/09/30 14:49:33","新北市新店區北新路二段68號","121.542875","24.9724966666667","6500600","新店區"
"231033","720-UM","2017/09/30 14:49:37","新北市新店區安泰路7巷16號","121.485648333333","24.9508583333333","6500600","新店區"
"231005","897-TW","2017/09/30 14:49:45","新北市新店區復興路94號","121.53234","24.988345","6500600","新店區"
"231004","899-TW","2017/09/30 14:49:38","新北市新店區建國路133號","121.539321666667","24.9781483333333","6500600","新店區"
"231037","AKT-0513","2017/09/30 14:49:35","新北市新店區安民街121巷20號","121.515313333333","24.96893","6500600","新店區"
"235030","003-UY","2017/09/30 14:49:38","新北市中和區水源路102號","121.505998333333","25.0034683333333","6500300","中和區"
"235020","096-UM","2017/09/30 14:49:36","新北市中和區中山路三段116號","121.476155","25.0061133333333","6500300","中和區"
"235003","097-UM","2017/09/30 14:49:48","新北市中和區安樂路247號","121.514091666667","24.9996216666667","6500300","中和區"
"235029","098-UM","2017/09/30 14:49:34","新北市中和區永和路90巷1弄1號","121.497326666667","25.0057966666667","6500300","中和區"
"235004","150-BY","2017/09/30 14:49:34","新北市中和區安平路59號","121.50948","24.9951733333333","6500300","中和區"
"235022","151-BY","2017/09/30 14:49:48","新北市中和區員山路150巷5-2號","121.48167","24.9983066666667","6500300","中和區"
"235002","185-VK","2017/09/30 14:49:50","新北市中和區自立路117巷4弄5號","121.522748333333","24.9942283333333","6500300","中和區"
"235013","186-VK","2017/09/30 14:49:44","新北市中和區景平路544號","121.502518333333","24.994735","6500300","中和區"
"235031","255-BX","2017/09/30 14:49:34","新北市中和區新生街186巷1弄17號","121.483426666667","24.9990666666667","6500300","中和區"
"235008","293-VK","2017/09/30 14:49:39","新北市中和區南山路399巷7號","121.50685","24.9903183333333","6500300","中和區"
"235036","301-VK","2017/09/30 14:49:41","新北市中和區連城路144巷4弄11號","121.495661666667","24.9988983333333","6500300","中和區"
"235007","352-BY","2017/09/30 14:49:43","新北市中和區安樂路49號","121.511983333333","24.9934366666667","6500300","中和區"
"235032","375-QA","2017/09/30 14:49:33","新北市中和區景平路736巷5弄9號","121.497635","25.00348","6500300","中和區"
"235015","376-QA","2017/09/30 14:49:44","新北市中和區中興街233巷8弄8號","121.501121666667","24.9893266666667","6500300","中和區"
"235025","378-QA","2017/09/30 14:48:48","新北市中和區圓通路417-39號","121.48889","24.98763","6500300","中和區"
"235035","956-SL","2017/09/30 14:49:40","新北市中和區建三路24號","121.486066666667","25.0021916666667","6500300","中和區"
"235014","4979-A6","2017/09/30 14:49:50","新北市中和區景平路239-1號","121.509605","24.9925183333333","6500300","中和區"
"235033","4980-A6","2017/09/30 14:49:43","新北市中和區景新街34巷2弄11號","121.50276","24.9989283333333","6500300","中和區"
"235006","551-UM","2017/09/30 14:49:38","新北市中和區保健路106巷12弄16號","121.511038333333","24.9956883333333","6500300","中和區"
"235034","558-UM","2017/09/30 14:47:33","新北市中和區景平路559號","121.498205","24.9996533333333","6500300","中和區"
"235009","565-BX","2017/09/30 14:49:37","新北市中和區安樂路11號","121.511638333333","24.9921","6500300","中和區"
"235018","640-BX","2017/09/30 14:49:32","新北市中和區莒光路143號","121.472583333333","25.0013816666667","6500300","中和區"
"235024","647-TV","2017/09/30 14:49:37","新北市中和區新生街16巷18號","121.482486666667","25.0044083333333","6500300","中和區"
"235010","733-UM","2017/09/30 14:49:46","新北市中和區仁愛街71號","121.511506666667","24.9874683333333","6500300","中和區"
"235026","800-TS","2017/09/30 14:49:47","新北市中和區中山路二段339號","121.492675","25.0024783333333","6500300","中和區"
"235021","801-TS","2017/09/30 14:49:49","新北市中和區員山路173號","121.48115","24.9970066666667","6500300","中和區"
"235016","805-TS","2017/09/30 14:49:38","新北市中和區華新街136號","121.508076666667","24.9825633333333","6500300","中和區"
"235012","896-TW","2017/09/30 14:49:34","新北市中和區忠孝街37巷4號","121.51134","24.9836383333333","6500300","中和區"
"235017","900-TW","2017/09/30 14:49:42","新北市中和區國光街215巷8弄6-4號","121.466628333333","25.0011433333333","6500300","中和區"
"235001","AAC-213","2017/09/30 14:49:49","新北市中和區秀朗路三段134-1號","121.524446666667","24.9916816666667","6500300","中和區"
"235023","AAC-215","2017/09/30 14:49:34","新北市中和區圓通路305巷5弄1號","121.493523333333","24.9902866666667","6500300","中和區"
"220013","072-UY","2017/09/30 14:49:43","新北市板橋區民族路276號","121.469901666667","25.006725","6500100","板橋區"
"220034","073-UY","2017/09/30 14:49:49","新北市板橋區國光路17號","121.456831666667","25.01746","6500100","板橋區"
"220105","075-UY","2017/09/30 14:49:50","新北市板橋區民治街61巷27號","121.480476666667","25.033585","6500100","板橋區"
"220017","AAD-861","2017/09/30 14:49:39","新北市板橋區南雅南路二段11-29號","121.453783333333","25.0015816666667","6500100","板橋區"
"220016","120-SR","2017/09/30 14:49:34","新北市板橋區光復街172巷2弄1號","121.48528","25.0193633333333","6500100","板橋區"
"247001","337-TH","2017/09/30 14:49:48","新北市蘆洲區長興路255號","121.46029","25.0875916666667","6501400","蘆洲區"
"247001","335-TH","2017/09/30 10:56:21","新北市五股區中興路三段163號","121.449028333333","25.08089","6501400","蘆洲區"
"247015","057-VK","2017/09/30 14:49:50","新北市蘆洲區和平路190號","121.466146666667","25.0815166666667","6501400","蘆洲區"
"247023","002-UY","2017/09/30 14:49:52","新北市蘆洲區中山二路262號","121.469181666667","25.07872","6501400","蘆洲區"
"228005","097-TW","2017/09/30 14:49:43","新北市貢寮區美豐里丹裡街65號","121.909491666667","25.05897","6502600","貢寮區"
"228004","212-TW","2017/09/30 14:49:44","新北市貢寮區福隆里裕隆街5號","121.946146666667","25.0159733333333","6502600","貢寮區"
"208004","AAC-292","2017/09/30 14:49:36","新北市金山區兩湖里倒照湖21-1號","121.594265","25.23905","6502700","金山區"
"207002","749-BX","2017/09/30 14:49:45","新北市萬里區崁腳里崁腳路73號","121.647525","25.1595766666667","6502800","萬里區"
"252005","073-UM","2017/09/30 14:49:28","新北市三芝區埔坪里埔頭坑164-2號","121.508468333333","25.24885","6502100","三芝區"
"207001","662-BX","2017/09/30 14:46:32","新北市萬里區雙興里豐稟路9號","121.647351666667","25.1819633333333","6502800","萬里區"
"236068","105-UM","2017/09/30 14:49:36","新北市土城區金城路二段241號","121.455778333333","24.9825566666667","6501300","土城區"
"236041","107-UM","2017/09/30 14:49:43","新北市土城區裕民路136巷4弄1號","121.45107","24.98563","6501300","土城區"
"236075","166-UM","2017/09/30 14:49:37","新北市土城區中央路四段125巷27-2號","121.417166666667","24.9566633333333","6501300","土城區"
"236029","253-BX","2017/09/30 14:49:38","新北市土城區忠義路26巷10號","121.439843333333","24.9699133333333","6501300","土城區"
"236025","269-VK","2017/09/30 14:49:30","新北市土城區慶安街54號","121.441013333333","24.9731716666667","6501300","土城區"
"236013","270-VK","2017/09/30 14:49:46","新北市土城區金城路二段356號","121.461461666667","24.9850966666667","6501300","土城區"
"236035","271-VK","2017/09/30 14:49:48","新北市土城區明德路一段193號","121.463838333333","24.9789833333333","6501300","土城區"
"236017","401-BY","2017/09/30 14:49:37","新北市土城區延吉街206號","121.467635","24.9850383333333","6501300","土城區"
"236057","912-UM","2017/09/30 14:49:36","新北市土城區中央路三段93號","121.437575","24.9677516666667","6501300","土城區"
"236045","913-UM","2017/09/30 14:49:50","新北市土城區青雲路147號","121.4588","24.98398","6501300","土城區"
"236061","915-UM","2017/09/30 14:49:45","新北市土城區延和路41巷6弄18號","121.466716666667","24.9902716666667","6501300","土城區"
"236054","AAC-216","2017/09/30 14:49:45","新北市土城區裕民路157號","121.452305","24.98585","6501300","土城區"
"221012","276-VK","2017/09/30 13:30:58","新北市汐止區汐萬路一段256巷3號","121.653381666667","25.0746933333333","6501100","汐止區"
"220027","145-BY","2017/09/30 14:49:49","新北市板橋區中正路183巷24-1號","121.455518333333","25.0161966666667","6500100","板橋區"
"220028","200-UY","2017/09/30 14:49:53","新北市板橋區大觀路二段37巷23號","121.447928333333","25.0026416666667","6500100","板橋區"
"220030","610-BX","2017/09/30 14:49:45","新北市板橋區溪崑一街20號","121.43016","24.99118","6500100","板橋區"
"220050","245-BX","2017/09/30 14:49:33","新北市板橋區縣民大道三段93巷30弄2號","121.474948333333","25.0226283333333","6500100","板橋區"
"220020","277-BY","2017/09/30 14:49:48","新北市板橋區金門街151巷25號","121.434065","24.990225","6500100","板橋區"
"220012","280-UM","2017/09/30 14:49:49","新北市板橋區實踐路85號","121.463965","25.005615","6500100","板橋區"
"220043","283-UM","2017/09/30 14:49:51","新北市板橋區長江路一段192號","121.462208333333","25.0305983333333","6500100","板橋區"
"220019","283-VK","2017/09/30 14:49:50","新北市板橋區五權街32巷7-4號","121.464625","24.99308","6500100","板橋區"
"220001","285-VK","2017/09/30 14:49:50","新北市板橋區中山路二段60巷1弄9號","121.474656666667","25.0155316666667","6500100","板橋區"
"220031","286-VK","2017/09/30 14:49:34","新北市板橋區僑中二街8巷12號","121.446688333333","25.01128","6500100","板橋區"
"220029","287-VK","2017/09/30 14:49:44","新北市板橋區僑中一街80巷5弄3號","121.447636666667","25.0123083333333","6500100","板橋區"
"220039","288-VK","2017/09/30 14:49:42","新北市板橋區龍泉街90巷3號","121.456093333333","25.0249216666667","6500100","板橋區"
"220009","293-UM","2017/09/30 14:49:42","新北市板橋區板新路158號","121.470253333333","25.0157216666667","6500100","板橋區"
"220010","295-UM","2017/09/30 14:49:45","新北市板橋區中山路二段416巷58號","121.482886666667","25.0189433333333","6500100","板橋區"
"220032","296-UM","2017/09/30 14:49:44","新北市板橋區溪崑二街112巷10號","121.426143333333","24.9890166666667","6500100","板橋區"
"220023","297-UM","2017/09/30 14:49:41","新北市板橋區金華街10巷27號","121.45679","25.0202216666667","6500100","板橋區"
"220041","307-R5","2017/09/30 14:49:39","新北市板橋區四維路259巷69號","121.460641666667","25.0267216666667","6500100","板橋區"
"220047","317-R6","2017/09/30 14:49:40","新北市板橋區新海路404號","121.45861","25.0269016666667","6500100","板橋區"
"220038","487-VK","2017/09/30 14:49:37","新北市板橋區龍泉街139號","121.457718333333","25.0240833333333","6500100","板橋區"
"220037","491-VK","2017/09/30 14:49:47","新北市板橋區仁化街103號","121.476728333333","25.03232","6500100","板橋區"
"220104","560-BX","2017/09/30 14:49:50","新北市板橋區新生街23巷14號","121.45627","25.0218216666667","6500100","板橋區"
"220052","561-BX","2017/09/30 14:49:41","新北市板橋區陽明街29巷37號","121.463633333333","25.0226933333333","6500100","板橋區"
"220011","609-BX","2017/09/30 14:49:33","新北市板橋區萬安街53巷22號","121.483318333333","25.02376","6500100","板橋區"
"220040","637-BX","2017/09/30 14:49:44","新北市板橋區懷德街127巷25號","121.479613333333","25.03128","6500100","板橋區"
"220005","686-BX","2017/09/30 14:49:46","新北市板橋區信義路200號","121.459816666667","24.9909916666667","6500100","板橋區"
"220025","687-BX","2017/09/30 14:49:43","新北市板橋區僑中一街102巷3弄20號","121.445955","25.01258","6500100","板橋區"
"220042","689-BX","2017/09/30 14:49:37","新北市板橋區長江路一段373號","121.461901666667","25.03069","6500100","板橋區"
"220002","741-BX","2017/09/30 14:49:33","新北市板橋區忠孝路忠義巷15弄25號","121.465695","25.0042983333333","6500100","板橋區"
"220003","827-TW","2017/09/30 14:49:49","新北市板橋區仁愛路86巷13弄1號","121.461071666667","24.9989483333333","6500100","板橋區"
"220014","829-TW","2017/09/30 14:49:48","新北市板橋區漢生東路193巷69弄1號","121.4723","25.0121683333333","6500100","板橋區"
"220051","830-TW","2017/09/30 14:49:40","新北市板橋區仁化街66號","121.475995","25.031815","6500100","板橋區"
"220045","831-TW","2017/09/30 14:49:49","新北市板橋區民生路二段226巷31弄1號","121.471","25.0220933333333","6500100","板橋區"
"220022","895-R6","2017/09/30 14:49:43","新北市板橋區文化路一段32巷2號","121.459536666667","25.011285","6500100","板橋區"
"220021","985-R7","2017/09/30 14:49:33","新北市板橋區中正路401號","121.454195","25.022105","6500100","板橋區"
"220046","AAC-210","2017/09/30 14:49:47","新北市板橋區漢生西路52號","121.463055","25.018675","6500100","板橋區"
"220018","AAC-253","2017/09/30 14:49:46","新北市板橋區民族路161號","121.46831","25.0077516666667","6500100","板橋區"
