"lineid","car","time","location","longitude","latitude","cityid","cityname"
"234012","149-BY","2017/09/30 14:39:39","新北市永和區福和路1號","121.526746666667","25.0099666666667","6500400","永和區"
"248020","225-UY","2017/09/30 15:39:34","新北市五股區中興路二段83巷26-6號","121.460046666667","25.07522","6501500","五股區"
"231028","046-UY","2017/09/30 15:39:44","新北市新店區僑信路2巷2號","121.499836666667","24.9536","6500600","新店區"
"231030","047-UY","2017/09/30 15:39:46","新北市新店區永安街109巷9號","121.52133","24.9858966666667","6500600","新店區"
"231029","106-UY","2017/09/30 15:39:44","新北市新店區安康路三段440-5號","121.484738333333","24.9513833333333","6500600","新店區"
"231018","107-UY","2017/09/30 15:39:45","新北市新店區民生路145巷32號","121.530108333333","24.9804416666667","6500600","新店區"
"231012","108-UY","2017/09/30 15:39:43","新北市新店區文化路92號","121.544938333333","24.9825383333333","6500600","新店區"
"231020","187-VK","2017/09/30 15:39:51","新北市新店區新烏路一段85巷6-6號","121.54973","24.9426916666667","6500600","新店區"
"231017","215-TC","2017/09/30 15:39:39","新北市新店區北宜路二段92-1號","121.555093333333","24.9536066666667","6500600","新店區"
"231026","256-BX","2017/09/30 15:39:38","新北市新店區三民路75巷4弄2號","121.535593333333","24.9709316666667","6500600","新店區"
"231034","268-BY","2017/09/30 15:39:44","新北市新店區如意街97號","121.495266666667","24.9469283333333","6500600","新店區"
"231046","278-BY","2017/09/30 14:05:39","新北市新店區安華路28-1號","121.519648333333","24.961205","6500600","新店區"
"231023","AAD-862","2017/09/30 15:39:38","新北市新店區中興路一段268-1號","121.545096666667","24.96778","6500600","新店區"
"231038","4715-K9","2017/09/30 15:39:45","新北市新店區安康路一段258號","121.52065","24.9639933333333","6500600","新店區"
"231036","512-UM","2017/09/30 15:39:35","新北市新店區安祥路67巷61號","121.486211666667","24.959115","6500600","新店區"
"231035","515-UM","2017/09/30 15:39:38","新北市新店區安民街365巷14號","121.515648333333","24.9754866666667","6500600","新店區"
"231003","641-BX","2017/09/30 15:39:44","新北市新店區中興路二段200-1號","121.548355","24.9740416666667","6500600","新店區"
"231039","718-UY","2017/09/30 15:39:32","新北市新店區寶元路二段64巷1號","121.547273333333","24.98107","6500600","新店區"
"231013","719-UM","2017/09/30 15:39:44","新北市新店區永業路81巷54號","121.529551666667","24.9481833333333","6500600","新店區"
"231033","720-UM","2017/09/30 15:39:37","新北市新店區雙城路175-2號","121.494651666667","24.9448166666667","6500600","新店區"
"231005","897-TW","2017/09/30 15:39:45","新北市新店區民族路66號","121.539416666667","24.9784133333333","6500600","新店區"
"231004","899-TW","2017/09/30 15:39:38","新北市新店區民族路108號","121.538151666667","24.9773483333333","6500600","新店區"
"231037","AKT-0513","2017/09/30 15:39:35","新北市新店區安興路112號","121.514631666667","24.9776","6500600","新店區"
"241011","013-R5","2017/09/30 15:39:42","新北市三重區文化北路248號","121.497346666667","25.0699233333333","6500200","三重區"
"241028","022-UY","2017/09/30 15:39:41","新北市三重區重新路四段121號","121.484786666667","25.052515","6500200","三重區"
"241015","062-VK","2017/09/30 15:39:40","新北市三重區重新路四段121號","121.485136666667","25.0519933333333","6500200","三重區"
"241026","066-VK","2017/09/30 15:39:32","新北市三重區重新路四段121號","121.484855","25.0520616666667","6500200","三重區"
"241013","270-UM","2017/09/30 15:39:31","新北市三重區忠孝路二段130號","121.482658333333","25.0686683333333","6500200","三重區"
"241007","398-BY","2017/09/30 15:39:40","新北市三重區重新路四段121號","121.485231666667","25.05208","6500200","三重區"
"241006","AAD-863","2017/09/30 15:39:49","新北市三重區重新路四段121號","121.484663333333","25.0521933333333","6500200","三重區"
"241012","941-UM","2017/09/30 15:39:34","新北市三重區自強路一段66號","121.497095","25.0666","6500200","三重區"
"241029","942-UM","2017/09/30 15:39:48","新北市三重區大同南路202號","121.496786666667","25.056735","6500200","三重區"
"241033","AAC-255","2017/09/30 15:39:51","新北市三重區中興南街80巷3號","121.471333333333","25.0432966666667","6500200","三重區"
"235022","151-BY","2017/09/30 15:39:48","新北市樹林區中山路三段210-2號","121.380633333333","24.9675733333333","6500300","中和區"
"235033","4980-A6","2017/09/30 15:39:46","新北市中和區連城路523巷11弄34號","121.482578333333","24.993985","6500300","中和區"
"235026","800-TS","2017/09/30 15:39:47","新北市中和區建八路125巷6弄11號","121.490238333333","24.999375","6500300","中和區"
"235001","AAC-213","2017/09/30 15:39:29","新北市八里區商港路120號","121.39288","25.1501166666667","6500300","中和區"
"235023","AAC-215","2017/09/30 15:39:34","新北市中和區員山路32-3號","121.481001666667","24.9874383333333","6500300","中和區"
"220013","072-UY","2017/09/30 15:10:09","新北市板橋區民生路二段36-1號","121.472335","25.0167566666667","6500100","板橋區"
"220034","073-UY","2017/09/30 15:39:32","新北市樹林區中山路三段214號","121.380443333333","24.9679583333333","6500100","板橋區"
"247001","335-TH","2017/09/30 10:56:21","新北市五股區中興路三段163號","121.449028333333","25.08089","6501400","蘆洲區"
"227002","400-TW","2017/09/30 15:39:32","新北市雙溪區牡丹里頂坪5-1號","121.86309","25.0386866666667","6502500","雙溪區"
"208004","AAC-292","2017/09/30 15:39:36","新北市金山區環金路147號","121.634515","25.216935","6502700","金山區"
"236068","105-UM","2017/09/30 15:39:36","新北市土城區中央路二段346巷23號","121.439336666667","24.9723216666667","6501300","土城區"
"236041","107-UM","2017/09/30 15:39:38","新北市土城區學享街13號","121.4509","24.9874266666667","6501300","土城區"
"236075","166-UM","2017/09/30 15:39:34","新北市土城區中央路四段321巷46號","121.412563333333","24.951105","6501300","土城區"
"236029","253-BX","2017/09/30 15:39:41","新北市土城區學成路128巷9號","121.449393333333","24.9899133333333","6501300","土城區"
"236025","269-VK","2017/09/30 15:39:46","新北市土城區中央路一段267巷8號","121.445318333333","24.9850366666667","6501300","土城區"
"236013","270-VK","2017/09/30 15:39:46","新北市土城區廣明街90巷3號","121.455013333333","24.99443","6501300","土城區"
"236017","401-BY","2017/09/30 15:39:46","新北市土城區延吉街135號","121.470711666667","24.9861683333333","6501300","土城區"
"236057","912-UM","2017/09/30 15:39:36","新北市土城區中央路一段186-4號","121.445431666667","24.9861933333333","6501300","土城區"
"236045","913-UM","2017/09/30 15:39:30","新北市中和區連城路631-2號","121.475583333333","24.9913683333333","6501300","土城區"
"236054","AAC-216","2017/09/30 15:39:47","新北市土城區學府路一段18號","121.458965","24.9885316666667","6501300","土城區"
"221012","276-VK","2017/09/30 13:30:58","新北市汐止區汐萬路一段256巷3號","121.653381666667","25.0746933333333","6501100","汐止區"
"220012","280-UM","2017/09/30 15:39:29","新北市樹林區八德街367號","121.417108333333","24.9719766666667","6500100","板橋區"
"220043","283-UM","2017/09/30 15:39:31","新北市板橋區陽明街162號","121.46338","25.0242466666667","6500100","板橋區"
"220062","295-UM","2017/09/30 15:13:41","新北市板橋區民生路二段120號","121.470466666667","25.0196416666667","6500100","板橋區"
"220038","487-VK","2017/09/30 15:39:37","新北市板橋區四維路290-3號","121.462903333333","25.0291616666667","6500100","板橋區"
