"lineid","car","time","location","longitude","latitude","cityid","cityname"
"234012","149-BY","2017/09/30 14:39:39","新北市永和區福和路1號","121.526746666667","25.0099666666667","6500400","永和區"
"248020","225-UY","2017/09/30 15:43:48","新北市五股區中興路二段83巷26-6號","121.460125","25.0752233333333","6501500","五股區"
"231030","047-UY","2017/09/30 16:09:06","新北市新店區薏仁坑路自強巷6號","121.496646666667","24.9585266666667","6500600","新店區"
"231018","107-UY","2017/09/30 16:09:04","新北市新店區中正路700巷1號","121.533881666667","24.991205","6500600","新店區"
"231034","268-BY","2017/09/30 16:09:24","新北市新店區如意街34號","121.493465","24.9484016666667","6500600","新店區"
"231046","278-BY","2017/09/30 16:09:07","新北市新店區碧潭路54號","121.534496666667","24.9566916666667","6500600","新店區"
"231038","4715-K9","2017/09/30 16:09:05","新北市新店區安康路二段316號","121.505516666667","24.9581816666667","6500600","新店區"
"231035","515-UM","2017/09/30 16:09:18","新北市新店區安德街148巷31號","121.506005","24.960555","6500600","新店區"
"241011","013-R5","2017/09/30 16:09:19","新北市三重區正義北路351號","121.493251666667","25.0717","6500200","三重區"
"241028","022-UY","2017/09/30 16:09:21","新北市三重區正義南路107號","121.498211666667","25.0585966666667","6500200","三重區"
"241008","059-VK","2017/09/30 16:09:05","新北市三重區忠孝路三段4號","121.481866666667","25.0674683333333","6500200","三重區"
"241031","061-VK","2017/09/30 16:09:10","新北市三重區重新路四段121號","121.484286666667","25.0515216666667","6500200","三重區"
"241015","062-VK","2017/09/30 16:09:20","新北市三重區環河南路35號","121.503108333333","25.061115","6500200","三重區"
"241017","063-VK","2017/09/30 16:09:11","新北市三重區大同北路148巷49號","121.49084","25.064785","6500200","三重區"
"241024","065-VK","2017/09/30 16:09:12","新北市三重區中正北路145巷19號","121.485746666667","25.0682566666667","6500200","三重區"
"241026","066-VK","2017/09/30 16:09:11","新北市三重區正義南路38號","121.49818","25.0609566666667","6500200","三重區"
"241003","091-VK","2017/09/30 16:09:17","新北市三重區自強路五段124號","121.497151666667","25.0837083333333","6500200","三重區"
"241005","262-UM","2017/09/30 16:09:16","新北市三重區溪尾街300-2號","121.487481666667","25.0837183333333","6500200","三重區"
"241016","266-UM","2017/09/30 16:09:13","新北市三重區大仁街35號","121.492901666667","25.0653666666667","6500200","三重區"
"241022","267-UM","2017/09/30 16:09:12","新北市三重區中正北路70號","121.486398333333","25.0647","6500200","三重區"
"241018","268-UM","2017/09/30 16:09:19","新北市三重區明志街57號","121.491331666667","25.0639166666667","6500200","三重區"
"241013","270-UM","2017/09/30 16:09:11","新北市三重區文化北路248號","121.497311666667","25.06991","6500200","三重區"
"241025","271-UM","2017/09/30 16:09:14","新北市三重區中正北路208巷10弄4號","121.482416666667","25.0669","6500200","三重區"
"241007","398-BY","2017/09/30 16:09:20","新北市三重區慈愛街10號","121.48452","25.07846","6500200","三重區"
"241023","KEA-2210","2017/09/30 16:09:16","新北市三重區力行路一段56-1號","121.484581666667","25.068915","6500200","三重區"
"241020","413-TH","2017/09/30 16:09:03","新北市三重區大勇街7號","121.483585","25.07139","6500200","三重區"
"241004","475-VK","2017/09/30 16:09:09","新北市三重區進安街99-1號","121.495466666667","25.08541","6500200","三重區"
"241030","480-VK","2017/09/30 16:09:13","新北市三重區重新路四段121號","121.484523333333","25.05231","6500200","三重區"
"241001","547-UM","2017/09/30 16:09:21","新北市三重區自強路四段77號","121.490666666667","25.078885","6500200","三重區"
"241006","AAD-863","2017/09/30 16:09:09","新北市三重區永福街58巷3弄20號","121.480718333333","25.077365","6500200","三重區"
"241012","941-UM","2017/09/30 16:09:14","新北市三重區文化北路132巷41號","121.49758","25.066595","6500200","三重區"
"241029","942-UM","2017/09/30 16:09:08","新北市三重區同安街24號","121.49626","25.0568583333333","6500200","三重區"
"241033","AAC-255","2017/09/30 16:09:11","新北市三重區重新路五段326巷25-1號","121.477206666667","25.0460816666667","6500200","三重區"
"235022","151-BY","2017/09/30 16:09:08","新北市樹林區中山路三段210-2號","121.381408333333","24.96561","6500300","中和區"
"235062","800-TS","2017/09/30 15:57:41","新北市中和區員山路36巷16-3號","121.484915","24.9916033333333","6500300","中和區"
"220034","073-UY","2017/09/30 16:09:12","新北市樹林區柑園街一段26號","121.40591","24.9620483333333","6500100","板橋區"
"247001","335-TH","2017/09/30 10:56:21","新北市五股區中興路三段163號","121.449028333333","25.08089","6501400","蘆洲區"
"224008","275-VK","2017/09/30 16:09:18","新北市瑞芳區傑魚坑路90號","121.792421666667","25.1104783333333","6501200","瑞芳區"
"224007","273-VK","2017/09/30 16:09:05","新北市瑞芳區粗坑口路80號","121.761105","25.09916","6501200","瑞芳區"
"224005","271-BY","2017/09/30 16:09:10","新北市瑞芳區明燈路二段66號","121.809266666667","25.10783","6501200","瑞芳區"
"227010","642-TC","2017/09/30 16:09:21","新北市雙溪區三港里雙澳路69號","121.88085","25.053595","6502500","雙溪區"
"227002","400-TW","2017/09/30 16:09:12","新北市雙溪區上林里內平林27號","121.834105","25.0315383333333","6502500","雙溪區"
"251008","181-VK","2017/09/30 16:09:10","新北市淡水區真理街1號","121.43823","25.172915","6501000","淡水區"
"236029","253-BX","2017/09/30 16:09:18","新北市樹林區中山路三段210-2號","121.38115","24.96584","6501300","土城區"
"236057","912-UM","2017/09/30 16:09:16","新北市樹林區環河路600號","121.404658333333","24.9691183333333","6501300","土城區"
"221012","276-VK","2017/09/30 13:30:58","新北市汐止區汐萬路一段256巷3號","121.653381666667","25.0746933333333","6501100","汐止區"
"220062","295-UM","2017/09/30 15:13:41","新北市板橋區民生路二段120號","121.470466666667","25.0196416666667","6500100","板橋區"
