"lineid","car","time","location","longitude","latitude","cityid","cityname"
"234046","148-BY","2017/09/30 20:18:29","新北市永和區成功路二段75號","121.526795","24.9997483333333","6500400","永和區"
"234013","149-BY","2017/09/30 20:18:21","新北市永和區保生路5巷3號","121.506026666667","25.0070916666667","6500400","永和區"
"234007","208-UY","2017/09/30 20:18:21","新北市永和區仁愛路278號","121.50382","25.0082516666667","6500400","永和區"
"234081","298-R6","2017/09/30 20:18:31","新北市永和區福和路7巷10弄18號","121.524746666667","25.0076216666667","6500400","永和區"
"234038","336-UY","2017/09/30 20:18:25","新北市永和區成功路一段93巷23弄13號","121.528493333333","25.0034183333333","6500400","永和區"
"234064","337-UY","2017/09/30 20:18:33","新北市永和區得和路211號","121.51922","25.000355","6500400","永和區"
"234086","338-UY","2017/09/30 20:18:19","新北市永和區永和路二段81號","121.514756666667","25.011275","6500400","永和區"
"234070","552-UM","2017/09/30 20:18:19","新北市永和區永安街16巷1號","121.519136666667","25.0063033333333","6500400","永和區"
"234054","553-UM","2017/09/30 20:18:26","新北市永和區光復街2巷26弄1號","121.517636666667","25.0165666666667","6500400","永和區"
"234017","745-BX","2017/09/30 20:18:22","新北市永和區仁愛路24號","121.514703333333","25.0135533333333","6500400","永和區"
"234030","746-BX","2017/09/30 20:18:26","新北市永和區民有街71號","121.518051666667","24.9958033333333","6500400","永和區"
"234061","AAD-866","2017/09/30 20:18:20","新北市永和區安樂路100巷21弄17號","121.514888333333","24.999045","6500400","永和區"
"234042","862-TW","2017/09/30 20:18:31","新北市永和區中和路463號","121.509933333333","25.0017183333333","6500400","永和區"
"234050","863-TW","2017/09/30 20:18:14","新北市永和區文化路230號","121.509826666667","25.0169433333333","6500400","永和區"
"234011","9373-KE","2017/09/30 20:18:27","新北市永和區仁愛路352巷122弄11號","121.500681666667","25.00883","6500400","永和區"
"249005","172-UM","2017/09/30 20:18:22","新北市八里區下罟子8-1號","121.38551","25.1397533333333","6502300","八里區"
"249001","173-UM","2017/09/30 20:18:27","新北市八里區中華路二段536-4號","121.3991","25.14505","6502300","八里區"
"249004","303-UY","2017/09/30 20:07:48","新北市八里區中山路一段217巷76號","121.411996666667","25.1576333333333","6502300","八里區"
"249002","305-UY","2017/09/30 20:18:24","新北市八里區龍米路二段32巷11號","121.448986666667","25.140345","6502300","八里區"
"249003","593-UM","2017/09/30 20:18:14","新北市八里區中山路二段447巷23號","121.39744","25.1453","6502300","八里區"
"248016","026-BX","2017/09/30 20:18:16","新北市五股區凌雲路一段158巷39弄12號","121.446516666667","25.1040966666667","6501500","五股區"
"248012","247-BX","2017/09/30 20:18:20","新北市五股區五福路23巷8號","121.43334","25.0887933333333","6501500","五股區"
"248014","261-SL","2017/09/30 20:18:16","新北市五股區新城三路61號","121.449203333333","25.0936866666667","6501500","五股區"
"248010","272-BY","2017/09/30 20:18:17","新北市泰山區新五路一段91號","121.440891666667","25.0609433333333","6501500","五股區"
"248004","677-BX","2017/09/30 20:18:30","新北市五股區成泰路二段88號","121.437518333333","25.0825716666667","6501500","五股區"
"248002","678-BX","2017/09/30 20:18:26","新北市五股區成泰路三段169號","121.445231666667","25.0918983333333","6501500","五股區"
"234023","9380-KE","2017/09/30 20:18:27","新北市永和區復興街2巷2號","121.51569","25.01257","6500400","永和區"
"234077","969-R7","2017/09/30 20:18:17","新北市永和區民享街19號","121.515546666667","24.9951016666667","6500400","永和區"
"234074","AAC-211","2017/09/30 20:18:19","新北市永和區竹林路201巷22弄9號","121.52247","25.00938","6500400","永和區"
"234067","AAC-212","2017/09/30 20:18:28","新北市永和區保平路214巷3弄9號","121.508916666667","25.005975","6500400","永和區"
"234003","AAC-295","2017/09/30 20:18:30","新北市永和區自強街17號","121.514775","25.0081533333333","6500400","永和區"
"243013","AAD-798","2017/09/30 20:18:14","新北市泰山區新民路14巷1號","121.426686666667","25.0446316666667","6501600","泰山區"
"243009","297-R6","2017/09/30 20:18:18","新北市泰山區福泰街7號","121.43261","25.060325","6501600","泰山區"
"243015","380-SR","2017/09/30 20:18:19","新北市泰山區明志路一段195號","121.432683333333","25.0615066666667","6501600","泰山區"
"243014","421-VK","2017/09/30 20:18:19","新北市泰山區泰林路二段395號","121.427156666667","25.0643","6501600","泰山區"
"243010","KEA-2215","2017/09/30 20:18:31","新北市泰山區明志路二段254巷12號","121.426233333333","25.047785","6501600","泰山區"
"243011","KEA-2216","2017/09/30 20:18:20","新北市泰山區新北大道六段385號","121.42177","25.0324616666667","6501600","泰山區"
"243012","646-TV","2017/09/30 20:18:09","新北市泰山區楓江路127-3號","121.439151666667","25.0645983333333","6501600","泰山區"
"243016","680-BX","2017/09/30 20:18:17","新北市泰山區明志路三段393號","121.421405","25.03432","6501600","泰山區"
"222003","436-BY","2017/09/30 20:18:24","新北市深坑區埔新街100號","121.618663333333","25.0022583333333","6501800","深坑區"
"222001","628-TS","2017/09/30 20:18:14","新北市深坑區北深路三段223號","121.600306666667","25.004145","6501800","深坑區"
"222002","659-BX","2017/09/30 20:18:31","新北市深坑區萬福路69-1號","121.601185","25.0079883333333","6501800","深坑區"
"231041","002-UM","2017/09/30 20:18:13","新北市新店區民權路38號","121.540641666667","24.9830083333333","6500600","新店區"
"231059","046-UY","2017/09/30 20:18:23","新北市新店區安德街120巷16號","121.508485","24.9609716666667","6500600","新店區"
"231061","047-UY","2017/09/30 20:18:17","新北市新店區安民街365巷10弄3號","121.515548333333","24.9755916666667","6500600","新店區"
"231060","106-UY","2017/09/30 20:18:27","新北市新店區錦秀路1-3號","121.479053333333","24.945425","6500600","新店區"
"231051","107-UY","2017/09/30 20:18:26","新北市新店區中央六街30號","121.529175","24.9750516666667","6500600","新店區"
"231048","108-UY","2017/09/30 20:18:19","新北市新店區寶橋路98號","121.547068333333","24.9759966666667","6500600","新店區"
"231052","187-VK","2017/09/30 20:18:24","新北市新店區松林路6-6號","121.546636666667","24.9110666666667","6500600","新店區"
"231050","215-TC","2017/09/30 20:18:26","新北市新店區北宜路一段250號","121.545325","24.9530066666667","6500600","新店區"
"231057","256-BX","2017/09/30 20:18:31","新北市新店區花園五路一段24號","121.552343333333","24.9341066666667","6500600","新店區"
"231063","268-BY","2017/09/30 20:18:17","新北市新店區車子路3號","121.504588333333","24.9559116666667","6500600","新店區"
"231054","AAD-862","2017/09/30 20:18:22","新北市新店區檳榔路109號","121.544408333333","24.9616483333333","6500600","新店區"
"231058","3712-VJ","2017/09/30 20:18:27","新北市新店區安德街148巷31號","121.505746666667","24.96028","6500600","新店區"
"231055","3713-VJ","2017/09/30 20:18:20","新北市新店區新明街24號","121.540878333333","24.9685416666667","6500600","新店區"
"231056","4716-K9","2017/09/30 20:18:13","新北市新店區中正路275巷35號","121.536766666667","24.9728533333333","6500600","新店區"
"231067","4772-VM","2017/09/30 20:18:22","新北市新店區溪洲路8巷8號","121.533498333333","24.9616983333333","6500600","新店區"
"231065","512-UM","2017/09/30 20:18:24","新北市新店區安祥路106巷28號","121.477651666667","24.96216","6500600","新店區"
"231064","515-UM","2017/09/30 20:18:17","新北市新店區安樂街16號","121.52082","24.973305","6500600","新店區"
"231045","617-UM","2017/09/30 20:18:26","新北市新店區新坡一街86號","121.54825","24.9620116666667","6500600","新店區"
"231040","619-UM","2017/09/30 20:18:13","新北市新店區中正路181號","121.540761666667","24.9721933333333","6500600","新店區"
"231042","641-BX","2017/09/30 20:18:14","新北市新店區寶橋路78巷19號","121.547465","24.9748","6500600","新店區"
"231068","718-UY","2017/09/30 20:18:26","新北市新店區寶安街18號","121.542133333333","24.9819","6500600","新店區"
"231049","719-UM","2017/09/30 20:18:33","新北市新店區北新路二段20號","121.542771666667","24.9714233333333","6500600","新店區"
"231062","720-UM","2017/09/30 20:18:24","新北市新店區安康路二段397巷2-1號","121.494781666667","24.953475","6500600","新店區"
"231044","897-TW","2017/09/30 20:18:12","新北市新店區順安街8號","121.541153333333","24.9849383333333","6500600","新店區"
"231043","899-TW","2017/09/30 20:18:20","新北市新店區民族路106號","121.538958333333","24.9779433333333","6500600","新店區"
"231066","AKT-0513","2017/09/30 20:18:19","新北市新店區安興路105-1號","121.514615","24.977725","6500600","新店區"
"241011","013-R5","2017/09/30 20:18:22","新北市三重區龍門路189號","121.499506666667","25.073305","6500200","三重區"
"241028","022-UY","2017/09/30 20:18:17","新北市三重區大同南路140號","121.496511666667","25.0580416666667","6500200","三重區"
"241008","059-VK","2017/09/30 20:18:25","新北市三重區永福街211巷11號","121.479541666667","25.074165","6500200","三重區"
"241009","060-VK","2017/09/30 20:18:13","新北市三重區三和路四段382巷48號","121.48085","25.0783916666667","6500200","三重區"
"241031","061-VK","2017/09/30 20:18:30","新北市三重區三寧街22號","121.489556666667","25.059895","6500200","三重區"
"241015","062-VK","2017/09/30 20:18:24","新北市三重區重新路一段108號","121.500903333333","25.06333","6500200","三重區"
"241017","063-VK","2017/09/30 20:18:10","新北市三重區自強路一段193號","121.491841666667","25.06817","6500200","三重區"
"241024","065-VK","2017/09/30 20:18:12","新北市三重區中正北路238號","121.48181","25.06794","6500200","三重區"
"241026","066-VK","2017/09/30 20:18:14","新北市三重區重新路一段12號","121.503926666667","25.0639183333333","6500200","三重區"
"241002","090-VK","2017/09/30 20:18:22","新北市三重區仁義街101巷52號","121.499531666667","25.0813833333333","6500200","三重區"
"241003","091-VK","2017/09/30 20:18:14","新北市三重區富華街84-1號","121.490856666667","25.083385","6500200","三重區"
"241005","262-UM","2017/09/30 20:18:16","新北市三重區分子尾街81號","121.489091666667","25.082485","6500200","三重區"
"241016","266-UM","2017/09/30 20:18:13","新北市三重區大同北路97-3號","121.494361666667","25.063645","6500200","三重區"
"241022","267-UM","2017/09/30 20:18:23","新北市三重區中正北路2號","121.489228333333","25.0631366666667","6500200","三重區"
"241018","268-UM","2017/09/30 20:18:19","新北市三重區雙園街107號","121.4936","25.06727","6500200","三重區"
"241013","270-UM","2017/09/30 20:18:22","新北市三重區三和路三段151巷9號","121.492465","25.0739016666667","6500200","三重區"
"241025","271-UM","2017/09/30 20:18:24","新北市三重區三民街274號","121.478766666667","25.0679816666667","6500200","三重區"
"241007","398-BY","2017/09/30 20:18:20","新北市三重區仁美街55號","121.48703","25.0781166666667","6500200","三重區"
"241023","KEA-2210","2017/09/30 20:18:14","新北市三重區大有街1-1號","121.47768","25.065385","6500200","三重區"
"241020","413-TH","2017/09/30 20:18:29","新北市三重區三和路四段15號","121.491278333333","25.074175","6500200","三重區"
"241035","462-BY","2017/09/30 20:18:17","新北市三重區文化北路20號","121.499151666667","25.0640016666667","6500200","三重區"
"241004","475-VK","2017/09/30 20:18:29","新北市三重區自強路四段112號","121.491611666667","25.0799966666667","6500200","三重區"
"241019","478-VK","2017/09/30 20:18:26","新北市三重區大智街188號","121.48955","25.070545","6500200","三重區"
"241030","480-VK","2017/09/30 20:18:12","新北市三重區環河南路254巷55號","121.487958333333","25.052335","6500200","三重區"
"241014","543-UM","2017/09/30 20:18:17","新北市三重區長榮路97號","121.503011666667","25.0691933333333","6500200","三重區"
"241001","547-UM","2017/09/30 20:18:27","新北市三重區自強路四段3巷50號","121.490405","25.0767033333333","6500200","三重區"
"241012","941-UM","2017/09/30 20:18:14","新北市三重區河邊北街379-1號","121.50169","25.0765183333333","6500200","三重區"
"241029","942-UM","2017/09/30 20:18:32","新北市三重區中正南路129巷2號","121.493636666667","25.0569366666667","6500200","三重區"
"241033","AAC-255","2017/09/30 20:18:29","新北市三重區五谷王北街77號","121.475698333333","25.0503066666667","6500200","三重區"
"235066","003-UY","2017/09/30 20:18:27","新北市中和區光華街59-1號","121.506311666667","25.0033433333333","6500300","中和區"
"235039","097-UM","2017/09/30 20:18:25","新北市中和區大勇街25巷12號","121.516833333333","24.9934216666667","6500300","中和區"
"235065","098-UM","2017/09/30 20:18:31","新北市中和區永和路69-4號","121.496388333333","25.0059283333333","6500300","中和區"
"235040","150-BY","2017/09/30 20:18:23","新北市中和區保健路26巷21號","121.508698333333","24.99712","6500300","中和區"
"235058","151-BY","2017/09/30 20:18:15","新北市五股區中興路三段5號","121.449343333333","25.07977","6500300","中和區"
"235049","186-VK","2017/09/30 20:18:26","新北市中和區景平路546號","121.502375","24.9947216666667","6500300","中和區"
"235067","255-BX","2017/09/30 20:18:14","新北市三重區重新路5段221巷6弄11-1號","121.47931","25.0503533333333","6500300","中和區"
"235072","301-VK","2017/09/30 20:18:31","新北市新店區安平路30號","121.523933333333","24.968365","6500300","中和區"
"235068","375-QA","2017/09/30 20:18:27","新北市中和區勝利路35巷1弄7號","121.499245","25.0075466666667","6500300","中和區"
"235050","4979-A6","2017/09/30 20:18:13","新北市中和區景平路404號","121.509015","24.9932866666667","6500300","中和區"
"235069","4980-A6","2017/09/30 20:18:32","新北市中和區連城路265巷14弄9號","121.491348333333","24.994585","6500300","中和區"
"235042","551-UM","2017/09/30 20:18:31","新北市新店區安康路二段320巷15弄18號","121.502391666667","24.9591333333333","6500300","中和區"
"235070","558-UM","2017/09/30 20:16:36","新北市中和區中正路218-7號","121.496495","24.9941916666667","6500300","中和區"
"235062","800-TS","2017/09/30 20:18:05","新北市中和區中正路788號","121.485363333333","25.0010333333333","6500300","中和區"
"235037","AAC-213","2017/09/30 20:18:29","新北市中和區景平路156號","121.517648333333","24.9920533333333","6500300","中和區"
"235059","AAC-215","2017/09/30 20:18:24","新北市中和區圓通路391-4號","121.489788333333","24.9893083333333","6500300","中和區"
"220065","072-UY","2017/09/30 20:18:22","新北市板橋區三民路一段1巷51弄9號","121.480935","25.025445","6500100","板橋區"
"220069","AAD-861","2017/09/30 20:18:14","新北市板橋區貴興路109號","121.455886666667","25.0026133333333","6500100","板橋區"
"247022","893-R6","2017/09/30 20:18:12","新北市蘆洲區民族路451號","121.467333333333","25.0886633333333","6501400","蘆洲區"
"247012","546-UM","2017/09/30 20:18:11","新北市蘆洲區中興街15巷17號","121.480128333333","25.087665","6501400","蘆洲區"
"247020","500-BY","2017/09/30 20:18:20","新北市蘆洲區仁愛街59號","121.471865","25.0933633333333","6501400","蘆洲區"
"247010","339-TH","2017/09/30 20:18:14","新北市蘆洲區信義路188巷13號","121.479798333333","25.084575","6501400","蘆洲區"
"247002","337-TH","2017/09/30 20:18:20","新北市蘆洲區長安街313巷42-1號","121.455796666667","25.0861983333333","6501400","蘆洲區"
"247004","336-TH","2017/09/30 20:18:22","新北市蘆洲區長安街220巷10號","121.458745","25.08483","6501400","蘆洲區"
"247001","335-TH","2017/09/30 10:56:21","新北市五股區中興路三段163號","121.449028333333","25.08089","6501400","蘆洲區"
"247016","057-VK","2017/09/30 20:18:19","新北市蘆洲區光華路186巷29號","121.464681666667","25.0831266666667","6501400","蘆洲區"
"247006","056-VK","2017/09/30 20:18:15","新北市蘆洲區九芎街136號","121.464968333333","25.0791033333333","6501400","蘆洲區"
"247008","053-VK","2017/09/30 20:18:23","新北市蘆洲區集賢路300號","121.481605","25.0851383333333","6501400","蘆洲區"
"247014","007-UY","2017/09/30 20:18:14","新北市蘆洲區中山二路137巷22號","121.472236666667","25.0809466666667","6501400","蘆洲區"
"247024","002-UY","2017/09/30 20:18:31","新北市蘆洲區光榮路120巷8弄39號","121.4646","25.0879433333333","6501400","蘆洲區"
"247018","001-UY","2017/09/30 20:18:25","新北市蘆洲區民族路408巷7號","121.474791666667","25.0919583333333","6501400","蘆洲區"
"208003","665-BX","2017/09/30 20:18:12","新北市金山區海興路35-1號","121.629511666667","25.2367366666667","6502700","金山區"
"251001","011-UM","2017/09/30 20:18:23","新北市淡水區新市二路四段265號","121.445711666667","25.1924966666667","6501000","淡水區"
"251014","180-VK","2017/09/30 20:18:19","新北市淡水區石頭厝1號","121.458738333333","25.2355516666667","6501000","淡水區"
"251008","181-VK","2017/09/30 20:18:29","新北市淡水區淡海路180巷37號","121.422261666667","25.1845083333333","6501000","淡水區"
"251010","413-VK","2017/09/30 20:18:20","新北市淡水區新民街一段155號","121.427466666667","25.1889","6501000","淡水區"
"251012","441-VK","2017/09/30 20:18:28","新北市淡水區淡金路三段419號","121.449258333333","25.2093183333333","6501000","淡水區"
"251016","442-VK","2017/09/30 20:18:32","新北市淡水區淡金路五段20號","121.45342","25.23243","6501000","淡水區"
"251006","561-UM","2017/09/30 20:18:29","新北市淡水區北新路175號","121.45065","25.1794816666667","6501000","淡水區"
"251009","575-R6","2017/09/30 20:18:14","新北市淡水區清水街244號","121.440331666667","25.1720533333333","6501000","淡水區"
"251011","650-BX","2017/09/30 20:18:10","新北市淡水區下圭柔山90-8號","121.431338333333","25.210215","6501000","淡水區"
"251002","672-BX","2017/09/30 20:18:22","新北市淡水區中正路230號","121.4391","25.1706416666667","6501000","淡水區"
"251003","673-BX","2017/09/30 20:18:33","新北市淡水區中山北路一段229號","121.44448","25.1795016666667","6501000","淡水區"
"207004","225-TW","2017/09/30 20:18:14","新北市萬里區北基里仁四街2號","121.682111666667","25.1754166666667","6502800","萬里區"
"252002","178-VK","2017/09/30 20:18:26","新北市三芝區中正路一段18巷6號","121.503296666667","25.2590216666667","6502100","三芝區"
"252001","292-VK","2017/09/30 20:18:16","新北市三芝區中山路一段35號","121.50066","25.25801","6502100","三芝區"
"237007","153-BY","2017/09/30 20:18:15","新北市三峽區二鬮路136巷41號","121.358226666667","24.9087183333333","6500900","三峽區"
"237012","275-BY","2017/09/30 20:18:27","新北市三峽區中華路33號","121.372805","24.93128","6500900","三峽區"
"237006","5529-G3","2017/09/30 20:18:23","新北市三峽區嘉添227-24號","121.370071666667","24.9114933333333","6500900","三峽區"
"236073","105-UM","2017/09/30 20:18:30","新北市土城區中山路34號","121.424931666667","24.9639233333333","6501300","土城區"
"236043","107-UM","2017/09/30 20:18:23","新北市土城區學享街10號","121.451193333333","24.98746","6501300","土城區"
"236079","166-UM","2017/09/30 20:18:13","新北市土城區德安街20-1號","121.421491666667","24.9644466666667","6501300","土城區"
"236031","253-BX","2017/09/30 20:18:31","新北市土城區學成路128巷11號","121.449538333333","24.9900716666667","6501300","土城區"
"236027","269-VK","2017/09/30 20:18:15","新北市土城區裕生路71號","121.447146666667","24.9848","6501300","土城區"
"236015","270-VK","2017/09/30 20:18:29","新北市土城區廣明街90巷25號","121.455541666667","24.99458","6501300","土城區"
"236038","271-VK","2017/09/30 20:18:17","新北市土城區明德路一段103號","121.465621666667","24.98265","6501300","土城區"
"236023","401-BY","2017/09/30 20:18:14","新北市土城區和城路二段255巷140號","121.47618","24.98804","6501300","土城區"
"236059","912-UM","2017/09/30 20:18:11","新北市土城區中央路二段241號","121.440131666667","24.9717766666667","6501300","土城區"
"236049","913-UM","2017/09/30 20:18:18","新北市土城區清水路89號","121.456331666667","24.9817766666667","6501300","土城區"
"236055","AAC-216","2017/09/30 20:18:26","新北市土城區慶祥街14號","121.437806666667","24.9754983333333","6501300","土城區"
"242031","AAC-296","2017/09/30 20:18:27","新北市新莊區中正路362號","121.443335","25.03421","6500500","新莊區"
"242029","986-R7","2017/09/30 20:18:16","新北市新莊區中榮街152巷34號","121.44598","25.0535183333333","6500500","新莊區"
"242051","751-BX","2017/09/30 20:18:28","新北市新莊區民安西路212巷2弄3號","121.42552","25.014985","6500500","新莊區"
"242025","615-BX","2017/09/30 20:18:32","新北市新莊區五工二路70巷1號","121.460285","25.0659183333333","6500500","新莊區"
"242023","613-BX","2017/09/30 20:18:20","新北市新莊區化成路429號","121.46489","25.0596583333333","6500500","新莊區"
"242027","612-BX","2017/09/30 20:18:20","新北市新莊區幸福路604號","121.452013333333","25.0493733333333","6500500","新莊區"
"242039","566-BX","2017/09/30 20:18:22","新北市新莊區龍安路441號","121.424438333333","25.0185416666667","6500500","新莊區"
"242044","497-BY","2017/09/30 20:18:25","新北市新莊區中正路895-6號","121.412688333333","25.0216033333333","6500500","新莊區"
"242048","441-UM","2017/09/30 20:18:29","新北市新莊區四維路186巷9號","121.42154","25.02122","6500500","新莊區"
"242053","440-UM","2017/09/30 20:18:16","新北市新莊區民安西路261巷18號","121.426865","25.0129883333333","6500500","新莊區"
"242034","415-TV","2017/09/30 20:18:27","新北市新莊區建中街90巷3弄2號","121.44684","25.0373133333333","6500500","新莊區"
"242004","413-TV","2017/09/30 20:18:27","新北市新莊區頭前路15巷1號","121.468033333333","25.05205","6500500","新莊區"
"242042","400-BY","2017/09/30 20:18:12","新北市新莊區天祥街54巷1弄2號","121.416696666667","25.02931","6500500","新莊區"
"242061","362-BY","2017/09/30 20:17:09","新北市新莊區瓊林路59-38號","121.441096666667","25.0234483333333","6500500","新莊區"
"242058","353-BY","2017/09/30 20:18:14","新北市新莊區八德街160號","121.423525","25.0197933333333","6500500","新莊區"
"242007","132-UY","2017/09/30 20:18:17","新北市新莊區福壽街136巷38號","121.459238333333","25.051565","6500500","新莊區"
"242036","133-UY","2017/09/30 20:18:24","新北市新莊區建安街44號","121.427563333333","25.024855","6500500","新莊區"
"242021","135-UY","2017/09/30 20:18:13","新北市新莊區新泰路207號","121.446848333333","25.0384916666667","6500500","新莊區"
"242046","172-VK","2017/09/30 20:18:22","新北市新莊區中正路新生巷62號","121.41739","25.0228616666667","6500500","新莊區"
"242009","173-VK","2017/09/30 20:18:28","新北市新莊區昌平街1號","121.455","25.0512416666667","6500500","新莊區"
"242015","175-VK","2017/09/30 20:18:27","新北市新莊區永樂街218號","121.446773333333","25.044395","6500500","新莊區"
"242002","176-VK","2017/09/30 20:18:31","新北市新莊區中正路48-2號","121.463935","25.041005","6500500","新莊區"
"242013","346-TH","2017/09/30 20:18:29","新北市新莊區中和街186巷6弄3號","121.448106666667","25.04955","6500500","新莊區"
"242019","348-TH","2017/09/30 20:18:18","新北市新莊區博愛路8巷2號","121.456166666667","25.0439216666667","6500500","新莊區"
"242056","349-TH","2017/09/30 20:18:19","新北市新莊區豐年街52號","121.446333333333","25.031845","6500500","新莊區"
"242017","350-TH","2017/09/30 20:18:22","新北市新莊區中港一街94號","121.449218333333","25.0453383333333","6500500","新莊區"
"242011","351-TH","2017/09/30 20:18:24","新北市新莊區中信街37巷4弄2號","121.450315","25.0503283333333","6500500","新莊區"
"238021","KEA-2217","2017/09/30 20:18:30","新北市樹林區田尾街242號","121.397883333333","24.948815","6500700","樹林區"
"239006","891-R6","2017/09/30 20:18:16","新北市鶯歌區二甲路12-2號","121.3458","24.9349066666667","6500800","鶯歌區"
"221008","489-VK","2017/09/30 20:18:23","新北市汐止區康寧街273號","121.62554","25.067085","6501100","汐止區"
"221036","130-UY","2017/09/30 20:18:29","新北市汐止區新台五路二段39號","121.663145","25.0663283333333","6501100","汐止區"
"221015","131-UY","2017/09/30 20:18:17","新北市汐止區建成路142巷21號","121.662291666667","25.0739333333333","6501100","汐止區"
"221010","269-BY","2017/09/30 20:18:18","新北市汐止區八連路一段530巷4號","121.639688333333","25.0921666666667","6501100","汐止區"
"221012","276-VK","2017/09/30 13:30:58","新北市汐止區汐萬路一段256巷3號","121.653381666667","25.0746933333333","6501100","汐止區"
"221012","278-VK","2017/09/30 20:18:18","新北市汐止區保新街283號","121.692583333333","25.0684616666667","6501100","汐止區"
"221023","279-VK","2017/09/30 20:18:24","新北市汐止區明峰街179-1號","121.628566666667","25.0699966666667","6501100","汐止區"
"221032","280-BY","2017/09/30 20:18:18","新北市汐止區弘道街53巷2號","121.618691666667","25.04844","6501100","汐止區"
"221027","281-BY","2017/09/30 20:18:26","新北市汐止區大同路二段521號","121.661605","25.0689283333333","6501100","汐止區"
"221038","297-VK","2017/09/30 20:18:24","新北市汐止區橋東街5巷3號","121.667083333333","25.0759866666667","6501100","汐止區"
"221029","298-VK","2017/09/30 20:18:12","新北市汐止區樟樹一路99巷7弄1號","121.641163333333","25.0636966666667","6501100","汐止區"
"221021","299-VK","2017/09/30 20:18:25","新北市汐止區莊敬街130-2號","121.654485","25.0609466666667","6501100","汐止區"
"221031","353-TW","2017/09/30 20:18:23","新北市汐止區原興路60巷8-1號","121.633171666667","25.0658","6501100","汐止區"
"221035","622-UM","2017/09/30 20:18:29","新北市汐止區長江街79巷16號","121.65796","25.0729216666667","6501100","汐止區"
"221025","623-UM","2017/09/30 20:18:32","新北市汐止區水源路二段60號","121.655461666667","25.05666","6501100","汐止區"
"221033","647-BX","2017/09/30 20:18:10","新北市汐止區東勢街201巷104號","121.633521666667","25.0429233333333","6501100","汐止區"
"221002","707-TV","2017/09/30 20:18:22","新北市汐止區福德二路21-1號","121.635241666667","25.0682366666667","6501100","汐止區"
"221018","753-BX","2017/09/30 20:18:24","新北市汐止區茄興街12號","121.673453333333","25.06727","6501100","汐止區"
"220080","200-UY","2017/09/30 20:18:27","新北市板橋區大觀路二段153巷44弄53號","121.446031666667","24.9990566666667","6500100","板橋區"
"220101","245-BX","2017/09/30 20:18:19","新北市板橋區雙十路二段47巷4弄33號","121.47497","25.0267783333333","6500100","板橋區"
"220064","280-UM","2017/09/30 20:18:24","新北市板橋區長安街331巷104-3號","121.471758333333","25.0126933333333","6500100","板橋區"
"220083","286-VK","2017/09/30 20:18:18","新北市板橋區僑中二街48巷16號","121.445693333333","25.0104066666667","6500100","板橋區"
"220081","287-VK","2017/09/30 20:18:17","新北市板橋區僑中一街124巷20弄46號","121.448088333333","25.013845","6500100","板橋區"
"220061","293-UM","2017/09/30 20:18:20","新北市板橋區中山路一段161號","121.465528333333","25.011935","6500100","板橋區"
"220062","295-UM","2017/09/30 20:18:22","新北市板橋區中山路二段113-1號","121.474663333333","25.016155","6500100","板橋區"
"220075","297-UM","2017/09/30 20:18:27","新北市板橋區金華街10巷99號","121.458785","25.0205416666667","6500100","板橋區"
"220092","307-R5","2017/09/30 20:18:21","新北市板橋區文化路一段45巷8號","121.460095","25.013585","6500100","板橋區"
"220089","487-VK","2017/09/30 20:18:12","新北市板橋區互助街8號","121.46313","25.0277233333333","6500100","板橋區"
"220088","491-VK","2017/09/30 20:18:19","新北市板橋區民治街92號","121.479208333333","25.0317433333333","6500100","板橋區"
"220103","561-BX","2017/09/30 20:18:27","新北市板橋區文德路3號","121.46284","25.0244066666667","6500100","板橋區"
"220093","689-BX","2017/09/30 20:18:26","新北市板橋區中正路601號","121.457108333333","25.0295266666667","6500100","板橋區"
"220055","827-TW","2017/09/30 20:18:14","新北市板橋區重慶路290巷9號","121.461181666667","24.99869","6500100","板橋區"
"220102","830-TW","2017/09/30 20:18:23","新北市板橋區文化路一段305號","121.465198333333","25.0193083333333","6500100","板橋區"
"220074","895-R6","2017/09/30 20:18:17","新北市板橋區中山路一段19號","121.459498333333","25.0085816666667","6500100","板橋區"
"220073","985-R7","2017/09/30 20:18:29","新北市板橋區南雅西路二段83號","121.452691666667","25.010295","6500100","板橋區"
"220097","AAC-210","2017/09/30 20:18:15","新北市板橋區光正街9巷11號","121.462718333333","25.0165383333333","6500100","板橋區"
"220070","AAC-253","2017/09/30 20:18:26","新北市板橋區四川路二段245巷49號","121.452078333333","24.9924916666667","6500100","板橋區"
