"lineid","car","time","location","longitude","latitude","cityid","cityname"
"234046","148-BY","2017/09/30 20:28:26","新北市永和區永元路122號","121.522771666667","25.0027266666667","6500400","永和區"
"234013","149-BY","2017/09/30 20:28:21","新北市永和區仁愛路282巷16號","121.503155","25.0088516666667","6500400","永和區"
"234007","208-UY","2017/09/30 20:28:21","新北市永和區環河西路二段229巷5號","121.501428333333","25.0098583333333","6500400","永和區"
"234081","298-R6","2017/09/30 20:28:31","新北市永和區永貞路19號","121.520965","25.0072016666667","6500400","永和區"
"234038","336-UY","2017/09/30 20:28:25","新北市永和區成功路一段46號","121.526873333333","25.0041866666667","6500400","永和區"
"234064","337-UY","2017/09/30 20:28:13","新北市永和區中正路385號","121.517281666667","25.0039583333333","6500400","永和區"
"234086","338-UY","2017/09/30 20:28:19","新北市永和區光復街21號","121.516478333333","25.0173783333333","6500400","永和區"
"234070","552-UM","2017/09/30 20:28:19","新北市永和區永寧街16號","121.520255","25.0068883333333","6500400","永和區"
"234054","553-UM","2017/09/30 20:28:27","新北市永和區環河東路一段42號","121.51859","25.0171766666667","6500400","永和區"
"234017","745-BX","2017/09/30 20:28:22","新北市永和區仁愛路87號","121.513093333333","25.0131383333333","6500400","永和區"
"234030","746-BX","2017/09/30 20:28:14","新北市永和區民族街81巷62號","121.52017","24.9965466666667","6500400","永和區"
"234061","AAD-866","2017/09/30 20:28:20","新北市永和區得和路57號","121.51712","25.000215","6500400","永和區"
"234042","862-TW","2017/09/30 20:28:11","新北市永和區安樂路242-12號","121.514846666667","25.0030516666667","6500400","永和區"
"234050","863-TW","2017/09/30 20:28:03","新北市永和區新生路179號","121.506913333333","25.0144733333333","6500400","永和區"
"249005","172-UM","2017/09/30 20:28:23","新北市八里區中山路三段309號","121.379815","25.13815","6502300","八里區"
"249001","173-UM","2017/09/30 20:28:27","新北市八里區商港路48號","121.394586666667","25.1445383333333","6502300","八里區"
"249004","303-UY","2017/09/30 20:28:28","新北市八里區中山路一段129巷27號","121.413988333333","25.1585633333333","6502300","八里區"
"249002","305-UY","2017/09/30 20:28:24","新北市八里區龍米路二段125巷2號","121.446403333333","25.1450383333333","6502300","八里區"
"249003","593-UM","2017/09/30 20:28:26","新北市八里區華峰一街30號","121.398921666667","25.146535","6502300","八里區"
"248004","677-BX","2017/09/30 20:28:14","新北市五股區中興路二段182巷5號","121.456798333333","25.0786533333333","6501500","五股區"
"248002","678-BX","2017/09/30 20:28:26","新北市五股區成泰路三段83號","121.444193333333","25.0898883333333","6501500","五股區"
"234023","9380-KE","2017/09/30 20:28:28","新北市永和區永和路二段276巷1號","121.51628","25.0153783333333","6500400","永和區"
"234074","AAC-211","2017/09/30 20:28:19","新北市永和區環河東路二段92號","121.524166666667","25.010455","6500400","永和區"
"234067","AAC-212","2017/09/30 20:28:18","新北市永和區中山路一段281巷2弄3號","121.507265","25.0064866666667","6500400","永和區"
"234003","AAC-295","2017/09/30 20:28:30","新北市永和區中正路620號","121.517025","25.0078466666667","6500400","永和區"
"243013","AAD-798","2017/09/30 20:28:14","新北市泰山區貴子路9巷6號","121.42552","25.0422266666667","6501600","泰山區"
"243009","297-R6","2017/09/30 20:28:18","新北市泰山區忠孝街40巷7號","121.428436666667","25.0651933333333","6501600","泰山區"
"243015","380-SR","2017/09/30 20:28:18","新北市泰山區仁德路126號","121.43246","25.05609","6501600","泰山區"
"243014","421-VK","2017/09/30 20:28:19","新北市泰山區泰林路二段2-9號","121.41984","25.0650566666667","6501600","泰山區"
"243010","KEA-2215","2017/09/30 20:28:11","新北市泰山區新生路31巷7號","121.427653333333","25.045925","6501600","泰山區"
"243011","KEA-2216","2017/09/30 20:28:20","新北市泰山區貴子路9-1號","121.42546","25.0420583333333","6501600","泰山區"
"243012","646-TV","2017/09/30 20:28:29","新北市泰山區泰林路二段385巷1號","121.427601666667","25.0642283333333","6501600","泰山區"
"243016","680-BX","2017/09/30 20:28:22","新北市泰山區明志路二段368號","121.425568333333","25.0448833333333","6501600","泰山區"
"222003","436-BY","2017/09/30 20:28:24","新北市深坑區北深路二段125號","121.615856666667","25.0024033333333","6501800","深坑區"
"222001","628-TS","2017/09/30 20:28:14","新北市深坑區北深路三段345號","121.597201666667","25.0050816666667","6501800","深坑區"
"222002","659-BX","2017/09/30 20:27:31","新北市深坑區萬福路16巷35號","121.60885","25.0089733333333","6501800","深坑區"
"231041","002-UM","2017/09/30 20:28:13","新北市新店區中正路522號","121.533735","24.9838016666667","6500600","新店區"
"231059","046-UY","2017/09/30 20:28:23","新北市新店區安豐路46號","121.500106666667","24.955005","6500600","新店區"
"231061","047-UY","2017/09/30 20:28:17","新北市新店區新和街39號","121.519315","24.9849933333333","6500600","新店區"
"231060","106-UY","2017/09/30 20:28:27","新北市新店區錦秀路11巷96弄21號","121.478868333333","24.9417333333333","6500600","新店區"
"231051","107-UY","2017/09/30 20:28:26","新北市新店區中央七街93號","121.526428333333","24.9772766666667","6500600","新店區"
"231048","108-UY","2017/09/30 20:28:19","新北市新店區寶慶街58巷10號","121.542101666667","24.9872083333333","6500600","新店區"
"231052","187-VK","2017/09/30 20:28:24","新北市新店區松林路36號","121.546231666667","24.9102716666667","6500600","新店區"
"231050","215-TC","2017/09/30 20:28:26","新北市新店區博愛街6巷1號","121.541111666667","24.97335","6500600","新店區"
"231057","256-BX","2017/09/30 20:28:30","新北市新店區花園五路二段3號","121.55358","24.9342066666667","6500600","新店區"
"231063","268-BY","2017/09/30 20:28:17","新北市新店區安康路二段458號","121.494113333333","24.9540083333333","6500600","新店區"
"231054","AAD-862","2017/09/30 20:28:22","新北市新店區檳榔路109號","121.54451","24.9616633333333","6500600","新店區"
"231058","3712-VJ","2017/09/30 20:28:27","新北市新店區中正路351-3號","121.535206666667","24.9760616666667","6500600","新店區"
"231055","3713-VJ","2017/09/30 20:28:20","新北市新店區安康路一段222號","121.523816666667","24.9635783333333","6500600","新店區"
"231056","4716-K9","2017/09/30 20:28:13","新北市新店區中正路328巷42弄10號","121.538458333333","24.9759966666667","6500600","新店區"
"231067","4772-VM","2017/09/30 20:28:22","新北市新店區安康路一段266巷4號","121.520076666667","24.9639816666667","6500600","新店區"
"231065","512-UM","2017/09/30 20:28:24","新北市新店區安祥路102巷42弄39號","121.485378333333","24.96341","6500600","新店區"
"231064","515-UM","2017/09/30 20:28:17","新北市新店區新和街59巷17號","121.519225","24.9859983333333","6500600","新店區"
"231045","617-UM","2017/09/30 20:28:26","新北市新店區新坡一街42號","121.549363333333","24.9625833333333","6500600","新店區"
"231040","619-UM","2017/09/30 20:28:15","新北市新店區三民路165號","121.534558333333","24.9746216666667","6500600","新店區"
"231042","641-BX","2017/09/30 20:28:14","新北市新店區寶橋路188-5號","121.550191666667","24.9781233333333","6500600","新店區"
"231068","718-UY","2017/09/30 20:28:26","新北市新店區寶元路一段63巷50號","121.542328333333","24.9865966666667","6500600","新店區"
"231049","719-UM","2017/09/30 20:28:23","新北市新店區永業路81巷3弄2號","121.530033333333","24.949025","6500600","新店區"
"231062","720-UM","2017/09/30 20:28:24","新北市新店區安泰路60巷60-1號","121.483668333333","24.94622","6500600","新店區"
"231044","897-TW","2017/09/30 20:28:12","新北市新店區民族路26號","121.540733333333","24.978825","6500600","新店區"
"231043","899-TW","2017/09/30 20:28:29","新北市新店區民族路14-1號","121.541466666667","24.9788533333333","6500600","新店區"
"231066","AKT-0513","2017/09/30 20:28:19","新北市新店區安興路105-1號","121.514611666667","24.9777216666667","6500600","新店區"
"241011","013-R5","2017/09/30 20:28:22","新北市三重區龍門路32號","121.49563","25.0722433333333","6500200","三重區"
"241028","022-UY","2017/09/30 20:28:17","新北市三重區光興街89號","121.497468333333","25.0599883333333","6500200","三重區"
"241008","059-VK","2017/09/30 20:28:25","新北市三重區車路頭街139巷2號","121.484003333333","25.0763283333333","6500200","三重區"
"241009","060-VK","2017/09/30 20:28:13","新北市三重區永福街52號","121.481561666667","25.0780483333333","6500200","三重區"
"241031","061-VK","2017/09/30 20:28:10","新北市三重區三寧街22號","121.489566666667","25.0599716666667","6500200","三重區"
"241015","062-VK","2017/09/30 20:28:24","新北市三重區文化北路41-1號","121.498943333333","25.0652333333333","6500200","三重區"
"241017","063-VK","2017/09/30 20:28:30","新北市三重區自強路一段193號","121.491855","25.06816","6500200","三重區"
"241024","065-VK","2017/09/30 20:28:12","新北市三重區三民街249號","121.479796666667","25.0675366666667","6500200","三重區"
"241026","066-VK","2017/09/30 20:28:14","新北市三重區福德南路21號","121.502691666667","25.06303","6500200","三重區"
"241002","090-VK","2017/09/30 20:28:22","新北市三重區五華街21巷35號","121.496223333333","25.0814633333333","6500200","三重區"
"241003","091-VK","2017/09/30 20:28:14","新北市三重區富華街194號","121.493083333333","25.0849566666667","6500200","三重區"
"241005","262-UM","2017/09/30 20:28:16","新北市三重區五華街133號","121.491031666667","25.08441","6500200","三重區"
"241016","266-UM","2017/09/30 20:28:13","新北市三重區正義北路61-1號","121.497181666667","25.0646016666667","6500200","三重區"
"241022","267-UM","2017/09/30 20:28:23","新北市三重區重陽路二段19巷3號","121.48731","25.0622366666667","6500200","三重區"
"241018","268-UM","2017/09/30 20:28:19","新北市三重區正義北路216巷11號","121.495758333333","25.067515","6500200","三重區"
"241013","270-UM","2017/09/30 20:28:22","新北市三重區三和路三段167巷56號","121.493721666667","25.0746716666667","6500200","三重區"
"241025","271-UM","2017/09/30 20:28:22","新北市三重區頂崁街210巷27號","121.475753333333","25.06815","6500200","三重區"
"241007","398-BY","2017/09/30 20:28:20","新北市三重區自強路四段32-2號","121.489096666667","25.07706","6500200","三重區"
"241023","KEA-2210","2017/09/30 20:28:14","新北市三重區自由街17巷1號","121.479893333333","25.0667016666667","6500200","三重區"
"241020","413-TH","2017/09/30 20:28:29","新北市三重區三和路三段170巷8弄22號","121.492621666667","25.0724266666667","6500200","三重區"
"241035","462-BY","2017/09/30 20:28:17","新北市三重區正義北路90號","121.497103333333","25.064695","6500200","三重區"
"241004","475-VK","2017/09/30 20:28:09","新北市三重區溪尾街165巷29號","121.48996","25.0802583333333","6500200","三重區"
"241019","478-VK","2017/09/30 20:28:26","新北市三重區重陽路四段128號","121.492438333333","25.0711466666667","6500200","三重區"
"241030","480-VK","2017/09/30 20:28:12","新北市三重區成功路75號","121.488641666667","25.0510583333333","6500200","三重區"
"241014","543-UM","2017/09/30 20:28:17","新北市三重區長興街110號","121.501946666667","25.0692533333333","6500200","三重區"
"241001","547-UM","2017/09/30 20:28:27","新北市三重區溪尾街58號","121.490428333333","25.0774683333333","6500200","三重區"
"241012","941-UM","2017/09/30 20:28:14","新北市三重區龍濱路285號","121.50098","25.0734166666667","6500200","三重區"
"241029","942-UM","2017/09/30 20:28:12","新北市三重區集美街225號","121.49201","25.0551483333333","6500200","三重區"
"241033","AAC-255","2017/09/30 20:28:29","新北市三重區五谷王北街82號","121.476016666667","25.0527683333333","6500200","三重區"
"235066","003-UY","2017/09/30 20:28:27","新北市中和區光華街31巷22弄6號","121.505508333333","25.00461","6500300","中和區"
"235039","097-UM","2017/09/30 20:28:25","新北市中和區大勇街27巷18號","121.516671666667","24.9939966666667","6500300","中和區"
"235065","098-UM","2017/09/30 20:28:31","新北市中和區福美路312巷3號","121.496671666667","25.00508","6500300","中和區"
"235058","151-BY","2017/09/30 20:28:15","新北市八里區商港路105巷15號","121.389303333333","25.147735","6500300","中和區"
"235049","186-VK","2017/09/30 20:28:26","新北市中和區中正路366號","121.493273333333","24.9940983333333","6500300","中和區"
"235067","255-BX","2017/09/30 20:28:13","新北市八里區荖阡坑路34-1號","121.400461666667","25.1315666666667","6500300","中和區"
"235072","301-VK","2017/09/30 20:28:31","新北市中和區員山路36巷13號","121.484393333333","24.9907216666667","6500300","中和區"
"235050","4979-A6","2017/09/30 20:28:14","新北市中和區景安路82巷6弄1號","121.505148333333","24.9962916666667","6500300","中和區"
"235069","4980-A6","2017/09/30 20:28:12","新北市中和區中正路610號","121.485548333333","24.9955333333333","6500300","中和區"
"235042","551-UM","2017/09/30 20:28:11","新北市新店區安康路一段266巷4號","121.519936666667","24.9644133333333","6500300","中和區"
"235026","800-TS","2017/09/30 20:28:25","新北市中和區員山路36巷13號","121.48434","24.9908866666667","6500300","中和區"
"235059","AAC-215","2017/09/30 20:28:27","新北市中和區員山路28-29號","121.480913333333","24.9869","6500300","中和區"
"247022","893-R6","2017/09/30 20:28:13","新北市蘆洲區中正路315號","121.466365","25.08855","6501400","蘆洲區"
"247012","546-UM","2017/09/30 20:28:31","新北市蘆洲區民族路165號","121.479226666667","25.0882916666667","6501400","蘆洲區"
"247020","500-BY","2017/09/30 20:28:20","新北市蘆洲區民族路424-1號","121.473878333333","25.0919016666667","6501400","蘆洲區"
"247010","339-TH","2017/09/30 20:28:14","新北市蘆洲區民族路59號","121.47894","25.085715","6501400","蘆洲區"
"247002","337-TH","2017/09/30 20:28:20","新北市蘆洲區長安街347巷22號","121.456073333333","25.0870083333333","6501400","蘆洲區"
"247004","336-TH","2017/09/30 20:28:22","新北市蘆洲區長安街299巷12號","121.457388333333","25.0847216666667","6501400","蘆洲區"
"247001","335-TH","2017/09/30 10:56:21","新北市五股區中興路三段163號","121.449028333333","25.08089","6501400","蘆洲區"
"247016","057-VK","2017/09/30 20:28:19","新北市蘆洲區光華路91號","121.467506666667","25.0825333333333","6501400","蘆洲區"
"247006","056-VK","2017/09/30 20:28:15","新北市蘆洲區和平路121巷8弄39號","121.465891666667","25.0806283333333","6501400","蘆洲區"
"247008","053-VK","2017/09/30 20:28:23","新北市蘆洲區永安北路二段76巷22號","121.48275","25.0854","6501400","蘆洲區"
"247014","007-UY","2017/09/30 20:28:14","新北市蘆洲區中山二路253號","121.469986666667","25.079855","6501400","蘆洲區"
"247024","002-UY","2017/09/30 20:28:31","新北市蘆洲區長樂路1號","121.464333333333","25.0842233333333","6501400","蘆洲區"
"247018","001-UY","2017/09/30 20:28:25","新北市蘆洲區民族路257巷15號","121.475238333333","25.0899333333333","6501400","蘆洲區"
"251001","011-UM","2017/09/30 20:28:23","新北市淡水區中山北路二段197號","121.444215","25.1854766666667","6501000","淡水區"
"251014","180-VK","2017/09/30 20:28:20","新北市淡水區石頭厝8-9號","121.46049","25.2377633333333","6501000","淡水區"
"251008","181-VK","2017/09/30 20:28:29","新北市淡水區淡海路189巷1號","121.420278333333","25.1844766666667","6501000","淡水區"
"251010","413-VK","2017/09/30 20:28:20","新北市淡水區沙崙路181巷15號","121.423986666667","25.1843766666667","6501000","淡水區"
"251012","441-VK","2017/09/30 20:28:31","新北市淡水區頂田寮路109號","121.458126666667","25.2161433333333","6501000","淡水區"
"251016","442-VK","2017/09/30 20:28:12","新北市淡水區新埔子8號","121.449818333333","25.228225","6501000","淡水區"
"251006","561-UM","2017/09/30 20:28:29","新北市淡水區商工路329號","121.464183333333","25.1859633333333","6501000","淡水區"
"251011","650-BX","2017/09/30 20:28:30","新北市淡水區崁頂115號","121.432403333333","25.2044933333333","6501000","淡水區"
"251002","672-BX","2017/09/30 20:28:22","新北市淡水區中正路80號","121.442626666667","25.169705","6501000","淡水區"
"251003","673-BX","2017/09/30 20:28:12","新北市淡水區新生街45號","121.440278333333","25.17486","6501000","淡水區"
"207004","225-TW","2017/09/30 20:28:14","新北市萬里區北基里忠一街1號","121.686496666667","25.17623","6502800","萬里區"
"252002","178-VK","2017/09/30 20:28:27","新北市三芝區中正路一段68號","121.503665","25.25768","6502100","三芝區"
"252001","292-VK","2017/09/30 20:28:16","新北市三芝區中山路一段35號","121.500676666667","25.2579733333333","6502100","三芝區"
"237007","153-BY","2017/09/30 20:28:15","新北市三峽區麻園35-8號","121.36326","24.9186533333333","6500900","三峽區"
"236073","105-UM","2017/09/30 20:28:30","新北市土城區福安街118號","121.415571666667","24.964385","6501300","土城區"
"236031","253-BX","2017/09/30 20:28:11","新北市土城區城林路6巷80號","121.438633333333","24.9797566666667","6501300","土城區"
"236015","270-VK","2017/09/30 20:28:29","新北市土城區廣明街63巷4號","121.454571666667","24.9935133333333","6501300","土城區"
"236023","401-BY","2017/09/30 20:28:14","新北市土城區峰廷街10號","121.468746666667","24.9876083333333","6501300","土城區"
"242031","AAC-296","2017/09/30 20:28:24","新北市新莊區中正路508巷148號","121.438488333333","25.035455","6500500","新莊區"
"242029","986-R7","2017/09/30 20:28:16","新北市新莊區中原路303號","121.447345","25.0543366666667","6500500","新莊區"
"242051","751-BX","2017/09/30 20:28:28","新北市新莊區民安西路259號","121.426228333333","25.01321","6500500","新莊區"
"242025","615-BX","2017/09/30 20:28:32","新北市新莊區五工三路62巷26號","121.460235","25.06528","6500500","新莊區"
"242023","613-BX","2017/09/30 20:28:20","新北市新莊區化成路451號","121.464518333333","25.06133","6500500","新莊區"
"242027","612-BX","2017/09/30 20:28:20","新北市新莊區福壽街84巷10號","121.458723333333","25.0496716666667","6500500","新莊區"
"242039","566-BX","2017/09/30 20:28:26","新北市新莊區成功街12號","121.425448333333","25.0212966666667","6500500","新莊區"
"242044","497-BY","2017/09/30 20:28:25","新北市新莊區龍安路66-3號","121.414866666667","25.0213666666667","6500500","新莊區"
"242048","441-UM","2017/09/30 20:28:30","新北市新莊區龍安路252-5號","121.421063333333","25.0191233333333","6500500","新莊區"
"242053","440-UM","2017/09/30 20:28:20","新北市新莊區民安西路229巷3號","121.426446666667","25.0142316666667","6500500","新莊區"
"242034","415-TV","2017/09/30 20:28:27","新北市新莊區中正路234號","121.44828","25.0353333333333","6500500","新莊區"
"242004","413-TV","2017/09/30 20:28:27","新北市新莊區化成路409號","121.464901666667","25.0589316666667","6500500","新莊區"
"242042","400-BY","2017/09/30 20:28:12","新北市新莊區中正路694巷3弄2號","121.418365","25.0283066666667","6500500","新莊區"
"242061","362-BY","2017/09/30 20:28:30","新北市新莊區新樹路234巷13號","121.431798333333","25.019965","6500500","新莊區"
"242058","353-BY","2017/09/30 20:28:16","新北市新莊區龍安路278巷22號","121.421753333333","25.0184583333333","6500500","新莊區"
"242007","132-UY","2017/09/30 20:28:17","新北市新莊區福壽街124巷31號","121.458961666667","25.0513216666667","6500500","新莊區"
"242036","133-UY","2017/09/30 20:28:28","新北市新莊區建安街62巷1弄1號","121.426981666667","25.024785","6500500","新莊區"
"242021","135-UY","2017/09/30 20:28:13","新北市新莊區和興街3號","121.447548333333","25.038925","6500500","新莊區"
"242046","172-VK","2017/09/30 20:28:22","新北市新莊區裕民街72巷2號","121.418353333333","25.0242783333333","6500500","新莊區"
"242009","173-VK","2017/09/30 20:28:28","新北市新莊區昌隆街76號","121.4555","25.0509016666667","6500500","新莊區"
"242015","175-VK","2017/09/30 20:28:16","新北市新莊區中平路66號","121.444953333333","25.0444583333333","6500500","新莊區"
"242002","176-VK","2017/09/30 20:28:19","新北市新莊區化成路82號","121.465198333333","25.0438866666667","6500500","新莊區"
"242013","346-TH","2017/09/30 20:28:29","新北市新莊區中平路377巷1-3號","121.444533333333","25.0522033333333","6500500","新莊區"
"242019","348-TH","2017/09/30 20:28:18","新北市新莊區民樂街76號","121.45802","25.043555","6500500","新莊區"
"242056","349-TH","2017/09/30 20:28:17","新北市新莊區新莊路649巷26弄14號","121.444471666667","25.0321233333333","6500500","新莊區"
"242017","350-TH","2017/09/30 20:28:22","新北市新莊區中港二街41號","121.45065","25.045955","6500500","新莊區"
"242011","351-TH","2017/09/30 20:28:24","新北市新莊區中義街2號","121.451611666667","25.0512283333333","6500500","新莊區"
"239006","891-R6","2017/09/30 20:28:16","新北市鶯歌區二甲路12-2號","121.345483333333","24.9347283333333","6500800","鶯歌區"
"221008","489-VK","2017/09/30 20:28:23","新北市汐止區康寧街543號","121.63437","25.0691183333333","6501100","汐止區"
"221036","130-UY","2017/09/30 20:28:29","新北市汐止區仁愛路152巷19號","121.664615","25.0640083333333","6501100","汐止區"
"221015","131-UY","2017/09/30 20:28:17","新北市汐止區建成路142巷19弄8號","121.662128333333","25.0740116666667","6501100","汐止區"
"221010","269-BY","2017/09/30 20:28:18","新北市汐止區八連路二段636-3號","121.625746666667","25.1104783333333","6501100","汐止區"
"221012","276-VK","2017/09/30 13:30:58","新北市汐止區汐萬路一段256巷3號","121.653381666667","25.0746933333333","6501100","汐止區"
"221012","278-VK","2017/09/30 20:28:18","新北市汐止區大同路三段324號","121.679125","25.0712516666667","6501100","汐止區"
"221023","279-VK","2017/09/30 20:28:24","新北市汐止區湖東街11號","121.634786666667","25.0723333333333","6501100","汐止區"
"221032","280-BY","2017/09/30 20:28:19","新北市汐止區弘道街53巷10號","121.618681666667","25.04878","6501100","汐止區"
"221027","281-BY","2017/09/30 20:28:26","新北市汐止區中正路246號","121.657613333333","25.0687033333333","6501100","汐止區"
"221038","297-VK","2017/09/30 20:28:24","新北市汐止區茄苳路45號","121.665955","25.0708216666667","6501100","汐止區"
"221029","298-VK","2017/09/30 20:28:32","新北市汐止區樟樹一路129巷32號","121.640585","25.0651733333333","6501100","汐止區"
"221021","299-VK","2017/09/30 20:28:20","新北市汐止區水源路一段291巷1號","121.654375","25.0584433333333","6501100","汐止區"
"221031","353-TW","2017/09/30 20:28:23","新北市汐止區中興路110巷10號","121.633773333333","25.0642266666667","6501100","汐止區"
"221035","622-UM","2017/09/30 20:28:29","新北市汐止區長江街101-5號","121.658726666667","25.0732883333333","6501100","汐止區"
"221025","623-UM","2017/09/30 20:28:12","新北市汐止區水源路二段88巷1弄9號","121.656493333333","25.0554983333333","6501100","汐止區"
"221033","647-BX","2017/09/30 20:28:10","新北市汐止區林森街73巷3號","121.623521666667","25.0408916666667","6501100","汐止區"
"221002","707-TV","2017/09/30 20:28:22","新北市汐止區福德一路50號","121.638465","25.0688933333333","6501100","汐止區"
"221018","753-BX","2017/09/30 20:28:24","新北市汐止區茄苳路225巷13號","121.671486666667","25.0692983333333","6501100","汐止區"
"220064","280-UM","2017/09/30 20:28:24","新北市板橋區民生路二段210號","121.46939","25.0210983333333","6500100","板橋區"
"220083","286-VK","2017/09/30 20:28:28","新北市板橋區僑中二街90巷8號","121.446011666667","25.00932","6500100","板橋區"
"220081","287-VK","2017/09/30 20:27:48","新北市板橋區僑中一街80巷7弄17號","121.447026666667","25.0128433333333","6500100","板橋區"
"220061","293-UM","2017/09/30 20:28:20","新北市板橋區四川路一段286巷20號","121.458053333333","25.0011666666667","6500100","板橋區"
"220062","295-UM","2017/09/30 20:28:22","新北市板橋區府中路1號","121.460116666667","25.009405","6500100","板橋區"
"220089","487-VK","2017/09/30 20:28:12","新北市板橋區四維路137巷25號","121.46398","25.0247616666667","6500100","板橋區"
"220103","561-BX","2017/09/30 20:28:27","新北市板橋區漢生東路33巷43號","121.466126666667","25.0178016666667","6500100","板橋區"
"220074","895-R6","2017/09/30 20:28:17","新北市板橋區明德街2-1號","121.459678333333","25.0100883333333","6500100","板橋區"
"220097","AAC-210","2017/09/30 20:28:15","新北市板橋區公館街33號","121.461346666667","25.01624","6500100","板橋區"
"220070","AAC-253","2017/09/30 20:28:26","新北市板橋區南雅南路二段140號","121.451938333333","24.99633","6500100","板橋區"
