"lineid","car","time","location","longitude","latitude","cityid","cityname"
"248004","677-BX","2017/09/30 20:38:08","新北市五股區中興路二段37巷28號","121.460103333333","25.0749566666667","6501500","五股區"
"243001","297-R6","2017/09/30 21:11:02","新北市泰山區黎明路31號","121.421755","25.06074","6501600","泰山區"
"231059","046-UY","2017/09/30 21:18:23","新北市新店區安豐路45號","121.500203333333","24.9550783333333","6500600","新店區"
"231061","047-UY","2017/09/30 21:18:17","新北市新店區安和路三段33-1號","121.516883333333","24.9802266666667","6500600","新店區"
"231051","107-UY","2017/09/30 21:18:26","新北市新店區中正路680巷10號","121.534455","24.9898466666667","6500600","新店區"
"231048","108-UY","2017/09/30 21:18:19","新北市新店區中正路435號","121.534016666667","24.9784033333333","6500600","新店區"
"231050","215-TC","2017/09/30 21:18:26","新北市新店區華興街8號","121.537871666667","24.969905","6500600","新店區"
"231063","268-BY","2017/09/30 21:18:17","新北市新店區玫瑰路57巷20號","121.496415","24.9462683333333","6500600","新店區"
"231054","AAD-862","2017/09/30 21:18:22","新北市新店區大新街9巷28號","121.544423333333","24.9670216666667","6500600","新店區"
"231065","512-UM","2017/09/30 21:18:24","新北市新店區安康路二段335號","121.498566666667","24.95608","6500600","新店區"
"231040","619-UM","2017/09/30 21:18:19","新北市新店區北新路一段2號","121.54065","24.9652466666667","6500600","新店區"
"241011","013-R5","2017/09/30 21:18:22","新北市三重區河邊北街110巷66號","121.502231666667","25.0703183333333","6500200","三重區"
"241028","022-UY","2017/09/30 21:18:17","新北市三重區正義南路169號","121.498966666667","25.0574583333333","6500200","三重區"
"241008","059-VK","2017/09/30 21:18:25","新北市三重區自強路一段62號","121.497255","25.0667733333333","6500200","三重區"
"241009","060-VK","2017/09/30 21:18:12","新北市三重區忠孝路二段126號","121.482925","25.0687533333333","6500200","三重區"
"241031","061-VK","2017/09/30 21:18:10","新北市三重區重新路五段408巷19號","121.475738333333","25.0455516666667","6500200","三重區"
"241015","062-VK","2017/09/30 21:18:24","新北市三重區三和路一段39巷11號","121.504121666667","25.0652833333333","6500200","三重區"
"241017","063-VK","2017/09/30 21:18:10","新北市三重區大同北路128-1號","121.492485","25.0645","6500200","三重區"
"241024","065-VK","2017/09/30 21:17:52","新北市三重區中正北路145巷14號","121.484151666667","25.0677816666667","6500200","三重區"
"241026","066-VK","2017/09/30 21:18:14","新北市三重區大同南路220號","121.496775","25.0561983333333","6500200","三重區"
"241002","090-VK","2017/09/30 21:18:22","新北市三重區五華街11號","121.494968333333","25.0803033333333","6500200","三重區"
"241003","091-VK","2017/09/30 21:18:14","新北市三重區仁義街224號","121.495","25.0847166666667","6500200","三重區"
"241005","262-UM","2017/09/30 21:18:16","新北市三重區三信路182號","121.488118333333","25.0861983333333","6500200","三重區"
"241016","266-UM","2017/09/30 21:18:13","新北市三重區自強路一段107號","121.495423333333","25.0663833333333","6500200","三重區"
"241022","267-UM","2017/09/30 21:18:23","新北市三重區新北大道一段7號","121.489591666667","25.0615233333333","6500200","三重區"
"241018","268-UM","2017/09/30 21:18:19","新北市三重區忠孝路一段183號","121.487375","25.071685","6500200","三重區"
"241032","269-UM","2017/09/30 21:18:14","新北市三重區中興北街134-1號","121.468946666667","25.0558966666667","6500200","三重區"
"241013","270-UM","2017/09/30 21:18:22","新北市三重區仁愛街66號","121.49573","25.07321","6500200","三重區"
"241025","271-UM","2017/09/30 21:18:22","新北市三重區中正北路208巷8號","121.482343333333","25.0669633333333","6500200","三重區"
"241007","398-BY","2017/09/30 21:18:20","新北市三重區後竹圍街205巷50號","121.484405","25.07332","6500200","三重區"
"241023","KEA-2210","2017/09/30 21:18:14","新北市三重區中正北路176巷27號","121.482626666667","25.0659766666667","6500200","三重區"
"241004","475-VK","2017/09/30 21:18:09","新北市三重區仁愛街423-1號","121.490376666667","25.0814516666667","6500200","三重區"
"241019","478-VK","2017/09/30 21:18:26","新北市三重區重陽路三段7-3號","121.48921","25.0665616666667","6500200","三重區"
"241030","480-VK","2017/09/30 21:18:12","新北市三重區五谷王北街86號","121.476338333333","25.0533433333333","6500200","三重區"
"241014","543-UM","2017/09/30 21:18:17","新北市三重區安和路60號","121.500735","25.0699266666667","6500200","三重區"
"241001","547-UM","2017/09/30 21:18:07","新北市三重區仁愛街351號","121.49205","25.07975","6500200","三重區"
"241006","AAD-863","2017/09/30 21:18:23","新北市三重區重陽路二段32號","121.48695","25.06285","6500200","三重區"
"241012","941-UM","2017/09/30 21:18:14","新北市三重區龍門路284號","121.502005","25.0741783333333","6500200","三重區"
"241033","AAC-255","2017/09/30 21:18:14","新北市三重區光復路二段126巷2號","121.471178333333","25.0588183333333","6500200","三重區"
"235026","800-TS","2017/09/30 20:38:49","新北市中和區員山路36巷16-3號","121.484823333333","24.9916583333333","6500300","中和區"
"247022","893-R6","2017/09/30 21:18:12","新北市蘆洲區三民路243號","121.468913333333","25.0887866666667","6501400","蘆洲區"
"247012","546-UM","2017/09/30 21:18:11","新北市蘆洲區民族路236巷6號","121.480223333333","25.0885566666667","6501400","蘆洲區"
"247020","500-BY","2017/09/30 21:18:20","新北市蘆洲區民族路422巷112號","121.472853333333","25.0941366666667","6501400","蘆洲區"
"247010","339-TH","2017/09/30 21:18:14","新北市蘆洲區鷺江街23號","121.478856666667","25.08246","6501400","蘆洲區"
"247002","337-TH","2017/09/30 21:18:20","新北市蘆洲區永樂街38巷4號","121.458111666667","25.0886633333333","6501400","蘆洲區"
"247004","336-TH","2017/09/30 21:18:22","新北市蘆洲區長安街267巷31號","121.456843333333","25.0828316666667","6501400","蘆洲區"
"247001","335-TH","2017/09/30 10:56:21","新北市五股區中興路三段163號","121.449028333333","25.08089","6501400","蘆洲區"
"247016","057-VK","2017/09/30 21:18:19","新北市蘆洲區中正路185巷76號","121.466215","25.0843066666667","6501400","蘆洲區"
"247006","056-VK","2017/09/30 21:18:15","新北市蘆洲區長安街16號","121.464085","25.079165","6501400","蘆洲區"
"247008","053-VK","2017/09/30 21:18:23","新北市蘆洲區民生街24號","121.475015","25.0788933333333","6501400","蘆洲區"
"247014","007-UY","2017/09/30 21:18:14","新北市蘆洲區保和街50-6號","121.46989","25.08632","6501400","蘆洲區"
"247024","002-UY","2017/09/30 21:18:11","新北市蘆洲區光明路96號","121.463091666667","25.0879733333333","6501400","蘆洲區"
"247018","001-UY","2017/09/30 21:18:25","新北市蘆洲區復興路105巷11號","121.476463333333","25.0884516666667","6501400","蘆洲區"
"251004","009-UM","2017/09/30 21:18:13","新北市淡水區民族路76號","121.462231666667","25.1356216666667","6501000","淡水區"
"251001","011-UM","2017/09/30 21:18:23","新北市淡水區中山北路二段381巷121號","121.443335","25.185765","6501000","淡水區"
"251014","180-VK","2017/09/30 21:18:19","新北市淡水區溪口28號","121.455436666667","25.2361366666667","6501000","淡水區"
"251008","181-VK","2017/09/30 21:18:09","新北市淡水區水源街二段246號","121.46159","25.1761266666667","6501000","淡水區"
"251010","413-VK","2017/09/30 21:18:20","新北市淡水區中正路一段156巷12號","121.421848333333","25.1808333333333","6501000","淡水區"
"251012","441-VK","2017/09/30 21:18:28","新北市淡水區石頭埔8號","121.452635","25.2345416666667","6501000","淡水區"
"251016","442-VK","2017/09/30 21:18:12","新北市淡水區興仁路40巷7號","121.453056666667","25.2161933333333","6501000","淡水區"
"251005","443-VK","2017/09/30 21:18:13","新北市淡水區水源街一段122巷37號","121.44707","25.1703983333333","6501000","淡水區"
"251009","575-R6","2017/09/30 21:18:22","新北市淡水區民族路88號","121.462418333333","25.1355333333333","6501000","淡水區"
"251011","650-BX","2017/09/30 21:18:10","新北市淡水區新民街120巷29號","121.438813333333","25.178805","6501000","淡水區"
"251002","672-BX","2017/09/30 21:18:22","新北市淡水區中正東路34-3號","121.448843333333","25.1659383333333","6501000","淡水區"
"251003","673-BX","2017/09/30 21:18:12","新北市淡水區新春街91巷17號","121.438833333333","25.1830083333333","6501000","淡水區"
"242048","441-UM","2017/09/30 21:18:10","新北市樹林區中山路三段214號","121.380011666667","24.9677166666667","6500500","新莊區"
"221012","276-VK","2017/09/30 13:30:58","新北市汐止區汐萬路一段256巷3號","121.653381666667","25.0746933333333","6501100","汐止區"
"221029","298-VK","2017/09/30 21:18:12","新北市汐止區汐萬路一段256巷1號","121.651671666667","25.0748366666667","6501100","汐止區"
"221031","353-TW","2017/09/30 21:04:49","新北市汐止區汐萬路一段256巷1號","121.651696666667","25.074855","6501100","汐止區"
"221018","753-BX","2017/09/30 21:18:24","新北市汐止區汐萬路一段256巷1號","121.651945","25.07476","6501100","汐止區"
"220062","295-UM","2017/09/30 21:18:22","新北市板橋區縣民大道二段22號","121.464513333333","25.0137316666667","6500100","板橋區"
"220070","AAC-253","2017/09/30 21:18:26","新北市八里區中山路三段409號","121.36846","25.1352016666667","6500100","板橋區"
