"lineid","car","time","location","longitude","latitude","cityid","cityname"
"248004","677-BX","2017/09/30 20:38:08","新北市五股區中興路二段37巷28號","121.460103333333","25.0749566666667","6501500","五股區"
"243001","297-R6","2017/09/30 21:11:02","新北市泰山區黎明路31號","121.421755","25.06074","6501600","泰山區"
"231048","108-UY","2017/09/30 21:28:19","新北市新店區安民街65巷17-1號","121.515453333333","24.9668833333333","6500600","新店區"
"231050","215-TC","2017/09/30 21:28:05","新北市新店區中華路143號","121.538203333333","24.9700783333333","6500600","新店區"
"231063","268-BY","2017/09/30 21:28:17","新北市新店區吉祥街9巷1號","121.497441666667","24.947045","6500600","新店區"
"241011","013-R5","2017/09/30 21:28:22","新北市三重區龍濱路285號","121.501113333333","25.0733166666667","6500200","三重區"
"241017","063-VK","2017/09/30 21:28:10","新北市三重區中正北路25巷25弄3號","121.493246666667","25.0626566666667","6500200","三重區"
"241024","065-VK","2017/09/30 21:28:12","新北市三重區中正北路145巷3弄12號","121.48394","25.0674866666667","6500200","三重區"
"241026","066-VK","2017/09/30 21:26:54","新北市三重區重安街160-1號","121.496111666667","25.0546233333333","6500200","三重區"
"241003","091-VK","2017/09/30 21:28:14","新北市三重區五華街71巷115號","121.495173333333","25.0843966666667","6500200","三重區"
"241005","262-UM","2017/09/30 21:28:16","新北市三重區仁華街85號","121.485675","25.08291","6500200","三重區"
"241016","266-UM","2017/09/30 21:28:13","新北市三重區正義北路68號","121.497023333333","25.0644383333333","6500200","三重區"
"241032","269-UM","2017/09/30 21:28:14","新北市五股區凌雲路三段15-3號","121.429048333333","25.1087866666667","6500200","三重區"
"241007","398-BY","2017/09/30 21:28:20","新北市三重區正義北路113號","121.49692","25.06576","6500200","三重區"
"241023","KEA-2210","2017/09/30 21:28:14","新北市三重區洛陽街40號","121.482075","25.0630583333333","6500200","三重區"
"241033","AAC-255","2017/09/30 21:28:08","新北市三重區中興北街195號","121.469078333333","25.0571133333333","6500200","三重區"
"235026","800-TS","2017/09/30 20:38:49","新北市中和區員山路36巷16-3號","121.484823333333","24.9916583333333","6500300","中和區"
"247022","893-R6","2017/09/30 21:28:12","新北市蘆洲區永康街35號","121.457398333333","25.0851233333333","6501400","蘆洲區"
"247012","546-UM","2017/09/30 21:28:11","新北市蘆洲區中興街101號","121.482266666667","25.0886133333333","6501400","蘆洲區"
"247020","500-BY","2017/09/30 21:28:20","新北市蘆洲區環堤大道186號","121.456513333333","25.0905233333333","6501400","蘆洲區"
"247010","339-TH","2017/09/30 21:28:14","新北市蘆洲區鷺江街23號","121.478878333333","25.0824416666667","6501400","蘆洲區"
"247002","337-TH","2017/09/30 21:28:20","新北市五股區中興路三段2巷10號","121.448703333333","25.0821133333333","6501400","蘆洲區"
"247001","335-TH","2017/09/30 10:56:21","新北市五股區中興路三段163號","121.449028333333","25.08089","6501400","蘆洲區"
"247008","053-VK","2017/09/30 21:28:23","新北市蘆洲區三民路1號","121.475576666667","25.0816183333333","6501400","蘆洲區"
"247014","007-UY","2017/09/30 21:28:14","新北市蘆洲區光明路21號","121.460603333333","25.0865733333333","6501400","蘆洲區"
"247024","002-UY","2017/09/30 21:28:11","新北市五股區新城八路18號","121.447995","25.08931","6501400","蘆洲區"
"251004","009-UM","2017/09/30 21:27:52","新北市淡水區民族路10-1號","121.460675","25.1366916666667","6501000","淡水區"
"251001","011-UM","2017/09/30 21:28:23","新北市淡水區義山路一段222號","121.438515","25.190985","6501000","淡水區"
"251014","180-VK","2017/09/30 21:28:19","新北市淡水區溪口28號","121.455411666667","25.2361366666667","6501000","淡水區"
"251008","181-VK","2017/09/30 21:28:15","新北市淡水區水源街二段160-10號","121.454656666667","25.1751733333333","6501000","淡水區"
"251010","413-VK","2017/09/30 21:28:20","新北市淡水區沙崙路25巷21號","121.420545","25.18237","6501000","淡水區"
"251012","441-VK","2017/09/30 21:28:08","新北市淡水區石頭埔10-1號","121.451691666667","25.2327516666667","6501000","淡水區"
"251016","442-VK","2017/09/30 21:28:12","新北市淡水區中山北路二段189巷15弄29號","121.443331666667","25.1842533333333","6501000","淡水區"
"251005","443-VK","2017/09/30 21:28:13","新北市淡水區水源街一段34巷8號","121.443131666667","25.1718266666667","6501000","淡水區"
"251006","561-UM","2017/09/30 21:28:25","新北市淡水區公明街29號","121.442961666667","25.1690383333333","6501000","淡水區"
"251009","575-R6","2017/09/30 21:28:14","新北市淡水區民族路65巷60號","121.463553333333","25.1359633333333","6501000","淡水區"
"251011","650-BX","2017/09/30 21:28:14","新北市淡水區新民街142-1號","121.437418333333","25.178","6501000","淡水區"
"251002","672-BX","2017/09/30 21:28:17","新北市淡水區學府路172巷21號","121.44825","25.1749266666667","6501000","淡水區"
"251003","673-BX","2017/09/30 21:28:12","新北市淡水區崁頂15-5號","121.438971666667","25.18592","6501000","淡水區"
"242048","441-UM","2017/09/30 21:28:10","新北市樹林區太平路247巷30號","121.421736666667","24.9743833333333","6500500","新莊區"
"221012","276-VK","2017/09/30 13:30:58","新北市汐止區汐萬路一段256巷3號","121.653381666667","25.0746933333333","6501100","汐止區"
"221031","353-TW","2017/09/30 21:04:49","新北市汐止區汐萬路一段256巷1號","121.651696666667","25.074855","6501100","汐止區"
"220062","295-UM","2017/09/30 21:28:22","新北市板橋區民生路二段89-6號","121.470565","25.0193933333333","6500100","板橋區"
"220070","AAC-253","2017/09/30 21:26:46","新北市八里區荖阡坑路34號","121.402315","25.12863","6500100","板橋區"
