"lineid","car","time","location","longitude","latitude","cityid","cityname"
"222005","289-BY","2017/07/14 08:42:57","新北市深坑區土庫尖路75-1號","121.631286666667","25.0181633333333","6501800","深坑區"
"231009","188-VK","2017/07/14 09:09:49","新北市新店區廣興路66巷8號","121.539276666667","24.91377","6500600","新店區"
"231007","189-VK","2017/07/14 09:09:53","新北市新店區新潭路三段109號","121.50724","24.910505","6500600","新店區"
"235064","005-UY","2017/07/14 09:09:38","新北市中和區連城路162巷3弄2號","121.493168333333","24.9988533333333","6500300","中和區"
"226001","8452-VL","2017/07/14 08:47:59","新北市平溪區東勢里番仔坑16號","121.755053333333","24.9913283333333","6502400","平溪區"
"223002","198-BX","2017/07/14 09:09:37","新北市石碇區八分寮47號","121.642295","25.01395","6501900","石碇區"
"223008","406-TH","2017/07/14 09:09:48","新北市石碇區光明路28號","121.695275","25.023805","6501900","石碇區"
"223004","660-BX","2017/07/14 09:09:39","新北市石碇區碇坪路二段29號","121.683888333333","24.97629","6501900","石碇區"
"223007","661-BX","2017/07/14 09:05:50","新北市石碇區光明路耳空龜巷10-2號","121.690945","25.0383316666667","6501900","石碇區"
"223005","677-TV","2017/07/14 09:09:38","新北市石碇區大崙3號","121.686858333333","24.9771383333333","6501900","石碇區"
"227005","282-VK","2017/07/14 08:56:41","新北市雙溪區泰平里溪尾寮3號","121.817846666667","24.97061","6502500","雙溪區"
"237001","159-UY","2017/07/13 14:01:47","新北市三峽區中山路459巷137號","121.349683333333","24.93345","6500900","三峽區"
"236010","165-UM","2017/07/14 09:09:52","新北市土城區金城路一段16號","121.439423333333","24.9689366666667","6501300","土城區"
"236004","370-SL","2017/07/14 09:05:40","新北市土城區興城路22號","121.44214","24.9727483333333","6501300","土城區"
"236006","498-BY","2017/07/14 09:09:34","新北市土城區中央路三段76巷1號","121.436125","24.9675216666667","6501300","土城區"
