"lineid","car","time","location","longitude","latitude","cityid","cityname"
"222005","289-BY","2017/07/14 09:39:04","新北市深坑區昇高坑路51-1號","121.63019","24.9940983333333","6501800","深坑區"
"231009","188-VK","2017/07/14 09:39:49","新北市新店區平廣路一段209-2號","121.513656666667","24.888795","6500600","新店區"
"231007","189-VK","2017/07/14 09:39:53","新北市新店區新潭路三段215巷25號","121.508151666667","24.9040183333333","6500600","新店區"
"235064","005-UY","2017/07/14 09:39:39","新北市新店區薏仁坑路自強巷1號","121.497608333333","24.9577716666667","6500300","中和區"
"223008","406-TH","2017/07/14 09:29:28","新北市石碇區南勢坑2-2號","121.698725","24.9894916666667","6501900","石碇區"
"223007","661-BX","2017/07/14 09:35:10","新北市石碇區南勢坑4-1號","121.698265","24.98299","6501900","石碇區"
"227005","282-VK","2017/07/14 09:27:21","新北市雙溪區泰平里溪尾寮2-2號","121.819475","24.9639333333333","6502500","雙溪區"
"237001","159-UY","2017/07/13 14:01:47","新北市三峽區中山路459巷137號","121.349683333333","24.93345","6500900","三峽區"
"236006","498-BY","2017/07/14 09:39:34","新北市土城區忠義路45巷2號","121.441075","24.9694916666667","6501300","土城區"
