"lineid","car","time","location","longitude","latitude","cityid","cityname"
"222005","289-BY","2017/07/14 09:49:44","新北市深坑區深坑街3巷22號","121.616938333333","25.00188","6501800","深坑區"
"231009","188-VK","2017/07/14 09:41:50","新北市新店區平廣路一段256號","121.507875","24.8883233333333","6500600","新店區"
"231007","189-VK","2017/07/14 09:49:53","新北市新店區新潭路三段215巷25號","121.50811","24.904055","6500600","新店區"
"235064","005-UY","2017/07/14 09:49:38","新北市新店區安華路28-1號","121.51954","24.9612183333333","6500300","中和區"
"227005","282-VK","2017/07/14 09:27:21","新北市雙溪區泰平里溪尾寮2-2號","121.819475","24.9639333333333","6502500","雙溪區"
"236006","498-BY","2017/07/14 09:49:54","新北市土城區中華路二段235號","121.43756","24.97277","6501300","土城區"
