"lineid","car","time","location","longitude","latitude","cityid","cityname"
"231009","188-VK","2017/07/14 10:19:49","新北市新店區平廣路一段210號","121.513005","24.8888383333333","6500600","新店區"
"231007","189-VK","2017/07/14 10:19:53","新北市新店區新潭路三段215巷25號","121.50812","24.904075","6500600","新店區"
"235028","005-UY","2017/07/14 10:19:38","新北市中和區員山路36巷16-3號","121.485198333333","24.991305","6500300","中和區"
"227005","282-VK","2017/07/14 09:27:21","新北市雙溪區泰平里溪尾寮2-2號","121.819475","24.9639333333333","6502500","雙溪區"
"252002","178-VK","2017/07/14 09:58:44","新北市三芝區埔坪里埔頭坑41號","121.504628333333","25.2645816666667","6502100","三芝區"
"237001","159-UY","2017/07/13 14:01:47","新北市三峽區中山路459巷137號","121.349683333333","24.93345","6500900","三峽區"
