"lineid","car","time","location","longitude","latitude","cityid","cityname"
"234040","862-TW","2017/07/14 12:09:49","新北市永和區福和路1號","121.52607","25.0095266666667","6500400","永和區"
"231009","188-VK","2017/07/14 11:39:29","新北市新店區成功路265號","121.527951666667","24.885925","6500600","新店區"
"235028","005-UY","2017/07/14 11:36:30","新北市中和區員山路36巷16-3號","121.485108333333","24.9914033333333","6500300","中和區"
"227005","282-VK","2017/07/14 12:09:41","新北市雙溪區三貂里政光路3-1號","121.850788333333","25.0633533333333","6502500","雙溪區"
"252002","178-VK","2017/07/14 09:58:44","新北市三芝區埔坪里埔頭坑41號","121.504628333333","25.2645816666667","6502100","三芝區"
