"lineid","car","time","location","longitude","latitude","cityid","cityname"
"234044","148-BY","2017/07/14 13:19:48","新北市永和區秀朗路二段148巷3弄1號","121.52542","25.00126","6500400","永和區"
"234012","149-BY","2017/07/14 13:19:53","新北市永和區信義路39號","121.513343333333","25.0122366666667","6500400","永和區"
"234005","207-UY","2017/07/14 13:19:44","新北市永和區保平路268巷51弄12號","121.506333333333","25.00635","6500400","永和區"
"234078","298-R6","2017/07/14 13:19:35","新北市永和區福和路7巷14弄2號","121.52543","25.0072616666667","6500400","永和區"
"234036","336-UY","2017/07/14 13:19:38","新北市永和區成功路一段146號","121.526721666667","25.00161","6500400","永和區"
"234062","337-UY","2017/07/14 13:19:54","新北市永和區得和路243巷28弄21號","121.52142","25.0010733333333","6500400","永和區"
"234084","338-UY","2017/07/14 13:19:42","新北市永和區永亨路7號","121.519295","25.0057866666667","6500400","永和區"
"234068","552-UM","2017/07/14 13:19:37","新北市永和區警光街5-1號","121.519791666667","25.009535","6500400","永和區"
"234052","553-UM","2017/07/14 13:19:55","新北市永和區中興街1號","121.515381666667","25.0122883333333","6500400","永和區"
"234015","745-BX","2017/07/14 13:19:42","新北市永和區環河西路一段91-1號","121.512253333333","25.0179333333333","6500400","永和區"
"234028","746-BX","2017/07/14 13:19:47","新北市永和區民生路33號","121.522693333333","24.9982933333333","6500400","永和區"
"234060","AAD-866","2017/07/14 13:19:42","新北市永和區秀朗路一段120號","121.517016666667","25.003555","6500400","永和區"
"234040","862-TW","2017/07/14 13:19:49","新北市永和區永貞路273號","121.511553333333","25.0050033333333","6500400","永和區"
"234048","863-TW","2017/07/14 13:19:43","新北市永和區文化路113巷12弄20號","121.512523333333","25.0144766666667","6500400","永和區"
"234025","9371-KE","2017/07/14 13:19:35","新北市永和區中正路664號","121.516745","25.0089116666667","6500400","永和區"
"234010","9373-KE","2017/07/14 13:19:40","新北市永和區文化路99號","121.513123333333","25.0152116666667","6500400","永和區"
"248019","225-UY","2017/07/14 13:19:38","新北市五股區孝義路19-1號","121.452548333333","25.109665","6501500","五股區"
"234022","9380-KE","2017/07/14 13:19:38","新北市永和區竹林路91巷18號","121.52041","25.0122766666667","6500400","永和區"
"234076","969-R7","2017/07/14 13:19:44","新北市永和區民治街79巷8號","121.517276666667","24.9978633333333","6500400","永和區"
"234072","AAC-211","2017/07/14 13:19:46","新北市永和區竹林路5號","121.516396666667","25.0149233333333","6500400","永和區"
"234066","AAC-212","2017/07/14 13:19:32","新北市永和區保平路95號","121.511513333333","25.0069766666667","6500400","永和區"
"234001","AAC-295","2017/07/14 13:19:44","新北市永和區保福路一段68-1號","121.512591666667","25.009845","6500400","永和區"
"244004","248-BX","2017/07/14 13:19:50","新北市林口區頭湖74-68號","121.362773333333","25.091745","6501700","林口區"
"231002","002-UM","2017/07/14 13:19:48","新北市新店區安華路28-1號","121.519633333333","24.9608","6500600","新店區"
"231025","0293-UT","2017/07/14 13:19:48","新北市新店區安華路28-1號","121.519698333333","24.9614466666667","6500600","新店區"
"231028","046-UY","2017/07/14 13:19:40","新北市新店區安華路28-1號","121.519603333333","24.9607916666667","6500600","新店區"
"231030","047-UY","2017/07/14 13:19:46","新北市新店區安康路一段299-1號","121.52223","24.9635466666667","6500600","新店區"
"231029","106-UY","2017/07/14 13:19:37","新北市新店區安華路28-1號","121.519595","24.9608","6500600","新店區"
"231018","107-UY","2017/07/14 13:19:46","新北市新店區安康路一段104號","121.527311666667","24.96247","6500600","新店區"
"231012","108-UY","2017/07/14 13:19:37","新北市新店區安康路一段229號","121.525558333333","24.9631616666667","6500600","新店區"
"231022","187-VK","2017/07/14 13:19:49","新北市新店區安康路一段35-5號","121.531891666667","24.9606466666667","6500600","新店區"
"231009","188-VK","2017/07/14 13:19:46","新北市新店區新烏路一段123-1號","121.544823333333","24.937635","6500600","新店區"
"231026","256-BX","2017/07/14 13:19:41","新北市新店區安華路28-1號","121.519611666667","24.9610933333333","6500600","新店區"
"231034","268-BY","2017/07/14 13:19:54","新北市新店區安華路28-1號","121.519413333333","24.9605983333333","6500600","新店區"
"231010","278-BY","2017/07/14 13:19:39","新北市新店區安康路一段111-1號","121.52861","24.9617116666667","6500600","新店區"
"231016","AAD-862","2017/07/14 13:19:34","新北市新店區安康路一段79巷1號","121.52986","24.9612333333333","6500600","新店區"
"231027","3712-VJ","2017/07/14 13:19:46","新北市新店區環河路3巷4號","121.53801","24.9610016666667","6500600","新店區"
"231024","3713-VJ","2017/07/14 13:19:51","新北市新店區安康路一段146號","121.52644","24.96291","6500600","新店區"
"231038","4715-K9","2017/07/14 13:19:48","新北市新店區安華路28-1號","121.519371666667","24.9606866666667","6500600","新店區"
"231036","512-UM","2017/07/14 13:19:41","新北市新店區安忠路205巷8號","121.509746666667","24.95513","6500600","新店區"
"231023","513-UM","2017/07/14 13:19:41","新北市新店區安康路一段355-3號","121.519806666667","24.9623616666667","6500600","新店區"
"231035","515-UM","2017/07/14 13:19:43","新北市新店區安華路28-1號","121.519743333333","24.9612266666667","6500600","新店區"
"231003","616-UM","2017/07/14 13:19:44","新北市新店區安華路28-1號","121.519676666667","24.96087","6500600","新店區"
"231006","617-UM","2017/07/14 13:19:48","新北市新店區安華路28-1號","121.519441666667","24.9609616666667","6500600","新店區"
"231001","619-UM","2017/07/14 13:19:54","新北市新店區安華路28-1號","121.519495","24.9609733333333","6500600","新店區"
"231013","719-UM","2017/07/14 13:19:40","新北市新店區安康路一段191號","121.526491666667","24.962845","6500600","新店區"
"231032","720-UM","2017/07/14 13:19:51","新北市新店區安忠路205巷8號","121.509915","24.9553166666667","6500600","新店區"
"231005","897-TW","2017/07/14 13:19:46","新北市新店區安華路28-1號","121.519573333333","24.96093","6500600","新店區"
"231004","899-TW","2017/07/14 13:19:41","新北市新店區安華路28-1號","121.519381666667","24.9608816666667","6500600","新店區"
"231037","AKT-0513","2017/07/14 13:19:37","新北市新店區安豐路49號","121.500098333333","24.9540383333333","6500600","新店區"
"235030","003-UY","2017/07/14 13:19:38","新北市中和區中山路二段122號","121.502658333333","25.003655","6500300","中和區"
"235028","005-UY","2017/07/14 13:19:53","新北市中和區中正路154號","121.498613333333","24.993775","6500300","中和區"
"235027","031-BX","2017/07/14 13:19:34","新北市中和區員山路36巷16-3號","121.484913333333","24.9912933333333","6500300","中和區"
"235003","097-UM","2017/07/14 13:19:37","新北市中和區中正路275號","121.495513333333","24.9938816666667","6500300","中和區"
"235065","098-UM","2017/07/14 13:19:35","新北市中和區中山路二段220號","121.499556666667","25.002765","6500300","中和區"
"235004","150-BY","2017/07/14 13:19:49","新北市中和區中正路277號","121.495248333333","24.9937766666667","6500300","中和區"
"235022","151-BY","2017/07/14 13:19:45","新北市中和區圓通路367巷15-1號","121.492215","24.98738","6500300","中和區"
"235019","183-VK","2017/07/14 13:17:26","新北市中和區中正路748號","121.48546","24.998425","6500300","中和區"
"235002","185-VK","2017/07/14 13:19:45","新北市中和區大智街55巷1號","121.520723333333","24.99196","6500300","中和區"
"235031","255-BX","2017/07/14 13:19:40","新北市中和區民樂路81號","121.48478","25.00124","6500300","中和區"
"235036","301-VK","2017/07/14 13:19:40","新北市中和區中正路637巷52弄1號","121.48544","24.993465","6500300","中和區"
"235007","352-BY","2017/07/14 13:19:53","新北市中和區景平路375號","121.504205","24.9934866666667","6500300","中和區"
"235015","376-QA","2017/07/14 13:19:40","新北市中和區信義街34號","121.511136666667","24.9890883333333","6500300","中和區"
"235032","377-QA","2017/07/14 13:18:41","新北市中和區員山路36巷16-3號","121.484818333333","24.9915183333333","6500300","中和區"
"235025","378-QA","2017/07/14 13:19:44","新北市中和區連城路607號","121.477731666667","24.992935","6500300","中和區"
"235014","4979-A6","2017/07/14 13:19:36","新北市中和區捷運路129號","121.507076666667","24.9907416666667","6500300","中和區"
"235033","4980-A6","2017/07/14 13:19:52","新北市中和區圓通路236號","121.494871666667","24.992635","6500300","中和區"
"235006","551-UM","2017/07/14 13:19:33","新北市中和區大仁街20巷25弄12號","121.518981666667","24.993555","6500300","中和區"
"235009","565-BX","2017/07/14 13:19:37","新北市中和區中正路271號","121.495776666667","24.99381","6500300","中和區"
"235018","640-BX","2017/07/14 13:19:46","新北市中和區莒光路158號","121.472626666667","25.0003683333333","6500300","中和區"
"235011","732-UM","2017/07/14 13:19:54","新北市中和區錦和路350-1號","121.490445","24.99354","6500300","中和區"
"235010","733-UM","2017/07/14 13:19:53","新北市中和區員山路36巷13號","121.484138333333","24.9908866666667","6500300","中和區"
"235035","783-BX","2017/07/14 13:19:43","新北市中和區永和路458巷1弄2號","121.483991666667","25.01229","6500300","中和區"
"235026","800-TS","2017/07/14 13:19:49","新北市中和區景平路997巷2號","121.495613333333","25.0058583333333","6500300","中和區"
"235021","801-TS","2017/07/14 13:19:45","新北市中和區錦和路216號","121.49046","24.99433","6500300","中和區"
"235005","802-TS","2017/07/14 13:19:45","新北市中和區景安路9號","121.508","24.9990616666667","6500300","中和區"
"235016","805-TS","2017/07/14 13:19:43","新北市中和區興南路二段22-3號","121.507571666667","24.9857783333333","6500300","中和區"
"235012","896-TW","2017/07/14 13:19:36","新北市中和區員山路36巷16-2號","121.485273333333","24.991475","6500300","中和區"
"235017","900-TW","2017/07/14 13:19:39","新北市中和區員山路36巷16-2號","121.485323333333","24.991455","6500300","中和區"
"235034","911-UM","2017/07/14 13:19:48","新北市中和區圓通路207號","121.497141666667","24.9944333333333","6500300","中和區"
"235001","AAC-213","2017/07/14 13:19:43","新北市中和區景平路149號","121.513905","24.9921516666667","6500300","中和區"
"235023","AAC-215","2017/07/14 13:19:43","新北市中和區員山路36巷16-3號","121.48495","24.99136","6500300","中和區"
"220016","013-TV","2017/07/14 13:19:54","新北市板橋區民生路二段15-1號","121.47273","25.016425","6500100","板橋區"
"220017","AAD-861","2017/07/14 13:19:45","新北市板橋區民生路二段22號","121.472676666667","25.01662","6500100","板橋區"
"247007","339-TH","2017/07/14 13:19:35","新北市五股區中興路三段2巷10號","121.44917","25.0812166666667","6501400","蘆洲區"
"247015","001-UY","2017/07/14 13:19:36","新北市五股區中興路三段2巷10號","121.448881666667","25.0816116666667","6501400","蘆洲區"
"208004","AAC-292","2017/07/14 13:19:50","新北市金山區南勢湖74號","121.611273333333","25.2110283333333","6502700","金山區"
"207002","749-BX","2017/07/14 13:19:47","新北市萬里區崁腳里崁腳路166號","121.645153333333","25.15606","6502800","萬里區"
"207001","463-BY","2017/07/14 13:19:50","新北市萬里區龜吼里光宇大道2號","121.679815","25.1912616666667","6502800","萬里區"
"252002","178-VK","2017/07/14 13:19:22","新北市三芝區埔坪里埔頭坑93號","121.509366666667","25.25027","6502100","三芝區"
"236006","498-BY","2017/07/14 13:19:43","新北市土城區大安路138巷39號","121.434546666667","24.9720933333333","6501300","土城區"
"221032","280-BY","2017/07/14 13:19:43","新北市汐止區龍安路30號","121.654996666667","25.0641433333333","6501100","汐止區"
"221002","753-BX","2017/07/14 13:19:36","新北市汐止區福德一路392巷44號","121.626571666667","25.0624683333333","6501100","汐止區"
"220027","145-BY","2017/07/14 13:19:34","新北市板橋區華東街1-9號","121.44821","24.9948183333333","6500100","板橋區"
"220004","276-BY","2017/07/14 13:19:35","新北市板橋區民生路二段36-1號","121.472251666667","25.01662","6500100","板橋區"
"220011","609-BX","2017/07/13 21:10:52","新北市板橋區民生路二段17號","121.472538333333","25.0164466666667","6500100","板橋區"
"220005","686-BX","2017/07/14 13:19:42","新北市板橋區民生路二段17號","121.472626666667","25.016495","6500100","板橋區"
