"lineid","car","time","location","longitude","latitude","cityid","cityname"
"249005","172-UM","2017/07/14 16:49:40","新北市八里區大堀湖2-3號","121.42236","25.15375","6502300","八里區"
"249004","303-UY","2017/07/14 16:49:48","新北市八里區博物館路111號","121.408845","25.159175","6502300","八里區"
"249002","305-UY","2017/07/14 16:49:34","新北市八里區牛寮埔33號","121.429875","25.145675","6502300","八里區"
"249003","593-UM","2017/07/14 16:49:33","新北市八里區博物館路201號","121.405098333333","25.156185","6502300","八里區"
"249001","759-BX","2017/07/14 16:49:44","新北市八里區挖子尾街10號","121.415436666667","25.164245","6502300","八里區"
"231046","278-BY","2017/07/14 16:49:45","新北市新店區灣潭路29-5號","121.539611666667","24.9386933333333","6500600","新店區"
"241011","013-R5","2017/07/14 16:49:43","新北市三重區仁愛街53巷178號","121.500155","25.0729083333333","6500200","三重區"
"241028","022-UY","2017/07/14 16:49:34","新北市三重區光興街89號","121.49744","25.0599883333333","6500200","三重區"
"241008","059-VK","2017/07/14 16:49:47","新北市三重區永福街179巷25號","121.478056666667","25.074925","6500200","三重區"
"241009","060-VK","2017/07/14 16:49:40","新北市三重區溪尾街206號","121.488153333333","25.0812283333333","6500200","三重區"
"241031","061-VK","2017/07/14 16:49:42","新北市三重區過圳街19號","121.488413333333","25.0604733333333","6500200","三重區"
"241015","062-VK","2017/07/14 16:49:43","新北市三重區長元街7號","121.499041666667","25.0658033333333","6500200","三重區"
"241017","063-VK","2017/07/14 16:49:36","新北市三重區國隆路8巷31號","121.492731666667","25.0634466666667","6500200","三重區"
"241024","065-VK","2017/07/14 16:49:34","新北市三重區中正北路317巷27號","121.475788333333","25.073","6500200","三重區"
"241026","066-VK","2017/07/14 16:49:39","新北市三重區文化南路8-4號","121.500358333333","25.0621116666667","6500200","三重區"
"241002","090-VK","2017/07/14 16:49:35","新北市三重區仁義街161-4號","121.49696","25.0813816666667","6500200","三重區"
"241003","091-VK","2017/07/14 16:49:45","新北市三重區五華街87巷36號","121.493188333333","25.0840816666667","6500200","三重區"
"241005","262-UM","2017/07/14 16:49:43","新北市三重區仁安街51號","121.484308333333","25.0840266666667","6500200","三重區"
"241016","265-UM","2017/07/14 16:49:45","新北市三重區大同北路56號","121.494301666667","25.0637533333333","6500200","三重區"
"241022","267-UM","2017/07/14 16:49:29","新北市三重區貴陽街47巷2弄15號","121.48493","25.0633233333333","6500200","三重區"
"241018","268-UM","2017/07/14 16:49:35","新北市三重區安樂街80號","121.49493","25.0693766666667","6500200","三重區"
"241032","269-UM","2017/07/14 16:49:37","新北市三重區三光街30巷1號","121.484781666667","25.0605183333333","6500200","三重區"
"241013","270-UM","2017/07/14 16:49:50","新北市三重區三和路三段101巷116號","121.497798333333","25.0735183333333","6500200","三重區"
"241025","271-UM","2017/07/14 16:49:42","新北市三重區中正北路530巷29號","121.471911666667","25.0700883333333","6500200","三重區"
"241007","398-BY","2017/07/14 16:49:50","新北市三重區仁愛街622號","121.483413333333","25.0808666666667","6500200","三重區"
"241020","413-TH","2017/07/14 16:49:37","新北市三重區後竹圍街175巷3號","121.485965","25.0721583333333","6500200","三重區"
"241004","475-VK","2017/07/14 16:49:39","新北市三重區仁愛街423-1號","121.490341666667","25.0814483333333","6500200","三重區"
"241019","478-VK","2017/07/14 16:49:40","新北市三重區三張街149巷10弄15號","121.485726666667","25.0698966666667","6500200","三重區"
"241030","480-VK","2017/07/14 16:49:46","新北市三重區新興路4號","121.492733333333","25.0529","6500200","三重區"
"241014","543-UM","2017/07/14 16:49:49","新北市三重區龍濱路155號","121.502566666667","25.0694183333333","6500200","三重區"
"241023","545-UM","2017/07/14 16:49:43","新北市三重區新北大道一段206巷16號","121.482525","25.0621966666667","6500200","三重區"
"241001","547-UM","2017/07/14 16:49:44","新北市三重區仁政街57號","121.492833333333","25.0772933333333","6500200","三重區"
"241006","AAD-863","2017/07/14 16:49:48","新北市三重區力行路二段182-3號","121.483328333333","25.0774383333333","6500200","三重區"
"241012","941-UM","2017/07/14 16:49:49","新北市三重區龍門路274巷19號","121.501423333333","25.074675","6500200","三重區"
"241029","942-UM","2017/07/14 16:49:39","新北市三重區集美街205號","121.491635","25.0545483333333","6500200","三重區"
"241033","AAC-255","2017/07/14 16:49:43","新北市三重區新北大道二段137號","121.46604","25.0612233333333","6500200","三重區"
"235064","005-UY","2017/07/14 16:49:39","新北市中和區員山路36巷16-3號","121.4851","24.9913816666667","6500300","中和區"
"235022","151-BY","2017/07/14 15:37:08","新北市中和區員山路36巷16-2號","121.485226666667","24.9916033333333","6500300","中和區"
"235067","255-BX","2017/07/14 16:19:35","新北市中和區員山路36巷13號","121.484413333333","24.9912","6500300","中和區"
"247006","341-TH","2017/07/14 16:49:32","新北市蘆洲區永安南路二段132-1號","121.462526666667","25.0785883333333","6501400","蘆洲區"
"247008","339-TH","2017/07/14 16:49:35","新北市蘆洲區中山一路170號","121.474451666667","25.0814766666667","6501400","蘆洲區"
"247002","336-TH","2017/07/14 16:49:47","新北市五股區成泰路三段544號","121.45317","25.1032783333333","6501400","蘆洲區"
"247014","057-VK","2017/07/14 16:49:39","新北市蘆洲區三民路91號","121.474173333333","25.0845983333333","6501400","蘆洲區"
"247004","056-VK","2017/07/14 16:49:49","新北市蘆洲區長榮路106號","121.46185","25.0840566666667","6501400","蘆洲區"
"247016","001-UY","2017/07/14 16:49:38","新北市蘆洲區正和街7號","121.470361666667","25.082585","6501400","蘆洲區"
"228002","663-BX","2017/07/14 16:49:46","新北市貢寮區貢寮里長潭街24-3號","121.897946666667","25.023635","6502600","貢寮區"
"228003","828-UM","2017/07/14 16:49:35","新北市貢寮區貢寮里朝陽街1-2號","121.912333333333","25.021255","6502600","貢寮區"
"224006","676-BX","2017/07/14 16:49:41","新北市瑞芳區大寮路356-1號","121.784886666667","25.1032566666667","6501200","瑞芳區"
"224009","285-BY","2017/07/14 16:49:32","新北市瑞芳區民權街3-1號","121.80937","25.1082566666667","6501200","瑞芳區"
"224008","275-VK","2017/07/14 16:49:39","新北市瑞芳區明燈路二段15號","121.811741666667","25.1079783333333","6501200","瑞芳區"
"224007","273-VK","2017/07/14 16:49:39","新北市瑞芳區瑞竹路76-4號","121.763433333333","25.10338","6501200","瑞芳區"
"224005","271-BY","2017/07/14 16:49:47","新北市瑞芳區明里路90號","121.86763","25.1220733333333","6501200","瑞芳區"
"227011","642-TC","2017/07/14 16:49:49","新北市雙溪區牡丹里石3號","121.865331666667","25.0530133333333","6502500","雙溪區"
"227003","400-TW","2017/07/14 16:49:48","新北市雙溪區外柑里外柑腳79號","121.806558333333","25.0175466666667","6502500","雙溪區"
"251013","180-VK","2017/07/14 16:49:34","新北市淡水區泉洲厝32號","121.489315","25.1924533333333","6501000","淡水區"
"251008","181-VK","2017/07/14 16:49:33","新北市淡水區樹梅坑9號","121.472766666667","25.14266","6501000","淡水區"
"251015","182-VK","2017/07/14 16:49:43","新北市淡水區忠愛街5-2號","121.460683333333","25.171585","6501000","淡水區"
"251006","561-UM","2017/07/14 16:29:09","新北市淡水區中正路二段31號","121.419221666667","25.1818783333333","6501000","淡水區"
"252002","178-VK","2017/07/14 16:49:51","新北市三芝區忠孝街68號","121.505828333333","25.2570683333333","6502100","三芝區"
"242048","751-BX","2017/07/14 16:49:40","新北市新莊區新泰路357巷3弄57號","121.441965","25.039175","6500500","新莊區"
"242027","612-BX","2017/07/14 16:49:42","新北市新莊區新泰路357巷3弄57號","121.442283333333","25.039505","6500500","新莊區"
"242034","133-UY","2017/07/14 16:49:36","新北市新莊區三和路12-21號","121.441915","25.0389016666667","6500500","新莊區"
"242009","351-TH","2017/07/14 14:43:29","新北市新莊區新泰路357巷3弄57號","121.442153333333","25.03946","6500500","新莊區"
"238018","571-TV","2017/07/14 16:49:34","新北市樹林區育德街78號","121.387423333333","24.9683883333333","6500700","樹林區"
"239008","527-UM","2017/07/14 16:49:40","新北市鶯歌區二甲路13-16號","121.34527","24.935305","6500800","鶯歌區"
"239001","417-VK","2017/07/14 16:49:38","新北市鶯歌區二甲路12-2號","121.345476666667","24.93508","6500800","鶯歌區"
"239003","360-BY","2017/07/14 16:49:35","新北市鶯歌區二甲路12-2號","121.345611666667","24.9350733333333","6500800","鶯歌區"
"239002","359-BY","2017/07/13 20:13:30","新北市鶯歌區二甲路12-2號","121.346043333333","24.9349733333333","6500800","鶯歌區"
