"lineid","car","time","location","longitude","latitude","cityid","cityname"
"234026","9371-KE","2017/07/14 17:39:31","新北市永和區中正路720號","121.515841666667","25.0100016666667","6500400","永和區"
"249005","172-UM","2017/07/14 17:39:40","新北市八里區荖阡坑路28-5號","121.402873333333","25.1297833333333","6502300","八里區"
"249004","303-UY","2017/07/14 17:39:48","新北市八里區賢一街97號","121.418868333333","25.157445","6502300","八里區"
"249002","305-UY","2017/07/14 17:39:34","新北市八里區龍形二街6號","121.450706666667","25.1315683333333","6502300","八里區"
"249003","593-UM","2017/07/14 17:39:33","新北市八里區中山路二段217號","121.40361","25.1493983333333","6502300","八里區"
"249001","759-BX","2017/07/14 17:39:44","新北市八里區龍米路二段153-8號","121.440106666667","25.1534283333333","6502300","八里區"
"232011","375-UM","2017/07/14 17:39:37","新北市坪林區北宜路八段363號","121.709921666667","24.9331316666667","6502000","坪林區"
"244013","069-UM","2017/07/14 17:39:41","新北市林口區中正路555號","121.381155","25.0768583333333","6501700","林口區"
"244007","080-UY","2017/07/14 17:39:46","新北市林口區林口路270號","121.386283333333","25.084595","6501700","林口區"
"244019","403-UM","2017/07/14 17:39:36","新北市林口區文化一路一段115號","121.373183333333","25.0711066666667","6501700","林口區"
"244009","410-SL","2017/07/14 17:39:39","新北市林口區文化一路二段285-1號","121.385053333333","25.08464","6501700","林口區"
"244023","483-VK","2017/07/14 17:39:36","新北市林口區東明一街95巷20號","121.391325","25.0704366666667","6501700","林口區"
"244017","485-VK","2017/07/14 17:39:45","新北市林口區文化一路一段146號","121.376866666667","25.07396","6501700","林口區"
"244011","701-TV","2017/07/14 17:39:35","新北市林口區佳林路146號","121.384241666667","25.0771116666667","6501700","林口區"
"244025","837-TS","2017/07/14 17:39:52","新北市林口區忠孝路308巷20號","121.366758333333","25.07239","6501700","林口區"
"244021","838-TS","2017/07/14 17:39:48","新北市林口區粉寮路一段7號","121.396303333333","25.0761033333333","6501700","林口區"
"222002","659-BX","2017/07/14 17:39:46","新北市深坑區深坑街99號","121.61431","25.0010983333333","6501800","深坑區"
"231046","278-BY","2017/07/14 17:39:45","新北市新店區直潭路92號","121.530936666667","24.9375916666667","6500600","新店區"
"241017","063-VK","2017/07/14 17:39:36","新北市三重區大同北路34巷18號","121.494805","25.06244","6500200","三重區"
"241024","065-VK","2017/07/14 17:39:34","新北市三重區國道路一段58巷20號","121.481275","25.07204","6500200","三重區"
"241026","066-VK","2017/07/14 17:39:39","新北市三重區文化南路42號","121.500353333333","25.060275","6500200","三重區"
"241003","091-VK","2017/07/14 17:39:40","新北市三重區仁愛街377巷130號","121.493503333333","25.081815","6500200","三重區"
"241005","262-UM","2017/07/14 17:39:43","新北市三重區仁愛街548號","121.485968333333","25.0816816666667","6500200","三重區"
"241016","265-UM","2017/07/14 17:39:45","新北市三重區重新路二段64號","121.497863333333","25.0621733333333","6500200","三重區"
"241007","398-BY","2017/07/14 17:39:50","新北市三重區福隆路9號","121.48968","25.0770066666667","6500200","三重區"
"241019","478-VK","2017/07/14 17:39:40","新北市三重區三張街149巷16號","121.486601666667","25.070115","6500200","三重區"
"241014","543-UM","2017/07/14 17:39:49","新北市三重區河邊北街80號","121.504326666667","25.0689","6500200","三重區"
"241023","545-UM","2017/07/14 17:39:43","新北市三重區中華路95號","121.483586666667","25.0630816666667","6500200","三重區"
"241012","941-UM","2017/07/14 17:39:49","新北市三重區河邊北街379-1號","121.501855","25.07651","6500200","三重區"
"241033","AAC-255","2017/07/14 17:39:42","新北市三重區光復路一段51號","121.472166666667","25.0489266666667","6500200","三重區"
"235064","005-UY","2017/07/14 17:39:49","新北市中和區員山路36巷16-3號","121.485036666667","24.99112","6500300","中和區"
"235022","151-BY","2017/07/14 17:15:04","新北市中和區員山路36巷16-2號","121.485163333333","24.9917833333333","6500300","中和區"
"235067","255-BX","2017/07/14 16:19:35","新北市中和區員山路36巷13號","121.484413333333","24.9912","6500300","中和區"
"235061","378-QA","2017/07/14 15:02:47","新北市中和區員山路36巷13號","121.48421","24.9910516666667","6500300","中和區"
"235052","805-TS","2017/07/14 17:39:38","新北市中和區員山路36巷16-3號","121.484753333333","24.99109","6500300","中和區"
"247020","893-R6","2017/07/14 17:39:35","新北市蘆洲區民義街114號","121.47409","25.09108","6501400","蘆洲區"
"247010","546-UM","2017/07/14 17:39:33","新北市蘆洲區中山一路124-2號","121.47684","25.0816283333333","6501400","蘆洲區"
"247018","500-BY","2017/07/14 17:39:33","新北市蘆洲區民權路102號","121.473938333333","25.0881566666667","6501400","蘆洲區"
"247006","341-TH","2017/07/14 17:39:51","新北市蘆洲區永安南路二段100號","121.46322","25.0780916666667","6501400","蘆洲區"
"247008","339-TH","2017/07/14 17:39:35","新北市蘆洲區和平路29巷15號","121.472135","25.0783833333333","6501400","蘆洲區"
"247024","337-TH","2017/07/14 17:39:34","新北市蘆洲區光榮路93號","121.462416666667","25.0886083333333","6501400","蘆洲區"
"247002","336-TH","2017/07/14 17:39:47","新北市蘆洲區永平街32巷7號","121.458846666667","25.091245","6501400","蘆洲區"
"247014","057-VK","2017/07/14 17:39:39","新北市蘆洲區中正路32號","121.47131","25.08223","6501400","蘆洲區"
"247004","056-VK","2017/07/14 17:39:49","新北市蘆洲區永安南路二段350號","121.456376666667","25.08291","6501400","蘆洲區"
"247012","007-UY","2017/07/14 17:39:47","新北市蘆洲區復興路112號","121.47611","25.0872116666667","6501400","蘆洲區"
"247022","002-UY","2017/07/14 17:39:43","新北市蘆洲區三民路277號","121.467881666667","25.08977","6501400","蘆洲區"
"247016","001-UY","2017/07/14 17:39:38","新北市蘆洲區中正路243巷19號","121.466411666667","25.0854966666667","6501400","蘆洲區"
"228002","663-BX","2017/07/14 17:39:46","新北市貢寮區福隆里龜壽谷街13號","121.957303333333","25.0053583333333","6502600","貢寮區"
"228001","670-TC","2017/07/14 17:39:32","新北市貢寮區仁理村仁愛路95-1號","121.927723333333","25.0554433333333","6502600","貢寮區"
"228003","828-UM","2017/07/14 17:39:51","新北市貢寮區真理里延平街11號","121.924366666667","25.0546833333333","6502600","貢寮區"
"224010","AGQ-8101","2017/07/14 17:35:46","新北市瑞芳區岳王路1巷8號","121.806838333333","25.1105266666667","6501200","瑞芳區"
"224006","676-BX","2017/07/14 17:39:52","新北市瑞芳區中山路365號","121.796376666667","25.11007","6501200","瑞芳區"
"224002","639-TC","2017/07/14 17:37:22","新北市瑞芳區明燈路二段46號","121.80956","25.1081516666667","6501200","瑞芳區"
"224009","285-BY","2017/07/14 17:39:32","新北市瑞芳區山尖路209號","121.849605","25.11163","6501200","瑞芳區"
"224008","275-VK","2017/07/14 17:39:48","新北市瑞芳區明燈路一段100號","121.81923","25.1078116666667","6501200","瑞芳區"
"224005","271-BY","2017/07/14 17:39:47","新北市瑞芳區海濱路16-1號","121.830858333333","25.12541","6501200","瑞芳區"
"208003","665-BX","2017/07/14 17:39:34","新北市金山區磺清路135號","121.639448333333","25.22777","6502700","金山區"
"208001","761-BX","2017/07/14 17:39:36","新北市金山區磺清路121號","121.639638333333","25.2279033333333","6502700","金山區"
"251004","009-UM","2017/07/14 17:39:50","新北市淡水區中正東路二段163號","121.459546666667","25.1457516666667","6501000","淡水區"
"251002","012-UM","2017/07/14 17:39:36","新北市淡水區重建街永興巷11號","121.43939","25.1726383333333","6501000","淡水區"
"251013","180-VK","2017/07/14 17:39:42","新北市淡水區演戲埔腳6號","121.471656666667","25.19389","6501000","淡水區"
"251008","181-VK","2017/07/14 17:39:33","新北市淡水區八勢路30巷19號","121.462858333333","25.15359","6501000","淡水區"
"251015","182-VK","2017/07/14 17:36:03","新北市淡水區樹林口168號","121.475465","25.166905","6501000","淡水區"
"251010","413-VK","2017/07/14 17:39:47","新北市淡水區淡海路292號","121.419071666667","25.1888966666667","6501000","淡水區"
"251012","441-VK","2017/07/14 17:39:41","新北市淡水區北新路200巷8號","121.451773333333","25.1796683333333","6501000","淡水區"
"251005","443-VK","2017/07/14 17:39:41","新北市淡水區鄧公路35巷9號","121.452015","25.1712333333333","6501000","淡水區"
"251001","559-UM","2017/07/14 17:39:34","新北市淡水區民權路92巷35-1號","121.462168333333","25.1266966666667","6501000","淡水區"
"251006","561-UM","2017/07/14 17:39:39","新北市淡水區中山北路一段117號","121.44258","25.17689","6501000","淡水區"
"251009","575-R6","2017/07/14 17:39:39","新北市淡水區中正路38-1號","121.443671666667","25.1692833333333","6501000","淡水區"
"251007","577-R6","2017/07/14 17:39:50","新北市淡水區民生路52巷54號","121.463416666667","25.1378083333333","6501000","淡水區"
"251011","650-BX","2017/07/14 17:39:31","新北市淡水區小坪頂15號","121.485936666667","25.1559616666667","6501000","淡水區"
"251003","673-BX","2017/07/14 17:39:48","新北市淡水區大仁街69號","121.442938333333","25.1762516666667","6501000","淡水區"
"207003","550-UM","2017/07/14 17:39:33","新北市萬里區野柳里東澳路20號","121.691411666667","25.199215","6502800","萬里區"
"207004","225-TW","2017/07/14 17:39:29","新北市萬里區中幅里中福路8-1號","121.685915","25.1649466666667","6502800","萬里區"
"252002","178-VK","2017/07/14 17:39:31","新北市三芝區中正路二段2號","121.504941666667","25.255725","6502100","三芝區"
"252001","292-VK","2017/07/14 17:39:31","新北市三芝區淡金路一段75號","121.502033333333","25.2587966666667","6502100","三芝區"
"237013","252-BX","2017/07/14 17:39:38","新北市三峽區愛國路33-8號","121.374695","24.9331833333333","6500900","三峽區"
"237015","649-BX","2017/07/14 17:39:49","新北市三峽區民權街189號","121.367805","24.9292866666667","6500900","三峽區"
"237010","706-TV","2017/07/14 17:39:36","新北市三峽區中山路143號","121.3651","24.9361383333333","6500900","三峽區"
"236043","107-UM","2017/07/14 17:39:48","新北市土城區城林路6巷80號","121.438493333333","24.9795783333333","6501300","土城區"
"236079","166-UM","2017/07/14 17:39:40","新北市土城區城林路6巷80號","121.43856","24.9796566666667","6501300","土城區"
"236031","253-BX","2017/07/14 17:39:48","新北市土城區城林路6巷80號","121.43867","24.9796166666667","6501300","土城區"
"236027","269-VK","2017/07/14 17:39:42","新北市土城區中華路二段2號","121.439495","24.97953","6501300","土城區"
"242021","AAC-296","2017/07/14 17:39:40","新北市新莊區中華路一段67號","121.452226666667","25.039705","6500500","新莊區"
"242029","986-R7","2017/07/14 17:39:46","新北市新莊區復興路一段163號","121.450975","25.043405","6500500","新莊區"
"242048","751-BX","2017/07/14 17:39:43","新北市新莊區萬安街88號","121.420748333333","25.0227133333333","6500500","新莊區"
"242025","615-BX","2017/07/14 17:39:44","新北市新莊區思源路118號","121.460081666667","25.0468783333333","6500500","新莊區"
"242023","613-BX","2017/07/14 17:39:45","新北市新莊區中港路132巷24號","121.456386666667","25.040615","6500500","新莊區"
"242027","612-BX","2017/07/14 17:39:42","新北市新莊區福壽街81號","121.458175","25.0499216666667","6500500","新莊區"
"242037","566-BX","2017/07/14 17:39:46","新北市新莊區後港一路161號","121.431698333333","25.0280216666667","6500500","新莊區"
"242041","497-BY","2017/07/14 17:39:49","新北市泰山區台麗街93-6號","121.428595","25.0359616666667","6500500","新莊區"
"242005","442-UM","2017/07/14 17:39:34","新北市新莊區自立街200號","121.456703333333","25.0454866666667","6500500","新莊區"
"242046","441-UM","2017/07/14 17:39:51","新北市新莊區福營路57號","121.43524","25.0323783333333","6500500","新莊區"
"242050","440-UM","2017/07/14 17:39:17","新北市新莊區西盛街216號","121.428026666667","25.01742","6500500","新莊區"
"242032","415-TV","2017/07/14 17:39:36","新北市新莊區新泰路321巷1弄3號","121.44483","25.0412983333333","6500500","新莊區"
"242002","413-TV","2017/07/14 17:39:47","新北市新莊區新莊路407號","121.45089","25.0336516666667","6500500","新莊區"
"242039","400-BY","2017/07/14 17:39:48","新北市新莊區民全街6號","121.42901","25.021485","6500500","新莊區"
"242060","362-BY","2017/07/14 17:39:37","新北市新莊區瓊林南路77-9號","121.434646666667","25.0135683333333","6500500","新莊區"
"242058","353-BY","2017/07/14 17:39:33","新北市新莊區中正路676號","121.420713333333","25.0284033333333","6500500","新莊區"
"242011","132-UY","2017/07/14 17:39:43","新北市新莊區中港路635號","121.45104","25.0544433333333","6500500","新莊區"
"242034","133-UY","2017/07/14 17:39:36","新北市新莊區新莊路528號","121.445753333333","25.0329333333333","6500500","新莊區"
"242019","135-UY","2017/07/14 17:39:37","新北市新莊區中港路176號","121.454911666667","25.04194","6500500","新莊區"
"242044","172-VK","2017/07/14 17:39:49","新北市新莊區富國路8號","121.418165","25.0264733333333","6500500","新莊區"
"242007","173-VK","2017/07/14 17:39:48","新北市新莊區福樂街118巷5號","121.457285","25.048095","6500500","新莊區"
"242056","176-VK","2017/07/14 17:39:44","新北市新莊區瓊林路38-9號","121.448098333333","25.030285","6500500","新莊區"
"242013","346-TH","2017/07/14 17:39:49","新北市新莊區中誠街73號","121.450523333333","25.04785","6500500","新莊區"
"242017","348-TH","2017/07/14 17:39:45","新北市新莊區中和街30巷17號","121.449076666667","25.043965","6500500","新莊區"
"242054","349-TH","2017/07/14 17:39:48","新北市新莊區新樹路723號","121.431876666667","25.0018616666667","6500500","新莊區"
"242015","350-TH","2017/07/14 17:39:37","新北市新莊區新泰路339號","121.444836666667","25.04185","6500500","新莊區"
"242009","351-TH","2017/07/14 17:39:32","新北市新莊區福壽街169巷9號","121.457036666667","25.0537516666667","6500500","新莊區"
"238015","755-BX","2017/07/14 17:39:40","新北市樹林區啟智街26號","121.420855","24.9934066666667","6500700","樹林區"
"238023","601-UM","2017/07/14 17:39:40","新北市樹林區三福街91號","121.406683333333","25.0162666666667","6500700","樹林區"
"238019","599-UM","2017/07/14 17:39:37","新北市樹林區太平路127巷12號","121.419818333333","24.9806266666667","6500700","樹林區"
"238018","571-TV","2017/07/14 17:39:34","新北市樹林區鎮前街97巷2號","121.424496666667","24.9895983333333","6500700","樹林區"
"238024","5061-A6","2017/07/14 17:39:44","新北市樹林區中華路6-3號","121.424576666667","24.9842783333333","6500700","樹林區"
"238022","312-TH","2017/07/14 17:39:41","新北市樹林區和平街2巷2號","121.420841666667","24.9814716666667","6500700","樹林區"
"238021","311-TH","2017/07/14 14:11:39","新北市樹林區中山路三段198號","121.38733","24.96858","6500700","樹林區"
"238025","303-VK","2017/07/14 17:39:37","新北市樹林區保安街二段223號","121.413235","25.004415","6500700","樹林區"
"238017","283-BY","2017/07/14 17:39:32","新北市樹林區三德街30巷16弄48號","121.41382","25.01186","6500700","樹林區"
"238014","282-BY","2017/07/14 17:39:37","新北市樹林區保安街一段290號","121.419295","24.997375","6500700","樹林區"
"238020","268-VK","2017/07/14 17:39:43","新北市樹林區俊英街122號","121.427216666667","25.005705","6500700","樹林區"
"238026","172-UY","2017/07/14 17:39:34","新北市樹林區新興街19巷34弄21號","121.402308333333","24.9727333333333","6500700","樹林區"
"238016","169-UY","2017/07/14 17:39:46","新北市樹林區中山路一段152號","121.422318333333","24.9897516666667","6500700","樹林區"
"239007","AAC-297","2017/07/14 17:39:40","新北市鶯歌區鶯桃路167號","121.337085","24.9553033333333","6500800","鶯歌區"
"239006","891-R6","2017/07/14 17:39:37","新北市鶯歌區鶯桃路436巷61弄18號","121.3334","24.9671616666667","6500800","鶯歌區"
"239008","527-UM","2017/07/14 17:39:40","新北市鶯歌區大湖路732巷15弄4號","121.33284","24.9778433333333","6500800","鶯歌區"
"239001","417-VK","2017/07/14 17:39:38","新北市鶯歌區中正三路300號","121.328411666667","24.93566","6500800","鶯歌區"
"239003","360-BY","2017/07/14 17:39:35","新北市鶯歌區鶯桃路196號","121.3376","24.95875","6500800","鶯歌區"
"239002","359-BY","2017/07/14 17:39:38","新北市鶯歌區光明街97號","121.344738333333","24.9557166666667","6500800","鶯歌區"
"239004","193-VK","2017/07/14 17:39:37","新北市鶯歌區三鶯路77號","121.358085","24.9430133333333","6500800","鶯歌區"
"221010","269-BY","2017/07/14 17:39:52","新北市汐止區汐萬路一段256巷1號","121.652015","25.0747633333333","6501100","汐止區"
"221023","279-VK","2017/07/14 02:09:19","新北市汐止區康寧街901號","121.651768333333","25.07508","6501100","汐止區"
"221032","280-BY","2017/07/14 17:39:46","新北市汐止區樟樹二路351號","121.643181666667","25.0738116666667","6501100","汐止區"
"221033","647-BX","2017/07/14 17:39:46","新北市汐止區大同路一段52號","121.622416666667","25.0549016666667","6501100","汐止區"
"221018","753-BX","2017/07/14 17:39:43","新北市汐止區汐萬路一段3號","121.65595","25.0672816666667","6501100","汐止區"
