"lineid","car","time","location","longitude","latitude","cityid","cityname"
"234026","9371-KE","2017/07/14 17:49:38","新北市永和區永平路180巷3號","121.510638333333","25.00941","6500400","永和區"
"234011","9373-KE","2017/07/14 17:49:51","新北市永和區福和路1號","121.526448333333","25.00973","6500400","永和區"
"249005","172-UM","2017/07/14 17:49:40","新北市八里區荖阡坑路41-10號","121.402406666667","25.1334316666667","6502300","八里區"
"249004","303-UY","2017/07/14 17:49:48","新北市八里區中華路一段81巷28號","121.419425","25.1543133333333","6502300","八里區"
"249002","305-UY","2017/07/14 17:49:34","新北市八里區龍形二街17號","121.45049","25.131535","6502300","八里區"
"249003","593-UM","2017/07/14 17:49:33","新北市八里區中山路二段123號","121.405461666667","25.1518816666667","6502300","八里區"
"249001","759-BX","2017/07/14 17:49:44","新北市八里區龍米路二段125巷25號","121.446081666667","25.146195","6502300","八里區"
"248014","025-BX","2017/07/14 17:49:46","新北市五股區中興路二段63巷17號","121.460193333333","25.07532","6501500","五股區"
"248008","095-VK","2017/07/14 17:49:32","新北市五股區中興路二段37巷28號","121.460188333333","25.0750916666667","6501500","五股區"
"248018","225-UY","2017/07/14 17:49:42","新北市五股區中興路二段83巷26-6號","121.460038333333","25.0752","6501500","五股區"
"248010","272-BY","2017/07/14 10:16:55","新北市五股區中興路二段83巷26-6號","121.46","25.07503","6501500","五股區"
"232011","375-UM","2017/07/14 17:49:41","新北市坪林區北宜路八段186號","121.707898333333","24.9346183333333","6502000","坪林區"
"244013","069-UM","2017/07/14 17:49:41","新北市林口區中正路505巷5號","121.383388333333","25.077215","6501700","林口區"
"244007","080-UY","2017/07/14 17:49:46","新北市林口區林口路115號","121.388888333333","25.0807966666667","6501700","林口區"
"244019","403-UM","2017/07/14 17:49:36","新北市林口區文化一路一段83巷14弄92號","121.372865","25.0717283333333","6501700","林口區"
"244009","410-SL","2017/07/14 17:49:39","新北市林口區寶林路123號","121.383075","25.0854233333333","6501700","林口區"
"244023","483-VK","2017/07/14 17:49:36","新北市林口區東明二街86號","121.389623333333","25.069915","6501700","林口區"
"244017","485-VK","2017/07/14 17:49:45","新北市林口區忠孝路377號","121.369338333333","25.0715466666667","6501700","林口區"
"244011","701-TV","2017/07/14 17:49:35","新北市林口區中正路352號","121.386448333333","25.077715","6501700","林口區"
"244025","837-TS","2017/07/14 17:49:32","新北市林口區忠孝三路42號","121.360178333333","25.0699466666667","6501700","林口區"
"244021","838-TS","2017/07/14 17:49:28","新北市林口區仁愛路一段145號","121.398743333333","25.07163","6501700","林口區"
"222003","436-BY","2017/07/14 17:49:46","新北市深坑區阿柔洋60-1號","121.608598333333","24.9985416666667","6501800","深坑區"
"222002","659-BX","2017/07/14 17:49:46","新北市深坑區平埔街22巷17弄1號","121.614858333333","25.000835","6501800","深坑區"
"231046","278-BY","2017/07/14 17:49:45","新北市新店區下石厝路19-1號","121.532203333333","24.92744","6500600","新店區"
"241024","065-VK","2017/07/14 17:49:47","新北市三重區力行路二段9巷2號","121.482266666667","25.07222","6500200","三重區"
"241005","262-UM","2017/07/14 17:49:43","新北市三重區集賢路87-1號","121.49361","25.0868116666667","6500200","三重區"
"241016","265-UM","2017/07/14 17:49:40","新北市三重區過圳街31巷2號","121.488966666667","25.0606116666667","6500200","三重區"
"241033","AAC-255","2017/07/14 17:49:42","新北市三重區光復路一段11號","121.472128333333","25.047165","6500200","三重區"
"235064","005-UY","2017/07/14 17:49:29","新北市中和區員山路36巷16-2號","121.485331666667","24.9913066666667","6500300","中和區"
"235063","006-UY","2017/07/14 17:49:46","新北市中和區員山路36巷16-3號","121.485068333333","24.9912483333333","6500300","中和區"
"235022","151-BY","2017/07/14 17:49:33","新北市中和區員山路36巷16-2號","121.48518","24.9916483333333","6500300","中和區"
"235067","255-BX","2017/07/14 16:19:35","新北市中和區員山路36巷13號","121.484413333333","24.9912","6500300","中和區"
"235061","378-QA","2017/07/14 15:02:47","新北市中和區員山路36巷13號","121.48421","24.9910516666667","6500300","中和區"
"235052","805-TS","2017/07/14 17:49:38","新北市中和區員山路36巷16-3號","121.484626666667","24.9912133333333","6500300","中和區"
"247020","893-R6","2017/07/14 17:49:40","新北市蘆洲區民權路190-6號","121.472013333333","25.0910266666667","6501400","蘆洲區"
"247010","546-UM","2017/07/14 17:49:33","新北市蘆洲區信義路259巷12號","121.478238333333","25.08446","6501400","蘆洲區"
"247018","500-BY","2017/07/14 17:49:33","新北市蘆洲區復興路227巷2弄21號","121.481176666667","25.0904616666667","6501400","蘆洲區"
"247006","341-TH","2017/07/14 17:49:51","新北市蘆洲區九芎街167巷3號","121.465008333333","25.0787416666667","6501400","蘆洲區"
"247008","339-TH","2017/07/14 17:49:35","新北市蘆洲區信義路28號","121.474083333333","25.0792583333333","6501400","蘆洲區"
"247024","337-TH","2017/07/14 17:49:34","新北市蘆洲區光榮路46號","121.461066666667","25.08838","6501400","蘆洲區"
"247002","336-TH","2017/07/14 17:49:47","新北市蘆洲區永平街32巷45弄4號","121.459438333333","25.092445","6501400","蘆洲區"
"247014","057-VK","2017/07/14 17:49:39","新北市蘆洲區長榮路98號","121.462033333333","25.0838766666667","6501400","蘆洲區"
"247012","007-UY","2017/07/14 17:49:36","新北市蘆洲區復興路200號","121.478438333333","25.08895","6501400","蘆洲區"
"247022","002-UY","2017/07/14 17:49:43","新北市蘆洲區中正路377號","121.464491666667","25.0908466666667","6501400","蘆洲區"
"247016","001-UY","2017/07/14 17:49:38","新北市蘆洲區中正路185巷56號","121.466906666667","25.0847166666667","6501400","蘆洲區"
"228002","663-BX","2017/07/14 17:49:46","新北市貢寮區福隆里龜壽谷街11-1號","121.954691666667","25.0068516666667","6502600","貢寮區"
"228001","670-TC","2017/07/14 17:49:32","新北市貢寮區仁理村仁愛路95-1號","121.927685","25.0554333333333","6502600","貢寮區"
"228003","828-UM","2017/07/14 17:49:35","新北市貢寮區真理里美艷山街6-2號","121.928808333333","25.0607383333333","6502600","貢寮區"
"224006","676-BX","2017/07/14 17:49:41","新北市瑞芳區瑞興新村12巷1號","121.78848","25.1084133333333","6501200","瑞芳區"
"224002","639-TC","2017/07/14 17:37:22","新北市瑞芳區明燈路二段46號","121.80956","25.1081516666667","6501200","瑞芳區"
"224009","285-BY","2017/07/14 17:49:32","新北市瑞芳區山尖路173號","121.852495","25.11209","6501200","瑞芳區"
"224008","275-VK","2017/07/14 17:49:38","新北市瑞芳區明燈路一段201巷97-1號","121.818771666667","25.106645","6501200","瑞芳區"
"224005","271-BY","2017/07/14 17:49:47","新北市瑞芳區豎崎路32-5號","121.823913333333","25.12103","6501200","瑞芳區"
"253006","032-BX","2017/07/14 17:49:32","新北市石門區中央路6號","121.566478333333","25.291445","6502200","石門區"
"208003","665-BX","2017/07/14 17:49:34","新北市金山區磺清路121號","121.639675","25.227875","6502700","金山區"
"208001","761-BX","2017/07/14 17:49:36","新北市金山區磺清路121號","121.639583333333","25.2278583333333","6502700","金山區"
"251004","009-UM","2017/07/14 17:49:50","新北市淡水區民權一街28號","121.458608333333","25.136525","6501000","淡水區"
"251002","012-UM","2017/07/14 17:49:36","新北市淡水區中山路68-70號","121.443391666667","25.1705816666667","6501000","淡水區"
"251013","180-VK","2017/07/14 17:49:33","新北市淡水區泉洲厝30號","121.479655","25.1910016666667","6501000","淡水區"
"251008","181-VK","2017/07/14 17:49:33","新北市淡水區八勢路一段156號","121.468123333333","25.156435","6501000","淡水區"
"251015","182-VK","2017/07/14 17:49:43","新北市淡水區興福寮1-8號","121.489405","25.16484","6501000","淡水區"
"251010","413-VK","2017/07/14 17:49:35","新北市淡水區中正路二段53號","121.418336666667","25.184625","6501000","淡水區"
"251012","441-VK","2017/07/14 17:49:41","新北市淡水區北新路一段339號","121.466251666667","25.1822033333333","6501000","淡水區"
"251005","443-VK","2017/07/14 17:49:41","新北市淡水區學府路96號","121.449278333333","25.171175","6501000","淡水區"
"251001","559-UM","2017/07/14 17:49:34","新北市淡水區民權路92巷35-1號","121.462156666667","25.12668","6501000","淡水區"
"251006","561-UM","2017/07/14 17:49:39","新北市淡水區大信街1巷25號","121.44031","25.1767016666667","6501000","淡水區"
"251009","575-R6","2017/07/14 17:49:40","新北市淡水區長興街44號","121.444175","25.1715216666667","6501000","淡水區"
"251007","577-R6","2017/07/14 17:49:50","新北市淡水區民生路7號","121.460513333333","25.1378316666667","6501000","淡水區"
"251011","650-BX","2017/07/14 17:49:31","新北市淡水區吳(仔)厝70號","121.479591666667","25.1496666666667","6501000","淡水區"
"251003","673-BX","2017/07/14 17:49:48","新北市淡水區大忠街17號","121.443676666667","25.17599","6501000","淡水區"
"207003","550-UM","2017/07/14 17:49:33","新北市萬里區野柳里東澳路66號","121.692758333333","25.20094","6502800","萬里區"
"207004","225-TW","2017/07/14 17:49:49","新北市萬里區萬里里瑪鋉頂街61號","121.688356666667","25.1804283333333","6502800","萬里區"
"252002","178-VK","2017/07/14 17:49:51","新北市三芝區智成街54號","121.504363333333","25.2562066666667","6502100","三芝區"
"252001","292-VK","2017/07/14 17:49:51","新北市三芝區淡金路一段25號","121.498836666667","25.2595883333333","6502100","三芝區"
"208002","170-UY","2017/07/14 17:49:43","新北市金山區磺清路135號","121.639326666667","25.2277016666667","6502700","金山區"
"237004","078-UY","2017/07/14 17:49:45","新北市三峽區中山路110號","121.365841666667","24.93586","6500900","三峽區"
"237009","210-TH","2017/07/14 17:49:42","新北市三峽區大勇路70號","121.367138333333","24.9363383333333","6500900","三峽區"
"237013","252-BX","2017/07/14 17:49:38","新北市三峽區介壽路一段69號","121.375696666667","24.93248","6500900","三峽區"
"237012","275-BY","2017/07/14 17:49:47","新北市三峽區文化路117號","121.370138333333","24.9361016666667","6500900","三峽區"
"237008","302-VK","2017/07/14 17:49:41","新北市三峽區民權街160號","121.368151666667","24.930855","6500900","三峽區"
"237014","433-BY","2017/07/14 17:49:50","新北市三峽區文化路120巷21號","121.37103","24.9367016666667","6500900","三峽區"
"237006","5529-G3","2017/07/14 17:49:50","新北市三峽區介壽路二段38巷22號","121.391856666667","24.9347516666667","6500900","三峽區"
"237015","649-BX","2017/07/14 17:49:49","新北市三峽區白雞55-1號","121.387781666667","24.9123133333333","6500900","三峽區"
"237010","706-TV","2017/07/14 17:49:36","新北市三峽區文化路125號","121.369953333333","24.9360066666667","6500900","三峽區"
"237005","AKY-6261","2017/07/14 17:49:34","新北市三峽區中山路459巷66號","121.35578","24.9365","6500900","三峽區"
"236072","105-UM","2017/07/14 17:49:50","新北市土城區城林路6巷80號","121.438583333333","24.9797066666667","6501300","土城區"
"236043","107-UM","2017/07/14 17:49:48","新北市土城區城林路6巷80號","121.438476666667","24.9795783333333","6501300","土城區"
"236079","166-UM","2017/07/14 17:49:40","新北市土城區中央路三段42號","121.437498333333","24.9681583333333","6501300","土城區"
"236031","253-BX","2017/07/14 17:49:48","新北市土城區城林路6巷80號","121.43867","24.9796166666667","6501300","土城區"
"236027","269-VK","2017/07/14 17:49:42","新北市土城區承天路20號","121.439548333333","24.9633633333333","6501300","土城區"
"236015","270-VK","2017/07/14 17:49:32","新北市土城區城林路6巷80號","121.438676666667","24.9797616666667","6501300","土城區"
"236039","271-VK","2017/07/14 17:49:45","新北市土城區城林路6巷80號","121.438575","24.979625","6501300","土城區"
"236059","912-UM","2017/07/14 17:49:41","新北市土城區城林路6巷80號","121.438653333333","24.979695","6501300","土城區"
"236050","913-UM","2017/07/14 17:49:36","新北市土城區城林路6巷80號","121.438655","24.9797283333333","6501300","土城區"
"236055","AAC-216","2017/07/14 17:49:30","新北市土城區城林路6巷80號","121.438571666667","24.9797816666667","6501300","土城區"
"242021","AAC-296","2017/07/14 17:49:40","新北市新莊區中港路134號","121.455208333333","25.040715","6500500","新莊區"
"242029","986-R7","2017/07/14 17:49:46","新北市新莊區復興路一段27號","121.446261666667","25.041825","6500500","新莊區"
"242048","751-BX","2017/07/14 17:49:43","新北市新莊區萬安街92號","121.420608333333","25.0226833333333","6500500","新莊區"
"242025","615-BX","2017/07/14 17:49:44","新北市新莊區新北大道二段167號","121.465146666667","25.0609866666667","6500500","新莊區"
"242023","613-BX","2017/07/14 17:49:45","新北市新莊區福樂街21號","121.457823333333","25.0451916666667","6500500","新莊區"
"242027","612-BX","2017/07/14 17:49:42","新北市新莊區福壽街139號","121.45803","25.0526333333333","6500500","新莊區"
"242037","566-BX","2017/07/14 17:49:51","新北市新莊區後港一路84號","121.427326666667","25.0266133333333","6500500","新莊區"
"242041","497-BY","2017/07/14 17:49:49","新北市新莊區中正路612-1號","121.426133333333","25.030255","6500500","新莊區"
"242005","442-UM","2017/07/14 17:49:34","新北市新莊區自立街234號","121.458138333333","25.04538","6500500","新莊區"
"242046","441-UM","2017/07/14 17:49:44","新北市新莊區建國一路23號","121.433958333333","25.0314683333333","6500500","新莊區"
"242050","440-UM","2017/07/14 17:49:37","新北市新莊區西盛街257巷19號","121.428861666667","25.0159133333333","6500500","新莊區"
"242032","415-TV","2017/07/14 17:49:36","新北市新莊區新泰路321巷32號","121.443151666667","25.0413","6500500","新莊區"
"242002","413-TV","2017/07/14 17:49:47","新北市新莊區景德路83號","121.452453333333","25.0349366666667","6500500","新莊區"
"242039","400-BY","2017/07/14 17:49:48","新北市新莊區民安路208號","121.425845","25.0230566666667","6500500","新莊區"
"242060","362-BY","2017/07/14 17:49:37","新北市新莊區新樹路601號","121.43314","25.0058333333333","6500500","新莊區"
"242058","353-BY","2017/07/14 17:49:35","新北市新莊區中正路730-18號","121.414235","25.023345","6500500","新莊區"
"242011","132-UY","2017/07/14 17:49:47","新北市新莊區中港路681巷2號","121.450501666667","25.0562583333333","6500500","新莊區"
"242034","133-UY","2017/07/14 17:49:36","新北市新莊區新莊路682號","121.441146666667","25.0327166666667","6500500","新莊區"
"242019","135-UY","2017/07/14 17:49:17","新北市新莊區民樂街86號","121.457888333333","25.0439633333333","6500500","新莊區"
"242044","172-VK","2017/07/14 17:49:49","新北市新莊區富國路21號","121.418565","25.0263766666667","6500500","新莊區"
"242007","173-VK","2017/07/14 17:49:48","新北市新莊區福樂街108巷3號","121.457525","25.0479333333333","6500500","新莊區"
"242056","176-VK","2017/07/14 17:49:44","新北市新莊區瓊林路46-11號","121.446865","25.029195","6500500","新莊區"
"242013","346-TH","2017/07/14 17:49:49","新北市新莊區中誠街142巷12號","121.448786666667","25.0482683333333","6500500","新莊區"
"242017","348-TH","2017/07/14 17:49:45","新北市新莊區永安街88號","121.450648333333","25.04468","6500500","新莊區"
"242054","349-TH","2017/07/14 17:49:33","新北市新莊區新樹路583號","121.43286","25.0068116666667","6500500","新莊區"
"242015","350-TH","2017/07/14 17:49:37","新北市新莊區新泰路502巷40號","121.443721666667","25.0463566666667","6500500","新莊區"
"242009","351-TH","2017/07/14 17:49:52","新北市新莊區昌平街59巷10號","121.454358333333","25.0533466666667","6500500","新莊區"
"238015","755-BX","2017/07/14 17:49:40","新北市樹林區長壽街25巷2號","121.42062","24.9947416666667","6500700","樹林區"
"238023","601-UM","2017/07/14 17:49:40","新北市樹林區福興街3號","121.404296666667","25.0170933333333","6500700","樹林區"
"238019","599-UM","2017/07/14 17:49:49","新北市樹林區太元街66號","121.418586666667","24.979115","6500700","樹林區"
"238018","571-TV","2017/07/14 17:49:45","新北市樹林區博愛街10號","121.427521666667","24.9932316666667","6500700","樹林區"
"238024","5061-A6","2017/07/14 17:49:44","新北市樹林區八德街435號","121.406365","24.96943","6500700","樹林區"
"238022","312-TH","2017/07/14 17:49:41","新北市樹林區太元街42號","121.41823","24.979855","6500700","樹林區"
"238021","311-TH","2017/07/14 14:11:39","新北市樹林區中山路三段198號","121.38733","24.96858","6500700","樹林區"
"238025","303-VK","2017/07/14 17:49:36","新北市樹林區三俊街50號","121.412375","25.0155066666667","6500700","樹林區"
"238017","283-BY","2017/07/14 17:49:52","新北市樹林區三德街34-5號","121.41522","25.0131616666667","6500700","樹林區"
"238014","282-BY","2017/07/14 17:42:49","新北市樹林區保安街一段294巷16號","121.42017","24.9984933333333","6500700","樹林區"
"238020","268-VK","2017/07/14 17:49:43","新北市樹林區俊英街276號","121.424085","25.0127716666667","6500700","樹林區"
"238026","172-UY","2017/07/14 17:49:34","新北市樹林區新興街17號","121.40022","24.9727783333333","6500700","樹林區"
"238016","169-UY","2017/07/14 17:49:46","新北市樹林區啟智街129-4號","121.417845","24.9891766666667","6500700","樹林區"
"239007","AAC-297","2017/07/14 17:49:36","新北市鶯歌區永樂街36號","121.34174","24.9540916666667","6500800","鶯歌區"
"239006","891-R6","2017/07/14 17:49:37","新北市鶯歌區鶯桃路417號","121.3329","24.964655","6500800","鶯歌區"
"239008","527-UM","2017/07/14 17:49:41","新北市鶯歌區香賓街11巷1號","121.33679","24.9793716666667","6500800","鶯歌區"
"239001","417-VK","2017/07/14 17:49:38","新北市鶯歌區中正三路236-2號","121.330281666667","24.9368033333333","6500800","鶯歌區"
"239003","360-BY","2017/07/14 17:49:35","新北市鶯歌區鶯桃路295巷12號","121.334483333333","24.9596066666667","6500800","鶯歌區"
"239002","359-BY","2017/07/14 17:49:38","新北市鶯歌區光明街17號","121.348881666667","24.9558233333333","6500800","鶯歌區"
"239004","193-VK","2017/07/14 17:49:37","新北市鶯歌區文化路369-1號","121.352283333333","24.9509016666667","6500800","鶯歌區"
"221008","489-VK","2017/07/14 17:49:46","新北市汐止區康寧街901號","121.651385","25.0750716666667","6501100","汐止區"
"221036","130-UY","2017/07/14 17:49:49","新北市汐止區長江街77號","121.657296666667","25.07223","6501100","汐止區"
"221015","131-UY","2017/07/14 17:49:40","新北市汐止區長江街249-1號","121.662841666667","25.0793816666667","6501100","汐止區"
"221010","269-BY","2017/07/14 17:49:32","新北市汐止區汐萬路一段418巷6弄10號","121.65027","25.0779916666667","6501100","汐止區"
"221031","277-VK","2017/07/14 17:49:43","新北市汐止區汐萬路一段256巷3號","121.652513333333","25.074625","6501100","汐止區"
"221012","278-VK","2017/07/14 17:49:39","新北市汐止區長江街29號","121.65542","25.07114","6501100","汐止區"
"221023","279-VK","2017/07/14 02:09:19","新北市汐止區康寧街901號","121.651768333333","25.07508","6501100","汐止區"
"221032","280-BY","2017/07/14 17:49:46","新北市汐止區環河街189巷5號","121.627258333333","25.0549466666667","6501100","汐止區"
"221038","297-VK","2017/07/14 17:49:42","新北市汐止區汐萬路一段312號","121.650545","25.075385","6501100","汐止區"
"221029","298-VK","2017/07/14 17:49:40","新北市汐止區康寧街901號","121.651693333333","25.0749266666667","6501100","汐止區"
"221021","299-VK","2017/07/14 17:46:02","新北市汐止區汐萬路一段115巷2號","121.654331666667","25.071","6501100","汐止區"
"221035","622-UM","2017/07/14 17:49:42","新北市汐止區汐萬路一段211巷15號","121.651505","25.0719116666667","6501100","汐止區"
"221025","623-UM","2017/07/14 17:49:32","新北市汐止區大同路二段171號","121.65164","25.0648183333333","6501100","汐止區"
"221033","647-BX","2017/07/14 17:49:46","新北市汐止區橫科路73巷20弄18號","121.619738333333","25.051585","6501100","汐止區"
"221018","753-BX","2017/07/14 17:49:43","新北市汐止區忠孝東路348號","121.665596666667","25.0697516666667","6501100","汐止區"
