"lineid","car","time","location","longitude","latitude","cityid","cityname"
"234046","148-BY","2017/07/14 19:09:33","新北市永和區永元路71號","121.522188333333","25.001075","6500400","永和區"
"234013","149-BY","2017/07/14 19:09:35","新北市永和區保福路二段85號","121.510686666667","25.0126516666667","6500400","永和區"
"234007","207-UY","2017/07/14 19:09:51","新北市永和區中山路一段271號","121.507283333333","25.007055","6500400","永和區"
"234081","298-R6","2017/07/14 19:09:47","新北市永和區永亨路70號","121.52108","25.0060166666667","6500400","永和區"
"234038","336-UY","2017/07/14 19:09:48","新北市永和區民樂街55巷4號","121.527605","24.9984483333333","6500400","永和區"
"234064","337-UY","2017/07/14 19:09:45","新北市永和區秀朗路二段33號","121.521306666667","25.0025083333333","6500400","永和區"
"234086","338-UY","2017/07/14 19:09:43","新北市永和區永貞路106號","121.519068333333","25.0045","6500400","永和區"
"234070","552-UM","2017/07/14 19:09:48","新北市永和區豫溪街89號","121.518403333333","25.0100333333333","6500400","永和區"
"234054","553-UM","2017/07/14 19:09:49","新北市永和區竹林路88號","121.519416666667","25.01264","6500400","永和區"
"234017","745-BX","2017/07/14 19:09:37","新北市永和區文化路90巷15弄1號","121.513823333333","25.01587","6500400","永和區"
"234030","746-BX","2017/07/14 19:09:52","新北市永和區厚德街114號","121.523243333333","24.99901","6500400","永和區"
"234061","AAD-866","2017/07/14 19:09:37","新北市永和區安樂路306-8號","121.514578333333","25.0052966666667","6500400","永和區"
"234042","862-TW","2017/07/14 19:09:39","新北市永和區保平路141號","121.510065","25.006085","6500400","永和區"
"234050","863-TW","2017/07/14 19:09:47","新北市永和區文化路135巷32弄2號","121.510581666667","25.0141916666667","6500400","永和區"
"234026","9371-KE","2017/07/14 19:09:31","新北市永和區安樂路198巷4弄2號","121.515545","25.0020016666667","6500400","永和區"
"234011","9373-KE","2017/07/14 19:09:43","新北市永和區仁愛路141巷30弄5號","121.511965","25.0114933333333","6500400","永和區"
"249005","172-UM","2017/07/14 19:09:40","新北市八里區中華路三段99巷1號","121.393863333333","25.1385133333333","6502300","八里區"
"249001","759-BX","2017/07/14 19:09:39","新北市八里區龍米路二段228-1號","121.432721666667","25.1584566666667","6502300","八里區"
"248016","026-BX","2017/07/14 19:09:39","新北市五股區成泰路三段577巷76號","121.450125","25.103475","6501500","五股區"
"248006","077-UY","2017/07/14 19:09:47","新北市五股區四維路112號","121.46765","25.07381","6501500","五股區"
"248018","225-UY","2017/07/14 19:09:42","新北市五股區民義路一段222號","121.429376666667","25.0904766666667","6501500","五股區"
"248012","247-BX","2017/07/14 19:05:48","新北市五股區中興路四段48巷16號","121.438663333333","25.08346","6501500","五股區"
"248010","272-BY","2017/07/14 19:09:47","新北市五股區水碓一路23號","121.430588333333","25.0713","6501500","五股區"
"248004","677-BX","2017/07/14 19:09:40","新北市五股區六合街3號","121.431973333333","25.0886183333333","6501500","五股區"
"248002","678-BX","2017/07/14 19:09:44","新北市五股區凌雲路一段158巷6號","121.447771666667","25.10303","6501500","五股區"
"234023","9380-KE","2017/07/14 19:09:50","新北市永和區竹林路124巷31號","121.51835","25.011235","6500400","永和區"
"234077","969-R7","2017/07/14 19:09:38","新北市永和區得和路215號","121.519371666667","25.0002016666667","6500400","永和區"
"234074","AAC-211","2017/07/14 19:09:48","新北市永和區竹林路198號","121.520518333333","25.0096","6500400","永和區"
"234067","AAC-212","2017/07/14 19:09:49","新北市永和區永和路一段63號","121.51314","25.0070433333333","6500400","永和區"
"234003","AAC-295","2017/07/14 19:09:40","新北市永和區保福路一段43號","121.512586666667","25.0092433333333","6500400","永和區"
"244013","069-UM","2017/07/14 19:09:41","新北市林口區麗園一街11巷11號","121.378643333333","25.0705733333333","6501700","林口區"
"244019","403-UM","2017/07/14 19:09:36","新北市林口區麗園二街87號","121.3825","25.0673483333333","6501700","林口區"
"244009","410-SL","2017/07/14 19:09:39","新北市林口區台電新村18號","121.386741666667","25.0861883333333","6501700","林口區"
"244023","483-VK","2017/07/14 19:09:36","新北市林口區民族路288號","121.370651666667","25.0786","6501700","林口區"
"244011","701-TV","2017/07/14 19:09:35","新北市林口區中正路300號","121.388363333333","25.0778016666667","6501700","林口區"
"243013","AAD-798","2017/07/14 19:09:27","新北市泰山區漢口街7號","121.423503333333","25.0366","6501600","泰山區"
"243009","297-R6","2017/07/14 19:09:35","新北市泰山區文化街20號","121.434673333333","25.063565","6501600","泰山區"
"243015","380-SR","2017/07/14 19:09:44","新北市泰山區明志路一段452號","121.430598333333","25.05579","6501600","泰山區"
"243014","421-VK","2017/07/14 17:51:58","新北市泰山區黎明路25號","121.422218333333","25.060655","6501600","泰山區"
"243010","548-UM","2017/07/14 19:09:47","新北市泰山區明志路一段456號","121.430541666667","25.0556383333333","6501600","泰山區"
"243011","549-UM","2017/07/14 19:09:47","新北市泰山區明志路二段358號","121.425521666667","25.0452366666667","6501600","泰山區"
"243012","646-TV","2017/07/14 19:09:42","新北市泰山區辭修路36巷8弄1-1號","121.427726666667","25.0586183333333","6501600","泰山區"
"243016","680-BX","2017/07/14 19:09:40","新北市泰山區明志路三段5號","121.42491","25.043375","6501600","泰山區"
"222003","436-BY","2017/07/14 19:09:46","新北市深坑區深南路158號","121.625981666667","25.01439","6501800","深坑區"
"222001","628-TS","2017/07/14 19:09:15","新北市深坑區北深路一段300號","121.624243333333","25.005735","6501800","深坑區"
"222002","659-BX","2017/07/14 19:09:46","新北市深坑區烏月路1號","121.633133333333","25.008375","6501800","深坑區"
"231041","002-UM","2017/07/14 19:09:46","新北市新店區溪園路405號","121.52405","24.9783616666667","6500600","新店區"
"231056","0293-UT","2017/07/14 19:09:35","新北市新店區二十張路46巷37弄7號","121.536276666667","24.9818133333333","6500600","新店區"
"231059","046-UY","2017/07/14 19:09:44","新北市新店區安和路二段166-4號","121.519345","24.9739166666667","6500600","新店區"
"231061","047-UY","2017/07/14 19:09:41","新北市新店區安康路一段48號","121.530465","24.96109","6500600","新店區"
"231060","106-UY","2017/07/14 19:09:43","新北市新店區安康路二段236號","121.509395","24.9591666666667","6500600","新店區"
"231051","107-UY","2017/07/14 19:09:33","新北市新店區中正路382巷10號","121.535188333333","24.9774016666667","6500600","新店區"
"231048","108-UY","2017/07/14 19:09:45","新北市新店區德正街29號","121.544583333333","24.97133","6500600","新店區"
"231053","187-VK","2017/07/14 19:09:33","新北市新店區自強路99號","121.546278333333","24.9235683333333","6500600","新店區"
"231063","268-BY","2017/07/14 19:09:41","新北市新店區車子路137號","121.505165","24.9480733333333","6500600","新店區"
"231046","278-BY","2017/07/14 19:09:45","新北市新店區新潭路一段12號","121.52311","24.9433416666667","6500600","新店區"
"231050","AAD-862","2017/07/14 19:09:39","新北市新店區竹林路2巷29弄9號","121.550451666667","24.95024","6500600","新店區"
"231058","3712-VJ","2017/07/14 19:09:50","新北市新店區光明街168巷5弄2-1號","121.540546666667","24.9619533333333","6500600","新店區"
"231055","3713-VJ","2017/07/14 19:09:28","新北市新店區安和路三段4巷3號","121.520518333333","24.98087","6500600","新店區"
"231067","4772-VM","2017/07/14 19:09:41","新北市新店區安康路一段156號","121.526286666667","24.962955","6500600","新店區"
"231065","512-UM","2017/07/14 19:09:50","新北市新店區安祥路109巷6弄55號","121.475576666667","24.957","6500600","新店區"
"231054","513-UM","2017/07/14 19:09:32","新北市新店區新店路148號","121.537148333333","24.95548","6500600","新店區"
"231064","515-UM","2017/07/14 19:09:52","新北市新店區安忠路79號","121.511158333333","24.9571166666667","6500600","新店區"
"231042","616-UM","2017/07/14 19:09:39","新北市新店區中興路一段115號","121.5414","24.9627583333333","6500600","新店區"
"231045","617-UM","2017/07/14 19:09:43","新北市新店區北宜路一段178號","121.540801666667","24.9529016666667","6500600","新店區"
"231040","619-UM","2017/07/14 19:09:45","新北市新店區三民路98-3號","121.533996666667","24.97342","6500600","新店區"
"231049","719-UM","2017/07/14 19:09:35","新北市新店區二十張路25巷18弄36號","121.539175","24.9813016666667","6500600","新店區"
"231062","720-UM","2017/07/14 19:09:36","新北市新店區安平路11巷2號","121.524286666667","24.9652733333333","6500600","新店區"
"231044","897-TW","2017/07/14 19:09:31","新北市新店區中興路三段176號","121.544255","24.98109","6500600","新店區"
"231043","899-TW","2017/07/14 19:09:43","新北市新店區寶橋路132號","121.547345","24.9761116666667","6500600","新店區"
"231066","AKT-0513","2017/07/14 19:09:33","新北市新店區安康路三段359巷12弄5號","121.484245","24.949615","6500600","新店區"
"241026","066-VK","2017/07/14 19:09:32","新北市三重區泉州街61巷1號","121.49464","25.05464","6500200","三重區"
"241020","413-TH","2017/07/14 19:09:38","新北市三重區忠孝路二段65巷5弄5號","121.48511","25.07112","6500200","三重區"
"241035","743-BX","2017/07/14 19:09:42","新北市三重區重新路四段121號","121.484678333333","25.052015","6500200","三重區"
"241029","942-UM","2017/07/14 19:09:40","新北市三重區集美街239號","121.492286666667","25.0553633333333","6500200","三重區"
"235066","003-UY","2017/07/14 19:09:36","新北市中和區廣福路63號","121.50249","25.0010533333333","6500300","中和區"
"235064","005-UY","2017/07/14 19:09:49","新北市中和區泰和街44巷9號","121.498513333333","25.0004183333333","6500300","中和區"
"235063","006-UY","2017/07/14 19:09:46","新北市中和區連城路393號","121.48644","24.996105","6500300","中和區"
"235056","096-UM","2017/07/14 19:09:45","新北市中和區員山路534號","121.478863333333","25.0098683333333","6500300","中和區"
"235039","097-UM","2017/07/14 19:09:44","新北市永和區民有街71號","121.51798","24.9957083333333","6500300","中和區"
"235065","098-UM","2017/07/14 19:09:49","新北市中和區中山路二段2巷71號","121.501496666667","25.0074616666667","6500300","中和區"
"235040","150-BY","2017/07/14 19:09:37","新北市中和區宜安路11巷15號","121.512765","24.9950983333333","6500300","中和區"
"235058","151-BY","2017/07/14 19:09:33","新北市中和區員山路114號","121.48107","24.995695","6500300","中和區"
"235055","183-VK","2017/07/14 19:09:50","新北市中和區德光路18號","121.471116666667","25.0044833333333","6500300","中和區"
"235038","185-VK","2017/07/14 19:09:43","新北市中和區自強路56號","121.520091666667","24.9946366666667","6500300","中和區"
"235049","186-VK","2017/07/14 19:09:48","新北市中和區明禮街2號","121.50527","24.9958366666667","6500300","中和區"
"235067","255-BX","2017/07/14 19:09:46","新北市中和區新生街180號","121.483705","24.9998283333333","6500300","中和區"
"235044","293-VK","2017/07/14 19:09:47","新北市中和區中興街161巷5弄1號","121.500785","24.9909483333333","6500300","中和區"
"235072","301-VK","2017/07/14 19:09:30","新北市中和區福祥路2號","121.499606666667","25.0027716666667","6500300","中和區"
"235043","352-BY","2017/07/14 19:09:41","新北市中和區景平路120號","121.519251666667","24.9919016666667","6500300","中和區"
"235051","376-QA","2017/07/14 19:09:48","新北市中和區仁愛街36巷4號","121.510598333333","24.988205","6500300","中和區"
"235068","377-QA","2017/07/14 18:58:40","新北市中和區圓通路297巷11弄30號","121.495765","24.9922716666667","6500300","中和區"
"235061","378-QA","2017/07/14 19:09:39","新北市中和區中山路三段145號","121.47387","25.0061066666667","6500300","中和區"
"235050","4979-A6","2017/07/14 18:40:13","新北市中和區忠孝街112巷14號","121.512443333333","24.9857166666667","6500300","中和區"
"235069","4980-A6","2017/07/14 19:09:29","新北市中和區中和路217巷10號","121.504388333333","25.0004766666667","6500300","中和區"
"235042","551-UM","2017/07/14 19:09:33","新北市中和區立人街11號","121.52162","24.993845","6500300","中和區"
"235045","565-BX","2017/07/14 19:09:45","新北市中和區景新街467巷20弄166號","121.514496666667","24.9876783333333","6500300","中和區"
"235054","640-BX","2017/07/14 19:09:47","新北市中和區國光街6巷1號","121.471901666667","25.00029","6500300","中和區"
"235060","647-TV","2017/07/14 19:09:33","新北市中和區民治街27巷1號","121.475486666667","25.0016633333333","6500300","中和區"
"235047","732-UM","2017/07/14 19:09:42","新北市中和區興南路一段54號","121.51074","24.9907666666667","6500300","中和區"
"235046","733-UM","2017/07/14 19:09:46","新北市中和區忠孝街1巷68號","121.508338333333","24.9845433333333","6500300","中和區"
"235072","783-BX","2017/07/14 19:09:34","新北市中和區員山路105號","121.480858333333","24.9944583333333","6500300","中和區"
"235062","800-TS","2017/07/14 19:09:36","新北市中和區中山路二段470號","121.488376666667","25.00464","6500300","中和區"
"235057","801-TS","2017/07/14 19:09:43","新北市中和區民利街100巷5弄1號","121.47721","24.9981116666667","6500300","中和區"
"235041","802-TS","2017/07/14 19:09:39","新北市中和區安平路106號","121.511685","24.997305","6500300","中和區"
"235052","805-TS","2017/07/14 19:09:38","新北市中和區興南路二段142巷19弄19-1號","121.502491666667","24.9832833333333","6500300","中和區"
"235048","896-TW","2017/07/14 19:09:48","新北市中和區華新街109巷2號","121.50836","24.9826433333333","6500300","中和區"
"235053","900-TW","2017/07/14 19:09:35","新北市板橋區和平路185巷1號","121.46391","24.996395","6500300","中和區"
"235070","911-UM","2017/07/14 19:09:46","新北市中和區安和路195號","121.505973333333","24.99832","6500300","中和區"
"235037","AAC-213","2017/07/14 19:09:45","新北市中和區自立路99巷36弄16號","121.523871666667","24.99416","6500300","中和區"
"235059","AAC-215","2017/07/14 19:09:39","新北市中和區圓通路294巷13號","121.488788333333","24.9900383333333","6500300","中和區"
"220068","013-TV","2017/07/14 19:09:32","新北市板橋區中山路二段443巷72號","121.480855","25.0220966666667","6500100","板橋區"
"220065","072-UY","2017/07/14 19:09:31","新北市板橋區民族路247巷3弄15號","121.470043333333","25.0076833333333","6500100","板橋區"
"220086","073-UY","2017/07/14 19:09:51","新北市板橋區中正路250巷17號","121.456395","25.0194283333333","6500100","板橋區"
"220069","AAD-861","2017/07/14 19:09:35","新北市板橋區大華街108-1號","121.459036666667","25.00523","6500100","板橋區"
"220106","120-SR","2017/07/14 19:09:39","新北市板橋區莒光路8-2號","121.469618333333","25.02481","6500100","板橋區"
"247006","341-TH","2017/07/14 18:48:37","新北市五股區中興路三段163號","121.449188333333","25.0808333333333","6501400","蘆洲區"
"247002","336-TH","2017/07/14 18:48:31","新北市五股區中興路三段163號","121.449206666667","25.0808083333333","6501400","蘆洲區"
"247014","057-VK","2017/07/14 19:06:31","新北市五股區新城三路61號","121.449131666667","25.09358","6501400","蘆洲區"
"226004","312-R5","2017/07/14 19:09:46","新北市平溪區望古里灰3號","121.759706666667","25.0308683333333","6502400","平溪區"
"228002","663-BX","2017/07/14 19:09:46","新北市貢寮區福隆里福隆街32-1號","121.945113333333","25.0174316666667","6502600","貢寮區"
"228001","670-TC","2017/07/14 19:09:52","新北市貢寮區真理里新港街10號","121.925536666667","25.0543666666667","6502600","貢寮區"
"228003","828-UM","2017/07/14 19:09:35","新北市貢寮區和美里和美街33號","121.913868333333","25.08307","6502600","貢寮區"
"224010","AGQ-8101","2017/07/14 18:57:07","新北市瑞芳區基山街4-6號","121.845265","25.1095016666667","6501200","瑞芳區"
"224006","676-BX","2017/07/14 19:09:41","新北市瑞芳區三爪子坑路118-3號","121.806516666667","25.1053066666667","6501200","瑞芳區"
"224011","420-VK","2017/07/14 19:09:42","新北市瑞芳區崙頂路3-1號","121.846998333333","25.1046866666667","6501200","瑞芳區"
"224009","285-BY","2017/07/14 19:09:50","新北市瑞芳區洞頂路155-10號","121.861608333333","25.1221233333333","6501200","瑞芳區"
"224008","275-VK","2017/07/14 19:09:44","新北市瑞芳區一坑路71號","121.802685","25.1083433333333","6501200","瑞芳區"
"224007","273-VK","2017/07/14 19:09:33","新北市瑞芳區瑞竹路44號","121.763621666667","25.1033633333333","6501200","瑞芳區"
"224005","271-BY","2017/07/14 19:09:47","新北市瑞芳區三爪子坑路77號","121.81234","25.1071933333333","6501200","瑞芳區"
"227011","642-TC","2017/07/14 19:09:43","新北市雙溪區牡丹里自強路20號","121.86525","25.0392566666667","6502500","雙溪區"
"227003","400-TW","2017/07/14 19:09:46","新北市雙溪區平林里梅竹蹊56-4號","121.86064","25.036775","6502500","雙溪區"
"253006","032-BX","2017/07/14 19:09:32","新北市石門區崁子腳1-1號","121.531723333333","25.2876816666667","6502200","石門區"
"253005","295-VK","2017/07/14 19:09:43","新北市石門區小坑14-3號","121.601891666667","25.2863916666667","6502200","石門區"
"208003","665-BX","2017/07/14 19:09:40","新北市金山區中正路51號","121.634678333333","25.22198","6502700","金山區"
"208001","761-BX","2017/07/14 19:09:36","新北市金山區金包里街70號","121.638926666667","25.2214816666667","6502700","金山區"
"251002","012-UM","2017/07/14 19:09:36","新北市淡水區中山路50號","121.444016666667","25.1703366666667","6501000","淡水區"
"251013","180-VK","2017/07/14 19:09:33","新北市淡水區安子內12號","121.4815","25.2191083333333","6501000","淡水區"
"251015","182-VK","2017/07/14 19:09:43","新北市淡水區南勢埔32巷2號","121.484306666667","25.1801566666667","6501000","淡水區"
"251010","413-VK","2017/07/14 19:09:35","新北市淡水區中正路一段156巷1號","121.42111","25.18019","6501000","淡水區"
"251005","443-VK","2017/07/14 19:09:38","新北市淡水區中山路124號","121.442018333333","25.1709716666667","6501000","淡水區"
"251001","559-UM","2017/07/14 19:09:34","新北市淡水區自強路201巷39號","121.462155","25.1268233333333","6501000","淡水區"
"251006","561-UM","2017/07/14 19:08:59","新北市淡水區下圭柔山91-2號","121.430268333333","25.209095","6501000","淡水區"
"251009","575-R6","2017/07/14 19:09:39","新北市淡水區中正路13-1號","121.442901666667","25.1695566666667","6501000","淡水區"
"251011","650-BX","2017/07/14 19:09:31","新北市淡水區中正東路二段143巷2弄1號","121.460736666667","25.14742","6501000","淡水區"
"251003","673-BX","2017/07/14 19:09:48","新北市淡水區中山北路一段76號","121.442295","25.1759966666667","6501000","淡水區"
"207003","550-UM","2017/07/14 19:09:33","新北市萬里區大鵬里萬里加投15-2號","121.650445","25.2094483333333","6502800","萬里區"
"207004","225-TW","2017/07/14 19:09:49","新北市萬里區萬里里瑪鋉下街2號","121.691051666667","25.1783016666667","6502800","萬里區"
"252002","178-VK","2017/07/14 19:09:31","新北市三芝區淡金路二段15號","121.50253","25.259195","6502100","三芝區"
"252003","249-BX","2017/07/14 19:09:47","新北市三芝區古庄里四棧橋35號","121.48577","25.2622733333333","6502100","三芝區"
"252001","292-VK","2017/07/14 19:09:51","新北市三芝區長勤街45巷2號","121.50032","25.25506","6502100","三芝區"
"208002","170-UY","2017/07/14 18:46:47","新北市金山區仁愛路43號","121.635025","25.2199166666667","6502700","金山區"
"237004","078-UY","2017/07/14 19:09:45","新北市三峽區有木205-1號","121.439056666667","24.85156","6500900","三峽區"
"237007","153-BY","2017/07/14 19:09:37","新北市三峽區麻園12-3號","121.362448333333","24.9160416666667","6500900","三峽區"
"237013","252-BX","2017/07/14 19:09:38","新北市三峽區光明路69巷25號","121.376715","24.9291316666667","6500900","三峽區"
"237012","275-BY","2017/07/14 19:07:27","新北市三峽區三樹路222巷236弄21號","121.391193333333","24.94388","6500900","三峽區"
"237008","302-VK","2017/07/14 19:09:41","新北市三峽區大同路107號","121.37446","24.92694","6500900","三峽區"
"237014","433-BY","2017/07/14 19:09:50","新北市三峽區中山路299巷17號","121.361221666667","24.9365916666667","6500900","三峽區"
"237006","5529-G3","2017/07/14 19:09:50","新北市三峽區介壽路三段22號","121.395945","24.9362866666667","6500900","三峽區"
"237011","572-TV","2017/07/14 19:09:37","新北市三峽區中正路一段142號","121.373431666667","24.9290216666667","6500900","三峽區"
"237015","649-BX","2017/07/14 19:09:49","新北市三峽區建安74號","121.449221666667","24.9258466666667","6500900","三峽區"
"237010","706-TV","2017/07/14 19:06:27","新北市三峽區復興路45號","121.373425","24.93688","6500900","三峽區"
"237005","AKY-6261","2017/07/14 19:09:34","新北市三峽區中山路459巷163-3號","121.348651666667","24.9329","6500900","三峽區"
"236072","105-UM","2017/07/14 19:09:50","新北市土城區中央路一段291巷18號","121.444821666667","24.9838483333333","6501300","土城區"
"236043","107-UM","2017/07/14 19:09:48","新北市土城區學府路一段276號","121.449906666667","24.9829716666667","6501300","土城區"
"236079","166-UM","2017/07/14 19:09:40","新北市土城區龍泉路23號","121.411578333333","24.9469583333333","6501300","土城區"
"236027","269-VK","2017/07/14 19:09:42","新北市土城區中正路67巷27號","121.444345","24.976605","6501300","土城區"
"236015","270-VK","2017/07/14 19:09:32","新北市土城區學府路一段75巷18弄2號","121.457381666667","24.9875283333333","6501300","土城區"
"236039","271-VK","2017/07/14 19:09:45","新北市土城區清水路98巷3弄1號","121.45752","24.9813166666667","6501300","土城區"
"236022","401-BY","2017/07/14 19:09:35","新北市土城區延峰街10號","121.468603333333","24.9864516666667","6501300","土城區"
"236059","912-UM","2017/07/14 19:09:41","新北市土城區金城路二段234號","121.456628333333","24.9829966666667","6501300","土城區"
"236050","913-UM","2017/07/14 19:09:36","新北市土城區明德路一段398-1號","121.453658333333","24.9790983333333","6501300","土城區"
"236055","AAC-216","2017/07/14 19:09:30","新北市土城區學府路一段198號","121.45307","24.9858933333333","6501300","土城區"
"238015","755-BX","2017/07/14 19:09:35","新北市樹林區備內街158巷56號","121.408356666667","24.9899316666667","6500700","樹林區"
"238023","601-UM","2017/07/14 19:09:20","新北市樹林區大慶街51號","121.39632","25.0139233333333","6500700","樹林區"
"238019","599-UM","2017/07/14 19:09:37","新北市樹林區東華街39號","121.415163333333","24.9815116666667","6500700","樹林區"
"238018","571-TV","2017/07/14 19:09:34","新北市樹林區東榮街8號","121.418166666667","24.9837716666667","6500700","樹林區"
"238022","312-TH","2017/07/14 19:09:41","新北市樹林區中山路二段151巷12號","121.406821666667","24.97829","6500700","樹林區"
"238021","311-TH","2017/07/14 14:11:39","新北市樹林區中山路三段198號","121.38733","24.96858","6500700","樹林區"
"238025","303-VK","2017/07/14 19:09:36","新北市樹林區中山路三段127號","121.396526666667","24.9732333333333","6500700","樹林區"
"238017","283-BY","2017/07/14 19:09:32","新北市樹林區光興街83-3號","121.40989","25.0026383333333","6500700","樹林區"
"238014","282-BY","2017/07/14 19:09:49","新北市樹林區千歲街61巷10號","121.425978333333","24.9983133333333","6500700","樹林區"
"238020","268-VK","2017/07/14 19:09:43","新北市樹林區俊英街188號","121.425951666667","25.007885","6500700","樹林區"
"238026","172-UY","2017/07/14 19:09:34","新北市樹林區地政街13號","121.394056666667","24.9718316666667","6500700","樹林區"
"238016","169-UY","2017/07/14 19:09:46","新北市樹林區復興路373巷3弄11號","121.417513333333","24.986885","6500700","樹林區"
"239007","AAC-297","2017/07/14 19:09:35","新北市鶯歌區大湖路104號","121.342551666667","24.96328","6500800","鶯歌區"
"239006","891-R6","2017/07/14 19:09:37","新北市鶯歌區永昌街136號","121.339891666667","24.95043","6500800","鶯歌區"
"239008","527-UM","2017/07/14 19:09:40","新北市鶯歌區國際二路10巷26號","121.338566666667","24.9745","6500800","鶯歌區"
"239001","417-VK","2017/07/14 19:09:37","新北市鶯歌區鶯桃路95巷71號","121.337218333333","24.9527566666667","6500800","鶯歌區"
"239003","360-BY","2017/07/14 19:09:42","新北市鶯歌區德昌街27號","121.333353333333","24.9597983333333","6500800","鶯歌區"
"239002","359-BY","2017/07/14 19:09:38","新北市鶯歌區湖山路34巷2號","121.340346666667","24.974855","6500800","鶯歌區"
"239004","193-VK","2017/07/14 19:09:36","新北市鶯歌區鶯華新村6號","121.329996666667","24.9348466666667","6500800","鶯歌區"
"221008","489-VK","2017/07/14 19:09:46","新北市汐止區康寧街418-1號","121.630415","25.067995","6501100","汐止區"
"221036","130-UY","2017/07/14 19:09:49","新北市汐止區汐萬路一段165號","121.65296","25.0710783333333","6501100","汐止區"
"221015","131-UY","2017/07/14 19:09:40","新北市汐止區康寧街901號","121.651595","25.0749483333333","6501100","汐止區"
"221010","269-BY","2017/07/14 19:09:32","新北市汐止區康寧街901號","121.651461666667","25.07499","6501100","汐止區"
"221031","277-VK","2017/07/14 19:09:43","新北市汐止區福德二路156巷14號","121.630026666667","25.0657966666667","6501100","汐止區"
"221012","278-VK","2017/07/14 19:09:39","新北市汐止區康寧街901號","121.650793333333","25.0753133333333","6501100","汐止區"
"221023","279-VK","2017/07/14 02:09:19","新北市汐止區康寧街901號","121.651768333333","25.07508","6501100","汐止區"
"221027","281-BY","2017/07/14 18:49:15","新北市汐止區康寧街901號","121.650885","25.0752683333333","6501100","汐止區"
"221038","297-VK","2017/07/14 19:09:42","新北市汐止區汐萬路一段312號","121.65067","25.075305","6501100","汐止區"
"221029","298-VK","2017/07/14 19:09:39","新北市汐止區汐萬路一段256巷3號","121.652446666667","25.0746166666667","6501100","汐止區"
"221021","299-VK","2017/07/14 18:58:02","新北市汐止區汐萬路一段256巷1號","121.65205","25.0746316666667","6501100","汐止區"
"221035","622-UM","2017/07/14 19:09:41","新北市汐止區康寧街901號","121.65106","25.0751933333333","6501100","汐止區"
"221025","623-UM","2017/07/14 19:09:32","新北市汐止區康寧街901號","121.65155","25.0750083333333","6501100","汐止區"
"221033","647-BX","2017/07/14 19:09:46","新北市汐止區南勢街3號","121.627086666667","25.037435","6501100","汐止區"
"221002","707-TV","2017/07/14 19:09:32","台北市南港區南港路一段18號","121.61928","25.0546433333333","6501100","汐止區"
"221018","753-BX","2017/07/14 19:09:47","新北市汐止區汐萬路一段256巷3號","121.652546666667","25.07455","6501100","汐止區"
"220079","145-BY","2017/07/14 19:09:34","新北市板橋區民權路239號","121.457393333333","25.01562","6500100","板橋區"
"220082","610-BX","2017/07/14 19:09:36","新北市板橋區溪北路2號","121.426486666667","24.990515","6500100","板橋區"
"220101","245-BX","2017/07/14 19:09:40","新北市板橋區莊敬路168號","121.47159","25.022435","6500100","板橋區"
"220091","267-BY","2017/07/14 19:09:45","新北市板橋區文聖街207號","121.479763333333","25.0263","6500100","板橋區"
"220056","276-BY","2017/07/14 19:09:35","新北市板橋區信義路74巷1弄1號","121.457206666667","24.9931866666667","6500100","板橋區"
"220072","277-BY","2017/07/14 19:09:46","新北市板橋區金門街369巷8號","121.42908","24.9838216666667","6500100","板橋區"
"220064","280-UM","2017/07/14 19:09:47","新北市板橋區板新路145號","121.470136666667","25.0155183333333","6500100","板橋區"
"220071","283-VK","2017/07/14 19:09:39","新北市板橋區重慶路223巷11號","121.46321","25.0015333333333","6500100","板橋區"
"220094","285-UM","2017/07/14 19:09:47","新北市板橋區光武街50巷1號","121.46684","25.0270916666667","6500100","板橋區"
"220053","285-VK","2017/07/14 19:09:44","新北市板橋區懷仁街35巷2弄2號","121.476866666667","25.019585","6500100","板橋區"
"220083","286-VK","2017/07/14 19:09:51","新北市板橋區龍興街99巷27-1號","121.443425","25.0033366666667","6500100","板橋區"
"220081","287-VK","2017/07/14 19:09:48","新北市板橋區光華街39巷27號","121.452995","25.01299","6500100","板橋區"
"220090","288-VK","2017/07/14 19:09:46","新北市板橋區四維路291巷1號","121.462013333333","25.0282883333333","6500100","板橋區"
"220061","293-UM","2017/07/14 19:09:39","新北市板橋區中山路二段268號","121.479203333333","25.0185133333333","6500100","板橋區"
"220062","295-UM","2017/07/14 19:09:34","新北市板橋區三民路二段245巷75號","121.481231666667","25.0126316666667","6500100","板橋區"
"220084","296-UM","2017/07/14 19:09:49","新北市板橋區篤行路二段90巷8號","121.43113","24.9918566666667","6500100","板橋區"
"220075","297-UM","2017/07/14 19:09:34","新北市板橋區南雅南路一段1巷38號","121.45726","25.0066066666667","6500100","板橋區"
"220092","299-UM","2017/07/14 19:09:48","新北市板橋區文化路二段231號","121.471046666667","25.0284333333333","6500100","板橋區"
"220067","303-R5","2017/07/14 19:09:44","新北市板橋區民享街116巷4號","121.478053333333","25.015625","6500100","板橋區"
"220098","317-R6","2017/07/14 19:09:45","新北市板橋區陽明街164巷36號","121.46514","25.0243283333333","6500100","板橋區"
"220080","461-BY","2017/07/14 19:09:36","新北市板橋區大觀路二段7巷81號","121.449686666667","25.0031283333333","6500100","板橋區"
"220089","487-VK","2017/07/14 19:09:38","新北市板橋區文化路二段503號","121.476073333333","25.03451","6500100","板橋區"
"220088","491-VK","2017/07/14 19:09:49","新北市板橋區文化路二段182巷7弄9號","121.47226","25.0273233333333","6500100","板橋區"
"220035","560-BX","2017/07/14 19:09:37","新北市板橋區中正路322-1號","121.454755","25.0213866666667","6500100","板橋區"
"220103","561-BX","2017/07/14 19:09:31","新北市板橋區文化路一段188巷9弄25號","121.468673333333","25.0194283333333","6500100","板橋區"
"220063","609-BX","2017/07/14 19:09:44","新北市板橋區三民路二段150號","121.479133333333","25.0150466666667","6500100","板橋區"
"220057","686-BX","2017/07/14 19:09:49","新北市板橋區重慶路37號","121.461691666667","25.0075216666667","6500100","板橋區"
"220077","687-BX","2017/07/14 19:09:38","新北市板橋區大觀路二段125-1號","121.445893333333","25.001295","6500100","板橋區"
"220093","689-BX","2017/07/14 19:09:45","新北市板橋區民生路三段251號","121.464528333333","25.02905","6500100","板橋區"
"220054","741-BX","2017/07/14 19:09:47","新北市板橋區重慶路93巷14-3號","121.46272","25.0058","6500100","板橋區"
"220055","827-TW","2017/07/14 19:09:40","新北市板橋區中山路一段126號","121.463286666667","25.0108583333333","6500100","板橋區"
"220102","830-TW","2017/07/14 19:09:48","新北市板橋區田單街2巷19號","121.48207","25.02849","6500100","板橋區"
"220096","831-TW","2017/07/14 19:09:33","新北市板橋區雙十路二段51號","121.476408333333","25.026295","6500100","板橋區"
"220074","895-R6","2017/07/14 19:09:36","新北市板橋區府中路116號","121.455571666667","25.0095916666667","6500100","板橋區"
"220073","985-R7","2017/07/14 19:09:33","新北市板橋區中正路187號","121.456426666667","25.0168483333333","6500100","板橋區"
"220097","AAC-210","2017/07/14 19:09:29","新北市板橋區新生街89巷2號","121.458278333333","25.0221483333333","6500100","板橋區"
"220070","AAC-253","2017/07/14 19:09:35","新北市板橋區四川路一段148號","121.460035","25.00348","6500100","板橋區"
