"lineid","car","time","location","longitude","latitude","cityid","cityname"
"234046","148-BY","2017/07/14 19:19:33","新北市永和區秀朗路二段148巷12弄1號","121.525228333333","25.0004983333333","6500400","永和區"
"234013","149-BY","2017/07/14 19:19:34","新北市永和區信義路23號","121.513921666667","25.01234","6500400","永和區"
"234007","207-UY","2017/07/14 19:19:51","新北市永和區中山路一段343號","121.505786666667","25.0060116666667","6500400","永和區"
"234081","298-R6","2017/07/14 19:19:47","新北市永和區福和路52號","121.523428333333","25.00814","6500400","永和區"
"234038","336-UY","2017/07/14 19:19:46","新北市永和區民樂街42號","121.52748","25.0005716666667","6500400","永和區"
"234064","337-UY","2017/07/14 19:19:45","新北市永和區永元路17巷6弄2號","121.521405","25.0006933333333","6500400","永和區"
"234086","338-UY","2017/07/14 19:19:43","新北市永和區永亨路9號","121.519338333333","25.00585","6500400","永和區"
"234070","552-UM","2017/07/14 19:19:48","新北市永和區警光街33號","121.51849","25.0090966666667","6500400","永和區"
"234054","553-UM","2017/07/14 19:19:29","新北市永和區中興街31號","121.51615","25.0119533333333","6500400","永和區"
"234017","745-BX","2017/07/14 19:19:37","新北市永和區文化路144巷31弄7號","121.512036666667","25.01685","6500400","永和區"
"234030","746-BX","2017/07/14 19:19:42","新北市永和區民生路4號","121.522638333333","24.99793","6500400","永和區"
"234061","AAD-866","2017/07/14 19:19:37","新北市永和區秀朗路一段175號","121.517093333333","25.0036633333333","6500400","永和區"
"234042","862-TW","2017/07/14 19:19:39","新北市永和區保平路151巷3號","121.510111666667","25.0056133333333","6500400","永和區"
"234050","863-TW","2017/07/14 19:19:47","新北市永和區保福路二段88巷29號","121.512011666667","25.0138633333333","6500400","永和區"
"234026","9371-KE","2017/07/14 19:19:44","新北市永和區安樂路146-1號","121.514231666667","25.000395","6500400","永和區"
"234011","9373-KE","2017/07/14 19:19:42","新北市永和區保福路二段9巷9號","121.510591666667","25.010905","6500400","永和區"
"249005","172-UM","2017/07/14 19:19:40","新北市八里區中華路三段170-1號","121.392213333333","25.1304266666667","6502300","八里區"
"249003","593-UM","2017/07/14 19:19:46","新北市八里區中山路二段466巷5號","121.398698333333","25.1474483333333","6502300","八里區"
"249001","759-BX","2017/07/14 19:19:39","新北市八里區中華路二段103-1號","121.409303333333","25.1521833333333","6502300","八里區"
"248014","025-BX","2017/07/14 19:19:47","新北市五股區民義路一段107巷32號","121.432475","25.0845216666667","6501500","五股區"
"248018","225-UY","2017/07/14 19:19:42","新北市五股區壟路14-5號","121.41544","25.0866283333333","6501500","五股區"
"248012","247-BX","2017/07/14 19:18:48","新北市五股區中興路四段48巷16號","121.43853","25.0834466666667","6501500","五股區"
"248010","272-BY","2017/07/14 19:19:47","新北市五股區水碓一路23號","121.430641666667","25.0712983333333","6501500","五股區"
"248004","677-BX","2017/07/14 19:19:40","新北市五股區五福路47號","121.433018333333","25.0895416666667","6501500","五股區"
"248002","678-BX","2017/07/14 19:19:44","新北市五股區凌雲路一段158巷6號","121.44779","25.103095","6501500","五股區"
"234023","9380-KE","2017/07/14 19:19:49","新北市永和區竹林路91巷30號","121.520866666667","25.0123333333333","6500400","永和區"
"234077","969-R7","2017/07/14 19:19:40","新北市永和區民權路34號","121.52016","24.9989383333333","6500400","永和區"
"234074","AAC-211","2017/07/14 19:19:48","新北市永和區竹林路37號","121.51794","25.0142133333333","6500400","永和區"
"234067","AAC-212","2017/07/14 19:19:29","新北市永和區保平路50巷8弄1號","121.510971666667","25.007575","6500400","永和區"
"234003","AAC-295","2017/07/14 19:19:41","新北市永和區中山路一段110號","121.510898333333","25.0103966666667","6500400","永和區"
"244013","069-UM","2017/07/14 19:19:41","新北市林口區麗園一街1號","121.375765","25.07241","6501700","林口區"
"244019","403-UM","2017/07/14 19:19:36","新北市林口區麗園二街1巷6-2號","121.378016666667","25.0701283333333","6501700","林口區"
"244009","410-SL","2017/07/14 19:19:39","新北市林口區林口路60號","121.390336666667","25.0791233333333","6501700","林口區"
"244023","483-VK","2017/07/14 19:19:36","新北市林口區民富街206號","121.371233333333","25.0758366666667","6501700","林口區"
"244011","701-TV","2017/07/14 19:19:35","新北市林口區中正路296巷16號","121.388265","25.07819","6501700","林口區"
"243013","AAD-798","2017/07/14 19:19:47","新北市泰山區明志路三段145巷7號","121.42541","25.0399416666667","6501600","泰山區"
"243009","297-R6","2017/07/14 19:19:35","新北市泰山區和平街13巷24號","121.434476666667","25.0651833333333","6501600","泰山區"
"243015","380-SR","2017/07/14 19:19:38","新北市泰山區公園路27巷2號","121.428795","25.0544133333333","6501600","泰山區"
"243014","421-VK","2017/07/14 19:19:38","新北市泰山區泰林路二段102號","121.434765","25.0589533333333","6501600","泰山區"
"243010","548-UM","2017/07/14 19:19:37","新北市泰山區明志路二段34號","121.429563333333","25.0533733333333","6501600","泰山區"
"243011","549-UM","2017/07/14 19:19:47","新北市泰山區貴子路15巷6弄2號","121.42679","25.0424933333333","6501600","泰山區"
"243012","646-TV","2017/07/14 19:19:42","新北市泰山區仁愛路100巷27號","121.433515","25.0551716666667","6501600","泰山區"
"243016","680-BX","2017/07/14 19:19:40","新北市泰山區工專路64號","121.422828333333","25.0403166666667","6501600","泰山區"
"222003","436-BY","2017/07/14 19:19:46","新北市深坑區深南路91號","121.626551666667","25.0159916666667","6501800","深坑區"
"222001","628-TS","2017/07/14 19:19:35","新北市深坑區北深路二段103號","121.617443333333","25.00346","6501800","深坑區"
"222002","659-BX","2017/07/14 19:19:46","新北市深坑區北深路一段210號","121.632705","25.010955","6501800","深坑區"
"231041","002-UM","2017/07/14 19:19:46","新北市新店區溪園路245-6號","121.52533","24.9832633333333","6500600","新店區"
"231059","046-UY","2017/07/14 19:19:35","新北市新店區安和路三段4號","121.517916666667","24.980865","6500600","新店區"
"231061","047-UY","2017/07/14 19:19:41","新北市新店區安康路一段222號","121.523758333333","24.963565","6500600","新店區"
"231060","106-UY","2017/07/14 19:19:42","新北市新店區安康路二段140號","121.51246","24.9617883333333","6500600","新店區"
"231051","107-UY","2017/07/14 19:19:33","新北市新店區百忍街90號","121.532613333333","24.9771866666667","6500600","新店區"
"231048","108-UY","2017/07/14 19:19:45","新北市新店區中興路一段282號","121.545923333333","24.9683483333333","6500600","新店區"
"231053","187-VK","2017/07/14 19:19:37","新北市新店區櫻花街208號","121.548086666667","24.9190183333333","6500600","新店區"
"231057","256-BX","2017/07/14 19:19:44","新北市新店區花園一路一段2號","121.552835","24.9325583333333","6500600","新店區"
"231063","268-BY","2017/07/14 19:19:41","新北市新店區達觀路16號","121.503078333333","24.94082","6500600","新店區"
"231046","278-BY","2017/07/14 19:19:45","新北市新店區華城路6號","121.530276666667","24.9605733333333","6500600","新店區"
"231050","AAD-862","2017/07/14 19:19:39","新北市新店區竹林路157號","121.556206666667","24.9480016666667","6500600","新店區"
"231058","3712-VJ","2017/07/14 19:19:39","新北市新店區北新路一段62號","121.541205","24.96674","6500600","新店區"
"231067","4772-VM","2017/07/14 19:19:41","新北市新店區薏仁坑路7號","121.498755","24.9591366666667","6500600","新店區"
"231065","512-UM","2017/07/14 19:19:50","新北市新店區安祥路110巷17弄1號","121.473923333333","24.955805","6500600","新店區"
"231054","513-UM","2017/07/14 19:19:32","新北市新店區國校路37巷2號","121.537895","24.955785","6500600","新店區"
"231064","515-UM","2017/07/14 19:19:32","新北市新店區安忠路57巷26弄54號","121.51189","24.957505","6500600","新店區"
"231042","616-UM","2017/07/14 19:19:39","新北市新店區北宜路一段3號","121.53843","24.9583866666667","6500600","新店區"
"231045","617-UM","2017/07/14 19:19:50","新北市新店區北宜路一段276號","121.54619","24.95266","6500600","新店區"
"231040","619-UM","2017/07/14 19:19:45","新北市新店區三民路24號","121.537143333333","24.9710283333333","6500600","新店區"
"231049","719-UM","2017/07/14 19:19:35","新北市新店區明德路117號","121.541291666667","24.9797266666667","6500600","新店區"
"231062","720-UM","2017/07/14 19:19:36","新北市新店區莒光路87巷10號","121.52387","24.955695","6500600","新店區"
"231044","897-TW","2017/07/14 19:19:51","新北市新店區寶慶街66號","121.541998333333","24.98661","6500600","新店區"
"231043","899-TW","2017/07/14 19:19:43","新北市新店區北新路二段128號","121.543021666667","24.974905","6500600","新店區"
"231066","AKT-0513","2017/07/14 19:19:33","新北市新店區安康路三段355巷45號","121.48499","24.9493966666667","6500600","新店區"
"241009","060-VK","2017/07/14 19:19:47","新北市三重區溪尾街230巷59號","121.486388333333","25.0812733333333","6500200","三重區"
"241031","061-VK","2017/07/14 19:19:42","新北市三重區重新路四段230號","121.485743333333","25.0539016666667","6500200","三重區"
"241017","063-VK","2017/07/14 19:19:47","新北市三重區大同北路158-1號","121.492215","25.0656433333333","6500200","三重區"
"241026","066-VK","2017/07/14 19:19:32","新北市三重區中正南路216號","121.49375","25.0550583333333","6500200","三重區"
"241022","267-UM","2017/07/14 19:19:48","新北市三重區中正北路58號","121.48705","25.0644333333333","6500200","三重區"
"241032","269-UM","2017/07/14 19:19:47","新北市三重區新生街79號","121.484191666667","25.0594333333333","6500200","三重區"
"241007","398-BY","2017/07/14 19:19:46","新北市三重區慈愛街49號","121.486056666667","25.0791366666667","6500200","三重區"
"241020","413-TH","2017/07/14 19:19:38","新北市三重區大智街240號","121.489353333333","25.0729066666667","6500200","三重區"
"241035","743-BX","2017/07/14 19:19:42","新北市三重區新北大道一段3-1號","121.490278333333","25.0612883333333","6500200","三重區"
"241029","942-UM","2017/07/14 19:19:40","新北市三重區重安街66號","121.491143333333","25.0572083333333","6500200","三重區"
"235066","003-UY","2017/07/14 19:19:36","新北市中和區中和路102號","121.502743333333","24.9997183333333","6500300","中和區"
"235064","005-UY","2017/07/14 19:19:49","新北市中和區連城路47巷2號","121.498173333333","25.0016316666667","6500300","中和區"
"235063","006-UY","2017/07/14 19:19:46","新北市中和區連城路249巷17弄1號","121.493783333333","24.9965016666667","6500300","中和區"
"235056","096-UM","2017/07/14 19:19:45","新北市中和區員山路527號","121.479675","25.006885","6500300","中和區"
"235039","097-UM","2017/07/14 19:19:44","新北市中和區自立路58巷19號","121.523203333333","24.991335","6500300","中和區"
"235065","098-UM","2017/07/14 19:19:29","新北市中和區中山路二段64巷7弄25號","121.502726666667","25.0045783333333","6500300","中和區"
"235040","150-BY","2017/07/14 19:19:41","新北市中和區保健路48巷12號","121.509853333333","24.99677","6500300","中和區"
"235058","151-BY","2017/07/14 19:19:33","新北市中和區連城路477巷6弄19號","121.482296666667","24.9948033333333","6500300","中和區"
"235055","183-VK","2017/07/14 19:19:50","新北市中和區德光路32號","121.470546666667","25.004335","6500300","中和區"
"235038","185-VK","2017/07/14 19:19:43","新北市中和區大仁街20巷34號","121.51927","24.993075","6500300","中和區"
"235049","186-VK","2017/07/14 19:19:28","新北市中和區景新街235號","121.50814","24.9945166666667","6500300","中和區"
"235067","255-BX","2017/07/14 19:19:46","新北市中和區新生街177巷5號","121.484041666667","25.0007316666667","6500300","中和區"
"235044","293-VK","2017/07/14 19:19:47","新北市中和區中興街222-5號","121.500633333333","24.9896166666667","6500300","中和區"
"235072","301-VK","2017/07/14 19:19:50","新北市中和區連城路265號","121.491381666667","24.996185","6500300","中和區"
"235043","352-BY","2017/07/14 19:19:38","新北市中和區景平路414號","121.508196666667","24.993275","6500300","中和區"
"235051","376-QA","2017/07/14 19:19:48","新北市中和區興南路一段56巷30號","121.510191666667","24.99141","6500300","中和區"
"235068","377-QA","2017/07/14 19:19:39","新北市中和區連勝街38巷12-1號","121.497883333333","24.9980066666667","6500300","中和區"
"235061","378-QA","2017/07/14 19:18:59","新北市中和區中正路1203號","121.480295","25.010185","6500300","中和區"
"235050","4979-A6","2017/07/14 18:40:13","新北市中和區忠孝街112巷14號","121.512443333333","24.9857166666667","6500300","中和區"
"235069","4980-A6","2017/07/14 19:19:49","新北市中和區福祥路85巷6弄2號","121.49857","25.005725","6500300","中和區"
"235042","551-UM","2017/07/14 19:19:33","新北市永和區民有街15號","121.516476666667","24.9967566666667","6500300","中和區"
"235045","565-BX","2017/07/14 19:19:45","新北市中和區景新街437巷20號","121.51431","24.9893066666667","6500300","中和區"
"235054","640-BX","2017/07/14 19:19:47","新北市中和區國光街109巷2弄6號","121.469445","25.0006533333333","6500300","中和區"
"235060","647-TV","2017/07/14 19:19:33","新北市中和區民有街48號","121.475781666667","25.0049066666667","6500300","中和區"
"235047","732-UM","2017/07/14 19:19:41","新北市中和區景平路239巷73號","121.508138333333","24.9920966666667","6500300","中和區"
"235046","733-UM","2017/07/14 19:19:46","新北市中和區忠孝街2-4號","121.50901","24.98297","6500300","中和區"
"235071","783-BX","2017/07/14 19:19:34","新北市中和區中正路637巷52弄1號","121.485491666667","24.9937916666667","6500300","中和區"
"235057","801-TS","2017/07/14 19:19:43","新北市中和區民利街52號","121.479296666667","24.9987383333333","6500300","中和區"
"235041","802-TS","2017/07/14 19:19:36","新北市中和區中和路262巷14號","121.50954","24.9990383333333","6500300","中和區"
"235052","805-TS","2017/07/14 19:19:38","新北市中和區華新街139號","121.506455","24.9817516666667","6500300","中和區"
"235048","896-TW","2017/07/14 19:19:48","新北市中和區忠孝街106巷2號","121.512138333333","24.9845683333333","6500300","中和區"
"235053","900-TW","2017/07/14 19:19:35","新北市中和區華福街57巷6號","121.466796666667","24.996945","6500300","中和區"
"235070","911-UM","2017/07/14 19:19:46","新北市中和區中和路169號","121.503041666667","24.99982","6500300","中和區"
"235037","AAC-213","2017/07/14 19:19:45","新北市中和區秀朗路三段10巷14弄41-5號","121.52416","24.9963633333333","6500300","中和區"
"235059","AAC-215","2017/07/14 19:19:39","新北市中和區錦和路195巷1弄3號","121.490993333333","24.9908933333333","6500300","中和區"
"220068","013-TV","2017/07/14 19:19:32","新北市板橋區翠華街6巷61號","121.481185","25.0249316666667","6500100","板橋區"
"220065","072-UY","2017/07/14 19:19:36","新北市板橋區民族路129巷14號","121.467711666667","25.00851","6500100","板橋區"
"220086","073-UY","2017/07/14 19:19:50","新北市板橋區漢生西路89巷4弄8號","121.460983333333","25.0188016666667","6500100","板橋區"
"220069","AAD-861","2017/07/14 19:19:35","新北市板橋區東興街50號","121.457623333333","25.0052383333333","6500100","板橋區"
"220106","120-SR","2017/07/14 19:19:39","新北市板橋區雙十路三段10巷29號","121.4726","25.0314366666667","6500100","板橋區"
"247006","341-TH","2017/07/14 18:48:37","新北市五股區中興路三段163號","121.449188333333","25.0808333333333","6501400","蘆洲區"
"247002","336-TH","2017/07/14 18:48:31","新北市五股區中興路三段163號","121.449206666667","25.0808083333333","6501400","蘆洲區"
"247014","057-VK","2017/07/14 19:19:31","新北市蘆洲區中央路153號","121.472471666667","25.084595","6501400","蘆洲區"
"226004","312-R5","2017/07/14 19:19:46","新北市平溪區十分里十分街96-2號","121.776661666667","25.0425966666667","6502400","平溪區"
"228002","663-BX","2017/07/14 19:19:25","新北市貢寮區龍門里復興街8-2號","121.926841666667","25.0270783333333","6502600","貢寮區"
"228001","670-TC","2017/07/14 19:19:32","新北市貢寮區真理里新港街10號","121.925561666667","25.0543866666667","6502600","貢寮區"
"228003","828-UM","2017/07/14 19:19:35","新北市貢寮區和美里和美街19-2號","121.912831666667","25.0825716666667","6502600","貢寮區"
"224010","AGQ-8101","2017/07/14 19:19:47","新北市瑞芳區基山街17號","121.845376666667","25.1095366666667","6501200","瑞芳區"
"224006","676-BX","2017/07/14 19:19:41","新北市瑞芳區中山路214號","121.800675","25.1068683333333","6501200","瑞芳區"
"224011","420-VK","2017/07/14 19:19:42","新北市瑞芳區崙頂路3-1號","121.846998333333","25.104695","6501200","瑞芳區"
"224005","271-BY","2017/07/14 19:19:47","新北市瑞芳區員山子路23號","121.821146666667","25.1032466666667","6501200","瑞芳區"
"227011","642-TC","2017/07/14 19:19:43","新北市雙溪區新基里新基北街40號","121.86854","25.038095","6502500","雙溪區"
"227003","400-TW","2017/07/14 19:19:37","新北市雙溪區平林里梅竹蹊43號","121.860111666667","25.0358183333333","6502500","雙溪區"
"253006","032-BX","2017/07/14 19:19:32","新北市石門區楓林17-10號","121.536401666667","25.2929833333333","6502200","石門區"
"253005","295-VK","2017/07/14 19:19:43","新北市石門區阿里荖14號","121.608251666667","25.2802033333333","6502200","石門區"
"208003","665-BX","2017/07/14 19:19:34","新北市金山區中山路110號","121.639683333333","25.2194483333333","6502700","金山區"
"208001","761-BX","2017/07/14 19:19:36","新北市金山區民生路222-1號","121.640058333333","25.2197116666667","6502700","金山區"
"251002","012-UM","2017/07/14 19:19:36","新北市淡水區真理街2-1號","121.43863","25.1729666666667","6501000","淡水區"
"251013","180-VK","2017/07/14 19:19:33","新北市淡水區安子內12號","121.4815","25.2191133333333","6501000","淡水區"
"251015","182-VK","2017/07/14 19:19:43","新北市淡水區山子邊5-2號","121.4835","25.1843233333333","6501000","淡水區"
"251010","413-VK","2017/07/14 19:19:35","新北市淡水區沙崙路27號","121.42145","25.181545","6501000","淡水區"
"251005","443-VK","2017/07/14 19:19:39","新北市淡水區水源街一段34巷3號","121.443206666667","25.1721666666667","6501000","淡水區"
"251001","559-UM","2017/07/14 19:19:34","新北市淡水區自強路201巷39號","121.462138333333","25.12683","6501000","淡水區"
"251006","561-UM","2017/07/14 19:19:39","新北市淡水區大信街33號","121.442028333333","25.1773166666667","6501000","淡水區"
"251009","575-R6","2017/07/14 19:19:39","新北市淡水區大忠街5巷1號","121.443241666667","25.1765233333333","6501000","淡水區"
"251007","577-R6","2017/07/14 19:19:30","新北市淡水區八勢路50巷8弄1號","121.463595","25.1515583333333","6501000","淡水區"
"251011","650-BX","2017/07/14 19:19:51","新北市淡水區中正東路二段143巷2弄1號","121.460706666667","25.1474316666667","6501000","淡水區"
"251003","673-BX","2017/07/14 19:19:48","新北市淡水區中山北路一段87號","121.442226666667","25.1762033333333","6501000","淡水區"
"207003","550-UM","2017/07/14 19:19:33","新北市萬里區大鵬里萬里加投79-3號","121.647385","25.2123533333333","6502800","萬里區"
"207004","225-TW","2017/07/14 19:19:29","新北市萬里區萬里里成功新村42號","121.687556666667","25.1747916666667","6502800","萬里區"
"252002","178-VK","2017/07/14 19:19:31","新北市三芝區淡金路二段18-1號","121.502608333333","25.259475","6502100","三芝區"
"252003","249-BX","2017/07/14 19:19:47","新北市三芝區埔坪里埔頭坑41號","121.504486666667","25.2644916666667","6502100","三芝區"
"252001","292-VK","2017/07/14 19:19:31","新北市三芝區長勤街9巷11弄1號","121.50182","25.2547266666667","6502100","三芝區"
"208002","170-UY","2017/07/14 18:46:47","新北市金山區仁愛路43號","121.635025","25.2199166666667","6502700","金山區"
"237004","078-UY","2017/07/14 19:19:45","新北市三峽區有木205-1號","121.439071666667","24.8515983333333","6500900","三峽區"
"237007","153-BY","2017/07/14 19:19:37","新北市三峽區二鬮路178號","121.359183333333","24.90683","6500900","三峽區"
"237009","210-TH","2017/07/14 19:19:42","新北市三峽區民生街186號","121.370963333333","24.93494","6500900","三峽區"
"237013","252-BX","2017/07/14 19:19:38","新北市三峽區光明路75巷25號","121.377521666667","24.9283016666667","6500900","三峽區"
"237012","275-BY","2017/07/14 19:19:47","新北市三峽區三樹路222巷236弄23號","121.391443333333","24.9430816666667","6500900","三峽區"
"237008","302-VK","2017/07/14 19:19:41","新北市三峽區光明路106巷33號","121.375698333333","24.9270333333333","6500900","三峽區"
"237014","433-BY","2017/07/14 19:19:30","新北市三峽區中山路63巷8號","121.366915","24.9343266666667","6500900","三峽區"
"237006","5529-G3","2017/07/14 19:19:29","新北市三峽區大同路1-8號","121.377925","24.92945","6500900","三峽區"
"237011","572-TV","2017/07/14 19:19:37","新北市三峽區中正路一段512號","121.369848333333","24.9202283333333","6500900","三峽區"
"237015","649-BX","2017/07/14 19:19:29","新北市三峽區安坑7號","121.440806666667","24.92624","6500900","三峽區"
"237010","706-TV","2017/07/14 19:19:36","新北市三峽區復興路56號","121.373536666667","24.9371083333333","6500900","三峽區"
"237005","AKY-6261","2017/07/14 19:19:34","新北市三峽區中山路459巷52-1號","121.356646666667","24.9370016666667","6500900","三峽區"
"236072","105-UM","2017/07/14 19:19:37","新北市土城區中華路一段11號","121.446853333333","24.9894383333333","6501300","土城區"
"236079","166-UM","2017/07/14 19:19:39","新北市土城區中央路四段450號","121.410515","24.9511866666667","6501300","土城區"
"236027","269-VK","2017/07/14 19:19:42","新北市土城區中央路二段61巷20號","121.443028333333","24.9787766666667","6501300","土城區"
"236015","270-VK","2017/07/14 19:19:32","新北市土城區學府路一段23巷23號","121.457676666667","24.9870566666667","6501300","土城區"
"236039","271-VK","2017/07/14 19:19:45","新北市土城區清水路98巷3弄1號","121.457488333333","24.9813","6501300","土城區"
"236022","401-BY","2017/07/14 19:19:35","新北市土城區峰廷街10號","121.468703333333","24.987675","6501300","土城區"
"236059","912-UM","2017/07/14 19:19:41","新北市土城區金城路一段72號","121.443761666667","24.972525","6501300","土城區"
"236050","913-UM","2017/07/14 19:19:36","新北市土城區明德路一段398-1號","121.453663333333","24.9790983333333","6501300","土城區"
"242005","442-UM","2017/07/14 19:19:45","新北市新莊區新泰路325號","121.445033333333","25.0416033333333","6500500","新莊區"
"238015","755-BX","2017/07/14 19:19:35","新北市樹林區備內街3號","121.413045","24.9867133333333","6500700","樹林區"
"238023","601-UM","2017/07/14 19:19:40","新北市樹林區三興路70號","121.393061666667","25.0146766666667","6500700","樹林區"
"238019","599-UM","2017/07/14 19:19:37","新北市樹林區東榮街90號","121.415948333333","24.9826016666667","6500700","樹林區"
"238018","571-TV","2017/07/14 19:19:34","新北市樹林區太平路59號","121.419075","24.9819516666667","6500700","樹林區"
"238024","5061-A6","2017/07/14 19:19:44","新北市樹林區福德街3號","121.4017","24.9757266666667","6500700","樹林區"
"238022","312-TH","2017/07/14 19:19:41","新北市樹林區中山路二段153號","121.406396666667","24.9788483333333","6500700","樹林區"
"238021","311-TH","2017/07/14 14:11:39","新北市樹林區中山路三段198號","121.38733","24.96858","6500700","樹林區"
"238025","303-VK","2017/07/14 19:19:36","新北市樹林區中山路二段10號","121.417531666667","24.9850483333333","6500700","樹林區"
"238017","283-BY","2017/07/14 19:19:32","新北市樹林區光興街221號","121.408151666667","25.0049516666667","6500700","樹林區"
"238014","282-BY","2017/07/14 19:19:49","新北市樹林區千歲街94號","121.42659","24.9978616666667","6500700","樹林區"
"238020","268-VK","2017/07/14 19:19:43","新北市樹林區俊英街155巷9弄13號","121.423881666667","25.0118783333333","6500700","樹林區"
"238026","172-UY","2017/07/14 19:19:34","新北市樹林區佳園路二段133號","121.390148333333","24.9579266666667","6500700","樹林區"
"238016","169-UY","2017/07/14 19:19:45","新北市樹林區復興路322巷10號","121.415998333333","24.9870933333333","6500700","樹林區"
"239007","AAC-297","2017/07/14 19:19:35","新北市鶯歌區大湖路326巷61弄1號","121.34601","24.9693766666667","6500800","鶯歌區"
"239006","891-R6","2017/07/14 19:19:37","新北市鶯歌區中正二路8號","121.35164","24.9521216666667","6500800","鶯歌區"
"239008","527-UM","2017/07/14 19:19:44","新北市鶯歌區大湖路530巷2號","121.33775","24.97312","6500800","鶯歌區"
"239001","417-VK","2017/07/14 19:19:38","新北市鶯歌區建國路546號","121.338288333333","24.950335","6500800","鶯歌區"
"239003","360-BY","2017/07/14 19:19:42","新北市鶯歌區重慶街49號","121.351525","24.9524583333333","6500800","鶯歌區"
"239002","359-BY","2017/07/14 19:19:38","新北市鶯歌區大湖路185巷22號","121.342666666667","24.9704983333333","6500800","鶯歌區"
"239004","193-VK","2017/07/14 19:19:36","新北市鶯歌區二甲路46-1號","121.33766","24.93478","6500800","鶯歌區"
"221008","489-VK","2017/07/14 19:19:46","新北市汐止區康寧街287號","121.626263333333","25.0672616666667","6501100","汐止區"
"221036","130-UY","2017/07/14 19:19:49","新北市汐止區汐萬路一段256巷1號","121.651876666667","25.0749233333333","6501100","汐止區"
"221015","131-UY","2017/07/14 19:19:40","新北市汐止區康寧街901號","121.65155","25.0749316666667","6501100","汐止區"
"221010","269-BY","2017/07/14 19:19:31","新北市汐止區康寧街901號","121.651453333333","25.0751216666667","6501100","汐止區"
"221031","277-VK","2017/07/14 19:19:43","新北市汐止區福德一路1-1號","121.639665","25.07123","6501100","汐止區"
"221012","278-VK","2017/07/14 19:19:39","新北市汐止區汐萬路一段191號","121.652486666667","25.071685","6501100","汐止區"
"221023","279-VK","2017/07/14 02:09:19","新北市汐止區康寧街901號","121.651768333333","25.07508","6501100","汐止區"
"221027","281-BY","2017/07/14 18:49:15","新北市汐止區康寧街901號","121.650885","25.0752683333333","6501100","汐止區"
"221038","297-VK","2017/07/14 19:19:42","新北市汐止區汐萬路一段312號","121.650681666667","25.0752983333333","6501100","汐止區"
"221029","298-VK","2017/07/14 19:19:39","新北市汐止區康寧街901號","121.651521666667","25.0749633333333","6501100","汐止區"
"221021","299-VK","2017/07/14 18:58:02","新北市汐止區汐萬路一段256巷1號","121.65205","25.0746316666667","6501100","汐止區"
"221035","622-UM","2017/07/14 19:19:41","新北市汐止區康寧街901號","121.65107","25.0751466666667","6501100","汐止區"
"221025","623-UM","2017/07/14 19:19:32","新北市汐止區汐萬路一段312號","121.650586666667","25.075375","6501100","汐止區"
"221033","647-BX","2017/07/14 19:19:46","新北市汐止區南勢街1巷1號","121.62704","25.0375183333333","6501100","汐止區"
"221002","707-TV","2017/07/14 19:19:39","新北市汐止區大同路一段380號","121.63936","25.05967","6501100","汐止區"
"220079","145-BY","2017/07/14 19:19:34","新北市板橋區公館街110號","121.460913333333","25.0168","6500100","板橋區"
"220082","610-BX","2017/07/14 19:19:35","新北市板橋區溪崑二街136號","121.42586","24.9876983333333","6500100","板橋區"
"220101","245-BX","2017/07/14 19:19:40","新北市板橋區雙十路二段47巷52號","121.474868333333","25.0253266666667","6500100","板橋區"
"220091","267-BY","2017/07/14 19:19:45","新北市板橋區縣民大道三段203號","121.479903333333","25.024945","6500100","板橋區"
"220056","276-BY","2017/07/14 19:19:35","新北市板橋區信義路185號","121.459006666667","24.991945","6500100","板橋區"
"220072","277-BY","2017/07/14 19:19:46","新北市板橋區金門街337巷7弄23號","121.430655","24.985295","6500100","板橋區"
"220064","280-UM","2017/07/14 19:19:43","新北市板橋區中山路二段18號","121.472166666667","25.0148233333333","6500100","板橋區"
"220071","283-VK","2017/07/14 19:19:49","新北市板橋區重慶路327巷22號","121.464593333333","24.9985916666667","6500100","板橋區"
"220094","285-UM","2017/07/14 19:19:36","新北市板橋區光武街110巷37號","121.467043333333","25.0301466666667","6500100","板橋區"
"220053","285-VK","2017/07/14 19:19:44","新北市板橋區富山街54號","121.477456666667","25.0218766666667","6500100","板橋區"
"220083","286-VK","2017/07/14 19:19:31","新北市板橋區大觀路二段174巷196弄3號","121.4427","25.00398","6500100","板橋區"
"220081","287-VK","2017/07/14 19:19:28","新北市板橋區南雅西路二段9號","121.452996666667","25.0092283333333","6500100","板橋區"
"220090","288-VK","2017/07/14 19:19:46","新北市板橋區長江路一段106巷13弄36號","121.461518333333","25.0296883333333","6500100","板橋區"
"220061","293-UM","2017/07/14 19:19:39","新北市板橋區光復街8號","121.481266666667","25.0192816666667","6500100","板橋區"
"220062","295-UM","2017/07/14 19:19:32","新北市板橋區三民路二段153巷34弄1號","121.481163333333","25.014245","6500100","板橋區"
"220084","296-UM","2017/07/14 19:19:49","新北市板橋區溪崑二街66巷7號","121.427583333333","24.9905116666667","6500100","板橋區"
"220075","297-UM","2017/07/14 19:19:34","新北市板橋區南雅西路一段59號","121.453661666667","25.0050883333333","6500100","板橋區"
"220092","299-UM","2017/07/14 19:19:48","新北市板橋區光武街48巷23號","121.467693333333","25.026845","6500100","板橋區"
"220067","303-R5","2017/07/14 19:19:44","新北市板橋區長安街230-3號","121.475063333333","25.012405","6500100","板橋區"
"220098","317-R6","2017/07/14 19:19:45","新北市板橋區四維路175號","121.464563333333","25.0262216666667","6500100","板橋區"
"220080","461-BY","2017/07/14 19:19:38","新北市板橋區大觀路二段19巷91號","121.449526666667","25.002885","6500100","板橋區"
"220089","487-VK","2017/07/14 19:19:38","新北市板橋區文化路二段39號","121.468966666667","25.0249783333333","6500100","板橋區"
"220088","491-VK","2017/07/14 19:19:49","新北市板橋區雙十路二段79號","121.476118333333","25.0271566666667","6500100","板橋區"
"220035","560-BX","2017/07/14 19:19:38","新北市板橋區中正路332-11號","121.4543","25.023255","6500100","板橋區"
"220103","561-BX","2017/07/14 19:19:31","新北市板橋區文化路一段188巷7弄13號","121.46759","25.0197333333333","6500100","板橋區"
"220063","609-BX","2017/07/14 19:19:44","新北市板橋區三民路二段67號","121.479313333333","25.01707","6500100","板橋區"
"220057","686-BX","2017/07/14 19:19:45","新北市板橋區重慶路293號","121.463463333333","24.9993666666667","6500100","板橋區"
"220077","687-BX","2017/07/14 19:19:38","新北市板橋區大觀路一段28巷73號","121.449585","25.01117","6500100","板橋區"
"220093","689-BX","2017/07/14 19:19:45","新北市板橋區文化路一段106號","121.46466","25.01824","6500100","板橋區"
"220054","741-BX","2017/07/14 19:19:47","新北市板橋區成都街18號","121.460773333333","25.0047333333333","6500100","板橋區"
"220055","827-TW","2017/07/14 19:19:44","新北市板橋區新民街2號","121.463988333333","25.009445","6500100","板橋區"
"220102","830-TW","2017/07/14 19:19:32","新北市板橋區田單街49巷1弄30-3號","121.482438333333","25.0294333333333","6500100","板橋區"
"220096","831-TW","2017/07/14 19:19:32","新北市板橋區大同街26巷6號","121.477923333333","25.0270433333333","6500100","板橋區"
"220074","895-R6","2017/07/14 19:19:36","新北市板橋區中正路自強新村28號","121.455091666667","25.0139516666667","6500100","板橋區"
"220073","985-R7","2017/07/14 19:19:43","新北市板橋區新生街88巷1號","121.45819","25.02166","6500100","板橋區"
"220097","AAC-210","2017/07/14 19:19:49","新北市板橋區幸福路58號","121.461093333333","25.0201416666667","6500100","板橋區"
"220070","AAC-253","2017/07/14 19:19:47","新北市板橋區四川路一段351號","121.458423333333","25.0000566666667","6500100","板橋區"
