"lineid","car","time","location","longitude","latitude","cityid","cityname"
"234046","148-BY","2017/07/14 19:49:33","新北市永和區永利路358號","121.526218333333","25.0033216666667","6500400","永和區"
"234013","149-BY","2017/07/14 19:49:34","新北市永和區永平路288-1號","121.507555","25.0121383333333","6500400","永和區"
"234007","207-UY","2017/07/14 19:49:42","新北市中和區中和路236號","121.50711","24.9996016666667","6500400","永和區"
"234081","298-R6","2017/07/14 19:49:47","新北市永和區永亨路98號","121.523031666667","25.0048733333333","6500400","永和區"
"234038","336-UY","2017/07/14 19:49:45","新北市永和區成功路二段137號","121.526645","24.99801","6500400","永和區"
"234064","337-UY","2017/07/14 19:49:45","新北市永和區中正路368巷29號","121.51855","25.0008083333333","6500400","永和區"
"234086","338-UY","2017/07/14 19:49:43","新北市永和區永亨路134號","121.524765","25.003975","6500400","永和區"
"234070","552-UM","2017/07/14 19:49:47","新北市永和區國光路6號","121.51971","25.0084283333333","6500400","永和區"
"234054","553-UM","2017/07/14 19:49:49","新北市永和區竹林路66巷15-7號","121.51845","25.0132533333333","6500400","永和區"
"234017","745-BX","2017/07/14 19:49:37","新北市永和區永和路二段297號","121.516075","25.01597","6500400","永和區"
"234030","746-BX","2017/07/14 19:49:32","新北市永和區民生路22巷3號","121.522233333333","24.9972733333333","6500400","永和區"
"234061","AAD-866","2017/07/14 19:49:37","新北市永和區中正路61號","121.51479","24.9964116666667","6500400","永和區"
"234042","862-TW","2017/07/14 19:49:39","新北市永和區中和路305巷18弄1號","121.507601666667","25.0016783333333","6500400","永和區"
"234050","863-TW","2017/07/14 19:49:47","新北市永和區環河西路一段105號","121.51115","25.0174466666667","6500400","永和區"
"234026","9371-KE","2017/07/14 19:49:31","新北市永和區雙和街52巷1號","121.509068333333","25.0031816666667","6500400","永和區"
"234011","9373-KE","2017/07/14 19:49:43","新北市永和區仁愛路352巷114號","121.500521666667","25.0082783333333","6500400","永和區"
"249004","303-UY","2017/07/14 19:49:41","新北市八里區中山路一段268巷5弄2號","121.414581666667","25.1606883333333","6502300","八里區"
"249002","305-UY","2017/07/14 19:49:14","新北市八里區坪子頂2號","121.440656666667","25.1254533333333","6502300","八里區"
"249003","593-UM","2017/07/14 19:49:46","新北市八里區中華路二段560巷19號","121.398405","25.1453233333333","6502300","八里區"
"249001","759-BX","2017/07/14 19:49:40","新北市八里區中華路二段252號","121.405328333333","25.1496716666667","6502300","八里區"
"248014","025-BX","2017/07/14 19:49:47","新北市五股區五福路32巷3號","121.434266666667","25.0893166666667","6501500","五股區"
"248016","026-BX","2017/07/14 19:49:45","新北市五股區成泰路四段24-6號","121.45376","25.106845","6501500","五股區"
"248008","095-VK","2017/07/14 19:49:32","新北市五股區四維路169號","121.467718333333","25.07507","6501500","五股區"
"248018","225-UY","2017/07/14 19:43:22","新北市五股區外寮路1-5號","121.426186666667","25.07695","6501500","五股區"
"248012","247-BX","2017/07/14 19:49:48","新北市五股區蓬萊路52號","121.433923333333","25.0801633333333","6501500","五股區"
"248010","272-BY","2017/07/14 19:49:47","新北市五股區登林路貿商巷3弄15號","121.429693333333","25.0699116666667","6501500","五股區"
"248004","677-BX","2017/07/14 19:49:46","新北市五股區成泰路一段142-1號","121.435031666667","25.076195","6501500","五股區"
"248002","678-BX","2017/07/14 19:49:44","新北市五股區成泰路四段8號","121.45311","25.10653","6501500","五股區"
"234023","9380-KE","2017/07/14 19:49:49","新北市永和區豫溪街57巷8弄6號","121.517598333333","25.0104233333333","6500400","永和區"
"234077","969-R7","2017/07/14 19:49:44","新北市永和區民治街62號","121.518108333333","24.997955","6500400","永和區"
"234074","AAC-211","2017/07/14 19:49:47","新北市永和區豫溪街189巷1號","121.522601666667","25.0103316666667","6500400","永和區"
"234067","AAC-212","2017/07/14 19:49:49","新北市永和區中山路一段211-1號","121.508641666667","25.0085016666667","6500400","永和區"
"234003","AAC-295","2017/07/14 19:49:42","新北市永和區福和路315號","121.516028333333","25.00726","6500400","永和區"
"243013","AAD-798","2017/07/14 19:49:47","新北市泰山區應化街7號","121.42386","25.0437133333333","6501600","泰山區"
"243009","297-R6","2017/07/14 19:49:35","新北市泰山區美寧街60號","121.430925","25.06462","6501600","泰山區"
"243015","380-SR","2017/07/14 19:49:38","新北市泰山區明志路二段214巷9號","121.426748333333","25.0488133333333","6501600","泰山區"
"243014","421-VK","2017/07/14 19:49:38","新北市泰山區泰林路二段33-8號","121.435231666667","25.0565833333333","6501600","泰山區"
"243010","548-UM","2017/07/14 19:49:37","新北市泰山區民生路33號","121.43058","25.0522183333333","6501600","泰山區"
"243011","549-UM","2017/07/14 19:49:47","新北市泰山區明志路三段204巷10弄11號","121.422965","25.0386716666667","6501600","泰山區"
"243012","646-TV","2017/07/14 19:49:42","新北市泰山區全興路5號","121.432365","25.0591466666667","6501600","泰山區"
"243016","680-BX","2017/07/14 19:49:40","新北市泰山區明志路三段488號","121.421035","25.031425","6501600","泰山區"
"222003","436-BY","2017/07/14 19:49:46","新北市深坑區深南路51-1號","121.62111","25.0100316666667","6501800","深坑區"
"222001","628-TS","2017/07/14 19:49:35","新北市深坑區北深路三段70號","121.6078","25.0013133333333","6501800","深坑區"
"222002","659-BX","2017/07/14 19:49:46","新北市深坑區北深路二段20號","121.62065","25.00446","6501800","深坑區"
"231041","002-UM","2017/07/14 19:49:46","新北市新店區中央路153號","121.5299","24.972935","6500600","新店區"
"231056","0293-UT","2017/07/14 19:49:35","新北市新店區中央路218號","121.529783333333","24.9730066666667","6500600","新店區"
"231059","046-UY","2017/07/14 19:49:35","新北市新店區安和路二段1-1號","121.51785","24.966985","6500600","新店區"
"231061","047-UY","2017/07/14 19:49:40","新北市新店區安民街304號","121.517608333333","24.9738133333333","6500600","新店區"
"231060","106-UY","2017/07/14 19:49:42","新北市新店區安康路二段163號","121.510055","24.9591716666667","6500600","新店區"
"231051","107-UY","2017/07/14 19:49:33","新北市新店區中央三街61號","121.527038333333","24.97498","6500600","新店區"
"231048","108-UY","2017/07/14 19:49:45","新北市新店區中興路二段202-2號","121.548215","24.9743633333333","6500600","新店區"
"231053","187-VK","2017/07/14 19:49:33","新北市新店區新烏路二段474-3號","121.552981666667","24.9080733333333","6500600","新店區"
"231057","256-BX","2017/07/14 19:49:43","新北市新店區梅崗一路10號","121.55598","24.9313833333333","6500600","新店區"
"231063","268-BY","2017/07/14 19:49:41","新北市新店區黎明路3號","121.50362","24.9524733333333","6500600","新店區"
"231046","278-BY","2017/07/14 19:49:45","新北市新店區福園街10巷1號","121.532668333333","24.97278","6500600","新店區"
"231050","AAD-862","2017/07/14 19:49:39","新北市新店區北宜路二段579巷2號","121.565365","24.95407","6500600","新店區"
"231067","4772-VM","2017/07/14 19:49:41","新北市新店區精忠路10-1號","121.532656666667","24.9590533333333","6500600","新店區"
"231065","512-UM","2017/07/14 19:49:30","新北市新店區安祥路109巷151弄16號","121.477755","24.9587633333333","6500600","新店區"
"231054","513-UM","2017/07/14 19:49:32","新北市新店區光明街138巷13弄1號","121.540141666667","24.9611766666667","6500600","新店區"
"231064","515-UM","2017/07/14 19:49:32","新北市新店區安和路二段113巷1弄1號","121.51842","24.9701683333333","6500600","新店區"
"231042","616-UM","2017/07/14 19:49:39","新北市新店區中興路一段267-1號","121.54497","24.9676916666667","6500600","新店區"
"231045","617-UM","2017/07/14 19:49:50","新北市新店區北宜路二段382號","121.564403333333","24.9531666666667","6500600","新店區"
"231040","619-UM","2017/07/14 19:49:45","新北市新店區北新路一段96巷23號","121.542983333333","24.9688716666667","6500600","新店區"
"231049","719-UM","2017/07/14 19:49:40","新北市新店區民權路127巷1號","121.535266666667","24.98198","6500600","新店區"
"231062","720-UM","2017/07/14 19:49:36","新北市新店區永業路101號","121.528658333333","24.948615","6500600","新店區"
"231044","897-TW","2017/07/14 19:49:52","新北市新店區復興路18號","121.53957","24.9868","6500600","新店區"
"231043","899-TW","2017/07/14 19:49:47","新北市新店區中正路260號","121.539111666667","24.9734216666667","6500600","新店區"
"231066","AKT-0513","2017/07/14 19:49:33","新北市新店區薏仁坑路自強巷1號","121.496868333333","24.9580316666667","6500600","新店區"
"241011","013-R5","2017/07/14 19:49:42","新北市三重區三和路二段173巷43號","121.499126666667","25.0701783333333","6500200","三重區"
"241028","022-UY","2017/07/14 19:49:49","新北市三重區中正南路165號","121.493725","25.0559666666667","6500200","三重區"
"241008","059-VK","2017/07/14 19:49:35","新北市三重區永福街96號","121.478841666667","25.0759133333333","6500200","三重區"
"241009","060-VK","2017/07/14 19:49:47","新北市三重區三和路四段396巷43號","121.479698333333","25.0787866666667","6500200","三重區"
"241031","061-VK","2017/07/14 19:49:42","新北市三重區重新路四段256號","121.486038333333","25.053285","6500200","三重區"
"241015","062-VK","2017/07/14 19:49:31","新北市三重區三和路一段2號","121.503855","25.06429","6500200","三重區"
"241017","063-VK","2017/07/14 19:49:36","新北市三重區重陽路三段5巷8弄16號","121.489543333333","25.066555","6500200","三重區"
"241024","065-VK","2017/07/14 19:49:33","新北市三重區大勇街83號","121.479975","25.0714216666667","6500200","三重區"
"241026","066-VK","2017/07/14 19:49:32","新北市三重區文化南路45號","121.500266666667","25.0614016666667","6500200","三重區"
"241003","091-VK","2017/07/14 19:49:40","新北市三重區五華街93巷77號","121.493618333333","25.084755","6500200","三重區"
"241005","262-UM","2017/07/14 19:49:42","新北市三重區溪尾街300-2號","121.487405","25.083655","6500200","三重區"
"241016","265-UM","2017/07/14 19:49:31","新北市三重區正義北路48巷47號","121.495985","25.0636133333333","6500200","三重區"
"241022","267-UM","2017/07/14 19:49:47","新北市三重區過圳街31巷2號","121.488906666667","25.0605833333333","6500200","三重區"
"241018","268-UM","2017/07/14 19:49:35","新北市三重區雙園街57巷3號","121.494926666667","25.0676283333333","6500200","三重區"
"241032","269-UM","2017/07/14 19:49:47","新北市三重區捷運路19巷33號","121.484575","25.057765","6500200","三重區"
"241013","270-UM","2017/07/14 19:49:44","新北市三重區仁愛街92巷13號","121.494745","25.0737966666667","6500200","三重區"
"241025","271-UM","2017/07/14 19:49:43","新北市三重區頂崁街210巷16號","121.476526666667","25.06768","6500200","三重區"
"241007","398-BY","2017/07/14 19:49:47","新北市三重區三和路四段143-1號","121.48423","25.0781066666667","6500200","三重區"
"241020","413-TH","2017/07/14 19:49:38","新北市三重區三和路四段12號","121.491566666667","25.073895","6500200","三重區"
"241004","475-VK","2017/07/14 19:49:41","新北市三重區五華街74號","121.493435","25.0820016666667","6500200","三重區"
"241019","478-VK","2017/07/14 19:49:41","新北市三重區自強路二段67巷17號","121.489393333333","25.0701966666667","6500200","三重區"
"241030","480-VK","2017/07/14 19:49:46","新北市三重區環河南路254巷44號","121.48962","25.0512933333333","6500200","三重區"
"241014","543-UM","2017/07/14 19:49:42","新北市三重區長安街82號","121.501475","25.06757","6500200","三重區"
"241023","545-UM","2017/07/14 19:49:47","新北市三重區頂崁街172號","121.477525","25.0659583333333","6500200","三重區"
"241001","547-UM","2017/07/14 19:49:32","新北市三重區仁愛街327巷41號","121.493248333333","25.0800316666667","6500200","三重區"
"241006","AAD-863","2017/07/14 19:49:46","新北市三重區永福街281-1號","121.482571666667","25.0744","6500200","三重區"
"241035","743-BX","2017/07/14 19:49:42","新北市三重區文化北路33-7號","121.499165","25.0646266666667","6500200","三重區"
"241012","941-UM","2017/07/14 19:49:49","新北市三重區仁福街64巷16號","121.497683333333","25.07514","6500200","三重區"
"241029","942-UM","2017/07/14 19:49:40","新北市三重區光明路11號","121.490963333333","25.0587133333333","6500200","三重區"
"241033","AAC-255","2017/07/14 19:49:46","新北市三重區中興南街64號","121.470606666667","25.0440416666667","6500200","三重區"
"235066","003-UY","2017/07/14 19:49:36","新北市中和區南工路66號","121.506425","25.0020116666667","6500300","中和區"
"235064","005-UY","2017/07/14 19:49:29","新北市中和區南山路127巷18弄1號","121.503486666667","24.9974066666667","6500300","中和區"
"235063","006-UY","2017/07/14 19:49:46","新北市中和區連城路263巷7弄2號","121.492241666667","24.9957716666667","6500300","中和區"
"235056","096-UM","2017/07/14 19:49:45","新北市中和區中山路三段136巷10弄9號","121.474095","25.007295","6500300","中和區"
"235039","097-UM","2017/07/14 19:49:44","新北市中和區景德街1號","121.519288333333","24.9912333333333","6500300","中和區"
"235065","098-UM","2017/07/14 19:49:29","新北市中和區莊敬路25號","121.500175","25.0046466666667","6500300","中和區"
"235040","150-BY","2017/07/14 19:49:37","新北市中和區安平路59號","121.509688333333","24.9949683333333","6500300","中和區"
"235058","151-BY","2017/07/14 19:49:33","新北市中和區員山路148巷44弄7號","121.482648333333","24.9966283333333","6500300","中和區"
"235055","183-VK","2017/07/14 19:49:50","新北市中和區中山路三段181巷18弄11號","121.472635","25.0048433333333","6500300","中和區"
"235038","185-VK","2017/07/14 19:49:43","新北市中和區自立路99巷17號","121.522923333333","24.99497","6500300","中和區"
"235049","186-VK","2017/07/14 19:49:48","新北市中和區中正路12號","121.50291","24.993715","6500300","中和區"
"235067","255-BX","2017/07/14 19:49:46","新北市中和區新生街242巷1弄2號","121.48329","24.9976483333333","6500300","中和區"
"235044","293-VK","2017/07/14 19:49:47","新北市中和區興南路一段113號","121.509218333333","24.9879666666667","6500300","中和區"
"235072","301-VK","2017/07/14 19:49:30","新北市板橋區光復街172巷31弄5-2號","121.486453333333","25.0190816666667","6500300","中和區"
"235043","352-BY","2017/07/14 19:49:38","新北市中和區華新街230號","121.506028333333","24.9817483333333","6500300","中和區"
"235051","376-QA","2017/07/14 19:49:48","新北市中和區中興街125巷3號","121.500205","24.991765","6500300","中和區"
"235068","377-QA","2017/07/14 19:49:39","新北市中和區福祥路48號","121.49931","25.0040466666667","6500300","中和區"
"235061","378-QA","2017/07/14 19:49:39","新北市中和區員山路226巷7弄2號","121.481916666667","25.0005516666667","6500300","中和區"
"235050","4979-A6","2017/07/14 19:49:33","新北市中和區景平路241巷79號","121.507395","24.99205","6500300","中和區"
"235069","4980-A6","2017/07/14 19:49:49","新北市中和區圓通路101號","121.499568333333","24.9967233333333","6500300","中和區"
"235042","551-UM","2017/07/14 19:49:33","新北市中和區保健路2巷30號","121.507041666667","24.9974716666667","6500300","中和區"
"235045","565-BX","2017/07/14 19:49:45","新北市中和區興南路一段2號","121.511598333333","24.9915166666667","6500300","中和區"
"235054","640-BX","2017/07/14 19:49:47","新北市中和區民德路189巷7號","121.469198333333","24.9989733333333","6500300","中和區"
"235060","647-TV","2017/07/14 19:49:33","新北市中和區新生街16巷36號","121.481855","25.0045033333333","6500300","中和區"
"235047","732-UM","2017/07/14 19:49:41","新北市中和區和平街42號","121.50897","24.9904433333333","6500300","中和區"
"235046","733-UM","2017/07/14 19:49:46","新北市中和區仁愛街128號","121.511851666667","24.986555","6500300","中和區"
"235071","783-BX","2017/07/14 19:49:34","新北市中和區永和路335-2號","121.484811666667","25.0112466666667","6500300","中和區"
"235057","801-TS","2017/07/14 19:49:43","新北市中和區員山路203號","121.48114","24.9974533333333","6500300","中和區"
"235041","802-TS","2017/07/14 19:49:36","新北市永和區中和路573號","121.511705","25.0035316666667","6500300","中和區"
"235052","805-TS","2017/07/14 19:49:38","新北市中和區興南路二段60號","121.50642","24.9849833333333","6500300","中和區"
"235048","896-TW","2017/07/14 19:49:48","新北市中和區興南路二段10-3號","121.507831666667","24.9860183333333","6500300","中和區"
"235053","900-TW","2017/07/14 19:49:35","新北市中和區國光街215巷6弄1號","121.466493333333","25.001525","6500300","中和區"
"235070","911-UM","2017/07/14 19:49:46","新北市中和區中和路101號","121.501463333333","25.0004733333333","6500300","中和區"
"235037","AAC-213","2017/07/14 19:49:45","新北市中和區秀朗路三段10巷14弄54號","121.524135","24.9964866666667","6500300","中和區"
"235059","AAC-215","2017/07/14 19:49:39","新北市中和區圓通路305巷17號","121.494385","24.9892966666667","6500300","中和區"
"220068","013-TV","2017/07/14 19:49:32","新北市板橋區中山路二段416巷47弄2號","121.483251666667","25.01939","6500100","板橋區"
"220065","072-UY","2017/07/14 19:49:31","新北市板橋區民族路270巷39號","121.469331666667","25.0060416666667","6500100","板橋區"
"220086","073-UY","2017/07/14 19:49:50","新北市板橋區林園街7-1號","121.453913333333","25.0091866666667","6500100","板橋區"
"220069","AAD-861","2017/07/14 19:49:35","新北市板橋區稚暉街3號","121.456138333333","25.00447","6500100","板橋區"
"220106","120-SR","2017/07/14 19:49:39","新北市板橋區民治街26巷21號","121.477375","25.0336033333333","6500100","板橋區"
"247006","341-TH","2017/07/14 19:49:46","新北市蘆洲區永安南路二段32號","121.467088333333","25.0771333333333","6501400","蘆洲區"
"247008","339-TH","2017/07/14 19:49:50","新北市蘆洲區中山一路61巷34號","121.477326666667","25.0807366666667","6501400","蘆洲區"
"247002","336-TH","2017/07/14 19:49:39","新北市蘆洲區永樂街38巷40號","121.458566666667","25.08992","6501400","蘆洲區"
"247014","057-VK","2017/07/14 19:49:31","新北市蘆洲區保和街17號","121.471038333333","25.0865016666667","6501400","蘆洲區"
"247004","056-VK","2017/07/14 19:49:30","新北市蘆洲區中原路73號","121.458478333333","25.081765","6501400","蘆洲區"
"226004","312-R5","2017/07/14 19:49:46","新北市平溪區十分里十分街268號","121.778658333333","25.0454566666667","6502400","平溪區"
"228001","670-TC","2017/07/14 19:49:32","新北市貢寮區真理里新港街117-1號","121.92694","25.05643","6502600","貢寮區"
"228003","828-UM","2017/07/14 19:49:35","新北市貢寮區真理里美艷山街5-1號","121.92664","25.0597166666667","6502600","貢寮區"
"224010","AGQ-8101","2017/07/14 19:48:07","新北市瑞芳區基山街2號","121.845146666667","25.10982","6501200","瑞芳區"
"224002","639-TC","2017/07/14 19:49:41","新北市瑞芳區民享新村38號","121.817886666667","25.1064283333333","6501200","瑞芳區"
"224011","420-VK","2017/07/14 19:49:42","新北市瑞芳區崙頂路3-1號","121.847026666667","25.1047116666667","6501200","瑞芳區"
"227011","642-TC","2017/07/14 19:49:43","新北市雙溪區新基里朝陽街2號","121.86642","25.038765","6502500","雙溪區"
"227003","400-TW","2017/07/14 19:49:37","新北市雙溪區雙溪里內挖路43號","121.863346666667","25.0365283333333","6502500","雙溪區"
"208003","665-BX","2017/07/14 19:49:46","新北市金山區海興路16號","121.630156666667","25.2374366666667","6502700","金山區"
"208001","761-BX","2017/07/14 19:49:36","新北市金山區南勢湖39號","121.611795","25.217805","6502700","金山區"
"251004","009-UM","2017/07/14 19:49:50","新北市淡水區民權路177巷55號","121.460453333333","25.1337766666667","6501000","淡水區"
"251013","180-VK","2017/07/14 19:49:33","新北市淡水區頂田寮1-1號","121.458853333333","25.2142716666667","6501000","淡水區"
"251008","181-VK","2017/07/14 19:49:32","新北市淡水區中正路一段24巷2-4號","121.426798333333","25.177005","6501000","淡水區"
"251015","182-VK","2017/07/14 19:49:43","新北市淡水區竹圍子5-1號","121.482783333333","25.19261","6501000","淡水區"
"251012","441-VK","2017/07/14 19:49:40","新北市淡水區中山北路三段158號","121.445835","25.1961133333333","6501000","淡水區"
"251005","443-VK","2017/07/14 19:49:38","新北市淡水區中正東路6號","121.44712","25.1671866666667","6501000","淡水區"
"251001","559-UM","2017/07/14 19:49:34","新北市淡水區中正東路二段51-3號","121.459416666667","25.1556766666667","6501000","淡水區"
"251006","561-UM","2017/07/14 19:49:39","新北市淡水區水碓街15號","121.443416666667","25.17694","6501000","淡水區"
"251009","575-R6","2017/07/14 19:49:39","新北市淡水區中正路38-1號","121.443738333333","25.1693916666667","6501000","淡水區"
"251011","650-BX","2017/07/14 19:49:31","新北市淡水區北新路一段69-5號","121.452995","25.1809966666667","6501000","淡水區"
"207003","550-UM","2017/07/14 19:49:33","新北市萬里區大鵬里萬里加投45-1號","121.640905","25.210835","6502800","萬里區"
"207004","225-TW","2017/07/14 19:49:49","新北市萬里區萬里里瑪鋉路238號","121.689201666667","25.18045","6502800","萬里區"
"252002","178-VK","2017/07/14 19:49:31","新北市三芝區三民街35號","121.504748333333","25.2585366666667","6502100","三芝區"
"252001","292-VK","2017/07/14 19:49:51","新北市三芝區公正街66號","121.49979","25.257445","6502100","三芝區"
"208002","170-UY","2017/07/14 18:46:47","新北市金山區仁愛路43號","121.635025","25.2199166666667","6502700","金山區"
"237004","078-UY","2017/07/14 19:49:45","新北市三峽區添福107-8號","121.373703333333","24.902375","6500900","三峽區"
"237007","153-BY","2017/07/14 19:49:36","新北市三峽區二鬮路136巷20弄31號","121.357088333333","24.91003","6500900","三峽區"
"237009","210-TH","2017/07/14 19:49:42","新北市三峽區民權街203號","121.367746666667","24.928475","6500900","三峽區"
"237013","252-BX","2017/07/14 19:49:38","新北市三峽區溪北街45號","121.397068333333","24.936","6500900","三峽區"
"237012","275-BY","2017/07/14 19:49:47","新北市三峽區中華路36號","121.373461666667","24.931905","6500900","三峽區"
"237008","302-VK","2017/07/14 19:49:41","新北市三峽區大同路147巷9號","121.371205","24.9264133333333","6500900","三峽區"
"237014","433-BY","2017/07/14 19:49:50","新北市三峽區白雞22-1號","121.368276666667","24.9127583333333","6500900","三峽區"
"237006","5529-G3","2017/07/14 19:49:49","新北市三峽區中正路一段413號","121.370218333333","24.920515","6500900","三峽區"
"237015","649-BX","2017/07/14 19:49:49","新北市三峽區橫溪路99巷4號","121.39944","24.9357566666667","6500900","三峽區"
"237005","AKY-6261","2017/07/14 19:49:34","新北市三峽區民生街92號","121.374118333333","24.9356083333333","6500900","三峽區"
"236072","105-UM","2017/07/14 19:49:50","新北市土城區中央路二段190號","121.442005","24.976095","6501300","土城區"
"236043","107-UM","2017/07/14 19:49:48","新北市土城區裕民路259號","121.454873333333","24.9827833333333","6501300","土城區"
"236079","166-UM","2017/07/14 19:49:45","新北市土城區溪頭路135號","121.40958","24.951065","6501300","土城區"
"236031","253-BX","2017/07/14 19:49:48","新北市土城區中央路一段294號","121.443281666667","24.982395","6501300","土城區"
"236027","269-VK","2017/07/14 19:49:42","新北市土城區中央路二段61巷22號","121.443235","24.978945","6501300","土城區"
"236039","271-VK","2017/07/14 19:49:48","新北市土城區國際路158巷32號","121.468296666667","24.9755733333333","6501300","土城區"
"236022","401-BY","2017/07/14 19:49:35","新北市土城區峰廷街10號","121.468636666667","24.9876566666667","6501300","土城區"
"236059","912-UM","2017/07/14 19:49:41","新北市土城區中央路一段324號","121.443185","24.9815016666667","6501300","土城區"
"236050","913-UM","2017/07/14 19:49:37","新北市土城區青雲路216號","121.458976666667","24.9815633333333","6501300","土城區"
"236063","915-UM","2017/07/14 19:49:30","新北市土城區延和路105巷3弄1號","121.467355","24.99082","6501300","土城區"
"236055","AAC-216","2017/07/14 19:49:40","新北市土城區延和路18巷2號","121.464291666667","24.9881216666667","6501300","土城區"
"242029","986-R7","2017/07/14 19:49:44","新北市新莊區幸福路848號","121.444305","25.0490116666667","6500500","新莊區"
"242048","751-BX","2017/07/14 19:49:43","新北市新莊區建安街121巷7號","121.426481666667","25.0235","6500500","新莊區"
"242027","612-BX","2017/07/14 19:49:32","新北市新莊區中平路183號","121.444666666667","25.04927","6500500","新莊區"
"242037","566-BX","2017/07/14 19:49:32","新北市新莊區建安街42號","121.427678333333","25.0249566666667","6500500","新莊區"
"242041","497-BY","2017/07/14 19:49:49","新北市新莊區天祥街53號","121.414863333333","25.0304083333333","6500500","新莊區"
"242005","442-UM","2017/07/14 19:49:46","新北市新莊區化成路63巷24弄12號","121.462283333333","25.046075","6500500","新莊區"
"242032","415-TV","2017/07/14 19:49:48","新北市新莊區忠孝街89號","121.44392","25.0368583333333","6500500","新莊區"
"242002","413-TV","2017/07/14 19:49:47","新北市新莊區新泰路69號","121.449348333333","25.0342916666667","6500500","新莊區"
"242039","400-BY","2017/07/14 19:49:29","新北市新莊區民安路299巷55弄1號","121.42939","25.0238616666667","6500500","新莊區"
"242060","362-BY","2017/07/14 19:49:34","新北市新莊區中環路一段299號","121.442021666667","25.03214","6500500","新莊區"
"242058","353-BY","2017/07/14 19:49:44","新北市新莊區八德街45號","121.424858333333","25.0222266666667","6500500","新莊區"
"242034","133-UY","2017/07/14 19:49:36","新北市新莊區仁愛街56號","121.44432","25.03709","6500500","新莊區"
"242007","173-VK","2017/07/14 19:49:48","新北市新莊區福壽街425號","121.457668333333","25.0583783333333","6500500","新莊區"
"242056","176-VK","2017/07/14 19:49:44","新北市新莊區新泰路87號","121.448805","25.03451","6500500","新莊區"
"242013","346-TH","2017/07/14 19:49:48","新北市新莊區中誠街71號","121.450601666667","25.0477716666667","6500500","新莊區"
"242015","350-TH","2017/07/14 19:49:37","新北市新莊區中港一街161號","121.447101666667","25.0449183333333","6500500","新莊區"
"242009","351-TH","2017/07/14 19:49:37","新北市新莊區中誠街92號","121.45006","25.0478166666667","6500500","新莊區"
"238015","755-BX","2017/07/14 19:49:35","新北市樹林區中山路二段10號","121.417645","24.9850983333333","6500700","樹林區"
"238023","601-UM","2017/07/14 19:49:40","新北市樹林區三福街127巷2號","121.404616666667","25.0159733333333","6500700","樹林區"
"238021","311-TH","2017/07/14 14:11:39","新北市樹林區中山路三段198號","121.38733","24.96858","6500700","樹林區"
"238025","303-VK","2017/07/14 19:49:36","新北市樹林區福德街4號","121.401363333333","24.97552","6500700","樹林區"
"238017","283-BY","2017/07/14 19:49:32","新北市樹林區保安街二段45巷26-1號","121.414788333333","25.0002483333333","6500700","樹林區"
"238014","282-BY","2017/07/14 19:49:29","新北市樹林區千歲街30巷26弄12號","121.426125","24.9956566666667","6500700","樹林區"
"238020","268-VK","2017/07/14 19:49:42","新北市樹林區樹新路112號","121.429823333333","24.99809","6500700","樹林區"
"221008","489-VK","2017/07/14 19:49:46","新北市汐止區康寧街83巷113號","121.620545","25.0671983333333","6501100","汐止區"
"221036","130-UY","2017/07/14 19:49:49","新北市汐止區汐萬路一段22號","121.655816666667","25.06779","6501100","汐止區"
"221015","131-UY","2017/07/14 19:49:40","新北市汐止區大同路二段527號","121.661808333333","25.06898","6501100","汐止區"
"221010","269-BY","2017/07/14 19:49:32","新北市汐止區汐萬路一段343巷1號","121.650131666667","25.0767266666667","6501100","汐止區"
"221031","277-VK","2017/07/14 19:49:43","新北市汐止區福德三路127號","121.633506666667","25.0675816666667","6501100","汐止區"
"221012","278-VK","2017/07/14 19:49:39","新北市汐止區大同路三段370號","121.68115","25.071385","6501100","汐止區"
"221023","279-VK","2017/07/14 02:09:19","新北市汐止區康寧街901號","121.651768333333","25.07508","6501100","汐止區"
"221032","280-BY","2017/07/14 19:49:46","新北市汐止區橫科路119號","121.619946666667","25.05038","6501100","汐止區"
"221027","281-BY","2017/07/14 19:49:42","新北市汐止區忠孝東路9號","121.658333333333","25.06599","6501100","汐止區"
"221038","297-VK","2017/07/14 19:49:42","新北市汐止區忠孝東路295號","121.664153333333","25.0687816666667","6501100","汐止區"
"221029","298-VK","2017/07/14 19:49:39","新北市汐止區康寧街901號","121.651568333333","25.075","6501100","汐止區"
"221021","299-VK","2017/07/14 19:38:42","新北市汐止區大同路二段269號","121.652273333333","25.0667116666667","6501100","汐止區"
"221035","622-UM","2017/07/14 19:49:41","新北市汐止區長江街9號","121.654663333333","25.0712216666667","6501100","汐止區"
"221025","623-UM","2017/07/14 19:49:51","新北市汐止區秀峰路81巷42號","121.661483333333","25.06469","6501100","汐止區"
"221033","647-BX","2017/07/14 19:49:46","新北市汐止區東勢街216巷22弄23號","121.63471","25.0390033333333","6501100","汐止區"
"221018","753-BX","2017/07/14 19:49:47","新北市汐止區汐萬路一段4號","121.656151666667","25.0672616666667","6501100","汐止區"
"220079","145-BY","2017/07/14 19:49:34","新北市板橋區中正路183巷44號","121.455058333333","25.0160716666667","6500100","板橋區"
"220082","610-BX","2017/07/14 19:49:40","新北市板橋區溪崑一街30巷1號","121.429956666667","24.990825","6500100","板橋區"
"220101","245-BX","2017/07/14 19:49:42","新北市板橋區莊敬路256號","121.474005","25.0216366666667","6500100","板橋區"
"220091","267-BY","2017/07/14 19:49:46","新北市板橋區懷德街127巷49號","121.48051","25.0318666666667","6500100","板橋區"
"220056","276-BY","2017/07/14 19:49:35","新北市板橋區四川路二段99巷2弄2號","121.452716666667","24.99448","6500100","板橋區"
"220072","277-BY","2017/07/14 19:49:46","新北市板橋區金門街151巷25號","121.434161666667","24.990125","6500100","板橋區"
"220064","280-UM","2017/07/14 19:49:43","新北市板橋區實踐路5-1號","121.463365","25.0078583333333","6500100","板橋區"
"220071","283-VK","2017/07/14 19:49:33","新北市板橋區信義路223-5號","121.45968","24.991345","6500100","板橋區"
"220094","285-UM","2017/07/14 19:49:36","新北市板橋區長江路一段120號","121.459993333333","25.0298083333333","6500100","板橋區"
"220053","285-VK","2017/07/14 19:49:44","新北市板橋區中山路二段60巷1弄24號","121.47511","25.0157216666667","6500100","板橋區"
"220083","286-VK","2017/07/14 19:49:50","新北市板橋區龍興街63巷24號","121.442603333333","25.0016416666667","6500100","板橋區"
"220081","287-VK","2017/07/14 19:49:48","新北市板橋區大觀路一段29巷95-10號","121.45055","25.00585","6500100","板橋區"
"220090","288-VK","2017/07/14 19:49:46","新北市板橋區龍泉街54巷8弄12號","121.457425","25.0268983333333","6500100","板橋區"
"220061","293-UM","2017/07/14 19:49:39","新北市板橋區中山路一段283巷2弄1號","121.470138333333","25.0145516666667","6500100","板橋區"
"220062","295-UM","2017/07/14 19:49:40","新北市板橋區中山路二段416巷38弄36號","121.481753333333","25.0194966666667","6500100","板橋區"
"220084","296-UM","2017/07/14 19:49:29","新北市板橋區滿平街84巷70號","121.425913333333","24.98748","6500100","板橋區"
"220075","297-UM","2017/07/14 19:49:34","新北市板橋區金華街1號","121.45547","25.01995","6500100","板橋區"
"220092","299-UM","2017/07/14 19:49:28","新北市板橋區陽明街164巷15號","121.46403","25.02449","6500100","板橋區"
"220067","303-R5","2017/07/14 19:49:44","新北市板橋區長安街138巷1弄89號","121.474881666667","25.0114333333333","6500100","板橋區"
"220098","317-R6","2017/07/14 19:49:45","新北市板橋區裕民街113號","121.45967","25.0275633333333","6500100","板橋區"
"220080","461-BY","2017/07/14 19:49:36","新北市板橋區大觀路二段59巷8號","121.447035","25.0025","6500100","板橋區"
"220089","487-VK","2017/07/14 19:49:38","新北市板橋區英士路199號","121.458821666667","25.0234866666667","6500100","板橋區"
"220088","491-VK","2017/07/14 19:49:49","新北市板橋區文聖街55號","121.476381666667","25.031415","6500100","板橋區"
"220035","560-BX","2017/07/14 19:49:37","新北市板橋區金華街12號","121.45583","25.0203566666667","6500100","板橋區"
"220103","561-BX","2017/07/14 19:49:33","新北市板橋區陽明街29巷2號","121.465295","25.02169","6500100","板橋區"
"220063","609-BX","2017/07/14 19:49:45","新北市板橋區三民路一段66號","121.479581666667","25.022265","6500100","板橋區"
"220057","686-BX","2017/07/14 19:49:44","新北市板橋區國慶路158巷18號","121.461508333333","24.9955","6500100","板橋區"
"220077","687-BX","2017/07/14 19:49:38","新北市板橋區僑中一街124巷11弄2號","121.446005","25.0130916666667","6500100","板橋區"
"220093","689-BX","2017/07/14 19:49:45","新北市板橋區長江路二段221號","121.468176666667","25.0324466666667","6500100","板橋區"
"220054","741-BX","2017/07/14 19:49:47","新北市板橋區忠孝路忠義巷15弄49號","121.465448333333","25.0047383333333","6500100","板橋區"
"220055","827-TW","2017/07/14 19:49:40","新北市板橋區國慶路149巷23-2號","121.46102","24.9974616666667","6500100","板橋區"
"220102","830-TW","2017/07/14 19:49:32","新北市板橋區松柏街50巷3號","121.47573","25.03022","6500100","板橋區"
"220096","831-TW","2017/07/14 19:49:40","新北市板橋區民生路二段226巷19號","121.47076","25.0220216666667","6500100","板橋區"
"220074","895-R6","2017/07/14 19:49:44","新北市板橋區府中路111號","121.456413333333","25.009515","6500100","板橋區"
"220073","985-R7","2017/07/14 19:49:49","新北市板橋區大仁街39號","121.455031666667","25.016635","6500100","板橋區"
"220097","AAC-210","2017/07/14 19:49:29","新北市板橋區文化路一段285巷26號","121.463811666667","25.0194166666667","6500100","板橋區"
"220070","AAC-253","2017/07/14 19:49:34","新北市板橋區民族路218號","121.468545","25.00746","6500100","板橋區"
