"lineid","car","time","location","longitude","latitude","cityid","cityname"
"234061","AAD-866","2017/07/14 20:59:37","新北市永和區福和路1號","121.52613","25.00963","6500400","永和區"
"231059","046-UY","2017/07/14 20:59:35","新北市新店區僑信路92號","121.499811666667","24.947855","6500600","新店區"
"231061","047-UY","2017/07/14 20:59:40","新北市新店區永安街64號","121.519413333333","24.9869216666667","6500600","新店區"
"231060","106-UY","2017/07/14 20:59:42","新北市新店區安康路三段525巷1號","121.481991666667","24.9451733333333","6500600","新店區"
"231051","107-UY","2017/07/14 20:59:33","新北市新店區中正路470-1號","121.533878333333","24.981315","6500600","新店區"
"231048","108-UY","2017/07/14 20:59:45","新北市新店區文化路84號","121.544791666667","24.982235","6500600","新店區"
"231057","256-BX","2017/07/14 20:59:43","新北市新店區新烏路一段17巷12號","121.546106666667","24.9507116666667","6500600","新店區"
"231063","268-BY","2017/07/14 20:59:41","新北市新店區玫瑰路30號","121.4954","24.9500983333333","6500600","新店區"
"231050","AAD-862","2017/07/14 20:59:39","新北市新店區三民路117巷2弄2號","121.534675","24.9719683333333","6500600","新店區"
"231058","3712-VJ","2017/07/14 20:59:39","新北市新店區平等街48巷1號","121.535755","24.9730633333333","6500600","新店區"
"231067","4772-VM","2017/07/14 20:59:41","新北市新店區安民街382號","121.516461666667","24.977045","6500600","新店區"
"231065","512-UM","2017/07/14 20:59:30","新北市新店區安祥路69巷104號","121.483113333333","24.95893","6500600","新店區"
"231054","513-UM","2017/07/14 20:59:32","新北市新店區北新路一段126巷32號","121.54334","24.9690316666667","6500600","新店區"
"231064","515-UM","2017/07/14 20:59:32","新北市新店區安民街300號","121.517788333333","24.97371","6500600","新店區"
"231042","616-UM","2017/07/14 20:59:39","新北市新店區寶興路49號","121.54926","24.97301","6500600","新店區"
"231040","619-UM","2017/07/14 20:59:45","新北市新店區中正路114號","121.542465","24.9710533333333","6500600","新店區"
"231049","719-UM","2017/07/14 20:59:34","新北市新店區薏仁坑路6號","121.500216666667","24.9580516666667","6500600","新店區"
"231062","720-UM","2017/07/14 20:59:36","新北市新店區雙城路43巷2號","121.492395","24.9484066666667","6500600","新店區"
"231043","899-TW","2017/07/14 20:59:42","新北市新店區民族路221號","121.536853333333","24.97585","6500600","新店區"
"231066","AKT-0513","2017/07/14 20:59:33","新北市新店區吉安街10號","121.516806666667","24.965725","6500600","新店區"
"241011","013-R5","2017/07/14 20:59:42","新北市三重區秀江街119號","121.499691666667","25.072205","6500200","三重區"
"241028","022-UY","2017/07/14 20:59:29","新北市三重區新北大道一段1號","121.491451666667","25.061285","6500200","三重區"
"241008","059-VK","2017/07/14 20:59:35","新北市三重區力行路二段162巷9號","121.482563333333","25.0765683333333","6500200","三重區"
"241009","060-VK","2017/07/14 20:59:47","新北市三重區三和路四段386-1號","121.48223","25.07906","6500200","三重區"
"241031","061-VK","2017/07/14 20:59:42","新北市三重區重陽路一段113巷2弄2號","121.48739","25.059975","6500200","三重區"
"241015","062-VK","2017/07/14 20:59:31","新北市三重區福德北路65號","121.5021","25.065575","6500200","三重區"
"241017","063-VK","2017/07/14 20:59:36","新北市三重區國隆路28號","121.492335","25.06437","6500200","三重區"
"241024","065-VK","2017/07/14 20:59:33","新北市三重區大勇街49號","121.481335","25.0719683333333","6500200","三重區"
"241026","066-VK","2017/07/14 20:59:32","新北市三重區文化南路43號","121.500181666667","25.06147","6500200","三重區"
"241002","090-VK","2017/07/14 20:59:35","新北市三重區五華街1巷2號","121.495531666667","25.0797283333333","6500200","三重區"
"241003","091-VK","2017/07/14 20:59:40","新北市三重區五華街141巷58號","121.493505","25.08674","6500200","三重區"
"241005","262-UM","2017/07/14 20:59:42","新北市三重區五華街168號","121.489131666667","25.0861383333333","6500200","三重區"
"241016","265-UM","2017/07/14 20:59:31","新北市三重區正義北路113號","121.496933333333","25.0657583333333","6500200","三重區"
"241022","267-UM","2017/07/14 20:59:47","新北市三重區中正北路20巷12號","121.487948333333","25.0625033333333","6500200","三重區"
"241018","268-UM","2017/07/14 20:59:35","新北市三重區自強路一段157號","121.493348333333","25.067115","6500200","三重區"
"241032","269-UM","2017/07/14 20:59:47","新北市三重區興華街124號","121.483345","25.0596216666667","6500200","三重區"
"241013","270-UM","2017/07/14 20:59:44","新北市三重區仁賢街12-1號","121.495655","25.0748983333333","6500200","三重區"
"241025","271-UM","2017/07/14 20:59:43","新北市三重區貴陽街21號","121.484245","25.06191","6500200","三重區"
"241007","398-BY","2017/07/14 20:59:47","新北市三重區慈愛街43號","121.485348333333","25.0788183333333","6500200","三重區"
"241020","413-TH","2017/07/14 20:59:28","新北市三重區忠孝路二段31號","121.485978333333","25.071085","6500200","三重區"
"241004","475-VK","2017/07/14 20:59:41","新北市三重區仁愛街508號","121.487923333333","25.0821933333333","6500200","三重區"
"241019","478-VK","2017/07/14 20:59:41","新北市三重區三張街104號","121.487926666667","25.0699116666667","6500200","三重區"
"241030","480-VK","2017/07/14 20:59:46","新北市三重區中正南路293號","121.492763333333","25.0518983333333","6500200","三重區"
"241014","543-UM","2017/07/14 20:59:42","新北市三重區長壽街120巷11號","121.502436666667","25.06907","6500200","三重區"
"241023","545-UM","2017/07/14 20:59:46","新北市三重區忠孝路三段50巷41弄66號","121.482295","25.0637483333333","6500200","三重區"
"241001","547-UM","2017/07/14 20:59:33","新北市三重區三和路四段128-1號","121.488893333333","25.0753566666667","6500200","三重區"
"241006","AAD-863","2017/07/14 20:59:46","新北市三重區永福街119號","121.479148333333","25.0770433333333","6500200","三重區"
"241012","941-UM","2017/07/14 20:59:29","新北市三重區仁信街27號","121.501271666667","25.07554","6500200","三重區"
"241029","942-UM","2017/07/14 20:59:39","新北市三重區正義南路107號","121.498108333333","25.0585166666667","6500200","三重區"
"241033","AAC-255","2017/07/14 20:59:46","新北市三重區光復路二段49號","121.472123333333","25.05625","6500200","三重區"
"235072","301-VK","2017/07/14 20:59:30","新北市中和區員山路36巷12號","121.483853333333","24.9910216666667","6500300","中和區"
"235069","4980-A6","2017/07/14 20:59:29","新北市中和區員山路36巷12號","121.483951666667","24.990665","6500300","中和區"
"247020","893-R6","2017/07/14 20:59:31","新北市蘆洲區民族路371號","121.471028333333","25.0912233333333","6501400","蘆洲區"
"247010","546-UM","2017/07/14 20:59:46","新北市蘆洲區鷺江街76號","121.477023333333","25.0838683333333","6501400","蘆洲區"
"247018","500-BY","2017/07/14 20:59:40","新北市蘆洲區民權路138-2號","121.47304","25.088935","6501400","蘆洲區"
"247006","341-TH","2017/07/14 20:59:46","新北市蘆洲區永安南路二段16巷18號","121.468031666667","25.077835","6501400","蘆洲區"
"247008","339-TH","2017/07/14 20:59:30","新北市蘆洲區民生街74號","121.472826666667","25.0790333333333","6501400","蘆洲區"
"247024","337-TH","2017/07/14 20:59:39","新北市蘆洲區光明路20號","121.461176666667","25.0864566666667","6501400","蘆洲區"
"247002","336-TH","2017/07/14 20:59:39","新北市蘆洲區長安街315號","121.457515","25.0861016666667","6501400","蘆洲區"
"247014","057-VK","2017/07/14 20:59:31","新北市蘆洲區中山二路36巷35號","121.474023333333","25.0834416666667","6501400","蘆洲區"
"247004","056-VK","2017/07/14 20:59:50","新北市蘆洲區永安南路二段268號","121.458636666667","25.0807683333333","6501400","蘆洲區"
"247012","007-UY","2017/07/14 20:59:31","新北市蘆洲區民權路5號","121.476611666667","25.0857383333333","6501400","蘆洲區"
"247022","002-UY","2017/07/14 20:59:45","新北市蘆洲區民族路443號","121.467683333333","25.088815","6501400","蘆洲區"
"247016","001-UY","2017/07/14 20:59:41","新北市蘆洲區正和街83號","121.468185","25.0806416666667","6501400","蘆洲區"
"224011","420-VK","2017/07/14 20:30:59","新北市瑞芳區明燈路二段66號","121.809286666667","25.1076216666667","6501200","瑞芳區"
"251002","012-UM","2017/07/14 20:59:43","新北市淡水區水源街一段101-1號","121.446085","25.1721316666667","6501000","淡水區"
"251013","180-VK","2017/07/14 20:59:33","新北市淡水區番子厝11號","121.46185","25.2017383333333","6501000","淡水區"
"251015","182-VK","2017/07/14 20:59:42","新北市淡水區淡金路四段542巷17號","121.4527","25.2270933333333","6501000","淡水區"
"251010","413-VK","2017/07/14 20:59:35","新北市淡水區中正路一段116-3號","121.423913333333","25.1787633333333","6501000","淡水區"
"251012","441-VK","2017/07/14 20:59:40","新北市淡水區淡金路五段108號","121.456476666667","25.2366333333333","6501000","淡水區"
"251005","443-VK","2017/07/14 20:59:38","新北市淡水區學府路51巷2弄16號","121.44801","25.1700233333333","6501000","淡水區"
"251001","559-UM","2017/07/14 20:59:34","新北市淡水區淡金路一段160號","121.454571666667","25.17947","6501000","淡水區"
"251006","561-UM","2017/07/14 20:59:39","新北市淡水區中正路二段31號","121.419241666667","25.1819733333333","6501000","淡水區"
"251007","577-R6","2017/07/14 20:59:29","新北市淡水區仁愛街3號","121.445893333333","25.1704216666667","6501000","淡水區"
"251011","650-BX","2017/07/14 20:59:31","新北市淡水區新民街322巷1號","121.435295","25.1837566666667","6501000","淡水區"
"251003","673-BX","2017/07/14 20:59:48","新北市淡水區新春街117號","121.441613333333","25.181955","6501000","淡水區"
"242005","442-UM","2017/07/14 20:59:45","新北市新莊區環河路462號","121.440568333333","25.0198266666667","6500500","新莊區"
"242046","441-UM","2017/07/14 20:59:44","新北市板橋區大觀路三段59巷17弄5-1號","121.434958333333","24.9953016666667","6500500","新莊區"
"242034","133-UY","2017/07/14 20:59:36","新北市新莊區瓊林路7號","121.449853333333","25.03206","6500500","新莊區"
"238023","601-UM","2017/07/14 20:59:40","新北市樹林區中山路三段204號","121.386785","24.968175","6500700","樹林區"
"221029","298-VK","2017/07/14 20:59:39","新北市汐止區汐萬路一段256巷3號","121.653456666667","25.0747433333333","6501100","汐止區"
"221002","707-TV","2017/07/14 20:59:32","新北市汐止區連峰街1巷1號","121.64687","25.0761083333333","6501100","汐止區"
"221018","753-BX","2017/07/14 20:59:47","新北市汐止區汐萬路一段256巷3號","121.653365","25.0746983333333","6501100","汐止區"
"220070","AAC-253","2017/07/14 20:58:34","新北市樹林區中山路三段214號","121.380103333333","24.9678833333333","6500100","板橋區"
