"lineid","car","time","location","longitude","latitude","cityid","cityname"
"247006","341-TH","2017/07/14 21:49:46","新北市林口區太平里180號","121.366663333333","25.1338766666667","6501400","蘆洲區"
"247008","339-TH","2017/07/14 21:49:29","新北市林口區汕頭32號","121.366291666667","25.1347633333333","6501400","蘆洲區"
"247014","057-VK","2017/07/14 21:49:31","新北市八里區中山路三段409號","121.368775","25.1358483333333","6501400","蘆洲區"
"224011","420-VK","2017/07/14 21:49:42","新北市瑞芳區中正路65號","121.806113333333","25.1074466666667","6501200","瑞芳區"
"251004","009-UM","2017/07/14 21:49:30","新北市淡水區自強路201巷39號","121.462106666667","25.1267883333333","6501000","淡水區"
"251002","012-UM","2017/07/14 21:49:31","新北市淡水區大忠街159號","121.448225","25.1766066666667","6501000","淡水區"
"251008","181-VK","2017/07/14 21:49:32","新北市淡水區學府路104號","121.44983","25.1717483333333","6501000","淡水區"
"251015","182-VK","2017/07/14 21:49:42","新北市淡水區新市二路四段265號","121.445781666667","25.192465","6501000","淡水區"
"251010","413-VK","2017/07/14 21:49:35","新北市淡水區濱海路三段148巷50弄76號","121.430668333333","25.1904866666667","6501000","淡水區"
"251012","441-VK","2017/07/14 21:49:40","新北市淡水區中山北路三段169號","121.445495","25.1969216666667","6501000","淡水區"
"251005","443-VK","2017/07/14 21:49:38","新北市淡水區鄧公路30巷16號","121.453146666667","25.169785","6501000","淡水區"
"251001","559-UM","2017/07/14 21:49:34","新北市淡水區後洲路一段157號","121.427925","25.1988183333333","6501000","淡水區"
"251006","561-UM","2017/07/14 21:49:39","新北市淡水區中正路11巷3號","121.43791","25.170815","6501000","淡水區"
"251009","575-R6","2017/07/14 21:49:39","新北市淡水區民族路35巷1號","121.464595","25.1372233333333","6501000","淡水區"
"251007","577-R6","2017/07/14 21:49:50","新北市淡水區水源街二段177巷100號","121.452148333333","25.1773983333333","6501000","淡水區"
"251011","650-BX","2017/07/14 21:49:31","新北市淡水區新民街322巷6號","121.436136666667","25.1830466666667","6501000","淡水區"
"251003","673-BX","2017/07/14 21:49:48","新北市淡水區新春街59號","121.438091666667","25.1820233333333","6501000","淡水區"
"242046","441-UM","2017/07/14 21:49:44","新北市新莊區三和路12-21號","121.441971666667","25.0382566666667","6500500","新莊區"
