"lineid","car","time","location","longitude","latitude","cityid","cityname"
"232009","290-BY","2017/07/15 07:19:26","新北市坪林區魚堀44-6號","121.701461666667","24.9331333333333","6502000","坪林區"
"232004","291-BY","2017/07/15 07:19:32","新北市坪林區坪雙路一段55號","121.713075","24.943515","6502000","坪林區"
"232010","375-UM","2017/07/15 07:19:33","新北市坪林區水聳淒坑14號","121.72295","24.9278616666667","6502000","坪林區"
"232016","705-BZ","2017/07/15 07:19:41","新北市坪林區金瓜寮13-2號","121.681368333333","24.9151716666667","6502000","坪林區"
"244005","248-BX","2017/07/15 07:19:26","新北市林口區頂福里71-26號","121.355441666667","25.0798633333333","6501700","林口區"
"226005","5620-A6","2017/07/15 07:19:37","新北市平溪區靜安路二段125號","121.722071666667","25.0233883333333","6502400","平溪區"
"226002","7418-A5","2017/07/15 07:17:09","新北市平溪區南山里南山坪7號","121.763611666667","25.0319366666667","6502400","平溪區"
"226003","AGD-0702","2017/07/15 07:19:38","新北市平溪區靜安路二段292號","121.729406666667","25.0230466666667","6502400","平溪區"
"223006","022-BY","2017/07/15 07:19:40","新北市石碇區碇坪路一段2號","121.651571666667","25.0062466666667","6501900","石碇區"
"223002","198-BX","2017/07/15 07:19:36","新北市石碇區碇格路二段34號","121.638913333333","24.9565","6501900","石碇區"
"223008","406-TH","2017/07/15 07:19:37","新北市石碇區番子坑23號","121.675315","25.0026","6501900","石碇區"
"223001","437-BY","2017/07/15 07:19:26","新北市石碇區蓬菜寮6號","121.651985","24.97376","6501900","石碇區"
"223004","660-BX","2017/07/15 07:19:36","新北市石碇區新興坑4-1號","121.653836666667","25.0170833333333","6501900","石碇區"
"223007","661-BX","2017/07/15 07:19:39","新北市石碇區番子坑22號","121.678976666667","25.0007466666667","6501900","石碇區"
"223005","677-TV","2017/07/15 07:19:41","新北市石碇區新興坑4-1號","121.653786666667","25.0170766666667","6501900","石碇區"
"227006","282-VK","2017/07/15 07:19:28","新北市雙溪區新基里自強路5-1號","121.866376666667","25.03911","6502500","雙溪區"
"252004","249-BX","2017/07/15 07:19:40","新北市三芝區興華里楓子林55-1號","121.500886666667","25.2140516666667","6502100","三芝區"
"252007","AAC-283","2017/07/15 07:19:27","新北市三芝區古庄里四棧橋21-5號","121.48713","25.25464","6502100","三芝區"
"236011","165-UM","2017/07/15 07:19:22","新北市板橋區四川路二段245巷13號","121.450996666667","24.99321","6501300","土城區"
"236002","370-SL","2017/07/15 07:14:27","新北市土城區承天路82號","121.44282","24.9607316666667","6501300","土城區"
