"lineid","car","time","location","longitude","latitude","cityid","cityname"
"232009","290-BY","2017/07/15 07:29:26","新北市坪林區鶯子瀨1-2號","121.709036666667","24.91826","6502000","坪林區"
"232010","375-UM","2017/07/15 07:29:33","新北市坪林區苦苓腳2號","121.714063333333","24.9363716666667","6502000","坪林區"
"232016","705-BZ","2017/07/15 07:29:41","新北市坪林區北宜路七段261號","121.690625","24.9364633333333","6502000","坪林區"
"244005","248-BX","2017/07/15 07:29:26","新北市林口區頂福里71-112號","121.344351666667","25.08444","6501700","林口區"
"226005","5620-A6","2017/07/15 07:29:37","新北市平溪區嶺腳里中華街38號","121.739153333333","25.02525","6502400","平溪區"
"226002","7418-A5","2017/07/15 07:22:49","新北市平溪區平湖里石硿子5號","121.767428333333","25.0169816666667","6502400","平溪區"
"226003","AGD-0702","2017/07/15 07:29:38","新北市平溪區嶺腳里中華街7-1號","121.742553333333","25.0254416666667","6502400","平溪區"
"223006","022-BY","2017/07/15 07:29:40","新北市石碇區半路店3號","121.648533333333","24.9636516666667","6501900","石碇區"
"223002","198-BX","2017/07/15 07:29:36","新北市石碇區半路店3號","121.647943333333","24.9640083333333","6501900","石碇區"
"223008","406-TH","2017/07/15 07:29:37","新北市石碇區番子坑24-7號","121.678473333333","25.0035616666667","6501900","石碇區"
"223001","437-BY","2017/07/15 07:29:26","新北市石碇區內楒仔腳4-1號","121.642171666667","24.9713316666667","6501900","石碇區"
"223004","660-BX","2017/07/15 07:29:36","新北市石碇區靜安路一段15號","121.641753333333","25.0121066666667","6501900","石碇區"
"223007","661-BX","2017/07/15 07:29:39","新北市石碇區蚯蚓坑19-5號","121.686005","25.001915","6501900","石碇區"
"223005","677-TV","2017/07/15 07:29:41","新北市石碇區八分寮45-2號","121.641321666667","25.012465","6501900","石碇區"
"227006","282-VK","2017/07/15 07:29:28","新北市雙溪區新基里自強路5-1號","121.866381666667","25.0391","6502500","雙溪區"
"252004","249-BX","2017/07/15 07:29:20","新北市三芝區店子里菜公坑99-3號","121.512665","25.205905","6502100","三芝區"
"252007","AAC-283","2017/07/15 07:29:27","新北市三芝區埔頭里埔頭18-2號","121.493131666667","25.2601116666667","6502100","三芝區"
"237001","159-UY","2017/07/14 13:43:26","桃園市八德區興豐路2350巷501號","121.326505","24.9437783333333","6500900","三峽區"
"236011","165-UM","2017/07/15 07:29:42","新北市土城區延壽路2巷5號","121.471855","24.9904333333333","6501300","土城區"
"236002","370-SL","2017/07/15 07:28:07","新北市土城區南天母路121號","121.448123333333","24.9508366666667","6501300","土城區"
