"lineid","car","time","location","longitude","latitude","cityid","cityname"
"248005","653-BX","2017/12/02 08:26:46","新北市五股區明德路12巷1號","121.433336666667","25.0717733333333","6501500","五股區"
"231007","188-VK","2017/12/02 08:39:18","新北市新店區新潭路三段236號","121.501718333333","24.903195","6500600","新店區"
"231008","192-VK","2017/12/02 08:39:41","新北市新店區新烏路三段165巷42-2號","121.553565","24.9010783333333","6500600","新店區"
"235049","186-VK","2017/12/02 08:39:49","新北市中和區興南路一段156號","121.508385","24.9868783333333","6500300","中和區"
"226005","5620-A6","2017/12/02 08:39:38","新北市平溪區十分里十分街238號","121.778141666667","25.0442133333333","6502400","平溪區"
"226002","7418-A5","2017/12/02 08:39:29","新北市平溪區東勢里芊蓁林9-1號","121.735705","24.9904233333333","6502400","平溪區"
"226003","AGD-0702","2017/12/02 08:39:43","新北市平溪區十分里十分街236號","121.778126666667","25.04406","6502400","平溪區"
"223006","022-BY","2017/12/02 08:39:43","新北市石碇區楓子林3號","121.641645","25.0084016666667","6501900","石碇區"
"223001","205-TH","2017/12/02 08:39:44","新北市石碇區北宜路六段水底寮巷18號","121.661765","24.9395916666667","6501900","石碇區"
"223008","406-TH","2017/12/02 08:39:48","新北市石碇區石汐路1號","121.678268333333","25.034055","6501900","石碇區"
"223001","437-BY","2017/12/02 08:39:37","新北市石碇區北宜路六段柑腳巷1-1號","121.660256666667","24.94021","6501900","石碇區"
"223004","660-BX","2017/12/02 08:39:38","新北市石碇區崩山47-1號","121.678543333333","24.9706766666667","6501900","石碇區"
"223007","661-BX","2017/12/02 08:39:40","新北市石碇區碇南路二段5-1號","121.671388333333","25.026345","6501900","石碇區"
"227006","282-VK","2017/12/02 08:39:50","新北市雙溪區上林里大瀨1號","121.83002","25.0252416666667","6502500","雙溪區"
"252004","249-BX","2017/12/02 08:39:45","新北市三芝區興華里楓子林37-3號","121.490506666667","25.2087783333333","6502100","三芝區"
"252007","AAC-283","2017/12/02 08:39:43","新北市三芝區後厝里番子崙16號","121.484441666667","25.2361666666667","6502100","三芝區"
"237001","159-UY","2017/12/02 08:39:35","新北市三峽區學勤路38號","121.374265","24.9458966666667","6500900","三峽區"
"236011","165-UM","2017/12/02 08:39:31","新北市土城區金城路二段46巷1-24號","121.453675","24.97549","6501300","土城區"
"236002","339-SR","2017/12/02 08:39:36","新北市土城區中央路三段281巷11弄3號","121.426616666667","24.96281","6501300","土城區"
"236006","498-BY","2017/12/02 08:39:32","新北市土城區永和街46-1號","121.434463333333","24.9603933333333","6501300","土城區"
"220080","461-BY","2017/12/02 08:39:45","新北市八里區荖阡坑路34-1號","121.400081666667","25.131965","6500100","板橋區"
"220002","741-BX","2017/12/02 08:39:49","新北市板橋區大觀路三段50巷49號","121.43234","24.9957666666667","6500100","板橋區"
