"lineid","car","time","location","longitude","latitude","cityid","cityname"
"248005","653-BX","2017/12/02 09:29:35","新北市五股區登林路貿商巷2弄2號","121.430536666667","25.06958","6501500","五股區"
"231007","188-VK","2017/12/02 09:29:38","新北市新店區新潭路三段215巷25號","121.508005","24.9039683333333","6500600","新店區"
"231008","192-VK","2017/12/02 09:29:46","新北市新店區平廣路一段170巷1號","121.519186666667","24.889555","6500600","新店區"
"223001","205-TH","2017/12/02 09:29:46","新北市石碇區半路店3號","121.647016666667","24.96551","6501900","石碇區"
"227006","282-VK","2017/12/02 09:18:50","新北市雙溪區長源里柑腳55-1號","121.793768333333","25.0069333333333","6502500","雙溪區"
"252004","249-BX","2017/12/02 09:29:45","新北市三芝區店子里店子112-4號","121.51048","25.20966","6502100","三芝區"
"252007","AAC-283","2017/12/02 09:29:43","新北市三芝區古庄里山豬堀7號","121.49387","25.2560883333333","6502100","三芝區"
"236006","498-BY","2017/12/02 09:29:52","新北市土城區忠承路2號","121.44213","24.968225","6501300","土城區"
"220002","741-BX","2017/12/02 09:29:36","新北市鶯歌區中山路182號","121.348523333333","24.9570616666667","6500100","板橋區"
