"lineid","car","time","location","longitude","latitude","cityid","cityname"
"231007","188-VK","2017/12/02 10:29:38","新北市新店區小坑三路81號","121.513786666667","24.908685","6500600","新店區"
"231008","192-VK","2017/12/02 10:29:21","新北市新店區小坑一路88-1號","121.530056666667","24.9065883333333","6500600","新店區"
"227006","282-VK","2017/12/02 10:29:49","新北市雙溪區平林里外平林17號","121.856625","25.0373416666667","6502500","雙溪區"
"252007","AAC-283","2017/12/02 10:29:43","新北市三芝區古庄里古庄99-3號","121.494183333333","25.2678516666667","6502100","三芝區"
"239006","661-UM","2017/12/02 10:29:38","新北市鶯歌區中正一路阿南巷2號","121.377235","24.9624533333333","6500800","鶯歌區"
