"lineid","car","time","location","longitude","latitude","cityid","cityname"
"234012","149-BY","2017/12/02 12:19:35","新北市永和區福和路1號","121.526241666667","25.00949","6500400","永和區"
"234015","745-BX","2017/12/02 12:19:44","新北市永和區福和路1號","121.526283333333","25.0096116666667","6500400","永和區"
"234040","862-TW","2017/12/02 12:19:35","新北市永和區豫溪街217巷11號","121.524993333333","25.010105","6500400","永和區"
"234076","969-R7","2017/12/02 12:19:35","新北市永和區福和路1號","121.525093333333","25.00905","6500400","永和區"
"231008","192-VK","2017/12/02 12:19:41","新北市新店區新烏路一段60號","121.546053333333","24.948705","6500600","新店區"
"235031","255-BX","2017/12/02 11:52:47","新北市中和區和城路一段271巷1號","121.48547","24.9918733333333","6500300","中和區"
"235025","378-QA","2017/12/02 03:56:27","新北市中和區員山路36巷13號","121.484026666667","24.9914483333333","6500300","中和區"
"228005","097-TW","2017/12/02 12:19:40","新北市貢寮區福連里福連街5號","121.988173333333","25.0152616666667","6502600","貢寮區"
"228004","212-TW","2017/12/02 12:19:47","新北市貢寮區貢寮里長泰路17-2號","121.891998333333","25.0211266666667","6502600","貢寮區"
"221012","276-VK","2017/12/02 12:19:50","新北市汐止區中正路248號","121.657538333333","25.0686383333333","6501100","汐止區"
