"lineid","car","time","location","longitude","latitude","cityid","cityname"
"234044","148-BY","2017/12/02 12:29:47","新北市永和區福和路1號","121.526503333333","25.009975","6500400","永和區"
"234012","149-BY","2017/12/02 12:29:35","新北市永和區保安路60號","121.510031666667","25.01651","6500400","永和區"
"234078","298-R6","2017/12/02 12:29:43","新北市永和區林森路81號","121.52391","25.0039383333333","6500400","永和區"
"234084","338-UY","2017/12/02 12:29:48","新北市永和區成功路一段77號","121.526843333333","25.003165","6500400","永和區"
"234068","552-UM","2017/12/02 12:29:52","新北市永和區福和路1號","121.525591666667","25.00952","6500400","永和區"
"234015","745-BX","2017/12/02 12:29:44","新北市永和區福和路1號","121.526281666667","25.0096683333333","6500400","永和區"
"234040","862-TW","2017/12/02 12:29:35","新北市永和區竹林路206號","121.520523333333","25.0085583333333","6500400","永和區"
"234048","863-TW","2017/12/02 12:29:42","新北市永和區福和路1號","121.526638333333","25.0097566666667","6500400","永和區"
"234076","969-R7","2017/12/02 12:29:35","新北市永和區自由街69號","121.513563333333","25.005255","6500400","永和區"
"234072","AAC-211","2017/12/02 12:29:50","新北市永和區福和路1號","121.52661","25.009745","6500400","永和區"
"235031","255-BX","2017/12/02 11:52:47","新北市中和區和城路一段271巷1號","121.48547","24.9918733333333","6500300","中和區"
"235025","378-QA","2017/12/02 03:56:27","新北市中和區員山路36巷13號","121.484026666667","24.9914483333333","6500300","中和區"
"228005","097-TW","2017/12/02 12:29:40","新北市貢寮區福連里蓬萊街17號","121.976073333333","24.9915666666667","6502600","貢寮區"
"228004","212-TW","2017/12/02 12:29:07","新北市貢寮區龍崗里嵩陽街33號","121.904216666667","25.0181583333333","6502600","貢寮區"
"207002","749-BX","2017/12/02 12:29:39","新北市萬里區雙興里太和路7-2號","121.658628333333","25.1741233333333","6502800","萬里區"
"221012","276-VK","2017/12/02 12:29:50","新北市汐止區中正路198號","121.65852","25.0690083333333","6501100","汐止區"
