"lineid","car","time","location","longitude","latitude","cityid","cityname"
"234044","148-BY","2017/12/02 12:59:27","新北市永和區得和路373巷29號","121.525053333333","25.0003233333333","6500400","永和區"
"234012","149-BY","2017/12/02 12:59:35","新北市永和區中山路一段60巷8號","121.513165","25.011055","6500400","永和區"
"234005","207-UY","2017/12/02 12:59:43","新北市永和區永和路二段46號","121.514905","25.0106666666667","6500400","永和區"
"234078","298-R6","2017/12/02 12:59:23","新北市永和區永貞路41號","121.520931666667","25.0064966666667","6500400","永和區"
"234036","336-UY","2017/12/02 12:59:40","新北市永和區成功路二段199-2號","121.526516666667","24.9960133333333","6500400","永和區"
"234062","337-UY","2017/12/02 12:59:41","新北市永和區秀朗路一段166號","121.518513333333","25.0034116666667","6500400","永和區"
"234084","338-UY","2017/12/02 12:59:31","新北市永和區永寧街125號","121.518106666667","25.00559","6500400","永和區"
"234068","552-UM","2017/12/02 12:59:32","新北市永和區竹林路96巷2號","121.519281666667","25.01213","6500400","永和區"
"234052","553-UM","2017/12/02 12:59:37","新北市永和區竹林路66巷2號","121.518246666667","25.0133766666667","6500400","永和區"
"234015","745-BX","2017/12/02 12:59:44","新北市永和區永和路二段299號","121.516056666667","25.0161216666667","6500400","永和區"
"234028","746-BX","2017/12/02 12:59:43","新北市永和區厚德街14號","121.52579","24.9980033333333","6500400","永和區"
"234060","AAD-866","2017/12/02 12:59:29","新北市永和區福和路311-1號","121.516223333333","25.0070366666667","6500400","永和區"
"234040","862-TW","2017/12/02 12:59:35","新北市永和區永貞路308號","121.511885","25.0049266666667","6500400","永和區"
"234048","863-TW","2017/12/02 12:59:42","新北市永和區文化路194號","121.510768333333","25.0163133333333","6500400","永和區"
"234025","9371-KE","2017/12/02 12:59:42","新北市永和區水源街2巷5-1號","121.512333333333","25.0054766666667","6500400","永和區"
"234010","9373-KE","2017/12/02 12:59:37","新北市永和區文化路113巷25號","121.513201666667","25.0139616666667","6500400","永和區"
"248017","225-UY","2017/12/02 12:59:36","新北市五股區中興路二段83巷26-6號","121.460038333333","25.0752383333333","6501500","五股區"
"234022","9380-KE","2017/12/02 12:59:42","新北市永和區竹林路39巷28弄37號","121.519995","25.01409","6500400","永和區"
"234076","969-R7","2017/12/02 12:59:26","新北市永和區智光街126號","121.515045","24.9956233333333","6500400","永和區"
"234072","AAC-211","2017/12/02 12:59:30","新北市永和區環河東路二段98號","121.524121666667","25.0103433333333","6500400","永和區"
"234066","AAC-212","2017/12/02 12:59:30","新北市永和區永和路一段32號","121.513078333333","25.0048966666667","6500400","永和區"
"234001","AAC-295","2017/12/02 12:59:25","新北市永和區永平路28號","121.513213333333","25.0088433333333","6500400","永和區"
"244005","657-BX","2017/12/02 12:59:39","新北市林口區粉寮路一段77號","121.396936666667","25.0789","6501700","林口區"
"231002","001-UM","2017/12/02 12:59:36","新北市新店區安華路28-1號","121.51987","24.9609866666667","6500600","新店區"
"231028","046-UY","2017/12/02 12:59:45","新北市新店區安華路28-1號","121.519726666667","24.9609816666667","6500600","新店區"
"231030","047-UY","2017/12/02 12:59:34","新北市新店區安華路28-1號","121.519205","24.9609483333333","6500600","新店區"
"231029","106-UY","2017/12/02 12:59:35","新北市新店區安華路28-1號","121.519765","24.9609366666667","6500600","新店區"
"231018","107-UY","2017/12/02 12:59:28","新北市新店區安華路28-1號","121.519546666667","24.9613","6500600","新店區"
"231012","108-UY","2017/12/02 04:12:28","新北市新店區安華路28-1號","121.519488333333","24.9611866666667","6500600","新店區"
"231020","187-VK","2017/12/02 12:59:31","新北市新店區安華路28-1號","121.519695","24.961395","6500600","新店區"
"231017","KEA-2219","2017/12/02 12:59:32","新北市新店區安華路28-1號","121.519905","24.9614483333333","6500600","新店區"
"231034","268-BY","2017/12/02 12:59:35","新北市新店區安華路28-1號","121.519553333333","24.9607933333333","6500600","新店區"
"231010","278-BY","2017/12/02 12:59:14","新北市新店區頂城三街121巷2弄39號","121.514625","24.9548166666667","6500600","新店區"
"231023","AAD-862","2017/12/02 12:59:40","新北市新店區安華路28-1號","121.519983333333","24.961335","6500600","新店區"
"231024","4716-K9","2017/12/02 12:59:28","新北市新店區安華路30巷1號","121.519478333333","24.959685","6500600","新店區"
"231038","4715-K9","2017/12/02 12:59:30","新北市新店區安華路1-1號","121.519405","24.9605333333333","6500600","新店區"
"231013","513-UM","2017/12/02 12:59:42","新北市新店區安華路28-1號","121.51975","24.9613366666667","6500600","新店區"
"231003","616-UM","2017/12/02 12:59:33","新北市新店區安華路28-1號","121.519578333333","24.9606716666667","6500600","新店區"
"231006","617-UM","2017/12/02 12:58:35","新北市新店區安華路28-1號","121.519635","24.9609883333333","6500600","新店區"
"231001","619-UM","2017/12/02 12:59:29","新北市新店區安華路28-1號","121.51956","24.9609766666667","6500600","新店區"
"231036","719-UY","2017/12/02 04:06:19","新北市新店區安華路28-1號","121.519325","24.9611816666667","6500600","新店區"
"231033","720-UM","2017/12/02 12:59:27","新北市新店區安華路28-1號","121.51936","24.961265","6500600","新店區"
"231005","897-TW","2017/12/02 12:59:30","新北市新店區安華路28-1號","121.51959","24.9607683333333","6500600","新店區"
"231004","899-TW","2017/12/02 12:59:39","新北市新店區安華路28-1號","121.519181666667","24.9608833333333","6500600","新店區"
"231037","AKT-0513","2017/12/02 12:59:29","新北市新店區安華路28-1號","121.519598333333","24.9606033333333","6500600","新店區"
"235029","098-UM","2017/12/02 12:59:28","新北市中和區中正路513號","121.488366666667","24.994325","6500300","中和區"
"235022","151-BY","2017/12/02 12:49:45","新北市中和區和城路一段271巷1號","121.48546","24.9914616666667","6500300","中和區"
"235002","185-VK","2017/12/02 12:59:43","新北市中和區秀朗路三段2-1號","121.525966666667","24.99746","6500300","中和區"
"235031","255-BX","2017/12/02 12:59:36","新北市中和區中山路二段550號","121.48409","25.00516","6500300","中和區"
"235025","378-QA","2017/12/02 03:56:27","新北市中和區員山路36巷13號","121.484026666667","24.9914483333333","6500300","中和區"
"235035","269-TV","2017/12/02 12:59:27","新北市中和區連城路469巷41號","121.483513333333","24.99438","6500300","中和區"
"235006","551-UM","2017/12/02 12:59:32","新北市中和區中正路637巷60弄61號","121.485438333333","24.993245","6500300","中和區"
"235026","800-TS","2017/12/02 12:59:23","新北市中和區員山路36巷16-8號","121.48548","24.9924166666667","6500300","中和區"
"235016","805-TS","2017/12/02 12:59:25","新北市中和區員山路36巷13號","121.484351666667","24.9914383333333","6500300","中和區"
"228005","097-TW","2017/12/02 12:59:40","新北市貢寮區福連里香蘭街2-1號","121.96982","25.0238266666667","6502600","貢寮區"
"228004","212-TW","2017/12/02 12:59:27","新北市貢寮區吉林里內寮街19號","121.8872","24.9881683333333","6502600","貢寮區"
"253004","8270-PC","2017/12/02 12:59:33","新北市石門區中山路64-1號","121.567488333333","25.2905083333333","6502200","石門區"
"208004","AAC-292","2017/12/02 12:59:42","新北市金山區民生路202號","121.644415","25.2223433333333","6502700","金山區"
"207002","749-BX","2017/12/02 12:59:39","新北市萬里區雙興里大坪路1-1號","121.639373333333","25.1658116666667","6502800","萬里區"
"252005","073-UM","2017/12/02 12:59:31","新北市三芝區埔坪里埔頭坑44號","121.504635","25.261835","6502100","三芝區"
"207001","662-BX","2017/12/02 12:59:44","新北市萬里區萬里里獅頭路23號","121.69321","25.178285","6502800","萬里區"
"236006","498-BY","2017/12/02 12:59:42","新北市土城區亞洲路32巷2號","121.435861666667","24.9743866666667","6501300","土城區"
"238026","308-TH","2017/12/02 12:59:28","新北市樹林區八德街652號","121.39646","24.96907","6500700","樹林區"
"221012","276-VK","2017/12/02 12:59:30","新北市汐止區民生街4巷2號","121.660195","25.0687766666667","6501100","汐止區"
"221032","280-BY","2017/12/02 12:59:46","新北市汐止區大同路二段537號","121.66203","25.06916","6501100","汐止區"
"221018","753-BX","2017/12/02 12:59:33","新北市汐止區康寧街595號","121.635395","25.0702266666667","6501100","汐止區"
