"lineid","car","time","location","longitude","latitude","cityid","cityname"
"234044","148-BY","2017/12/02 14:09:07","新北市永和區得和路370號","121.524381666667","24.9993833333333","6500400","永和區"
"234012","149-BY","2017/12/02 14:09:35","新北市永和區永貞路375號","121.508333333333","25.0083333333333","6500400","永和區"
"234005","207-UY","2017/12/02 14:09:43","新北市永和區保平路222號","121.509668333333","25.0057333333333","6500400","永和區"
"234078","298-R6","2017/12/02 14:09:23","新北市永和區永亨路100號","121.523086666667","25.004885","6500400","永和區"
"234036","336-UY","2017/12/02 14:09:40","新北市永和區環河東路三段96號","121.528221666667","25.0040733333333","6500400","永和區"
"234062","337-UY","2017/12/02 14:09:41","新北市永和區永利路152號","121.522421666667","25.0027266666667","6500400","永和區"
"234084","338-UY","2017/12/02 14:09:37","新北市永和區中正路553號","121.516888333333","25.0081916666667","6500400","永和區"
"234068","552-UM","2017/12/02 14:09:32","新北市永和區永貞路10巷8號","121.520305","25.0072483333333","6500400","永和區"
"234052","553-UM","2017/12/02 14:09:37","新北市永和區博愛街37號","121.5187","25.015845","6500400","永和區"
"234015","745-BX","2017/12/02 14:09:44","新北市永和區文化路14號","121.515383333333","25.0150983333333","6500400","永和區"
"234028","746-BX","2017/12/02 14:09:41","新北市永和區民生路22巷27號","121.521193333333","24.9969933333333","6500400","永和區"
"234060","AAD-866","2017/12/02 14:09:29","新北市中和區安平路218號","121.513948333333","24.999925","6500400","永和區"
"234040","862-TW","2017/12/02 14:09:35","新北市永和區雙和街4號","121.509808333333","25.0017383333333","6500400","永和區"
"234048","863-TW","2017/12/02 14:09:42","新北市永和區環河西路二段105號","121.506381666667","25.0147083333333","6500400","永和區"
"234025","9371-KE","2017/12/02 14:09:31","新北市永和區安樂路278號","121.514538333333","25.004315","6500400","永和區"
"234010","9373-KE","2017/12/02 14:09:37","新北市永和區仁愛路352巷122弄13號","121.50073","25.0089333333333","6500400","永和區"
"248017","225-UY","2017/12/02 14:09:35","新北市五股區壟路7-3號","121.4161","25.0892766666667","6501500","五股區"
"234022","9380-KE","2017/12/02 14:09:42","新北市永和區光復街2巷16弄39號","121.51835","25.0163633333333","6500400","永和區"
"234076","969-R7","2017/12/02 14:09:26","新北市永和區民族街67巷25號","121.519391666667","24.997215","6500400","永和區"
"234072","AAC-211","2017/12/02 14:09:30","新北市永和區豫溪街160巷2號","121.523245","25.0096033333333","6500400","永和區"
"234066","AAC-212","2017/12/02 14:09:36","新北市永和區保平路236巷1弄1號","121.50902","25.00578","6500400","永和區"
"234001","AAC-295","2017/12/02 14:09:25","新北市永和區中正路619號","121.516073333333","25.009845","6500400","永和區"
"231002","001-UM","2017/12/02 14:09:36","新北市新店區中正路516號","121.533813333333","24.9835516666667","6500600","新店區"
"231025","0293-UT","2017/12/02 14:09:23","新北市新店區中正路328巷42弄10號","121.538438333333","24.97602","6500600","新店區"
"231028","046-UY","2017/12/02 14:09:45","新北市新店區安和路二段227號","121.517196666667","24.9760883333333","6500600","新店區"
"231030","047-UY","2017/12/02 14:09:34","新北市新店區安民街65巷21-2號","121.515158333333","24.9674533333333","6500600","新店區"
"231029","106-UY","2017/12/02 14:09:15","新北市新店區安康路二段161號","121.510316666667","24.9593916666667","6500600","新店區"
"231018","107-UY","2017/12/02 14:09:28","新北市新店區中央路95巷8號","121.531611666667","24.9748616666667","6500600","新店區"
"231012","108-UY","2017/12/02 14:09:45","新北市新店區中興路一段266號","121.544773333333","24.967305","6500600","新店區"
"231020","187-VK","2017/12/02 14:09:31","新北市新店區新烏路二段302號","121.548798333333","24.9126933333333","6500600","新店區"
"231017","KEA-2219","2017/12/02 14:09:42","新北市新店區中生路83巷3號","121.564736666667","24.9517583333333","6500600","新店區"
"231026","256-BX","2017/12/02 14:09:26","新北市新店區安華路28-1號","121.51957","24.9612366666667","6500600","新店區"
"231034","268-BY","2017/12/02 14:09:35","新北市新店區黎明路3號","121.503268333333","24.9522516666667","6500600","新店區"
"231023","AAD-862","2017/12/02 14:09:40","新北市新店區文中路40號","121.539696666667","24.9565966666667","6500600","新店區"
"231027","3712-VJ","2017/12/02 14:09:37","新北市新店區光明街168巷5弄5號","121.540445","24.9619983333333","6500600","新店區"
"231024","4716-K9","2017/12/02 14:09:35","新北市新店區新生街13巷26號","121.538925","24.9663783333333","6500600","新店區"
"231038","4715-K9","2017/12/02 14:09:30","新北市新店區溪洲路121號","121.531265","24.9627416666667","6500600","新店區"
"231013","513-UM","2017/12/02 14:09:42","新北市新店區北新路三段65巷34弄27號","121.540001666667","24.9819116666667","6500600","新店區"
"231035","515-UM","2017/12/02 14:09:24","新北市新店區安和路二段111號","121.518813333333","24.969985","6500600","新店區"
"231003","616-UM","2017/12/02 14:09:33","新北市新店區中興路一段171號","121.54287","24.9645366666667","6500600","新店區"
"231006","617-UM","2017/12/02 14:09:37","新北市新店區北宜路二段317號","121.556993333333","24.9538983333333","6500600","新店區"
"231001","619-UM","2017/12/02 14:09:29","新北市新店區中華路52號","121.539566666667","24.9685383333333","6500600","新店區"
"231036","719-UY","2017/12/02 14:09:41","新北市新店區安祥路109巷6弄47號","121.475531666667","24.9573033333333","6500600","新店區"
"231033","720-UM","2017/12/02 14:09:27","新北市新店區永業路7-1號","121.53368","24.9559516666667","6500600","新店區"
"231005","897-TW","2017/12/02 14:09:30","新北市新店區中興路三段229號","121.542986666667","24.9833483333333","6500600","新店區"
"231004","899-TW","2017/12/02 14:09:39","新北市新店區北新路二段162號","121.542943333333","24.9756866666667","6500600","新店區"
"231037","AKT-0513","2017/12/02 14:09:29","新北市新店區安康路二段341巷38號","121.49664","24.9543816666667","6500600","新店區"
"235030","003-UY","2017/12/02 14:09:41","新北市中和區廣福路32號","121.504556666667","25.0023466666667","6500300","中和區"
"235027","006-UY","2017/12/02 14:09:43","新北市中和區圓通路198巷9號","121.495586666667","24.9944383333333","6500300","中和區"
"235020","096-UM","2017/12/02 14:09:41","新北市中和區中山路二段579號","121.480428333333","25.0057866666667","6500300","中和區"
"235003","097-UM","2017/12/02 14:09:25","新北市中和區景平路3號","121.523653333333","24.9903416666667","6500300","中和區"
"235029","098-UM","2017/12/02 14:09:28","新北市中和區中山路二段64巷8號","121.503686666667","25.0050216666667","6500300","中和區"
"235004","150-BY","2017/12/02 14:09:39","新北市中和區保健路10巷25弄1號","121.50819","24.9966383333333","6500300","中和區"
"235022","151-BY","2017/12/02 14:09:25","新北市中和區員山路143巷32號","121.479746666667","24.9957783333333","6500300","中和區"
"235019","183-VK","2017/12/02 14:09:39","新北市中和區德光路72號","121.469236666667","25.0037883333333","6500300","中和區"
"235002","185-VK","2017/12/02 14:09:29","新北市中和區大仁街10巷27弄3號","121.51916","24.9927116666667","6500300","中和區"
"235013","186-VK","2017/12/02 14:09:35","新北市中和區明禮街45號","121.504018333333","24.9965283333333","6500300","中和區"
"235031","255-BX","2017/12/02 14:09:36","新北市中和區新生街268號","121.483448333333","24.997175","6500300","中和區"
"235008","293-VK","2017/12/02 14:09:42","新北市中和區中興街214號","121.49959","24.9900633333333","6500300","中和區"
"235036","301-VK","2017/12/02 14:09:39","新北市中和區景平路673號","121.496546666667","25.0027583333333","6500300","中和區"
"235007","352-BY","2017/12/02 14:09:37","新北市中和區景平路10號","121.524025","24.9905133333333","6500300","中和區"
"235032","377-QA","2017/12/02 14:09:24","新北市中和區連勝街38巷6號","121.498058333333","24.997875","6500300","中和區"
"235025","378-QA","2017/12/02 14:09:27","新北市中和區員山路321號","121.481216666667","25.0005416666667","6500300","中和區"
"235035","269-TV","2017/12/02 14:09:27","新北市中和區永和路363巷17號","121.482043333333","25.0112766666667","6500300","中和區"
"235014","4979-A6","2017/12/02 14:09:35","新北市中和區復興路263巷9弄14號","121.503361666667","24.9897233333333","6500300","中和區"
"235033","4980-A6","2017/12/02 14:09:35","新北市中和區中山路二段181巷20號","121.500986666667","25.00205","6500300","中和區"
"235006","551-UM","2017/12/02 14:09:32","新北市中和區自立路16巷2號","121.52168","24.993705","6500300","中和區"
"235034","558-UM","2017/12/02 14:09:43","新北市中和區中和路212號","121.506036666667","24.9996383333333","6500300","中和區"
"235009","565-BX","2017/12/02 14:09:38","新北市中和區景新街467巷20弄7-5號","121.51437","24.987895","6500300","中和區"
"235018","640-BX","2017/12/02 14:09:36","新北市中和區國光街107巷2弄32號","121.469263333333","24.9989433333333","6500300","中和區"
"235024","647-TV","2017/12/02 14:09:31","新北市中和區民享街91-11號","121.474705","25.0008316666667","6500300","中和區"
"235011","732-UM","2017/12/02 14:09:35","新北市中和區興南路一段56巷36號","121.510535","24.9912616666667","6500300","中和區"
"235010","733-UM","2017/12/02 14:09:39","新北市中和區忠孝街1巷18號","121.508593333333","24.9838066666667","6500300","中和區"
"235026","800-TS","2017/12/02 14:09:23","新北市中和區中山路二段340巷39號","121.492833333333","25.0038216666667","6500300","中和區"
"235021","801-TS","2017/12/02 14:09:32","新北市中和區民利街68巷5弄16號","121.47753","24.998945","6500300","中和區"
"235005","802-TS","2017/12/02 14:09:27","新北市中和區中安街178巷2號","121.510923333333","24.9995083333333","6500300","中和區"
"235016","805-TS","2017/12/02 14:09:25","新北市中和區興南路二段128巷7弄6號","121.503165","24.9839783333333","6500300","中和區"
"235012","896-TW","2017/12/02 14:09:41","新北市中和區華新街109巷11弄2-4號","121.508763333333","24.97984","6500300","中和區"
"235017","900-TW","2017/12/02 14:09:39","新北市中和區華福街71巷32號","121.46771","24.9970066666667","6500300","中和區"
"235028","911-UM","2017/12/02 14:09:41","新北市中和區泰和街38巷7號","121.499073333333","25.0002733333333","6500300","中和區"
"235001","157-BY","2017/12/02 14:09:24","新北市中和區興南路一段25號","121.511178333333","24.9907883333333","6500300","中和區"
"235037","AAC-213","2017/12/02 14:09:33","新北市中和區秀朗路三段58-3號","121.525706666667","24.995135","6500300","中和區"
"235023","AAC-215","2017/12/02 14:09:35","新北市中和區圓通路294巷17-5號","121.488645","24.9904383333333","6500300","中和區"
"220016","013-TV","2017/12/02 14:09:25","新北市板橋區三民路一段1巷49-1號","121.480796666667","25.024915","6500100","板橋區"
"220013","072-UY","2017/12/02 14:09:27","新北市板橋區民族路219巷7號","121.469381666667","25.0080066666667","6500100","板橋區"
"220034","073-UY","2017/12/02 14:09:29","新北市板橋區中正路236巷52號","121.45748","25.0192816666667","6500100","板橋區"
"220105","075-UY","2017/12/02 14:09:40","新北市板橋區雙十路三段9號","121.471466666667","25.0300616666667","6500100","板橋區"
"220017","AAD-861","2017/12/02 14:09:37","新北市板橋區華興街17號","121.458931666667","25.0046033333333","6500100","板橋區"
"220051","120-SR","2017/12/02 14:09:24","新北市板橋區田單街49巷1弄17-3號","121.482608333333","25.0289116666667","6500100","板橋區"
"247021","893-R6","2017/12/02 14:09:34","新北市蘆洲區三民路165號","121.471241666667","25.0871483333333","6501400","蘆洲區"
"247011","546-UM","2017/12/02 14:09:24","新北市蘆洲區信義路331號","121.478218333333","25.08671","6501400","蘆洲區"
"247019","500-BY","2017/12/02 14:09:33","新北市蘆洲區民族路436巷1號","121.472681666667","25.0924633333333","6501400","蘆洲區"
"247007","341-TH","2017/12/02 14:09:28","新北市蘆洲區中山一路285號","121.471966666667","25.079595","6501400","蘆洲區"
"247009","339-TH","2017/12/02 14:09:33","新北市蘆洲區信義路188巷2弄8號","121.47945","25.0840116666667","6501400","蘆洲區"
"247001","337-TH","2017/12/02 14:09:35","新北市蘆洲區永平街59號","121.457593333333","25.0914533333333","6501400","蘆洲區"
"247003","336-TH","2017/12/02 14:09:29","新北市蘆洲區長安街158號","121.459546666667","25.0827966666667","6501400","蘆洲區"
"247023","335-TH","2017/12/02 14:09:27","新北市蘆洲區光榮路118-2號","121.464955","25.0891716666667","6501400","蘆洲區"
"247015","057-VK","2017/12/02 14:09:36","新北市蘆洲區中正路185巷23弄21號","121.46765","25.0841383333333","6501400","蘆洲區"
"247005","056-VK","2017/12/02 14:09:33","新北市蘆洲區永安南路二段16巷17弄21號","121.46721","25.0779683333333","6501400","蘆洲區"
"247013","007-UY","2017/12/02 14:09:27","新北市蘆洲區忠孝路96號","121.471368333333","25.0859116666667","6501400","蘆洲區"
"247017","001-UY","2017/12/02 14:09:27","新北市蘆洲區民族路201巷9號","121.477483333333","25.0888766666667","6501400","蘆洲區"
"228005","097-TW","2017/12/02 14:09:40","新北市貢寮區美豐里雞母嶺街52號","121.890225","25.0676416666667","6502600","貢寮區"
"228004","212-TW","2017/12/02 14:09:27","新北市貢寮區雙玉里德心街11-1號","121.918803333333","25.0156233333333","6502600","貢寮區"
"253003","6232-TK","2017/12/02 14:09:29","新北市石門區尖子鹿31-1號","121.578873333333","25.266955","6502200","石門區"
"253001","6251-TK","2017/12/02 14:09:30","新北市石門區八甲70號","121.531075","25.2701766666667","6502200","石門區"
"253002","637-UY","2017/12/02 14:09:22","新北市石門區老梅路52巷25弄2-1號","121.546823333333","25.2868266666667","6502200","石門區"
"253004","8270-PC","2017/12/02 14:09:24","新北市石門區小坑37-1號","121.597135","25.2669016666667","6502200","石門區"
"208004","AAC-292","2017/12/02 14:08:42","新北市金山區重和里六股林口19-1號","121.60409","25.2179916666667","6502700","金山區"
"207002","749-BX","2017/12/02 14:09:39","新北市萬里區溪底里瑞泉路13號","121.60445","25.1452816666667","6502800","萬里區"
"252005","073-UM","2017/12/02 14:06:51","新北市三芝區橫山里橫山34號","121.539001666667","25.25847","6502100","三芝區"
"207001","662-BX","2017/12/02 14:09:44","新北市萬里區磺潭里清水18號","121.637861666667","25.1975583333333","6502800","萬里區"
"236068","105-UM","2017/12/02 14:09:37","新北市土城區明德路一段132號","121.463626666667","24.9789316666667","6501300","土城區"
"236041","107-UM","2017/12/02 14:09:41","新北市土城區城林路6巷80號","121.43837","24.9798866666667","6501300","土城區"
"236075","166-UM","2017/12/02 13:59:36","新北市土城區永寧路32巷10弄3號","121.428873333333","24.9609766666667","6501300","土城區"
"236029","253-BX","2017/12/02 14:09:34","新北市土城區城林路6巷80號","121.438453333333","24.9797916666667","6501300","土城區"
"236025","269-VK","2017/12/02 14:09:32","新北市土城區中央路三段96-1號","121.435741666667","24.9665333333333","6501300","土城區"
"236013","270-VK","2017/12/02 14:09:40","新北市土城區學府路一段186號","121.45335","24.9860816666667","6501300","土城區"
"236035","271-VK","2017/12/02 14:09:24","新北市土城區明德路一段375-1號","121.454855","24.9781933333333","6501300","土城區"
"236017","401-BY","2017/12/02 14:09:24","新北市土城區城林路6巷80號","121.438626666667","24.9798","6501300","土城區"
"236006","498-BY","2017/12/02 14:09:42","新北市土城區日新街62號","121.442813333333","24.9885966666667","6501300","土城區"
"236057","912-UM","2017/12/02 14:09:31","新北市土城區中央路四段22號","121.420975","24.9609316666667","6501300","土城區"
"236045","913-UM","2017/12/02 14:09:29","新北市土城區明德路一段365-1號","121.453535","24.9790833333333","6501300","土城區"
"236061","915-UM","2017/12/02 14:09:44","新北市土城區城林路6巷80號","121.438385","24.9798116666667","6501300","土城區"
"236054","AAC-216","2017/12/02 14:09:37","新北市土城區中華路二段52號","121.439136666667","24.9775716666667","6501300","土城區"
"221012","276-VK","2017/12/02 13:23:05","新北市汐止區汐萬路一段256巷3號","121.653466666667","25.0746616666667","6501100","汐止區"
"220027","145-BY","2017/12/02 14:09:47","新北市板橋區民權路202巷18弄2號","121.4608","25.0164033333333","6500100","板橋區"
"220030","610-BX","2017/12/02 14:09:35","新北市板橋區溪崑二街32號","121.428383333333","24.99117","6500100","板橋區"
"220050","245-BX","2017/12/02 14:09:32","新北市板橋區萬板路11號","121.470413333333","25.0209633333333","6500100","板橋區"
"220028","256-TC","2017/12/02 14:09:39","新北市板橋區大觀路二段力行3巷77-6號","121.44828","24.99873","6500100","板橋區"
"220040","267-BY","2017/12/02 14:09:36","新北市板橋區萬板路328號","121.478271666667","25.025555","6500100","板橋區"
"220004","276-BY","2017/12/02 14:09:37","新北市板橋區信義路190號","121.459683333333","24.99118","6500100","板橋區"
"220020","277-BY","2017/12/02 14:09:34","新北市板橋區金門街369巷99號","121.428218333333","24.9816066666667","6500100","板橋區"
"220019","283-VK","2017/12/02 14:09:41","新北市板橋區重慶路253-3號","121.46333","25.0002516666667","6500100","板橋區"
"220043","285-UM","2017/12/02 14:09:36","新北市板橋區光武街144號","121.465271666667","25.03016","6500100","板橋區"
"220001","285-VK","2017/12/02 14:09:33","新北市板橋區懷仁街14巷4號","121.475861666667","25.01975","6500100","板橋區"
"220031","286-VK","2017/12/02 14:09:38","新北市板橋區大觀路二段174巷165弄2-1號","121.44145","25.00349","6500100","板橋區"
"220029","287-VK","2017/12/02 14:09:32","新北市板橋區南雅西路二段156巷7號","121.452201666667","25.0133733333333","6500100","板橋區"
"220039","288-VK","2017/12/02 14:09:42","新北市板橋區裕民街54號","121.461436666667","25.0287183333333","6500100","板橋區"
"220009","293-UM","2017/12/02 14:09:33","新北市板橋區三民路二段21巷14號","121.480265","25.018005","6500100","板橋區"
"220010","295-UM","2017/12/02 14:09:36","新北市板橋區三民路二段居仁巷2號","121.479373333333","25.0130616666667","6500100","板橋區"
"220032","296-UM","2017/12/02 14:09:43","新北市板橋區篤行路一段16號","121.431283333333","24.9954233333333","6500100","板橋區"
"220023","297-UM","2017/12/02 14:09:39","新北市板橋區大智街25巷16號","121.454623333333","25.014865","6500100","板橋區"
"220041","299-UM","2017/12/02 14:09:31","新北市板橋區文化路二段225巷60弄9號","121.469168333333","25.0287333333333","6500100","板橋區"
"220047","317-R6","2017/12/02 14:09:35","新北市板橋區自由路51巷9-3號","121.465035","25.0234183333333","6500100","板橋區"
"220012","486-VK","2017/12/02 14:09:32","新北市板橋區中山路二段19號","121.472213333333","25.0152166666667","6500100","板橋區"
"220038","487-VK","2017/12/02 14:09:36","新北市板橋區文化路二段445號","121.475296666667","25.0333816666667","6500100","板橋區"
"220037","491-VK","2017/12/02 14:09:40","新北市板橋區文化路二段182巷3弄31號","121.472271666667","25.0284666666667","6500100","板橋區"
"220104","560-BX","2017/12/02 14:08:07","新北市板橋區中正路332-11號","121.454285","25.0232083333333","6500100","板橋區"
"220052","561-BX","2017/12/02 14:09:41","新北市板橋區文化路一段188巷9弄39號","121.469288333333","25.0190866666667","6500100","板橋區"
"220011","609-BX","2017/12/02 14:09:27","新北市板橋區三民路二段171號","121.479345","25.01446","6500100","板橋區"
"220005","686-BX","2017/12/02 14:09:37","新北市板橋區重慶路258號","121.462926666667","25.0007766666667","6500100","板橋區"
"220025","687-BX","2017/12/02 14:09:41","新北市板橋區大觀路二段146-1號","121.442083333333","24.9989683333333","6500100","板橋區"
"220042","689-BX","2017/12/02 14:09:30","新北市板橋區民生路三段247號","121.464555","25.0289366666667","6500100","板橋區"
"220002","741-BX","2017/12/02 14:09:30","新北市板橋區重慶路67號","121.461803333333","25.006965","6500100","板橋區"
"220003","827-TW","2017/12/02 14:09:30","新北市板橋區新民街7巷27號","121.463631666667","25.0104733333333","6500100","板橋區"
"220014","829-TW","2017/12/02 14:09:36","新北市板橋區中山路二段90巷41號","121.476343333333","25.0147516666667","6500100","板橋區"
"220045","831-TW","2017/12/02 14:09:43","新北市板橋區大同街4號","121.476916666667","25.026805","6500100","板橋區"
"220022","895-R6","2017/12/02 14:09:33","新北市板橋區林園街62號","121.453565","25.0108216666667","6500100","板橋區"
"220021","985-R7","2017/12/02 14:09:28","新北市板橋區民權路255號","121.4572","25.0159183333333","6500100","板橋區"
"220046","AAC-210","2017/12/02 14:09:32","新北市板橋區新海路135巷2號","121.459916666667","25.022955","6500100","板橋區"
"220018","AAC-253","2017/12/02 14:09:36","新北市板橋區四川路一段333號","121.458571666667","25.0002433333333","6500100","板橋區"
