"lineid","car","time","location","longitude","latitude","cityid","cityname"
"234005","207-UY","2017/12/02 14:29:43","新北市永和區安樂路208-1號","121.515093333333","25.0019416666667","6500400","永和區"
"234078","298-R6","2017/12/02 14:29:43","新北市永和區永貞路76號","121.52018","25.0051933333333","6500400","永和區"
"234036","336-UY","2017/12/02 14:29:39","新北市永和區環河東路四段38號","121.528671666667","24.9989733333333","6500400","永和區"
"234062","337-UY","2017/12/02 14:29:41","新北市永和區中正路435號","121.517121666667","25.0051216666667","6500400","永和區"
"234084","338-UY","2017/12/02 14:29:48","新北市永和區光復街21號","121.516466666667","25.0174466666667","6500400","永和區"
"234068","552-UM","2017/12/02 14:29:52","新北市永和區永亨路9號","121.51941","25.0057933333333","6500400","永和區"
"234052","553-UM","2017/12/02 14:29:47","新北市永和區博愛街45巷25弄1號","121.51902","25.016935","6500400","永和區"
"234015","745-BX","2017/12/02 14:29:44","新北市永和區仁愛路255號","121.50841","25.011595","6500400","永和區"
"234028","746-BX","2017/12/02 14:29:49","新北市永和區民有街25巷4號","121.517176666667","24.9962566666667","6500400","永和區"
"234060","AAD-866","2017/12/02 14:29:48","新北市永和區秀朗路一段120號","121.517003333333","25.0036516666667","6500400","永和區"
"234040","862-TW","2017/12/02 14:29:35","新北市永和區自由街20號","121.514451666667","25.0064983333333","6500400","永和區"
"234048","863-TW","2017/12/02 14:29:42","新北市永和區保福路三段2-1號","121.508606666667","25.0155116666667","6500400","永和區"
"234025","9371-KE","2017/12/02 14:29:51","新北市中和區安平路222號","121.513913333333","25.0002033333333","6500400","永和區"
"248017","225-UY","2017/12/02 14:14:35","新北市五股區壟路15號","121.416091666667","25.0842016666667","6501500","五股區"
"234076","969-R7","2017/12/02 14:29:46","新北市永和區民族街81巷58號","121.520031666667","24.996515","6500400","永和區"
"234072","AAC-211","2017/12/02 14:29:50","新北市永和區環河東路一段124號","121.520676666667","25.01541","6500400","永和區"
"234001","AAC-295","2017/12/02 14:29:45","新北市永和區大新街54號","121.516133333333","25.00826","6500400","永和區"
"231002","001-UM","2017/12/02 14:29:36","新北市新店區中央路71號","121.532465","24.9767583333333","6500600","新店區"
"231025","0293-UT","2017/12/02 14:29:43","新北市新店區民族路161號","121.537731666667","24.9768283333333","6500600","新店區"
"231028","046-UY","2017/12/02 14:29:45","新北市新店區安康路二段149號","121.511151666667","24.9598516666667","6500600","新店區"
"231030","047-UY","2017/12/02 14:29:34","新北市新店區安民街65巷17號","121.51601","24.9669433333333","6500600","新店區"
"231029","106-UY","2017/12/02 14:29:35","新北市新店區安康路二段383號","121.49487","24.9546083333333","6500600","新店區"
"231018","107-UY","2017/12/02 14:29:48","新北市新店區中央三街56號","121.527181666667","24.9747716666667","6500600","新店區"
"231012","108-UY","2017/12/02 14:29:45","新北市新店區中興路二段200-1號","121.548468333333","24.974295","6500600","新店區"
"231020","187-VK","2017/12/02 14:29:51","新北市新店區新烏路三段45號","121.55508","24.9050983333333","6500600","新店區"
"231017","KEA-2219","2017/12/02 14:29:32","新北市新店區北宜路三段86號","121.577736666667","24.95146","6500600","新店區"
"231034","268-BY","2017/12/02 14:29:50","新北市新店區黎明路55巷1號","121.502368333333","24.9484233333333","6500600","新店區"
"231023","AAD-862","2017/12/02 14:29:40","新北市新店區光明街135號","121.539395","24.9620083333333","6500600","新店區"
"231027","3712-VJ","2017/12/02 14:29:37","新北市新店區寶橋路75號","121.54566","24.975215","6500600","新店區"
"231038","4715-K9","2017/12/02 14:29:50","新北市新店區溪洲路8巷101號","121.532798333333","24.9633483333333","6500600","新店區"
"231013","513-UM","2017/12/02 14:29:42","新北市新店區民權路90巷22號","121.536258333333","24.9836","6500600","新店區"
"231035","515-UM","2017/12/02 14:29:44","新北市新店區安光路10-1號","121.513775","24.9642116666667","6500600","新店區"
"231003","616-UM","2017/12/02 14:29:33","新北市新店區中興路一段271號","121.545108333333","24.9680916666667","6500600","新店區"
"231006","617-UM","2017/12/02 14:29:37","新北市新店區北宜路二段288號","121.561213333333","24.954145","6500600","新店區"
"231001","619-UM","2017/12/02 14:29:49","新北市新店區北新路一段96巷23號","121.543018333333","24.9688016666667","6500600","新店區"
"231036","719-UY","2017/12/02 14:29:41","新北市新店區安祥路109巷8號","121.475446666667","24.9588433333333","6500600","新店區"
"231005","897-TW","2017/12/02 14:29:50","新北市新店區北新路三段137號","121.541285","24.982945","6500600","新店區"
"231004","899-TW","2017/12/02 14:29:39","新北市新店區中正路263號","121.538595","24.973595","6500600","新店區"
"231037","AKT-0513","2017/12/02 14:29:49","新北市新店區柴埕路47號","121.514195","24.9651233333333","6500600","新店區"
"235030","003-UY","2017/12/02 14:29:41","新北市中和區景新街47號","121.504301666667","24.9990266666667","6500300","中和區"
"235027","006-UY","2017/12/02 14:29:43","新北市中和區連勝街149號","121.494498333333","24.99625","6500300","中和區"
"235020","096-UM","2017/12/02 14:29:41","新北市中和區員山路514巷16號","121.479588333333","25.0096033333333","6500300","中和區"
"235003","097-UM","2017/12/02 14:29:45","新北市中和區秀峰街129號","121.517383333333","24.98937","6500300","中和區"
"235029","098-UM","2017/12/02 14:29:48","新北市中和區中山路二段187號","121.500373333333","25.0027916666667","6500300","中和區"
"235004","150-BY","2017/12/02 14:29:39","新北市中和區安樂路51巷22號","121.511535","24.9939966666667","6500300","中和區"
"235022","151-BY","2017/12/02 14:29:45","新北市中和區連城路469巷37號","121.483531666667","24.9945466666667","6500300","中和區"
"235019","183-VK","2017/12/02 14:29:39","新北市中和區德光路27巷11號","121.471028333333","25.003565","6500300","中和區"
"235002","185-VK","2017/12/02 14:29:43","新北市中和區自立路99巷1號","121.522015","24.994955","6500300","中和區"
"235013","186-VK","2017/12/02 14:29:35","新北市中和區景新街285巷18號","121.510525","24.9936283333333","6500300","中和區"
"235031","255-BX","2017/12/02 14:29:36","新北市中和區連城路318號","121.483433333333","24.9960483333333","6500300","中和區"
"235008","293-VK","2017/12/02 14:29:42","新北市中和區南山路160號","121.504426666667","24.9918166666667","6500300","中和區"
"235036","301-VK","2017/12/02 14:29:39","新北市中和區光華街31巷22弄28號","121.505931666667","25.0044066666667","6500300","中和區"
"235007","352-BY","2017/12/02 14:29:37","新北市中和區景平路322號","121.512201666667","24.9927","6500300","中和區"
"235032","377-QA","2017/12/02 14:29:46","新北市中和區枋寮街10號","121.502396666667","25.00003","6500300","中和區"
"235025","378-QA","2017/12/02 14:29:47","新北市中和區民安街1號","121.480826666667","25.000895","6500300","中和區"
"235035","269-TV","2017/12/02 14:29:47","新北市中和區連城路469巷38號","121.483453333333","24.9947316666667","6500300","中和區"
"235014","4979-A6","2017/12/02 14:29:35","新北市中和區中正路571巷2弄11號","121.48618","24.99379","6500300","中和區"
"235006","551-UM","2017/12/02 14:29:32","新北市中和區中和路378巷14弄2-8號","121.511245","25.0017283333333","6500300","中和區"
"235034","558-UM","2017/12/02 14:29:43","新北市中和區中山路二段228-1號","121.498788333333","25.002735","6500300","中和區"
"235009","565-BX","2017/12/02 14:29:50","新北市中和區景新街423巷35弄2號","121.514076666667","24.989935","6500300","中和區"
"235018","640-BX","2017/12/02 14:29:36","新北市中和區國光街112巷16弄2號","121.469805","25.001345","6500300","中和區"
"235024","647-TV","2017/12/02 14:29:51","新北市中和區新生街114巷12號","121.48289","25.0023533333333","6500300","中和區"
"235011","732-UM","2017/12/02 14:29:35","新北市中和區景平路259巷16號","121.507846666667","24.9926183333333","6500300","中和區"
"235010","733-UM","2017/12/02 14:29:39","新北市中和區忠孝街37巷52號","121.511136666667","24.9849683333333","6500300","中和區"
"235026","800-TS","2017/12/02 14:29:43","新北市中和區中山路二段532號","121.485636666667","25.0049366666667","6500300","中和區"
"235021","801-TS","2017/12/02 14:29:52","新北市中和區中山路三段37巷25號","121.479435","25.0049783333333","6500300","中和區"
"235005","802-TS","2017/12/02 14:29:47","新北市中和區景安路33號","121.507521666667","24.9985733333333","6500300","中和區"
"235016","805-TS","2017/12/02 14:29:45","新北市中和區華新街143巷65弄2號","121.506638333333","24.9789916666667","6500300","中和區"
"235012","896-TW","2017/12/02 14:29:41","新北市中和區忠孝街39-2號","121.51167","24.98386","6500300","中和區"
"235017","900-TW","2017/12/02 14:29:39","新北市中和區民德路197-1號","121.468488333333","24.9988933333333","6500300","中和區"
"235028","911-UM","2017/12/02 14:29:38","新北市中和區南山路81巷19號","121.502651666667","24.9981","6500300","中和區"
"235001","157-BY","2017/12/02 14:29:44","新北市中和區南山路148號","121.504203333333","24.9922366666667","6500300","中和區"
"235037","AAC-213","2017/12/02 14:29:53","新北市中和區秀朗路三段10巷14弄36號","121.524601666667","24.99653","6500300","中和區"
"235023","AAC-215","2017/12/02 14:29:53","新北市中和區圓通路315-5號","121.493011666667","24.990825","6500300","中和區"
"220016","013-TV","2017/12/02 14:29:45","新北市板橋區中山路二段531巷50號","121.482426666667","25.0228883333333","6500100","板橋區"
"220013","072-UY","2017/12/02 14:29:46","新北市板橋區國泰街75巷28弄4號","121.467618333333","25.0054116666667","6500100","板橋區"
"220034","073-UY","2017/12/02 14:29:49","新北市板橋區中正路250巷25號","121.456673333333","25.0194833333333","6500100","板橋區"
"220105","075-UY","2017/12/02 14:29:38","新北市板橋區江寧路三段117號","121.473205","25.0330616666667","6500100","板橋區"
"220017","AAD-861","2017/12/02 14:29:48","新北市板橋區大明街20巷29弄8號","121.457863333333","25.0035733333333","6500100","板橋區"
"220051","120-SR","2017/12/02 14:29:49","新北市板橋區松柏街20號","121.47458","25.0298166666667","6500100","板橋區"
"247021","893-R6","2017/12/02 14:29:33","新北市蘆洲區中正路507號","121.46124","25.09733","6501400","蘆洲區"
"247011","546-UM","2017/12/02 14:29:44","新北市蘆洲區復興路269號","121.481075","25.0901666666667","6501400","蘆洲區"
"247019","500-BY","2017/12/02 14:29:51","新北市蘆洲區水湳街115-2號","121.46953","25.0916133333333","6501400","蘆洲區"
"247007","341-TH","2017/12/02 14:29:48","新北市蘆洲區信義路83號","121.476865","25.0796783333333","6501400","蘆洲區"
"247009","339-TH","2017/12/02 14:29:33","新北市蘆洲區信義路136號","121.479576666667","25.0829383333333","6501400","蘆洲區"
"247001","337-TH","2017/12/02 14:29:34","新北市蘆洲區永樂街38巷33弄25號","121.45704","25.089675","6501400","蘆洲區"
"247003","336-TH","2017/12/02 14:29:50","新北市蘆洲區永康街1巷13號","121.459625","25.0856783333333","6501400","蘆洲區"
"247023","335-TH","2017/12/02 14:29:47","新北市蘆洲區中正路263巷2號","121.467188333333","25.087555","6501400","蘆洲區"
"247015","057-VK","2017/12/02 14:29:36","新北市蘆洲區中正路185巷68弄5號","121.466445","25.084665","6501400","蘆洲區"
"247005","056-VK","2017/12/02 14:29:53","新北市蘆洲區長安街46巷10號","121.463788333333","25.080095","6501400","蘆洲區"
"247013","007-UY","2017/12/02 14:29:47","新北市蘆洲區中正路81號","121.47019","25.0835083333333","6501400","蘆洲區"
"247017","001-UY","2017/12/02 14:29:46","新北市蘆洲區民族路304號","121.477566666667","25.089945","6501400","蘆洲區"
"228005","097-TW","2017/12/02 14:29:40","新北市貢寮區美豐里巫里岸9-1號","121.901966666667","25.0701183333333","6502600","貢寮區"
"228004","212-TW","2017/12/02 14:29:47","新北市貢寮區雙玉里田寮洋街33號","121.932711666667","25.0134766666667","6502600","貢寮區"
"253003","6232-TK","2017/12/02 14:29:49","新北市石門區尖子鹿51-1號","121.577853333333","25.2746166666667","6502200","石門區"
"253001","6251-TK","2017/12/02 14:29:50","新北市石門區崁子腳87號","121.535401666667","25.2716833333333","6502200","石門區"
"253002","637-UY","2017/12/02 14:29:43","新北市石門區楓林59號","121.543403333333","25.271995","6502200","石門區"
"253004","8270-PC","2017/12/02 14:29:44","新北市石門區內阿里磅37-1號","121.583733333333","25.2368766666667","6502200","石門區"
"208004","AAC-292","2017/12/02 14:29:42","新北市金山區重和里磺溪頭81號","121.597123333333","25.2171233333333","6502700","金山區"
"207002","749-BX","2017/12/02 14:28:19","新北市萬里區溪底里富士坪路6號","121.62304","25.1558466666667","6502800","萬里區"
"252005","073-UM","2017/12/02 14:29:51","新北市三芝區茂長里陳厝坑17-5號","121.51965","25.2564133333333","6502100","三芝區"
"207001","662-BX","2017/12/02 14:29:44","新北市萬里區磺潭里清水12號","121.639961666667","25.199595","6502800","萬里區"
"236068","105-UM","2017/12/02 14:29:39","新北市土城區永豐路205-5號","121.474476666667","24.9777966666667","6501300","土城區"
"236041","107-UM","2017/12/02 14:29:41","新北市土城區裕民路67巷14號","121.44984","24.988015","6501300","土城區"
"236075","166-UM","2017/12/02 14:29:36","新北市土城區大暖路36號","121.423335","24.9595866666667","6501300","土城區"
"236029","253-BX","2017/12/02 14:29:54","新北市土城區水源街19號","121.441108333333","24.9752783333333","6501300","土城區"
"236025","269-VK","2017/12/02 14:29:32","新北市土城區承天路69-1號","121.440035","24.963285","6501300","土城區"
"236013","270-VK","2017/12/02 14:29:40","新北市土城區青雲路39巷5號","121.46023","24.98755","6501300","土城區"
"236035","271-VK","2017/12/02 14:29:44","新北市土城區青雲路451巷2弄2號","121.459006666667","24.9745916666667","6501300","土城區"
"236017","401-BY","2017/12/02 14:29:44","新北市土城區明德路一段69巷5號","121.46553","24.9837866666667","6501300","土城區"
"236057","912-UM","2017/12/02 14:29:51","新北市土城區中央路四段462號","121.410231666667","24.9507666666667","6501300","土城區"
"236045","913-UM","2017/12/02 14:29:49","新北市土城區明德路一段309號","121.4596","24.9771616666667","6501300","土城區"
"236061","915-UM","2017/12/02 14:29:49","新北市中和區莒光路213號","121.46904","24.9946783333333","6501300","土城區"
"236054","AAC-216","2017/12/02 14:29:37","新北市土城區中華路二段1號","121.4397","24.9791833333333","6501300","土城區"
"238025","303-VK","2017/12/02 14:13:13","新北市樹林區育德街78號","121.387595","24.9685116666667","6500700","樹林區"
"221012","276-VK","2017/12/02 13:23:05","新北市汐止區汐萬路一段256巷3號","121.653466666667","25.0746616666667","6501100","汐止區"
"220027","145-BY","2017/12/02 14:29:56","新北市板橋區民權路202巷26號","121.46064","25.01722","6500100","板橋區"
"220030","610-BX","2017/12/02 14:29:55","新北市板橋區金門街299號","121.430046666667","24.9865566666667","6500100","板橋區"
"220050","245-BX","2017/12/02 14:29:52","新北市板橋區縣民大道三段135號","121.477848333333","25.02337","6500100","板橋區"
"220028","256-TC","2017/12/02 14:29:39","新北市板橋區大觀路二段3巷75號","121.449755","25.003425","6500100","板橋區"
"220040","267-BY","2017/12/02 14:29:36","新北市板橋區文聖街83號","121.477486666667","25.03004","6500100","板橋區"
"220004","276-BY","2017/12/02 14:29:37","新北市板橋區信義路1巷26弄2號","121.458036666667","24.997025","6500100","板橋區"
"220020","277-BY","2017/12/02 14:29:34","新北市板橋區金門街283號","121.431358333333","24.98792","6500100","板橋區"
"220019","283-VK","2017/12/02 14:29:41","新北市板橋區四川路一段324號","121.458281666667","24.9999533333333","6500100","板橋區"
"220043","285-UM","2017/12/02 14:29:36","新北市中和區民德路50巷48號","121.47073","25.0305116666667","6500100","板橋區"
"220001","285-VK","2017/12/02 14:29:53","新北市板橋區富山街65號","121.477068333333","25.0218866666667","6500100","板橋區"
"220031","286-VK","2017/12/02 14:29:38","新北市板橋區龍興街65巷1號","121.443436666667","25.0013966666667","6500100","板橋區"
"220029","287-VK","2017/12/02 14:29:53","新北市板橋區大觀路一段75巷18號","121.447963333333","25.0043383333333","6500100","板橋區"
"220039","288-VK","2017/12/02 14:29:42","新北市板橋區裕民街60號","121.461221666667","25.0286083333333","6500100","板橋區"
"220009","293-UM","2017/12/02 14:29:45","新北市板橋區中山路一段265巷36弄1號","121.46909","25.015215","6500100","板橋區"
"220010","295-UM","2017/12/02 14:29:46","新北市板橋區三民路二段123巷29號","121.480488333333","25.0156683333333","6500100","板橋區"
"220032","296-UM","2017/12/02 14:29:43","新北市板橋區滿平街136巷1弄1號","121.428676666667","24.9880466666667","6500100","板橋區"
"220023","297-UM","2017/12/02 14:29:39","新北市板橋區南雅西路一段116號","121.452686666667","25.0064566666667","6500100","板橋區"
"220041","299-UM","2017/12/02 14:29:51","新北市板橋區光武街2巷28號","121.468695","25.02549","6500100","板橋區"
"220047","317-R6","2017/12/02 14:29:35","新北市板橋區民生路三段281巷2弄10號","121.463503333333","25.0303216666667","6500100","板橋區"
"220012","486-VK","2017/12/02 14:29:52","新北市板橋區中山路一段50-3號","121.461023333333","25.0092583333333","6500100","板橋區"
"220038","487-VK","2017/12/02 14:29:36","新北市板橋區文化路一段61號","121.460806666667","25.0136933333333","6500100","板橋區"
"220037","491-VK","2017/12/02 14:29:41","新北市板橋區雙十路二段223號","121.473143333333","25.0292966666667","6500100","板橋區"
"220104","560-BX","2017/12/02 14:29:47","新北市板橋區新生街98巷24號","121.459136666667","25.0214033333333","6500100","板橋區"
"220052","561-BX","2017/12/02 14:29:41","新北市板橋區文化路一段268號","121.467376666667","25.0206533333333","6500100","板橋區"
"220011","609-BX","2017/12/02 14:29:47","新北市板橋區三民路二段237號","121.47901","25.0127483333333","6500100","板橋區"
"220005","686-BX","2017/12/02 14:29:48","新北市中和區和平路250號","121.464665","24.9971516666667","6500100","板橋區"
"220025","687-BX","2017/12/02 14:29:43","新北市板橋區僑中二街102巷2號","121.446148333333","25.00839","6500100","板橋區"
"220042","689-BX","2017/12/02 14:29:50","新北市板橋區雨農路50號","121.461021666667","25.0244133333333","6500100","板橋區"
"220002","741-BX","2017/12/02 14:29:50","新北市中和區德光路102號","121.468468333333","25.0034166666667","6500100","板橋區"
"220003","827-TW","2017/12/02 14:29:54","新北市板橋區重慶路290巷20號","121.462303333333","24.9989316666667","6500100","板橋區"
"220014","829-TW","2017/12/02 14:29:36","新北市板橋區長安街138巷25號","121.473166666667","25.008945","6500100","板橋區"
"220045","831-TW","2017/12/02 14:29:43","新北市板橋區萬板路36號","121.471863333333","25.02258","6500100","板橋區"
"220022","895-R6","2017/12/02 14:29:44","新北市板橋區府中路99號","121.456881666667","25.0095316666667","6500100","板橋區"
"220021","985-R7","2017/12/02 14:29:48","新北市板橋區瑞安街57號","121.455421666667","25.0220333333333","6500100","板橋區"
"220046","AAC-210","2017/12/02 14:24:45","新北市板橋區新海路150號","121.460428333333","25.0237283333333","6500100","板橋區"
"220018","AAC-253","2017/12/02 14:29:51","新北市板橋區四川路一段38號","121.459526666667","25.0060716666667","6500100","板橋區"
