"lineid","car","time","location","longitude","latitude","cityid","cityname"
"248020","225-UY","2017/12/02 15:27:38","新北市五股區中興路二段83巷26-3號","121.460103333333","25.0753216666667","6501500","五股區"
"231028","046-UY","2017/12/02 15:39:45","新北市新店區薏仁坑路22號","121.498821666667","24.9592","6500600","新店區"
"231030","047-UY","2017/12/02 15:39:34","新北市新店區新和街93巷12號","121.520731666667","24.98672","6500600","新店區"
"231029","106-UY","2017/12/02 15:39:51","新北市新店區安康路三段42號","121.492961666667","24.9529783333333","6500600","新店區"
"231018","107-UY","2017/12/02 15:39:48","新北市新店區溪園路39號","121.530158333333","24.9880833333333","6500600","新店區"
"231012","108-UY","2017/12/02 15:39:45","新北市新店區文化路92號","121.544943333333","24.9825733333333","6500600","新店區"
"231020","187-VK","2017/12/02 15:39:51","新北市新店區金興路1號","121.548253333333","24.929705","6500600","新店區"
"231017","KEA-2219","2017/12/02 15:39:43","新北市新店區北宜路二段151-1號","121.551881666667","24.95322","6500600","新店區"
"231026","256-BX","2017/12/02 15:39:46","新北市新店區三民路75巷4弄2號","121.535501666667","24.9709366666667","6500600","新店區"
"231034","268-BY","2017/12/02 15:39:35","新北市新店區玫瑰路58巷14號","121.494785","24.9467166666667","6500600","新店區"
"231046","278-BY","2017/12/02 15:39:39","新北市新店區安華路28-1號","121.519581666667","24.9611466666667","6500600","新店區"
"231023","AAD-862","2017/12/02 15:39:40","新北市新店區五峰路51號","121.544875","24.968735","6500600","新店區"
"231038","4715-K9","2017/12/02 15:39:50","新北市新店區安康路一段258號","121.52056","24.964235","6500600","新店區"
"231013","513-UM","2017/12/02 15:39:38","新北市新店區永業路81巷22號","121.530713333333","24.9483016666667","6500600","新店區"
"231035","515-UM","2017/12/02 15:39:44","新北市新店區安民街365巷14號","121.515888333333","24.9756083333333","6500600","新店區"
"231003","616-UM","2017/12/02 15:39:33","新北市新店區中興路二段196號","121.548353333333","24.9739783333333","6500600","新店區"
"231039","718-UY","2017/12/02 15:39:36","新北市新店區寶元路二段29號","121.54659","24.9818533333333","6500600","新店區"
"231036","719-UY","2017/12/02 15:39:41","新北市新店區安康路二段373號","121.495216666667","24.95469","6500600","新店區"
"231033","720-UM","2017/12/02 15:39:46","新北市新店區雙城路145號","121.495755","24.9438566666667","6500600","新店區"
"231005","897-TW","2017/12/02 15:39:50","新北市新店區建國路13號","121.53991","24.973545","6500600","新店區"
"231037","AKT-0513","2017/12/02 15:39:49","新北市新店區安興路105-1號","121.514663333333","24.97772","6500600","新店區"
"241015","062-VK","2017/12/02 15:39:47","新北市三重區重新路四段121號","121.485173333333","25.0520916666667","6500200","三重區"
"241017","063-VK","2017/12/02 15:39:36","新北市三重區大仁街1號","121.491661666667","25.0636266666667","6500200","三重區"
"241016","266-UM","2017/12/02 15:39:30","新北市三重區重新路四段121號","121.485105","25.05194","6500200","三重區"
"241018","268-UM","2017/12/02 15:39:38","新北市三重區成功路97號","121.48802","25.0514466666667","6500200","三重區"
"241013","270-UM","2017/12/02 15:39:44","新北市三重區忠孝路一段3號","121.492318333333","25.0718533333333","6500200","三重區"
"241014","543-UM","2017/12/02 15:39:42","新北市三重區重新路四段121號","121.485118333333","25.052125","6500200","三重區"
"241023","545-UM","2017/12/02 15:39:32","新北市三重區重新路四段121號","121.48478","25.05253","6500200","三重區"
"241033","AAC-255","2017/12/02 15:39:47","新北市三重區重新路五段283號","121.479336666667","25.04904","6500200","三重區"
"235033","4980-A6","2017/12/02 15:39:35","新北市中和區中正路637巷23-1號","121.484956666667","24.9947116666667","6500300","中和區"
"235064","911-UM","2017/12/02 15:34:49","新北市中和區員山路36巷16-3號","121.48506","24.9914666666667","6500300","中和區"
"235023","AAC-215","2017/12/02 15:39:35","新北市中和區員山路28-27號","121.48097","24.9867416666667","6500300","中和區"
"227002","642-TC","2017/12/02 15:39:36","新北市雙溪區牡丹里中正路54號","121.865481666667","25.0403266666667","6502500","雙溪區"
"236068","105-UM","2017/12/02 15:39:37","新北市土城區中央路二段346巷23號","121.439306666667","24.97234","6501300","土城區"
"236041","107-UM","2017/12/02 15:39:41","新北市土城區學享街9號","121.45079","24.9873033333333","6501300","土城區"
"236075","166-UM","2017/12/02 15:39:36","新北市土城區中央路四段440號","121.410643333333","24.95137","6501300","土城區"
"236029","253-BX","2017/12/02 15:39:34","新北市土城區中央路一段45巷2弄16號","121.44824","24.989915","6501300","土城區"
"236025","269-VK","2017/12/02 15:39:50","新北市土城區裕生路81號","121.447005","24.98426","6501300","土城區"
"236013","270-VK","2017/12/02 15:39:40","新北市土城區廣明街90巷21號","121.455368333333","24.99456","6501300","土城區"
"236017","401-BY","2017/12/02 15:39:44","新北市土城區延吉街74號","121.471071666667","24.9866683333333","6501300","土城區"
"236057","912-UM","2017/12/02 15:39:50","新北市土城區中央路一段112號","121.44662","24.9881483333333","6501300","土城區"
"236045","913-UM","2017/12/02 15:39:49","新北市土城區金城路三段257號","121.471833333333","24.9900333333333","6501300","土城區"
"236061","915-UM","2017/12/02 15:39:44","新北市土城區延和路12巷13號","121.464446666667","24.9873816666667","6501300","土城區"
"236054","AAC-216","2017/12/02 15:39:47","新北市土城區學府路一段148號","121.454778333333","24.987025","6501300","土城區"
"238025","303-VK","2017/12/02 15:39:39","新北市樹林區育德街78-1號","121.387568333333","24.96823","6500700","樹林區"
"221010","269-BY","2017/12/02 15:10:23","新北市汐止區汐萬路一段256巷1號","121.651986666667","25.0747233333333","6501100","汐止區"
"221012","276-VK","2017/12/02 13:23:05","新北市汐止區汐萬路一段256巷3號","121.653466666667","25.0746616666667","6501100","汐止區"
"220027","145-BY","2017/12/02 15:39:35","新北市八里區下罟子30-35號","121.367343333333","25.1352033333333","6500100","板橋區"
"220050","245-BX","2017/12/02 15:39:32","新北市板橋區三民路一段147號","121.479245","25.0197833333333","6500100","板橋區"
"220029","287-VK","2017/12/02 15:39:52","新北市八里區中山路三段386號","121.36849","25.1359866666667","6500100","板橋區"
