"lineid","car","time","location","longitude","latitude","cityid","cityname"
"249005","172-UM","2017/12/02 17:05:41","新北市八里區大堀湖20-2號","121.423311666667","25.1498533333333","6502300","八里區"
"249001","173-UM","2017/12/02 17:05:39","新北市八里區中山路二段457號","121.396556666667","25.1452233333333","6502300","八里區"
"249004","303-UY","2017/12/02 17:05:23","新北市八里區忠孝路462號","121.414903333333","25.161275","6502300","八里區"
"249002","305-UY","2017/12/02 17:05:40","新北市八里區米倉14號","121.440091666667","25.1494483333333","6502300","八里區"
"249003","759-BX","2017/12/02 17:05:28","新北市八里區中山路二段412號","121.400166666667","25.14762","6502300","八里區"
"248020","225-UY","2017/12/02 15:27:38","新北市五股區中興路二段83巷26-3號","121.460103333333","25.0753216666667","6501500","五股區"
"244007","080-UY","2017/12/02 17:05:30","新北市林口區中湖里15鄰60號","121.376205","25.0934516666667","6501700","林口區"
"244019","403-UM","2017/12/02 17:05:27","新北市林口區竹林路1-10號","121.38645","25.0769483333333","6501700","林口區"
"244009","410-SL","2017/12/02 17:05:21","新北市林口區粉寮69號","121.404968333333","25.0908416666667","6501700","林口區"
"244023","483-VK","2017/12/02 17:05:41","新北市林口區粉寮路二段167-1號","121.404481666667","25.0886133333333","6501700","林口區"
"244021","838-TS","2017/12/02 17:05:28","新北市林口區粉寮路二段30號","121.403148333333","25.0865116666667","6501700","林口區"
"231046","278-BY","2017/12/02 17:05:39","新北市新店區直潭一街88號","121.535093333333","24.9394333333333","6500600","新店區"
"241008","059-VK","2017/12/02 17:05:46","新北市三重區下竹圍街26號","121.480738333333","25.0754183333333","6500200","三重區"
"241009","060-VK","2017/12/02 17:05:30","新北市三重區三和路四段215巷33-9號","121.483185","25.0801183333333","6500200","三重區"
"241031","061-VK","2017/12/02 17:05:24","新北市三重區重陽路一段113巷1弄40號","121.488101666667","25.0587516666667","6500200","三重區"
"241015","062-VK","2017/12/02 17:05:26","新北市三重區長安街20號","121.49902","25.0669083333333","6500200","三重區"
"241017","063-VK","2017/12/02 17:05:36","新北市三重區大仁街5號","121.491628333333","25.0637766666667","6500200","三重區"
"241024","065-VK","2017/12/02 17:05:35","新北市三重區大勇街82巷26弄41號","121.478248333333","25.0719916666667","6500200","三重區"
"241026","066-VK","2017/12/02 17:05:41","新北市三重區正義南路2-1號","121.498006666667","25.0618433333333","6500200","三重區"
"241002","090-VK","2017/12/02 17:05:32","新北市三重區仁義街227號","121.496701666667","25.0822966666667","6500200","三重區"
"241003","091-VK","2017/12/02 17:05:27","新北市三重區集賢路87-1號","121.49364","25.0868516666667","6500200","三重區"
"241028","156-TC","2017/12/02 17:05:42","新北市三重區中正南路40號","121.49387","25.0601383333333","6500200","三重區"
"241005","262-UM","2017/12/02 17:05:32","新北市三重區碧華街26號","121.482426666667","25.0806266666667","6500200","三重區"
"241011","265-UM","2017/12/02 17:05:26","新北市三重區仁愛街55巷126號","121.498896666667","25.0728566666667","6500200","三重區"
"241016","266-UM","2017/12/02 17:05:30","新北市三重區大同北路129-1號","121.493406666667","25.0640316666667","6500200","三重區"
"241022","267-UM","2017/12/02 17:05:28","新北市三重區重陽路二段24巷10號","121.486118333333","25.06267","6500200","三重區"
"241018","268-UM","2017/12/02 17:05:38","新北市三重區大智街109號","121.491626666667","25.0694216666667","6500200","三重區"
"241032","269-UM","2017/12/02 17:05:38","新北市三重區新北大道一段19號","121.486488333333","25.0614133333333","6500200","三重區"
"241013","270-UM","2017/12/02 17:05:24","新北市三重區仁孝街60號","121.497131666667","25.07439","6500200","三重區"
"241025","271-UM","2017/12/02 17:05:27","新北市三重區中正北路558號","121.47087","25.0717066666667","6500200","三重區"
"241007","398-BY","2017/12/02 17:05:42","新北市三重區三和路四段135巷41號","121.48723","25.078775","6500200","三重區"
"241030","KEA-2210","2017/12/02 17:05:32","新北市三重區成功路11號","121.490325","25.0503633333333","6500200","三重區"
"241020","413-TH","2017/12/02 17:05:35","新北市三重區後竹圍街177號","121.485981666667","25.0718116666667","6500200","三重區"
"241004","475-VK","2017/12/02 17:05:30","新北市三重區五華街104巷16號","121.491418333333","25.0819083333333","6500200","三重區"
"241019","478-VK","2017/12/02 17:05:30","新北市三重區自強路二段74巷21號","121.487963333333","25.06985","6500200","三重區"
"241014","543-UM","2017/12/02 17:05:42","新北市三重區龍濱路150號","121.50153","25.0721966666667","6500200","三重區"
"241023","545-UM","2017/12/02 17:05:32","新北市三重區忠孝路三段84巷1號","121.480295","25.0645233333333","6500200","三重區"
"241001","547-UM","2017/12/02 17:05:25","新北市三重區仁愛街245巷15號","121.494028333333","25.07825","6500200","三重區"
"241006","AAD-863","2017/12/02 17:05:29","新北市三重區車路頭街139巷2號","121.483875","25.0762666666667","6500200","三重區"
"241012","941-UM","2017/12/02 17:05:39","新北市三重區公園街23號","121.498913333333","25.07414","6500200","三重區"
"241029","942-UM","2017/12/02 17:05:26","新北市三重區重新路三段204號","121.490098333333","25.0584983333333","6500200","三重區"
"241033","AAC-255","2017/12/02 17:05:27","新北市三重區中興北街275號","121.469221666667","25.0607433333333","6500200","三重區"
"235064","911-UM","2017/12/02 15:34:49","新北市中和區員山路36巷16-3號","121.48506","24.9914666666667","6500300","中和區"
"247022","893-R6","2017/12/02 17:05:34","新北市蘆洲區民族路411號","121.468978333333","25.0897866666667","6501400","蘆洲區"
"247012","546-UM","2017/12/02 17:05:31","新北市蘆洲區信義路300號","121.477495","25.08762","6501400","蘆洲區"
"247020","500-BY","2017/12/02 17:05:35","新北市蘆洲區民族路422巷104號","121.473113333333","25.0940916666667","6501400","蘆洲區"
"247008","341-TH","2017/12/02 17:05:38","新北市蘆洲區信義路57號","121.475451666667","25.079955","6501400","蘆洲區"
"247010","339-TH","2017/12/02 17:05:27","新北市蘆洲區三民路52號","121.475326666667","25.0836033333333","6501400","蘆洲區"
"247002","337-TH","2017/12/02 17:05:33","新北市蘆洲區永樂街33號","121.458161666667","25.0881783333333","6501400","蘆洲區"
"247004","336-TH","2017/12/02 17:05:40","新北市蘆洲區長安街193巷3弄2號","121.45981","25.081565","6501400","蘆洲區"
"247024","335-TH","2017/12/02 17:05:42","新北市蘆洲區長興路213號","121.461121666667","25.086425","6501400","蘆洲區"
"247016","057-VK","2017/12/02 17:05:44","新北市蘆洲區正和街40巷2號","121.469426666667","25.082065","6501400","蘆洲區"
"247006","056-VK","2017/12/02 17:05:29","新北市蘆洲區長安街102巷4號","121.462035","25.0815166666667","6501400","蘆洲區"
"247014","007-UY","2017/12/02 17:05:40","新北市蘆洲區得勝街50號","121.473245","25.08364","6501400","蘆洲區"
"247018","001-UY","2017/12/02 17:05:35","新北市蘆洲區民族路201巷15號","121.477293333333","25.0888","6501400","蘆洲區"
"228003","097-TW","2017/12/02 17:05:28","新北市貢寮區福隆里東興街61-2號","121.946953333333","25.0169683333333","6502600","貢寮區"
"228001","212-TW","2017/12/02 17:05:30","新北市貢寮區龍門里復興街29號","121.926203333333","25.0269983333333","6502600","貢寮區"
"228002","585-TW","2017/12/02 17:05:36","新北市貢寮區貢寮里貢寮街132號","121.907686666667","25.0200166666667","6502600","貢寮區"
"224010","AGQ-8101","2017/12/02 08:57:54","新北市瑞芳區明燈路二段44-1號","121.809483333333","25.1082333333333","6501200","瑞芳區"
"224006","676-BX","2017/12/02 17:05:44","新北市瑞芳區大寮路101-2號","121.778531666667","25.0992083333333","6501200","瑞芳區"
"224009","285-BY","2017/12/02 17:05:38","新北市瑞芳區輕便路136號","121.84449","25.113215","6501200","瑞芳區"
"224008","275-VK","2017/12/02 17:05:41","新北市瑞芳區侯硐路282號","121.830981666667","25.0894983333333","6501200","瑞芳區"
"224007","273-VK","2017/12/02 17:05:31","新北市瑞芳區頂埔巷19號","121.765875","25.1030283333333","6501200","瑞芳區"
"224005","271-BY","2017/12/02 17:05:43","新北市瑞芳區鼻頭路227-2號","121.914406666667","25.1240133333333","6501200","瑞芳區"
"227002","642-TC","2017/12/02 17:05:36","新北市雙溪區長源里柑腳9號","121.804693333333","25.0146233333333","6502500","雙溪區"
"227010","400-TW","2017/12/02 17:05:38","新北市雙溪區牡丹里聖南50-1號","121.854341666667","25.0555283333333","6502500","雙溪區"
"251009","008-UM","2017/12/02 17:05:32","新北市淡水區三民街12號","121.438906666667","25.1715033333333","6501000","淡水區"
"251005","010-UM","2017/12/02 17:05:29","新北市淡水區中正路二段31號","121.419086666667","25.1819883333333","6501000","淡水區"
"251014","180-VK","2017/12/02 17:05:39","新北市淡水區八里堆8號","121.461988333333","25.2244216666667","6501000","淡水區"
"251008","181-VK","2017/12/02 17:05:34","新北市淡水區樹梅坑6-9號","121.472755","25.1456566666667","6501000","淡水區"
"251010","413-VK","2017/12/02 17:05:43","新北市淡水區新市二路三段20號","121.43192","25.19358","6501000","淡水區"
"251012","441-VK","2017/12/02 17:05:42","新北市淡水區新民街103號","121.436138333333","25.18101","6501000","淡水區"
"251016","442-VK","2017/12/02 17:05:40","新北市淡水區北新路三段31-8號","121.482773333333","25.18721","6501000","淡水區"
"251006","561-UM","2017/12/02 17:03:44","新北市淡水區淡金路二段599號","121.44645","25.1919583333333","6501000","淡水區"
"251007","577-R6","2017/12/02 17:05:38","新北市淡水區中正東路二段59號","121.459386666667","25.1550633333333","6501000","淡水區"
"251011","650-BX","2017/12/02 17:05:24","新北市淡水區淡金路51-1號","121.456151666667","25.1610133333333","6501000","淡水區"
"252001","292-VK","2017/12/02 17:05:45","新北市三芝區埔坪里埔頭坑7號","121.501855","25.2601416666667","6502100","三芝區"
"252002","AAC-283","2017/12/02 17:05:45","新北市三芝區忠孝街53號","121.50602","25.2561433333333","6502100","三芝區"
"242029","986-R7","2017/12/02 17:05:27","新北市新莊區新泰路357巷3弄57號","121.442295","25.03944","6500500","新莊區"
"242051","751-BX","2017/12/02 17:05:36","新北市新莊區三和路12-10號","121.442343333333","25.03679","6500500","新莊區"
"242023","613-BX","2017/12/02 17:05:18","新北市新莊區新泰路357巷3弄57號","121.44242","25.0394683333333","6500500","新莊區"
"242027","612-BX","2017/12/02 17:05:44","新北市新莊區新泰路357巷3弄57號","121.4419","25.03912","6500500","新莊區"
"242039","566-BX","2017/12/02 01:29:36","新北市新莊區新泰路255巷83號","121.442131666667","25.0390816666667","6500500","新莊區"
"242044","497-BY","2017/12/02 17:05:43","新北市新莊區三和路12-10號","121.442168333333","25.0367966666667","6500500","新莊區"
"242002","442-UM","2017/12/02 04:00:37","新北市新莊區新泰路255巷83號","121.442036666667","25.038865","6500500","新莊區"
"242048","441-UM","2017/12/02 17:05:41","新北市新莊區中正路483號","121.441198333333","25.033705","6500500","新莊區"
"242053","440-UM","2017/12/02 17:05:30","新北市新莊區新泰路357巷3弄57號","121.441836666667","25.0391716666667","6500500","新莊區"
"242034","415-TV","2017/12/02 14:49:38","新北市新莊區新泰路357巷3弄57號","121.442168333333","25.03956","6500500","新莊區"
"242042","400-BY","2017/12/02 17:05:30","新北市新莊區新泰路357巷3弄57號","121.442233333333","25.0395683333333","6500500","新莊區"
"242061","362-BY","2017/12/02 17:05:35","新北市新莊區三和路12-21號","121.442296666667","25.03849","6500500","新莊區"
"242058","353-BY","2017/12/02 17:05:31","新北市新莊區新泰路357巷3弄57號","121.442065","25.0391533333333","6500500","新莊區"
"242036","133-UY","2017/12/02 17:05:31","新北市新莊區公園一路73號","121.442475","25.037005","6500500","新莊區"
"242021","135-UY","2017/12/02 17:05:31","新北市新莊區三和路12-21號","121.44183","25.0388733333333","6500500","新莊區"
"242046","172-VK","2017/12/02 04:45:31","新北市新莊區三和路12-21號","121.441906666667","25.0386883333333","6500500","新莊區"
"242009","173-VK","2017/12/02 16:19:06","新北市新莊區三和路12-21號","121.44208","25.038745","6500500","新莊區"
"242019","348-TH","2017/12/02 17:05:43","新北市新莊區新泰路357巷3弄57號","121.442045","25.0395716666667","6500500","新莊區"
"242017","350-TH","2017/12/02 03:54:20","新北市新莊區新泰路255巷83號","121.442081666667","25.03897","6500500","新莊區"
"242011","351-TH","2017/12/02 17:05:42","新北市新莊區新泰路357巷3弄57號","121.441993333333","25.039545","6500500","新莊區"
"238023","601-UM","2017/12/02 17:05:43","新北市樹林區八德街622號","121.397153333333","24.9698416666667","6500700","樹林區"
"238024","5061-A6","2017/12/02 17:05:40","新北市樹林區環河路600-1號","121.40394","24.9692966666667","6500700","樹林區"
"238021","KEA-2217","2017/12/02 17:05:31","新北市樹林區佳園路二段6號","121.393808333333","24.9643083333333","6500700","樹林區"
"238022","KEA-2213","2017/12/02 17:05:30","新北市樹林區八德街224號","121.415425","24.9717266666667","6500700","樹林區"
"238025","303-VK","2017/12/02 17:05:33","新北市樹林區八德街614號","121.397243333333","24.969975","6500700","樹林區"
"238017","283-BY","2017/12/02 17:05:30","新北市樹林區八德街600號","121.397385","24.9701616666667","6500700","樹林區"
"238014","282-BY","2017/12/02 17:05:36","新北市樹林區育德街78-1號","121.38763","24.9681333333333","6500700","樹林區"
"238020","268-VK","2017/12/02 17:05:37","新北市樹林區八德街616號","121.397225","24.9699183333333","6500700","樹林區"
"238026","172-UY","2017/12/02 17:05:39","新北市樹林區八德街598巷4號","121.397631666667","24.9703033333333","6500700","樹林區"
"238016","169-UY","2017/12/02 17:05:34","新北市樹林區八德街662號","121.396303333333","24.9690516666667","6500700","樹林區"
"239007","AAC-297","2017/12/02 17:05:43","新北市鶯歌區文化路142號","121.352221666667","24.950855","6500800","鶯歌區"
"239006","891-R6","2017/12/02 17:05:42","新北市鶯歌區中正二路185-4號","121.340696666667","24.94761","6500800","鶯歌區"
"239008","527-UM","2017/12/02 17:05:35","新北市鶯歌區尖山路101巷6-1號","121.345551666667","24.94471","6500800","鶯歌區"
"239005","526-UM","2017/12/02 17:05:32","新北市鶯歌區中正二路75號","121.349793333333","24.950405","6500800","鶯歌區"
"239001","417-VK","2017/12/02 17:05:33","新北市鶯歌區尖山路44號","121.350848333333","24.9501383333333","6500800","鶯歌區"
"239002","359-BY","2017/12/02 17:05:31","新北市鶯歌區文化路134號","121.351986666667","24.95133","6500800","鶯歌區"
"239004","193-VK","2017/12/02 17:05:43","新北市鶯歌區環河路78-1號","121.350331666667","24.9432483333333","6500800","鶯歌區"
"221010","269-BY","2017/12/02 15:10:23","新北市汐止區汐萬路一段256巷1號","121.651986666667","25.0747233333333","6501100","汐止區"
"221012","276-VK","2017/12/02 13:23:05","新北市汐止區汐萬路一段256巷3號","121.653466666667","25.0746616666667","6501100","汐止區"
