"lineid","car","time","location","longitude","latitude","cityid","cityname"
"249005","172-UM","2017/12/02 17:29:41","新北市八里區荖阡坑路32-1號","121.404103333333","25.1277783333333","6502300","八里區"
"249001","173-UM","2017/12/02 17:29:39","新北市八里區龍米路三段48-3號","121.426746666667","25.1594666666667","6502300","八里區"
"249004","303-UY","2017/12/02 17:29:43","新北市八里區賢一街217號","121.415806666667","25.155975","6502300","八里區"
"249002","305-UY","2017/12/02 17:29:40","新北市八里區龍米路二段39號","121.448325","25.1401516666667","6502300","八里區"
"249003","759-BX","2017/12/02 17:29:47","新北市八里區中山路二段315號","121.400618333333","25.1477683333333","6502300","八里區"
"248020","225-UY","2017/12/02 15:27:38","新北市五股區中興路二段83巷26-3號","121.460103333333","25.0753216666667","6501500","五股區"
"232011","375-UM","2017/12/02 17:29:36","新北市坪林區北宜路八段558號","121.718315","24.90929","6502000","坪林區"
"244007","080-UY","2017/12/02 17:29:50","新北市林口區湖子5號","121.390933333333","25.0923883333333","6501700","林口區"
"244019","403-UM","2017/12/02 17:29:47","新北市林口區文化二路一段384號","121.374523333333","25.076705","6501700","林口區"
"244009","410-SL","2017/12/02 17:29:41","新北市林口區中華路283號","121.383826666667","25.09082","6501700","林口區"
"244023","483-VK","2017/12/02 17:29:41","新北市林口區興林一街96巷33號","121.391313333333","25.0715166666667","6501700","林口區"
"244025","837-TS","2017/12/02 17:29:40","新北市林口區民族路157號","121.367075","25.0764383333333","6501700","林口區"
"244021","838-TS","2017/12/02 17:29:48","新北市林口區粉寮路37-1號","121.401056666667","25.0848933333333","6501700","林口區"
"243013","646-TV","2017/12/02 17:29:43","新北市泰山區大科路45-16號","121.40416","25.054995","6501600","泰山區"
"231046","278-BY","2017/12/02 17:29:39","新北市新店區直潭路92號","121.530861666667","24.93762","6500600","新店區"
"241009","060-VK","2017/12/02 17:29:50","新北市三重區車路頭街135-1號","121.48424","25.0761266666667","6500200","三重區"
"241015","062-VK","2017/12/02 17:29:54","新北市三重區開元街30號","121.503595","25.0658316666667","6500200","三重區"
"241017","063-VK","2017/12/02 17:29:36","新北市三重區重新路三段47巷5弄1號","121.492846666667","25.0618916666667","6500200","三重區"
"241024","065-VK","2017/12/02 17:29:35","新北市三重區國道路一段58巷20號","121.48121","25.07201","6500200","三重區"
"241026","066-VK","2017/12/02 17:29:41","新北市三重區文化南路42號","121.500406666667","25.0602733333333","6500200","三重區"
"241003","091-VK","2017/12/02 17:29:47","新北市三重區碧華街329號","121.491585","25.08468","6500200","三重區"
"241005","262-UM","2017/12/02 17:29:32","新北市三重區永安北路二段5巷34號","121.48281","25.0813133333333","6500200","三重區"
"241011","265-UM","2017/12/02 17:29:46","新北市三重區河邊北街110巷19號","121.503445","25.0707966666667","6500200","三重區"
"241016","266-UM","2017/12/02 17:29:50","新北市三重區大同北路71號","121.495243333333","25.0638033333333","6500200","三重區"
"241022","267-UM","2017/12/02 17:29:49","新北市三重區新北大道一段7號","121.489948333333","25.0612533333333","6500200","三重區"
"241018","268-UM","2017/12/02 17:29:38","新北市三重區國隆路27號","121.492643333333","25.0642516666667","6500200","三重區"
"241032","269-UM","2017/12/02 17:29:38","新北市三重區名源街61巷3號","121.481925","25.0594466666667","6500200","三重區"
"241013","270-UM","2017/12/02 17:29:44","新北市三重區仁愛街141巷24號","121.497071666667","25.0759166666667","6500200","三重區"
"241025","271-UM","2017/12/02 17:29:47","新北市三重區中正北路392-1號","121.47601","25.070105","6500200","三重區"
"241007","398-BY","2017/12/02 17:29:42","新北市三重區三和路四段145巷189號","121.488216666667","25.0794116666667","6500200","三重區"
"241030","KEA-2210","2017/12/02 17:29:46","新北市三重區中正南路260-1號","121.493051666667","25.0529116666667","6500200","三重區"
"241019","478-VK","2017/12/02 17:29:50","新北市三重區自強路二段26巷24號","121.48874","25.0689666666667","6500200","三重區"
"241014","543-UM","2017/12/02 17:29:42","新北市三重區安和路17號","121.501385","25.068485","6500200","三重區"
"241023","545-UM","2017/12/02 17:29:32","新北市三重區忠孝路三段84巷30號","121.481518333333","25.0641833333333","6500200","三重區"
"241012","941-UM","2017/12/02 17:29:39","新北市三重區仁昌街61-1號","121.497341666667","25.074215","6500200","三重區"
"241033","AAC-255","2017/12/02 17:29:47","新北市三重區興德路133號","121.470031666667","25.0528733333333","6500200","三重區"
"235061","378-QA","2017/12/02 15:41:12","新北市中和區員山路36巷13號","121.484373333333","24.99112","6500300","中和區"
"235064","911-UM","2017/12/02 15:34:49","新北市中和區員山路36巷16-3號","121.48506","24.9914666666667","6500300","中和區"
"247022","893-R6","2017/12/02 17:29:33","新北市蘆洲區三民路222號","121.468746666667","25.08926","6501400","蘆洲區"
"247012","546-UM","2017/12/02 17:29:51","新北市蘆洲區民族路14號","121.475853333333","25.0840766666667","6501400","蘆洲區"
"247020","500-BY","2017/12/02 17:29:35","新北市蘆洲區仁愛街73號","121.471641666667","25.0936166666667","6501400","蘆洲區"
"247008","341-TH","2017/12/02 17:29:33","新北市蘆洲區信義路34巷52號","121.4751","25.077985","6501400","蘆洲區"
"247010","339-TH","2017/12/02 17:29:47","新北市蘆洲區信義路114號","121.479835","25.0821683333333","6501400","蘆洲區"
"247002","337-TH","2017/12/02 17:29:47","新北市蘆洲區永樂街38巷65號","121.458533333333","25.090335","6501400","蘆洲區"
"247004","336-TH","2017/12/02 17:29:40","新北市蘆洲區長安街233巷10號","121.458958333333","25.0827466666667","6501400","蘆洲區"
"247024","335-TH","2017/12/02 17:29:42","新北市蘆洲區長興路389號","121.461136666667","25.0917633333333","6501400","蘆洲區"
"247016","057-VK","2017/12/02 17:29:44","新北市蘆洲區光華路22巷31號","121.468535","25.084475","6501400","蘆洲區"
"247006","056-VK","2017/12/02 17:29:49","新北市蘆洲區長安街68巷23號","121.463685","25.080865","6501400","蘆洲區"
"247014","007-UY","2017/12/02 17:29:40","新北市蘆洲區三民路33號","121.475413333333","25.083025","6501400","蘆洲區"
"247018","001-UY","2017/12/02 17:29:52","新北市蘆洲區民義街22巷2號","121.471468333333","25.0884083333333","6501400","蘆洲區"
"228003","097-TW","2017/12/02 17:29:48","新北市貢寮區仁理村仁和路2-2號","121.923215","25.04858","6502600","貢寮區"
"228001","212-TW","2017/12/02 17:29:50","新北市貢寮區仁理村仁愛路62巷1號","121.925681666667","25.0533983333333","6502600","貢寮區"
"228002","585-TW","2017/12/02 17:29:36","新北市貢寮區福隆里福隆街14號","121.94488","25.0163","6502600","貢寮區"
"224010","AGQ-8101","2017/12/02 17:29:27","新北市瑞芳區逢甲路83號","121.807495","25.10945","6501200","瑞芳區"
"224006","676-BX","2017/12/02 17:29:44","新北市瑞芳區靜安路四段91號","121.793298333333","25.1090316666667","6501200","瑞芳區"
"224009","285-BY","2017/12/02 17:29:37","新北市瑞芳區汽車路18-1號","121.845215","25.110025","6501200","瑞芳區"
"224008","275-VK","2017/12/02 17:29:45","新北市瑞芳區九芎橋路17號","121.832806666667","25.0927516666667","6501200","瑞芳區"
"224005","271-BY","2017/12/02 17:29:43","新北市瑞芳區海濱路8-6號","121.831705","25.1261233333333","6501200","瑞芳區"
"227002","642-TC","2017/12/02 17:29:36","新北市雙溪區平林里外平林32號","121.855143333333","25.0353783333333","6502500","雙溪區"
"227010","400-TW","2017/12/02 17:29:38","新北市雙溪區三貂里十三層17-3號","121.85359","25.0791916666667","6502500","雙溪區"
"251009","008-UM","2017/12/02 17:29:52","新北市淡水區重建街1巷7號","121.439743333333","25.1737283333333","6501000","淡水區"
"251004","009-UM","2017/12/02 17:29:40","新北市淡水區中正東路二段88巷15號","121.459075","25.15046","6501000","淡水區"
"251005","010-UM","2017/12/02 17:29:49","新北市淡水區鄧公路31巷13號","121.451808333333","25.1707216666667","6501000","淡水區"
"251014","180-VK","2017/12/02 17:29:46","新北市淡水區公埔子6號","121.469236666667","25.2252216666667","6501000","淡水區"
"251008","181-VK","2017/12/02 17:29:34","新北市淡水區大同路124巷16號","121.463591666667","25.1400316666667","6501000","淡水區"
"251010","413-VK","2017/12/02 17:29:43","新北市淡水區中正路二段211號","121.426225","25.1891366666667","6501000","淡水區"
"251012","441-VK","2017/12/02 17:29:42","新北市淡水區北新路130號","121.448225","25.1783533333333","6501000","淡水區"
"251016","442-VK","2017/12/02 17:29:40","新北市淡水區大竹圍10號","121.465223333333","25.19296","6501000","淡水區"
"251001","559-UM","2017/12/02 17:29:37","新北市淡水區民權路92巷35-1號","121.462188333333","25.1266783333333","6501000","淡水區"
"251006","561-UM","2017/12/02 17:29:43","新北市淡水區大智街48號","121.442958333333","25.1742033333333","6501000","淡水區"
"251007","577-R6","2017/12/02 17:29:38","新北市淡水區民生路60號","121.46206","25.1379316666667","6501000","淡水區"
"251011","650-BX","2017/12/02 17:29:44","新北市淡水區坪頂路712號","121.482525","25.1585166666667","6501000","淡水區"
"251002","672-BX","2017/12/02 17:29:43","新北市淡水區中正路261號","121.431621666667","25.1748516666667","6501000","淡水區"
"251003","673-BX","2017/12/02 17:29:51","新北市淡水區中山路159-6號","121.44087","25.1731716666667","6501000","淡水區"
"207003","550-UM","2017/12/02 17:29:38","新北市萬里區龜吼里翡翠路17號","121.6834","25.1872266666667","6502800","萬里區"
"207004","225-TW","2017/12/02 17:29:35","新北市萬里區萬里里景美路9號","121.684845","25.173065","6502800","萬里區"
"252001","292-VK","2017/12/02 17:29:45","新北市三芝區長安街119號","121.497995","25.259715","6502100","三芝區"
"252002","AAC-283","2017/12/02 17:29:45","新北市三芝區忠孝街1-15號","121.505535","25.253925","6502100","三芝區"
"237004","078-UY","2017/12/02 17:29:38","新北市三峽區中山路459巷137號","121.349966666667","24.93398","6500900","三峽區"
"237006","5529-G3","2017/12/02 17:29:37","新北市三峽區中山路459巷104號","121.353116666667","24.9355183333333","6500900","三峽區"
"237011","572-TV","2017/12/02 13:55:27","新北市三峽區中山路459巷163-3號","121.348713333333","24.9325033333333","6500900","三峽區"
"242031","AAC-296","2017/12/02 17:29:46","新北市新莊區新泰路401巷29號","121.44253","25.0439466666667","6500500","新莊區"
"242029","986-R7","2017/12/02 17:29:47","新北市新莊區復興路二段189號","121.459178333333","25.0444783333333","6500500","新莊區"
"242051","751-BX","2017/12/02 17:29:36","新北市新莊區新樹路447號","121.432728333333","25.0135516666667","6500500","新莊區"
"242025","615-BX","2017/12/02 17:29:38","新北市新莊區中港路270號","121.453276666667","25.0439966666667","6500500","新莊區"
"242023","613-BX","2017/12/02 17:29:38","新北市新莊區公園路29號","121.452885","25.04011","6500500","新莊區"
"242027","612-BX","2017/12/02 17:29:44","新北市新莊區思源路131號","121.459836666667","25.0434566666667","6500500","新莊區"
"242039","566-BX","2017/12/02 17:29:47","新北市新莊區民安路274號","121.427658333333","25.02145","6500500","新莊區"
"242044","497-BY","2017/12/02 17:29:43","新北市新莊區裕民街1號","121.419545","25.0260533333333","6500500","新莊區"
"242002","442-UM","2017/12/02 17:29:41","新北市新莊區新莊路211號","121.455285","25.0354466666667","6500500","新莊區"
"242048","441-UM","2017/12/02 17:29:41","新北市新莊區四維路210號","121.421323333333","25.0200766666667","6500500","新莊區"
"242053","440-UM","2017/12/02 17:27:50","新北市新莊區環河路636-7號","121.436891666667","25.011495","6500500","新莊區"
"242034","415-TV","2017/12/02 17:29:40","新北市新莊區新莊路368號","121.449376666667","25.0334583333333","6500500","新莊區"
"242004","413-TV","2017/12/02 17:29:39","新北市新莊區中港路289號","121.452835","25.0440916666667","6500500","新莊區"
"242042","400-BY","2017/12/02 17:29:50","新北市新莊區建國一路100號","121.434661666667","25.029635","6500500","新莊區"
"242061","362-BY","2017/12/02 17:29:35","新北市新莊區瓊林南路305巷35號","121.435955","25.0054866666667","6500500","新莊區"
"242058","353-BY","2017/12/02 17:29:51","新北市新莊區中正路384號","121.441953333333","25.0346316666667","6500500","新莊區"
"242036","133-UY","2017/12/02 17:29:51","新北市新莊區建國二路5-3號","121.434816666667","25.02371","6500500","新莊區"
"242021","135-UY","2017/12/02 17:29:51","新北市新莊區中正路106號","121.453915","25.03658","6500500","新莊區"
"242046","172-VK","2017/12/02 17:29:32","新北市新莊區新樹路65-7號","121.4394","25.030695","6500500","新莊區"
"242009","173-VK","2017/12/02 17:29:46","新北市新莊區中原路187-1號","121.452765","25.0542333333333","6500500","新莊區"
"242015","175-VK","2017/12/02 17:29:54","新北市新莊區新泰路208號","121.446851666667","25.0387266666667","6500500","新莊區"
"242013","346-TH","2017/12/02 17:29:44","新北市新莊區中誠街164號","121.448156666667","25.04743","6500500","新莊區"
"242007","347-TH","2017/12/02 17:29:51","新北市新莊區自立街83號","121.454633333333","25.0454633333333","6500500","新莊區"
"242019","348-TH","2017/12/02 17:29:43","新北市新莊區中港路61號","121.455373333333","25.038505","6500500","新莊區"
"242056","349-TH","2017/12/02 17:29:42","新北市新莊區新莊路362號","121.449595","25.03351","6500500","新莊區"
"242017","350-TH","2017/12/02 17:29:40","新北市新莊區德豐街4號","121.45163","25.0439716666667","6500500","新莊區"
"242011","351-TH","2017/12/02 17:29:52","新北市新莊區中港路505號","121.452043333333","25.0503966666667","6500500","新莊區"
"238015","755-BX","2017/12/02 17:29:35","新北市樹林區大安路267號","121.419053333333","24.99373","6500700","樹林區"
"238023","601-UM","2017/12/02 17:29:43","新北市樹林區中正路290號","121.414286666667","25.010535","6500700","樹林區"
"238018","571-TV","2017/12/02 17:29:51","新北市樹林區鎮前街271-4號","121.419788333333","24.985855","6500700","樹林區"
"238024","5061-A6","2017/12/02 17:29:42","新北市樹林區鎮前街88號","121.42522","24.99202","6500700","樹林區"
"238021","KEA-2217","2017/12/02 17:29:51","新北市樹林區民權街48號","121.399168333333","24.9598466666667","6500700","樹林區"
"238022","KEA-2213","2017/12/02 17:29:38","新北市樹林區信義街20號","121.42292","24.9820066666667","6500700","樹林區"
"238025","303-VK","2017/12/02 17:29:53","新北市樹林區保安二街163號","121.422066666667","24.9956183333333","6500700","樹林區"
"238017","283-BY","2017/12/02 17:29:50","新北市樹林區中正路250號","121.417635","25.007285","6500700","樹林區"
"238014","282-BY","2017/12/02 17:29:36","新北市樹林區長壽街84號","121.420025","24.9957766666667","6500700","樹林區"
"238020","268-VK","2017/12/02 17:29:43","新北市樹林區俊英街160巷9-1號","121.42726","25.00676","6500700","樹林區"
"238026","172-UY","2017/12/02 17:29:49","新北市樹林區新興街2巷1號","121.4002","24.974275","6500700","樹林區"
"238016","169-UY","2017/12/02 17:29:34","新北市樹林區長壽街4號","121.42382","24.9933266666667","6500700","樹林區"
"239007","AAC-297","2017/12/02 17:29:43","新北市鶯歌區中正一路187號","121.35329","24.9570833333333","6500800","鶯歌區"
"239006","891-R6","2017/12/02 17:29:42","新北市鶯歌區鶯桃路472巷55號","121.333208333333","24.96601","6500800","鶯歌區"
"239008","527-UM","2017/12/02 17:29:35","新北市鶯歌區大湖路742號","121.332256666667","24.9769483333333","6500800","鶯歌區"
"239005","526-UM","2017/12/02 17:29:32","新北市鶯歌區鶯桃路660號","121.329118333333","24.9691483333333","6500800","鶯歌區"
"239001","417-VK","2017/12/02 17:29:44","新北市鶯歌區高職西街111號","121.336191666667","24.94026","6500800","鶯歌區"
"239003","360-BY","2017/12/02 17:29:47","新北市鶯歌區鶯桃路267號","121.335383333333","24.9599533333333","6500800","鶯歌區"
"239002","359-BY","2017/12/02 17:29:51","新北市鶯歌區南雅路63號","121.347808333333","24.954095","6500800","鶯歌區"
"239004","193-VK","2017/12/02 17:29:43","新北市鶯歌區三鶯路15號","121.356341666667","24.9413533333333","6500800","鶯歌區"
"221010","269-BY","2017/12/02 17:26:16","新北市汐止區汐萬路一段256巷1號","121.651978333333","25.07477","6501100","汐止區"
"221012","276-VK","2017/12/02 13:23:05","新北市汐止區汐萬路一段256巷3號","121.653466666667","25.0746616666667","6501100","汐止區"
"221033","647-BX","2017/12/02 17:29:48","新北市汐止區汐萬路一段310號","121.65036","25.0747016666667","6501100","汐止區"
