"lineid","car","time","location","longitude","latitude","cityid","cityname"
"234046","148-BY","2017/12/02 18:39:41","新北市永和區永元路68號","121.522581666667","25.00151","6500400","永和區"
"234007","207-UY","2017/12/02 18:39:33","新北市永和區文化路170號","121.511825","25.015525","6500400","永和區"
"234081","298-R6","2017/12/02 18:39:36","新北市永和區林森路81號","121.523888333333","25.0038666666667","6500400","永和區"
"234038","336-UY","2017/12/02 18:39:37","新北市永和區福和路1號","121.526638333333","25.0101233333333","6500400","永和區"
"234086","338-UY","2017/12/02 18:39:33","新北市中和區安平路126號","121.511948333333","24.9977366666667","6500400","永和區"
"234054","553-UM","2017/12/02 18:39:44","新北市永和區福和路1號","121.526401666667","25.0096383333333","6500400","永和區"
"234030","746-BX","2017/12/02 18:39:39","新北市永和區成功路二段3號","121.52682","25.001435","6500400","永和區"
"234042","862-TW","2017/12/02 18:39:39","新北市永和區永貞路306號","121.511893333333","25.0048583333333","6500400","永和區"
"234050","863-TW","2017/12/02 18:39:46","新北市永和區竹林路91巷55弄1號","121.521915","25.0138666666667","6500400","永和區"
"234026","9371-KE","2017/12/02 18:39:49","新北市永和區自由街56號","121.513695","25.0059666666667","6500400","永和區"
"234011","9373-KE","2017/12/02 18:39:32","新北市永和區信義路126-1號","121.512405","25.0151516666667","6500400","永和區"
"249005","172-UM","2017/12/02 18:39:41","新北市八里區中華路三段232號","121.388426666667","25.124405","6502300","八里區"
"249001","173-UM","2017/12/02 18:39:39","新北市八里區龍米路一段388號","121.45144","25.13282","6502300","八里區"
"249004","303-UY","2017/12/02 18:39:43","新北市八里區忠四街53號","121.425128333333","25.16173","6502300","八里區"
"249002","305-UY","2017/12/02 18:39:40","新北市八里區龍形一街33巷6-2號","121.449266666667","25.1294866666667","6502300","八里區"
"248016","026-BX","2017/12/02 18:39:41","新北市五股區凌雲路一段149巷7號","121.448905","25.1016383333333","6501500","五股區"
"248008","095-VK","2017/12/02 18:39:41","新北市五股區中興路一段151巷38號","121.46519","25.0725516666667","6501500","五股區"
"248020","225-UY","2017/12/02 18:39:36","新北市五股區孝義路118號","121.44092","25.1216083333333","6501500","五股區"
"248012","247-BX","2017/12/02 18:39:41","新北市五股區御史路79號","121.440806666667","25.094765","6501500","五股區"
"248014","261-SL","2017/12/02 18:39:48","新北市五股區蓬萊路8號","121.435523333333","25.0794816666667","6501500","五股區"
"248010","272-BY","2017/12/02 18:39:36","新北市五股區自強路90巷18號","121.431933333333","25.072385","6501500","五股區"
"248004","677-BX","2017/12/02 18:39:43","新北市五股區民義路一段226號","121.428911666667","25.0905633333333","6501500","五股區"
"248002","678-BX","2017/12/02 18:39:41","新北市五股區西雲路166號","121.446841666667","25.0946733333333","6501500","五股區"
"234023","9380-KE","2017/12/02 18:39:34","新北市永和區福和路76巷5弄14號","121.522351666667","25.0083916666667","6500400","永和區"
"234077","969-R7","2017/12/02 18:39:34","新北市中和區大勇街31巷13弄13號","121.517441666667","24.9940316666667","6500400","永和區"
"234074","AAC-211","2017/12/02 18:39:43","新北市永和區福和路1號","121.526183333333","25.00949","6500400","永和區"
"234067","AAC-212","2017/12/02 18:39:35","新北市永和區林森路48巷2號","121.524813333333","25.0046283333333","6500400","永和區"
"234003","AAC-295","2017/12/02 18:39:49","新北市永和區福和路1號","121.525768333333","25.009175","6500400","永和區"
"232011","375-UM","2017/12/02 18:24:21","新北市坪林區坪雙路一段43號","121.711753333333","24.9424433333333","6502000","坪林區"
"244013","069-UM","2017/12/02 18:39:50","新北市林口區中正路535號","121.382253333333","25.0772316666667","6501700","林口區"
"244007","080-UY","2017/12/02 18:39:50","新北市林口區中湖62號","121.384576666667","25.1009416666667","6501700","林口區"
"244019","403-UM","2017/12/02 18:39:47","新北市林口區忠孝路569巷57號","121.37473","25.0688483333333","6501700","林口區"
"244009","410-SL","2017/12/02 18:39:41","新北市林口區文林一街20號","121.376898333333","25.0858066666667","6501700","林口區"
"244023","483-VK","2017/12/02 18:39:21","新北市林口區文化二路二段72號","121.378443333333","25.0804333333333","6501700","林口區"
"244017","485-VK","2017/12/02 18:39:39","新北市林口區文化二路一段136號","121.368151666667","25.0712433333333","6501700","林口區"
"244011","701-TV","2017/12/02 18:39:40","新北市林口區中正路283號","121.389788333333","25.077575","6501700","林口區"
"244025","837-TS","2017/12/02 18:39:40","新北市林口區南勢六街248-1號","121.355998333333","25.0748683333333","6501700","林口區"
"244021","838-TS","2017/12/02 18:39:48","新北市林口區工六路32號","121.398488333333","25.07864","6501700","林口區"
"243012","AAD-798","2017/12/02 18:39:44","新北市泰山區福興三街13號","121.434421666667","25.057765","6501600","泰山區"
"243013","646-TV","2017/12/02 18:39:43","新北市泰山區明志路三段206巷3號","121.423286666667","25.0379833333333","6501600","泰山區"
"222003","436-BY","2017/12/02 18:39:51","新北市深坑區翠谷街14號","121.626986666667","25.0086233333333","6501800","深坑區"
"222002","659-BX","2017/12/02 18:39:39","新北市深坑區雲鄉路25巷2號","121.622218333333","24.9998266666667","6501800","深坑區"
"231041","001-UM","2017/12/02 18:39:42","新北市新店區安華路28-1號","121.519831666667","24.9607633333333","6500600","新店區"
"231059","046-UY","2017/12/02 18:39:35","新北市新店區安華路28-1號","121.51968","24.9610083333333","6500600","新店區"
"231061","047-UY","2017/12/02 18:39:33","新北市新店區安華路28-1號","121.5191","24.9609","6500600","新店區"
"231060","106-UY","2017/12/02 18:39:40","新北市新店區安華路28-1號","121.519656666667","24.96087","6500600","新店區"
"231051","107-UY","2017/12/02 18:39:45","新北市新店區安康路一段279號","121.523691666667","24.96353","6500600","新店區"
"231048","108-UY","2017/12/02 18:39:32","新北市新店區秀山路20號","121.532561666667","24.960345","6500600","新店區"
"231052","187-VK","2017/12/02 18:39:30","新北市新店區新烏路一段58-2號","121.546008333333","24.94742","6500600","新店區"
"231050","KEA-2219","2017/12/02 18:39:49","新北市新店區安華路28-1號","121.519736666667","24.9612233333333","6500600","新店區"
"231057","256-BX","2017/12/02 18:39:32","新北市新店區新烏路一段201號","121.548116666667","24.93197","6500600","新店區"
"231063","268-BY","2017/12/02 18:39:38","新北市新店區安華路1-1號","121.51943","24.96052","6500600","新店區"
"231046","278-BY","2017/12/02 18:39:39","新北市新店區直潭二街1號","121.53554","24.9431933333333","6500600","新店區"
"231054","AAD-862","2017/12/02 18:39:45","新北市新店區安華路28-1號","121.519905","24.9608016666667","6500600","新店區"
"231058","3712-VJ","2017/12/02 18:39:47","新北市新店區北宜路一段168號","121.540388333333","24.9529433333333","6500600","新店區"
"231056","3713-VJ","2017/12/02 18:39:41","新北市新店區自立街23號","121.537678333333","24.97943","6500600","新店區"
"231055","4716-K9","2017/12/02 18:39:31","新北市新店區華興街36號","121.537086666667","24.9690883333333","6500600","新店區"
"231067","4772-VM","2017/12/02 18:39:33","新北市新店區安康路一段355-3號","121.519791666667","24.9623766666667","6500600","新店區"
"231049","513-UM","2017/12/02 18:39:38","新北市新店區秀山路70號","121.531075","24.9609616666667","6500600","新店區"
"231064","515-UM","2017/12/02 18:39:47","新北市新店區安華路28-1號","121.519666666667","24.9609616666667","6500600","新店區"
"231042","616-UM","2017/12/02 18:39:37","新北市新店區安華路28-1號","121.51955","24.960585","6500600","新店區"
"231045","617-UM","2017/12/02 18:39:48","新北市新店區安華路28-1號","121.519535","24.9609733333333","6500600","新店區"
"231040","619-UM","2017/12/02 18:39:42","新北市新店區安華路28-1號","121.519708333333","24.961135","6500600","新店區"
"231065","719-UY","2017/12/02 16:44:37","新北市新店區安華路28-1號","121.519405","24.9611383333333","6500600","新店區"
"231062","720-UM","2017/12/02 18:39:45","新北市新店區安華路28-1號","121.519365","24.9611916666667","6500600","新店區"
"231044","897-TW","2017/12/02 18:39:38","新北市新店區中正路2號","121.545871666667","24.9693933333333","6500600","新店區"
"231043","899-TW","2017/12/02 18:39:31","新北市新店區安華路28-1號","121.519205","24.960895","6500600","新店區"
"231066","AKT-0513","2017/12/02 18:39:45","新北市新店區安華路28-1號","121.519596666667","24.96067","6500600","新店區"
"235066","003-UY","2017/12/02 18:39:46","新北市中和區水源路22號","121.504263333333","25.0035216666667","6500300","中和區"
"235063","006-UY","2017/12/02 18:39:51","新北市中和區連城路389巷7-3號","121.486698333333","24.995605","6500300","中和區"
"235056","096-UM","2017/12/02 18:39:34","新北市中和區員山路611巷1號","121.477901666667","25.0112483333333","6500300","中和區"
"235039","097-UM","2017/12/02 18:39:35","新北市永和區安樂路104巷2弄2號","121.514235","24.999545","6500300","中和區"
"235065","098-UM","2017/12/02 18:39:33","新北市中和區莊敬路49巷17號","121.501403333333","25.005685","6500300","中和區"
"235040","150-BY","2017/12/02 18:39:51","新北市中和區宜安路63號","121.51134","24.9969333333333","6500300","中和區"
"235058","151-BY","2017/12/02 18:39:38","新北市中和區圓通路320號","121.4873","24.98823","6500300","中和區"
"235055","183-VK","2017/12/02 18:39:48","新北市中和區中山路三段229巷57-1號","121.469086666667","25.0052833333333","6500300","中和區"
"235038","185-VK","2017/12/02 18:39:44","新北市中和區大勇街60巷41號","121.519186666667","24.9947183333333","6500300","中和區"
"235049","186-VK","2017/12/02 18:39:52","新北市中和區景平路508號","121.503891666667","24.99382","6500300","中和區"
"235067","255-BX","2017/12/02 18:39:45","新北市中和區中山路二段479號","121.483078333333","25.0047983333333","6500300","中和區"
"235044","293-VK","2017/12/02 18:39:47","新北市中和區復興路277-1號","121.502381666667","24.990345","6500300","中和區"
"235072","301-VK","2017/12/02 18:39:33","新北市中和區連城路18號","121.498773333333","25.0021416666667","6500300","中和區"
"235043","352-BY","2017/12/02 18:39:36","新北市中和區景平路103號","121.517161666667","24.9918416666667","6500300","中和區"
"235068","377-QA","2017/12/02 18:38:52","新北市中和區中正路218號","121.49656","24.9937666666667","6500300","中和區"
"235061","378-QA","2017/12/02 18:39:43","新北市中和區民享街90巷24號","121.47349","25.00004","6500300","中和區"
"235050","4979-A6","2017/12/02 18:39:37","新北市中和區景新街496巷37弄1號","121.513575","24.985435","6500300","中和區"
"235069","4980-A6","2017/12/02 18:39:49","新北市中和區中和路61號","121.500556666667","25.0010616666667","6500300","中和區"
"235042","551-UM","2017/12/02 18:39:40","新北市中和區成功路97巷5弄17號","121.52655","24.9923983333333","6500300","中和區"
"235070","558-UM","2017/12/02 18:39:36","新北市中和區南華路62-1號","121.50473","24.9971566666667","6500300","中和區"
"235045","565-BX","2017/12/02 18:39:50","新北市中和區南山路236巷23弄2號","121.505576666667","24.9884833333333","6500300","中和區"
"235054","640-BX","2017/12/02 18:39:44","新北市中和區民享街86巷1號","121.474438333333","25.0008783333333","6500300","中和區"
"235060","647-TV","2017/12/02 18:39:39","新北市中和區中山路三段13號","121.479553333333","25.005985","6500300","中和區"
"235047","732-UM","2017/12/02 18:39:48","新北市中和區興南路二段3巷1號","121.508103333333","24.9865016666667","6500300","中和區"
"235046","733-UM","2017/12/02 18:39:35","新北市中和區仁愛街67號","121.511418333333","24.9875616666667","6500300","中和區"
"235062","800-TS","2017/12/02 18:39:43","新北市中和區中山路二段312巷13號","121.49562","25.0032816666667","6500300","中和區"
"235057","801-TS","2017/12/02 18:39:35","新北市中和區員山路327巷72號","121.47971","25.0021366666667","6500300","中和區"
"235041","802-TS","2017/12/02 18:39:40","新北市中和區中和路260-1號","121.508148333333","24.9993316666667","6500300","中和區"
"235052","805-TS","2017/12/02 18:39:38","新北市中和區興南路三段52巷2-5號","121.494821666667","24.9761866666667","6500300","中和區"
"235048","896-TW","2017/12/02 18:39:42","新北市中和區南山路204號","121.5061","24.9904466666667","6500300","中和區"
"235053","900-TW","2017/12/02 18:39:33","新北市土城區延壽路109巷2號","121.469091666667","24.9934733333333","6500300","中和區"
"235064","911-UM","2017/12/02 18:39:40","新北市中和區連城路123號","121.496155","24.9993866666667","6500300","中和區"
"235037","157-BY","2017/12/02 18:39:53","新北市中和區華新街143巷106弄31號","121.50677","24.978345","6500300","中和區"
"235037","AAC-213","2017/12/02 18:39:45","新北市中和區景平路111巷75號","121.514786666667","24.990245","6500300","中和區"
"235059","AAC-215","2017/12/02 18:39:38","新北市中和區錦和路350-1號","121.490538333333","24.9934883333333","6500300","中和區"
"220068","013-TV","2017/12/02 18:39:50","新北市板橋區民生路二段120號","121.470426666667","25.0197066666667","6500100","板橋區"
"220086","073-UY","2017/12/02 18:39:47","新北市板橋區大智街71巷42弄16號","121.452206666667","25.014695","6500100","板橋區"
"220069","AAD-861","2017/12/02 18:39:39","新北市板橋區華東街1-10號","121.448335","24.99501","6500100","板橋區"
"226004","312-R5","2017/12/02 18:39:44","新北市平溪區石底里石筍尖9號","121.735926666667","25.0248366666667","6502400","平溪區"
"228003","097-TW","2017/12/02 18:39:48","新北市貢寮區和美里龍洞街12-2號","121.918306666667","25.1117483333333","6502600","貢寮區"
"228001","212-TW","2017/12/02 18:39:30","新北市貢寮區仁理村研海街12-1號","121.923753333333","25.0516316666667","6502600","貢寮區"
"228002","585-TW","2017/12/02 18:39:36","新北市貢寮區福隆里東興街6-11號","121.950751666667","25.0210466666667","6502600","貢寮區"
"224006","676-BX","2017/12/02 18:39:43","新北市瑞芳區明燈路三段120號","121.804638333333","25.1084283333333","6501200","瑞芳區"
"224002","639-TC","2017/12/02 18:39:31","新北市瑞芳區傑魚坑路307-2號","121.793746666667","25.1093466666667","6501200","瑞芳區"
"224009","285-BY","2017/12/02 18:39:37","新北市瑞芳區祈堂路8號","121.859156666667","25.11168","6501200","瑞芳區"
"224008","275-VK","2017/12/02 18:39:45","新北市瑞芳區岳王路37號","121.807955","25.1113983333333","6501200","瑞芳區"
"224007","273-VK","2017/12/02 18:39:50","新北市瑞芳區大埔路115巷11號","121.763276666667","25.1010916666667","6501200","瑞芳區"
"224005","271-BY","2017/12/02 18:39:51","新北市瑞芳區永龍新村64號","121.818498333333","25.1188683333333","6501200","瑞芳區"
"227002","642-TC","2017/12/02 18:39:36","新北市雙溪區魚行里坤溪3-5號","121.875596666667","25.0213033333333","6502500","雙溪區"
"227010","400-TW","2017/12/02 18:39:44","新北市雙溪區牡丹里下坑11號","121.851023333333","25.0561683333333","6502500","雙溪區"
"253005","032-BX","2017/12/02 18:39:43","新北市石門區中山路64號","121.567318333333","25.290845","6502200","石門區"
"253006","295-VK","2017/12/02 18:39:45","新北市石門區楓林23號","121.536925","25.2894483333333","6502200","石門區"
"222001","KEA-2212","2017/12/02 18:39:46","新北市深坑區北深路一段82號","121.636323333333","25.010815","6501800","深坑區"
"208002","742-BX","2017/12/02 18:39:46","新北市金山區忠孝一路19巷17號","121.637376666667","25.2177416666667","6502700","金山區"
"208003","665-BX","2017/12/02 18:39:42","新北市金山區中山路379號","121.634075","25.2247983333333","6502700","金山區"
"208001","761-BX","2017/12/02 18:39:35","新北市金山區文化三路40號","121.635463333333","25.224785","6502700","金山區"
"251004","009-UM","2017/12/02 18:39:40","新北市淡水區中正東路二段143巷2弄1號","121.460775","25.147375","6501000","淡水區"
"251014","180-VK","2017/12/02 18:39:46","新北市淡水區崙頂12-2號","121.498068333333","25.216345","6501000","淡水區"
"251008","181-VK","2017/12/02 18:39:33","新北市淡水區北投子68-2號","121.454243333333","25.1815733333333","6501000","淡水區"
"251010","413-VK","2017/12/02 18:39:43","新北市淡水區沙崙路124號","121.423441666667","25.182735","6501000","淡水區"
"251012","441-VK","2017/12/02 18:39:42","新北市淡水區北新路117號","121.448941666667","25.1786366666667","6501000","淡水區"
"251016","442-VK","2017/12/02 18:39:40","新北市淡水區下圭柔山84-1號","121.440388333333","25.2050066666667","6501000","淡水區"
"251001","559-UM","2017/12/02 18:39:36","新北市淡水區自強路415巷2號","121.46548","25.1342083333333","6501000","淡水區"
"251006","561-UM","2017/12/02 18:39:43","新北市淡水區中山北路一段156號","121.44393","25.178075","6501000","淡水區"
"251011","650-BX","2017/12/02 18:39:44","新北市淡水區鄧公路36巷3號","121.457156666667","25.1690033333333","6501000","淡水區"
"251002","672-BX","2017/12/02 18:39:40","新北市淡水區中正東路一段3巷14弄1號","121.450918333333","25.16417","6501000","淡水區"
"251003","673-BX","2017/12/02 18:39:50","新北市淡水區中山北路一段212巷38號","121.44608","25.1790383333333","6501000","淡水區"
"207003","550-UM","2017/12/02 18:39:38","新北市萬里區野柳里八斗60號","121.66614","25.2050366666667","6502800","萬里區"
"207004","225-TW","2017/12/02 18:39:35","新北市萬里區萬里里獅頭路10-1號","121.692033333333","25.1786616666667","6502800","萬里區"
"252003","249-BX","2017/12/02 18:39:32","新北市三芝區後厝里土地公坑54-17號","121.465966666667","25.2495583333333","6502100","三芝區"
"252001","292-VK","2017/12/02 18:39:45","新北市三芝區埔頭里埔頭14號","121.500521666667","25.2540833333333","6502100","三芝區"
"252002","AAC-283","2017/12/02 18:39:45","新北市三芝區民生街64巷9號","121.503558333333","25.2551733333333","6502100","三芝區"
"237004","078-UY","2017/12/02 18:39:38","新北市三峽區五寮61號","121.36093","24.8602216666667","6500900","三峽區"
"237007","153-BY","2017/12/02 18:39:47","新北市三峽區中正路三段242號","121.341626666667","24.9021683333333","6500900","三峽區"
"237009","210-TH","2017/12/02 18:39:40","新北市三峽區民權街160號","121.36819","24.9309183333333","6500900","三峽區"
"237013","252-BX","2017/12/02 18:39:42","新北市三峽區光明路69巷25號","121.376745","24.929215","6500900","三峽區"
"237012","275-BY","2017/12/02 18:39:49","新北市三峽區三樹路330號","121.381865","24.9441083333333","6500900","三峽區"
"237008","302-VK","2017/12/02 18:39:40","新北市三峽區白雞115-16號","121.401325","24.906345","6500900","三峽區"
"237014","433-BY","2017/12/02 18:39:46","新北市三峽區復興路485號","121.361485","24.9386533333333","6500900","三峽區"
"237006","5529-G3","2017/12/02 18:39:37","新北市三峽區溪東路315巷108號","121.412103333333","24.9315783333333","6500900","三峽區"
"237011","572-TV","2017/12/02 18:06:33","新北市三峽區橫溪路1號","121.396031666667","24.936175","6500900","三峽區"
"237016","649-BX","2017/12/02 18:39:45","新北市三峽區成福路295號","121.428768333333","24.9235766666667","6500900","三峽區"
"237010","706-TV","2017/12/02 18:39:34","新北市三峽區復興路317號","121.364896666667","24.9387566666667","6500900","三峽區"
"237005","AKY-6261","2017/12/02 18:39:49","新北市三峽區新興街8號","121.372605","24.93582","6500900","三峽區"
"236073","105-UM","2017/12/02 18:39:37","新北市土城區永豐路157巷29弄6-1號","121.468483333333","24.9814433333333","6501300","土城區"
"236043","107-UM","2017/12/02 18:39:51","新北市土城區裕民路55巷19弄3號","121.44919","24.9885333333333","6501300","土城區"
"236079","166-UM","2017/12/02 18:39:37","新北市土城區中央路四段54巷3號","121.419768333333","24.9607533333333","6501300","土城區"
"236031","253-BX","2017/12/02 18:39:44","新北市土城區福仁街79號","121.439305","24.9741066666667","6501300","土城區"
"236027","269-VK","2017/12/02 18:39:31","新北市土城區金城路一段56號","121.442461666667","24.9706966666667","6501300","土城區"
"236015","270-VK","2017/12/02 18:39:53","新北市土城區清水路207巷11號","121.4599","24.9823983333333","6501300","土城區"
"236038","271-VK","2017/12/02 18:39:43","新北市土城區明德路一段291巷11弄18號","121.460871666667","24.9760383333333","6501300","土城區"
"236023","401-BY","2017/12/02 18:39:47","新北市土城區延吉街299號","121.46673","24.9846316666667","6501300","土城區"
"236059","912-UM","2017/12/02 18:39:39","新北市土城區中央路四段138號","121.417443333333","24.9585533333333","6501300","土城區"
"236049","913-UM","2017/12/02 18:39:39","新北市土城區明德路一段28號","121.465115","24.98477","6501300","土城區"
"236063","915-UM","2017/12/02 18:39:49","新北市土城區延和路177巷28號","121.470303333333","24.9909783333333","6501300","土城區"
"236055","AAC-216","2017/12/02 18:39:24","新北市土城區中華路一段23號","121.446976666667","24.9890916666667","6501300","土城區"
"242029","986-R7","2017/12/02 18:39:47","新北市新莊區新泰路357巷3弄57號","121.442068333333","25.0396466666667","6500500","新莊區"
"242061","362-BY","2017/12/02 18:39:35","新北市新莊區民安東路1號","121.427475","25.0210566666667","6500500","新莊區"
"242058","353-BY","2017/12/02 18:39:38","新北市新莊區中正路887-5號","121.416743333333","25.02457","6500500","新莊區"
"242011","351-TH","2017/12/02 18:39:41","新北市新莊區環河路48-7號","121.43659","25.01011","6500500","新莊區"
"238015","755-BX","2017/12/02 18:39:44","新北市樹林區復興路390巷13號","121.414531666667","24.9857783333333","6500700","樹林區"
"238023","601-UM","2017/12/02 18:39:43","新北市樹林區三福街114號","121.406503333333","25.0164233333333","6500700","樹林區"
"238019","599-UM","2017/12/02 18:39:32","新北市樹林區中華路190-16號","121.411705","24.9806","6500700","樹林區"
"238018","571-TV","2017/12/02 18:39:31","新北市樹林區樹新路86號","121.429401666667","24.9974933333333","6500700","樹林區"
"238024","5061-A6","2017/12/02 18:39:34","新北市樹林區太順街79巷5號","121.41704","24.9780666666667","6500700","樹林區"
"238025","303-VK","2017/12/02 18:39:33","新北市樹林區中山路三段22號","121.395621666667","24.972915","6500700","樹林區"
"238017","283-BY","2017/12/02 18:39:30","新北市樹林區光興街44號","121.409876666667","25.0027716666667","6500700","樹林區"
"238014","282-BY","2017/12/02 18:39:36","新北市樹林區大安路111巷11號","121.423125","24.99764","6500700","樹林區"
"238020","268-VK","2017/12/02 18:39:37","新北市樹林區俊安街25號","121.419925","25.0133766666667","6500700","樹林區"
"238026","172-UY","2017/12/02 18:39:38","新北市樹林區育德街78-1號","121.387435","24.9681066666667","6500700","樹林區"
"238016","169-UY","2017/12/02 18:39:34","新北市樹林區文化街22號","121.419496666667","24.9876116666667","6500700","樹林區"
"239007","AAC-297","2017/12/02 18:39:43","新北市鶯歌區中山路130號","121.350256666667","24.9570783333333","6500800","鶯歌區"
"239006","891-R6","2017/12/02 18:39:42","新北市鶯歌區鶯桃路296巷57號","121.335911666667","24.9613216666667","6500800","鶯歌區"
"239008","527-UM","2017/12/02 18:39:35","新北市鶯歌區國際一路179號","121.336255","24.9764866666667","6500800","鶯歌區"
"239005","526-UM","2017/12/02 18:39:32","新北市鶯歌區鳳吉一街48號","121.326183333333","24.9739416666667","6500800","鶯歌區"
"239001","417-VK","2017/12/02 18:39:33","新北市鶯歌區中正三路189號","121.335856666667","24.9392283333333","6500800","鶯歌區"
"239003","360-BY","2017/12/02 18:39:47","新北市鶯歌區永和街200號","121.33652","24.9709366666667","6500800","鶯歌區"
"239002","359-BY","2017/12/02 18:39:31","新北市鶯歌區中山路300號","121.342895","24.9570516666667","6500800","鶯歌區"
"239004","193-VK","2017/12/02 18:39:43","新北市鶯歌區中正三路156巷59號","121.332815","24.9404916666667","6500800","鶯歌區"
"221008","489-VK","2017/12/02 18:31:03","新北市汐止區康寧街901號","121.651343333333","25.074985","6501100","汐止區"
"221036","130-UY","2017/12/02 18:39:40","新北市汐止區大同路二段553號","121.662378333333","25.0694833333333","6501100","汐止區"
"221010","269-BY","2017/12/02 18:39:36","新北市汐止區汐萬路三段213號","121.642673333333","25.1005266666667","6501100","汐止區"
"221012","276-VK","2017/12/02 13:23:05","新北市汐止區汐萬路一段256巷3號","121.653466666667","25.0746616666667","6501100","汐止區"
"221012","278-VK","2017/12/02 18:39:31","新北市汐止區保長路13號","121.671666666667","25.0798283333333","6501100","汐止區"
"221023","279-VK","2017/12/02 18:39:43","新北市汐止區康寧街518-1號","121.633998333333","25.06881","6501100","汐止區"
"221032","280-BY","2017/12/02 18:39:45","新北市汐止區福山街58巷9號","121.617935","25.0460866666667","6501100","汐止區"
"221027","281-BY","2017/12/02 18:39:49","新北市汐止區康寧街901號","121.650816666667","25.075305","6501100","汐止區"
"221029","298-VK","2017/12/02 18:39:39","新北市汐止區樟樹一路138號","121.642358333333","25.06491","6501100","汐止區"
"221021","299-VK","2017/12/02 18:39:37","新北市汐止區連興街120號","121.653798333333","25.0624016666667","6501100","汐止區"
"221031","353-TW","2017/12/02 18:39:33","新北市汐止區福德一路274號","121.632103333333","25.0639366666667","6501100","汐止區"
"221015","567-BX","2017/12/02 18:39:39","新北市汐止區鄉長路二段4號","121.668805","25.080735","6501100","汐止區"
"221035","622-UM","2017/12/02 18:39:41","新北市汐止區中正路316號","121.656005","25.0678766666667","6501100","汐止區"
"221025","623-UM","2017/12/02 18:39:41","新北市汐止區仁愛路119巷27號","121.661975","25.0644116666667","6501100","汐止區"
"221038","646-BX","2017/12/02 18:39:45","新北市汐止區康寧街901號","121.650771666667","25.0752283333333","6501100","汐止區"
"221033","647-BX","2017/12/02 18:39:48","新北市汐止區南勢街1巷2號","121.626985","25.0375283333333","6501100","汐止區"
"221002","707-TV","2017/12/02 18:39:51","新北市汐止區中興路39號","121.63462","25.0621633333333","6501100","汐止區"
"221018","753-BX","2017/12/02 18:39:31","新北市汐止區茄苳路255號","121.671901666667","25.068305","6501100","汐止區"
"220079","145-BY","2017/12/02 18:39:43","新北市板橋區南雅南路二段120號","121.45225","24.9996216666667","6500100","板橋區"
"220082","610-BX","2017/12/02 18:39:45","新北市板橋區篤行路一段18號","121.432091666667","24.994975","6500100","板橋區"
"220080","256-TC","2017/12/02 18:39:51","新北市板橋區華東街1-10號","121.448388333333","24.9949416666667","6500100","板橋區"
"220056","276-BY","2017/12/02 18:39:47","新北市板橋區南雅南路二段49號","121.451476666667","24.9944033333333","6500100","板橋區"
"220072","277-BY","2017/12/02 18:39:40","新北市板橋區大觀路三段50巷49號","121.432205","24.9958266666667","6500100","板橋區"
"220071","283-VK","2017/12/02 18:39:37","新北市板橋區四川路二段橋頭6號","121.44831","24.9940183333333","6500100","板橋區"
"220094","285-UM","2017/12/02 18:39:38","新北市板橋區民生路二段161巷9號","121.470225","25.0196066666667","6500100","板橋區"
"220053","285-VK","2017/12/02 18:39:37","新北市板橋區民生路二段120號","121.47037","25.01978","6500100","板橋區"
"220083","286-VK","2017/12/02 18:39:42","新北市板橋區大觀路二段153巷46弄11號","121.449106666667","24.9984633333333","6500100","板橋區"
"220081","287-VK","2017/12/02 18:39:48","新北市板橋區大觀路二段266號","121.448701666667","24.9971983333333","6500100","板橋區"
"220061","293-UM","2017/12/02 18:39:39","新北市板橋區民生路二段120號","121.470408333333","25.01968","6500100","板橋區"
"220084","296-UM","2017/12/02 18:39:45","新北市板橋區大觀路二段11-12號","121.448275","24.996735","6500100","板橋區"
"220075","297-UM","2017/12/02 18:39:34","新北市板橋區南雅南路二段120-12號","121.452171666667","24.9994183333333","6500100","板橋區"
"220064","486-VK","2017/12/02 18:39:36","新北市板橋區民生路二段56-4號","121.471813333333","25.0171666666667","6500100","板橋區"
"220035","560-BX","2017/12/02 18:39:50","新北市板橋區南雅西路二段145巷10號","121.45157","25.0119383333333","6500100","板橋區"
"220063","609-BX","2017/12/02 15:18:45","新北市板橋區民生路二段179號","121.469833333333","25.0203383333333","6500100","板橋區"
"220077","687-BX","2017/12/02 18:39:41","新北市板橋區大觀路二段443-2號","121.441023333333","24.995225","6500100","板橋區"
"220055","827-TW","2017/12/02 18:39:38","新北市板橋區華東街1-9號","121.44815","24.9948966666667","6500100","板橋區"
"220067","829-TW","2017/12/02 18:39:44","新北市板橋區民生路二段120號","121.470411666667","25.019585","6500100","板橋區"
"220074","895-R6","2017/12/02 18:39:51","新北市板橋區南雅南路二段130號","121.452025","24.996755","6500100","板橋區"
"220097","AAC-210","2017/12/02 18:39:47","新北市板橋區民生路二段161巷5號","121.47022","25.0197283333333","6500100","板橋區"
