"lineid","car","time","location","longitude","latitude","cityid","cityname"
"234046","148-BY","2017/12/02 19:19:52","新北市永和區得和路336號","121.523465","24.9995366666667","6500400","永和區"
"234013","149-BY","2017/12/02 19:19:36","新北市永和區保福路二段62-1號","121.510795","25.01248","6500400","永和區"
"234007","207-UY","2017/12/02 19:19:53","新北市永和區中山路一段230號","121.508013333333","25.00813","6500400","永和區"
"234081","298-R6","2017/12/02 19:19:36","新北市永和區福和路7巷11弄4號","121.52552","25.0073216666667","6500400","永和區"
"234038","336-UY","2017/12/02 19:19:37","新北市永和區民樂街64號","121.527356666667","24.99877","6500400","永和區"
"234064","337-UY","2017/12/02 19:19:50","新北市永和區永元路17巷6弄2號","121.52133","25.0006933333333","6500400","永和區"
"234086","338-UY","2017/12/02 19:19:53","新北市永和區永利路82號","121.520573333333","25.0039916666667","6500400","永和區"
"234070","552-UM","2017/12/02 19:19:52","新北市永和區中正路700號","121.516315","25.0098316666667","6500400","永和區"
"234054","553-UM","2017/12/02 19:19:44","新北市永和區中興街43號","121.516316666667","25.0117866666667","6500400","永和區"
"234017","745-BX","2017/12/02 19:19:49","新北市永和區文化路144巷27號","121.512453333333","25.0167366666667","6500400","永和區"
"234030","746-BX","2017/12/02 19:19:38","新北市永和區厚德街89號","121.523958333333","24.9988333333333","6500400","永和區"
"234061","AAD-866","2017/12/02 19:19:46","新北市永和區秀朗路一段175號","121.51705","25.0036483333333","6500400","永和區"
"234042","862-TW","2017/12/02 19:19:54","新北市永和區保平路151巷6弄11號","121.509795","25.0050066666667","6500400","永和區"
"234050","863-TW","2017/12/02 19:19:46","新北市永和區保福路二段88巷28號","121.51199","25.01355","6500400","永和區"
"234026","9371-KE","2017/12/02 19:19:49","新北市永和區得和路42巷23號","121.515333333333","24.9996416666667","6500400","永和區"
"234011","9373-KE","2017/12/02 19:19:52","新北市永和區中山路一段93號","121.511403333333","25.0106983333333","6500400","永和區"
"249001","173-UM","2017/12/02 19:19:39","新北市八里區中華路二段103-1號","121.40921","25.1523183333333","6502300","八里區"
"249003","759-BX","2017/12/02 19:19:42","新北市八里區中山路二段452號","121.399318333333","25.1476916666667","6502300","八里區"
"248020","225-UY","2017/12/02 19:00:29","新北市五股區凌雲路三段57號","121.425281666667","25.1250083333333","6501500","五股區"
"248012","247-BX","2017/12/02 19:19:41","新北市五股區中興路四段48巷16號","121.438623333333","25.0834166666667","6501500","五股區"
"248010","272-BY","2017/12/02 19:19:56","新北市五股區水碓一路23號","121.430606666667","25.07128","6501500","五股區"
"248004","677-BX","2017/12/02 19:19:43","新北市五股區五福路11-6號","121.434211666667","25.0887283333333","6501500","五股區"
"248002","678-BX","2017/12/02 19:19:41","新北市五股區凌雲路一段158巷6號","121.447825","25.1030366666667","6501500","五股區"
"234023","9380-KE","2017/12/02 19:19:54","新北市永和區竹林路105號","121.519816666667","25.011865","6500400","永和區"
"234077","969-R7","2017/12/02 19:19:54","新北市永和區民治街72巷12號","121.518191666667","24.9986566666667","6500400","永和區"
"234074","AAC-211","2017/12/02 19:19:43","新北市永和區竹林路100-1號","121.519671666667","25.0119983333333","6500400","永和區"
"234067","AAC-212","2017/12/02 19:19:35","新北市永和區保平路30巷10號","121.511736666667","25.0075833333333","6500400","永和區"
"234003","AAC-295","2017/12/02 19:19:49","新北市永和區永平路186-1號","121.510375","25.00928","6500400","永和區"
"244013","069-UM","2017/12/02 19:19:50","新北市林口區麗園一街4巷2號","121.376373333333","25.0706583333333","6501700","林口區"
"244019","403-UM","2017/12/02 19:19:47","新北市林口區麗園二街87號","121.382671666667","25.0667933333333","6501700","林口區"
"244023","483-VK","2017/12/02 19:19:41","新北市林口區民富街99號","121.3704","25.0752466666667","6501700","林口區"
"244011","656-BX","2017/12/02 19:19:38","新北市林口區中正路321號","121.388666666667","25.0776916666667","6501700","林口區"
"243011","267-VK","2017/12/02 19:19:48","新北市泰山區中央路7巷2號","121.426463333333","25.0432366666667","6501600","泰山區"
"243012","AAD-798","2017/12/02 19:19:44","新北市泰山區仁愛路100巷7號","121.433401666667","25.0552516666667","6501600","泰山區"
"243009","297-R6","2017/12/02 19:19:50","新北市泰山區和平街9-2號","121.434153333333","25.064605","6501600","泰山區"
"243015","380-SR","2017/12/02 19:19:42","新北市泰山區公園路67號","121.426471666667","25.055345","6501600","泰山區"
"243014","421-VK","2017/12/02 19:19:47","新北市泰山區泰林路二段152號","121.43406","25.0600433333333","6501600","泰山區"
"243010","KEA-2215","2017/12/02 19:19:46","新北市泰山區明志路一段480號","121.430168333333","25.05483","6501600","泰山區"
"243013","646-TV","2017/12/02 19:19:43","新北市泰山區明志路三段145巷2弄15號","121.425095","25.03943","6501600","泰山區"
"243016","680-BX","2017/12/02 19:19:55","新北市泰山區明志路三段142巷2號","121.42463","25.0398516666667","6501600","泰山區"
"222003","436-BY","2017/12/02 19:19:52","新北市深坑區深南路204號","121.626631666667","25.01603","6501800","深坑區"
"222002","659-BX","2017/12/02 19:19:39","新北市深坑區北深路一段177號","121.63257","25.0108866666667","6501800","深坑區"
"231041","001-UM","2017/12/02 19:19:42","新北市新店區溪園路245-6號","121.525445","24.98332","6500600","新店區"
"231059","046-UY","2017/12/02 19:19:55","新北市新店區安和路三段7號","121.518061666667","24.9805666666667","6500600","新店區"
"231061","047-UY","2017/12/02 19:19:53","新北市新店區安康路一段323-3號","121.521135","24.963905","6500600","新店區"
"231060","106-UY","2017/12/02 19:19:40","新北市新店區安康路二段106號","121.513375","24.9629383333333","6500600","新店區"
"231051","107-UY","2017/12/02 19:19:45","新北市新店區中央路99號","121.531088333333","24.9750933333333","6500600","新店區"
"231048","108-UY","2017/12/02 19:19:51","新北市新店區五峰路70巷1號","121.546321666667","24.9680633333333","6500600","新店區"
"231052","187-VK","2017/12/02 19:19:50","新北市新店區自強路221號","121.54694","24.9192433333333","6500600","新店區"
"231050","KEA-2219","2017/12/02 19:19:49","新北市新店區竹林路157號","121.555938333333","24.9485883333333","6500600","新店區"
"231063","268-BY","2017/12/02 19:19:38","新北市新店區達觀路14巷8號","121.503208333333","24.9432383333333","6500600","新店區"
"231046","278-BY","2017/12/02 19:19:39","新北市新店區華城路36巷1-1號","121.528505","24.95535","6500600","新店區"
"231054","AAD-862","2017/12/02 19:19:45","新北市新店區國校路45-1號","121.537911666667","24.9549516666667","6500600","新店區"
"231058","3712-VJ","2017/12/02 19:19:47","新北市新店區北新路一段100號","121.542133333333","24.9694883333333","6500600","新店區"
"231055","4716-K9","2017/12/02 19:19:51","新北市新店區安德街148巷31號","121.505845","24.9604133333333","6500600","新店區"
"231067","4772-VM","2017/12/02 19:19:53","新北市新店區柴埕路52巷3號","121.511833333333","24.9644416666667","6500600","新店區"
"231049","513-UM","2017/12/02 19:19:38","新北市新店區明德路111號","121.541545","24.9794516666667","6500600","新店區"
"231064","515-UM","2017/12/02 19:19:47","新北市新店區安忠路57巷26弄3號","121.513058333333","24.958705","6500600","新店區"
"231042","616-UM","2017/12/02 19:19:37","新北市新店區北宜路一段3號","121.538403333333","24.9585133333333","6500600","新店區"
"231045","617-UM","2017/12/02 19:19:40","新北市新店區北宜路一段260號","121.545703333333","24.9527883333333","6500600","新店區"
"231040","619-UM","2017/12/02 19:19:42","新北市新店區三民路31-10號","121.537758333333","24.9704883333333","6500600","新店區"
"231065","719-UY","2017/12/02 19:19:46","新北市新店區安祥路110巷28號","121.473963333333","24.9559933333333","6500600","新店區"
"231062","720-UM","2017/12/02 19:19:45","新北市新店區莒光路99號","121.521928333333","24.95348","6500600","新店區"
"231044","897-TW","2017/12/02 19:19:38","新北市新店區中興路三段301號","121.542161666667","24.9852883333333","6500600","新店區"
"231043","899-TW","2017/12/02 19:19:51","新北市新店區北新路二段135號","121.542871666667","24.97551","6500600","新店區"
"231066","AKT-0513","2017/12/02 19:19:45","新北市新店區安康路三段355巷24號","121.484898333333","24.949755","6500600","新店區"
"241009","060-VK","2017/12/02 19:19:50","新北市三重區溪尾街230巷40號","121.486316666667","25.08114","6500200","三重區"
"241031","061-VK","2017/12/02 19:19:44","新北市三重區重新路四段95號","121.485876666667","25.0550216666667","6500200","三重區"
"241017","063-VK","2017/12/02 19:19:44","新北市三重區大同北路215號","121.491766666667","25.06606","6500200","三重區"
"241026","066-VK","2017/12/02 19:19:41","新北市三重區中正南路216號","121.49373","25.055115","6500200","三重區"
"241022","267-UM","2017/12/02 19:19:47","新北市三重區中正北路56號","121.487033333333","25.0643933333333","6500200","三重區"
"241032","269-UM","2017/12/02 19:19:41","新北市三重區新生街101號","121.483168333333","25.05932","6500200","三重區"
"241025","271-UM","2017/12/02 19:19:42","新北市三重區中正北路408巷4號","121.47532","25.0702633333333","6500200","三重區"
"241007","398-BY","2017/12/02 19:19:42","新北市三重區慈愛街49號","121.486068333333","25.0790816666667","6500200","三重區"
"241030","KEA-2210","2017/12/02 19:19:46","新北市三重區成功路41巷72號","121.491386666667","25.0532416666667","6500200","三重區"
"241020","413-TH","2017/12/02 19:19:55","新北市三重區大智街256號","121.489173333333","25.073395","6500200","三重區"
"241006","AAD-863","2017/12/02 19:19:51","新北市三重區力行路二段145號","121.483625","25.0772816666667","6500200","三重區"
"241035","743-BX","2017/12/02 19:19:48","新北市三重區重新路三段82號","121.493115","25.0610466666667","6500200","三重區"
"241029","942-UM","2017/12/02 19:19:55","新北市三重區重安街27號","121.491168333333","25.05703","6500200","三重區"
"235066","003-UY","2017/12/02 19:19:46","新北市中和區景新街2號","121.502635","24.9996533333333","6500300","中和區"
"235063","006-UY","2017/12/02 19:19:51","新北市中和區連勝街145號","121.4946","24.9961283333333","6500300","中和區"
"235056","096-UM","2017/12/02 19:19:53","新北市中和區中正路1163號","121.481761666667","25.0090833333333","6500300","中和區"
"235039","097-UM","2017/12/02 19:19:55","新北市中和區景平路64巷13弄3-1號","121.521946666667","24.99128","6500300","中和區"
"235065","098-UM","2017/12/02 19:19:53","新北市中和區中山路二段136巷6弄8號","121.5022","25.00406","6500300","中和區"
"235040","150-BY","2017/12/02 19:19:51","新北市中和區保健路48巷45號","121.50949","24.9962366666667","6500300","中和區"
"235058","151-BY","2017/12/02 19:19:38","新北市中和區連城路477巷6弄38號","121.482256666667","24.9949983333333","6500300","中和區"
"235055","183-VK","2017/12/02 19:19:48","新北市中和區德光路35號","121.470568333333","25.0040883333333","6500300","中和區"
"235038","185-VK","2017/12/02 19:19:44","新北市中和區大仁街21號","121.51774","24.9931966666667","6500300","中和區"
"235049","186-VK","2017/12/02 19:19:52","新北市中和區景新街239號","121.508166666667","24.99449","6500300","中和區"
"235067","255-BX","2017/12/02 19:19:45","新北市中和區新生街150號","121.483578333333","25.0005983333333","6500300","中和區"
"235044","293-VK","2017/12/02 19:19:46","新北市中和區中興街237巷2號","121.500598333333","24.9893883333333","6500300","中和區"
"235072","301-VK","2017/12/02 19:19:53","新北市中和區連城路211號","121.494436666667","24.99786","6500300","中和區"
"235043","352-BY","2017/12/02 19:19:56","新北市中和區景平路404號","121.508978333333","24.9931783333333","6500300","中和區"
"235068","377-QA","2017/12/02 19:19:51","新北市中和區圓通路158巷1弄9號","121.497243333333","24.9960583333333","6500300","中和區"
"235061","378-QA","2017/12/02 19:19:43","新北市中和區員山路394巷12弄7號","121.481418333333","25.00404","6500300","中和區"
"235071","269-TV","2017/12/02 19:19:45","新北市中和區連城路469巷41號","121.483518333333","24.9944","6500300","中和區"
"235050","4979-A6","2017/12/02 19:19:37","新北市中和區景安路208巷16號","121.503263333333","24.991365","6500300","中和區"
"235069","4980-A6","2017/12/02 19:19:49","新北市中和區福美路301巷15號","121.497573333333","25.004275","6500300","中和區"
"235042","551-UM","2017/12/02 19:19:40","新北市中和區大勇街60巷17號","121.518683333333","24.99476","6500300","中和區"
"235070","558-UM","2017/12/02 19:19:55","新北市中和區中和路33號","121.499958333333","25.001695","6500300","中和區"
"235045","565-BX","2017/12/02 19:19:50","新北市中和區景新街423巷34號","121.514638333333","24.989725","6500300","中和區"
"235054","640-BX","2017/12/02 19:19:43","新北市中和區民德路105號","121.468813333333","25.000795","6500300","中和區"
"235060","647-TV","2017/12/02 19:19:39","新北市中和區中山路三段37巷39號","121.479673333333","25.0046483333333","6500300","中和區"
"235047","732-UM","2017/12/02 19:19:48","新北市中和區景平路239巷32號","121.50851","24.9921733333333","6500300","中和區"
"235046","733-UM","2017/12/02 19:19:35","新北市中和區忠孝街2巷8-2號","121.510376666667","24.9819083333333","6500300","中和區"
"235057","801-TS","2017/12/02 19:19:55","新北市中和區員山路202號","121.48129","25.0006216666667","6500300","中和區"
"235041","802-TS","2017/12/02 19:19:40","新北市中和區中和路298號","121.508648333333","24.9998366666667","6500300","中和區"
"235052","805-TS","2017/12/02 19:19:38","新北市中和區興南路二段128巷1弄3號","121.503941666667","24.98357","6500300","中和區"
"235048","896-TW","2017/12/02 19:19:41","新北市中和區忠孝街99-1號","121.512028333333","24.985925","6500300","中和區"
"235053","900-TW","2017/12/02 19:19:53","新北市中和區華安街21巷2號","121.46742","24.9974883333333","6500300","中和區"
"235064","911-UM","2017/12/02 19:19:40","新北市中和區中和路30號","121.499841666667","25.0017716666667","6500300","中和區"
"235037","157-BY","2017/12/02 19:19:52","新北市中和區和平街54巷8弄15號","121.50956","24.99157","6500300","中和區"
"235037","AAC-213","2017/12/02 19:19:45","新北市中和區秀朗路三段50巷29弄1號","121.524073333333","24.995145","6500300","中和區"
"235059","AAC-215","2017/12/02 19:19:38","新北市中和區圓通路286巷10號","121.491501666667","24.9912033333333","6500300","中和區"
"220068","013-TV","2017/12/02 19:19:29","新北市板橋區翠華街6巷11號","121.480885","25.0239933333333","6500100","板橋區"
"220065","072-UY","2017/12/02 19:19:51","新北市板橋區民族路129巷10號","121.467661666667","25.0084616666667","6500100","板橋區"
"220086","073-UY","2017/12/02 19:19:47","新北市板橋區中正路216巷50號","121.4574","25.0187833333333","6500100","板橋區"
"220106","075-UY","2017/12/02 19:19:57","新北市板橋區雙十路三段68巷2號","121.470521666667","25.0320066666667","6500100","板橋區"
"220069","AAD-861","2017/12/02 19:19:45","新北市板橋區華興街21巷18號","121.458573333333","25.0037066666667","6500100","板橋區"
"220102","120-SR","2017/12/02 19:19:47","新北市板橋區松柏街70巷20號","121.476533333333","25.0301033333333","6500100","板橋區"
"247004","336-TH","2017/12/02 19:19:40","新北市蘆洲區長榮路522號","121.459606666667","25.0901683333333","6501400","蘆洲區"
"226004","312-R5","2017/12/02 19:19:44","新北市平溪區十分里十分街106號","121.77676","25.0429683333333","6502400","平溪區"
"228003","097-TW","2017/12/02 19:19:48","新北市貢寮區和美里和美街23號","121.913046666667","25.0826033333333","6502600","貢寮區"
"228001","212-TW","2017/12/02 19:19:50","新北市貢寮區真理里新港街26巷6-3號","121.925673333333","25.0546116666667","6502600","貢寮區"
"228002","585-TW","2017/12/02 19:19:36","新北市貢寮區雙玉里田寮洋街21號","121.926386666667","25.0254166666667","6502600","貢寮區"
"224010","AGQ-8101","2017/12/02 19:19:26","新北市瑞芳區基山街119號","121.844306666667","25.10858","6501200","瑞芳區"
"224006","676-BX","2017/12/02 19:19:43","新北市瑞芳區中山路225號","121.800608333333","25.1068766666667","6501200","瑞芳區"
"224008","275-VK","2017/12/02 19:19:45","新北市瑞芳區明燈路三段231號","121.799935","25.1114416666667","6501200","瑞芳區"
"224005","271-BY","2017/12/02 19:19:43","新北市瑞芳區國中新村19號","121.817423333333","25.1071066666667","6501200","瑞芳區"
"227002","642-TC","2017/12/02 19:19:56","新北市雙溪區平林里梅竹蹊66-1號","121.860166666667","25.0358133333333","6502500","雙溪區"
"227010","400-TW","2017/12/02 19:19:43","新北市雙溪區新基里新基北街40號","121.868535","25.0380383333333","6502500","雙溪區"
"253005","032-BX","2017/12/02 19:19:43","新北市石門區阿里荖15號","121.607958333333","25.28043","6502200","石門區"
"253006","295-VK","2017/12/02 19:19:45","新北市石門區崁子腳27號","121.53576","25.2914966666667","6502200","石門區"
"222001","KEA-2212","2017/12/02 19:19:45","新北市深坑區北深路二段103號","121.617533333333","25.0034733333333","6501800","深坑區"
"208002","742-BX","2017/12/02 19:19:46","新北市金山區環金路376巷1號","121.63207","25.2222366666667","6502700","金山區"
"208003","665-BX","2017/12/02 19:19:42","新北市金山區中山路173號","121.63861","25.2207416666667","6502700","金山區"
"208001","761-BX","2017/12/02 19:19:55","新北市金山區慈護街35號","121.639393333333","25.2198383333333","6502700","金山區"
"251009","008-UM","2017/12/02 19:19:52","新北市淡水區中山北路一段6號","121.44156","25.174625","6501000","淡水區"
"251005","010-UM","2017/12/02 19:19:49","新北市淡水區水源街一段27巷1-5號","121.443203333333","25.1725516666667","6501000","淡水區"
"251014","180-VK","2017/12/02 19:19:46","新北市淡水區小中寮19-7號","121.484753333333","25.229625","6501000","淡水區"
"251010","413-VK","2017/12/02 19:19:43","新北市淡水區沙崙路27號","121.421295","25.1817133333333","6501000","淡水區"
"251016","442-VK","2017/12/02 19:19:40","新北市淡水區下圭柔山119-51號","121.450783333333","25.2084116666667","6501000","淡水區"
"251001","559-UM","2017/12/02 19:19:36","新北市淡水區自強路201巷39號","121.462111666667","25.1268066666667","6501000","淡水區"
"251007","577-R6","2017/12/02 19:19:39","新北市淡水區民生路117巷26號","121.464955","25.139445","6501000","淡水區"
"251003","673-BX","2017/12/02 19:19:50","新北市淡水區大義街3號","121.443856666667","25.177995","6501000","淡水區"
"207003","550-UM","2017/12/02 19:19:38","新北市萬里區大鵬里萬里加投79-3號","121.64735","25.2123666666667","6502800","萬里區"
"207004","225-TW","2017/12/02 19:19:55","新北市萬里區萬里里瑪鋉路6號","121.687625","25.1750883333333","6502800","萬里區"
"252003","249-BX","2017/12/02 19:19:52","新北市三芝區中興街一段2號","121.497428333333","25.25977","6502100","三芝區"
"252001","292-VK","2017/12/02 19:19:45","新北市三芝區長勤街9巷11弄1號","121.501735","25.254905","6502100","三芝區"
"252002","AAC-283","2017/12/02 19:19:45","新北市三芝區淡金路二段18-1號","121.502691666667","25.2594933333333","6502100","三芝區"
"237004","078-UY","2017/12/02 19:19:38","新北市三峽區有木145號","121.444558333333","24.8489566666667","6500900","三峽區"
"237007","153-BY","2017/12/02 19:19:46","新北市三峽區二鬮路15號","121.363068333333","24.9143916666667","6500900","三峽區"
"237009","210-TH","2017/12/02 19:19:40","新北市三峽區民生街247號","121.370826666667","24.93481","6500900","三峽區"
"237013","252-BX","2017/12/02 19:19:42","新北市三峽區大同路39巷9號","121.377188333333","24.9276483333333","6500900","三峽區"
"237012","275-BY","2017/12/02 19:19:49","新北市三峽區三樹路222巷236弄8號","121.391513333333","24.9428633333333","6500900","三峽區"
"237008","302-VK","2017/12/02 19:19:40","新北市三峽區大同路41-5號","121.376373333333","24.9278933333333","6500900","三峽區"
"237014","433-BY","2017/12/02 19:19:46","新北市三峽區中山路299巷15弄15號","121.361461666667","24.93653","6500900","三峽區"
"237006","5529-G3","2017/12/02 19:19:37","新北市三峽區橫溪路99巷18-2號","121.400646666667","24.936035","6500900","三峽區"
"237011","572-TV","2017/12/02 19:10:11","新北市三峽區中正路一段106號","121.374201666667","24.9295566666667","6500900","三峽區"
"237016","649-BX","2017/12/02 19:19:45","新北市三峽區成福路319號","121.429813333333","24.923735","6500900","三峽區"
"237010","706-TV","2017/12/02 19:08:54","新北市三峽區復興路9號","121.374213333333","24.9360883333333","6500900","三峽區"
"237005","AKY-6261","2017/12/02 19:19:49","新北市三峽區中山路459巷52-1號","121.356443333333","24.93697","6500900","三峽區"
"236073","105-UM","2017/12/02 19:19:56","新北市土城區學成路8號","121.45342","24.986545","6501300","土城區"
"236079","166-UM","2017/12/02 19:11:37","新北市土城區龍泉路68-2號","121.420078333333","24.94283","6501300","土城區"
"236027","269-VK","2017/12/02 19:19:51","新北市土城區中央路二段61巷22號","121.443206666667","24.9787133333333","6501300","土城區"
"236015","270-VK","2017/12/02 19:19:53","新北市土城區廣福街5號","121.457286666667","24.9887816666667","6501300","土城區"
"236023","401-BY","2017/12/02 19:19:55","新北市土城區峰廷街3號","121.46909","24.9873583333333","6501300","土城區"
"236059","912-UM","2017/12/02 19:19:39","新北市土城區忠義路47號","121.440648333333","24.9694566666667","6501300","土城區"
"236049","913-UM","2017/12/02 19:19:39","新北市土城區明德路一段398-1號","121.45364","24.9790816666667","6501300","土城區"
"236063","915-UM","2017/12/02 19:19:47","新北市土城區金城路三段179號","121.469545","24.9886633333333","6501300","土城區"
"238015","755-BX","2017/12/02 19:18:51","新北市樹林區光明街38號","121.412048333333","24.9911216666667","6500700","樹林區"
"238023","601-UM","2017/12/02 19:19:43","新北市樹林區三興路70號","121.39335","25.0145366666667","6500700","樹林區"
"238019","599-UM","2017/12/02 19:19:52","新北市樹林區鎮前街347巷3弄27號","121.417441666667","24.9838316666667","6500700","樹林區"
"238018","571-TV","2017/12/02 19:19:51","新北市樹林區中華路172-3號","121.413916666667","24.98038","6500700","樹林區"
"238024","5061-A6","2017/12/02 19:19:53","新北市樹林區福德街48-6號","121.398996666667","24.9748933333333","6500700","樹林區"
"238021","KEA-2217","2017/12/02 19:19:50","新北市樹林區柑園街二段388巷8號","121.3674","24.9487983333333","6500700","樹林區"
"238022","KEA-2213","2017/12/02 19:19:37","新北市樹林區中華路275號","121.41756","24.98031","6500700","樹林區"
"238025","303-VK","2017/12/02 19:19:53","新北市樹林區大安路626號","121.411283333333","24.9826316666667","6500700","樹林區"
"238017","283-BY","2017/12/02 19:19:50","新北市樹林區光興街94號","121.40801","25.0035383333333","6500700","樹林區"
"238014","282-BY","2017/12/02 19:19:56","新北市樹林區保安二街67號","121.4246","24.99482","6500700","樹林區"
"238020","268-VK","2017/12/02 19:19:37","新北市樹林區俊英街133巷1弄1號","121.423983333333","25.0113233333333","6500700","樹林區"
"238026","172-UY","2017/12/02 19:19:52","新北市樹林區佳園路三段51號","121.387835","24.9533933333333","6500700","樹林區"
"238016","169-UY","2017/12/02 19:19:54","新北市樹林區復興路322巷10號","121.416","24.9870633333333","6500700","樹林區"
"239007","AAC-297","2017/12/02 19:18:43","新北市鶯歌區中山路138巷40號","121.351405","24.9600016666667","6500800","鶯歌區"
"239006","891-R6","2017/12/02 19:19:42","新北市鶯歌區鶯桃路91巷40弄2號","121.337703333333","24.95244","6500800","鶯歌區"
"239008","527-UM","2017/12/02 19:19:54","新北市鶯歌區國際二路4巷18號","121.339303333333","24.9735366666667","6500800","鶯歌區"
"239005","526-UM","2017/12/02 19:19:53","新北市鶯歌區中湖街79-1號","121.34812","24.9771016666667","6500800","鶯歌區"
"239001","417-VK","2017/12/02 19:19:53","新北市鶯歌區建國路586-1號","121.339573333333","24.9521983333333","6500800","鶯歌區"
"239003","360-BY","2017/12/02 19:19:47","新北市鶯歌區國華路56號","121.342361666667","24.955035","6500800","鶯歌區"
"239002","359-BY","2017/12/02 19:19:51","新北市鶯歌區湖山路56巷1號","121.339526666667","24.9756216666667","6500800","鶯歌區"
"239004","193-VK","2017/12/02 19:19:42","新北市鶯歌區中正三路248號","121.329818333333","24.9365416666667","6500800","鶯歌區"
"221008","489-VK","2017/12/02 19:19:56","新北市汐止區康寧街308號","121.626591666667","25.067215","6501100","汐止區"
"221036","130-UY","2017/12/02 19:19:40","新北市汐止區汐萬路一段312號","121.650448333333","25.0750583333333","6501100","汐止區"
"221010","269-BY","2017/12/02 19:19:36","新北市汐止區康寧街901號","121.651518333333","25.0750116666667","6501100","汐止區"
"221012","276-VK","2017/12/02 13:23:05","新北市汐止區汐萬路一段256巷3號","121.653466666667","25.0746616666667","6501100","汐止區"
"221012","278-VK","2017/12/02 19:19:51","新北市汐止區長江街73號","121.657108333333","25.07207","6501100","汐止區"
"221023","279-VK","2017/12/02 19:19:43","新北市汐止區康寧街901號","121.650983333333","25.0752","6501100","汐止區"
"221027","281-BY","2017/12/02 19:19:49","新北市汐止區汐萬路一段39號","121.654998333333","25.069","6501100","汐止區"
"221029","298-VK","2017/12/02 19:19:39","新北市汐止區康寧街901號","121.651658333333","25.07488","6501100","汐止區"
"221021","299-VK","2017/12/02 19:19:37","新北市汐止區康寧街901號","121.651395","25.0750833333333","6501100","汐止區"
"221031","353-TW","2017/12/02 19:19:53","新北市汐止區康寧街753巷2弄26號","121.640375","25.0746216666667","6501100","汐止區"
"221015","567-BX","2017/12/02 19:19:39","新北市汐止區汐萬路一段256巷1號","121.651748333333","25.074875","6501100","汐止區"
"221025","623-UM","2017/12/02 19:19:40","新北市汐止區汐萬路一段306號","121.650435","25.0745683333333","6501100","汐止區"
"221038","646-BX","2017/12/02 19:19:45","新北市汐止區康寧街901號","121.650803333333","25.0752566666667","6501100","汐止區"
"221033","647-BX","2017/12/02 19:19:48","新北市汐止區南勢街1巷1號","121.627003333333","25.037415","6501100","汐止區"
"221002","707-TV","2017/12/02 19:19:51","新北市汐止區大同路一段316號","121.637408333333","25.0587416666667","6501100","汐止區"
"221018","753-BX","2017/12/02 19:19:51","新北市汐止區康寧街901號","121.651566666667","25.07491","6501100","汐止區"
"220079","145-BY","2017/12/02 19:19:47","新北市板橋區民權路202巷13弄38號","121.4585","25.016365","6500100","板橋區"
"220082","610-BX","2017/12/02 19:19:44","新北市板橋區金門街322號","121.428573333333","24.9849733333333","6500100","板橋區"
"220101","245-BX","2017/12/02 19:19:52","新北市板橋區莒光路188號","121.474063333333","25.0226216666667","6500100","板橋區"
"220080","256-TC","2017/12/02 19:19:51","新北市板橋區大觀路二段1巷60號","121.45067","25.0035116666667","6500100","板橋區"
"220091","267-BY","2017/12/02 19:19:49","新北市板橋區文聖街153號","121.478608333333","25.02787","6500100","板橋區"
"220056","276-BY","2017/12/02 19:19:47","新北市板橋區信義路165號","121.45879","24.9922683333333","6500100","板橋區"
"220072","277-BY","2017/12/02 19:19:40","新北市板橋區篤行路二段161巷16-1號","121.429625","24.9873866666667","6500100","板橋區"
"220071","283-VK","2017/12/02 19:19:56","新北市板橋區大豐街111號","121.461273333333","25.0011033333333","6500100","板橋區"
"220094","285-UM","2017/12/02 19:19:38","新北市板橋區吳鳳路82號","121.46698","25.0312383333333","6500100","板橋區"
"220053","285-VK","2017/12/02 19:19:37","新北市板橋區永豐街146號","121.478128333333","25.0212216666667","6500100","板橋區"
"220083","286-VK","2017/12/02 19:19:44","新北市板橋區大觀路二段174巷166弄20號","121.442603333333","25.0030016666667","6500100","板橋區"
"220081","287-VK","2017/12/02 19:19:48","新北市板橋區南雅西路一段122號","121.452713333333","25.00668","6500100","板橋區"
"220090","288-VK","2017/12/02 19:19:48","新北市板橋區長江路一段106巷13弄28號","121.461151666667","25.029605","6500100","板橋區"
"220061","293-UM","2017/12/02 19:19:39","新北市板橋區中山路二段326號","121.48102","25.0195883333333","6500100","板橋區"
"220062","295-UM","2017/12/02 19:19:52","新北市板橋區三民路二段153巷30弄37號","121.481158333333","25.0145166666667","6500100","板橋區"
"220084","296-UM","2017/12/02 19:19:45","新北市板橋區溪北路81號","121.428315","24.9895133333333","6500100","板橋區"
"220075","297-UM","2017/12/02 19:19:54","新北市板橋區南雅西路二段301巷41弄33號","121.450081666667","25.0177716666667","6500100","板橋區"
"220092","299-UM","2017/12/02 19:19:55","新北市板橋區松江街51號","121.468596666667","25.0275366666667","6500100","板橋區"
"220098","317-R6","2017/12/02 19:19:45","新北市板橋區民有街89巷8弄1號","121.464236666667","25.0273416666667","6500100","板橋區"
"220064","486-VK","2017/12/02 19:19:56","新北市板橋區板新路15號","121.475051666667","25.0128433333333","6500100","板橋區"
"220089","487-VK","2017/12/02 19:19:52","新北市板橋區文化路一段479巷42號","121.467956666667","25.023075","6500100","板橋區"
"220088","491-VK","2017/12/02 19:19:50","新北市板橋區雙十路二段10-3號","121.476371666667","25.0268633333333","6500100","板橋區"
"220035","560-BX","2017/12/02 19:19:50","新北市板橋區瑞安街35號","121.455463333333","25.02283","6500100","板橋區"
"220103","561-BX","2017/12/02 19:19:54","新北市板橋區文化路一段188巷7弄14號","121.467543333333","25.019665","6500100","板橋區"
"220063","609-BX","2017/12/02 19:19:34","新北市板橋區中山路二段268號","121.479251666667","25.01849","6500100","板橋區"
"220057","686-BX","2017/12/02 19:19:51","新北市板橋區重慶路308巷8號","121.463395","24.9978","6500100","板橋區"
"220077","687-BX","2017/12/02 19:19:41","新北市板橋區僑中二街12巷2號","121.446758333333","25.01062","6500100","板橋區"
"220093","689-BX","2017/12/02 19:19:49","新北市板橋區文化路一段379號","121.467028333333","25.0215816666667","6500100","板橋區"
"220054","741-BX","2017/12/02 19:19:42","新北市板橋區校前街42號","121.46142","25.0032733333333","6500100","板橋區"
"220055","827-TW","2017/12/02 19:19:38","新北市板橋區館前東路156巷10號","121.464326666667","25.00723","6500100","板橋區"
"220067","829-TW","2017/12/02 19:19:44","新北市板橋區長安街138巷1弄46號","121.47379","25.0099433333333","6500100","板橋區"
"220096","831-TW","2017/12/02 19:19:39","新北市板橋區大同街26巷9號","121.47816","25.0269483333333","6500100","板橋區"
"220074","895-R6","2017/12/02 19:19:51","新北市板橋區中正路自強新村91-3號","121.454855","25.0135116666667","6500100","板橋區"
"220073","985-R7","2017/12/02 19:19:53","新北市板橋區新生街45號","121.457121666667","25.02104","6500100","板橋區"
"220097","AAC-210","2017/12/02 19:19:47","新北市板橋區幸福路56號","121.461133333333","25.0202066666667","6500100","板橋區"
"220070","AAC-253","2017/12/02 19:19:43","新北市板橋區忠孝路138號","121.463698333333","25.0022783333333","6500100","板橋區"
