"lineid","car","time","location","longitude","latitude","cityid","cityname"
"234046","148-BY","2017/12/02 19:51:41","新北市永和區永利路212號","121.523373333333","25.0025066666667","6500400","永和區"
"234013","149-BY","2017/12/02 19:51:37","新北市永和區仁愛路203號","121.509901666667","25.0125233333333","6500400","永和區"
"234007","207-UY","2017/12/02 19:51:33","新北市中和區保平路231號","121.507931666667","25.004395","6500400","永和區"
"234081","298-R6","2017/12/02 19:51:36","新北市永和區永利路81巷21號","121.522263333333","25.0038016666667","6500400","永和區"
"234038","336-UY","2017/12/02 19:51:49","新北市永和區成功路二段179-1號","121.526698333333","24.9967166666667","6500400","永和區"
"234064","337-UY","2017/12/02 19:51:50","新北市永和區中正路368巷27號","121.518523333333","25.0008016666667","6500400","永和區"
"234086","338-UY","2017/12/02 19:51:35","新北市永和區福和路278號","121.517861666667","25.0075566666667","6500400","永和區"
"234070","552-UM","2017/12/02 19:51:34","新北市永和區竹林路115號","121.51995","25.011685","6500400","永和區"
"234054","553-UM","2017/12/02 19:51:44","新北市永和區竹林路67巷20號","121.51952","25.0135616666667","6500400","永和區"
"234017","745-BX","2017/12/02 19:51:29","新北市永和區永和路二段310號","121.516133333333","25.0160983333333","6500400","永和區"
"234030","746-BX","2017/12/02 19:51:39","新北市永和區民生路47巷52號","121.52528","24.9978","6500400","永和區"
"234061","AAD-866","2017/12/02 19:51:46","新北市永和區中正路88號","121.513945","24.995325","6500400","永和區"
"234042","862-TW","2017/12/02 19:51:42","新北市永和區中和路305巷18弄1號","121.507583333333","25.0016966666667","6500400","永和區"
"234050","863-TW","2017/12/02 19:51:49","新北市永和區保安路154號","121.508293333333","25.0146366666667","6500400","永和區"
"234026","9371-KE","2017/12/02 19:51:29","新北市永和區水源街33巷5號","121.510871666667","25.00418","6500400","永和區"
"234011","9373-KE","2017/12/02 19:51:32","新北市永和區仁愛路352巷94號","121.501148333333","25.007995","6500400","永和區"
"249001","173-UM","2017/12/02 19:51:35","新北市八里區中華路二段252號","121.405388333333","25.1496483333333","6502300","八里區"
"249004","303-UY","2017/12/02 19:49:15","新北市八里區忠孝路423號","121.414686666667","25.16139","6502300","八里區"
"249002","305-UY","2017/12/02 19:51:36","新北市八里區頂寮二街35號","121.450205","25.125165","6502300","八里區"
"249003","759-BX","2017/12/02 19:51:42","新北市八里區中華路二段560巷17號","121.398473333333","25.1452016666667","6502300","八里區"
"248016","026-BX","2017/12/02 19:51:41","新北市五股區成泰路三段601巷9號","121.452056666667","25.1032316666667","6501500","五股區"
"248008","095-VK","2017/12/02 19:51:41","新北市五股區四維路153號","121.467643333333","25.0745633333333","6501500","五股區"
"248020","225-UY","2017/12/02 19:51:47","新北市五股區中直路23號","121.422471666667","25.1133416666667","6501500","五股區"
"248012","247-BX","2017/12/02 19:51:41","新北市五股區蓬萊路24號","121.433985","25.0798866666667","6501500","五股區"
"248014","261-SL","2017/12/02 19:51:49","新北市五股區五福路30號","121.434033333333","25.0890783333333","6501500","五股區"
"248010","272-BY","2017/12/02 19:51:36","新北市五股區登林路貿商巷2弄2號","121.430535","25.0696916666667","6501500","五股區"
"248004","677-BX","2017/12/02 19:51:43","新北市五股區成泰路一段194-2號","121.43566","25.0780916666667","6501500","五股區"
"248002","678-BX","2017/12/02 19:51:41","新北市五股區成泰路三段651號","121.45261","25.10579","6501500","五股區"
"234077","969-R7","2017/12/02 19:51:34","新北市永和區民治街97巷7號","121.516873333333","24.9981533333333","6500400","永和區"
"234074","AAC-211","2017/12/02 19:51:43","新北市永和區豫溪街136巷5號","121.521331666667","25.0099466666667","6500400","永和區"
"234067","AAC-212","2017/12/02 19:51:35","新北市永和區中山路一段255巷20號","121.50834","25.0071066666667","6500400","永和區"
"234003","AAC-295","2017/12/02 19:51:49","新北市永和區福和路328號","121.515518333333","25.007235","6500400","永和區"
"244019","403-UM","2017/12/02 19:51:47","新北市林口區中山路572-1號","121.376941666667","25.0846183333333","6501700","林口區"
"243011","267-VK","2017/12/02 19:51:48","新北市泰山區明志路三段196巷7弄1號","121.423525","25.0388933333333","6501600","泰山區"
"243012","AAD-798","2017/12/02 19:51:44","新北市泰山區全興路18巷1號","121.432088333333","25.0589233333333","6501600","泰山區"
"243009","297-R6","2017/12/02 19:51:44","新北市泰山區明志路一段122巷30號","121.431503333333","25.0644916666667","6501600","泰山區"
"243015","380-SR","2017/12/02 19:51:42","新北市泰山區文程路18巷6號","121.428188333333","25.0490366666667","6501600","泰山區"
"243014","421-VK","2017/12/02 19:51:47","新北市泰山區泰林路二段33-8號","121.435185","25.05648","6501600","泰山區"
"243010","KEA-2215","2017/12/02 19:51:46","新北市泰山區民生路33號","121.430655","25.0521416666667","6501600","泰山區"
"243013","646-TV","2017/12/02 19:51:43","新北市泰山區應化街13號","121.423835","25.04369","6501600","泰山區"
"243016","680-BX","2017/12/02 19:51:35","新北市泰山區中山路三段114號","121.417881666667","25.0321383333333","6501600","泰山區"
"222003","436-BY","2017/12/02 19:51:32","新北市深坑區深南路51-1號","121.621123333333","25.0099716666667","6501800","深坑區"
"222002","659-BX","2017/12/02 19:51:39","新北市深坑區北深路二段43巷16號","121.619445","25.003545","6501800","深坑區"
"231041","001-UM","2017/12/02 19:51:42","新北市新店區中央路198號","121.530626666667","24.974455","6500600","新店區"
"231059","046-UY","2017/12/02 19:51:34","新北市新店區安和路一段1號","121.516741666667","24.96389","6500600","新店區"
"231061","047-UY","2017/12/02 19:51:38","新北市新店區安民街325號","121.517415","24.974595","6500600","新店區"
"231060","106-UY","2017/12/02 19:51:40","新北市新店區安康路二段308號","121.506311666667","24.9581533333333","6500600","新店區"
"231051","107-UY","2017/12/02 19:51:45","新北市新店區中央路145號","121.530116666667","24.973465","6500600","新店區"
"231048","108-UY","2017/12/02 19:51:46","新北市新店區寶宏路5號","121.549323333333","24.976205","6500600","新店區"
"231052","187-VK","2017/12/02 19:51:30","新北市新店區新烏路三段128號","121.552503333333","24.9031866666667","6500600","新店區"
"231050","KEA-2219","2017/12/02 19:49:49","新北市新店區北宜路二段579巷7號","121.56514","24.95399","6500600","新店區"
"231057","256-BX","2017/12/02 19:51:39","新北市新店區花園二路三段21-3號","121.556953333333","24.93165","6500600","新店區"
"231063","268-BY","2017/12/02 19:51:38","新北市新店區黎明路3號","121.503535","24.95242","6500600","新店區"
"231046","278-BY","2017/12/02 19:51:39","新北市新店區三民路159巷19弄44號","121.532211666667","24.9732716666667","6500600","新店區"
"231054","AAD-862","2017/12/02 19:51:45","新北市新店區光明街140號","121.53939","24.9613216666667","6500600","新店區"
"231058","3712-VJ","2017/12/02 19:51:47","新北市新店區安康路二段414巷2號","121.495825","24.957825","6500600","新店區"
"231056","3713-VJ","2017/12/02 19:51:41","新北市新店區中正路480號","121.533898333333","24.9813983333333","6500600","新店區"
"231055","4716-K9","2017/12/02 19:51:47","新北市新店區新生街5巷7號","121.540008333333","24.965775","6500600","新店區"
"231067","4772-VM","2017/12/02 19:51:32","新北市新店區秀山路11巷14號","121.531846666667","24.9593516666667","6500600","新店區"
"231049","513-UM","2017/12/02 19:51:38","新北市新店區民權路127巷3號","121.53539","24.98182","6500600","新店區"
"231064","515-UM","2017/12/02 19:51:47","新北市新店區光華街8巷23號","121.518015","24.9698516666667","6500600","新店區"
"231042","616-UM","2017/12/02 19:51:37","新北市新店區中興路一段285號","121.545455","24.9684983333333","6500600","新店區"
"231045","617-UM","2017/12/02 19:51:40","新北市新店區北宜路二段382號","121.564498333333","24.952885","6500600","新店區"
"231040","619-UM","2017/12/02 19:51:42","新北市新店區中正路75巷71號","121.543081666667","24.9687916666667","6500600","新店區"
"231068","718-UY","2017/12/02 19:51:31","新北市新店區安華路28-1號","121.519248333333","24.961105","6500600","新店區"
"231065","719-UY","2017/12/02 19:51:46","新北市新店區安祥路109巷137號","121.477201666667","24.9582583333333","6500600","新店區"
"231062","720-UM","2017/12/02 19:51:45","新北市新店區華潭街1巷13號","121.52931","24.949405","6500600","新店區"
"231044","897-TW","2017/12/02 19:51:38","新北市新店區復興路27號","121.538975","24.9867283333333","6500600","新店區"
"231043","899-TW","2017/12/02 19:51:31","新北市新店區中正路263-2號","121.538466666667","24.97375","6500600","新店區"
"231066","AKT-0513","2017/12/02 19:51:45","新北市新店區安康路二段320巷15弄16號","121.50269","24.9590983333333","6500600","新店區"
"241008","059-VK","2017/12/02 19:51:31","新北市三重區永福街98巷6號","121.479251666667","25.076025","6500200","三重區"
"241009","060-VK","2017/12/02 19:51:30","新北市三重區三和路四段390巷61號","121.479271666667","25.0784766666667","6500200","三重區"
"241031","061-VK","2017/12/02 19:51:44","新北市三重區重新路四段206-5號","121.485985","25.0544866666667","6500200","三重區"
"241015","062-VK","2017/12/02 19:51:32","新北市三重區三和路一段2號","121.503846666667","25.064245","6500200","三重區"
"241017","063-VK","2017/12/02 19:51:36","新北市三重區重陽路三段7-1號","121.489211666667","25.066275","6500200","三重區"
"241024","065-VK","2017/12/02 19:51:43","新北市三重區大勇街83號","121.479951666667","25.071435","6500200","三重區"
"241026","066-VK","2017/12/02 19:51:41","新北市三重區福和街33號","121.501418333333","25.06169","6500200","三重區"
"241003","091-VK","2017/12/02 19:51:29","新北市三重區五華街93巷12號","121.49234","25.0839866666667","6500200","三重區"
"241028","156-TC","2017/12/02 19:51:42","新北市三重區中正南路164號","121.494163333333","25.0569716666667","6500200","三重區"
"241011","265-UM","2017/12/02 19:51:45","新北市三重區三和路二段173巷47號","121.499328333333","25.0701866666667","6500200","三重區"
"241016","266-UM","2017/12/02 19:51:45","新北市三重區正義北路48巷74號","121.495631666667","25.0633833333333","6500200","三重區"
"241022","267-UM","2017/12/02 19:51:47","新北市三重區過圳街7巷1號","121.48953","25.0585033333333","6500200","三重區"
"241018","268-UM","2017/12/02 19:51:37","新北市三重區正義北路244巷82號","121.493758333333","25.0675933333333","6500200","三重區"
"241032","269-UM","2017/12/02 19:51:41","新北市三重區重陽路一段44巷10號","121.486003333333","25.0577383333333","6500200","三重區"
"241013","270-UM","2017/12/02 19:51:45","新北市三重區仁愛街112巷16號","121.494705","25.0738616666667","6500200","三重區"
"241025","271-UM","2017/12/02 19:51:42","新北市三重區大有街1-1號","121.477663333333","25.0653566666667","6500200","三重區"
"241007","398-BY","2017/12/02 19:51:42","新北市三重區慈愛街10號","121.484576666667","25.0783966666667","6500200","三重區"
"241030","KEA-2210","2017/12/02 19:51:46","新北市三重區集成路9號","121.488703333333","25.0518566666667","6500200","三重區"
"241020","413-TH","2017/12/02 19:51:35","新北市三重區忠孝路一段70號","121.489675","25.0720816666667","6500200","三重區"
"241004","475-VK","2017/12/02 19:51:41","新北市三重區仁愛街377巷132號","121.49354","25.081965","6500200","三重區"
"241019","478-VK","2017/12/02 19:51:43","新北市三重區自強路二段74巷5號","121.488265","25.070115","6500200","三重區"
"241014","543-UM","2017/12/02 19:51:42","新北市三重區三和路二段37-8號","121.501343333333","25.0675783333333","6500200","三重區"
"241023","545-UM","2017/12/02 19:51:32","新北市三重區大有街1-1號","121.47772","25.0655633333333","6500200","三重區"
"241001","547-UM","2017/12/02 19:51:41","新北市三重區仁愛街283巷19號","121.49365","25.07943","6500200","三重區"
"241006","AAD-863","2017/12/02 19:51:31","新北市三重區永福街281號","121.482463333333","25.074385","6500200","三重區"
"241035","743-BX","2017/12/02 19:51:48","新北市三重區大榮街31號","121.49871","25.063435","6500200","三重區"
"241012","941-UM","2017/12/02 19:51:38","新北市三重區仁興街41號","121.49908","25.0758183333333","6500200","三重區"
"241029","942-UM","2017/12/02 19:51:35","新北市三重區重安街14號","121.490396666667","25.0583233333333","6500200","三重區"
"241033","AAC-255","2017/12/02 19:51:31","新北市三重區中興南街66號","121.470653333333","25.043975","6500200","三重區"
"235066","003-UY","2017/12/02 19:51:46","新北市中和區光華街61號","121.506475","25.003075","6500300","中和區"
"235056","096-UM","2017/12/02 19:51:33","新北市中和區中山路三段120號","121.475441666667","25.0065516666667","6500300","中和區"
"235039","097-UM","2017/12/02 19:51:35","新北市中和區大勇街23號","121.517013333333","24.9928216666667","6500300","中和區"
"235065","098-UM","2017/12/02 19:51:33","新北市中和區莊敬路31巷7號","121.500203333333","25.0050333333333","6500300","中和區"
"235040","150-BY","2017/12/02 19:51:31","新北市中和區安平路59號","121.509473333333","24.9950633333333","6500300","中和區"
"235058","151-BY","2017/12/02 19:51:18","新北市中和區員山路146巷14號","121.481983333333","24.9967816666667","6500300","中和區"
"235055","183-VK","2017/12/02 19:51:48","新北市中和區德光路27巷5號","121.470973333333","25.0037716666667","6500300","中和區"
"235038","185-VK","2017/12/02 19:51:44","新北市中和區大智街55巷36號","121.520525","24.9931733333333","6500300","中和區"
"235049","186-VK","2017/12/02 19:51:31","新北市中和區中興街46號","121.50082","24.9945883333333","6500300","中和區"
"235067","255-BX","2017/12/02 19:51:45","新北市中和區新生街186巷1弄8號","121.48336","24.9993166666667","6500300","中和區"
"235044","293-VK","2017/12/02 19:51:47","新北市中和區南山路160號","121.504443333333","24.9918183333333","6500300","中和區"
"235043","352-BY","2017/12/02 19:51:36","新北市中和區興南路二段159巷7號","121.505316666667","24.9830433333333","6500300","中和區"
"235068","377-QA","2017/12/02 19:51:31","新北市中和區中山路二段189號","121.500188333333","25.002585","6500300","中和區"
"235061","378-QA","2017/12/02 19:51:43","新北市中和區員山路208號","121.481285","25.0007566666667","6500300","中和區"
"235050","4979-A6","2017/12/02 19:51:37","新北市中和區和平街164巷4號","121.505986666667","24.9923966666667","6500300","中和區"
"235069","4980-A6","2017/12/02 19:51:29","新北市中和區南山路37巷3弄9號","121.502611666667","24.9988566666667","6500300","中和區"
"235042","551-UM","2017/12/02 19:51:40","新北市中和區景安路79巷37弄2號","121.50759","24.996415","6500300","中和區"
"235070","558-UM","2017/12/02 19:51:45","新北市中和區連勝街37號","121.498225","24.9977316666667","6500300","中和區"
"235054","640-BX","2017/12/02 19:51:43","新北市中和區莒光路55號","121.472243333333","25.0044283333333","6500300","中和區"
"235060","647-TV","2017/12/02 19:51:39","新北市中和區新生街16巷21弄2號","121.482248333333","25.0042833333333","6500300","中和區"
"235047","732-UM","2017/12/02 19:51:27","新北市中和區和平街74號","121.507841666667","24.9911316666667","6500300","中和區"
"235046","733-UM","2017/12/02 19:51:35","新北市中和區仁愛街55號","121.511326666667","24.98793","6500300","中和區"
"235057","801-TS","2017/12/02 19:51:35","新北市中和區員山路149號","121.481071666667","24.9963233333333","6500300","中和區"
"235041","802-TS","2017/12/02 19:51:40","新北市中和區永貞路239巷15號","121.512621666667","25.0031783333333","6500300","中和區"
"235052","805-TS","2017/12/02 19:51:38","新北市中和區華新街30巷16號","121.506868333333","24.9844283333333","6500300","中和區"
"235048","896-TW","2017/12/02 19:51:41","新北市中和區興南路一段63-6號","121.510313333333","24.9895933333333","6500300","中和區"
"235053","900-TW","2017/12/02 19:51:33","新北市中和區民德路146巷7弄1號","121.467675","25.0004716666667","6500300","中和區"
"235037","157-BY","2017/12/02 19:51:33","新北市中和區中興街202巷6號","121.4992","24.9906216666667","6500300","中和區"
"235037","AAC-213","2017/12/02 19:51:45","新北市中和區秀朗路三段173-2號","121.524396666667","24.991465","6500300","中和區"
"235059","AAC-215","2017/12/02 19:51:38","新北市中和區圓通路305巷29弄4號","121.495308333333","24.9889383333333","6500300","中和區"
"220068","013-TV","2017/12/02 19:51:46","新北市板橋區中山路二段416巷2號","121.482933333333","25.0209216666667","6500100","板橋區"
"220065","072-UY","2017/12/02 19:51:50","新北市板橋區國泰街39巷9弄8號","121.468945","25.0053533333333","6500100","板橋區"
"220086","073-UY","2017/12/02 19:51:27","新北市板橋區南雅西路二段40號","121.452966666667","25.010005","6500100","板橋區"
"220106","075-UY","2017/12/02 19:51:37","新北市板橋區民治街57巷26號","121.480076666667","25.033865","6500100","板橋區"
"220069","AAD-861","2017/12/02 19:51:39","新北市板橋區南雅南路二段11-21號","121.454393333333","25.001495","6500100","板橋區"
"220102","120-SR","2017/12/02 19:51:47","新北市板橋區文化路二段410巷1弄2號","121.474383333333","25.0310816666667","6500100","板橋區"
"247008","341-TH","2017/12/02 19:51:45","新北市蘆洲區信義路135號","121.479158333333","25.0803233333333","6501400","蘆洲區"
"247010","339-TH","2017/12/02 19:51:35","新北市三重區集賢路188號","121.483946666667","25.0880466666667","6501400","蘆洲區"
"247002","337-TH","2017/12/02 19:51:47","新北市蘆洲區永樂街26巷22-1號","121.458803333333","25.089005","6501400","蘆洲區"
"247004","336-TH","2017/12/02 19:51:40","新北市蘆洲區中原路71號","121.458545","25.0819083333333","6501400","蘆洲區"
"247024","335-TH","2017/12/02 19:51:40","新北市蘆洲區光復路32-1號","121.46336","25.084815","6501400","蘆洲區"
"247015","057-VK","2017/12/02 19:51:30","新北市蘆洲區中正路263巷2號","121.467341666667","25.08737","6501400","蘆洲區"
"247006","056-VK","2017/12/02 19:51:37","新北市蘆洲區九芎街167巷54號","121.466145","25.0779083333333","6501400","蘆洲區"
"247014","007-UY","2017/12/02 19:51:31","新北市蘆洲區成功路193號","121.47114","25.0839016666667","6501400","蘆洲區"
"226004","312-R5","2017/12/02 19:51:44","新北市平溪區十分里十分街65號","121.776018333333","25.04171","6502400","平溪區"
"228003","097-TW","2017/12/02 19:51:28","新北市貢寮區真理里延平街143-1號","121.925021666667","25.0578083333333","6502600","貢寮區"
"228001","212-TW","2017/12/02 19:51:30","新北市貢寮區真理里新港街26巷22-11號","121.926461666667","25.05502","6502600","貢寮區"
"224010","AGQ-8101","2017/12/02 19:51:38","新北市瑞芳區基山街189號","121.84311","25.1076583333333","6501200","瑞芳區"
"227002","642-TC","2017/12/02 19:51:36","新北市雙溪區雙溪里太平路16號","121.86443","25.0352216666667","6502500","雙溪區"
"227010","400-TW","2017/12/02 19:51:43","新北市雙溪區新基里中華路115號","121.865968333333","25.0391166666667","6502500","雙溪區"
"222001","KEA-2212","2017/12/02 19:51:45","新北市深坑區北深路三段110號","121.606826666667","25.00167","6501800","深坑區"
"208002","742-BX","2017/12/02 19:51:46","新北市金山區中華路368號","121.633315","25.22457","6502700","金山區"
"208003","665-BX","2017/12/02 19:51:42","新北市金山區清泉里清水路36號","121.629868333333","25.23117","6502700","金山區"
"208001","761-BX","2017/12/02 19:51:35","新北市金山區重和里林口1號","121.599308333333","25.2106366666667","6502700","金山區"
"251009","008-UM","2017/12/02 19:51:32","新北市淡水區中正路30號","121.444076666667","25.1691666666667","6501000","淡水區"
"251004","009-UM","2017/12/02 19:50:43","新北市淡水區民權路183巷18號","121.46026","25.134145","6501000","淡水區"
"251005","010-UM","2017/12/02 19:51:49","新北市淡水區中正東路37號","121.44608","25.16788","6501000","淡水區"
"251014","180-VK","2017/12/02 19:51:46","新北市淡水區番社前1-2號","121.469123333333","25.2369983333333","6501000","淡水區"
"251008","181-VK","2017/12/02 19:51:41","新北市淡水區中正路一段24巷9號","121.426575","25.1771166666667","6501000","淡水區"
"251012","441-VK","2017/12/02 19:51:36","新北市淡水區淡金路三段28號","121.447863333333","25.1986016666667","6501000","淡水區"
"251016","442-VK","2017/12/02 19:51:40","新北市淡水區三塊厝2-1號","121.453678333333","25.20985","6501000","淡水區"
"251001","559-UM","2017/12/02 19:51:36","新北市淡水區淡金路2號","121.457655","25.15909","6501000","淡水區"
"251006","561-UM","2017/12/02 19:51:43","新北市淡水區水碓街15號","121.443475","25.1769516666667","6501000","淡水區"
"251007","577-R6","2017/12/02 19:51:47","新北市淡水區中正東路一段39-1號","121.452091666667","25.1663416666667","6501000","淡水區"
"251011","650-BX","2017/12/02 19:51:40","新北市淡水區中山北路三段159號","121.445285","25.1964033333333","6501000","淡水區"
"207003","550-UM","2017/12/02 19:51:38","新北市萬里區大鵬里萬里加投67-7號","121.641985","25.2134133333333","6502800","萬里區"
"207004","225-TW","2017/12/02 19:51:42","新北市萬里區萬里里瑪鋉路41號","121.68774","25.175885","6502800","萬里區"
"252001","292-VK","2017/12/02 19:51:45","新北市三芝區公正街9號","121.499781666667","25.2575216666667","6502100","三芝區"
"252002","AAC-283","2017/12/02 19:51:45","新北市三芝區三民街31號","121.50459","25.25853","6502100","三芝區"
"237004","078-UY","2017/12/02 19:51:38","新北市三峽區添福261號","121.375431666667","24.8937483333333","6500900","三峽區"
"237007","153-BY","2017/12/02 19:51:27","新北市三峽區二鬮路136巷14號","121.359195","24.9079316666667","6500900","三峽區"
"237009","210-TH","2017/12/02 19:51:46","新北市三峽區民權街176號","121.36787","24.9298766666667","6500900","三峽區"
"237013","252-BX","2017/12/02 19:51:41","新北市三峽區溪北街22號","121.396533333333","24.936225","6500900","三峽區"
"237012","275-BY","2017/12/02 19:51:29","新北市三峽區光明路1-12號","121.372826666667","24.93218","6500900","三峽區"
"237008","302-VK","2017/12/02 19:51:45","新北市三峽區大同路192號","121.371471666667","24.9270616666667","6500900","三峽區"
"237014","433-BY","2017/12/02 19:51:46","新北市三峽區添福141號","121.375258333333","24.901005","6500900","三峽區"
"237006","5529-G3","2017/12/02 19:51:36","新北市三峽區中正路一段378號","121.371051666667","24.9236883333333","6500900","三峽區"
"237016","649-BX","2017/12/02 19:51:45","新北市三峽區介壽路二段165號","121.394045","24.9360083333333","6500900","三峽區"
"237005","AKY-6261","2017/12/02 19:51:45","新北市三峽區民生街15號","121.376343333333","24.936755","6500900","三峽區"
"236073","105-UM","2017/12/02 19:51:36","新北市土城區中央路二段231號","121.440315","24.9724616666667","6501300","土城區"
"236043","107-UM","2017/12/02 19:51:51","新北市土城區裕民路259巷7號","121.455355","24.98316","6501300","土城區"
"236079","166-UM","2017/12/02 19:11:37","新北市土城區龍泉路68-2號","121.420078333333","24.94283","6501300","土城區"
"236031","253-BX","2017/12/02 19:51:44","新北市土城區中央路一段318巷4弄12號","121.443258333333","24.9823933333333","6501300","土城區"
"236027","269-VK","2017/12/02 19:51:39","新北市土城區中央路二段61巷40號","121.443805","24.9784616666667","6501300","土城區"
"236038","271-VK","2017/12/02 19:51:43","新北市土城區國際路158巷19號","121.468673333333","24.9760783333333","6501300","土城區"
"236023","401-BY","2017/12/02 19:51:35","新北市土城區金城路三段198號","121.46851","24.9880316666667","6501300","土城區"
"236059","912-UM","2017/12/02 19:51:39","新北市土城區中央路一段324號","121.443218333333","24.981475","6501300","土城區"
"236049","913-UM","2017/12/02 19:51:39","新北市土城區青雲路199號","121.459175","24.9823233333333","6501300","土城區"
"236063","915-UM","2017/12/02 19:51:47","新北市土城區金城路三段163巷18號","121.468993333333","24.989195","6501300","土城區"
"236055","AAC-216","2017/12/02 19:51:44","新北市土城區延和路121號","121.468555","24.9904266666667","6501300","土城區"
"242031","AAC-296","2017/12/02 19:51:32","新北市新莊區公園一路112號","121.444451666667","25.0377683333333","6500500","新莊區"
"242029","986-R7","2017/12/02 19:51:34","新北市新莊區中平路286號","121.44488","25.0510466666667","6500500","新莊區"
"242025","615-BX","2017/12/02 19:51:38","新北市新莊區五權一路12巷21弄16號","121.458136666667","25.0647616666667","6500500","新莊區"
"242023","613-BX","2017/12/02 19:51:44","新北市新莊區化成路218號","121.46561","25.0466333333333","6500500","新莊區"
"242027","612-BX","2017/12/02 19:51:39","新北市新莊區中平路377巷1-10號","121.44414","25.052325","6500500","新莊區"
"242039","566-BX","2017/12/02 19:51:46","新北市新莊區民安路299巷18號","121.429338333333","25.0229566666667","6500500","新莊區"
"242044","497-BY","2017/12/02 19:51:43","新北市新莊區壽山路41號","121.415045","25.0309116666667","6500500","新莊區"
"242002","442-UM","2017/12/02 19:51:41","新北市新莊區新泰路2號","121.449815","25.0323233333333","6500500","新莊區"
"242048","441-UM","2017/12/02 19:51:41","新北市新莊區建安街76巷1弄15號","121.42599","25.0241566666667","6500500","新莊區"
"242034","415-TV","2017/12/02 19:51:40","新北市新莊區公園一路126號","121.44549","25.0379833333333","6500500","新莊區"
"242004","413-TV","2017/12/02 19:51:39","新北市新莊區化成路63巷105號","121.461636666667","25.0458716666667","6500500","新莊區"
"242061","362-BY","2017/12/02 19:51:38","新北市新莊區中環路一段10號","121.442846666667","25.0258633333333","6500500","新莊區"
"242036","133-UY","2017/12/02 19:51:31","新北市新莊區建安街89號","121.427153333333","25.0245516666667","6500500","新莊區"
"242009","173-VK","2017/12/02 19:51:06","新北市新莊區三和路18-21號","121.441496666667","25.0387516666667","6500500","新莊區"
"242013","346-TH","2017/12/02 19:51:47","新北市新莊區中港路419號","121.452133333333","25.0475466666667","6500500","新莊區"
"242019","348-TH","2017/12/02 19:51:48","新北市新莊區明智街1號","121.454785","25.0414166666667","6500500","新莊區"
"242056","349-TH","2017/12/02 19:51:42","新北市新莊區新豐街17號","121.448276666667","25.0342216666667","6500500","新莊區"
"242017","350-TH","2017/12/02 19:51:42","新北市新莊區中安街3號","121.452871666667","25.0454316666667","6500500","新莊區"
"238015","755-BX","2017/12/02 19:51:35","新北市樹林區日新街72號","121.421636666667","24.9908033333333","6500700","樹林區"
"238023","601-UM","2017/12/02 19:51:43","新北市樹林區忠信街1號","121.409435","25.01499","6500700","樹林區"
"238024","5061-A6","2017/12/02 19:51:33","新北市樹林區中山路三段208號","121.382795","24.9662066666667","6500700","樹林區"
"238021","KEA-2217","2017/12/02 19:51:30","新北市樹林區佳園路三段181巷54號","121.388811666667","24.9475633333333","6500700","樹林區"
"238025","303-VK","2017/12/02 19:51:32","新北市樹林區八德街263-1號","121.419488333333","24.9736633333333","6500700","樹林區"
"238017","283-BY","2017/12/02 19:51:30","新北市樹林區大安路225號","121.419713333333","24.99474","6500700","樹林區"
"238014","282-BY","2017/12/02 19:51:36","新北市樹林區千歲街61巷36-1號","121.425826666667","24.9984933333333","6500700","樹林區"
"238020","268-VK","2017/12/02 19:51:37","新北市板橋區大觀路三段50巷49號","121.432205","24.9957666666667","6500700","樹林區"
"239006","891-R6","2017/12/02 19:51:42","新北市鶯歌區文化路161號","121.355661666667","24.9542033333333","6500800","鶯歌區"
"221008","489-VK","2017/12/02 19:51:34","新北市汐止區康寧街39號","121.618476666667","25.0667916666667","6501100","汐止區"
"221036","130-UY","2017/12/02 19:51:39","新北市汐止區汐萬路一段20號","121.656001666667","25.0674833333333","6501100","汐止區"
"221010","269-BY","2017/12/02 19:51:36","新北市汐止區連峰街128號","121.646206666667","25.0791083333333","6501100","汐止區"
"221012","276-VK","2017/12/02 13:23:05","新北市汐止區汐萬路一段256巷3號","121.653466666667","25.0746616666667","6501100","汐止區"
"221012","278-VK","2017/12/02 19:51:31","新北市汐止區汐平路一段7號","121.6808","25.0712916666667","6501100","汐止區"
"221023","279-VK","2017/12/02 19:51:43","新北市汐止區明峰街159號","121.629028333333","25.070255","6501100","汐止區"
"221032","280-BY","2017/12/02 19:51:45","新北市汐止區新台五路一段76號","121.643708333333","25.0597783333333","6501100","汐止區"
"221027","281-BY","2017/12/02 19:51:34","新北市汐止區新台五路69-1號","121.661371666667","25.0677916666667","6501100","汐止區"
"221029","298-VK","2017/12/02 19:51:39","新北市汐止區樟樹二路355-1號","121.644643333333","25.0751633333333","6501100","汐止區"
"221021","299-VK","2017/12/02 19:51:37","新北市汐止區新興路84巷1號","121.658088333333","25.061185","6501100","汐止區"
"221031","353-TW","2017/12/02 19:51:33","新北市汐止區福德三路127號","121.63358","25.0675683333333","6501100","汐止區"
"221015","567-BX","2017/12/02 19:51:39","新北市汐止區忠孝東路363號","121.665541666667","25.0708266666667","6501100","汐止區"
"221035","622-UM","2017/12/02 19:51:33","新北市汐止區長江街13巷10號","121.654651666667","25.0719333333333","6501100","汐止區"
"221025","623-UM","2017/12/02 19:51:40","新北市汐止區仁愛路77巷2弄21號","121.661533333333","25.0636433333333","6501100","汐止區"
"221038","646-BX","2017/12/02 19:51:45","新北市汐止區忠孝東路423號","121.665818333333","25.071695","6501100","汐止區"
"221033","647-BX","2017/12/02 19:51:48","新北市汐止區東勢街76巷97號","121.63615","25.03906","6501100","汐止區"
"220079","145-BY","2017/12/02 19:51:43","新北市板橋區建國街54巷29號","121.459955","25.0170483333333","6500100","板橋區"
"220082","610-BX","2017/12/02 19:51:44","新北市板橋區金門街182-3號","121.43264","24.9908866666667","6500100","板橋區"
"220101","245-BX","2017/12/02 19:51:44","新北市板橋區縣民大道三段93巷17號","121.474928333333","25.0222583333333","6500100","板橋區"
"220080","256-TC","2017/12/02 19:51:34","新北市板橋區大觀路二段37巷2號","121.447018333333","25.0028683333333","6500100","板橋區"
"220091","267-BY","2017/12/02 19:51:44","新北市板橋區文聖街149巷48號","121.480308333333","25.0290766666667","6500100","板橋區"
"220072","277-BY","2017/12/02 19:51:40","新北市板橋區篤行路二段77巷9弄2號","121.43253","24.9917216666667","6500100","板橋區"
"220071","283-VK","2017/12/02 19:51:48","新北市板橋區五權街32巷33號","121.463703333333","24.99259","6500100","板橋區"
"220094","285-UM","2017/12/02 19:51:38","新北市板橋區新海路460號","121.457705","25.0282166666667","6500100","板橋區"
"220053","285-VK","2017/12/02 19:51:37","新北市板橋區中山路二段60巷1弄14號","121.474816666667","25.015575","6500100","板橋區"
"220083","286-VK","2017/12/02 19:51:42","新北市板橋區僑中二街8巷7號","121.446795","25.011205","6500100","板橋區"
"220081","287-VK","2017/12/02 19:51:31","新北市板橋區大觀路一段28巷91-1號","121.450161666667","25.0114583333333","6500100","板橋區"
"220090","288-VK","2017/12/02 19:51:41","新北市板橋區龍泉街54巷7弄7號","121.456588333333","25.0264233333333","6500100","板橋區"
"220061","293-UM","2017/12/02 19:51:38","新北市板橋區板新路215號","121.468396666667","25.015925","6500100","板橋區"
"220062","295-UM","2017/12/02 19:51:39","新北市板橋區中山路二段416巷52-2號","121.482925","25.0192583333333","6500100","板橋區"
"220084","296-UM","2017/12/02 19:51:45","新北市板橋區滿平街9號","121.426305","24.9901883333333","6500100","板橋區"
"220075","297-UM","2017/12/02 19:51:38","新北市板橋區金華街10巷48弄26號","121.457936666667","25.0199883333333","6500100","板橋區"
"220092","299-UM","2017/12/02 19:51:35","新北市板橋區四維路259巷13號","121.462693333333","25.0278333333333","6500100","板橋區"
"220098","317-R6","2017/12/02 19:51:45","新北市板橋區龍泉街55巷34號","121.457745","25.0249066666667","6500100","板橋區"
"220064","486-VK","2017/12/02 19:51:44","新北市板橋區民權路2號","121.463235","25.0095783333333","6500100","板橋區"
"220089","487-VK","2017/12/02 19:51:32","新北市板橋區龍泉街108巷104號","121.455253333333","25.025625","6500100","板橋區"
"220088","491-VK","2017/12/02 19:51:41","新北市板橋區文聖街89巷2號","121.47758","25.029925","6500100","板橋區"
"220035","560-BX","2017/12/02 19:51:30","新北市板橋區金華街122號","121.45922","25.0208116666667","6500100","板橋區"
"220103","561-BX","2017/12/02 19:51:47","新北市板橋區陽明街29巷21號","121.464413333333","25.02221","6500100","板橋區"
"220063","609-BX","2017/12/02 19:51:34","新北市板橋區縣民大道三段310號","121.478586666667","25.0237416666667","6500100","板橋區"
"220057","686-BX","2017/12/02 19:51:35","新北市板橋區廣權路1號","121.460493333333","24.9912133333333","6500100","板橋區"
"220077","687-BX","2017/12/02 19:51:41","新北市板橋區僑中一街124巷22號","121.446188333333","25.0142166666667","6500100","板橋區"
"220093","689-BX","2017/12/02 19:51:49","新北市板橋區長江路二段165號","121.466478333333","25.03199","6500100","板橋區"
"220054","741-BX","2017/12/02 19:51:42","新北市板橋區忠孝路忠義巷16弄1號","121.465975","25.003725","6500100","板橋區"
"220055","827-TW","2017/12/02 19:51:38","新北市板橋區國慶路213巷31號","121.46256","24.997145","6500100","板橋區"
"220067","829-TW","2017/12/02 19:51:50","新北市板橋區漢生東路193巷58號","121.47298","25.0118383333333","6500100","板橋區"
"220096","831-TW","2017/12/02 19:51:39","新北市板橋區民生路二段226巷46號","121.47159","25.02233","6500100","板橋區"
"220074","895-R6","2017/12/02 19:51:37","新北市板橋區福德街22號","121.456048333333","25.0086016666667","6500100","板橋區"
"220073","985-R7","2017/12/02 19:51:33","新北市板橋區大仁街69號","121.454101666667","25.0162066666667","6500100","板橋區"
"220097","AAC-210","2017/12/02 19:51:47","新北市板橋區文化路一段285巷1弄2號","121.46424","25.01868","6500100","板橋區"
"220070","AAC-253","2017/12/02 19:51:43","新北市板橋區館前東路118號","121.463723333333","25.00777","6500100","板橋區"
