"lineid","car","time","location","longitude","latitude","cityid","cityname"
"234081","298-R6","2017/12/02 20:29:36","新北市永和區永貞路31號","121.520993333333","25.0066466666667","6500400","永和區"
"234038","336-UY","2017/12/02 20:29:37","新北市永和區環河東路四段36號","121.528751666667","24.9989766666667","6500400","永和區"
"234064","337-UY","2017/12/02 20:29:50","新北市永和區中正路417-1號","121.517206666667","25.0049616666667","6500400","永和區"
"234086","338-UY","2017/12/02 20:29:53","新北市永和區光復街26-1號","121.516551666667","25.017405","6500400","永和區"
"234054","553-UM","2017/12/02 20:29:44","新北市永和區博愛街45巷25弄1號","121.519043333333","25.0168483333333","6500400","永和區"
"234030","746-BX","2017/12/02 20:29:38","新北市永和區民族街81巷58號","121.520046666667","24.9965166666667","6500400","永和區"
"234061","AAD-866","2017/12/02 20:29:46","新北市永和區安樂路190號","121.515203333333","25.0011566666667","6500400","永和區"
"234042","862-TW","2017/12/02 20:29:38","新北市永和區安樂路248-1號","121.514655","25.0033166666667","6500400","永和區"
"234050","863-TW","2017/12/02 20:29:46","新北市永和區新生路171號","121.507033333333","25.01454","6500400","永和區"
"249001","173-UM","2017/12/02 20:29:35","新北市八里區下罟子5-11號","121.386853333333","25.1422666666667","6502300","八里區"
"249004","303-UY","2017/12/02 20:29:36","新北市八里區中山路一段129巷19-1號","121.413953333333","25.1586016666667","6502300","八里區"
"249002","305-UY","2017/12/02 20:29:36","新北市八里區龍米路二段123號","121.446578333333","25.1445133333333","6502300","八里區"
"249003","759-BX","2017/12/02 20:29:42","新北市八里區華峰一街56號","121.398233333333","25.146105","6502300","八里區"
"248010","272-BY","2017/12/02 20:29:36","新北市泰山區中港西路42-2號","121.44469","25.066535","6501500","五股區"
"248002","678-BX","2017/12/02 20:29:41","新北市五股區新五路二段373號","121.444241666667","25.0885133333333","6501500","五股區"
"234023","9380-KE","2017/12/02 20:29:42","新北市永和區光復街2巷16弄29號","121.518116666667","25.0163366666667","6500400","永和區"
"234074","AAC-211","2017/12/02 20:29:43","新北市永和區豫溪街191巷7弄26號","121.523198333333","25.0112033333333","6500400","永和區"
"234067","AAC-212","2017/12/02 20:29:35","新北市永和區保平路292巷60號","121.50685","25.0060766666667","6500400","永和區"
"234003","AAC-295","2017/12/02 20:29:49","新北市永和區大新街56號","121.51624","25.00825","6500400","永和區"
"244019","403-UM","2017/12/02 20:29:47","新北市八里區長道坑14-9號","121.394333333333","25.1186383333333","6501700","林口區"
"244024","837-TS","2017/12/02 20:07:56","新北市林口區粉寮路二段160巷28號","121.405193333333","25.0907533333333","6501700","林口區"
"243011","267-VK","2017/12/02 20:29:48","新北市泰山區台麗街26號","121.427085","25.0368566666667","6501600","泰山區"
"243012","AAD-798","2017/12/02 20:29:44","新北市泰山區明志路一段140號","121.43339","25.0631666666667","6501600","泰山區"
"243009","297-R6","2017/12/02 20:29:50","新北市泰山區忠孝街16巷19號","121.428275","25.0650766666667","6501600","泰山區"
"243015","380-SR","2017/12/02 20:29:42","新北市泰山區仁愛路41號","121.432278333333","25.0551833333333","6501600","泰山區"
"243014","421-VK","2017/12/02 20:29:47","新北市泰山區泰林路二段530號","121.423795","25.06388","6501600","泰山區"
"243010","KEA-2215","2017/12/02 20:29:55","新北市泰山區新生路31巷10號","121.427691666667","25.0460816666667","6501600","泰山區"
"243013","646-TV","2017/12/02 20:29:43","新北市泰山區貴子路9巷6號","121.425571666667","25.0421516666667","6501600","泰山區"
"243016","680-BX","2017/12/02 20:29:35","新北市泰山區明志路二段311號","121.426536666667","25.0463066666667","6501600","泰山區"
"222003","436-BY","2017/12/02 20:29:52","新北市深坑區深坑街39號","121.615521666667","25.0018866666667","6501800","深坑區"
"222002","659-BX","2017/12/02 20:28:59","新北市深坑區萬福路16巷36-1號","121.610731666667","25.0079733333333","6501800","深坑區"
"231041","001-UM","2017/12/02 20:29:42","新北市新店區中正路520號","121.53373","24.9837083333333","6500600","新店區"
"231059","046-UY","2017/12/02 20:29:35","新北市新店區安豐路49號","121.500043333333","24.954855","6500600","新店區"
"231061","047-UY","2017/12/02 20:29:53","新北市新店區新和街34號","121.519175","24.9847666666667","6500600","新店區"
"231060","106-UY","2017/12/02 20:29:40","新北市新店區錦秀路61號","121.479038333333","24.94308","6500600","新店區"
"231051","107-UY","2017/12/02 20:29:45","新北市新店區中央七街83號","121.527043333333","24.97691","6500600","新店區"
"231048","108-UY","2017/12/02 20:29:31","新北市新店區寶慶街58巷4號","121.542128333333","24.9868966666667","6500600","新店區"
"231052","187-VK","2017/12/02 20:29:50","新北市新店區松林路30-9號","121.54545","24.9110433333333","6500600","新店區"
"231050","KEA-2219","2017/12/02 20:29:49","新北市新店區博愛街12巷1號","121.541503333333","24.9738366666667","6500600","新店區"
"231057","256-BX","2017/12/02 20:29:39","新北市新店區花園五路二段3號","121.553615","24.9342283333333","6500600","新店區"
"231063","268-BY","2017/12/02 20:29:38","新北市新店區玫瑰路4-1號","121.49358","24.9514216666667","6500600","新店區"
"231054","AAD-862","2017/12/02 20:29:45","新北市新店區檳榔路111號","121.544606666667","24.96151","6500600","新店區"
"231056","3713-VJ","2017/12/02 20:29:41","新北市新店區中正路302巷10號","121.537956666667","24.9750916666667","6500600","新店區"
"231049","513-UM","2017/12/02 20:29:38","新北市新店區永業路81巷24號","121.53064","24.948275","6500600","新店區"
"231064","515-UM","2017/12/02 20:29:47","新北市新店區新和街33號","121.518906666667","24.9846083333333","6500600","新店區"
"231042","616-UM","2017/12/02 20:29:37","新北市新店區寶橋路230號","121.551556666667","24.9788133333333","6500600","新店區"
"231045","617-UM","2017/12/02 20:29:40","新北市新店區新坡一街60號","121.549673333333","24.9630166666667","6500600","新店區"
"231040","619-UM","2017/12/02 20:29:42","新北市新店區三民路169號","121.53478","24.97482","6500600","新店區"
"231068","718-UY","2017/12/02 20:29:51","新北市新店區民權路13號","121.542376666667","24.9827666666667","6500600","新店區"
"231065","719-UY","2017/12/02 20:29:45","新北市新店區安祥路102巷42弄41號","121.485466666667","24.9633666666667","6500600","新店區"
"231062","720-UM","2017/12/02 20:29:45","新北市新店區安泰路60巷49號","121.483886666667","24.9458783333333","6500600","新店區"
"231044","897-TW","2017/12/02 20:29:38","新北市新店區建國路145號","121.538988333333","24.9787683333333","6500600","新店區"
"231043","899-TW","2017/12/02 20:29:51","新北市新店區建國路104號","121.539865","24.9779016666667","6500600","新店區"
"231066","AKT-0513","2017/12/02 20:29:45","新北市新店區安興路105-1號","121.514625","24.9777066666667","6500600","新店區"
"241008","059-VK","2017/12/02 20:29:50","新北市三重區下竹圍街42號","121.481008333333","25.0748633333333","6500200","三重區"
"241009","060-VK","2017/12/02 20:29:50","新北市三重區永福街67號","121.4804","25.077785","6500200","三重區"
"241031","061-VK","2017/12/02 20:29:44","新北市三重區三寧街22號","121.489436666667","25.059905","6500200","三重區"
"241015","062-VK","2017/12/02 20:29:52","新北市三重區文化北路41-2號","121.49891","25.06526","6500200","三重區"
"241017","063-VK","2017/12/02 20:29:36","新北市三重區自強路一段290號","121.491471666667","25.0683466666667","6500200","三重區"
"241024","065-VK","2017/12/02 20:29:43","新北市三重區忠孝路三段13號","121.481555","25.0673683333333","6500200","三重區"
"241026","066-VK","2017/12/02 20:29:41","新北市三重區福德南路24巷9號","121.503216666667","25.063195","6500200","三重區"
"241002","090-VK","2017/12/02 20:29:52","新北市三重區仁義街211巷42號","121.497915","25.0825616666667","6500200","三重區"
"241003","091-VK","2017/12/02 20:29:50","新北市三重區富華街224號","121.493676666667","25.08538","6500200","三重區"
"241028","156-TC","2017/12/02 20:29:42","新北市三重區光興街89號","121.49744","25.0599933333333","6500200","三重區"
"241005","262-UM","2017/12/02 20:29:52","新北市三重區碧華街416號","121.492175","25.0852133333333","6500200","三重區"
"241011","265-UM","2017/12/02 20:29:45","新北市三重區龍門路70號","121.496845","25.072665","6500200","三重區"
"241016","266-UM","2017/12/02 20:29:45","新北市三重區正義北路190巷8號","121.496075","25.0667033333333","6500200","三重區"
"241022","267-UM","2017/12/02 20:29:47","新北市三重區民生街61巷18弄6號","121.487646666667","25.0629366666667","6500200","三重區"
"241018","268-UM","2017/12/02 20:29:37","新北市三重區正義北路216巷9號","121.495805","25.0674916666667","6500200","三重區"
"241032","269-UM","2017/12/02 20:29:41","新北市三重區重陽路一段120巷37號","121.485015","25.060225","6500200","三重區"
"241013","270-UM","2017/12/02 20:29:44","新北市三重區溪尾街5巷23號","121.492615","25.0746183333333","6500200","三重區"
"241025","271-UM","2017/12/02 20:29:42","新北市三重區頂崁街210巷23弄1號","121.475876666667","25.068185","6500200","三重區"
"241007","398-BY","2017/12/02 20:29:53","新北市三重區三和路四段95-6號","121.487836666667","25.07613","6500200","三重區"
"241030","KEA-2210","2017/12/02 20:29:45","新北市三重區成功路70號","121.488603333333","25.051065","6500200","三重區"
"241020","413-TH","2017/12/02 20:29:35","新北市三重區重陽路四段160號","121.492986666667","25.0722916666667","6500200","三重區"
"241004","475-VK","2017/12/02 20:29:43","新北市三重區溪尾街181號","121.488796666667","25.080285","6500200","三重區"
"241019","478-VK","2017/12/02 20:29:43","新北市三重區重陽路四段83號","121.492596666667","25.0710233333333","6500200","三重區"
"241014","543-UM","2017/12/02 20:29:42","新北市三重區長興街99號","121.501818333333","25.06916","6500200","三重區"
"241023","545-UM","2017/12/02 20:29:32","新北市三重區自由街17巷1號","121.479855","25.066665","6500200","三重區"
"241001","547-UM","2017/12/02 20:29:41","新北市三重區福隆路12號","121.490278333333","25.0774116666667","6500200","三重區"
"241035","743-BX","2017/12/02 20:29:48","新北市三重區正義北路99號","121.496976666667","25.0653716666667","6500200","三重區"
"241012","941-UM","2017/12/02 20:29:48","新北市三重區龍濱路269號","121.501393333333","25.0730683333333","6500200","三重區"
"241029","942-UM","2017/12/02 20:29:35","新北市三重區集美街235號","121.49213","25.0551883333333","6500200","三重區"
"241033","AAC-255","2017/12/02 20:29:51","新北市三重區五谷王北街80巷41號","121.475135","25.0531783333333","6500200","三重區"
"235039","097-UM","2017/12/02 20:29:34","新北市中和區大勇街29巷12-1號","121.515893333333","24.9945166666667","6500300","中和區"
"235065","098-UM","2017/12/02 20:29:48","新北市中和區永和路67-3號","121.496801666667","25.0055066666667","6500300","中和區"
"235050","4979-A6","2017/12/02 20:29:37","新北市中和區景新街129號","121.505748333333","24.997325","6500300","中和區"
"235069","4980-A6","2017/12/02 20:26:25","新北市中和區中正路748號","121.485553333333","24.9984733333333","6500300","中和區"
"235059","AAC-215","2017/12/02 20:29:38","新北市中和區員山路36巷13號","121.484325","24.9915366666667","6500300","中和區"
"220102","120-SR","2017/12/02 20:29:47","新北市板橋區文化路一段184號","121.465823333333","25.0196533333333","6500100","板橋區"
"247022","893-R6","2017/12/02 20:29:33","新北市蘆洲區中正路321號","121.466203333333","25.08876","6501400","蘆洲區"
"247012","546-UM","2017/12/02 20:29:42","新北市蘆洲區民族路191-1號","121.478573333333","25.0889","6501400","蘆洲區"
"247020","500-BY","2017/12/02 20:29:40","新北市蘆洲區民族路331-22號","121.473681666667","25.091785","6501400","蘆洲區"
"247008","341-TH","2017/12/02 20:29:45","新北市蘆洲區重陽二街7號","121.482933333333","25.0844683333333","6501400","蘆洲區"
"247010","339-TH","2017/12/02 20:29:35","新北市蘆洲區民族路87號","121.479396666667","25.086105","6501400","蘆洲區"
"247002","337-TH","2017/12/02 20:29:47","新北市蘆洲區環堤大道122號","121.455475","25.0872766666667","6501400","蘆洲區"
"247004","336-TH","2017/12/02 20:29:40","新北市蘆洲區長安街297號","121.458066666667","25.084855","6501400","蘆洲區"
"247024","335-TH","2017/12/02 20:29:40","新北市蘆洲區長興路50巷37號","121.464868333333","25.0847316666667","6501400","蘆洲區"
"247015","057-VK","2017/12/02 20:29:50","新北市蘆洲區光華路72號","121.468083333333","25.0827516666667","6501400","蘆洲區"
"247006","056-VK","2017/12/02 20:29:37","新北市蘆洲區光華路173號","121.464856666667","25.0819416666667","6501400","蘆洲區"
"247014","007-UY","2017/12/02 20:29:51","新北市蘆洲區中山二路32號","121.474576666667","25.0820683333333","6501400","蘆洲區"
"247018","001-UY","2017/12/02 20:29:45","新北市蘆洲區民族路319號","121.474335","25.091295","6501400","蘆洲區"
"222001","KEA-2212","2017/12/02 20:29:45","新北市深坑區北深路三段276號","121.598035","25.0049983333333","6501800","深坑區"
"251009","008-UM","2017/12/02 20:29:48","新北市淡水區中正東路一段45號","121.452093333333","25.163035","6501000","淡水區"
"251014","180-VK","2017/12/02 20:29:46","新北市淡水區石頭厝8-1號","121.460171666667","25.2373983333333","6501000","淡水區"
"251008","181-VK","2017/12/02 20:29:33","新北市淡水區淡海路189巷6號","121.419976666667","25.184515","6501000","淡水區"
"251010","413-VK","2017/12/02 20:29:43","新北市淡水區沙崙路181巷15號","121.423991666667","25.1843316666667","6501000","淡水區"
"251012","441-VK","2017/12/02 20:29:39","新北市淡水區頂田寮路3號","121.453541666667","25.2167566666667","6501000","淡水區"
"251016","442-VK","2017/12/02 20:29:40","新北市淡水區淡金路四段586號","121.451615","25.2281883333333","6501000","淡水區"
"251001","559-UM","2017/12/02 20:29:36","新北市淡水區新市一路三段6號","121.444991666667","25.1829483333333","6501000","淡水區"
"251006","561-UM","2017/12/02 20:29:43","新北市淡水區商工路308號","121.462545","25.1859966666667","6501000","淡水區"
"251002","672-BX","2017/12/02 20:29:40","新北市淡水區中正路90-3號","121.442436666667","25.16963","6501000","淡水區"
"251003","673-BX","2017/12/02 20:29:50","新北市淡水區新民街21號","121.43931","25.1755216666667","6501000","淡水區"
"207004","225-TW","2017/12/02 20:29:35","新北市萬里區北基里忠三街18號","121.68479","25.17565","6502800","萬里區"
"252001","292-VK","2017/12/02 20:29:45","新北市三芝區中山路一段35號","121.500681666667","25.2579816666667","6502100","三芝區"
"252002","AAC-283","2017/12/02 20:29:45","新北市三芝區淡金路二段47-2號","121.503665","25.2605333333333","6502100","三芝區"
"237004","078-UY","2017/12/02 20:29:38","新北市樹林區柑園街二段290號","121.373853333333","24.9518783333333","6500900","三峽區"
"236015","270-VK","2017/12/02 20:29:32","新北市板橋區四川路二段245巷111號","121.453483333333","24.9928816666667","6501300","土城區"
"242031","AAC-296","2017/12/02 20:29:52","新北市新莊區中正路418號","121.441065","25.0338483333333","6500500","新莊區"
"242029","986-R7","2017/12/02 20:29:53","新北市新莊區中華路二段159號","121.452821666667","25.0517033333333","6500500","新莊區"
"242025","615-BX","2017/12/02 20:29:50","新北市新莊區五工三路48-1號","121.460198333333","25.064515","6500500","新莊區"
"242023","613-BX","2017/12/02 20:29:44","新北市新莊區化成路652-1號","121.466081666667","25.0557983333333","6500500","新莊區"
"242027","612-BX","2017/12/02 20:29:39","新北市新莊區幸福路52號","121.457533333333","25.0494983333333","6500500","新莊區"
"242039","566-BX","2017/12/02 20:29:46","新北市新莊區成功街41號","121.425323333333","25.02095","6500500","新莊區"
"242044","497-BY","2017/12/02 20:29:43","新北市新莊區中正路新建巷17號","121.414141666667","25.0223733333333","6500500","新莊區"
"242002","442-UM","2017/12/02 20:29:41","新北市新莊區中正路60號","121.461573333333","25.03968","6500500","新莊區"
"242048","441-UM","2017/12/02 20:29:41","新北市新莊區裕民街103巷19號","121.419551666667","25.0228216666667","6500500","新莊區"
"242053","440-UM","2017/12/02 20:29:48","新北市新莊區民安西路229巷24號","121.427326666667","25.0141316666667","6500500","新莊區"
"242034","415-TV","2017/12/02 20:29:54","新北市新莊區中正路317號","121.447973333333","25.03517","6500500","新莊區"
"242004","413-TV","2017/12/02 20:29:39","新北市新莊區化成路387號","121.46537","25.0583583333333","6500500","新莊區"
"242042","400-BY","2017/12/02 20:29:22","新北市新莊區中正路694巷3弄24號","121.417898333333","25.0280466666667","6500500","新莊區"
"242061","362-BY","2017/12/02 20:29:52","新北市新莊區新樹路258巷1-1號","121.432235","25.0155666666667","6500500","新莊區"
"242058","353-BY","2017/12/02 20:29:51","新北市新莊區四維路155號","121.422558333333","25.02191","6500500","新莊區"
"242036","133-UY","2017/12/02 20:29:51","新北市新莊區後港一路56巷24弄1號","121.426693333333","25.0252783333333","6500500","新莊區"
"242021","135-UY","2017/12/02 20:29:33","新北市新莊區公園路14號","121.448106666667","25.03899","6500500","新莊區"
"242046","172-VK","2017/12/02 20:29:52","新北市新莊區裕民街90巷18號","121.41798","25.0237883333333","6500500","新莊區"
"242009","173-VK","2017/12/02 20:29:52","新北市新莊區昌隆街76號","121.455583333333","25.0507016666667","6500500","新莊區"
"242015","175-VK","2017/12/02 20:29:51","新北市新莊區中平路36巷2號","121.44499","25.0435533333333","6500500","新莊區"
"242013","346-TH","2017/12/02 20:29:47","新北市新莊區中和街191巷1-1號","121.447926666667","25.051125","6500500","新莊區"
"242007","347-TH","2017/12/02 20:29:52","新北市新莊區福壽街124巷6號","121.458261666667","25.0512666666667","6500500","新莊區"
"242019","348-TH","2017/12/02 20:29:33","新北市新莊區民樂街79號","121.45795","25.042925","6500500","新莊區"
"242056","349-TH","2017/12/02 20:29:42","新北市新莊區瓊泰路140號","121.443248333333","25.03209","6500500","新莊區"
"242017","350-TH","2017/12/02 20:29:42","新北市新莊區中港三街13號","121.450943333333","25.0464983333333","6500500","新莊區"
"242011","351-TH","2017/12/02 20:29:41","新北市新莊區中義街49號","121.449373333333","25.0510533333333","6500500","新莊區"
"221008","489-VK","2017/12/02 20:29:54","新北市汐止區康寧街688號","121.63718","25.0718166666667","6501100","汐止區"
"221036","130-UY","2017/12/02 20:29:45","新北市汐止區仁愛路151巷28號","121.663275","25.0654083333333","6501100","汐止區"
"221010","269-BY","2017/12/02 20:29:36","新北市汐止區八連路二段636-3號","121.62582","25.110975","6501100","汐止區"
"221012","276-VK","2017/12/02 13:23:05","新北市汐止區汐萬路一段256巷3號","121.653466666667","25.0746616666667","6501100","汐止區"
"221012","278-VK","2017/12/02 20:29:51","新北市汐止區大同路三段279號","121.674293333333","25.0749516666667","6501100","汐止區"
"221023","279-VK","2017/12/02 20:29:43","新北市汐止區湖東街76巷1號","121.6358","25.073495","6501100","汐止區"
"221032","280-BY","2017/12/02 20:29:45","新北市汐止區弘道街53巷22號","121.618816666667","25.04948","6501100","汐止區"
"221027","281-BY","2017/12/02 20:29:35","新北市汐止區中正路259號","121.657216666667","25.0683733333333","6501100","汐止區"
"221029","298-VK","2017/12/02 20:29:39","新北市汐止區樟樹一路129巷30號","121.640646666667","25.0652066666667","6501100","汐止區"
"221021","299-VK","2017/12/02 20:29:37","新北市汐止區水源路一段291巷1號","121.654371666667","25.0584333333333","6501100","汐止區"
"221031","353-TW","2017/12/02 20:29:33","新北市汐止區中興路110巷10號","121.633771666667","25.06419","6501100","汐止區"
"221015","567-BX","2017/12/02 20:29:39","新北市汐止區建成路160巷16號","121.661783333333","25.0740216666667","6501100","汐止區"
"221035","622-UM","2017/12/02 20:29:53","新北市汐止區長江街101-5號","121.658706666667","25.0732916666667","6501100","汐止區"
"221025","623-UM","2017/12/02 20:29:40","新北市汐止區水源路二段110巷1號","121.656685","25.055335","6501100","汐止區"
"221038","646-BX","2017/12/02 20:29:45","新北市汐止區水源路一段56號","121.657586666667","25.0656833333333","6501100","汐止區"
"221033","647-BX","2017/12/02 20:29:48","新北市汐止區林森街73巷15號","121.623855","25.0413816666667","6501100","汐止區"
"221002","707-TV","2017/12/02 20:29:51","新北市汐止區福德三路1號","121.638628333333","25.06955","6501100","汐止區"
"221018","753-BX","2017/12/02 20:29:51","新北市汐止區茄苳路225巷13號","121.671453333333","25.06927","6501100","汐止區"
"220083","286-VK","2017/12/02 20:29:42","新北市板橋區僑中二街106巷1號","121.445766666667","25.00757","6500100","板橋區"
"220061","293-UM","2017/12/02 20:29:39","新北市板橋區四川路一段274巷3-3號","121.457936666667","25.00137","6500100","板橋區"
"220089","487-VK","2017/12/02 20:29:32","新北市板橋區四維路295號","121.463256666667","25.0283916666667","6500100","板橋區"
"220103","561-BX","2017/12/02 20:29:37","新北市板橋區漢生東路31號","121.465318333333","25.0169","6500100","板橋區"
"220057","686-BX","2017/12/02 20:29:51","新北市八里區中山路三段387號","121.371095","25.13742","6500100","板橋區"
"220074","895-R6","2017/12/02 20:29:51","新北市板橋區館前西路66號","121.457736666667","25.007065","6500100","板橋區"
"220070","AAC-253","2017/12/02 20:29:43","新北市泰山區新五路一段131號","121.439748333333","25.06298","6500100","板橋區"
