"lineid","car","time","location","longitude","latitude","cityid","cityname"
"234064","337-UY","2017/12/02 20:39:50","新北市永和區環河西路二段215號","121.501268333333","25.0104766666667","6500400","永和區"
"234061","AAD-866","2017/12/02 20:39:46","新北市永和區秀朗路一段114號","121.516838333333","25.003655","6500400","永和區"
"234050","863-TW","2017/12/02 20:39:46","新北市永和區環河西路二段179號","121.50454","25.0130683333333","6500400","永和區"
"249001","173-UM","2017/12/02 20:39:35","新北市八里區中山路三段365號","121.373603333333","25.1380416666667","6502300","八里區"
"249004","303-UY","2017/12/02 20:39:36","新北市八里區中山路一段157巷19號","121.413061666667","25.1582033333333","6502300","八里區"
"249002","305-UY","2017/12/02 20:39:36","新北市八里區中華路一段5-28號","121.420551666667","25.1574416666667","6502300","八里區"
"249003","759-BX","2017/12/02 20:39:42","新北市八里區中山路二段341號","121.399508333333","25.14737","6502300","八里區"
"234023","9380-KE","2017/12/02 20:39:34","新北市永和區竹林路25巷26號","121.517945","25.0149066666667","6500400","永和區"
"234074","AAC-211","2017/12/02 20:39:43","新北市永和區竹林路119巷4弄2號","121.520396666667","25.011425","6500400","永和區"
"244019","403-UM","2017/12/02 20:39:47","新北市林口區粉寮路二段24號","121.402846666667","25.0862733333333","6501700","林口區"
"244024","837-TS","2017/12/02 20:07:56","新北市林口區粉寮路二段160巷28號","121.405193333333","25.0907533333333","6501700","林口區"
"243011","267-VK","2017/12/02 20:39:48","新北市泰山區民權街2號","121.427685","25.0509116666667","6501600","泰山區"
"243009","297-R6","2017/12/02 20:39:30","新北市泰山區泰林路二段542巷1弄3號","121.42328","25.0640983333333","6501600","泰山區"
"243014","421-VK","2017/12/02 20:39:47","新北市泰山區泰林路三段745巷145號","121.406053333333","25.06846","6501600","泰山區"
"243010","KEA-2215","2017/12/02 20:39:46","新北市泰山區公園路25號","121.428948333333","25.05433","6501600","泰山區"
"222003","436-BY","2017/12/02 20:39:52","新北市深坑區深坑街162號","121.612781666667","25.0011833333333","6501800","深坑區"
"222002","659-BX","2017/12/02 20:39:39","新北市深坑區萬福路45號","121.599496666667","25.0068633333333","6501800","深坑區"
"231041","001-UM","2017/12/02 20:39:42","新北市新店區中正路566號","121.533783333333","24.9874766666667","6500600","新店區"
"231059","046-UY","2017/12/02 20:39:35","新北市新店區僑愛三路9號","121.499661666667","24.9446016666667","6500600","新店區"
"231061","047-UY","2017/12/02 20:39:33","新北市新店區新和街39號","121.519325","24.9850316666667","6500600","新店區"
"231060","106-UY","2017/12/02 20:39:40","新北市新店區安康路三段738號","121.473888333333","24.94199","6500600","新店區"
"231051","107-UY","2017/12/02 20:39:45","新北市新店區中央八街84號","121.52711","24.977255","6500600","新店區"
"231048","108-UY","2017/12/02 20:39:51","新北市新店區寶元路一段93巷3號","121.5439","24.98527","6500600","新店區"
"231052","187-VK","2017/12/02 20:39:50","新北市新店區松林路61號","121.544443333333","24.9109916666667","6500600","新店區"
"231050","KEA-2219","2017/12/02 20:39:49","新北市新店區建國路62號","121.540626666667","24.97579","6500600","新店區"
"231057","256-BX","2017/12/02 20:39:38","新北市新店區花園六路二段2號","121.554206666667","24.9333833333333","6500600","新店區"
"231063","268-BY","2017/12/02 20:39:38","新北市新店區玫瑰路4-1號","121.493573333333","24.9514133333333","6500600","新店區"
"231054","AAD-862","2017/12/02 20:39:45","新北市新店區北新路一段64巷41號","121.542281666667","24.9656416666667","6500600","新店區"
"231056","3713-VJ","2017/12/02 20:39:41","新北市新店區民生路75巷225-2號","121.533245","24.98097","6500600","新店區"
"231049","513-UM","2017/12/02 20:39:38","新北市新店區永業路81巷9弄2號","121.530983333333","24.950375","6500600","新店區"
"231064","515-UM","2017/12/02 20:39:47","新北市新店區安和路三段120巷20號","121.517946666667","24.9859083333333","6500600","新店區"
"231042","616-UM","2017/12/02 20:39:37","新北市新店區寶高路120巷1-1號","121.554581666667","24.975945","6500600","新店區"
"231045","617-UM","2017/12/02 20:39:40","新北市新店區長春路167號","121.55819","24.9618183333333","6500600","新店區"
"231040","619-UM","2017/12/02 20:39:41","新北市新店區中正路263號","121.538488333333","24.973455","6500600","新店區"
"231068","718-UY","2017/12/02 20:39:51","新北市新店區寶慶街37號","121.543073333333","24.986635","6500600","新店區"
"231065","719-UY","2017/12/02 20:39:46","新北市新店區安祥路102巷146號","121.486833333333","24.9645516666667","6500600","新店區"
"231062","720-UM","2017/12/02 20:39:45","新北市新店區安康路三段277-1號","121.485853333333","24.9515183333333","6500600","新店區"
"231044","897-TW","2017/12/02 20:39:38","新北市新店區建國路293巷1號","121.53668","24.9861816666667","6500600","新店區"
"231043","899-TW","2017/12/02 20:39:31","新北市新店區建國路31號","121.540261666667","24.974115","6500600","新店區"
"231066","AKT-0513","2017/12/02 20:39:45","新北市新店區安興路112號","121.514606666667","24.9776633333333","6500600","新店區"
"241008","059-VK","2017/12/02 20:39:30","新北市三重區下竹圍街42-1號","121.480965","25.0748116666667","6500200","三重區"
"241009","060-VK","2017/12/02 20:39:50","新北市三重區碧華街57號","121.484743333333","25.081305","6500200","三重區"
"241031","061-VK","2017/12/02 20:39:44","新北市三重區重陽路一段43巷36-1號","121.488413333333","25.0586333333333","6500200","三重區"
"241015","062-VK","2017/12/02 20:39:52","新北市三重區文化北路200巷13號","121.49795","25.06821","6500200","三重區"
"241017","063-VK","2017/12/02 20:39:36","新北市三重區大同北路249號","121.491","25.06696","6500200","三重區"
"241024","065-VK","2017/12/02 20:39:43","新北市三重區國道路一段58巷20號","121.481283333333","25.0720033333333","6500200","三重區"
"241002","090-VK","2017/12/02 20:39:52","新北市三重區仁義街167巷16號","121.497625","25.0818616666667","6500200","三重區"
"241028","156-TC","2017/12/02 20:39:42","新北市三重區光興街91號","121.497391666667","25.0599483333333","6500200","三重區"
"241005","262-UM","2017/12/02 20:39:32","新北市三重區集賢路87-1號","121.49395","25.086925","6500200","三重區"
"241011","265-UM","2017/12/02 20:39:45","新北市三重區龍濱路219巷8號","121.502141666667","25.0720866666667","6500200","三重區"
"241016","266-UM","2017/12/02 20:39:45","新北市三重區長壽西街95號","121.494893333333","25.0669283333333","6500200","三重區"
"241022","267-UM","2017/12/02 20:39:47","新北市三重區中山路33巷12號","121.487898333333","25.062015","6500200","三重區"
"241018","268-UM","2017/12/02 20:39:37","新北市三重區自強路一段219號","121.491231666667","25.0685733333333","6500200","三重區"
"241032","269-UM","2017/12/02 20:39:41","新北市三重區重陽路一段120巷37號","121.48502","25.0602283333333","6500200","三重區"
"241013","270-UM","2017/12/02 20:39:44","新北市三重區三和路四段83號","121.48926","25.0753683333333","6500200","三重區"
"241025","271-UM","2017/12/02 20:39:42","新北市三重區忠孝路三段93巷6-1號","121.47932","25.0648","6500200","三重區"
"241007","398-BY","2017/12/02 20:39:42","新北市三重區慈愛街10號","121.484548333333","25.078445","6500200","三重區"
"241030","KEA-2210","2017/12/02 20:39:45","新北市三重區成功路73巷11號","121.489483333333","25.0519316666667","6500200","三重區"
"241020","413-TH","2017/12/02 20:39:35","新北市三重區忠孝路一段101號","121.48948","25.07216","6500200","三重區"
"241004","475-VK","2017/12/02 20:39:41","新北市三重區仁愛街434號","121.489608333333","25.0818516666667","6500200","三重區"
"241019","478-VK","2017/12/02 20:39:43","新北市三重區重陽路四段126巷13號","121.4921","25.0710783333333","6500200","三重區"
"241014","543-UM","2017/12/02 20:39:42","新北市三重區萬壽街23號","121.499573333333","25.069345","6500200","三重區"
"241023","545-UM","2017/12/02 20:39:32","新北市三重區自由街35巷2號","121.478958333333","25.066945","6500200","三重區"
"241001","547-UM","2017/12/02 20:39:41","新北市三重區自強路三段110巷15-1號","121.486521666667","25.0749766666667","6500200","三重區"
"241035","743-BX","2017/12/02 20:39:48","新北市三重區正義北路319號","121.494058333333","25.0712466666667","6500200","三重區"
"241012","941-UM","2017/12/02 20:39:38","新北市三重區龍濱路253號","121.50167","25.0727316666667","6500200","三重區"
"241029","942-UM","2017/12/02 20:39:35","新北市三重區集美街126巷22號","121.489915","25.0538283333333","6500200","三重區"
"241033","AAC-255","2017/12/02 20:39:31","新北市三重區光復路二段3-1號","121.47424","25.0538033333333","6500200","三重區"
"235069","4980-A6","2017/12/02 20:39:31","新北市中和區員山路359巷3號","121.480941666667","25.002005","6500300","中和區"
"247022","893-R6","2017/12/02 20:39:33","新北市蘆洲區中正路243巷1-2號","121.467538333333","25.086115","6501400","蘆洲區"
"247012","546-UM","2017/12/02 20:39:42","新北市蘆洲區民族路236巷51號","121.481351666667","25.0887883333333","6501400","蘆洲區"
"247020","500-BY","2017/12/02 20:39:40","新北市蘆洲區民族路424-1號","121.473825","25.091855","6501400","蘆洲區"
"247008","341-TH","2017/12/02 20:39:45","新北市蘆洲區重陽一街23號","121.480841666667","25.08185","6501400","蘆洲區"
"247010","339-TH","2017/12/02 20:39:35","新北市蘆洲區中山一路138號","121.476283333333","25.081705","6501400","蘆洲區"
"247002","337-TH","2017/12/02 20:39:47","新北市蘆洲區長安街375巷35號","121.455453333333","25.0880566666667","6501400","蘆洲區"
"247004","336-TH","2017/12/02 20:39:40","新北市蘆洲區長安街222號","121.45825","25.0848183333333","6501400","蘆洲區"
"247024","335-TH","2017/12/02 20:39:40","新北市蘆洲區長樂路28號","121.463745","25.0854133333333","6501400","蘆洲區"
"247015","057-VK","2017/12/02 20:39:30","新北市蘆洲區中山一路284號","121.470968333333","25.0790716666667","6501400","蘆洲區"
"247006","056-VK","2017/12/02 20:39:37","新北市蘆洲區和平路121巷8弄4號","121.466956666667","25.079945","6501400","蘆洲區"
"247014","007-UY","2017/12/02 20:39:51","新北市蘆洲區中央路52號","121.473346666667","25.0835033333333","6501400","蘆洲區"
"222001","KEA-2212","2017/12/02 20:39:46","新北市深坑區北深路三段207號","121.600683333333","25.00389","6501800","深坑區"
"208002","742-BX","2017/12/02 20:39:36","新北市金山區磺清路135號","121.639355","25.2275116666667","6502700","金山區"
"251009","008-UM","2017/12/02 20:39:48","新北市淡水區民權路187巷33號","121.461028333333","25.1335966666667","6501000","淡水區"
"251014","180-VK","2017/12/02 20:39:46","新北市淡水區桂竹圍5-5號","121.472118333333","25.2337983333333","6501000","淡水區"
"251010","413-VK","2017/12/02 20:39:43","新北市淡水區沙崙路181巷15號","121.423923333333","25.1844066666667","6501000","淡水區"
"251012","441-VK","2017/12/02 20:39:36","新北市淡水區興仁路108號","121.451681666667","25.218195","6501000","淡水區"
"251016","442-VK","2017/12/02 20:39:40","新北市淡水區後洲子12-1號","121.450933333333","25.2237783333333","6501000","淡水區"
"251001","559-UM","2017/12/02 20:39:36","新北市淡水區淡金路55號","121.455941666667","25.1613233333333","6501000","淡水區"
"251006","561-UM","2017/12/02 20:39:43","新北市淡水區商工路196巷3號","121.450983333333","25.1871533333333","6501000","淡水區"
"251011","650-BX","2017/12/02 20:39:40","新北市淡水區新市一路一段361號","121.436281666667","25.1861916666667","6501000","淡水區"
"251002","672-BX","2017/12/02 20:39:40","新北市淡水區中正路32號","121.443791666667","25.1692083333333","6501000","淡水區"
"251003","673-BX","2017/12/02 20:39:50","新北市淡水區新民街152巷6弄22號","121.438776666667","25.1785416666667","6501000","淡水區"
"252001","292-VK","2017/12/02 20:39:45","新北市三芝區長安街49號","121.501298333333","25.2564333333333","6502100","三芝區"
"252002","AAC-283","2017/12/02 20:39:45","新北市三芝區淡金路二段47-2號","121.50366","25.260495","6502100","三芝區"
"237004","078-UY","2017/12/02 20:39:38","新北市樹林區中山路三段210-2號","121.381311666667","24.9655866666667","6500900","三峽區"
"242031","AAC-296","2017/12/02 20:39:44","新北市新莊區三和路58-3號","121.437503333333","25.039745","6500500","新莊區"
"242029","986-R7","2017/12/02 20:39:53","新北市新莊區昌平街31巷9號","121.454258333333","25.05136","6500500","新莊區"
"242025","615-BX","2017/12/02 20:39:38","新北市三重區光復路二段87巷57號","121.475311666667","25.0584866666667","6500500","新莊區"
"242023","613-BX","2017/12/02 20:39:44","新北市新莊區思源路38號","121.45986","25.0427583333333","6500500","新莊區"
"242027","612-BX","2017/12/02 20:39:39","新北市新莊區思源路307號","121.459828333333","25.0489033333333","6500500","新莊區"
"242039","566-BX","2017/12/02 20:39:46","新北市新莊區民安路312號","121.428391666667","25.0221033333333","6500500","新莊區"
"242044","497-BY","2017/12/02 20:39:43","新北市新莊區龍安路108號","121.418341666667","25.0204816666667","6500500","新莊區"
"242002","442-UM","2017/12/02 20:39:45","新北市新莊區明中街29號","121.458201666667","25.0386666666667","6500500","新莊區"
"242048","441-UM","2017/12/02 20:39:41","新北市新莊區中正路741號","121.422545","25.0287833333333","6500500","新莊區"
"242053","440-UM","2017/12/02 20:39:48","新北市新莊區西盛街324巷39號","121.426695","25.0147166666667","6500500","新莊區"
"242034","415-TV","2017/12/02 20:39:51","新北市新莊區中正路316號","121.44636","25.0349433333333","6500500","新莊區"
"242004","413-TV","2017/12/02 20:39:39","新北市新莊區思源路38號","121.459851666667","25.04274","6500500","新莊區"
"242042","400-BY","2017/12/02 20:39:41","新北市新莊區天祥街43號","121.41688","25.02875","6500500","新莊區"
"242061","362-BY","2017/12/02 20:39:38","新北市新莊區新樹路529號","121.43276","25.0093616666667","6500500","新莊區"
"242058","353-BY","2017/12/02 20:39:30","新北市新莊區民安路138號","121.424176666667","25.0254116666667","6500500","新莊區"
"242036","133-UY","2017/12/02 20:39:31","新北市新莊區後港一路46巷4號","121.426158333333","25.025925","6500500","新莊區"
"242021","135-UY","2017/12/02 20:39:33","新北市新莊區中華路一段73號","121.452205","25.0401116666667","6500500","新莊區"
"242046","172-VK","2017/12/02 20:39:32","新北市新莊區富國路22巷19號","121.418318333333","25.025805","6500500","新莊區"
"242009","173-VK","2017/12/02 20:39:46","新北市新莊區昌隆街104號","121.456788333333","25.0508916666667","6500500","新莊區"
"242015","175-VK","2017/12/02 20:39:31","新北市新莊區中平路82巷36-2號","121.4464","25.044955","6500500","新莊區"
"242013","346-TH","2017/12/02 20:39:47","新北市新莊區中榮街94號","121.447576666667","25.0528566666667","6500500","新莊區"
"242007","347-TH","2017/12/02 20:39:30","新北市新莊區思源路287巷1弄2號","121.45933","25.048055","6500500","新莊區"
"242019","348-TH","2017/12/02 20:39:38","新北市新莊區銘德街117號","121.455428333333","25.0432","6500500","新莊區"
"242056","349-TH","2017/12/02 20:39:42","新北市新莊區瓊泰路31號","121.443985","25.0285866666667","6500500","新莊區"
"242011","351-TH","2017/12/02 20:39:41","新北市新莊區中榮街124號","121.446565","25.0527783333333","6500500","新莊區"
"221008","489-VK","2017/12/02 20:39:34","新北市汐止區康寧街861巷5號","121.645281666667","25.0761416666667","6501100","汐止區"
"221036","130-UY","2017/12/02 20:39:39","新北市汐止區忠孝東路211巷6號","121.661965","25.067065","6501100","汐止區"
"221012","276-VK","2017/12/02 13:23:05","新北市汐止區汐萬路一段256巷3號","121.653466666667","25.0746616666667","6501100","汐止區"
"221023","279-VK","2017/12/02 20:39:43","新北市汐止區明峰街3號","121.635658333333","25.0709666666667","6501100","汐止區"
"221032","280-BY","2017/12/02 20:39:45","新北市汐止區橫科路221巷19-1號","121.621498333333","25.0494933333333","6501100","汐止區"
"221027","281-BY","2017/12/02 20:39:34","新北市汐止區大同路二段537號","121.662023333333","25.0692316666667","6501100","汐止區"
"221029","298-VK","2017/12/02 20:39:38","新北市汐止區大同路一段421號","121.642603333333","25.0611666666667","6501100","汐止區"
"221021","299-VK","2017/12/02 20:39:37","新北市汐止區水源路一段291巷3號","121.654441666667","25.05841","6501100","汐止區"
"221031","353-TW","2017/12/02 20:39:33","新北市汐止區工建路316號","121.634093333333","25.060815","6501100","汐止區"
"221015","567-BX","2017/12/02 20:39:39","新北市汐止區建成路21號","121.664348333333","25.0726383333333","6501100","汐止區"
"221035","622-UM","2017/12/02 20:39:32","新北市汐止區長江街101-5號","121.658793333333","25.0732033333333","6501100","汐止區"
"221025","623-UM","2017/12/02 20:39:40","新北市汐止區水源路二段271-1號","121.65918","25.0501","6501100","汐止區"
"221038","646-BX","2017/12/02 20:39:45","新北市汐止區新江北路1號","121.65278","25.0708333333333","6501100","汐止區"
"221033","647-BX","2017/12/02 20:39:48","新北市汐止區合順街18巷8弄5號","121.62034","25.0419033333333","6501100","汐止區"
"221002","707-TV","2017/12/02 20:39:51","新北市汐止區福德二路118號","121.63189","25.065595","6501100","汐止區"
"221018","753-BX","2017/12/02 20:39:51","新北市汐止區茄苳路59號","121.666635","25.0707116666667","6501100","汐止區"
"220083","286-VK","2017/12/02 20:39:42","新北市板橋區僑中二街116巷19號","121.444808333333","25.0065366666667","6500100","板橋區"
"220103","561-BX","2017/12/02 20:39:35","新北市板橋區漢生東路43巷28號","121.466465","25.01754","6500100","板橋區"
"220070","AAC-253","2017/12/02 20:38:23","新北市五股區中直路17-4號","121.423038333333","25.11121","6500100","板橋區"
