"lineid","car","time","location","longitude","latitude","cityid","cityname"
"248005","653-BX","2017/09/16 07:57:59","新北市五股區明德路12巷1號","121.433298333333","25.0716733333333","6501500","五股區"
"244005","657-BX","2017/09/16 08:09:17","新北市林口區下福里99-2號","121.287005","25.1170633333333","6501700","林口區"
"222004","289-BY","2017/09/16 08:09:00","新北市深坑區昇高坑路51號","121.630656666667","24.9918983333333","6501800","深坑區"
"231007","189-VK","2017/09/16 08:09:01","新北市新店區華潭街52號","121.529061666667","24.9551316666667","6500600","新店區"
"231008","192-VK","2017/09/16 08:09:14","新北市新店區中華路1號","121.541371666667","24.9672883333333","6500600","新店區"
"247010","335-TH","2017/09/16 08:09:10","新北市五股區中興路二段28號","121.462901666667","25.0752266666667","6501400","蘆洲區"
"226005","5620-A6","2017/09/16 08:09:13","新北市平溪區南山里六分11-1號","121.797655","25.0498716666667","6502400","平溪區"
"226002","7418-A5","2017/09/16 08:09:02","新北市平溪區望古里石灼坑2-3號","121.768888333333","25.0355983333333","6502400","平溪區"
"226003","AGD-0702","2017/09/16 08:09:22","新北市平溪區十分里十分街45號","121.774498333333","25.0407716666667","6502400","平溪區"
"223006","022-BY","2017/09/16 08:09:12","新北市石碇區八分寮47-1號","121.643148333333","25.0136966666667","6501900","石碇區"
"223002","198-BX","2017/09/16 07:31:42","新北市石碇區烏塗窟14-1號","121.656258333333","24.9756283333333","6501900","石碇區"
"223008","406-TH","2017/09/16 08:09:15","新北市石碇區靜安路一段319號","121.696535","25.006525","6501900","石碇區"
"223001","437-BY","2017/09/16 08:09:03","新北市石碇區北宜路六段塗潭巷27號","121.649378333333","24.93282","6501900","石碇區"
"223004","660-BX","2017/09/16 08:09:13","新北市石碇區外按16-1號","121.650748333333","24.9975133333333","6501900","石碇區"
"223007","661-BX","2017/09/16 08:09:08","新北市石碇區靜安路一段319號","121.696503333333","25.0065516666667","6501900","石碇區"
"223005","677-TV","2017/09/16 08:09:13","新北市石碇區外按16-1號","121.650768333333","24.9974583333333","6501900","石碇區"
"227006","282-VK","2017/09/16 08:09:16","新北市雙溪區牡丹里聖南29號","121.855243333333","25.049165","6502500","雙溪區"
"253003","6232-TK","2017/09/16 08:09:10","新北市石門區石崩山6號","121.564476666667","25.283045","6502200","石門區"
"253001","6251-TK","2017/09/16 08:09:13","新北市石門區老梅路43-2號","121.54537","25.2896333333333","6502200","石門區"
"253002","637-UY","2017/09/16 08:09:15","新北市石門區老崩山12號","121.552448333333","25.2889","6502200","石門區"
"253004","8270-PC","2017/09/16 08:09:09","新北市石門區小坑12號","121.591496666667","25.2905316666667","6502200","石門區"
"252004","249-BX","2017/09/16 08:09:05","新北市三芝區興華里車埕14號","121.501261666667","25.19775","6502100","三芝區"
"252007","AAC-283","2017/09/16 08:09:05","新北市三芝區後厝里大片頭90號","121.456145","25.246895","6502100","三芝區"
"237001","159-UY","2017/09/16 08:09:15","新北市三峽區大學路156號","121.373623333333","24.9451216666667","6500900","三峽區"
"236011","165-UM","2017/09/16 08:09:16","新北市土城區青雲路587巷23號","121.46009","24.9713233333333","6501300","土城區"
"236002","339-SR","2017/09/16 08:08:34","新北市土城區龍泉路61號","121.42227","24.9432216666667","6501300","土城區"
"236006","498-BY","2017/09/16 08:09:08","新北市土城區永平街51號","121.427528333333","24.9591366666667","6501300","土城區"
