"lineid","car","time","location","longitude","latitude","cityid","cityname"
"244010","656-BX","2017/09/16 11:09:01","新北市林口區中山路5號","121.39654","25.07817","6501700","林口區"
"231007","189-VK","2017/09/16 11:09:01","新北市新店區新潭路一段160巷17號","121.529608333333","24.9319683333333","6500600","新店區"
"231008","192-VK","2017/09/16 11:09:14","新北市新店區松林路16巷41號","121.545395","24.9073483333333","6500600","新店區"
"247010","335-TH","2017/09/16 11:09:07","新北市五股區中興路三段5號","121.449345","25.079545","6501400","蘆洲區"
"227006","282-VK","2017/09/16 11:09:16","新北市雙溪區魚行里坤溪8號","121.866318333333","25.021295","6502500","雙溪區"
"239008","527-UM","2017/09/16 11:09:16","新北市鶯歌區中正一路374-1號","121.358601666667","24.9569883333333","6500800","鶯歌區"
