"lineid","car","time","location","longitude","latitude","cityid","cityname"
"244010","656-BX","2017/09/16 11:17:21","新北市林口區粉寮69號","121.405068333333","25.0907966666667","6501700","林口區"
"231008","192-VK","2017/09/16 12:09:14","新北市新店區櫻花街120號","121.547228333333","24.9228","6500600","新店區"
"247010","335-TH","2017/09/16 11:12:02","新北市五股區中興路三段163號","121.44909","25.08085","6501400","蘆洲區"
"228005","097-TW","2017/09/16 12:09:15","新北市貢寮區福隆里興隆街13-6號","121.944076666667","25.0165966666667","6502600","貢寮區"
"228004","212-TW","2017/09/16 12:09:07","新北市貢寮區貢寮里長泰路1號","121.907393333333","25.0193266666667","6502600","貢寮區"
"221012","276-VK","2017/09/16 12:09:04","新北市汐止區康寧街901號","121.651061666667","25.07528","6501100","汐止區"
