"lineid","car","time","location","longitude","latitude","cityid","cityname"
"234044","148-BY","2017/09/16 13:09:05","新北市永和區永元路18巷12弄2號","121.522898333333","25.0002966666667","6500400","永和區"
"234012","149-BY","2017/09/16 13:09:16","新北市永和區保福路二段62-1號","121.51079","25.0124433333333","6500400","永和區"
"234005","207-UY","2017/09/16 13:09:00","新北市永和區中山路一段147號","121.510258333333","25.0095433333333","6500400","永和區"
"234078","298-R6","2017/09/16 13:09:17","新北市永和區福和路57巷14弄10號","121.522258333333","25.0072716666667","6500400","永和區"
"234036","336-UY","2017/09/16 13:09:15","新北市永和區民樂街59巷15號","121.528378333333","24.9982783333333","6500400","永和區"
"234062","337-UY","2017/09/16 13:09:08","新北市永和區秀朗路二段67號","121.522126666667","25.0020416666667","6500400","永和區"
"234084","338-UY","2017/09/16 13:09:05","新北市永和區永利路69號","121.519666666667","25.0046816666667","6500400","永和區"
"234068","552-UM","2017/09/16 13:09:06","新北市永和區豫溪街103號","121.518776666667","25.0100916666667","6500400","永和區"
"234052","553-UM","2017/09/16 13:09:20","新北市永和區竹林路72巷2號","121.519138333333","25.0129416666667","6500400","永和區"
"234015","745-BX","2017/09/16 13:09:13","新北市永和區文化路90巷9弄2號","121.513763333333","25.0157933333333","6500400","永和區"
"234028","746-BX","2017/09/16 13:09:18","新北市永和區厚德街60號","121.524378333333","24.9988033333333","6500400","永和區"
"234060","AAD-866","2017/09/16 13:09:15","新北市永和區安樂路304巷24號","121.514963333333","25.0055083333333","6500400","永和區"
"234040","862-TW","2017/09/16 13:09:11","新北市永和區永貞路330號","121.511248333333","25.0055","6500400","永和區"
"234048","863-TW","2017/09/16 13:09:16","新北市永和區仁愛路104巷7弄62號","121.510783333333","25.0141466666667","6500400","永和區"
"234025","9371-KE","2017/09/16 13:09:18","新北市永和區秀朗路一段10巷21號","121.513255","25.00624","6500400","永和區"
"234010","9373-KE","2017/09/16 13:09:00","新北市永和區仁愛路34號","121.51443","25.0134333333333","6500400","永和區"
"248017","225-UY","2017/09/16 13:09:04","新北市五股區中興路三段198號","121.441208333333","25.082115","6501500","五股區"
"234022","9380-KE","2017/09/16 13:09:11","新北市永和區中興街27號","121.516078333333","25.0119216666667","6500400","永和區"
"234076","969-R7","2017/09/16 13:09:16","新北市永和區民有街10巷1號","121.516011666667","24.9971016666667","6500400","永和區"
"234072","AAC-211","2017/09/16 13:09:16","新北市永和區竹林路198號","121.520473333333","25.0093166666667","6500400","永和區"
"234066","AAC-212","2017/09/16 13:09:15","新北市永和區保平路33號","121.51204","25.00727","6500400","永和區"
"234001","AAC-295","2017/09/16 13:09:01","新北市永和區中山路一段30號","121.513623333333","25.0105383333333","6500400","永和區"
"244010","656-BX","2017/09/16 11:17:21","新北市林口區粉寮69號","121.405068333333","25.0907966666667","6501700","林口區"
"244005","657-BX","2017/09/16 13:09:19","新北市林口區中山路516號","121.37902","25.0829533333333","6501700","林口區"
"231002","002-UM","2017/09/16 13:09:05","新北市新店區安華路28-1號","121.519798333333","24.9608833333333","6500600","新店區"
"231024","0293-UT","2017/09/16 13:09:15","新北市新店區安華路28-1號","121.519503333333","24.9608083333333","6500600","新店區"
"231028","046-UY","2017/09/16 13:09:11","新北市新店區安華路28-1號","121.519611666667","24.9609133333333","6500600","新店區"
"231030","047-UY","2017/09/16 13:09:01","新北市新店區安華路28-1號","121.519048333333","24.9608733333333","6500600","新店區"
"231029","106-UY","2017/09/16 13:09:00","新北市新店區安華路28-1號","121.519701666667","24.96068","6500600","新店區"
"231018","107-UY","2017/09/16 13:09:13","新北市新店區安華路28-1號","121.519276666667","24.9613516666667","6500600","新店區"
"231012","108-UY","2017/09/16 13:09:06","新北市新店區安康路一段355-3號","121.519215","24.9615683333333","6500600","新店區"
"231020","187-VK","2017/09/16 13:09:04","新北市新店區安華路28-1號","121.519513333333","24.9613183333333","6500600","新店區"
"231017","215-TC","2017/09/16 13:09:19","新北市新店區安華路28-1號","121.519901666667","24.9611033333333","6500600","新店區"
"231026","256-BX","2017/09/16 13:09:16","新北市新店區安華路28-1號","121.519693333333","24.96116","6500600","新店區"
"231034","268-BY","2017/09/16 13:09:00","新北市新店區安華路1-1號","121.519401666667","24.9605366666667","6500600","新店區"
"231010","278-BY","2017/09/16 13:09:08","新北市新店區安華路28-1號","121.519776666667","24.961335","6500600","新店區"
"231023","AAD-862","2017/09/16 13:09:01","新北市新店區安華路28-1號","121.51989","24.9611466666667","6500600","新店區"
"231027","3712-VJ","2017/09/16 13:09:09","新北市新店區安華路28-1號","121.519098333333","24.9606683333333","6500600","新店區"
"231025","4716-K9","2017/09/16 13:09:02","新北市新店區安華路28-1號","121.51972","24.9611016666667","6500600","新店區"
"231038","4715-K9","2017/09/16 13:09:06","新北市新店區安華路28-1號","121.519206666667","24.96062","6500600","新店區"
"231036","512-UM","2017/09/16 04:01:17","新北市新店區安華路28-1號","121.519356666667","24.9613833333333","6500600","新店區"
"231035","515-UM","2017/09/16 13:09:04","新北市新店區安華路28-1號","121.519783333333","24.9611833333333","6500600","新店區"
"231006","617-UM","2017/09/16 13:09:03","新北市新店區安華路28-1號","121.519315","24.9611283333333","6500600","新店區"
"231001","619-UM","2017/09/16 13:09:17","新北市新店區安華路28-1號","121.519428333333","24.9608166666667","6500600","新店區"
"231003","641-BX","2017/09/16 13:09:02","新北市新店區安華路28-1號","121.519456666667","24.96056","6500600","新店區"
"231013","719-UM","2017/09/16 13:09:04","新北市新店區安華路28-1號","121.51947","24.9611483333333","6500600","新店區"
"231033","720-UM","2017/09/16 13:09:02","新北市新店區安華路28-1號","121.519156666667","24.961365","6500600","新店區"
"231005","897-TW","2017/09/16 13:09:16","新北市新店區安華路28-1號","121.519378333333","24.960755","6500600","新店區"
"231004","899-TW","2017/09/15 22:03:27","新北市新店區安華路28-1號","121.519226666667","24.9608866666667","6500600","新店區"
"231037","AKT-0513","2017/09/16 13:09:04","新北市新店區安華路1-1號","121.519466666667","24.960505","6500600","新店區"
"235028","005-UY","2017/09/16 13:09:16","新北市中和區員山路36巷16-3號","121.484776666667","24.9917116666667","6500300","中和區"
"235020","096-UM","2017/09/16 13:09:16","新北市中和區員山路36巷16-3號","121.484666666667","24.991365","6500300","中和區"
"235003","097-UM","2017/09/16 13:09:19","新北市中和區中正路637巷60弄61號","121.485481666667","24.9933133333333","6500300","中和區"
"235029","098-UM","2017/09/16 13:09:12","新北市中和區福美路312巷15號","121.496336666667","25.0055266666667","6500300","中和區"
"235004","150-BY","2017/09/16 13:09:08","新北市中和區中正路305號","121.492508333333","24.9937816666667","6500300","中和區"
"235022","151-BY","2017/09/16 13:09:17","新北市中和區圓通路367巷33弄59號","121.495641666667","24.9861583333333","6500300","中和區"
"235019","183-VK","2017/09/16 13:09:10","新北市中和區員山路36巷16-3號","121.484935","24.9913933333333","6500300","中和區"
"235002","185-VK","2017/09/16 13:09:08","新北市中和區大智街55巷30弄56號","121.521981666667","24.9933483333333","6500300","中和區"
"235031","255-BX","2017/09/16 13:09:15","新北市中和區新生街195號","121.483818333333","25.0002083333333","6500300","中和區"
"235036","301-VK","2017/09/16 13:09:06","新北市中和區員山路36巷13號","121.483988333333","24.9909883333333","6500300","中和區"
"235015","376-QA","2017/09/16 13:09:05","新北市中和區中正路273-3號","121.49563","24.993465","6500300","中和區"
"235032","377-QA","2017/09/16 13:09:16","新北市中和區員山路36巷16-3號","121.485131666667","24.99123","6500300","中和區"
"235014","4979-A6","2017/09/16 13:09:01","新北市中和區中正路169號","121.497978333333","24.9936","6500300","中和區"
"235033","4980-A6","2017/09/16 13:09:04","新北市中和區中正路571巷2弄1號","121.486561666667","24.9935316666667","6500300","中和區"
"235006","551-UM","2017/09/16 13:09:21","新北市中和區錦和路350-1號","121.49053","24.9936116666667","6500300","中和區"
"235034","558-UM","2017/09/16 13:09:19","新北市中和區員山路36巷16-5號","121.48485","24.992085","6500300","中和區"
"235018","640-BX","2017/09/16 13:09:05","新北市中和區連城路469巷79弄30號","121.484226666667","24.993835","6500300","中和區"
"235010","733-UM","2017/09/16 13:09:14","新北市中和區員山路36巷13號","121.484053333333","24.9909783333333","6500300","中和區"
"235026","800-TS","2017/09/16 13:08:59","新北市中和區建一路1-1號","121.488136666667","25.00436","6500300","中和區"
"235016","805-TS","2017/09/16 13:09:09","新北市中和區中正路545巷1號","121.487253333333","24.9935366666667","6500300","中和區"
"235001","AAC-213","2017/09/16 13:09:11","新北市中和區景平路367號","121.504375","24.9933816666667","6500300","中和區"
"235023","AAC-215","2017/09/16 00:28:24","新北市中和區員山路36巷16-3號","121.484998333333","24.991275","6500300","中和區"
"247010","335-TH","2017/09/16 11:12:02","新北市五股區中興路三段163號","121.44909","25.08085","6501400","蘆洲區"
"228005","097-TW","2017/09/16 13:09:15","新北市貢寮區仁理村仁和路49巷7號","121.923195","25.05393","6502600","貢寮區"
"228004","212-TW","2017/09/16 13:09:07","新北市貢寮區吉林里內寮街69號","121.892656666667","24.9742716666667","6502600","貢寮區"
"208004","AAC-292","2017/09/16 13:09:16","新北市金山區中山路192號","121.637851666667","25.221505","6502700","金山區"
"207002","749-BX","2017/09/16 13:05:52","新北市萬里區溪底里香員林路15-2號","121.633316666667","25.1632316666667","6502800","萬里區"
"252005","073-UM","2017/09/16 13:08:32","新北市三芝區八賢里八連溪1-7號","121.507215","25.24901","6502100","三芝區"
"207001","662-BX","2017/09/16 13:09:18","新北市萬里區萬里里瑪鋉路24號","121.688961666667","25.1771233333333","6502800","萬里區"
"236006","498-BY","2017/09/16 13:09:18","新北市土城區亞洲路31號","121.433808333333","24.971745","6501300","土城區"
"238008","308-TH","2017/09/16 13:09:09","新北市樹林區東豐街49巷22弄39號","121.41376","24.9747666666667","6500700","樹林區"
"221012","276-VK","2017/09/16 13:09:04","新北市汐止區大同路二段435號","121.65931","25.0674583333333","6501100","汐止區"
"221032","280-BY","2017/09/16 13:09:00","新北市汐止區連興街50號","121.654345","25.063315","6501100","汐止區"
