"lineid","car","time","location","longitude","latitude","cityid","cityname"
"234044","148-BY","2017/09/16 13:39:05","新北市永和區秀朗路二段68號","121.522831666667","25.001635","6500400","永和區"
"234012","149-BY","2017/09/16 13:39:15","新北市永和區仁愛路200號","121.509413333333","25.0123233333333","6500400","永和區"
"234005","207-UY","2017/09/16 13:39:00","新北市永和區永和路一段125號","121.514035","25.0082716666667","6500400","永和區"
"234078","298-R6","2017/09/16 13:39:15","新北市永和區林森路52號","121.524548333333","25.0043966666667","6500400","永和區"
"234036","336-UY","2017/09/16 13:39:15","新北市永和區環河東路四段22號","121.528573333333","24.9996","6500400","永和區"
"234062","337-UY","2017/09/16 13:39:08","新北市永和區秀朗路一段192巷6弄12號","121.519036666667","25.002375","6500400","永和區"
"234084","338-UY","2017/09/16 13:39:05","新北市永和區林森路41巷31號","121.526248333333","25.0043316666667","6500400","永和區"
"234068","552-UM","2017/09/16 13:39:02","新北市永和區竹林路101號","121.519773333333","25.0119433333333","6500400","永和區"
"234052","553-UM","2017/09/16 13:39:00","新北市永和區竹林路39巷21號","121.518918333333","25.0148266666667","6500400","永和區"
"234015","745-BX","2017/09/16 13:39:13","新北市永和區永和路二段425巷18號","121.514831666667","25.0177333333333","6500400","永和區"
"234028","746-BX","2017/09/16 13:38:58","新北市永和區民生路49號","121.522758333333","24.9977816666667","6500400","永和區"
"234060","AAD-866","2017/09/16 13:39:15","新北市永和區永貞路180號","121.51634","25.0043366666667","6500400","永和區"
"234040","862-TW","2017/09/16 13:39:11","新北市永和區中和路305巷2弄1號","121.506621666667","25.0000583333333","6500400","永和區"
"234048","863-TW","2017/09/16 13:39:16","新北市永和區保安路47號","121.509503333333","25.0159416666667","6500400","永和區"
"234025","9371-KE","2017/09/16 13:39:18","新北市永和區永平路164號","121.511053333333","25.0089583333333","6500400","永和區"
"234010","9373-KE","2017/09/16 13:39:00","新北市永和區保福路二段23巷21號","121.510058333333","25.011255","6500400","永和區"
"248017","225-UY","2017/09/16 13:39:03","新北市五股區民義路二段78號","121.405933333333","25.1090133333333","6501500","五股區"
"234022","9380-KE","2017/09/16 13:39:13","新北市永和區中正路702巷18號","121.516383333333","25.010475","6500400","永和區"
"234076","969-R7","2017/09/16 13:39:16","新北市永和區民族街27巷2號","121.518903333333","24.999585","6500400","永和區"
"234072","AAC-211","2017/09/16 13:39:16","新北市永和區竹林路213巷44號","121.523145","25.0089666666667","6500400","永和區"
"234066","AAC-212","2017/09/16 13:39:06","新北市永和區中山路一段147號","121.510186666667","25.0094816666667","6500400","永和區"
"234001","AAC-295","2017/09/16 13:39:01","新北市永和區自由街2號","121.514915","25.007225","6500400","永和區"
"244010","656-BX","2017/09/16 11:17:21","新北市林口區粉寮69號","121.405068333333","25.0907966666667","6501700","林口區"
"244005","657-BX","2017/09/16 13:39:20","新北市林口區南勢里78-8號","121.348328333333","25.07642","6501700","林口區"
"231002","002-UM","2017/09/16 13:39:05","新北市新店區中央三街127號","121.524041666667","24.9768333333333","6500600","新店區"
"231024","0293-UT","2017/09/16 13:39:15","新北市新店區華興街15號","121.537763333333","24.9694766666667","6500600","新店區"
"231028","046-UY","2017/09/16 13:39:10","新北市新店區安和路二段163號","121.518858333333","24.97435","6500600","新店區"
"231030","047-UY","2017/09/16 13:39:21","新北市新店區安康路一段92-1號","121.52782","24.9620166666667","6500600","新店區"
"231029","106-UY","2017/09/16 13:39:18","新北市新店區安康路二段226號","121.509545","24.9592883333333","6500600","新店區"
"231018","107-UY","2017/09/16 13:39:13","新北市新店區中正路356號","121.535668333333","24.9757083333333","6500600","新店區"
"231012","108-UY","2017/09/16 13:39:06","新北市新店區德正街27巷8號","121.545086666667","24.971535","6500600","新店區"
"231020","187-VK","2017/09/16 13:39:04","新北市新店區永興路125號","121.54423","24.9309983333333","6500600","新店區"
"231017","215-TC","2017/09/16 13:38:59","新北市新店區竹林路2巷23-1號","121.550311666667","24.950975","6500600","新店區"
"231026","256-BX","2017/09/16 13:39:16","新北市新店區北新路一段209號","121.540485","24.9650316666667","6500600","新店區"
"231034","268-BY","2017/09/16 13:39:00","新北市新店區車子路109號","121.505223333333","24.952105","6500600","新店區"
"231010","278-BY","2017/09/16 13:39:09","新北市新店區中正路307巷2號","121.536461666667","24.97456","6500600","新店區"
"231023","AAD-862","2017/09/16 13:39:01","新北市新店區新店路119號","121.53715","24.9541483333333","6500600","新店區"
"231027","3712-VJ","2017/09/16 13:39:09","新北市新店區北宜路一段170號","121.540568333333","24.953035","6500600","新店區"
"231025","4716-K9","2017/09/16 13:39:01","新北市新店區中央六街56號","121.527916666667","24.97577","6500600","新店區"
"231038","4715-K9","2017/09/16 13:39:06","新北市新店區安華路30巷1號","121.519615","24.9593333333333","6500600","新店區"
"231036","512-UM","2017/09/16 13:39:02","新北市新店區安祥路147巷41號","121.476498333333","24.9564416666667","6500600","新店區"
"231035","515-UM","2017/09/16 13:39:04","新北市新店區安忠路56巷2號","121.512843333333","24.9592616666667","6500600","新店區"
"231006","617-UM","2017/09/16 13:39:09","新北市新店區北宜路一段83號","121.538636666667","24.956","6500600","新店區"
"231001","619-UM","2017/09/16 13:39:17","新北市新店區中正路396號","121.534628333333","24.9773566666667","6500600","新店區"
"231003","641-BX","2017/09/16 13:39:03","新北市新店區北新路一段126巷27號","121.543125","24.96955","6500600","新店區"
"231013","719-UM","2017/09/16 13:39:16","新北市新店區二十張路125號","121.535938333333","24.97937","6500600","新店區"
"231033","720-UM","2017/09/16 13:39:02","新北市新店區莒光路44巷21弄11-6號","121.51853","24.9522333333333","6500600","新店區"
"231005","897-TW","2017/09/16 13:39:16","新北市新店區中興路三段6號","121.54742","24.9775966666667","6500600","新店區"
"231004","899-TW","2017/09/16 13:39:06","新北市新店區北新路二段7號","121.542536666667","24.9713566666667","6500600","新店區"
"231037","AKT-0513","2017/09/16 13:39:04","新北市新店區薏仁坑路6號","121.500171666667","24.958115","6500600","新店區"
"235030","003-UY","2017/09/16 13:39:07","新北市中和區水源路31號","121.504141666667","25.00359","6500300","中和區"
"235028","005-UY","2017/09/16 13:39:16","新北市中和區連城路139巷6號","121.496035","24.9985466666667","6500300","中和區"
"235020","096-UM","2017/09/16 13:39:16","新北市中和區員山路466巷21弄13號","121.480978333333","25.006975","6500300","中和區"
"235003","097-UM","2017/09/16 13:38:59","新北市中和區大勇街25巷40號","121.515451666667","24.9939683333333","6500300","中和區"
"235029","098-UM","2017/09/16 13:39:12","新北市中和區中山路二段2巷45弄44號","121.50165","25.006255","6500300","中和區"
"235004","150-BY","2017/09/16 13:39:08","新北市中和區安平路59號","121.509478333333","24.9951566666667","6500300","中和區"
"235022","151-BY","2017/09/16 13:39:17","新北市中和區圓通路369巷66號","121.490488333333","24.9825366666667","6500300","中和區"
"235019","183-VK","2017/09/16 13:39:10","新北市中和區莒光路120巷13弄2號","121.471643333333","25.00145","6500300","中和區"
"235002","185-VK","2017/09/16 13:39:08","新北市中和區立人街14巷40弄7號","121.519045","24.9958133333333","6500300","中和區"
"235013","186-VK","2017/09/16 13:39:14","新北市中和區景平路480號","121.505181666667","24.9937","6500300","中和區"
"235031","255-BX","2017/09/16 13:39:15","新北市中和區新生街232號","121.483821666667","24.9981933333333","6500300","中和區"
"235008","293-VK","2017/09/16 13:39:03","新北市中和區復興路301巷2弄2號","121.501481666667","24.9899716666667","6500300","中和區"
"235036","301-VK","2017/09/16 13:39:17","新北市中和區連城路97號","121.496661666667","24.9999316666667","6500300","中和區"
"235007","352-BY","2017/09/16 13:39:07","新北市中和區景平路125巷2弄2號","121.515051666667","24.9919533333333","6500300","中和區"
"235015","376-QA","2017/09/16 13:39:05","新北市中和區興南路二段149號","121.505031666667","24.983595","6500300","中和區"
"235032","377-QA","2017/09/16 13:39:16","新北市中和區中正路215號","121.496771666667","24.993575","6500300","中和區"
"235025","378-QA","2017/09/16 13:39:17","新北市中和區民享街88巷24號","121.473403333333","25.0004266666667","6500300","中和區"
"235014","4979-A6","2017/09/16 13:39:01","新北市中和區忠孝街62巷9弄10號","121.513126666667","24.983965","6500300","中和區"
"235033","4980-A6","2017/09/16 13:39:04","新北市中和區連城路65巷8號","121.49782","25.0008633333333","6500300","中和區"
"235006","551-UM","2017/09/16 13:39:01","新北市中和區秀朗路三段175巷23號","121.525836666667","24.9908433333333","6500300","中和區"
"235034","558-UM","2017/09/16 13:39:00","新北市中和區南山路127巷18弄44號","121.503453333333","24.99641","6500300","中和區"
"235009","565-BX","2017/09/16 13:39:01","新北市中和區復興路49巷2號","121.504651666667","24.9898433333333","6500300","中和區"
"235018","640-BX","2017/09/16 13:39:05","新北市中和區民享街86巷1號","121.47446","25.0009966666667","6500300","中和區"
"235024","647-TV","2017/09/16 13:39:12","新北市中和區台新街45號","121.47997","25.0050883333333","6500300","中和區"
"235011","732-UM","2017/09/16 13:39:11","新北市中和區南山路300號","121.507848333333","24.98716","6500300","中和區"
"235010","733-UM","2017/09/16 13:39:14","新北市中和區南山路399巷10號","121.507091666667","24.9904766666667","6500300","中和區"
"235026","800-TS","2017/09/16 13:39:19","新北市中和區中山路二段312巷33弄23號","121.494793333333","25.004105","6500300","中和區"
"235021","801-TS","2017/09/16 13:39:18","新北市中和區民享街97巷12號","121.47511","24.9996416666667","6500300","中和區"
"235016","805-TS","2017/09/16 13:39:09","新北市中和區興南路三段52巷1-3號","121.494001666667","24.9760466666667","6500300","中和區"
"235012","896-TW","2017/09/16 13:39:03","新北市中和區中正路83號","121.500596666667","24.9935516666667","6500300","中和區"
"235017","900-TW","2017/09/16 13:39:04","新北市中和區民享街467號","121.46989","24.9926633333333","6500300","中和區"
"235027","911-UM","2017/09/16 13:39:02","新北市中和區連城路347巷16弄43號","121.486948333333","24.9950716666667","6500300","中和區"
"235001","AAC-213","2017/09/16 13:39:11","新北市中和區景平路111巷71號","121.51504","24.9903116666667","6500300","中和區"
"235023","AAC-215","2017/09/16 13:39:01","新北市中和區和城路一段271巷1號","121.485465","24.9918016666667","6500300","中和區"
"220016","013-TV","2017/09/16 13:39:14","新北市板橋區民生路二段161巷5號","121.47029","25.0197333333333","6500100","板橋區"
"220034","073-UY","2017/09/16 13:39:17","新北市板橋區南雅西路二段175巷2號","121.451623333333","25.012565","6500100","板橋區"
"220017","AAD-861","2017/09/16 13:39:08","新北市板橋區華東街1-9號","121.448151666667","24.99507","6500100","板橋區"
"247011","546-UM","2017/09/16 13:39:14","新北市五股區成泰路三段436號","121.455341666667","25.0974983333333","6501400","蘆洲區"
"247009","339-TH","2017/09/16 13:39:11","新北市五股區成洲五路38號","121.453778333333","25.1012483333333","6501400","蘆洲區"
"247010","335-TH","2017/09/16 13:21:42","新北市五股區中興路三段2巷10號","121.448651666667","25.08154","6501400","蘆洲區"
"247015","057-VK","2017/09/16 13:39:13","新北市蘆洲區中正路507號","121.461028333333","25.0976883333333","6501400","蘆洲區"
"247005","056-VK","2017/09/16 13:39:10","新北市五股區中興路二段182巷15弄13號","121.457196666667","25.081635","6501400","蘆洲區"
"247017","001-UY","2017/09/16 13:39:01","新北市五股區中興路三段5號","121.44904","25.079855","6501400","蘆洲區"
"228005","097-TW","2017/09/16 13:39:15","新北市貢寮區美豐里文秀坑5-1號","121.902873333333","25.0507883333333","6502600","貢寮區"
"228004","212-TW","2017/09/16 13:39:07","新北市貢寮區龍崗里嵩陽街41-2號","121.907155","25.007045","6502600","貢寮區"
"208004","AAC-292","2017/09/16 13:39:16","新北市金山區重和里三重橋14號","121.590328333333","25.1891733333333","6502700","金山區"
"207002","749-BX","2017/09/16 13:39:12","新北市萬里區崁腳里崁腳路166號","121.645091666667","25.1558466666667","6502800","萬里區"
"252005","073-UM","2017/09/16 13:39:12","新北市三芝區圓山里木屐寮38-1號","121.52857","25.2258183333333","6502100","三芝區"
"207001","662-BX","2017/09/16 13:38:58","新北市萬里區磺潭里公館崙23號","121.63632","25.2137133333333","6502800","萬里區"
"236043","107-UM","2017/09/16 13:39:04","新北市土城區城林路6巷80號","121.438488333333","24.9798883333333","6501300","土城區"
"236029","253-BX","2017/09/16 13:39:02","新北市土城區城林路6巷80號","121.43852","24.979835","6501300","土城區"
"236025","269-VK","2017/09/16 13:39:09","新北市土城區城林路6巷80號","121.438626666667","24.97975","6501300","土城區"
"236013","270-VK","2017/09/16 13:39:07","新北市土城區城林路6巷80號","121.438585","24.9797316666667","6501300","土城區"
"236035","271-VK","2017/09/16 13:39:15","新北市土城區城林路6巷80號","121.43847","24.9798433333333","6501300","土城區"
"236017","401-BY","2017/09/16 13:39:00","新北市土城區城林路6巷80號","121.43863","24.9797666666667","6501300","土城區"
"236061","915-UM","2017/09/16 13:39:02","新北市土城區城林路6巷80號","121.43841","24.9799483333333","6501300","土城區"
"236054","AAC-216","2017/09/16 13:39:01","新北市土城區城林路6巷80號","121.438458333333","24.9798033333333","6501300","土城區"
"242046","172-VK","2017/09/16 13:06:09","新北市新莊區福營路163號","121.431966666667","25.031345","6500500","新莊區"
"221012","276-VK","2017/09/16 13:24:56","新北市汐止區汐萬路一段256巷3號","121.653443333333","25.0745933333333","6501100","汐止區"
"221032","280-BY","2017/09/16 13:39:00","新北市汐止區仁愛路1號","121.658978333333","25.06427","6501100","汐止區"
"220027","145-BY","2017/09/16 13:39:07","新北市板橋區幸福路70巷1號","121.46064","25.0200466666667","6500100","板橋區"
"220028","200-UY","2017/09/16 13:39:00","新北市板橋區華東街1-8號","121.447826666667","24.9948283333333","6500100","板橋區"
"220030","610-BX","2017/09/16 13:39:14","新北市板橋區華東街1-9號","121.448246666667","24.9949166666667","6500100","板橋區"
"220050","245-BX","2017/09/16 03:00:42","新北市板橋區民生路二段120號","121.470356666667","25.0196233333333","6500100","板橋區"
"220004","276-BY","2017/09/16 13:39:04","新北市板橋區四川路二段橋頭6號","121.44816","24.993925","6500100","板橋區"
"220020","277-BY","2017/09/16 13:39:06","新北市板橋區華東街1-10號","121.44831","24.9950616666667","6500100","板橋區"
"220042","280-UM","2017/09/16 13:39:09","新北市板橋區民生路二段171號","121.470003333333","25.02024","6500100","板橋區"
"220019","283-VK","2017/09/16 13:39:12","新北市板橋區華東街1-10號","121.448695","24.99503","6500100","板橋區"
"220001","285-VK","2017/09/16 13:39:14","新北市板橋區民生路二段188號","121.470106666667","25.02029","6500100","板橋區"
"220031","286-VK","2017/09/16 13:39:11","新北市板橋區華東街1-10號","121.448241666667","24.9950216666667","6500100","板橋區"
"220029","287-VK","2017/09/16 13:27:01","新北市板橋區華東街1-10號","121.448273333333","24.9951433333333","6500100","板橋區"
"220010","293-UM","2017/09/16 13:39:13","新北市板橋區民生路二段120號","121.470365","25.0197616666667","6500100","板橋區"
"220009","295-UM","2017/09/16 02:42:49","新北市板橋區民生路二段120號","121.470508333333","25.0194366666667","6500100","板橋區"
"220023","297-UM","2017/09/16 13:39:08","新北市板橋區華東街1-8號","121.44776","24.9948483333333","6500100","板橋區"
"220047","317-R6","2017/09/16 13:39:10","新北市板橋區民生路二段161巷1號","121.47015","25.0201733333333","6500100","板橋區"
"220022","461-BY","2017/09/16 13:39:13","新北市板橋區南雅南路一段8號","121.45589","25.00636","6500100","板橋區"
"220012","486-VK","2017/09/16 13:39:08","新北市板橋區南雅南路二段4巷12號","121.453758333333","25.0037616666667","6500100","板橋區"
"220104","560-BX","2017/09/16 13:38:57","新北市板橋區南雅西路二段145巷6號","121.451616666667","25.0117283333333","6500100","板橋區"
"220032","568-UM","2017/09/16 13:39:06","新北市板橋區華東街1-9號","121.448135","24.994955","6500100","板橋區"
"220011","609-BX","2017/09/16 13:39:06","新北市板橋區民生路二段188號","121.469951666667","25.0205283333333","6500100","板橋區"
"220005","686-BX","2017/09/16 13:39:13","新北市板橋區華東街1-9號","121.448143333333","24.9948566666667","6500100","板橋區"
"220025","687-BX","2017/09/16 13:39:06","新北市板橋區大觀路三段263號","121.429173333333","24.9922166666667","6500100","板橋區"
"220002","741-BX","2017/09/16 13:39:08","新北市板橋區華東街1-9號","121.448075","24.9949433333333","6500100","板橋區"
"220045","831-TW","2017/09/16 01:28:59","新北市板橋區民生路二段161巷3號","121.470138333333","25.0198","6500100","板橋區"
"220018","AAC-253","2017/09/16 13:38:57","新北市板橋區華東街1-9號","121.448231666667","24.9948866666667","6500100","板橋區"
