"lineid","car","time","location","longitude","latitude","cityid","cityname"
"234044","148-BY","2017/09/16 13:49:05","新北市永和區永亨路175號","121.526248333333","25.0034233333333","6500400","永和區"
"234012","149-BY","2017/09/16 13:49:15","新北市永和區保安路153號","121.50681","25.0127416666667","6500400","永和區"
"234005","207-UY","2017/09/16 13:49:00","新北市永和區中和路603號","121.512508333333","25.0043316666667","6500400","永和區"
"234078","298-R6","2017/09/16 13:49:17","新北市永和區永利路81巷15號","121.52219","25.00378","6500400","永和區"
"234036","336-UY","2017/09/16 13:49:15","新北市永和區秀朗路二段259號","121.52642","24.9991966666667","6500400","永和區"
"234062","337-UY","2017/09/16 13:48:48","新北市永和區中正路368巷10弄1號","121.518296666667","25.0005866666667","6500400","永和區"
"234084","338-UY","2017/09/16 13:49:05","新北市永和區永利路38號","121.518641666667","25.0055116666667","6500400","永和區"
"234068","552-UM","2017/09/16 13:49:20","新北市永和區國光路39-2號","121.519035","25.008015","6500400","永和區"
"234052","553-UM","2017/09/16 13:49:20","新北市永和區竹林路75巷25弄9號","121.520103333333","25.0144283333333","6500400","永和區"
"234015","745-BX","2017/09/16 13:49:13","新北市永和區永和路二段310號","121.516145","25.016045","6500400","永和區"
"234028","746-BX","2017/09/16 13:49:10","新北市永和區四維街89巷2弄3號","121.524261666667","24.9977016666667","6500400","永和區"
"234060","AAD-866","2017/09/16 13:49:05","新北市永和區中正路192號","121.515446666667","24.9971466666667","6500400","永和區"
"234040","862-TW","2017/09/16 13:49:11","新北市永和區中和路389巷7-1號","121.508115","25.0007166666667","6500400","永和區"
"234048","863-TW","2017/09/16 13:49:16","新北市永和區保安路144號","121.508568333333","25.0149733333333","6500400","永和區"
"234025","9371-KE","2017/09/16 13:48:58","新北市永和區保生路55-1號","121.504515","25.010935","6500400","永和區"
"234010","9373-KE","2017/09/16 13:49:07","新北市永和區保福路二段163巷14號","121.508788333333","25.0146633333333","6500400","永和區"
"248017","225-UY","2017/09/16 13:49:03","新北市五股區民義路二段22巷35-2號","121.424345","25.100355","6501500","五股區"
"234022","9380-KE","2017/09/16 13:49:11","新北市永和區中正路654巷27號","121.517505","25.0085816666667","6500400","永和區"
"234076","969-R7","2017/09/16 13:49:16","新北市永和區民治街59巷1號","121.518606666667","24.9977916666667","6500400","永和區"
"234072","AAC-211","2017/09/16 13:49:16","新北市永和區竹林路179巷46號","121.522525","25.0102816666667","6500400","永和區"
"234066","AAC-212","2017/09/16 13:49:06","新北市永和區中山路一段281巷2弄2號","121.507068333333","25.0067466666667","6500400","永和區"
"234001","AAC-295","2017/09/16 13:49:01","新北市永和區永和路一段136號","121.514045","25.00798","6500400","永和區"
"244010","656-BX","2017/09/16 11:17:21","新北市林口區粉寮69號","121.405068333333","25.0907966666667","6501700","林口區"
"244005","657-BX","2017/09/16 13:48:59","新北市林口區信義路206號","121.377801666667","25.0806966666667","6501700","林口區"
"231002","002-UM","2017/09/16 13:49:05","新北市新店區溪園路245-6號","121.525225","24.9831583333333","6500600","新店區"
"231024","0293-UT","2017/09/16 13:48:55","新北市新店區中華路47巷9號","121.539686666667","24.9673666666667","6500600","新店區"
"231028","046-UY","2017/09/16 13:49:10","新北市新店區安和路三段9巷1號","121.517995","24.9806533333333","6500600","新店區"
"231030","047-UY","2017/09/16 13:49:01","新北市新店區安康路一段222號","121.523813333333","24.9635216666667","6500600","新店區"
"231029","106-UY","2017/09/16 13:49:00","新北市新店區安康路二段156號","121.51235","24.9608866666667","6500600","新店區"
"231018","107-UY","2017/09/16 13:49:13","新北市新店區中正路382巷34號","121.535598333333","24.9781033333333","6500600","新店區"
"231012","108-UY","2017/09/16 13:49:06","新北市新店區德正街25巷3號","121.5444","24.9717483333333","6500600","新店區"
"231020","187-VK","2017/09/16 13:49:04","新北市新店區新烏路二段2號","121.543233333333","24.929915","6500600","新店區"
"231017","215-TC","2017/09/16 13:48:59","新北市新店區竹林路82號","121.554471666667","24.9505016666667","6500600","新店區"
"231026","256-BX","2017/09/16 13:49:16","新北市新店區三民路86號","121.534403333333","24.9726533333333","6500600","新店區"
"231034","268-BY","2017/09/16 13:49:20","新北市新店區達觀路12號","121.505488333333","24.9405683333333","6500600","新店區"
"231010","278-BY","2017/09/16 13:49:11","新北市新店區三民路60巷8號","121.535565","24.9726233333333","6500600","新店區"
"231023","AAD-862","2017/09/16 13:49:01","新北市新店區國校路65巷1號","121.538376666667","24.954095","6500600","新店區"
"231027","3712-VJ","2017/09/16 13:49:09","新北市新店區北宜路一段98號","121.538986666667","24.9554266666667","6500600","新店區"
"231025","4716-K9","2017/09/16 13:49:02","新北市新店區中央五街55號","121.527816666667","24.975645","6500600","新店區"
"231038","4715-K9","2017/09/16 13:49:06","新北市新店區安康路一段291巷32-1號","121.522301666667","24.962475","6500600","新店區"
"231036","512-UM","2017/09/16 13:49:02","新北市新店區安祥路110巷30弄1號","121.473976666667","24.9564966666667","6500600","新店區"
"231035","515-UM","2017/09/16 13:49:04","新北市新店區安忠路57巷5-6號","121.513226666667","24.9586516666667","6500600","新店區"
"231006","617-UM","2017/09/16 13:49:03","新北市新店區北宜路一段256號","121.54561","24.9528116666667","6500600","新店區"
"231001","619-UM","2017/09/16 13:49:17","新北市新店區三民路40號","121.536188333333","24.9715216666667","6500600","新店區"
"231003","641-BX","2017/09/16 13:49:02","新北市新店區中興路一段164號","121.542653333333","24.9642033333333","6500600","新店區"
"231013","719-UM","2017/09/16 13:49:10","新北市新店區二十張路25巷18弄35號","121.53926","24.9811116666667","6500600","新店區"
"231033","720-UM","2017/09/16 13:49:02","新北市新店區華城路66-46號","121.521571666667","24.9525333333333","6500600","新店區"
"231005","897-TW","2017/09/16 13:49:16","新北市新店區寶中路100號","121.549771666667","24.9790516666667","6500600","新店區"
"231004","899-TW","2017/09/16 13:49:06","新北市新店區寶橋路69-1號","121.545481666667","24.9751233333333","6500600","新店區"
"231037","AKT-0513","2017/09/16 13:49:04","新北市新店區安康路三段359巷10弄1號","121.484358333333","24.9504","6500600","新店區"
"235030","003-UY","2017/09/16 13:49:07","新北市中和區光華街9號","121.504475","25.0043833333333","6500300","中和區"
"235028","005-UY","2017/09/16 13:49:16","新北市中和區連城路99巷4號","121.496551666667","24.999525","6500300","中和區"
"235020","096-UM","2017/09/16 13:49:16","新北市中和區立德街329號","121.48163","25.0104716666667","6500300","中和區"
"235003","097-UM","2017/09/16 13:48:59","新北市中和區大勇街25巷38弄13號","121.516188333333","24.9940083333333","6500300","中和區"
"235029","098-UM","2017/09/16 13:49:12","新北市中和區中山路二段2巷45弄24號","121.501491666667","25.006965","6500300","中和區"
"235004","150-BY","2017/09/16 13:49:08","新北市中和區宜安路120號","121.510265","24.99809","6500300","中和區"
"235022","151-BY","2017/09/16 13:49:17","新北市中和區連城路571號","121.479166666667","24.9944916666667","6500300","中和區"
"235019","183-VK","2017/09/16 13:49:10","新北市中和區德光路77巷6弄1號","121.469933333333","25.00328","6500300","中和區"
"235002","185-VK","2017/09/16 13:49:08","新北市中和區自強路62巷12號","121.519453333333","24.9945716666667","6500300","中和區"
"235013","186-VK","2017/09/16 13:49:04","新北市中和區明義街11巷12弄2號","121.503706666667","24.994675","6500300","中和區"
"235031","255-BX","2017/09/16 13:49:15","新北市中和區新生街220巷4號","121.482891666667","24.9985266666667","6500300","中和區"
"235008","293-VK","2017/09/16 13:49:04","新北市中和區復興路280巷3弄1號","121.502216666667","24.990825","6500300","中和區"
"235036","301-VK","2017/09/16 13:49:05","新北市永和區保生路2號","121.506991666667","25.0071983333333","6500300","中和區"
"235007","352-BY","2017/09/16 13:49:07","新北市中和區成功路48號","121.526021666667","24.992845","6500300","中和區"
"235015","376-QA","2017/09/16 13:49:05","新北市中和區華新街109巷11弄2-4號","121.508753333333","24.9796133333333","6500300","中和區"
"235032","377-QA","2017/09/16 13:49:16","新北市中和區中正路211巷38-4號","121.49763","24.992725","6500300","中和區"
"235025","378-QA","2017/09/16 13:49:17","新北市中和區民享街26號","121.473956666667","25.0036266666667","6500300","中和區"
"235014","4979-A6","2017/09/16 13:49:01","新北市中和區忠孝街58巷3號","121.51193","24.9834216666667","6500300","中和區"
"235033","4980-A6","2017/09/16 13:49:04","新北市中和區南山路52巷29號","121.501088333333","24.9971583333333","6500300","中和區"
"235006","551-UM","2017/09/16 13:49:01","新北市中和區秀朗路三段175巷11號","121.525158333333","24.9915033333333","6500300","中和區"
"235034","558-UM","2017/09/16 13:49:19","新北市中和區南華路23號","121.50284","24.9960216666667","6500300","中和區"
"235009","565-BX","2017/09/16 13:49:01","新北市中和區南山路389號","121.506431666667","24.9902933333333","6500300","中和區"
"235018","640-BX","2017/09/16 13:49:05","新北市中和區民享街54巷17號","121.473318333333","25.0023266666667","6500300","中和區"
"235024","647-TV","2017/09/16 13:49:12","新北市中和區中山路三段28-3號","121.47911","25.0061833333333","6500300","中和區"
"235011","732-UM","2017/09/16 13:49:11","新北市中和區興南路二段52號","121.506533333333","24.9850133333333","6500300","中和區"
"235010","733-UM","2017/09/16 13:49:14","新北市中和區仁愛街36巷44號","121.511355","24.9863166666667","6500300","中和區"
"235026","800-TS","2017/09/16 13:49:19","新北市中和區中山路二段340巷38號","121.493465","25.0038916666667","6500300","中和區"
"235021","801-TS","2017/09/16 13:49:18","新北市中和區民安街2巷18號","121.480231666667","25.0017133333333","6500300","中和區"
"235016","805-TS","2017/09/16 13:49:09","新北市中和區興南路二段399巷51-1號","121.501123333333","24.9768866666667","6500300","中和區"
"235012","896-TW","2017/09/16 13:49:03","新北市中和區南山路234號","121.506606666667","24.9901433333333","6500300","中和區"
"235017","900-TW","2017/09/16 13:49:08","新北市中和區華福街8號","121.465555","24.9968083333333","6500300","中和區"
"235027","911-UM","2017/09/16 13:49:09","新北市中和區錦和路194號","121.490003333333","24.994955","6500300","中和區"
"235001","AAC-213","2017/09/16 13:49:11","新北市中和區秀朗路三段175巷7號","121.525016666667","24.9914716666667","6500300","中和區"
"235023","AAC-215","2017/09/16 13:49:01","新北市中和區圓通路292巷2-1號","121.490183333333","24.989635","6500300","中和區"
"220016","013-TV","2017/09/16 13:49:14","新北市板橋區縣民大道三段33巷1弄13號","121.473436666667","25.0204216666667","6500100","板橋區"
"220034","073-UY","2017/09/16 13:49:17","新北市板橋區大智街71巷40號","121.452921666667","25.0143683333333","6500100","板橋區"
"220017","AAD-861","2017/09/16 13:49:08","新北市板橋區南雅南路二段120-2號","121.45242","25.0000583333333","6500100","板橋區"
"247011","546-UM","2017/09/16 13:49:14","新北市蘆洲區中興街24號","121.480676666667","25.0869283333333","6501400","蘆洲區"
"247009","339-TH","2017/09/16 13:49:11","新北市三重區集賢路186號","121.48406","25.088215","6501400","蘆洲區"
"247003","336-TH","2017/09/16 13:49:15","新北市蘆洲區中原路3號","121.461441666667","25.083465","6501400","蘆洲區"
"247010","335-TH","2017/09/16 13:21:42","新北市五股區中興路三段2巷10號","121.448651666667","25.08154","6501400","蘆洲區"
"247015","057-VK","2017/09/16 13:49:13","新北市蘆洲區忠孝路22號","121.470745","25.0843933333333","6501400","蘆洲區"
"247005","056-VK","2017/09/16 13:49:10","新北市蘆洲區和平路90號","121.469371666667","25.0792266666667","6501400","蘆洲區"
"247007","053-VK","2017/09/16 13:49:14","新北市蘆洲區重陽街90號","121.482013333333","25.0846616666667","6501400","蘆洲區"
"247017","001-UY","2017/09/16 13:49:01","新北市蘆洲區民族路408巷6號","121.474771666667","25.091805","6501400","蘆洲區"
"228005","097-TW","2017/09/16 13:49:15","新北市貢寮區美豐里土地公嶺10號","121.89017","25.0571383333333","6502600","貢寮區"
"228004","212-TW","2017/09/16 13:41:07","新北市貢寮區龍崗里嵩陽街41號","121.90523","25.0132533333333","6502600","貢寮區"
"208004","AAC-292","2017/09/16 13:49:21","新北市金山區山城路80巷3號","121.598216666667","25.2013366666667","6502700","金山區"
"207002","749-BX","2017/09/16 13:49:12","新北市萬里區崁腳里崁腳路166號","121.645055","25.1558583333333","6502800","萬里區"
"252005","073-UM","2017/09/16 13:49:12","新北市三芝區圓山里二坪頂46號","121.53995","25.2284383333333","6502100","三芝區"
"207001","662-BX","2017/09/16 13:49:18","新北市萬里區磺潭里磺溪10號","121.630148333333","25.2029366666667","6502800","萬里區"
"236068","105-UM","2017/09/16 13:49:10","新北市土城區城林路6巷80號","121.43839","24.9797866666667","6501300","土城區"
"236043","107-UM","2017/09/16 13:49:04","新北市土城區中央路一段264-2號","121.443745","24.98378","6501300","土城區"
"236075","166-UM","2017/09/16 13:49:18","新北市土城區中央路三段122號","121.435088333333","24.96618","6501300","土城區"
"236029","253-BX","2017/09/16 13:49:02","新北市土城區城林路6巷80號","121.438463333333","24.9797883333333","6501300","土城區"
"236025","269-VK","2017/09/16 13:49:09","新北市土城區中央路二段280號","121.440666666667","24.97398","6501300","土城區"
"236013","270-VK","2017/09/16 13:49:07","新北市土城區城林路6巷80號","121.438596666667","24.9797383333333","6501300","土城區"
"236035","271-VK","2017/09/16 13:49:15","新北市土城區城林路6巷80號","121.43838","24.9798316666667","6501300","土城區"
"236017","401-BY","2017/09/16 13:49:20","新北市土城區城林路6巷80號","121.438633333333","24.9797683333333","6501300","土城區"
"236006","498-BY","2017/09/16 13:49:09","新北市土城區中央路一段102號","121.44677","24.98833","6501300","土城區"
"236057","912-UM","2017/09/16 13:49:02","新北市土城區城林路6巷80號","121.438411666667","24.979735","6501300","土城區"
"236045","913-UM","2017/09/16 13:48:58","新北市土城區城林路6巷80號","121.438396666667","24.9798233333333","6501300","土城區"
"236061","915-UM","2017/09/16 13:49:02","新北市土城區城林路6巷80號","121.438441666667","24.97988","6501300","土城區"
"236054","AAC-216","2017/09/16 13:49:00","新北市土城區城林路6巷80號","121.438706666667","24.9797066666667","6501300","土城區"
"242046","172-VK","2017/09/16 13:06:29","新北市新莊區福營路219號","121.430315","25.03019","6500500","新莊區"
"221012","276-VK","2017/09/16 13:24:56","新北市汐止區汐萬路一段256巷3號","121.653443333333","25.0745933333333","6501100","汐止區"
"220027","145-BY","2017/09/16 13:49:07","新北市板橋區民權路202巷4弄1號","121.45956","25.0142216666667","6500100","板橋區"
"220028","200-UY","2017/09/16 13:49:01","新北市板橋區大觀路二段265巷66弄22號","121.441761666667","24.9970716666667","6500100","板橋區"
"220030","610-BX","2017/09/16 13:49:14","新北市板橋區篤行路三段玉平巷10號","121.428998333333","24.9873933333333","6500100","板橋區"
"220050","245-BX","2017/09/16 03:00:42","新北市板橋區民生路二段120號","121.470356666667","25.0196233333333","6500100","板橋區"
"220046","257-TC","2017/09/16 13:49:05","新北市板橋區民生路二段89-6號","121.470608333333","25.0192933333333","6500100","板橋區"
"220040","267-BY","2017/09/16 13:48:59","新北市板橋區民生路二段161巷1號","121.469996666667","25.0198716666667","6500100","板橋區"
"220004","276-BY","2017/09/16 13:49:04","新北市板橋區四川路二段38號","121.453781666667","24.9953766666667","6500100","板橋區"
"220020","277-BY","2017/09/16 13:49:10","新北市板橋區金門街27號","121.433505","24.99436","6500100","板橋區"
"220042","280-UM","2017/09/16 13:49:09","新北市板橋區民生路二段161巷1號","121.470148333333","25.0199233333333","6500100","板橋區"
"220019","283-VK","2017/09/16 13:49:12","新北市板橋區忠孝路3號","121.459791666667","25.0018683333333","6500100","板橋區"
"220001","285-VK","2017/09/16 13:49:14","新北市板橋區永豐街55巷48號","121.472036666667","25.0185183333333","6500100","板橋區"
"220031","286-VK","2017/09/16 13:49:11","新北市板橋區大觀路二段22巷34號","121.445018333333","25.0036516666667","6500100","板橋區"
"220029","287-VK","2017/09/16 13:44:21","新北市板橋區大觀路二段111號","121.44623","25.0015716666667","6500100","板橋區"
"220039","288-VK","2017/09/16 13:49:14","新北市板橋區民生路二段161巷7號","121.470296666667","25.0197266666667","6500100","板橋區"
"220010","293-UM","2017/09/16 13:49:13","新北市板橋區中山路二段25號","121.472445","25.0152583333333","6500100","板橋區"
"220009","295-UM","2017/09/16 02:42:49","新北市板橋區民生路二段120號","121.470508333333","25.0194366666667","6500100","板橋區"
"220023","297-UM","2017/09/16 13:49:08","新北市板橋區大觀路一段28巷4號","121.449968333333","25.008755","6500100","板橋區"
"220041","307-R5","2017/09/16 13:49:17","新北市板橋區民生路二段120號","121.470418333333","25.0201266666667","6500100","板橋區"
"220047","317-R6","2017/09/16 13:49:10","新北市板橋區民生路二段161巷1號","121.470196666667","25.0200716666667","6500100","板橋區"
"220022","461-BY","2017/09/16 13:49:13","新北市板橋區府中路30號","121.458676666667","25.0094616666667","6500100","板橋區"
"220012","486-VK","2017/09/16 13:49:08","新北市板橋區中山路二段37號","121.472926666667","25.0156766666667","6500100","板橋區"
"220038","487-VK","2017/09/16 13:49:14","新北市板橋區民生路二段208號","121.469566666667","25.0211883333333","6500100","板橋區"
"220037","491-VK","2017/09/16 13:49:10","新北市板橋區民生路二段201號","121.469506666667","25.0208","6500100","板橋區"
"220104","560-BX","2017/09/16 13:49:17","新北市板橋區中正路325巷41號","121.453455","25.0193483333333","6500100","板橋區"
"220052","561-BX","2017/09/16 13:49:15","新北市板橋區民生路二段161巷1號","121.470066666667","25.0202183333333","6500100","板橋區"
"220032","568-UM","2017/09/16 13:49:20","新北市板橋區大觀路二段148巷49號","121.44175","25.0009933333333","6500100","板橋區"
"220011","609-BX","2017/09/16 13:49:06","新北市板橋區中山路二段37號","121.473026666667","25.0156783333333","6500100","板橋區"
"220005","686-BX","2017/09/16 13:49:13","新北市板橋區華東街1-9號","121.448181666667","24.9948716666667","6500100","板橋區"
"220025","687-BX","2017/09/16 13:49:06","新北市板橋區金門街96-2號","121.433136666667","24.99243","6500100","板橋區"
"220002","741-BX","2017/09/16 13:49:08","新北市板橋區華東街1-9號","121.44813","24.9949483333333","6500100","板橋區"
"220003","827-TW","2017/09/16 13:49:08","新北市板橋區華東街1-10號","121.448623333333","24.995025","6500100","板橋區"
"220014","829-TW","2017/09/16 13:48:58","新北市板橋區民生路二段5號","121.472891666667","25.0158283333333","6500100","板橋區"
"220051","830-TW","2017/09/15 21:26:34","新北市板橋區民生路二段161巷1號","121.470241666667","25.0199366666667","6500100","板橋區"
"220045","831-TW","2017/09/16 01:28:59","新北市板橋區民生路二段161巷3號","121.470138333333","25.0198","6500100","板橋區"
"220018","AAC-253","2017/09/16 13:49:17","新北市板橋區華興街49號","121.457641666667","25.0045566666667","6500100","板橋區"
