"lineid","car","time","location","longitude","latitude","cityid","cityname"
"234044","148-BY","2017/09/16 13:59:05","新北市永和區林森路31-1號","121.525978333333","25.00508","6500400","永和區"
"234012","149-BY","2017/09/16 13:59:16","新北市永和區保生路55號","121.504711666667","25.010595","6500400","永和區"
"234005","207-UY","2017/09/16 13:59:00","新北市永和區中和路427號","121.50942","25.0008066666667","6500400","永和區"
"234078","298-R6","2017/09/16 13:59:17","新北市永和區國中路12號","121.524396666667","25.0050083333333","6500400","永和區"
"234036","336-UY","2017/09/16 13:59:15","新北市永和區成功路二段80號","121.526615","24.998845","6500400","永和區"
"234062","337-UY","2017/09/16 13:59:08","新北市永和區中正路412巷20弄10號","121.51878","25.0015966666667","6500400","永和區"
"234084","338-UY","2017/09/16 13:59:11","新北市永和區竹林路222-1號","121.520571666667","25.0077283333333","6500400","永和區"
"234068","552-UM","2017/09/16 13:59:02","新北市永和區永亨路33號","121.519758333333","25.0062966666667","6500400","永和區"
"234052","553-UM","2017/09/16 13:59:20","新北市永和區竹林路39巷46號","121.520176666667","25.0152666666667","6500400","永和區"
"234015","745-BX","2017/09/16 13:59:13","新北市永和區信義路127號","121.512365","25.01521","6500400","永和區"
"234028","746-BX","2017/09/16 13:59:18","新北市永和區民權路49巷5弄29號","121.521373333333","24.9978866666667","6500400","永和區"
"234060","AAD-866","2017/09/16 13:59:04","新北市永和區得和路76號","121.516378333333","25.0000283333333","6500400","永和區"
"234040","862-TW","2017/09/16 13:59:11","新北市永和區雙和街17巷19號","121.508968333333","25.0013616666667","6500400","永和區"
"234048","863-TW","2017/09/16 13:59:16","新北市永和區保安路256號","121.5061","25.01258","6500400","永和區"
"234010","9373-KE","2017/09/16 13:59:20","新北市永和區仁愛路352巷108號","121.500663333333","25.00816","6500400","永和區"
"248017","225-UY","2017/09/16 13:59:03","新北市五股區民義路一段287巷3號","121.42509","25.092115","6501500","五股區"
"234022","9380-KE","2017/09/16 13:59:19","新北市永和區復興街35號","121.516363333333","25.0132","6500400","永和區"
"234076","969-R7","2017/09/16 13:59:16","新北市永和區民治街59巷11號","121.518696666667","24.9972","6500400","永和區"
"234072","AAC-211","2017/09/16 13:58:56","新北市永和區竹林路201巷26弄7號","121.52262","25.0100833333333","6500400","永和區"
"234066","AAC-212","2017/09/16 13:59:06","新北市永和區保平路236巷15弄1號","121.508533333333","25.0063083333333","6500400","永和區"
"234001","AAC-295","2017/09/16 13:59:01","新北市永和區福和路316-1號","121.515981666667","25.00746","6500400","永和區"
"244010","656-BX","2017/09/16 11:17:21","新北市林口區粉寮69號","121.405068333333","25.0907966666667","6501700","林口區"
"244005","657-BX","2017/09/16 13:58:59","新北市林口區粉寮32號","121.403303333333","25.0866516666667","6501700","林口區"
"231002","002-UM","2017/09/16 13:59:05","新北市新店區中正路678號","121.53409","24.9898483333333","6500600","新店區"
"231024","0293-UT","2017/09/16 13:59:15","新北市新店區北新路一段271巷8號","121.540538333333","24.9668166666667","6500600","新店區"
"231028","046-UY","2017/09/16 13:59:11","新北市新店區安和路三段83號","121.517901666667","24.9838233333333","6500600","新店區"
"231030","047-UY","2017/09/16 13:59:01","新北市新店區安興路7-1號","121.514998333333","24.96858","6500600","新店區"
"231029","106-UY","2017/09/16 13:59:00","新北市新店區安康路二段22號","121.515875","24.9637483333333","6500600","新店區"
"231018","107-UY","2017/09/16 13:59:13","新北市新店區中央路192號","121.530943333333","24.9749183333333","6500600","新店區"
"231012","108-UY","2017/09/16 13:59:12","新北市新店區中興路二段71號","121.546825","24.970855","6500600","新店區"
"231020","187-VK","2017/09/16 13:59:06","新北市新店區屈尺路161-2號","121.542275","24.92251","6500600","新店區"
"231017","215-TC","2017/09/16 13:59:19","新北市新店區郵政路1號","121.55771","24.95284","6500600","新店區"
"231026","256-BX","2017/09/16 13:59:16","新北市新店區三民路185號","121.535175","24.975355","6500600","新店區"
"231034","268-BY","2017/09/16 13:59:00","新北市新店區達觀路41號","121.50281","24.9382216666667","6500600","新店區"
"231023","AAD-862","2017/09/16 13:59:01","新北市新店區文中路40號","121.539681666667","24.9565433333333","6500600","新店區"
"231027","3712-VJ","2017/09/16 13:59:09","新北市新店區光明街24號","121.538551666667","24.9586383333333","6500600","新店區"
"231025","4716-K9","2017/09/16 13:59:01","新北市新店區中正路432號","121.534201666667","24.9781733333333","6500600","新店區"
"231038","4715-K9","2017/09/16 13:59:06","新北市新店區溪洲路121號","121.531413333333","24.9626966666667","6500600","新店區"
"231036","512-UM","2017/09/16 13:59:02","新北市新店區安祥路109巷3弄1號","121.477828333333","24.961285","6500600","新店區"
"231035","515-UM","2017/09/16 13:59:04","新北市新店區安康路二段1-5號","121.517055","24.9639","6500600","新店區"
"231006","617-UM","2017/09/16 13:59:03","新北市新店區北宜路二段207號","121.55312","24.9533933333333","6500600","新店區"
"231001","619-UM","2017/09/16 13:59:17","新北市新店區三民路24號","121.537148333333","24.9710416666667","6500600","新店區"
"231003","641-BX","2017/09/16 13:59:02","新北市新店區中興路一段76號","121.539506666667","24.9600166666667","6500600","新店區"
"231013","719-UM","2017/09/16 13:59:04","新北市新店區明德路66號","121.541703333333","24.979575","6500600","新店區"
"231033","720-UM","2017/09/16 13:59:10","新北市新店區碧潭路36號","121.534303333333","24.9564866666667","6500600","新店區"
"231005","897-TW","2017/09/16 13:59:16","新北市新店區中興路三段221-1號","121.543481666667","24.98267","6500600","新店區"
"231004","899-TW","2017/09/16 13:59:06","新北市新店區北新路二段135號","121.542845","24.9755166666667","6500600","新店區"
"231037","AKT-0513","2017/09/16 13:59:15","新北市新店區安康路三段165巷2弄29號","121.487948333333","24.95149","6500600","新店區"
"235030","003-UY","2017/09/16 13:59:07","新北市中和區中山路二段131巷5弄3號","121.50285","25.00284","6500300","中和區"
"235028","005-UY","2017/09/16 13:59:16","新北市中和區泰和街12號","121.499863333333","25.0009683333333","6500300","中和區"
"235020","096-UM","2017/09/16 13:59:16","新北市板橋區三民路二段204-4號","121.478906666667","25.012395","6500300","中和區"
"235003","097-UM","2017/09/16 13:58:59","新北市中和區景平路64巷15號","121.522158333333","24.99133","6500300","中和區"
"235029","098-UM","2017/09/16 13:59:12","新北市中和區勝利路11號","121.499708333333","25.008055","6500300","中和區"
"235004","150-BY","2017/09/16 13:59:08","新北市中和區保健路58號","121.510706666667","24.9967183333333","6500300","中和區"
"235022","151-BY","2017/09/16 13:59:17","新北市中和區連城路571號","121.47919","24.9945333333333","6500300","中和區"
"235019","183-VK","2017/09/16 13:59:10","新北市板橋區民族路276巷3弄2號","121.469865","25.00611","6500300","中和區"
"235002","185-VK","2017/09/16 13:59:08","新北市中和區大勇街43巷18號","121.517025","24.9947233333333","6500300","中和區"
"235013","186-VK","2017/09/16 13:59:04","新北市中和區景新街222號","121.507186666667","24.9950066666667","6500300","中和區"
"235031","255-BX","2017/09/16 13:59:15","新北市中和區新生街266號","121.483456666667","24.997255","6500300","中和區"
"235008","293-VK","2017/09/16 13:59:03","新北市中和區中興街204號","121.499891666667","24.9903433333333","6500300","中和區"
"235036","301-VK","2017/09/16 13:59:05","新北市中和區中山路二段189號","121.500253333333","25.0027466666667","6500300","中和區"
"235007","352-BY","2017/09/16 13:59:07","新北市中和區成功路50號","121.526056666667","24.99269","6500300","中和區"
"235015","376-QA","2017/09/16 13:59:05","新北市中和區忠孝街13號","121.510005","24.9828966666667","6500300","中和區"
"235032","377-QA","2017/09/16 13:59:16","新北市中和區圓通路162巷4號","121.496991666667","24.995275","6500300","中和區"
"235025","378-QA","2017/09/16 13:59:17","新北市中和區民享街45號","121.474171666667","25.0028866666667","6500300","中和區"
"235014","4979-A6","2017/09/16 13:59:18","新北市中和區復興路263巷9弄11號","121.503313333333","24.9898766666667","6500300","中和區"
"235033","4980-A6","2017/09/16 13:59:04","新北市中和區中和路102-1號","121.502205","24.9996483333333","6500300","中和區"
"235006","551-UM","2017/09/16 13:59:01","新北市中和區秀朗路三段50巷2弄7號","121.525951666667","24.995935","6500300","中和區"
"235034","558-UM","2017/09/16 13:59:00","新北市中和區中和路100號","121.501931666667","24.9992","6500300","中和區"
"235009","565-BX","2017/09/16 13:59:01","新北市中和區興南路一段2號","121.511615","24.9914966666667","6500300","中和區"
"235018","640-BX","2017/09/16 13:59:05","新北市中和區民享街29-1號","121.473991666667","25.0042633333333","6500300","中和區"
"235024","647-TV","2017/09/16 13:59:12","新北市中和區中山路三段148號","121.47363","25.0063333333333","6500300","中和區"
"235011","732-UM","2017/09/16 13:59:11","新北市中和區興南路二段34巷55弄25號","121.506001666667","24.986175","6500300","中和區"
"235010","733-UM","2017/09/16 13:59:14","新北市中和區興南路一段135巷22弄12號","121.509036666667","24.9867616666667","6500300","中和區"
"235026","800-TS","2017/09/16 13:59:19","新北市中和區中山路二段366巷9號","121.491823333333","25.004135","6500300","中和區"
"235021","801-TS","2017/09/16 13:58:58","新北市中和區民安街53-5號","121.479548333333","24.9995816666667","6500300","中和區"
"235016","805-TS","2017/09/16 13:59:09","新北市中和區興南路二段261巷6-21號","121.502491666667","24.97964","6500300","中和區"
"235012","896-TW","2017/09/16 13:59:03","新北市中和區華新街57號","121.507921666667","24.9842916666667","6500300","中和區"
"235017","900-TW","2017/09/16 13:59:07","新北市中和區壽德街18-1號","121.466035","24.9950016666667","6500300","中和區"
"235027","911-UM","2017/09/16 13:59:02","新北市中和區中正路514號","121.488365","24.99436","6500300","中和區"
"235001","AAC-213","2017/09/16 13:59:11","新北市中和區自立路99巷28號","121.523618333333","24.9945533333333","6500300","中和區"
"235023","AAC-215","2017/09/16 13:59:01","新北市中和區圓通路369巷5弄12號","121.491406666667","24.98843","6500300","中和區"
"220016","013-TV","2017/09/16 13:59:14","新北市板橋區中山路二段362號","121.481581666667","25.02018","6500100","板橋區"
"220034","073-UY","2017/09/16 13:59:17","新北市板橋區民權路258-6號","121.457946666667","25.0151633333333","6500100","板橋區"
"220105","075-UY","2017/09/16 13:59:07","新北市板橋區文化路一段362-3號","121.468415","25.0234866666667","6500100","板橋區"
"220017","AAD-861","2017/09/16 13:59:08","新北市板橋區華興街68號","121.457415","25.0049466666667","6500100","板橋區"
"247011","546-UM","2017/09/16 13:59:14","新北市蘆洲區民族路87號","121.47949","25.0862466666667","6501400","蘆洲區"
"247019","500-BY","2017/09/16 13:59:09","新北市蘆洲區民族路422巷15弄1號","121.473826666667","25.0924633333333","6501400","蘆洲區"
"247009","339-TH","2017/09/16 13:59:12","新北市蘆洲區中山一路69號","121.478186666667","25.0812333333333","6501400","蘆洲區"
"247001","337-TH","2017/09/16 13:58:59","新北市蘆洲區三民路607號","121.460406666667","25.09407","6501400","蘆洲區"
"247003","336-TH","2017/09/16 13:59:15","新北市蘆洲區長安街100號","121.461781666667","25.0808066666667","6501400","蘆洲區"
"247010","335-TH","2017/09/16 13:21:42","新北市五股區中興路三段2巷10號","121.448651666667","25.08154","6501400","蘆洲區"
"247015","057-VK","2017/09/16 13:59:13","新北市蘆洲區光華路40號","121.46897","25.0833066666667","6501400","蘆洲區"
"247005","056-VK","2017/09/16 13:59:10","新北市蘆洲區九芎街152號","121.464326666667","25.0783716666667","6501400","蘆洲區"
"247007","053-VK","2017/09/16 13:59:14","新北市三重區永安北路一段13號","121.476078333333","25.0749516666667","6501400","蘆洲區"
"247013","007-UY","2017/09/16 13:58:59","新北市蘆洲區中正路156-1號","121.468733333333","25.0856333333333","6501400","蘆洲區"
"247017","001-UY","2017/09/16 13:59:01","新北市蘆洲區民族路255巷22號","121.475915","25.0892583333333","6501400","蘆洲區"
"228005","097-TW","2017/09/16 13:55:35","新北市貢寮區美豐里雞母嶺街53-1號","121.88862","25.0688183333333","6502600","貢寮區"
"228004","212-TW","2017/09/16 13:59:07","新北市貢寮區龍崗里嵩陽街35-1號","121.906665","25.0175033333333","6502600","貢寮區"
"208004","AAC-292","2017/09/16 13:59:15","新北市金山區重和里六股林口75號","121.601325","25.21691","6502700","金山區"
"207002","749-BX","2017/09/16 13:57:52","新北市萬里區溪底里烏塗炭9號","121.637718333333","25.1515083333333","6502800","萬里區"
"252005","073-UM","2017/09/16 13:58:52","新北市三芝區圓山里二坪頂78號","121.541951666667","25.2460166666667","6502100","三芝區"
"207001","662-BX","2017/09/16 13:58:58","新北市萬里區磺潭里清水18號","121.637861666667","25.1977016666667","6502800","萬里區"
"236068","105-UM","2017/09/16 13:59:10","新北市土城區城林路6巷80號","121.438361666667","24.9797883333333","6501300","土城區"
"236041","107-UM","2017/09/16 13:59:04","新北市土城區裕生路61號","121.447665","24.9861083333333","6501300","土城區"
"236075","166-UM","2017/09/16 13:58:58","新北市土城區永寧路32巷10弄3號","121.428856666667","24.9610066666667","6501300","土城區"
"236029","253-BX","2017/09/16 13:59:02","新北市土城區城林路6巷80號","121.438341666667","24.97979","6501300","土城區"
"236025","269-VK","2017/09/16 13:59:09","新北市土城區承天路18號","121.439286666667","24.96359","6501300","土城區"
"236013","270-VK","2017/09/16 13:59:07","新北市土城區城林路6巷80號","121.4385","24.9797266666667","6501300","土城區"
"236035","271-VK","2017/09/16 13:59:15","新北市土城區城林路6巷80號","121.438386666667","24.97983","6501300","土城區"
"236017","401-BY","2017/09/16 13:59:00","新北市土城區城林路6巷80號","121.438643333333","24.979765","6501300","土城區"
"236006","498-BY","2017/09/16 13:59:09","新北市土城區中央路一段68號","121.447303333333","24.989395","6501300","土城區"
"236057","912-UM","2017/09/16 13:59:02","新北市土城區中央路三段196號","121.430415","24.964865","6501300","土城區"
"236045","913-UM","2017/09/16 13:59:18","新北市土城區城林路6巷80號","121.438581666667","24.9799833333333","6501300","土城區"
"236061","915-UM","2017/09/16 13:59:02","新北市土城區城林路6巷80號","121.438448333333","24.9799016666667","6501300","土城區"
"236054","AAC-216","2017/09/16 13:59:00","新北市土城區城林路6巷80號","121.4387","24.9797166666667","6501300","土城區"
"242046","172-VK","2017/09/16 13:07:49","新北市新莊區福營路365號","121.42384","25.0277616666667","6500500","新莊區"
"221012","276-VK","2017/09/16 13:24:56","新北市汐止區汐萬路一段256巷3號","121.653443333333","25.0745933333333","6501100","汐止區"
"220027","145-BY","2017/09/16 13:59:21","新北市板橋區民權路202巷9弄20號","121.459658333333","25.015625","6500100","板橋區"
"220028","200-UY","2017/09/16 13:59:05","新北市板橋區大觀路二段文和巷89號","121.4446","24.9981766666667","6500100","板橋區"
"220030","610-BX","2017/09/16 13:59:14","新北市板橋區篤行路三段64號","121.427918333333","24.9863666666667","6500100","板橋區"
"220050","245-BX","2017/09/16 03:00:42","新北市板橋區民生路二段120號","121.470356666667","25.0196233333333","6500100","板橋區"
"220023","256-TC","2017/09/16 13:59:02","新北市板橋區華東街1-10號","121.448306666667","24.9950766666667","6500100","板橋區"
"220046","257-TC","2017/09/16 13:59:05","新北市板橋區民生路二段236號","121.468228333333","25.023065","6500100","板橋區"
"220040","267-BY","2017/09/16 13:59:19","新北市板橋區莊敬路223號","121.472043333333","25.02195","6500100","板橋區"
"220004","276-BY","2017/09/16 13:59:04","新北市板橋區信義路127號","121.45772","24.9933383333333","6500100","板橋區"
"220020","277-BY","2017/09/16 13:59:06","新北市樹林區樹新路106巷1號","121.43012","24.997605","6500100","板橋區"
"220042","280-UM","2017/09/16 13:59:09","新北市板橋區文化路一段479巷42號","121.468021666667","25.023415","6500100","板橋區"
"220019","283-VK","2017/09/16 13:59:17","新北市板橋區重慶路243號","121.463285","25.0005983333333","6500100","板橋區"
"220043","285-UM","2017/09/16 13:59:10","新北市板橋區文化路一段362號","121.469238333333","25.0236766666667","6500100","板橋區"
"220001","285-VK","2017/09/16 13:59:14","新北市板橋區永豐街49巷17號","121.473538333333","25.0176133333333","6500100","板橋區"
"220031","286-VK","2017/09/16 13:59:11","新北市板橋區大觀路一段38巷156弄67號","121.442173333333","25.0070766666667","6500100","板橋區"
"220029","287-VK","2017/09/16 13:44:21","新北市板橋區大觀路二段111號","121.44623","25.0015716666667","6500100","板橋區"
"220039","288-VK","2017/09/16 13:59:14","新北市板橋區民生路三段11號","121.467876666667","25.02365","6500100","板橋區"
"220010","293-UM","2017/09/16 13:59:19","新北市板橋區三民路二段245巷53號","121.480685","25.0126616666667","6500100","板橋區"
"220009","295-UM","2017/09/16 13:59:13","新北市板橋區永豐街120巷2弄2號","121.476495","25.02051","6500100","板橋區"
"220023","297-UM","2017/09/16 13:59:08","新北市板橋區南雅東路88號","121.453951666667","25.0076133333333","6500100","板橋區"
"220041","307-R5","2017/09/16 13:59:17","新北市板橋區介壽街114號","121.469628333333","25.0175633333333","6500100","板橋區"
"220047","317-R6","2017/09/16 13:59:10","新北市板橋區民生路三段11號","121.467833333333","25.0236283333333","6500100","板橋區"
"220022","461-BY","2017/09/16 13:59:13","新北市板橋區南雅南路一段109號","121.45537","25.0049816666667","6500100","板橋區"
"220012","486-VK","2017/09/16 13:59:08","新北市板橋區漢生東路262號","121.468191666667","25.0134816666667","6500100","板橋區"
"220038","487-VK","2017/09/16 13:59:14","新北市板橋區民生路二段236號","121.468351666667","25.0231033333333","6500100","板橋區"
"220037","491-VK","2017/09/16 13:59:10","新北市板橋區民生路二段216號","121.469283333333","25.021645","6500100","板橋區"
"220104","560-BX","2017/09/16 13:59:20","新北市板橋區中正路343號","121.454768333333","25.0204633333333","6500100","板橋區"
"220052","561-BX","2017/09/16 13:59:15","新北市板橋區民生路二段123號","121.470671666667","25.0186233333333","6500100","板橋區"
"220032","568-UM","2017/09/16 13:59:06","新北市板橋區大觀路二段174巷116弄51號","121.442446666667","25.00133","6500100","板橋區"
"220011","609-BX","2017/09/16 13:59:06","新北市板橋區中山路二段307號","121.478773333333","25.0184666666667","6500100","板橋區"
"220005","686-BX","2017/09/16 13:59:17","新北市板橋區館前西路46巷3號","121.45892","25.0071566666667","6500100","板橋區"
"220025","687-BX","2017/09/16 13:59:06","新北市板橋區大觀路二段174巷153號","121.441496666667","25.0026966666667","6500100","板橋區"
"220002","741-BX","2017/09/16 13:59:08","新北市板橋區華東街260號","121.452695","25.0017516666667","6500100","板橋區"
"220003","827-TW","2017/09/16 13:59:08","新北市板橋區中山路一段143號","121.464715","25.01172","6500100","板橋區"
"220014","829-TW","2017/09/16 13:59:18","新北市板橋區三民路二段正隆巷12弄6號","121.478091666667","25.0131883333333","6500100","板橋區"
"220051","830-TW","2017/09/16 13:59:02","新北市板橋區萬板路182號","121.475581666667","25.0241533333333","6500100","板橋區"
"220045","831-TW","2017/09/16 13:59:18","新北市板橋區民生路二段226巷46號","121.47161","25.0222316666667","6500100","板橋區"
"220021","985-R7","2017/09/16 13:59:18","新北市板橋區南門街45號","121.45732","25.0086","6500100","板橋區"
"220018","AAC-253","2017/09/16 13:59:17","新北市板橋區四川路一段133號","121.45992","25.00458","6500100","板橋區"
