"lineid","car","time","location","longitude","latitude","cityid","cityname"
"234044","148-BY","2017/09/16 14:09:05","新北市永和區得和路402號","121.525558333333","24.9991516666667","6500400","永和區"
"234012","149-BY","2017/09/16 14:09:15","新北市永和區永貞路415號","121.507405","25.0093333333333","6500400","永和區"
"234005","207-UY","2017/09/16 14:09:01","新北市中和區中和路212號","121.505793333333","24.9997083333333","6500400","永和區"
"234078","298-R6","2017/09/16 14:08:58","新北市永和區永亨路90號","121.522358333333","25.0053666666667","6500400","永和區"
"234036","336-UY","2017/09/16 14:09:15","新北市永和區成功路一段47巷21弄2號","121.52799","25.0040216666667","6500400","永和區"
"234062","337-UY","2017/09/16 14:09:08","新北市永和區永利路77號","121.521191666667","25.0036866666667","6500400","永和區"
"234084","338-UY","2017/09/16 14:09:05","新北市永和區福和路218號","121.519408333333","25.0076233333333","6500400","永和區"
"234068","552-UM","2017/09/16 14:09:02","新北市永和區福和路237巷13號","121.518675","25.0067633333333","6500400","永和區"
"234052","553-UM","2017/09/16 14:09:20","新北市永和區博愛街21巷1號","121.517663333333","25.0158283333333","6500400","永和區"
"234015","745-BX","2017/09/16 14:09:13","新北市永和區永和路二段243號","121.515808333333","25.014845","6500400","永和區"
"234028","746-BX","2017/09/16 14:09:18","新北市永和區民權路55號","121.520003333333","24.9969166666667","6500400","永和區"
"234060","AAD-866","2017/09/16 14:09:10","新北市永和區安樂路58巷16號","121.515316666667","24.99818","6500400","永和區"
"234040","862-TW","2017/09/16 14:09:11","新北市永和區雙和街50號","121.508871666667","25.0030533333333","6500400","永和區"
"234048","863-TW","2017/09/16 14:09:16","新北市永和區環河西路二段95號","121.506438333333","25.01496","6500400","永和區"
"234025","9371-KE","2017/09/16 14:08:58","新北市永和區安樂路272巷15號","121.515191666667","25.0041766666667","6500400","永和區"
"234010","9373-KE","2017/09/16 14:09:00","新北市永和區仁愛路352巷122弄42號","121.500805","25.00939","6500400","永和區"
"248017","225-UY","2017/09/16 14:09:03","新北市五股區民義路一段255-5號","121.42609","25.091485","6501500","五股區"
"234022","9380-KE","2017/09/16 14:09:11","新北市永和區光復街2巷16弄50號","121.518338333333","25.0162666666667","6500400","永和區"
"234076","969-R7","2017/09/16 14:09:16","新北市永和區民族街73巷6號","121.51905","24.9966416666667","6500400","永和區"
"234072","AAC-211","2017/09/16 14:09:16","新北市永和區竹林路201巷22弄7號","121.522408333333","25.00946","6500400","永和區"
"234066","AAC-212","2017/09/16 14:09:06","新北市永和區中山路一段281巷2弄5號","121.50713","25.0064133333333","6500400","永和區"
"234001","AAC-295","2017/09/16 14:09:12","新北市永和區中正路708號","121.515978333333","25.010025","6500400","永和區"
"244010","656-BX","2017/09/16 11:17:21","新北市林口區粉寮69號","121.405068333333","25.0907966666667","6501700","林口區"
"244005","657-BX","2017/09/16 14:08:59","新北市林口區粉寮路二段160巷28號","121.405211666667","25.0908466666667","6501700","林口區"
"231002","002-UM","2017/09/16 14:09:05","新北市新店區中正路485號","121.533975","24.9818716666667","6500600","新店區"
"231024","0293-UT","2017/09/16 14:09:15","新北市新店區力行路96號","121.538133333333","24.9666483333333","6500600","新店區"
"231028","046-UY","2017/09/16 14:09:10","新北市新店區安和路二段213號","121.517678333333","24.97553","6500600","新店區"
"231030","047-UY","2017/09/16 14:09:01","新北市新店區安民街65巷21-2號","121.515195","24.9675483333333","6500600","新店區"
"231029","106-UY","2017/09/16 14:09:00","新北市新店區安康路二段204號","121.510271666667","24.959535","6500600","新店區"
"231018","107-UY","2017/09/16 14:09:13","新北市新店區中央五街8號","121.529873333333","24.9741216666667","6500600","新店區"
"231012","108-UY","2017/09/16 14:09:06","新北市新店區中興路一段216號","121.543895","24.9657516666667","6500600","新店區"
"231020","187-VK","2017/09/16 14:09:04","新北市新店區新烏路二段300號","121.548496666667","24.9132866666667","6500600","新店區"
"231017","215-TC","2017/09/16 14:09:19","新北市新店區中生路125-1號","121.566196666667","24.9506966666667","6500600","新店區"
"231026","256-BX","2017/09/16 14:09:16","新北市新店區安康路一段258號","121.520398333333","24.9639566666667","6500600","新店區"
"231034","268-BY","2017/09/16 14:09:19","新北市新店區黎明路3號","121.50335","24.952355","6500600","新店區"
"231023","AAD-862","2017/09/16 14:09:01","新北市新店區文中路40-6號","121.539841666667","24.9565","6500600","新店區"
"231027","3712-VJ","2017/09/16 14:09:09","新北市新店區北宜路一段3號","121.538413333333","24.9584433333333","6500600","新店區"
"231025","4716-K9","2017/09/16 14:09:01","新北市新店區中正路328巷45號","121.538105","24.9764666666667","6500600","新店區"
"231038","4715-K9","2017/09/16 14:09:06","新北市新店區溪洲路121號","121.531416666667","24.9626966666667","6500600","新店區"
"231036","512-UM","2017/09/16 14:09:02","新北市新店區安祥路109巷6弄23號","121.475483333333","24.9578683333333","6500600","新店區"
"231035","515-UM","2017/09/16 14:09:04","新北市新店區安和路一段52巷2-1號","121.517681666667","24.966385","6500600","新店區"
"231006","617-UM","2017/09/16 14:09:03","新北市新店區北宜路二段126號","121.55683","24.953815","6500600","新店區"
"231001","619-UM","2017/09/16 14:09:17","新北市新店區中華路38號","121.539996666667","24.96815","6500600","新店區"
"231003","641-BX","2017/09/16 14:09:02","新北市新店區中興路一段108號","121.541041666667","24.9618933333333","6500600","新店區"
"231013","719-UM","2017/09/16 14:09:04","新北市新店區北新路三段65巷34弄15號","121.54","24.9815266666667","6500600","新店區"
"231033","720-UM","2017/09/16 14:09:02","新北市新店區溪洲路101-1號","121.532125","24.9624266666667","6500600","新店區"
"231005","897-TW","2017/09/16 14:09:16","新北市新店區中興路三段255號","121.542488333333","24.9843883333333","6500600","新店區"
"231004","899-TW","2017/09/16 14:09:06","新北市新店區北新路二段198號","121.543093333333","24.9766666666667","6500600","新店區"
"231037","AKT-0513","2017/09/16 14:09:04","新北市新店區安康路三段165巷2弄2號","121.489575","24.951405","6500600","新店區"
"235030","003-UY","2017/09/16 14:09:07","新北市中和區廣福路24號","121.504913333333","25.0025633333333","6500300","中和區"
"235028","005-UY","2017/09/16 14:09:16","新北市中和區泰和街38巷10號","121.498983333333","25.0005533333333","6500300","中和區"
"235020","096-UM","2017/09/16 14:09:16","新北市中和區中山路二段610號","121.481675","25.0053816666667","6500300","中和區"
"235003","097-UM","2017/09/16 14:09:19","新北市中和區秀峰街56號","121.521005","24.9903816666667","6500300","中和區"
"235029","098-UM","2017/09/16 14:09:12","新北市中和區中山路二段64巷7弄7號","121.503451666667","25.0047683333333","6500300","中和區"
"235004","150-BY","2017/09/16 14:09:08","新北市中和區保健路46巷20弄15號","121.508331666667","24.9964416666667","6500300","中和區"
"235022","151-BY","2017/09/16 14:09:17","新北市中和區員山路108號","121.481081666667","24.995565","6500300","中和區"
"235019","183-VK","2017/09/16 14:09:10","新北市中和區德光路104號","121.468128333333","25.00336","6500300","中和區"
"235002","185-VK","2017/09/16 14:09:08","新北市中和區立人街24-5號","121.518785","24.9941783333333","6500300","中和區"
"235013","186-VK","2017/09/16 14:09:04","新北市中和區景安路145號","121.505648333333","24.9953533333333","6500300","中和區"
"235031","255-BX","2017/09/16 14:09:15","新北市中和區新生街199號","121.483758333333","25.0000666666667","6500300","中和區"
"235008","293-VK","2017/09/16 14:09:03","新北市中和區中興街155號","121.499916666667","24.991","6500300","中和區"
"235036","301-VK","2017/09/16 14:09:05","新北市中和區莊敬路33巷28號","121.500041666667","25.00569","6500300","中和區"
"235007","352-BY","2017/09/16 14:09:07","新北市中和區景平路116號","121.519365","24.9915783333333","6500300","中和區"
"235015","376-QA","2017/09/16 14:09:05","新北市中和區忠孝街31巷51號","121.509493333333","24.9856066666667","6500300","中和區"
"235032","377-QA","2017/09/16 14:09:16","新北市中和區連城路89巷60號","121.497735","24.9982716666667","6500300","中和區"
"235025","378-QA","2017/09/16 14:09:17","新北市中和區民享街59巷3號","121.47439","25.0025683333333","6500300","中和區"
"235014","4979-A6","2017/09/16 14:09:01","新北市中和區景安路208巷31號","121.502316666667","24.9922616666667","6500300","中和區"
"235033","4980-A6","2017/09/16 14:09:04","新北市中和區中山路二段181巷12號","121.50075","25.0022783333333","6500300","中和區"
"235006","551-UM","2017/09/16 14:09:01","新北市中和區立人街1號","121.521905","24.9937716666667","6500300","中和區"
"235034","558-UM","2017/09/16 14:09:00","新北市中和區安和路165號","121.506221666667","24.9976066666667","6500300","中和區"
"235009","565-BX","2017/09/16 14:09:01","新北市中和區景新街467巷38弄2號","121.514506666667","24.9885816666667","6500300","中和區"
"235018","640-BX","2017/09/16 14:09:05","新北市中和區國光街107巷4弄4-3號","121.47025","24.9996716666667","6500300","中和區"
"235024","647-TV","2017/09/16 14:09:12","新北市中和區民享街91-10號","121.47466","25.0008483333333","6500300","中和區"
"235011","732-UM","2017/09/16 14:09:11","新北市中和區興南路一段83號","121.509898333333","24.9890066666667","6500300","中和區"
"235010","733-UM","2017/09/16 14:09:15","新北市中和區忠孝街1巷14號","121.508651666667","24.983705","6500300","中和區"
"235026","800-TS","2017/09/16 14:09:10","新北市中和區中山路二段394號","121.490273333333","25.00353","6500300","中和區"
"235021","801-TS","2017/09/16 14:08:58","新北市中和區民利街58巷5弄11號","121.478128333333","24.9991716666667","6500300","中和區"
"235016","805-TS","2017/09/16 14:09:09","新北市中和區興南路二段142巷23號","121.503065","24.9838466666667","6500300","中和區"
"235012","896-TW","2017/09/16 14:09:03","新北市中和區華新街109巷24號","121.508593333333","24.980425","6500300","中和區"
"235017","900-TW","2017/09/16 14:09:04","新北市中和區華福街83號","121.467516666667","24.9965233333333","6500300","中和區"
"235027","911-UM","2017/09/16 14:09:02","新北市中和區連勝街177巷3號","121.493801666667","24.9968016666667","6500300","中和區"
"235001","AAC-213","2017/09/16 14:09:11","新北市中和區秀朗路三段128巷27號","121.524685","24.9940483333333","6500300","中和區"
"235023","AAC-215","2017/09/16 14:09:01","新北市中和區圓通路294巷17-5號","121.488643333333","24.9904883333333","6500300","中和區"
"220016","013-TV","2017/09/16 14:09:14","新北市板橋區三民路一段1巷49號","121.480755","25.0248133333333","6500100","板橋區"
"220013","072-UY","2017/09/16 14:09:09","新北市板橋區民族路219巷7號","121.46936","25.0079883333333","6500100","板橋區"
"220034","073-UY","2017/09/16 14:09:19","新北市板橋區中正路236巷33號","121.457366666667","25.0193283333333","6500100","板橋區"
"220105","075-UY","2017/09/16 14:09:07","新北市板橋區文化路二段102-1號","121.469815","25.0261583333333","6500100","板橋區"
"220017","AAD-861","2017/09/16 14:09:10","新北市板橋區四川路一段116號","121.459575","25.00437","6500100","板橋區"
"247021","893-R6","2017/09/16 14:09:20","新北市蘆洲區三民路130號","121.47081","25.0874883333333","6501400","蘆洲區"
"247011","546-UM","2017/09/16 14:09:14","新北市蘆洲區信義路345號","121.47782","25.08722","6501400","蘆洲區"
"247019","500-BY","2017/09/16 14:09:09","新北市蘆洲區民族路426巷52號","121.472875","25.09356","6501400","蘆洲區"
"247009","339-TH","2017/09/16 14:09:11","新北市蘆洲區信義路172號","121.47929","25.0839433333333","6501400","蘆洲區"
"247001","337-TH","2017/09/16 14:08:59","新北市蘆洲區永平街62號","121.457471666667","25.09156","6501400","蘆洲區"
"247003","336-TH","2017/09/16 14:09:15","新北市蘆洲區長安街203號","121.460011666667","25.082155","6501400","蘆洲區"
"247010","335-TH","2017/09/16 13:21:42","新北市五股區中興路三段2巷10號","121.448651666667","25.08154","6501400","蘆洲區"
"247015","057-VK","2017/09/16 14:09:13","新北市蘆洲區中正路185巷25弄1號","121.466725","25.08451","6501400","蘆洲區"
"247005","056-VK","2017/09/16 14:09:10","新北市蘆洲區九芎街71巷9弄12號","121.466998333333","25.0780933333333","6501400","蘆洲區"
"247007","053-VK","2017/09/16 14:09:14","新北市蘆洲區中山一路285號","121.471925","25.0795966666667","6501400","蘆洲區"
"247013","007-UY","2017/09/16 14:09:07","新北市蘆洲區忠孝路112號","121.471383333333","25.0865383333333","6501400","蘆洲區"
"247023","002-UY","2017/09/16 14:09:18","新北市蘆洲區光明路108號","121.463495","25.088045","6501400","蘆洲區"
"247017","001-UY","2017/09/16 14:09:01","新北市蘆洲區復興路111-7號","121.4768","25.0884466666667","6501400","蘆洲區"
"228005","097-TW","2017/09/16 14:09:15","新北市貢寮區美豐里雞母嶺街52號","121.890808333333","25.0670516666667","6502600","貢寮區"
"228004","212-TW","2017/09/16 14:09:07","新北市貢寮區雙玉里下雙溪街6-2號","121.914881666667","25.0160216666667","6502600","貢寮區"
"208004","AAC-292","2017/09/16 14:09:16","新北市金山區六股里下六股65號","121.614405","25.22366","6502700","金山區"
"207002","749-BX","2017/09/16 14:09:12","新北市萬里區溪底里瑞泉路9號","121.605155","25.1437983333333","6502800","萬里區"
"252005","073-UM","2017/09/16 14:09:12","新北市三芝區橫山里大坑70-3號","121.533853333333","25.2542033333333","6502100","三芝區"
"207001","662-BX","2017/09/16 14:08:58","新北市萬里區磺潭里清水18號","121.637913333333","25.19769","6502800","萬里區"
"236068","105-UM","2017/09/16 14:09:14","新北市土城區金城路一段88巷26號","121.445971666667","24.97327","6501300","土城區"
"236041","107-UM","2017/09/16 14:09:04","新北市土城區裕生路61號","121.447635","24.9861183333333","6501300","土城區"
"236075","166-UM","2017/09/16 14:08:58","新北市土城區永寧路18號","121.43041","24.9625933333333","6501300","土城區"
"236029","253-BX","2017/09/16 14:09:02","新北市土城區城林路6巷80號","121.438341666667","24.97979","6501300","土城區"
"236025","269-VK","2017/09/16 14:09:09","新北市土城區承天路18號","121.439338333333","24.9635183333333","6501300","土城區"
"236013","270-VK","2017/09/16 14:09:07","新北市土城區學府路一段70號","121.45686","24.9883933333333","6501300","土城區"
"236035","271-VK","2017/09/16 14:09:15","新北市土城區明德路一段398-1號","121.453875","24.9788116666667","6501300","土城區"
"236017","401-BY","2017/09/16 14:09:00","新北市土城區城林路6巷80號","121.438638333333","24.9797566666667","6501300","土城區"
"236006","498-BY","2017/09/16 14:09:09","新北市土城區日新街52號","121.442748333333","24.9885383333333","6501300","土城區"
"236057","912-UM","2017/09/16 14:09:02","新北市土城區中央路三段280號","121.426738333333","24.9636683333333","6501300","土城區"
"236045","913-UM","2017/09/16 14:08:58","新北市土城區明德路一段365-1號","121.453515","24.9790816666667","6501300","土城區"
"236061","915-UM","2017/09/16 14:09:02","新北市土城區裕民路90號","121.45028","24.9870816666667","6501300","土城區"
"236054","AAC-216","2017/09/16 14:09:00","新北市土城區城林路6巷80號","121.438701666667","24.9797233333333","6501300","土城區"
"242046","172-VK","2017/09/16 13:08:09","新北市新莊區福營路302號","121.42248","25.0274266666667","6500500","新莊區"
"221012","276-VK","2017/09/16 13:24:56","新北市汐止區汐萬路一段256巷3號","121.653443333333","25.0745933333333","6501100","汐止區"
"220027","145-BY","2017/09/16 14:09:07","新北市板橋區民權路260巷22號","121.458605","25.0153033333333","6500100","板橋區"
"220028","200-UY","2017/09/16 14:09:21","新北市板橋區大觀路二段7巷54號","121.448828333333","25.003175","6500100","板橋區"
"220030","610-BX","2017/09/16 14:08:54","新北市板橋區滿平街64號","121.427193333333","24.9893833333333","6500100","板橋區"
"220050","245-BX","2017/09/16 14:08:56","新北市板橋區莊敬路164號","121.471601666667","25.0226983333333","6500100","板橋區"
"220023","256-TC","2017/09/16 14:09:02","新北市板橋區溪城路90-2號","121.429498333333","24.980185","6500100","板橋區"
"220046","257-TC","2017/09/16 14:09:05","新北市板橋區公館街266號","121.459478333333","25.0213266666667","6500100","板橋區"
"220040","267-BY","2017/09/16 14:08:59","新北市板橋區萬板路378號","121.478533333333","25.02541","6500100","板橋區"
"220004","276-BY","2017/09/16 14:09:04","新北市板橋區信義路110巷2弄13號","121.457593333333","24.9926833333333","6500100","板橋區"
"220020","277-BY","2017/09/16 14:09:06","新北市板橋區金門街369巷13號","121.428955","24.9845616666667","6500100","板橋區"
"220042","280-UM","2017/09/16 14:09:12","新北市板橋區民生路三段187號","121.465461666667","25.0275033333333","6500100","板橋區"
"220019","283-VK","2017/09/16 14:09:12","新北市板橋區重慶路353巷1號","121.464468333333","24.997955","6500100","板橋區"
"220043","285-UM","2017/09/16 14:09:10","新北市板橋區光武街108-5號","121.465705","25.029165","6500100","板橋區"
"220001","285-VK","2017/09/16 14:09:14","新北市板橋區懷仁街34巷24號","121.475731666667","25.019015","6500100","板橋區"
"220031","286-VK","2017/09/16 14:09:11","新北市板橋區龍興街97巷16號","121.44344","25.0029433333333","6500100","板橋區"
"220029","287-VK","2017/09/16 13:44:21","新北市板橋區大觀路二段111號","121.44623","25.0015716666667","6500100","板橋區"
"220039","288-VK","2017/09/16 14:09:14","新北市板橋區四維路269巷11號","121.462726666667","25.0281616666667","6500100","板橋區"
"220010","293-UM","2017/09/16 14:09:13","新北市板橋區三民路二段居仁巷1弄2號","121.479383333333","25.0135083333333","6500100","板橋區"
"220009","295-UM","2017/09/16 14:09:18","新北市板橋區三民路二段21巷30號","121.480393333333","25.0180616666667","6500100","板橋區"
"220023","297-UM","2017/09/16 14:09:08","新北市板橋區大智街25巷2號","121.4551","25.0149716666667","6500100","板橋區"
"220041","307-R5","2017/09/16 14:09:17","新北市板橋區文化路二段231號","121.471026666667","25.0284366666667","6500100","板橋區"
"220047","317-R6","2017/09/16 14:09:10","新北市板橋區自由路51巷14弄5號","121.464683333333","25.0236666666667","6500100","板橋區"
"220022","461-BY","2017/09/16 14:09:13","新北市板橋區西門街42號","121.454386666667","25.0093966666667","6500100","板橋區"
"220012","486-VK","2017/09/16 14:09:08","新北市板橋區中山路一段185號","121.46779","25.013305","6500100","板橋區"
"220038","487-VK","2017/09/16 14:09:14","新北市板橋區文化路二段516號","121.475748333333","25.0334733333333","6500100","板橋區"
"220037","491-VK","2017/09/16 14:09:10","新北市板橋區文化路二段182巷7弄7號","121.4722","25.027205","6500100","板橋區"
"220104","560-BX","2017/09/16 14:09:17","新北市板橋區瑞安街31巷1號","121.455683333333","25.0228083333333","6500100","板橋區"
"220052","561-BX","2017/09/16 14:09:15","新北市板橋區文化路一段188巷9弄126號","121.469208333333","25.0190583333333","6500100","板橋區"
"220032","568-UM","2017/09/16 14:09:06","新北市板橋區篤行路一段16號","121.431351666667","24.9955233333333","6500100","板橋區"
"220011","609-BX","2017/09/16 14:09:06","新北市板橋區三民路二段202-16號","121.479001666667","25.0135466666667","6500100","板橋區"
"220005","686-BX","2017/09/16 14:09:14","新北市板橋區重慶路221號","121.463058333333","25.001065","6500100","板橋區"
"220025","687-BX","2017/09/16 14:09:06","新北市板橋區龍興街59號","121.443201666667","25.0012833333333","6500100","板橋區"
"220002","741-BX","2017/09/16 14:09:09","新北市板橋區重慶路127巷20號","121.463696666667","25.0048116666667","6500100","板橋區"
"220003","827-TW","2017/09/16 14:09:08","新北市板橋區中山路一段146號","121.463733333333","25.0110983333333","6500100","板橋區"
"220014","829-TW","2017/09/16 14:09:18","新北市板橋區中山路二段90巷43弄19號","121.477","25.0153116666667","6500100","板橋區"
"220051","830-TW","2017/09/16 14:09:20","新北市板橋區萬板路818巷7號","121.482978333333","25.026955","6500100","板橋區"
"220045","831-TW","2017/09/16 14:09:18","新北市板橋區雙十路二段47巷8弄8號","121.47455","25.0257133333333","6500100","板橋區"
"220021","985-R7","2017/09/16 14:09:18","新北市板橋區中正路159巷4號","121.456445","25.0160516666667","6500100","板橋區"
"220018","AAC-253","2017/09/16 14:09:13","新北市板橋區四川路一段322號","121.458381666667","25.0000583333333","6500100","板橋區"
