"lineid","car","time","location","longitude","latitude","cityid","cityname"
"234010","9373-KE","2017/09/16 14:27:25","新北市永和區保生路55號","121.504541666667","25.0107916666667","6500400","永和區"
"248017","225-UY","2017/09/16 15:19:03","新北市五股區自強路9-3號","121.434853333333","25.074095","6501500","五股區"
"244010","656-BX","2017/09/16 11:17:21","新北市林口區粉寮69號","121.405068333333","25.0907966666667","6501700","林口區"
"244005","657-BX","2017/09/16 15:18:59","新北市林口區粉寮路二段160巷28號","121.405125","25.0907916666667","6501700","林口區"
"231002","002-UM","2017/09/16 15:19:05","台北市文山區景文街146巷26號","121.533328333333","24.9917933333333","6500600","新店區"
"231024","0293-UT","2017/09/16 15:19:15","新北市新店區北新路一段303號","121.541426666667","24.967585","6500600","新店區"
"231028","046-UY","2017/09/16 15:19:11","新北市新店區僑信路84巷43號","121.498441666667","24.9475183333333","6500600","新店區"
"231030","047-UY","2017/09/16 15:19:01","新北市新店區安和路二段205巷1號","121.517671666667","24.9751383333333","6500600","新店區"
"231029","106-UY","2017/09/16 15:19:00","新北市新店區安康路三段738號","121.47383","24.941985","6500600","新店區"
"231018","107-UY","2017/09/16 15:19:13","新北市新店區中央七街63號","121.527988333333","24.97637","6500600","新店區"
"231012","108-UY","2017/09/16 15:19:06","新北市新店區順安街74號","121.541086666667","24.98669","6500600","新店區"
"231020","187-VK","2017/09/16 15:19:04","新北市新店區湖興路97號","121.565491666667","24.9322366666667","6500600","新店區"
"231026","256-BX","2017/09/16 15:19:16","新北市新店區中正路263號","121.538528333333","24.9734833333333","6500600","新店區"
"231034","268-BY","2017/09/16 15:19:10","新北市新店區玫瑰路32號","121.495503333333","24.9500733333333","6500600","新店區"
"231023","AAD-862","2017/09/16 15:19:11","新北市新店區行政街30號","121.542833333333","24.965585","6500600","新店區"
"231025","4716-K9","2017/09/16 15:19:01","新北市新店區民權路107-4號","121.536255","24.9820866666667","6500600","新店區"
"231036","512-UM","2017/09/16 15:19:02","新北市新店區安祥路69巷17號","121.48186","24.96135","6500600","新店區"
"231035","515-UM","2017/09/16 15:19:04","新北市新店區安和路三段111巷1-2號","121.517236666667","24.9846683333333","6500600","新店區"
"231001","619-UM","2017/09/16 15:18:57","新北市新店區北新路一段14號","121.540785","24.965685","6500600","新店區"
"231003","641-BX","2017/09/16 15:19:02","新北市新店區寶高路120巷1號","121.55462","24.9760316666667","6500600","新店區"
"231039","718-UY","2017/09/16 15:19:11","新北市新店區寶元路一段61號","121.542195","24.9858716666667","6500600","新店區"
"231005","897-TW","2017/09/16 15:19:16","新北市新店區建國路221號","121.537571666667","24.981425","6500600","新店區"
"231004","899-TW","2017/09/16 15:19:06","新北市新店區建國路29號","121.540185","24.9740816666667","6500600","新店區"
"231037","AKT-0513","2017/09/16 15:19:04","新北市新店區安民街341-1號","121.516675","24.9750233333333","6500600","新店區"
"241013","270-UM","2017/09/16 15:19:08","新北市三重區重新路四段121號","121.484825","25.0526333333333","6500200","三重區"
"235030","003-UY","2017/09/16 15:19:07","新北市中和區保平路330號","121.50688","25.0041983333333","6500300","中和區"
"235029","098-UM","2017/09/16 15:19:12","新北市新店區安民街382號","121.51629","24.9769133333333","6500300","中和區"
"235004","150-BY","2017/09/16 15:19:08","新北市中和區安平路38號","121.50993","24.995005","6500300","中和區"
"235025","378-QA","2017/09/16 15:19:17","新北市新店區車子路18-1號","121.506228333333","24.9544516666667","6500300","中和區"
"235014","4979-A6","2017/09/16 15:19:00","新北市中和區景新街160巷5弄1號","121.505346666667","24.9969183333333","6500300","中和區"
"235033","4980-A6","2017/09/16 15:19:04","新北市中和區連城路270號","121.484693333333","24.9963533333333","6500300","中和區"
"235034","558-UM","2017/09/16 15:18:59","新北市中和區圓通路208號","121.49611","24.9940483333333","6500300","中和區"
"235026","800-TS","2017/09/16 15:19:19","新北市中和區建八路125巷6弄11號","121.490286666667","24.99937","6500300","中和區"
"235012","896-TW","2017/09/16 15:19:03","新北市中和區景新街368號","121.512195","24.9903616666667","6500300","中和區"
"235001","AAC-213","2017/09/16 15:19:11","新北市板橋區民生路一段26-1號","121.477166666667","25.01195","6500300","中和區"
"235023","AAC-215","2017/09/16 15:19:01","新北市中和區圓通路435巷3-1號","121.487941666667","24.9863016666667","6500300","中和區"
"220016","013-TV","2017/09/16 15:19:14","新北市板橋區館前西路88號","121.457481666667","25.0071816666667","6500100","板橋區"
"220013","072-UY","2017/09/16 15:19:09","新北市板橋區華東街1-9號","121.44809","24.99489","6500100","板橋區"
"247010","335-TH","2017/09/16 13:21:42","新北市五股區中興路三段2巷10號","121.448651666667","25.08154","6501400","蘆洲區"
"208004","AAC-292","2017/09/16 15:19:15","新北市金山區六股里下六股16-1號","121.625555","25.224115","6502700","金山區"
"207002","749-BX","2017/09/16 15:19:12","新北市萬里區崁腳里內中福路31-2號","121.659923333333","25.1649833333333","6502800","萬里區"
"207001","662-BX","2017/09/16 15:18:58","新北市萬里區大鵬里萬里加投14號","121.650261666667","25.20908","6502800","萬里區"
"236068","105-UM","2017/09/16 15:19:10","新北市土城區裕民路185巷36弄10號","121.454375","24.984535","6501300","土城區"
"236041","107-UM","2017/09/16 15:19:04","新北市土城區裕民路263-1號","121.45523","24.982595","6501300","土城區"
"236075","166-UM","2017/09/16 15:19:07","新北市土城區中州路49號","121.412815","24.9578533333333","6501300","土城區"
"236029","253-BX","2017/09/16 15:19:12","新北市土城區中央路一段264-2號","121.444008333333","24.9838233333333","6501300","土城區"
"236025","269-VK","2017/09/16 15:19:11","新北市土城區中央路二段61巷20號","121.443018333333","24.9787966666667","6501300","土城區"
"236013","270-VK","2017/09/16 15:19:17","新北市土城區學府路一段50號","121.457586666667","24.9886483333333","6501300","土城區"
"236035","271-VK","2017/09/16 15:19:15","新北市土城區國際路131號","121.468056666667","24.9764866666667","6501300","土城區"
"236017","401-BY","2017/09/16 15:19:00","新北市土城區峰廷街3號","121.469078333333","24.9873633333333","6501300","土城區"
"236057","912-UM","2017/09/16 15:19:02","新北市土城區金城路一段131號","121.444826666667","24.9737133333333","6501300","土城區"
"236045","913-UM","2017/09/16 15:19:17","新北市土城區明德路一段63號","121.46535","24.9844016666667","6501300","土城區"
"236061","915-UM","2017/09/16 15:19:16","新北市土城區延和路146巷7號","121.467928333333","24.9897933333333","6501300","土城區"
"236054","AAC-216","2017/09/16 15:19:00","新北市土城區學府路一段208號","121.452438333333","24.9854116666667","6501300","土城區"
"242046","172-VK","2017/09/16 13:56:29","新北市新莊區四維路119巷24號","121.424061666667","25.022735","6500500","新莊區"
"221012","276-VK","2017/09/16 13:24:56","新北市汐止區汐萬路一段256巷3號","121.653443333333","25.0745933333333","6501100","汐止區"
"220050","245-BX","2017/09/16 15:19:16","新北市板橋區縣民大道三段32號","121.471631666667","25.0189866666667","6500100","板橋區"
"220023","256-TC","2017/09/16 14:09:27","新北市板橋區溪城路90-2號","121.429541666667","24.9803316666667","6500100","板橋區"
"220046","257-TC","2017/09/16 15:19:05","新北市板橋區公館街132號","121.461301666667","25.018345","6500100","板橋區"
"220012","282-UM","2017/09/16 15:19:15","新北市板橋區民族路61號","121.464838333333","25.0087583333333","6500100","板橋區"
"220031","286-VK","2017/09/16 15:19:11","新北市板橋區僑中二街106巷26號","121.4448","25.0078366666667","6500100","板橋區"
"220029","287-VK","2017/09/16 13:44:21","新北市板橋區大觀路二段111號","121.44623","25.0015716666667","6500100","板橋區"
"220010","293-UM","2017/09/16 15:08:38","新北市板橋區民生路二段120號","121.470398333333","25.0196616666667","6500100","板橋區"
"220038","487-VK","2017/09/16 15:19:14","新北市板橋區四維路162號","121.464813333333","25.02593","6500100","板橋區"
"220052","561-BX","2017/09/16 15:19:15","新北市板橋區漢生西路24號","121.463635","25.0181533333333","6500100","板橋區"
"220051","830-TW","2017/09/16 15:19:02","新北市板橋區文化路一段220號","121.466576666667","25.0205833333333","6500100","板橋區"
"220018","AAC-253","2017/09/16 15:19:17","新北市板橋區四川路二段245巷50號","121.451978333333","24.9924483333333","6500100","板橋區"
