"lineid","car","time","location","longitude","latitude","cityid","cityname"
"249005","172-UM","2017/09/16 16:59:04","新北市八里區渡船頭1-1號","121.434195","25.152255","6502300","八里區"
"249001","173-UM","2017/09/16 16:59:04","新北市八里區商港路48號","121.39408","25.1443916666667","6502300","八里區"
"249004","303-UY","2017/09/16 16:59:03","新北市八里區挖子尾街46號","121.415521666667","25.1662316666667","6502300","八里區"
"249002","305-UY","2017/09/16 16:58:34","新北市八里區牛寮埔28-5號","121.432468333333","25.14337","6502300","八里區"
"249003","593-UM","2017/09/16 16:59:13","新北市八里區中山路二段277號","121.401765","25.1487033333333","6502300","八里區"
"244007","080-UY","2017/09/16 16:59:18","新北市林口區林口路296號","121.385696666667","25.0853266666667","6501700","林口區"
"244023","483-VK","2017/09/16 16:59:00","新北市林口區粉寮69號","121.405056666667","25.090795","6501700","林口區"
"244010","656-BX","2017/09/16 11:17:21","新北市林口區粉寮69號","121.405068333333","25.0907966666667","6501700","林口區"
"244021","838-TS","2017/09/16 16:59:07","新北市林口區粉寮69號","121.404758333333","25.09087","6501700","林口區"
"231046","278-BY","2017/09/16 16:59:11","新北市新店區永業路81巷20號","121.5307","24.9479833333333","6500600","新店區"
"241011","013-R5","2017/09/16 16:59:12","新北市三重區仁愛街55巷65號","121.499621666667","25.0729483333333","6500200","三重區"
"241028","022-UY","2017/09/16 16:59:17","新北市三重區中正南路54號","121.49396","25.0598266666667","6500200","三重區"
"241008","059-VK","2017/09/16 16:59:16","新北市三重區永福街179巷19號","121.478238333333","25.0749433333333","6500200","三重區"
"241009","060-VK","2017/09/16 16:59:06","新北市三重區仁美街107號","121.485716666667","25.0807816666667","6500200","三重區"
"241031","061-VK","2017/09/16 16:59:16","新北市三重區重新路三段115巷10號","121.49041","25.060265","6500200","三重區"
"241015","062-VK","2017/09/16 16:58:59","新北市三重區三和路二段2號","121.501546666667","25.0663983333333","6500200","三重區"
"241017","063-VK","2017/09/16 16:59:06","新北市三重區國隆路12巷11號","121.49243","25.063655","6500200","三重區"
"241024","065-VK","2017/09/16 16:59:11","新北市三重區大勇街82巷15弄30號","121.481186666667","25.0718733333333","6500200","三重區"
"241026","066-VK","2017/09/16 16:59:02","新北市三重區文化南路42號","121.500365","25.0602833333333","6500200","三重區"
"241002","090-VK","2017/09/16 16:59:03","新北市三重區仁義街101巷2號","121.4981","25.079925","6500200","三重區"
"241003","091-VK","2017/09/16 16:59:00","新北市三重區碧華街377號","121.492626666667","25.08548","6500200","三重區"
"241005","262-UM","2017/09/16 16:59:06","新北市三重區仁華街73號","121.48532","25.08298","6500200","三重區"
"241016","266-UM","2017/09/16 16:59:06","新北市三重區大同北路99號","121.494336666667","25.0638983333333","6500200","三重區"
"241022","267-UM","2017/09/16 16:59:19","新北市三重區中華路130號","121.483513333333","25.0639516666667","6500200","三重區"
"241032","269-UM","2017/09/16 16:59:15","新北市三重區重陽路一段130巷11號","121.486005","25.06068","6500200","三重區"
"241013","270-UM","2017/09/16 16:59:14","新北市三重區仁愛街81-1號","121.496005","25.073185","6500200","三重區"
"241025","271-UM","2017/09/16 16:59:13","新北市三重區中正北路357號","121.472695","25.0717466666667","6500200","三重區"
"241007","398-BY","2017/09/16 16:59:18","新北市三重區三和路四段181巷232號","121.487548333333","25.0805183333333","6500200","三重區"
"241020","413-TH","2017/09/16 16:59:16","新北市三重區後竹圍街175巷22號","121.48565","25.0727816666667","6500200","三重區"
"241004","475-VK","2017/09/16 16:59:16","新北市三重區五華街98巷10號","121.491755","25.0817766666667","6500200","三重區"
"241019","478-VK","2017/09/16 16:59:15","新北市三重區自強路二段74巷11號","121.488155","25.069965","6500200","三重區"
"241030","480-VK","2017/09/16 16:59:08","新北市三重區昌隆街62號","121.491143333333","25.051095","6500200","三重區"
"241014","543-UM","2017/09/16 16:59:03","新北市三重區介壽路39巷94號","121.500713333333","25.0705533333333","6500200","三重區"
"241023","545-UM","2017/09/16 16:59:00","新北市三重區興華街81號","121.484663333333","25.0602666666667","6500200","三重區"
"241001","547-UM","2017/09/16 16:59:05","新北市三重區仁愛街190號","121.493898333333","25.0770233333333","6500200","三重區"
"241006","AAD-863","2017/09/16 16:58:59","新北市三重區車路頭街117巷46號","121.485313333333","25.07568","6500200","三重區"
"241018","887-TS","2017/09/16 16:59:09","新北市三重區六張街126巷2弄4號","121.492146666667","25.0694316666667","6500200","三重區"
"241012","941-UM","2017/09/16 16:58:56","新北市三重區仁和街197號","121.500448333333","25.0749516666667","6500200","三重區"
"241029","942-UM","2017/09/16 16:59:01","新北市三重區中正南路269號","121.493041666667","25.0525533333333","6500200","三重區"
"241033","AAC-255","2017/09/16 16:59:02","新北市三重區中興北街271號","121.46921","25.06066","6500200","三重區"
"235062","800-TS","2017/09/16 15:35:59","新北市中和區員山路36巷16-3號","121.484768333333","24.991635","6500300","中和區"
"247022","893-R6","2017/09/16 16:59:08","新北市蘆洲區三民路128巷166號","121.468381666667","25.092615","6501400","蘆洲區"
"247012","546-UM","2017/09/16 16:59:09","新北市蘆洲區信義路298號","121.477568333333","25.0875316666667","6501400","蘆洲區"
"247020","500-BY","2017/09/16 16:59:02","新北市蘆洲區民族路422巷82弄2號","121.473658333333","25.0937483333333","6501400","蘆洲區"
"247010","339-TH","2017/09/16 16:59:15","新北市蘆洲區三民路26巷75號","121.478846666667","25.083175","6501400","蘆洲區"
"247002","337-TH","2017/09/16 16:59:17","新北市蘆洲區永平街12號","121.459375","25.0905416666667","6501400","蘆洲區"
"247004","336-TH","2017/09/16 16:59:04","新北市蘆洲區長安街127號","121.46084","25.081395","6501400","蘆洲區"
"247010","335-TH","2017/09/16 13:21:42","新北市五股區中興路三段2巷10號","121.448651666667","25.08154","6501400","蘆洲區"
"247016","057-VK","2017/09/16 16:59:12","新北市蘆洲區正和街16巷2號","121.470011666667","25.0826583333333","6501400","蘆洲區"
"247006","056-VK","2017/09/16 16:58:57","新北市蘆洲區永安南路二段232號","121.460646666667","25.0795166666667","6501400","蘆洲區"
"247008","053-VK","2017/09/16 16:59:07","新北市蘆洲區信義路57號","121.475115","25.0797466666667","6501400","蘆洲區"
"247014","007-UY","2017/09/16 16:59:15","新北市蘆洲區中山二路36巷35號","121.474001666667","25.083295","6501400","蘆洲區"
"247024","002-UY","2017/09/16 16:59:15","新北市蘆洲區長興路202號","121.460588333333","25.0875666666667","6501400","蘆洲區"
"247018","001-UY","2017/09/16 16:59:03","新北市蘆洲區民族路304號","121.477573333333","25.0899333333333","6501400","蘆洲區"
"228003","097-TW","2017/09/16 16:59:13","新北市貢寮區福隆里興隆街24-1號","121.944421666667","25.0166083333333","6502600","貢寮區"
"228001","212-TW","2017/09/16 16:59:10","新北市貢寮區貢寮里朝陽街1-2號","121.912181666667","25.0212633333333","6502600","貢寮區"
"228002","585-TW","2017/09/16 16:59:08","新北市貢寮區貢寮里朝陽街3號","121.909878333333","25.02116","6502600","貢寮區"
"224010","AGQ-8101","2017/09/16 08:50:29","新北市瑞芳區民權街3-1號","121.809426666667","25.10818","6501200","瑞芳區"
"224006","676-BX","2017/09/16 16:59:02","新北市瑞芳區大寮路2-2號","121.785535","25.1014466666667","6501200","瑞芳區"
"224009","285-BY","2017/09/16 16:59:14","新北市瑞芳區濱二路26號","121.836511666667","25.1124016666667","6501200","瑞芳區"
"224008","275-VK","2017/09/16 16:59:05","新北市瑞芳區坪林路7號","121.833516666667","25.1010933333333","6501200","瑞芳區"
"224007","273-VK","2017/09/16 16:59:11","新北市瑞芳區瑞竹路76-4號","121.763346666667","25.1034016666667","6501200","瑞芳區"
"224005","271-BY","2017/09/16 16:59:01","新北市瑞芳區明里路14號","121.868796666667","25.1213466666667","6501200","瑞芳區"
"227010","642-TC","2017/09/16 16:58:59","新北市雙溪區牡丹里中正路103號","121.86172","25.0480516666667","6502500","雙溪區"
"227002","400-TW","2017/09/16 16:59:01","新北市雙溪區長源里柑腳41-1號","121.803171666667","25.01307","6502500","雙溪區"
"251009","008-UM","2017/09/16 16:58:58","新北市淡水區中正路二段31號","121.419721666667","25.1819083333333","6501000","淡水區"
"251005","010-UM","2017/09/16 16:59:07","新北市淡水區重建街87號","121.439816666667","25.1725083333333","6501000","淡水區"
"251014","180-VK","2017/09/16 16:59:13","新北市淡水區興仁路162號","121.451603333333","25.2206633333333","6501000","淡水區"
"251008","181-VK","2017/09/16 16:59:12","新北市淡水區樹梅坑9號","121.472806666667","25.1426916666667","6501000","淡水區"
"251010","413-VK","2017/09/16 16:59:17","新北市淡水區新市二路三段20號","121.43188","25.1934083333333","6501000","淡水區"
"251012","441-VK","2017/09/16 16:59:01","新北市淡水區中正路二段31號","121.419351666667","25.1817483333333","6501000","淡水區"
"251016","442-VK","2017/09/16 16:59:02","新北市淡水區瓦坑3號","121.47758","25.1807816666667","6501000","淡水區"
"251006","561-UM","2017/09/16 16:58:56","新北市淡水區中正路二段31號","121.419586666667","25.1816016666667","6501000","淡水區"
"251007","577-R6","2017/09/16 16:59:06","新北市淡水區中山路135號","121.44097","25.1715866666667","6501000","淡水區"
"251011","650-BX","2017/09/16 16:59:12","新北市淡水區文化路18號","121.439751666667","25.172575","6501000","淡水區"
"252002","178-VK","2017/09/16 16:58:59","新北市三芝區忠孝街175號","121.505395","25.2614233333333","6502100","三芝區"
"252001","292-VK","2017/09/16 16:59:11","新北市三芝區淡金路二段43號","121.503275","25.2602533333333","6502100","三芝區"
"242031","AAC-296","2017/09/16 16:59:10","新北市新莊區新泰路357巷3弄57號","121.442371666667","25.0396116666667","6500500","新莊區"
"242051","751-BX","2017/09/16 16:59:12","新北市新莊區三和路18-25號","121.441778333333","25.0390666666667","6500500","新莊區"
"242023","613-BX","2017/09/16 16:59:17","新北市新莊區新泰路357巷3弄57號","121.441978333333","25.0391083333333","6500500","新莊區"
"242027","612-BX","2017/09/16 16:59:11","新北市新莊區三和路12-21號","121.441945","25.0388633333333","6500500","新莊區"
"242039","566-BX","2017/09/16 16:59:07","新北市新莊區新泰路357巷3弄57號","121.441918333333","25.0390566666667","6500500","新莊區"
"242048","441-UM","2017/09/16 16:59:06","新北市新莊區三和路12-21號","121.442065","25.0383583333333","6500500","新莊區"
"242034","415-TV","2017/09/16 01:24:25","新北市新莊區新泰路357巷3弄57號","121.441845","25.03924","6500500","新莊區"
"242042","400-BY","2017/09/16 16:59:03","新北市新莊區新泰路357巷3弄57號","121.442308333333","25.0395866666667","6500500","新莊區"
"242061","362-BY","2017/09/16 16:59:01","新北市新莊區三和路12-21號","121.44221","25.0382783333333","6500500","新莊區"
"242058","353-BY","2017/09/16 16:58:56","新北市新莊區三和路12-21號","121.442183333333","25.0386233333333","6500500","新莊區"
"242007","132-UY","2017/09/16 01:19:30","新北市新莊區三和路12-21號","121.442","25.038845","6500500","新莊區"
"242036","133-UY","2017/09/16 16:59:02","新北市新莊區三和路12-21號","121.441991666667","25.0387616666667","6500500","新莊區"
"242046","172-VK","2017/09/16 15:12:16","新北市新莊區新泰路255巷83號","121.442131666667","25.0388116666667","6500500","新莊區"
"242013","346-TH","2017/09/16 04:35:06","新北市新莊區三和路12-16號","121.441981666667","25.0373666666667","6500500","新莊區"
"242019","348-TH","2017/09/16 16:59:08","新北市新莊區新泰路357巷3弄57號","121.442073333333","25.0393616666667","6500500","新莊區"
"242056","349-TH","2017/09/16 02:34:42","新北市新莊區三和路12-18號","121.442045","25.0375983333333","6500500","新莊區"
"238019","599-UM","2017/09/16 16:59:12","新北市樹林區育德街78-1號","121.387805","24.9681333333333","6500700","樹林區"
"238005","571-TV","2017/09/16 16:59:08","新北市樹林區育德街78-1號","121.387668333333","24.9682416666667","6500700","樹林區"
"238021","KEA-2217","2017/09/16 16:59:15","新北市樹林區育德街78號","121.38785","24.96831","6500700","樹林區"
"238025","303-VK","2017/09/16 16:59:17","新北市樹林區育德街78號","121.387541666667","24.968435","6500700","樹林區"
"239007","AAC-297","2017/09/16 16:59:14","新北市鶯歌區文化路324巷1-35號","121.352156666667","24.9452833333333","6500800","鶯歌區"
"239006","891-R6","2017/09/16 16:59:12","新北市鶯歌區二甲路33-21號","121.339783333333","24.9385816666667","6500800","鶯歌區"
"239008","527-UM","2017/09/16 16:59:07","新北市鶯歌區尖山路101巷13號","121.346455","24.94272","6500800","鶯歌區"
"239005","526-UM","2017/09/16 16:59:16","新北市鶯歌區文化路669號","121.353651666667","24.9469283333333","6500800","鶯歌區"
"239001","417-VK","2017/09/16 16:59:10","新北市鶯歌區環河路85-1號","121.347741666667","24.9401633333333","6500800","鶯歌區"
"239003","360-BY","2017/09/16 16:59:10","新北市鶯歌區文化路537號","121.352926666667","24.94775","6500800","鶯歌區"
"239002","359-BY","2017/09/16 16:59:06","新北市鶯歌區文化路559號","121.352928333333","24.9472183333333","6500800","鶯歌區"
"239004","193-VK","2017/09/16 16:59:09","新北市鶯歌區二甲路11-1號","121.344325","24.9370616666667","6500800","鶯歌區"
"221012","276-VK","2017/09/16 13:24:56","新北市汐止區汐萬路一段256巷3號","121.653443333333","25.0745933333333","6501100","汐止區"
"220023","256-TC","2017/09/16 14:09:27","新北市板橋區溪城路90-2號","121.429541666667","24.9803316666667","6500100","板橋區"
"220010","293-UM","2017/09/16 15:08:38","新北市板橋區民生路二段120號","121.470398333333","25.0196616666667","6500100","板橋區"
