"lineid","car","time","location","longitude","latitude","cityid","cityname"
"234026","9371-KE","2017/09/16 17:42:47","新北市永和區永和路一段151巷2號","121.51395","25.0093916666667","6500400","永和區"
"249005","172-UM","2017/09/16 17:43:03","新北市八里區荖阡坑路34號","121.40272","25.129895","6502300","八里區"
"249001","173-UM","2017/09/16 17:43:04","新北市八里區龍米路二段153-8號","121.44017","25.1535266666667","6502300","八里區"
"249004","303-UY","2017/09/16 17:43:03","新北市八里區中華路一段79巷9號","121.420923333333","25.1563766666667","6502300","八里區"
"249002","305-UY","2017/09/16 17:43:14","新北市八里區石壁腳19號","121.441658333333","25.1354483333333","6502300","八里區"
"249003","593-UM","2017/09/16 17:43:13","新北市八里區中山路二段270號","121.405018333333","25.1512","6502300","八里區"
"248006","077-UY","2017/09/16 17:43:17","新北市五股區中興路二段37巷28號","121.46019","25.07502","6501500","五股區"
"232011","375-UM","2017/09/16 17:43:16","新北市坪林區北宜路八段61號","121.704896666667","24.9353966666667","6502000","坪林區"
"244013","069-UM","2017/09/16 17:43:09","新北市林口區中正路555號","121.381163333333","25.076895","6501700","林口區"
"244007","080-UY","2017/09/16 17:42:58","新北市林口區文化一路二段345號","121.386405","25.0869483333333","6501700","林口區"
"244019","403-UM","2017/09/16 17:43:12","新北市林口區公園路165號","121.370986666667","25.07165","6501700","林口區"
"244009","410-SL","2017/09/16 17:43:00","新北市林口區中北三街296號","121.382341666667","25.0828766666667","6501700","林口區"
"244023","483-VK","2017/09/16 17:43:00","新北市林口區東明一街142巷26號","121.389826666667","25.0716583333333","6501700","林口區"
"244017","485-VK","2017/09/16 17:42:59","新北市林口區忠孝路407號","121.370398333333","25.0706133333333","6501700","林口區"
"244011","656-BX","2017/09/16 17:43:04","新北市林口區中正路370號","121.386111666667","25.0777766666667","6501700","林口區"
"244025","837-TS","2017/09/16 17:43:04","新北市林口區南勢街19號","121.36505","25.07379","6501700","林口區"
"244021","838-TS","2017/09/16 17:43:07","新北市林口區仁愛路一段167巷118號","121.397853333333","25.0732833333333","6501700","林口區"
"231046","278-BY","2017/09/16 17:43:11","新北市新店區直潭路92號","121.530913333333","24.937635","6500600","新店區"
"241017","063-VK","2017/09/16 17:43:06","新北市三重區大同北路34巷12號","121.494933333333","25.0624133333333","6500200","三重區"
"241024","065-VK","2017/09/16 17:43:11","新北市三重區大勇街15號","121.483281666667","25.0715133333333","6500200","三重區"
"241005","262-UM","2017/09/16 17:43:06","新北市三重區碧華街277號","121.489915","25.083495","6500200","三重區"
"241016","266-UM","2017/09/16 17:42:59","新北市三重區重新路二段76號","121.497526666667","25.0618533333333","6500200","三重區"
"241007","398-BY","2017/09/16 17:42:58","新北市三重區車路頭街77號","121.484475","25.0738866666667","6500200","三重區"
"241014","543-UM","2017/09/16 17:43:03","新北市三重區河邊北街70號","121.50434","25.0682516666667","6500200","三重區"
"241012","941-UM","2017/09/16 17:43:16","新北市三重區龍門路300號","121.502491666667","25.0744466666667","6500200","三重區"
"241033","AAC-255","2017/09/16 17:43:02","新北市三重區光復路一段47號","121.472223333333","25.0486716666667","6500200","三重區"
"235062","800-TS","2017/09/16 15:35:59","新北市中和區員山路36巷16-3號","121.484768333333","24.991635","6500300","中和區"
"247022","893-R6","2017/09/16 17:43:08","新北市蘆洲區民族路578號","121.466988333333","25.0885916666667","6501400","蘆洲區"
"247012","546-UM","2017/09/16 17:43:09","新北市蘆洲區復興路144號","121.477035","25.0876583333333","6501400","蘆洲區"
"247020","500-BY","2017/09/16 17:43:02","新北市蘆洲區民義街71巷10號","121.472875","25.0904033333333","6501400","蘆洲區"
"247010","339-TH","2017/09/16 17:43:15","新北市蘆洲區民族路42號","121.476743333333","25.08438","6501400","蘆洲區"
"247002","337-TH","2017/09/16 17:42:57","新北市蘆洲區永平街32巷21弄23號","121.458228333333","25.09199","6501400","蘆洲區"
"247004","336-TH","2017/09/16 17:43:14","新北市蘆洲區長榮路106號","121.46181","25.0841683333333","6501400","蘆洲區"
"247010","335-TH","2017/09/16 17:29:34","新北市五股區中興路三段2巷10號","121.449328333333","25.08106","6501400","蘆洲區"
"247016","057-VK","2017/09/16 17:42:03","新北市蘆洲區光華路70巷13號","121.467486666667","25.0832416666667","6501400","蘆洲區"
"247006","056-VK","2017/09/16 17:43:17","新北市蘆洲區九芎街142號","121.46464","25.0786516666667","6501400","蘆洲區"
"247008","053-VK","2017/09/16 17:43:07","新北市蘆洲區和平路29巷15號","121.472091666667","25.07838","6501400","蘆洲區"
"247014","007-UY","2017/09/16 17:43:15","新北市蘆洲區和平路77號","121.46923","25.079205","6501400","蘆洲區"
"247024","002-UY","2017/09/16 17:43:15","新北市蘆洲區長樂路120巷18號","121.462725","25.089505","6501400","蘆洲區"
"247018","001-UY","2017/09/16 17:43:03","新北市蘆洲區三民路98巷3號","121.472206666667","25.08694","6501400","蘆洲區"
"228003","097-TW","2017/09/16 17:43:13","新北市貢寮區真理里延平街27號","121.92449","25.05503","6502600","貢寮區"
"228001","212-TW","2017/09/16 17:43:10","新北市貢寮區仁理村仁愛路95-1號","121.927695","25.05544","6502600","貢寮區"
"228002","585-TW","2017/09/16 17:43:08","新北市貢寮區福隆里外隆林街14-1號","121.959133333333","25.003645","6502600","貢寮區"
"224010","AGQ-8101","2017/09/16 17:43:12","新北市瑞芳區岳王路166-1號","121.80827","25.1114216666667","6501200","瑞芳區"
"224006","676-BX","2017/09/16 17:43:15","新北市瑞芳區傑魚坑路52號","121.793673333333","25.110585","6501200","瑞芳區"
"224002","639-TC","2017/09/16 17:43:17","新北市瑞芳區明燈路二段46號","121.809513333333","25.1081766666667","6501200","瑞芳區"
"224009","285-BY","2017/09/16 17:43:14","新北市瑞芳區山尖路213號","121.848903333333","25.1124","6501200","瑞芳區"
"224008","275-VK","2017/09/16 17:43:04","新北市瑞芳區明燈路一段21號","121.822941666667","25.1073666666667","6501200","瑞芳區"
"224005","271-BY","2017/09/16 17:43:11","新北市瑞芳區海濱路34號","121.830943333333","25.1238183333333","6501200","瑞芳區"
"208002","742-BX","2017/09/16 17:42:59","新北市金山區磺清路135號","121.639323333333","25.2276716666667","6502700","金山區"
"208001","761-BX","2017/09/16 17:43:16","新北市金山區磺清路135號","121.639263333333","25.22775","6502700","金山區"
"251009","008-UM","2017/09/16 17:42:58","新北市淡水區中正路38-1號","121.443753333333","25.169255","6501000","淡水區"
"251004","009-UM","2017/09/16 17:43:11","新北市淡水區民權路20號","121.459348333333","25.137845","6501000","淡水區"
"251005","010-UM","2017/09/16 17:43:07","新北市淡水區鄧公路35巷10號","121.451876666667","25.1712516666667","6501000","淡水區"
"251001","011-UM","2017/09/16 17:43:03","新北市淡水區民權路92巷35-1號","121.462161666667","25.126615","6501000","淡水區"
"251014","180-VK","2017/09/16 17:43:13","新北市淡水區公埔子16-6號","121.481018333333","25.2245816666667","6501000","淡水區"
"251008","181-VK","2017/09/16 17:43:12","新北市淡水區八勢路一段123巷6號","121.466826666667","25.1569316666667","6501000","淡水區"
"251010","413-VK","2017/09/16 17:42:57","新北市淡水區淡海路280巷33弄34-2號","121.418708333333","25.1886033333333","6501000","淡水區"
"251012","441-VK","2017/09/16 17:43:01","新北市淡水區北新路一段20號","121.454656666667","25.181125","6501000","淡水區"
"251016","442-VK","2017/09/16 17:43:02","新北市淡水區埤島39-15號","121.452753333333","25.1958983333333","6501000","淡水區"
"251006","561-UM","2017/09/16 17:42:56","新北市淡水區大信街1巷2號","121.440858333333","25.176735","6501000","淡水區"
"251007","577-R6","2017/09/16 17:43:06","新北市淡水區民生路52巷8號","121.462103333333","25.1376183333333","6501000","淡水區"
"251011","650-BX","2017/09/16 17:43:12","新北市淡水區小坪頂23-2號","121.485188333333","25.1552583333333","6501000","淡水區"
"251002","672-BX","2017/09/16 17:43:08","新北市淡水區中山路110號","121.44216","25.17074","6501000","淡水區"
"251003","673-BX","2017/09/16 17:43:13","新北市淡水區大忠街5巷1號","121.443121666667","25.17638","6501000","淡水區"
"207003","550-UM","2017/09/16 17:43:05","新北市萬里區野柳里東澳路31-4號","121.691828333333","25.2033583333333","6502800","萬里區"
"207004","225-TW","2017/09/16 17:43:11","新北市萬里區中幅里中福路21號","121.682446666667","25.1650433333333","6502800","萬里區"
"252002","178-VK","2017/09/16 17:42:58","新北市三芝區中正路二段22號","121.504428333333","25.2552516666667","6502100","三芝區"
"252001","292-VK","2017/09/16 17:43:11","新北市三芝區淡金路二段15號","121.50233","25.259055","6502100","三芝區"
"237004","078-UY","2017/09/16 17:43:06","新北市三峽區中山路459巷137號","121.349965","24.93395","6500900","三峽區"
"237013","252-BX","2017/09/16 17:43:15","新北市三峽區愛國路2-9號","121.373613333333","24.93382","6500900","三峽區"
"237012","275-BY","2017/09/16 17:43:03","新北市三峽區中山路459巷163-3號","121.348685","24.9327216666667","6500900","三峽區"
"237008","302-VK","2017/09/16 17:43:04","新北市三峽區民權街132號","121.36856","24.9320066666667","6500900","三峽區"
"237014","433-BY","2017/09/16 17:43:00","新北市三峽區中山路365-1號","121.357715","24.9365616666667","6500900","三峽區"
"237006","5529-G3","2017/09/16 17:43:04","新北市三峽區介壽路一段554號","121.38744","24.9336616666667","6500900","三峽區"
"237011","572-TV","2017/09/16 17:39:33","新北市三峽區中山路96號","121.366523333333","24.9353733333333","6500900","三峽區"
"237016","649-BX","2017/09/16 17:42:55","新北市三峽區正義街158-7號","121.368333333333","24.91593","6500900","三峽區"
"237010","706-TV","2017/09/16 17:36:26","新北市三峽區中山路198號","121.363126666667","24.93716","6500900","三峽區"
"237005","AKY-6261","2017/09/16 17:43:04","新北市三峽區中山路459巷137號","121.350083333333","24.9340483333333","6500900","三峽區"
"236073","105-UM","2017/09/16 17:43:00","新北市土城區中華路一段219號","121.442271666667","24.9840483333333","6501300","土城區"
"236043","107-UM","2017/09/16 17:43:16","新北市土城區城林路6巷80號","121.43854","24.9797733333333","6501300","土城區"
"236079","166-UM","2017/09/16 17:43:12","新北市土城區城林路6巷80號","121.438321666667","24.9798783333333","6501300","土城區"
"236031","253-BX","2017/09/16 17:43:03","新北市土城區城林路6巷80號","121.438565","24.9795733333333","6501300","土城區"
"236015","270-VK","2017/09/16 17:43:15","新北市土城區城林路6巷80號","121.438516666667","24.9796083333333","6501300","土城區"
"236038","271-VK","2017/09/16 17:43:19","新北市土城區城林路6巷80號","121.43851","24.97969","6501300","土城區"
"236059","912-UM","2017/09/16 17:43:12","新北市土城區城林路6巷80號","121.438583333333","24.9796783333333","6501300","土城區"
"236049","913-UM","2017/09/16 17:42:58","新北市土城區城林路6巷80號","121.438453333333","24.9795866666667","6501300","土城區"
"242031","AAC-296","2017/09/16 17:43:11","新北市新莊區新泰路319號","121.445026666667","25.041445","6500500","新莊區"
"242029","986-R7","2017/09/16 17:43:15","新北市新莊區復興路一段185號","121.451553333333","25.04354","6500500","新莊區"
"242051","751-BX","2017/09/16 17:43:12","新北市新莊區西盛街189號","121.428938333333","25.01713","6500500","新莊區"
"242025","615-BX","2017/09/16 17:43:16","新北市新莊區福美街172巷31號","121.460655","25.0598533333333","6500500","新莊區"
"242023","613-BX","2017/09/16 17:43:17","新北市新莊區民樂街66號","121.457958333333","25.0420733333333","6500500","新莊區"
"242027","612-BX","2017/09/16 17:43:17","新北市新莊區福壽街126-5號","121.457785","25.0512066666667","6500500","新莊區"
"242039","566-BX","2017/09/16 17:43:07","新北市新莊區民安西路1號","121.426715","25.0220216666667","6500500","新莊區"
"242044","442-UM","2017/09/16 17:43:10","新北市新莊區富國路65巷14號","121.420061666667","25.0265616666667","6500500","新莊區"
"242048","441-UM","2017/09/16 17:43:06","新北市新莊區萬安街103號","121.420896666667","25.02307","6500500","新莊區"
"242053","440-UM","2017/09/16 17:43:04","新北市新莊區新樹路697號","121.432206666667","25.00235","6500500","新莊區"
"242034","415-TV","2017/09/16 17:43:14","新北市新莊區新莊路550號","121.445113333333","25.032925","6500500","新莊區"
"242004","413-TV","2017/09/16 17:43:07","新北市新莊區自立街200號","121.456728333333","25.04556","6500500","新莊區"
"242042","400-BY","2017/09/16 17:43:03","新北市泰山區中山路二段841號","121.425866666667","25.03544","6500500","新莊區"
"242061","362-BY","2017/09/16 17:43:01","新北市新莊區瓊林南路206號","121.433986666667","25.0064533333333","6500500","新莊區"
"242058","353-BY","2017/09/16 17:43:19","新北市新莊區中正路700-12號","121.418551666667","25.0276966666667","6500500","新莊區"
"242007","132-UY","2017/09/16 17:43:15","新北市新莊區福樂街118巷5號","121.457313333333","25.0480833333333","6500500","新莊區"
"242036","133-UY","2017/09/16 17:43:02","新北市新莊區建福路59巷30號","121.428206666667","25.0275466666667","6500500","新莊區"
"242021","135-UY","2017/09/16 17:43:04","新北市新莊區中華路一段80號","121.452135","25.0391916666667","6500500","新莊區"
"242046","172-VK","2017/09/16 17:43:00","新北市新莊區建國一路46號","121.434045","25.0312883333333","6500500","新莊區"
"242009","173-VK","2017/09/16 17:43:14","新北市新莊區昌明街14巷7弄6號","121.457191666667","25.0535883333333","6500500","新莊區"
"242015","175-VK","2017/09/16 17:43:07","新北市新莊區新泰路378號","121.444188333333","25.043215","6500500","新莊區"
"242002","176-VK","2017/09/16 17:43:11","新北市新莊區新莊路312號","121.450736666667","25.03368","6500500","新莊區"
"242013","346-TH","2017/09/16 17:43:05","新北市新莊區中誠街140號","121.448763333333","25.0475933333333","6500500","新莊區"
"242019","348-TH","2017/09/16 17:43:08","新北市新莊區中港路151號","121.45502","25.0409183333333","6500500","新莊區"
"242056","349-TH","2017/09/16 17:43:18","新北市新莊區瓊林路38-5號","121.44839","25.03062","6500500","新莊區"
"242017","350-TH","2017/09/16 17:43:14","新北市新莊區復興路一段151號","121.450445","25.04343","6500500","新莊區"
"238015","755-BX","2017/09/16 17:43:02","新北市樹林區樹德街99號","121.420026666667","24.9923666666667","6500700","樹林區"
"238019","599-UM","2017/09/16 17:43:12","新北市樹林區太平路94-3號","121.418976666667","24.9798033333333","6500700","樹林區"
"238018","571-TV","2017/09/16 17:43:08","新北市樹林區鎮前街123號","121.424375","24.98951","6500700","樹林區"
"238024","5061-A6","2017/09/16 17:43:14","新北市樹林區忠孝街67巷15號","121.425055","24.9818466666667","6500700","樹林區"
"238021","KEA-2217","2017/09/16 17:43:15","新北市樹林區柑園街一段244號","121.391946666667","24.956385","6500700","樹林區"
"238022","KEA-2213","2017/09/16 17:43:11","新北市樹林區中華路187巷28號","121.42086","24.9808366666667","6500700","樹林區"
"238025","303-VK","2017/09/16 17:42:56","新北市樹林區保安街二段217號","121.41328","25.0042233333333","6500700","樹林區"
"238017","283-BY","2017/09/16 17:43:13","新北市樹林區三德街3號","121.412808333333","25.0128633333333","6500700","樹林區"
"238014","282-BY","2017/09/16 17:43:15","新北市樹林區保安街一段336巷15號","121.417638333333","24.9995033333333","6500700","樹林區"
"238020","268-VK","2017/09/16 17:43:14","新北市樹林區俊英街222號","121.424923333333","25.0099183333333","6500700","樹林區"
"238026","172-UY","2017/09/16 17:43:17","新北市樹林區新興街19巷34弄29號","121.402463333333","24.9724966666667","6500700","樹林區"
"238016","169-UY","2017/09/16 17:42:58","新北市樹林區育英街78號","121.420743333333","24.98936","6500700","樹林區"
"239007","AAC-297","2017/09/16 17:43:14","新北市鶯歌區鶯桃路94巷29-1號","121.34091","24.954285","6500800","鶯歌區"
"239006","891-R6","2017/09/16 17:43:12","新北市鶯歌區永和街115巷66-1號","121.333408333333","24.969815","6500800","鶯歌區"
"239008","527-UM","2017/09/16 17:43:07","新北市鶯歌區香賓街13巷1號","121.336971666667","24.9797283333333","6500800","鶯歌區"
"239005","526-UM","2017/09/16 17:43:16","新北市鶯歌區鳳吉四街51號","121.327661666667","24.9733566666667","6500800","鶯歌區"
"239001","417-VK","2017/09/16 17:43:10","新北市鶯歌區中正三路328號","121.327755","24.9350183333333","6500800","鶯歌區"
"239003","360-BY","2017/09/16 17:43:10","新北市鶯歌區永吉街46巷37號","121.334735","24.9576266666667","6500800","鶯歌區"
"239002","359-BY","2017/09/16 17:43:12","新北市鶯歌區中山路329巷22弄17號","121.344631666667","24.9558266666667","6500800","鶯歌區"
"239004","193-VK","2017/09/16 17:43:09","新北市鶯歌區文化路393巷15號","121.35271","24.9509183333333","6500800","鶯歌區"
"221036","130-UY","2017/09/16 17:43:13","新北市汐止區汐萬路一段312號","121.650663333333","25.0753633333333","6501100","汐止區"
"221015","131-UY","2017/09/16 17:43:11","新北市汐止區汐萬路一段191號","121.652373333333","25.0716783333333","6501100","汐止區"
"221010","269-BY","2017/09/16 17:43:18","新北市汐止區汐萬路一段418巷46號","121.651108333333","25.0791183333333","6501100","汐止區"
"221012","276-VK","2017/09/16 13:24:56","新北市汐止區汐萬路一段256巷3號","121.653443333333","25.0745933333333","6501100","汐止區"
"221023","279-VK","2017/09/16 17:43:13","新北市汐止區康寧街753巷2弄28號","121.64048","25.0747833333333","6501100","汐止區"
"221032","280-BY","2017/09/16 17:43:12","新北市汐止區中興路27巷4號","121.634851666667","25.060935","6501100","汐止區"
"221021","299-VK","2017/09/16 17:43:15","新北市汐止區汐萬路一段186號","121.652238333333","25.0720066666667","6501100","汐止區"
"221008","358-BY","2017/09/16 17:43:09","新北市汐止區康寧街901號","121.6514","25.0750683333333","6501100","汐止區"
"221035","622-UM","2017/09/16 17:43:12","新北市汐止區汐萬路一段256巷1號","121.651955","25.0747416666667","6501100","汐止區"
"221025","623-UM","2017/09/16 17:42:59","新北市汐止區汐萬路一段312號","121.650581666667","25.0753933333333","6501100","汐止區"
"221033","647-BX","2017/09/16 17:43:07","新北市汐止區橫科路73巷20弄22號","121.619823333333","25.0516583333333","6501100","汐止區"
"221002","753-BX","2017/09/16 17:43:01","新北市汐止區忠孝東路382巷1弄1號","121.665696666667","25.0698466666667","6501100","汐止區"
"220023","256-TC","2017/09/16 14:09:27","新北市板橋區溪城路90-2號","121.429541666667","24.9803316666667","6500100","板橋區"
"220010","293-UM","2017/09/16 15:08:38","新北市板橋區民生路二段120號","121.470398333333","25.0196616666667","6500100","板橋區"
"242011","280-VK","2017/09/16 17:43:09","新北市新莊區中港路617號","121.451346666667","25.0534916666667","6500500","新莊區"
