"lineid","car","time","location","longitude","latitude","cityid","cityname"
"248005","653-BX","2017/12/04 09:09:46","新北市五股區水碓路28號","121.433218333333","25.0727483333333","6501500","五股區"
"232017","705-BZ","2017/12/04 09:09:37","新北市坪林區坪雙路二段119號","121.755683333333","24.9634133333333","6502000","坪林區"
"232005","758-BX","2017/12/04 09:09:42","新北市坪林區鶯子瀨9-8號","121.709021666667","24.9161666666667","6502000","坪林區"
"244012","069-UM","2017/12/04 09:09:41","新北市林口區中山路285號","121.3844","25.08003","6501700","林口區"
"244006","080-UY","2017/12/04 09:09:41","新北市林口區竹林路157巷7號","121.38811","25.0800483333333","6501700","林口區"
"244018","403-UM","2017/12/04 09:09:44","新北市林口區文化一路一段24號","121.370243333333","25.06872","6501700","林口區"
"244008","410-SL","2017/12/04 09:09:44","新北市林口區文林一街11巷9號","121.376395","25.0859483333333","6501700","林口區"
"244022","483-VK","2017/12/04 09:09:55","新北市林口區東湖路153巷135號","121.382203333333","25.0735283333333","6501700","林口區"
"244016","485-VK","2017/12/04 09:09:53","新北市林口區文化二路一段120巷5號","121.367885","25.0699383333333","6501700","林口區"
"244010","656-BX","2017/12/04 09:09:45","新北市林口區仁愛路一段326號","121.391266666667","25.0764816666667","6501700","林口區"
"244024","837-TS","2017/12/04 09:09:38","新北市林口區中山路365號","121.38132","25.0816866666667","6501700","林口區"
"231007","188-VK","2017/12/04 09:09:40","新北市新店區新潭路三段215巷25號","121.50813","24.9041","6500600","新店區"
"231008","192-VK","2017/12/04 09:09:46","新北市新店區廣興路60巷6-2號","121.539675","24.914205","6500600","新店區"
"231054","AAD-862","2017/12/04 09:09:54","新北市新店區安華路28-1號","121.51977","24.9611766666667","6500600","新店區"
"226005","5620-A6","2017/12/04 09:09:57","新北市平溪區靜安路三段180號","121.775323333333","25.03904","6502400","平溪區"
"226001","7418-A5","2017/12/04 09:09:56","新北市平溪區東勢里火燒寮6號","121.747218333333","25.0015316666667","6502400","平溪區"
"223002","198-BX","2017/12/04 09:09:36","新北市石碇區員潭子坑4號","121.639203333333","24.98455","6501900","石碇區"
"223001","205-TH","2017/12/04 09:09:55","新北市石碇區北宜路五段坑內巷4號","121.635223333333","24.9527533333333","6501900","石碇區"
"223008","406-TH","2017/12/04 08:43:30","新北市石碇區碇南路二段松柏崎巷47號","121.67806","25.025635","6501900","石碇區"
"223001","437-BY","2017/12/04 09:09:44","新北市石碇區北宜路五段坑內巷4號","121.635363333333","24.952755","6501900","石碇區"
"223004","660-BX","2017/12/04 09:09:48","新北市石碇區崩山58號","121.687573333333","24.9662516666667","6501900","石碇區"
"223007","661-BX","2017/12/04 09:09:45","新北市石碇區光明路15-1號","121.68148","25.03333","6501900","石碇區"
"223005","677-TV","2017/12/04 09:09:39","新北市石碇區崩山58號","121.687183333333","24.9654866666667","6501900","石碇區"
"227005","282-VK","2017/12/04 08:59:45","新北市雙溪區泰平里溪尾寮3號","121.818448333333","24.9702433333333","6502500","雙溪區"
"252006","073-UM","2017/12/04 09:09:41","新北市三芝區古庄里山豬堀13-2號","121.492841666667","25.25861","6502100","三芝區"
"252004","249-BX","2017/12/04 09:09:47","新北市三芝區興華里車埕70-1號","121.493278333333","25.1935283333333","6502100","三芝區"
"237001","159-UY","2017/12/04 09:09:38","新北市三峽區學勤路150號","121.376618333333","24.94713","6500900","三峽區"
"236007","165-UM","2017/12/04 09:09:43","新北市土城區金安街48巷39號","121.42066","24.9654683333333","6501300","土城區"
"236001","339-SR","2017/12/04 09:09:44","新北市土城區中央路二段219-6號","121.44087","24.9739333333333","6501300","土城區"
"236005","498-BY","2017/12/04 09:09:46","新北市土城區中央路三段76巷48號","121.43564","24.9691766666667","6501300","土城區"
"242030","AAC-296","2017/12/04 09:09:55","新北市新莊區忠孝街49-1號","121.444003333333","25.0370783333333","6500500","新莊區"
"242028","986-R7","2017/12/04 09:09:39","新北市新莊區中原路303號","121.447371666667","25.0543683333333","6500500","新莊區"
"242049","751-BX","2017/12/04 09:09:40","新北市新莊區民安西路189巷38號","121.427436666667","25.0152733333333","6500500","新莊區"
"242024","615-BX","2017/12/04 09:09:40","新北市新莊區五工二路50巷23號","121.461675","25.066045","6500500","新莊區"
"242022","613-BX","2017/12/04 09:09:41","新北市新莊區化成路934號","121.464781666667","25.06235","6500500","新莊區"
"242026","612-BX","2017/12/04 09:09:48","新北市新莊區幸福路620號","121.451335","25.04935","6500500","新莊區"
"242038","566-BX","2017/12/04 09:09:50","新北市新莊區成功街78-1號","121.424133333333","25.01888","6500500","新莊區"
"242043","497-BY","2017/12/04 09:09:52","新北市新莊區中正路929巷7弄28號","121.411723333333","25.0196983333333","6500500","新莊區"
"242052","442-UM","2017/12/04 09:09:37","新北市新莊區西盛街392號","121.427635","25.0128116666667","6500500","新莊區"
"242047","441-UM","2017/12/04 09:09:49","新北市新莊區後港二路27號","121.422383333333","25.0233133333333","6500500","新莊區"
"242033","415-TV","2017/12/04 09:09:42","新北市新莊區仁愛街56號","121.444328333333","25.0370683333333","6500500","新莊區"
"242003","413-TV","2017/12/04 09:09:41","新北市新莊區化成路314巷13號","121.466558333333","25.04831","6500500","新莊區"
"242040","400-BY","2017/12/04 09:09:53","新北市新莊區天祥街54巷1弄1號","121.416655","25.0292516666667","6500500","新莊區"
"242059","362-BY","2017/12/04 09:09:40","新北市新莊區瓊林路瓊英巷4弄2號","121.443586666667","25.0274283333333","6500500","新莊區"
"242057","353-BY","2017/12/04 09:09:54","新北市新莊區八德街89號","121.424485","25.02154","6500500","新莊區"
"242035","133-UY","2017/12/04 09:09:49","新北市新莊區民安路207巷32弄1號","121.42814","25.02446","6500500","新莊區"
"242020","135-UY","2017/12/04 09:09:45","新北市新莊區新泰路283號","121.445628333333","25.040545","6500500","新莊區"
"242045","172-VK","2017/12/04 09:09:48","新北市新莊區中正路新生巷55號","121.417415","25.022815","6500500","新莊區"
"242001","173-VK","2017/12/04 09:09:49","新北市新莊區中正路56巷1-3號","121.461153333333","25.040895","6500500","新莊區"
"242014","175-VK","2017/12/04 09:09:41","新北市新莊區永樂街250號","121.445515","25.04449","6500500","新莊區"
"242012","346-TH","2017/12/04 09:09:48","新北市新莊區中和街191巷1-1號","121.44803","25.05122","6500500","新莊區"
"242006","347-TH","2017/12/04 09:09:46","新北市新莊區思源路287巷1弄25號","121.459498333333","25.0472816666667","6500500","新莊區"
"242018","348-TH","2017/12/04 09:09:55","新北市新莊區長青街28號","121.456688333333","25.0423283333333","6500500","新莊區"
"242055","349-TH","2017/12/04 09:09:50","新北市新莊區新莊路649巷15弄1號","121.44504","25.0314683333333","6500500","新莊區"
"242016","350-TH","2017/12/04 09:09:40","新北市新莊區三和路12-21號","121.441976666667","25.0386183333333","6500500","新莊區"
"242010","351-TH","2017/12/04 09:09:41","新北市新莊區中信街35號","121.45037","25.0506683333333","6500500","新莊區"
"239006","661-UM","2017/12/04 09:09:51","桃園市龜山區明興街275-1號","121.33284","24.981385","6500800","鶯歌區"
"220057","282-UM","2017/12/04 09:09:49","新北市板橋區大觀路二段266號","121.449408333333","24.996745","6500100","板橋區"
"242008","280-VK","2017/12/04 09:09:46","新北市新莊區幸福路564巷2弄2號","121.454455","25.0495866666667","6500500","新莊區"
