"lineid","car","time","location","longitude","latitude","cityid","cityname"
"244018","403-UM","2017/12/04 10:49:06","新北市林口區粉寮69號","121.405013333333","25.0908283333333","6501700","林口區"
"231007","188-VK","2017/12/04 11:09:40","新北市新店區新潭路二段30號","121.525551666667","24.925815","6500600","新店區"
"231008","192-VK","2017/12/04 10:59:46","新北市新店區成功路58-1號","121.538893333333","24.9002416666667","6500600","新店區"
"231054","AAD-862","2017/12/04 09:11:50","新北市新店區安華路28-1號","121.519778333333","24.9611466666667","6500600","新店區"
"223002","198-BX","2017/12/04 11:09:45","新北市石碇區員潭子坑9-3號","121.639036666667","24.9905716666667","6501900","石碇區"
"227005","282-VK","2017/12/04 11:09:51","新北市雙溪區泰平里泰平1-5號","121.847625","24.994405","6502500","雙溪區"
