"lineid","car","time","location","longitude","latitude","cityid","cityname"
"244018","403-UM","2017/12/04 10:49:06","新北市林口區粉寮69號","121.405013333333","25.0908283333333","6501700","林口區"
"231007","188-VK","2017/12/04 11:15:40","新北市新店區新潭路一段202號","121.528985","24.9299833333333","6500600","新店區"
"231008","192-VK","2017/12/04 11:15:46","新北市新店區成功路43號","121.543183333333","24.9015983333333","6500600","新店區"
"231054","AAD-862","2017/12/04 09:11:50","新北市新店區安華路28-1號","121.519778333333","24.9611466666667","6500600","新店區"
"223002","198-BX","2017/12/04 11:15:45","新北市石碇區員潭子坑12號","121.640915","24.9926616666667","6501900","石碇區"
"227005","282-VK","2017/12/04 11:15:45","新北市雙溪區魚行里丁子蘭坑29號","121.852073333333","25.0085316666667","6502500","雙溪區"
