"lineid","car","time","location","longitude","latitude","cityid","cityname"
"234012","149-BY","2017/12/04 16:18:55","新北市永和區福和路1號","121.526481666667","25.0099833333333","6500400","永和區"
"234086","338-UY","2017/12/04 15:57:25","新北市永和區福和路1號","121.526503333333","25.009765","6500400","永和區"
"249005","172-UM","2017/12/04 17:29:32","新北市八里區荖阡坑路69-20號","121.406598333333","25.1263416666667","6502300","八里區"
"249001","173-UM","2017/12/04 17:29:42","新北市八里區大崁腳41號","121.425536666667","25.15928","6502300","八里區"
"249004","303-UY","2017/12/04 17:29:52","新北市八里區賢一街217號","121.4158","25.155935","6502300","八里區"
"249002","305-UY","2017/12/04 17:29:35","新北市八里區龍米路二段67號","121.447871666667","25.1408433333333","6502300","八里區"
"249003","759-BX","2017/12/04 17:29:33","新北市八里區中山路二段315號","121.400653333333","25.14774","6502300","八里區"
"244007","080-UY","2017/12/04 17:29:42","新北市林口區湖子25號","121.385775","25.09367","6501700","林口區"
"244018","403-UM","2017/12/04 17:29:37","新北市林口區文化二路一段368號","121.373573333333","25.07587","6501700","林口區"
"244009","410-SL","2017/12/04 17:29:50","新北市林口區中北一街49巷2號","121.385836666667","25.08821","6501700","林口區"
"244023","483-VK","2017/12/04 17:29:44","新北市林口區隆林街2號","121.389606666667","25.0753416666667","6501700","林口區"
"244017","485-VK","2017/12/04 17:29:47","新北市林口區粉寮路37-1號","121.401078333333","25.0848866666667","6501700","林口區"
"244025","837-TS","2017/12/04 17:29:48","新北市林口區民族路86-99號","121.365845","25.075425","6501700","林口區"
"244021","838-TS","2017/12/04 17:29:42","新北市林口區粉寮路二段46-1號","121.403585","25.0870316666667","6501700","林口區"
"243016","680-BX","2017/12/04 15:48:16","新北市泰山區黎明路25號","121.422108333333","25.0606383333333","6501600","泰山區"
"231046","278-BY","2017/12/04 17:29:43","新北市新店區直潭路92號","121.530898333333","24.937605","6500600","新店區"
"241009","060-VK","2017/12/04 17:29:46","新北市三重區力行路二段162巷53號","121.481158333333","25.0763966666667","6500200","三重區"
"241015","062-VK","2017/12/04 17:29:45","新北市三重區長元街65巷22弄20號","121.503598333333","25.0659616666667","6500200","三重區"
"241017","063-VK","2017/12/04 17:29:43","新北市三重區大同北路34巷52號","121.493613333333","25.0619016666667","6500200","三重區"
"241024","065-VK","2017/12/04 17:29:53","新北市三重區大勇街82巷15弄10號","121.480061666667","25.071755","6500200","三重區"
"241026","066-VK","2017/12/04 17:29:44","新北市三重區福裕街9號","121.499728333333","25.0616416666667","6500200","三重區"
"241003","091-VK","2017/12/04 17:29:48","新北市三重區五華街141巷58號","121.493578333333","25.086675","6500200","三重區"
"241004","156-TC","2017/12/04 17:29:32","新北市三重區集賢路87-1號","121.493636666667","25.0867816666667","6500200","三重區"
"241005","262-UM","2017/12/04 17:29:33","新北市三重區永安北路二段5巷41號","121.482903333333","25.0812783333333","6500200","三重區"
"241011","265-UM","2017/12/04 17:29:46","新北市三重區河邊北街108號","121.503706666667","25.0708016666667","6500200","三重區"
"241016","266-UM","2017/12/04 17:29:37","新北市三重區信義西街148號","121.495371666667","25.0639116666667","6500200","三重區"
"241022","267-UM","2017/12/04 17:29:51","新北市三重區重陽路二段65號","121.48745","25.0637","6500200","三重區"
"241018","268-UM","2017/12/04 17:29:33","新北市三重區中正北路23號","121.492456666667","25.0619983333333","6500200","三重區"
"241032","269-UM","2017/12/04 17:29:42","新北市三重區名源街44號","121.48239","25.0594983333333","6500200","三重區"
"241013","270-UM","2017/12/04 17:29:35","新北市三重區仁愛街80號","121.495433333333","25.0735216666667","6500200","三重區"
"241025","271-UM","2017/12/04 17:29:44","新北市三重區三民街328號","121.476525","25.0696416666667","6500200","三重區"
"241007","398-BY","2017/12/04 17:29:36","新北市三重區溪尾街142號","121.488986666667","25.0796566666667","6500200","三重區"
"241030","KEA-2210","2017/12/04 17:29:39","新北市三重區成功路73巷29號","121.490021666667","25.0527066666667","6500200","三重區"
"241019","478-VK","2017/12/04 17:29:51","新北市三重區自強路二段50巷22號","121.488393333333","25.0691133333333","6500200","三重區"
"241014","543-UM","2017/12/04 17:29:34","新北市三重區安和路17號","121.501346666667","25.06844","6500200","三重區"
"241023","545-UM","2017/12/04 17:29:40","新北市三重區忠孝路三段84巷26號","121.481343333333","25.064275","6500200","三重區"
"241024","743-BX","2017/12/04 17:29:38","新北市三重區國道路一段58巷20號","121.48109","25.0720066666667","6500200","三重區"
"241012","941-UM","2017/12/04 17:29:44","新北市三重區仁興街33巷2號","121.499191666667","25.0756016666667","6500200","三重區"
"241033","AAC-255","2017/12/04 17:29:39","新北市三重區興德路145-2號","121.469068333333","25.052715","6500200","三重區"
"235061","378-QA","2017/12/04 17:16:14","新北市中和區員山路36巷16-2號","121.48521","24.9916866666667","6500300","中和區"
"247022","893-R6","2017/12/04 17:29:33","新北市蘆洲區三民路456號","121.467058333333","25.0904","6501400","蘆洲區"
"247012","546-UM","2017/12/04 17:29:47","新北市蘆洲區民族路33巷2號","121.477968333333","25.08516","6501400","蘆洲區"
"247020","500-BY","2017/12/04 17:29:35","新北市蘆洲區仁愛街116號","121.469815","25.0949066666667","6501400","蘆洲區"
"247008","341-TH","2017/12/04 17:29:43","新北市蘆洲區民生街109號","121.473328333333","25.0786816666667","6501400","蘆洲區"
"247010","339-TH","2017/12/04 17:29:43","新北市蘆洲區信義路132-1號","121.479593333333","25.0828683333333","6501400","蘆洲區"
"247002","337-TH","2017/12/04 17:29:39","新北市蘆洲區永樂街38巷67弄3號","121.458153333333","25.0906","6501400","蘆洲區"
"247004","336-TH","2017/12/04 17:29:43","新北市蘆洲區長安街233巷36號","121.458091666667","25.08227","6501400","蘆洲區"
"247024","335-TH","2017/12/04 17:29:44","新北市蘆洲區長興路353號","121.460998333333","25.0913516666667","6501400","蘆洲區"
"247016","057-VK","2017/12/04 17:29:46","新北市蘆洲區中正路109巷8號","121.46924","25.0842416666667","6501400","蘆洲區"
"247006","056-VK","2017/12/04 17:29:32","新北市蘆洲區長安街68巷29號","121.463806666667","25.0809533333333","6501400","蘆洲區"
"247014","007-UY","2017/12/04 17:29:43","新北市蘆洲區三民路101號","121.472368333333","25.0853666666667","6501400","蘆洲區"
"247018","001-UY","2017/12/04 17:29:51","新北市蘆洲區民義街22巷2號","121.471465","25.088415","6501400","蘆洲區"
"223002","198-BX","2017/12/04 11:53:09","新北市石碇區小粗坑(潭邊里)9-2號","121.678773333333","24.98578","6501900","石碇區"
"228003","097-TW","2017/12/04 17:29:50","新北市貢寮區仁理村研海街62-2號","121.925656666667","25.045125","6502600","貢寮區"
"228002","585-TW","2017/12/04 17:29:52","新北市貢寮區福隆里興隆街21-2號","121.934073333333","25.0185383333333","6502600","貢寮區"
"228001","670-TC","2017/12/04 17:29:44","新北市貢寮區仁理村仁愛路56號","121.925445","25.0533516666667","6502600","貢寮區"
"224010","AGQ-8101","2017/12/04 17:28:42","新北市瑞芳區逢甲路143號","121.80722","25.1098566666667","6501200","瑞芳區"
"224006","676-BX","2017/12/04 17:29:51","新北市瑞芳區傑魚坑路177號","121.789131666667","25.10889","6501200","瑞芳區"
"224009","285-BY","2017/12/04 17:29:38","新北市瑞芳區汽車路29號","121.84455","25.1097916666667","6501200","瑞芳區"
"224008","275-VK","2017/12/04 17:29:46","新北市瑞芳區九芎橋路17號","121.832831666667","25.0927483333333","6501200","瑞芳區"
"224005","271-BY","2017/12/04 17:29:47","新北市瑞芳區海濱路8-6號","121.831681666667","25.126085","6501200","瑞芳區"
"227001","642-TC","2017/12/04 17:29:45","新北市雙溪區平林里外平林74-1號","121.844335","25.03335","6502500","雙溪區"
"251009","008-UM","2017/12/04 17:29:46","新北市淡水區新生街90巷6號","121.439693333333","25.174","6501000","淡水區"
"251004","009-UM","2017/12/04 17:29:37","新北市淡水區中正東路二段88巷15號","121.45904","25.150495","6501000","淡水區"
"251005","010-UM","2017/12/04 17:29:39","新北市淡水區鄧公路31巷7號","121.451593333333","25.1707333333333","6501000","淡水區"
"251007","179-VK","2017/12/04 17:29:37","新北市淡水區民生路56號","121.462035","25.1379116666667","6501000","淡水區"
"251008","181-VK","2017/12/04 17:29:41","新北市淡水區大同路124巷19號","121.463648333333","25.139845","6501000","淡水區"
"251013","182-VK","2017/12/04 17:29:38","新北市淡水區大竹圍5號","121.46658","25.1951933333333","6501000","淡水區"
"251010","413-VK","2017/12/04 17:29:41","新北市淡水區中正路二段206號","121.42624","25.189045","6501000","淡水區"
"251012","441-VK","2017/12/04 17:29:42","新北市淡水區北新路124號","121.448008333333","25.1783466666667","6501000","淡水區"
"251015","442-VK","2017/12/04 17:29:37","新北市淡水區三空泉17-6號","121.473955","25.1658466666667","6501000","淡水區"
"251001","559-UM","2017/12/04 17:29:38","新北市淡水區民權路92巷35-1號","121.462101666667","25.12663","6501000","淡水區"
"251006","561-UM","2017/12/04 17:29:44","新北市淡水區大仁街29號","121.442583333333","25.1753833333333","6501000","淡水區"
"251011","650-BX","2017/12/04 17:29:44","新北市淡水區坪頂路712號","121.482493333333","25.15851","6501000","淡水區"
"251002","672-BX","2017/12/04 17:29:49","新北市淡水區中正路32巷2號","121.430753333333","25.1751816666667","6501000","淡水區"
"251003","766-UM","2017/12/04 17:29:46","新北市淡水區中山路157號","121.440746666667","25.17285","6501000","淡水區"
"207003","550-UM","2017/12/04 17:29:47","新北市萬里區龜吼里翡翠路17號","121.683403333333","25.187215","6502800","萬里區"
"207004","225-TW","2017/12/04 17:29:36","新北市萬里區萬里里景美路11-2號","121.685288333333","25.1731783333333","6502800","萬里區"
"252002","178-VK","2017/12/04 17:29:39","新北市三芝區忠孝街1-14號","121.505513333333","25.25393","6502100","三芝區"
"252001","292-VK","2017/12/04 17:29:35","新北市三芝區長安街119號","121.498038333333","25.2595983333333","6502100","三芝區"
"237011","572-TV","2017/12/04 11:39:56","新北市鶯歌區三鶯路5號","121.356838333333","24.9408766666667","6500900","三峽區"
"237015","649-BX","2017/12/04 17:29:38","新北市三峽區中山路459巷90-1號","121.355008333333","24.9361366666667","6500900","三峽區"
"242031","AAC-296","2017/12/04 17:29:42","新北市新莊區新泰路401巷29號","121.442541666667","25.0439483333333","6500500","新莊區"
"242029","986-R7","2017/12/04 17:29:50","新北市新莊區復興路二段189號","121.459161666667","25.0444716666667","6500500","新莊區"
"242050","751-BX","2017/12/04 17:29:53","新北市新莊區新樹路447號","121.432861666667","25.0135233333333","6500500","新莊區"
"242025","615-BX","2017/12/04 17:29:42","新北市新莊區中港路266號","121.453285","25.0439166666667","6500500","新莊區"
"242023","613-BX","2017/12/04 17:29:51","新北市新莊區公園路37號","121.453108333333","25.0401533333333","6500500","新莊區"
"242027","612-BX","2017/12/04 17:29:43","新北市新莊區思源路315號","121.459851666667","25.0491833333333","6500500","新莊區"
"242039","566-BX","2017/12/04 17:29:50","新北市新莊區民安東路9號","121.427786666667","25.0210083333333","6500500","新莊區"
"242044","497-BY","2017/12/04 17:29:51","新北市新莊區富國路69號","121.419856666667","25.0259933333333","6500500","新莊區"
"242053","442-UM","2017/12/04 17:29:43","新北市新莊區瓊林南路305巷3號","121.434845","25.0054216666667","6500500","新莊區"
"242048","441-UM","2017/12/04 17:29:41","新北市新莊區四維路212巷2號","121.421225","25.0201383333333","6500500","新莊區"
"242034","415-TV","2017/12/04 17:29:41","新北市新莊區新莊路368號","121.449353333333","25.0334433333333","6500500","新莊區"
"242004","413-TV","2017/12/04 17:29:52","新北市新莊區中港路288巷22號","121.453743333333","25.04463","6500500","新莊區"
"242042","400-BY","2017/12/04 17:29:38","新北市新莊區新樹路52-33號","121.434975","25.0266","6500500","新莊區"
"242060","362-BY","2017/12/04 17:29:39","新北市新莊區瓊林路182-8號","121.439961666667","25.0216116666667","6500500","新莊區"
"242058","353-BY","2017/12/04 17:29:49","新北市新莊區中正路615號","121.432381666667","25.0320083333333","6500500","新莊區"
"242036","133-UY","2017/12/04 17:29:48","新北市新莊區建國一路165號","121.435038333333","25.0246866666667","6500500","新莊區"
"242021","135-UY","2017/12/04 17:29:46","新北市新莊區中華路一段2號","121.452268333333","25.036195","6500500","新莊區"
"242046","172-VK","2017/12/04 17:29:31","新北市新莊區新樹路65-5號","121.439453333333","25.0307966666667","6500500","新莊區"
"242002","173-VK","2017/12/04 17:29:47","新北市新莊區新莊路213號","121.455288333333","25.0353766666667","6500500","新莊區"
"242015","175-VK","2017/12/04 17:29:48","新北市新莊區新泰路178號","121.447315","25.03794","6500500","新莊區"
"242013","346-TH","2017/12/04 17:29:43","新北市新莊區中和街59巷12號","121.446813333333","25.0468916666667","6500500","新莊區"
"242007","347-TH","2017/12/04 17:29:48","新北市新莊區自強街21號","121.454731666667","25.0461833333333","6500500","新莊區"
"242019","348-TH","2017/12/04 17:29:31","新北市新莊區中正路147-15號","121.457341666667","25.0370983333333","6500500","新莊區"
"242056","349-TH","2017/12/04 17:29:33","新北市新莊區新莊路453號","121.449648333333","25.03325","6500500","新莊區"
"242017","350-TH","2017/12/04 17:29:36","新北市新莊區建豐街26號","121.451616666667","25.0439433333333","6500500","新莊區"
"242011","351-TH","2017/12/04 17:29:43","新北市新莊區中港路408號","121.452223333333","25.0501683333333","6500500","新莊區"
"238015","755-BX","2017/12/04 17:29:39","新北市樹林區大安路265號","121.419081666667","24.9937583333333","6500700","樹林區"
"238023","601-UM","2017/12/04 17:29:32","新北市樹林區中正路433-2號","121.414966666667","25.008475","6500700","樹林區"
"238019","599-UM","2017/12/04 17:29:39","新北市樹林區太平路56巷1號","121.418986666667","24.9818516666667","6500700","樹林區"
"238018","571-TV","2017/12/04 17:29:40","新北市樹林區鎮前街283號","121.418443333333","24.98476","6500700","樹林區"
"238024","5061-A6","2017/12/04 17:29:48","新北市樹林區鎮前街138號","121.424681666667","24.9905233333333","6500700","樹林區"
"238021","KEA-2217","2017/12/04 17:29:49","新北市樹林區民權街37巷16號","121.39844","24.9602416666667","6500700","樹林區"
"238022","KEA-2213","2017/12/04 17:29:53","新北市樹林區信義街26號","121.423236666667","24.9822133333333","6500700","樹林區"
"238026","308-TH","2017/12/04 13:30:28","新北市樹林區育德街76巷1號","121.38876","24.9683033333333","6500700","樹林區"
"238025","303-VK","2017/12/04 17:29:34","新北市樹林區保安街二段37-1號","121.41635","25.0000333333333","6500700","樹林區"
"238017","283-BY","2017/12/04 17:29:51","新北市樹林區中正路254號","121.41751","25.0072983333333","6500700","樹林區"
"238014","282-BY","2017/12/04 17:29:42","新北市樹林區大安路208號","121.420148333333","24.99566","6500700","樹林區"
"238020","268-VK","2017/12/04 17:29:39","新北市樹林區俊英街48-2號","121.428496666667","25.0032966666667","6500700","樹林區"
"238026","172-UY","2017/12/04 17:29:34","新北市樹林區中山路三段27巷3弄4號","121.401753333333","24.97418","6500700","樹林區"
"238016","169-UY","2017/12/04 17:29:45","新北市樹林區中山路一段175號","121.421696666667","24.98837","6500700","樹林區"
"239007","AAC-297","2017/12/04 17:29:45","新北市鶯歌區仁愛路53號","121.35398","24.95614","6500800","鶯歌區"
"239006","891-R6","2017/12/04 17:29:36","新北市鶯歌區鶯桃路472巷24號","121.333363333333","24.9657666666667","6500800","鶯歌區"
"239008","527-UM","2017/12/04 17:29:42","新北市鶯歌區大湖路614號","121.334853333333","24.97465","6500800","鶯歌區"
"239005","526-UM","2017/12/04 17:29:36","新北市鶯歌區福隆一街20號","121.325516666667","24.97163","6500800","鶯歌區"
"239001","417-VK","2017/12/04 17:29:45","新北市鶯歌區中正三路99號","121.338263333333","24.9409816666667","6500800","鶯歌區"
"239003","360-BY","2017/12/04 17:29:33","新北市鶯歌區德昌街201號","121.33004","24.960275","6500800","鶯歌區"
"239002","359-BY","2017/12/04 17:29:39","新北市鶯歌區國慶街60號","121.349756666667","24.95506","6500800","鶯歌區"
"239004","193-VK","2017/12/04 17:29:33","新北市鶯歌區三鶯路11號","121.356448333333","24.9412366666667","6500800","鶯歌區"
"221008","489-VK","2017/12/04 17:29:50","新北市汐止區康寧街901號","121.651366666667","25.0750683333333","6501100","汐止區"
"221021","299-VK","2017/12/04 14:58:48","新北市汐止區汐萬路一段256巷1號","121.652035","25.07479","6501100","汐止區"
"221033","647-BX","2017/12/04 17:29:31","新北市汐止區汐萬路一段300號","121.65054","25.0745266666667","6501100","汐止區"
"221018","753-BX","2017/12/04 17:29:46","新北市汐止區汐萬路一段256巷1號","121.651995","25.0748366666667","6501100","汐止區"
"242009","280-VK","2017/12/04 17:29:45","新北市新莊區中原路301號","121.447443333333","25.054295","6500500","新莊區"
