"lineid","car","time","location","longitude","latitude","cityid","cityname"
"234012","149-BY","2017/12/04 16:18:55","新北市永和區福和路1號","121.526481666667","25.0099833333333","6500400","永和區"
"234086","338-UY","2017/12/04 15:57:25","新北市永和區福和路1號","121.526503333333","25.009765","6500400","永和區"
"234026","9371-KE","2017/12/04 17:39:31","新北市永和區中正路659號","121.5147","25.0102583333333","6500400","永和區"
"249005","172-UM","2017/12/04 17:39:32","新北市八里區荖阡坑路34號","121.402768333333","25.1297283333333","6502300","八里區"
"249001","173-UM","2017/12/04 17:39:42","新北市八里區龍米路二段148號","121.437101666667","25.1557233333333","6502300","八里區"
"249004","303-UY","2017/12/04 17:39:32","新北市八里區賢一街101號","121.418575","25.1573","6502300","八里區"
"249002","305-UY","2017/12/04 17:39:35","新北市八里區頂寮二街121巷20-2號","121.44638","25.1276733333333","6502300","八里區"
"249003","759-BX","2017/12/04 17:39:37","新北市八里區中山路二段227號","121.403421666667","25.1492533333333","6502300","八里區"
"248006","077-UY","2017/12/04 17:39:35","新北市五股區中興路二段83巷26-6號","121.46015","25.0751216666667","6501500","五股區"
"248002","678-BX","2017/12/04 17:39:34","新北市五股區中興路二段37巷28號","121.46013","25.074925","6501500","五股區"
"232011","375-UM","2017/12/04 17:39:37","新北市坪林區魚堀55-4號","121.708218333333","24.92878","6502000","坪林區"
"244013","069-UM","2017/12/04 17:39:46","新北市林口區中山路138號","121.39175","25.0786383333333","6501700","林口區"
"244007","080-UY","2017/12/04 17:39:43","新北市林口區林口路270號","121.38634","25.0846083333333","6501700","林口區"
"244018","403-UM","2017/12/04 17:39:34","新北市林口區公園路122號","121.370903333333","25.071295","6501700","林口區"
"244009","410-SL","2017/12/04 17:39:37","新北市林口區中北三街296號","121.382365","25.0828516666667","6501700","林口區"
"244023","483-VK","2017/12/04 17:39:44","新北市林口區東明一街117號","121.390451666667","25.0707766666667","6501700","林口區"
"244017","485-VK","2017/12/04 17:39:47","新北市林口區文化一路二段200號","121.382993333333","25.080815","6501700","林口區"
"244025","837-TS","2017/12/04 17:39:28","新北市林口區文化二路一段289-5號","121.367478333333","25.0718183333333","6501700","林口區"
"244021","838-TS","2017/12/04 17:39:42","新北市林口區東林街14號","121.396216666667","25.0789466666667","6501700","林口區"
"243016","680-BX","2017/12/04 15:48:16","新北市泰山區黎明路25號","121.422108333333","25.0606383333333","6501600","泰山區"
"222002","659-BX","2017/12/04 17:39:32","新北市深坑區深南路31號","121.61989","25.0097433333333","6501800","深坑區"
"231046","278-BY","2017/12/04 17:39:43","新北市新店區直潭路92號","121.530916666667","24.9376216666667","6500600","新店區"
"241017","063-VK","2017/12/04 17:39:43","新北市三重區大同北路3號","121.495455","25.062145","6500200","三重區"
"241005","262-UM","2017/12/04 17:39:33","新北市三重區仁愛街519號","121.487258333333","25.0822316666667","6500200","三重區"
"241011","265-UM","2017/12/04 17:39:48","新北市三重區介壽路39巷252號","121.503668333333","25.071235","6500200","三重區"
"241016","266-UM","2017/12/04 17:39:48","新北市三重區正義北路26號","121.497483333333","25.06318","6500200","三重區"
"241013","270-UM","2017/12/04 17:39:35","新北市三重區仁愛街125巷28號","121.497658333333","25.0760333333333","6500200","三重區"
"241007","398-BY","2017/12/04 17:39:36","新北市三重區後竹圍街205巷50號","121.484481666667","25.0732816666667","6500200","三重區"
"241019","478-VK","2017/12/04 17:39:40","新北市三重區六張街251號","121.4875","25.0683683333333","6500200","三重區"
"241014","543-UM","2017/12/04 17:39:34","新北市三重區河邊北街70-1號","121.504441666667","25.0683183333333","6500200","三重區"
"241023","545-UM","2017/12/04 17:39:40","新北市三重區中華路121號","121.483618333333","25.0637066666667","6500200","三重區"
"241024","743-BX","2017/12/04 17:37:18","新北市三重區力行路二段4號","121.481635","25.07192","6500200","三重區"
"241012","941-UM","2017/12/04 17:39:43","新北市三重區龍門路274巷1號","121.50163","25.074275","6500200","三重區"
"241033","AAC-255","2017/12/04 17:39:39","新北市三重區光復路一段49號","121.472118333333","25.0487966666667","6500200","三重區"
"235061","378-QA","2017/12/04 17:16:14","新北市中和區員山路36巷16-2號","121.48521","24.9916866666667","6500300","中和區"
"235064","911-UM","2017/12/04 15:48:14","新北市中和區員山路36巷16-3號","121.484968333333","24.9913083333333","6500300","中和區"
"247022","893-R6","2017/12/04 17:39:33","新北市蘆洲區民族路548巷10號","121.467513333333","25.0895233333333","6501400","蘆洲區"
"247012","546-UM","2017/12/04 17:39:47","新北市蘆洲區民權路34號","121.476293333333","25.086275","6501400","蘆洲區"
"247020","500-BY","2017/12/04 17:39:35","新北市蘆洲區民族路343-1號","121.472636666667","25.0919766666667","6501400","蘆洲區"
"247008","341-TH","2017/12/04 17:39:43","新北市蘆洲區和平路15號","121.472543333333","25.0792583333333","6501400","蘆洲區"
"247010","339-TH","2017/12/04 17:39:43","新北市蘆洲區集賢路412號","121.479921666667","25.0813583333333","6501400","蘆洲區"
"247002","337-TH","2017/12/04 17:39:40","新北市蘆洲區環堤大道212號","121.457505","25.0919733333333","6501400","蘆洲區"
"247004","336-TH","2017/12/04 17:39:43","新北市蘆洲區中原路12巷27號","121.460398333333","25.083905","6501400","蘆洲區"
"247024","335-TH","2017/12/04 17:39:44","新北市蘆洲區長樂路125-1號","121.46213","25.0880333333333","6501400","蘆洲區"
"247016","057-VK","2017/12/04 17:39:46","新北市蘆洲區光華路48號","121.468661666667","25.08302","6501400","蘆洲區"
"247006","056-VK","2017/12/04 17:39:32","新北市蘆洲區長安街68巷4號","121.462918333333","25.08035","6501400","蘆洲區"
"247014","007-UY","2017/12/04 17:39:43","新北市蘆洲區中山二路69號","121.4735","25.08202","6501400","蘆洲區"
"247018","001-UY","2017/12/04 17:39:46","新北市蘆洲區民權路108號","121.473798333333","25.0882033333333","6501400","蘆洲區"
"223002","198-BX","2017/12/04 11:53:09","新北市石碇區小粗坑(潭邊里)9-2號","121.678773333333","24.98578","6501900","石碇區"
"228003","097-TW","2017/12/04 17:39:30","新北市貢寮區仁理村仁和路37號","121.923985","25.0538983333333","6502600","貢寮區"
"228002","585-TW","2017/12/04 17:39:32","新北市貢寮區福隆里龜壽谷街27號","121.952625","25.0119383333333","6502600","貢寮區"
"228001","670-TC","2017/12/04 17:39:44","新北市貢寮區仁理村仁愛路95-1號","121.927656666667","25.0554216666667","6502600","貢寮區"
"224006","676-BX","2017/12/04 17:39:43","新北市瑞芳區中山路365號","121.796383333333","25.1101116666667","6501200","瑞芳區"
"224002","639-TC","2017/12/04 17:39:46","新北市瑞芳區明燈路二段46號","121.809478333333","25.10813","6501200","瑞芳區"
"224009","285-BY","2017/12/04 17:39:38","新北市瑞芳區烏勢巷145號","121.847868333333","25.1091383333333","6501200","瑞芳區"
"224008","275-VK","2017/12/04 17:39:46","新北市瑞芳區瑞柑新村33號","121.829416666667","25.106905","6501200","瑞芳區"
"224007","273-VK","2017/12/04 17:39:31","新北市平溪區新寮里五分寮10-2號","121.800078333333","25.0741","6501200","瑞芳區"
"224005","271-BY","2017/12/04 17:39:47","新北市瑞芳區海濱路38-1號","121.831191666667","25.123475","6501200","瑞芳區"
"251009","008-UM","2017/12/04 17:39:46","新北市淡水區中正路38-1號","121.443715","25.1692666666667","6501000","淡水區"
"251004","009-UM","2017/12/04 17:39:37","新北市淡水區中正東路二段88巷37-28號","121.459506666667","25.1432266666667","6501000","淡水區"
"251005","010-UM","2017/12/04 17:39:39","新北市淡水區鄧公路35巷1號","121.451798333333","25.1713233333333","6501000","淡水區"
"251007","179-VK","2017/12/04 17:39:37","新北市淡水區民生路124巷30號","121.464193333333","25.1375916666667","6501000","淡水區"
"251008","181-VK","2017/12/04 17:39:45","新北市淡水區八勢路一段98-3號","121.467585","25.1555983333333","6501000","淡水區"
"251013","182-VK","2017/12/04 17:39:39","新北市淡水區演戲埔腳6號","121.47172","25.1938433333333","6501000","淡水區"
"251010","413-VK","2017/12/04 17:39:41","新北市淡水區淡海路280巷97號","121.419965","25.18884","6501000","淡水區"
"251012","441-VK","2017/12/04 17:39:42","新北市淡水區北新路200巷8號","121.451748333333","25.1796433333333","6501000","淡水區"
"251015","442-VK","2017/12/04 17:39:37","新北市淡水區糞箕湖11號","121.48622","25.1704466666667","6501000","淡水區"
"251001","559-UM","2017/12/04 17:39:38","新北市淡水區民權路92巷35-1號","121.462146666667","25.1266016666667","6501000","淡水區"
"251006","561-UM","2017/12/04 17:39:44","新北市淡水區大信街24巷2號","121.441958333333","25.1766983333333","6501000","淡水區"
"251011","650-BX","2017/12/04 17:39:44","新北市淡水區小坪頂13-3號","121.48663","25.156185","6501000","淡水區"
"251002","672-BX","2017/12/04 17:39:29","新北市淡水區文化路1號","121.44026","25.1723183333333","6501000","淡水區"
"251003","766-UM","2017/12/04 17:39:46","新北市淡水區大忠街5巷1號","121.443098333333","25.1763833333333","6501000","淡水區"
"207003","550-UM","2017/12/04 17:39:47","新北市萬里區龜吼里漁澳路10號","121.68627","25.1945783333333","6502800","萬里區"
"207004","225-TW","2017/12/04 17:39:36","新北市萬里區中幅里中福路8-1號","121.685898333333","25.16485","6502800","萬里區"
"252002","178-VK","2017/12/04 17:39:39","新北市三芝區中正路二段2號","121.504935","25.2557316666667","6502100","三芝區"
"252001","292-VK","2017/12/04 17:39:35","新北市三芝區淡金路一段32號","121.500213333333","25.259195","6502100","三芝區"
"237008","302-VK","2017/12/04 17:39:36","新北市三峽區中山路287號","121.361733333333","24.9376316666667","6500900","三峽區"
"237006","5529-G3","2017/12/04 17:39:44","新北市三峽區介壽路二段34-2號","121.391285","24.935185","6500900","三峽區"
"237011","572-TV","2017/12/04 17:37:02","新北市三峽區中山路91號","121.366415","24.9354183333333","6500900","三峽區"
"237015","649-BX","2017/12/04 17:39:38","新北市三峽區中園街237-1號","121.366885","24.9194483333333","6500900","三峽區"
"236042","107-UM","2017/12/04 17:39:37","新北市土城區城林路6巷80號","121.438546666667","24.979725","6501300","土城區"
"236078","166-UM","2017/12/04 17:39:46","新北市土城區城林路6巷80號","121.438523333333","24.9797133333333","6501300","土城區"
"236036","271-VK","2017/12/04 17:39:35","新北市土城區城林路6巷80號","121.438448333333","24.9797366666667","6501300","土城區"
"236020","401-BY","2017/12/04 17:39:33","新北市土城區城林路6巷80號","121.43866","24.9796833333333","6501300","土城區"
"242031","AAC-296","2017/12/04 17:39:42","新北市新莊區新泰路361巷1號","121.443786666667","25.0431466666667","6500500","新莊區"
"242029","986-R7","2017/12/04 17:39:29","新北市新莊區復興路二段3號","121.453478333333","25.04389","6500500","新莊區"
"242050","751-BX","2017/12/04 17:39:33","新北市新莊區西盛街171號","121.428058333333","25.0174583333333","6500500","新莊區"
"242025","615-BX","2017/12/04 17:39:42","新北市新莊區思源路114號","121.46018","25.0467083333333","6500500","新莊區"
"242023","613-BX","2017/12/04 17:39:31","新北市新莊區公園路222巷1號","121.4563","25.0406016666667","6500500","新莊區"
"242027","612-BX","2017/12/04 17:39:43","新北市新莊區福壽街126-5號","121.45778","25.05122","6500500","新莊區"
"242039","566-BX","2017/12/04 17:39:40","新北市新莊區民全街17號","121.428968333333","25.021715","6500500","新莊區"
"242044","497-BY","2017/12/04 17:39:48","新北市新莊區中正路871巷19號","121.419151666667","25.0266316666667","6500500","新莊區"
"242053","442-UM","2017/12/04 17:39:43","新北市新莊區新樹路699巷27號","121.432813333333","25.0014966666667","6500500","新莊區"
"242048","441-UM","2017/12/04 17:39:41","新北市新莊區萬安街131號","121.420635","25.0221916666667","6500500","新莊區"
"242034","415-TV","2017/12/04 17:39:41","新北市新莊區新莊路621號","121.445626666667","25.032865","6500500","新莊區"
"242004","413-TV","2017/12/04 17:39:32","新北市新莊區自立街192號","121.456435","25.0455583333333","6500500","新莊區"
"242042","400-BY","2017/12/04 17:39:19","新北市新莊區中正路514巷105弄3號","121.427843333333","25.0352616666667","6500500","新莊區"
"242060","362-BY","2017/12/04 17:39:46","新北市新莊區瓊林南路75-19號","121.434736666667","25.0138716666667","6500500","新莊區"
"242058","353-BY","2017/12/04 17:39:49","新北市新莊區中正路654號","121.421273333333","25.0285583333333","6500500","新莊區"
"242036","133-UY","2017/12/04 17:39:48","新北市新莊區建福路59巷30號","121.428148333333","25.0275966666667","6500500","新莊區"
"242021","135-UY","2017/12/04 17:39:51","新北市新莊區中華路一段118號","121.452523333333","25.0406133333333","6500500","新莊區"
"242046","172-VK","2017/12/04 17:39:41","新北市新莊區福營路103號","121.434003333333","25.0322966666667","6500500","新莊區"
"242002","173-VK","2017/12/04 17:39:48","新北市新莊區新莊路385號","121.451293333333","25.0337483333333","6500500","新莊區"
"242015","175-VK","2017/12/04 17:39:48","新北市新莊區新泰路330號","121.444925","25.0419116666667","6500500","新莊區"
"242013","346-TH","2017/12/04 17:39:43","新北市新莊區中誠街46巷11號","121.451075","25.048575","6500500","新莊區"
"242007","347-TH","2017/12/04 17:39:36","新北市新莊區福樂街69號","121.457091666667","25.0477733333333","6500500","新莊區"
"242019","348-TH","2017/12/04 17:39:31","新北市新莊區中港路135號","121.455105","25.04036","6500500","新莊區"
"242056","349-TH","2017/12/04 17:39:33","新北市新莊區泰豐街24號","121.448423333333","25.03165","6500500","新莊區"
"242017","350-TH","2017/12/04 17:39:36","新北市新莊區復興路一段149巷22弄2號","121.45033","25.04406","6500500","新莊區"
"242011","351-TH","2017/12/04 17:39:43","新北市新莊區中港路637號","121.451068333333","25.05451","6500500","新莊區"
"238015","755-BX","2017/12/04 17:39:39","新北市樹林區啟智街25號","121.420858333333","24.99335","6500700","樹林區"
"238023","601-UM","2017/12/04 17:39:32","新北市樹林區三福街114號","121.406463333333","25.0163383333333","6500700","樹林區"
"238019","599-UM","2017/12/04 17:39:39","新北市樹林區太順街29號","121.4192","24.97982","6500700","樹林區"
"238018","571-TV","2017/12/04 17:39:40","新北市樹林區鎮前街97巷2-1號","121.424558333333","24.989695","6500700","樹林區"
"238024","5061-A6","2017/12/04 17:39:48","新北市樹林區八德街228號","121.41407","24.9708733333333","6500700","樹林區"
"238021","KEA-2217","2017/12/04 17:39:29","新北市樹林區佳園路二段65巷1-2號","121.390926666667","24.9604216666667","6500700","樹林區"
"238022","KEA-2213","2017/12/04 17:39:33","新北市樹林區中華路187巷14號","121.420611666667","24.9812816666667","6500700","樹林區"
"238026","308-TH","2017/12/04 13:30:28","新北市樹林區育德街76巷1號","121.38876","24.9683033333333","6500700","樹林區"
"238025","303-VK","2017/12/04 17:39:40","新北市樹林區保安街三段55號","121.412566666667","25.01136","6500700","樹林區"
"238017","283-BY","2017/12/04 17:39:40","新北市樹林區三德街8號","121.4133","25.0126966666667","6500700","樹林區"
"238014","282-BY","2017/12/04 17:39:41","新北市樹林區保安街一段366號","121.417851666667","24.998645","6500700","樹林區"
"238020","268-VK","2017/12/04 17:39:39","新北市樹林區俊英街122號","121.427273333333","25.0057016666667","6500700","樹林區"
"238026","172-UY","2017/12/04 17:39:34","新北市樹林區新興街19巷36弄21號","121.402553333333","24.9730133333333","6500700","樹林區"
"238016","169-UY","2017/12/04 17:39:45","新北市樹林區中山路一段145號","121.42225","24.9895233333333","6500700","樹林區"
"239007","AAC-297","2017/12/04 17:39:45","新北市鶯歌區國光街62號","121.340973333333","24.9582183333333","6500800","鶯歌區"
"239006","891-R6","2017/12/04 17:39:35","新北市鶯歌區永和街34巷19號","121.333798333333","24.9672266666667","6500800","鶯歌區"
"239008","527-UM","2017/12/04 17:39:42","新北市鶯歌區大湖路371號","121.331015","24.9783583333333","6500800","鶯歌區"
"239005","526-UM","2017/12/04 17:39:36","新北市鶯歌區福隆二街62號","121.324436666667","24.971435","6500800","鶯歌區"
"239001","417-VK","2017/12/04 17:39:45","新北市鶯歌區中正三路273巷4號","121.332616666667","24.9380566666667","6500800","鶯歌區"
"239003","360-BY","2017/12/04 17:39:33","新北市鶯歌區鶯桃路179號","121.337888333333","24.9585766666667","6500800","鶯歌區"
"239002","359-BY","2017/12/04 17:39:39","新北市鶯歌區育智路88號","121.345063333333","24.954485","6500800","鶯歌區"
"239004","193-VK","2017/12/04 17:39:33","新北市鶯歌區三鶯路107號","121.359481666667","24.94419","6500800","鶯歌區"
"221008","489-VK","2017/12/04 17:39:30","新北市汐止區康寧街901號","121.65143","25.075045","6501100","汐止區"
"221010","269-BY","2017/12/04 17:39:37","新北市汐止區汐萬路一段418巷1弄9號","121.649873333333","25.0787666666667","6501100","汐止區"
"221023","279-VK","2017/12/04 17:39:31","新北市汐止區汐萬路一段256巷1號","121.65172","25.07487","6501100","汐止區"
"221021","299-VK","2017/12/04 17:39:49","新北市汐止區汐萬路一段256巷1號","121.652015","25.0748016666667","6501100","汐止區"
"221033","647-BX","2017/12/04 17:39:31","新北市汐止區橫科路407巷121號","121.630401666667","25.052355","6501100","汐止區"
"221018","753-BX","2017/12/04 17:39:45","新北市汐止區大同路二段195號","121.652485","25.0643266666667","6501100","汐止區"
"242009","280-VK","2017/12/04 17:39:45","新北市新莊區昌明街14巷3弄2號","121.457331666667","25.053015","6500500","新莊區"
