"lineid","car","time","location","longitude","latitude","cityid","cityname"
"234046","148-BY","2017/12/04 18:49:42","新北市永和區秀朗路二段124-3號","121.524806666667","25.0015266666667","6500400","永和區"
"234013","149-BY","2017/12/04 18:49:36","新北市永和區仁愛路202巷26號","121.508893333333","25.0129733333333","6500400","永和區"
"234007","207-UY","2017/12/04 18:49:34","新北市永和區文化路146號","121.512585","25.0152633333333","6500400","永和區"
"234081","298-R6","2017/12/04 18:49:48","新北市永和區永亨路98號","121.522995","25.004685","6500400","永和區"
"234038","336-UY","2017/12/04 18:49:52","新北市永和區成功路二段45號","121.526826666667","25.0003433333333","6500400","永和區"
"234064","337-UY","2017/12/04 18:49:41","新北市永和區環河東路二段92號","121.524388333333","25.0105416666667","6500400","永和區"
"234086","338-UY","2017/12/04 18:49:43","新北市永和區中正路76號","121.513611666667","24.9951966666667","6500400","永和區"
"234070","552-UM","2017/12/04 18:49:37","新北市永和區竹林路96巷4號","121.519148333333","25.0121683333333","6500400","永和區"
"234054","553-UM","2017/12/04 18:49:38","新北市永和區豫溪街189巷2號","121.522863333333","25.010345","6500400","永和區"
"234017","745-BX","2017/12/04 18:49:42","新北市永和區忠孝街26巷27弄1號","121.515171666667","25.0169666666667","6500400","永和區"
"234030","746-BX","2017/12/04 18:49:48","新北市永和區得和路342號","121.52377","24.9994416666667","6500400","永和區"
"234061","AAD-866","2017/12/04 18:49:51","新北市永和區中正路507號","121.516623333333","25.0069266666667","6500400","永和區"
"234050","863-TW","2017/12/04 18:49:35","新北市永和區保安路2號","121.510778333333","25.0175","6500400","永和區"
"234011","9373-KE","2017/12/04 18:49:35","新北市永和區文化路124號","121.513063333333","25.0153666666667","6500400","永和區"
"249005","172-UM","2017/12/04 18:49:52","新北市八里區長道坑16-2號","121.39467","25.1176416666667","6502300","八里區"
"249001","173-UM","2017/12/04 18:49:42","新北市八里區龍米路二段121-3號","121.447136666667","25.1434033333333","6502300","八里區"
"249004","303-UY","2017/12/04 18:49:52","新北市八里區忠孝路411號","121.415625","25.1601833333333","6502300","八里區"
"248016","026-BX","2017/12/04 18:49:43","新北市五股區成泰路三段543巷52號","121.450006666667","25.1028866666667","6501500","五股區"
"248006","077-UY","2017/12/04 18:49:35","新北市五股區四維路1巷1號","121.466723333333","25.0700766666667","6501500","五股區"
"248008","095-VK","2017/12/04 18:49:51","新北市五股區中興路一段124號","121.465523333333","25.0735166666667","6501500","五股區"
"248018","225-UY","2017/12/04 18:49:52","新北市五股區民義路二段48巷2-5號","121.414685","25.10256","6501500","五股區"
"248012","247-BX","2017/12/04 18:49:46","新北市五股區成泰路二段147巷34-2號","121.436808333333","25.0886316666667","6501500","五股區"
"248010","272-BY","2017/12/04 18:49:46","新北市五股區水碓一路61號","121.431735","25.0723566666667","6501500","五股區"
"248004","677-BX","2017/12/04 18:49:38","新北市五股區民義路一段312-22號","121.42266","25.0952966666667","6501500","五股區"
"248002","678-BX","2017/12/04 18:49:54","新北市五股區成泰路三段454號","121.451421666667","25.1003766666667","6501500","五股區"
"234023","9380-KE","2017/12/04 18:49:41","新北市永和區竹林路119巷45號","121.521958333333","25.0117866666667","6500400","永和區"
"234077","969-R7","2017/12/04 18:49:52","新北市永和區中正路2巷29弄13號","121.513788333333","24.9940283333333","6500400","永和區"
"234074","AAC-211","2017/12/04 18:49:44","新北市永和區福和路1號","121.526115","25.0095033333333","6500400","永和區"
"234067","AAC-212","2017/12/04 18:49:45","新北市永和區永和路一段22號","121.513041666667","25.0047783333333","6500400","永和區"
"234003","AAC-295","2017/12/04 18:49:42","新北市永和區中正路657號","121.514926666667","25.0101283333333","6500400","永和區"
"232011","375-UM","2017/12/04 18:22:32","新北市坪林區坪雙路一段43號","121.71176","24.9424416666667","6502000","坪林區"
"244013","069-UM","2017/12/04 18:49:49","新北市林口區文化一路一段135巷12號","121.373555","25.0724516666667","6501700","林口區"
"244007","080-UY","2017/12/04 18:49:42","新北市林口區太平里23號","121.377","25.1151216666667","6501700","林口區"
"244018","403-UM","2017/12/04 18:49:34","新北市林口區忠孝路577號","121.3751","25.06825","6501700","林口區"
"244009","410-SL","2017/12/04 18:49:37","新北市林口區竹林路346巷1號","121.391671666667","25.0837","6501700","林口區"
"244023","483-VK","2017/12/04 18:49:43","新北市林口區文化三路二段158號","121.375785","25.0820266666667","6501700","林口區"
"244017","485-VK","2017/12/04 18:49:47","新北市林口區文化二路一段20巷25弄61號","121.366198333333","25.0675583333333","6501700","林口區"
"244025","837-TS","2017/12/04 18:49:48","新北市林口區文化北路一段370號","121.362086666667","25.0748383333333","6501700","林口區"
"243011","267-VK","2017/12/04 18:49:43","新北市泰山區公園路81號","121.425833333333","25.05497","6501600","泰山區"
"243012","AAD-798","2017/12/04 18:49:39","新北市泰山區福興三街13號","121.434406666667","25.0578066666667","6501600","泰山區"
"243009","297-R6","2017/12/04 18:49:45","新北市泰山區黎明路25號","121.422096666667","25.060825","6501600","泰山區"
"243007","380-SR","2017/12/04 18:49:49","新北市泰山區泰林路二段364號","121.428688333333","25.0637233333333","6501600","泰山區"
"243010","KEA-2215","2017/12/04 18:49:29","新北市泰山區明志路一段519號","121.430331666667","25.0539883333333","6501600","泰山區"
"243013","646-TV","2017/12/04 18:49:52","新北市泰山區明志路三段206巷3號","121.423286666667","25.0379483333333","6501600","泰山區"
"243016","680-BX","2017/12/04 18:49:48","新北市泰山區明志路一段237號","121.432495","25.0609183333333","6501600","泰山區"
"222003","436-BY","2017/12/04 18:49:52","新北市深坑區翠谷街17巷11號","121.626268333333","25.0087216666667","6501800","深坑區"
"222002","659-BX","2017/12/04 18:49:52","新北市深坑區文山路一段69號","121.626995","25.001865","6501800","深坑區"
"231041","001-UM","2017/12/04 18:49:32","新北市新店區安華路28-1號","121.519756666667","24.9608316666667","6500600","新店區"
"231058","0291-UT","2017/12/04 18:49:35","新北市新店區北宜路一段105巷4弄2-1號","121.540103333333","24.95544","6500600","新店區"
"231059","046-UY","2017/12/04 18:49:50","新北市新店區安華路28-1號","121.519541666667","24.9607016666667","6500600","新店區"
"231061","047-UY","2017/12/04 18:49:50","新北市新店區安華路28-1號","121.519216666667","24.96098","6500600","新店區"
"231060","106-UY","2017/12/04 18:49:41","新北市新店區安華路28-1號","121.519603333333","24.9608616666667","6500600","新店區"
"231051","107-UY","2017/12/04 18:49:49","新北市新店區中央路63號","121.532525","24.97707","6500600","新店區"
"231047","108-UY","2017/12/04 18:49:45","新北市新店區德正街19巷1號","121.543761666667","24.9725316666667","6500600","新店區"
"231052","187-VK","2017/12/04 18:49:49","新北市新店區永興路12號","121.545063333333","24.93976","6500600","新店區"
"231050","KEA-2219","2017/12/04 18:49:50","新北市新店區安康路一段104號","121.52732","24.9624683333333","6500600","新店區"
"231063","268-BY","2017/12/04 18:49:48","新北市新店區安忠路102-1號","121.510411666667","24.9556583333333","6500600","新店區"
"231046","278-BY","2017/12/04 18:49:43","新北市新店區直潭路57號","121.532851666667","24.9423316666667","6500600","新店區"
"231054","AAD-862","2017/12/04 18:49:34","新北市新店區環河路29巷1號","121.537075","24.9613266666667","6500600","新店區"
"231056","3713-VJ","2017/12/04 18:49:41","新北市新店區大豐路68巷11號","121.538706666667","24.9801483333333","6500600","新店區"
"231055","4716-K9","2017/12/04 18:49:34","新北市新店區新生街37號","121.539375","24.966935","6500600","新店區"
"231067","4772-VM","2017/12/04 18:49:52","新北市新店區安康路一段76巷24號","121.52822","24.96315","6500600","新店區"
"231065","512-UM","2017/12/04 18:49:36","新北市新店區車子路10-4號","121.504786666667","24.95455","6500600","新店區"
"231064","515-UM","2017/12/04 18:49:46","新北市新店區安華路28-1號","121.519936666667","24.9612916666667","6500600","新店區"
"231042","616-UM","2017/12/04 18:49:38","新北市新店區光明街141號","121.539421666667","24.96212","6500600","新店區"
"231040","619-UM","2017/12/04 18:49:46","新北市新店區中央路175-1號","121.5344","24.9699283333333","6500600","新店區"
"231049","719-UM","2017/12/04 18:49:50","新北市新店區中正路454-5號","121.534456666667","24.9790833333333","6500600","新店區"
"231062","720-UM","2017/12/04 18:49:36","新北市新店區車子路12號","121.505141666667","24.9545666666667","6500600","新店區"
"231044","897-TW","2017/12/04 18:49:38","新北市新店區寶中路72號","121.547908333333","24.9805766666667","6500600","新店區"
"231045","898-TW","2017/12/04 18:49:39","新北市新店區安康路一段134號","121.526685","24.9628066666667","6500600","新店區"
"231043","899-TW","2017/12/04 18:49:48","新北市新店區安康路一段107-2號","121.528715","24.9617283333333","6500600","新店區"
"231066","AKT-0513","2017/12/04 18:49:37","新北市新店區安豐路22巷14號","121.502906666667","24.9549383333333","6500600","新店區"
"241035","462-BY","2017/12/04 18:49:41","新北市三重區重新路四段121號","121.484956666667","25.0519433333333","6500200","三重區"
"235066","003-UY","2017/12/04 18:49:48","新北市中和區水源路29巷2號","121.504145","25.0037433333333","6500300","中和區"
"235063","006-UY","2017/12/04 18:49:54","新北市中和區連城路305號","121.489641666667","24.9961783333333","6500300","中和區"
"235047","031-BX","2017/12/04 18:49:39","新北市中和區忠孝街103號","121.511885","24.9862066666667","6500300","中和區"
"235056","096-UM","2017/12/04 18:49:40","新北市中和區員山路611巷5弄1號","121.47794","25.011215","6500300","中和區"
"235039","097-UM","2017/12/04 18:49:48","新北市中和區安樂路143巷19號","121.51359","24.9970333333333","6500300","中和區"
"235065","098-UM","2017/12/04 18:49:36","新北市中和區中山路二段2巷81弄8號","121.500703333333","25.0072616666667","6500300","中和區"
"235040","150-BY","2017/12/04 18:49:43","新北市中和區安和路31號","121.51034","24.9945766666667","6500300","中和區"
"235058","151-BY","2017/12/04 18:49:52","新北市中和區連城路532巷20號","121.475286666667","24.992735","6500300","中和區"
"235055","183-VK","2017/12/04 18:49:35","新北市中和區民生街45號","121.46997","25.0052516666667","6500300","中和區"
"235038","185-VK","2017/12/04 18:49:42","新北市中和區大勇街43巷11號","121.517083333333","24.9945983333333","6500300","中和區"
"235049","186-VK","2017/12/04 18:49:53","新北市中和區景安路136號","121.505016666667","24.9943066666667","6500300","中和區"
"235067","255-BX","2017/12/04 18:49:52","新北市中和區中山路二段475號","121.483158333333","25.004915","6500300","中和區"
"235044","293-VK","2017/12/04 18:49:52","新北市中和區中興街167號","121.499881666667","24.9906416666667","6500300","中和區"
"235072","301-VK","2017/12/04 18:49:36","新北市中和區中山路二段131-6號","121.502338333333","25.0032583333333","6500300","中和區"
"235043","352-BY","2017/12/04 18:49:39","新北市中和區秀朗路三段175巷23號","121.525808333333","24.990915","6500300","中和區"
"235068","377-QA","2017/12/04 15:58:13","新北市中和區員山路36巷16-3號","121.485105","24.99105","6500300","中和區"
"235061","378-QA","2017/12/04 18:49:43","新北市中和區民享街56號","121.473936666667","25.0023933333333","6500300","中和區"
"235050","4979-A6","2017/12/04 18:49:33","新北市中和區忠孝街62巷9弄10號","121.513143333333","24.9839616666667","6500300","中和區"
"235069","4980-A6","2017/12/04 18:49:53","新北市中和區南山路33號","121.502068333333","24.9988916666667","6500300","中和區"
"235042","551-UM","2017/12/04 18:49:43","新北市中和區秀朗路三段135巷2號","121.525203333333","24.992605","6500300","中和區"
"235070","558-UM","2017/12/04 18:49:47","新北市中和區景平路594號","121.500891666667","24.9961366666667","6500300","中和區"
"235045","565-BX","2017/12/04 18:49:50","新北市中和區復興路65號","121.504025","24.9902","6500300","中和區"
"235054","640-BX","2017/12/04 18:49:37","新北市中和區民享街68巷17號","121.473345","25.001655","6500300","中和區"
"235060","647-TV","2017/12/04 18:49:48","新北市中和區中山路三段169號","121.473163333333","25.00629","6500300","中和區"
"235047","732-UM","2017/12/04 18:49:55","新北市中和區興南路二段34巷32號","121.504791666667","24.9862366666667","6500300","中和區"
"235062","800-TS","2017/12/04 18:49:37","新北市中和區中山路二段274號","121.4969","25.00246","6500300","中和區"
"235057","801-TS","2017/12/04 18:49:32","新北市中和區民安街42巷34弄5號","121.479323333333","25.0015366666667","6500300","中和區"
"235041","802-TS","2017/12/04 18:49:50","新北市中和區宜安路118巷16號","121.510813333333","24.9985116666667","6500300","中和區"
"235052","805-TS","2017/12/04 18:49:41","新北市中和區興南路二段399巷98弄48號","121.49876","24.9767783333333","6500300","中和區"
"235048","896-TW","2017/12/04 18:49:46","新北市中和區南山路515號","121.507943333333","24.987455","6500300","中和區"
"235053","900-TW","2017/12/04 18:49:48","新北市中和區華福街8號","121.465568333333","24.9968016666667","6500300","中和區"
"235064","911-UM","2017/12/04 18:49:47","新北市中和區連城路97號","121.496548333333","24.9999433333333","6500300","中和區"
"235037","157-BY","2017/12/04 18:49:50","新北市中和區華新街143巷106弄28號","121.506053333333","24.9787383333333","6500300","中和區"
"235037","AAC-213","2017/12/04 18:49:38","新北市中和區秀朗路三段128巷1弄1號","121.524693333333","24.9921616666667","6500300","中和區"
"235059","AAC-215","2017/12/04 18:49:47","新北市中和區圓通路393巷2號","121.489636666667","24.9889733333333","6500300","中和區"
"220068","013-TV","2017/12/04 18:49:39","新北市板橋區民生路二段120號","121.47046","25.0196266666667","6500100","板橋區"
"220065","072-UY","2017/12/04 18:49:35","新北市板橋區民族路151巷52號","121.470108333333","25.0084683333333","6500100","板橋區"
"220086","073-UY","2017/12/04 18:49:41","新北市板橋區大智街71巷5弄1號","121.453298333333","25.014955","6500100","板橋區"
"220106","075-UY","2017/12/04 18:49:45","新北市板橋區民生路二段161巷9號","121.470315","25.0196466666667","6500100","板橋區"
"220069","AAD-861","2017/12/04 18:49:38","新北市板橋區南雅南路二段4巷8號","121.453936666667","25.0037083333333","6500100","板橋區"
"220102","120-SR","2017/12/04 18:49:40","新北市板橋區民生路二段120號","121.470436666667","25.0195633333333","6500100","板橋區"
"226004","312-R5","2017/12/04 18:49:41","新北市平溪區平溪里平溪街60-1號","121.738098333333","25.02728","6502400","平溪區"
"223002","198-BX","2017/12/04 11:53:09","新北市石碇區小粗坑(潭邊里)9-2號","121.678773333333","24.98578","6501900","石碇區"
"228003","097-TW","2017/12/04 18:49:50","新北市貢寮區和美里龍洞街56-2號","121.912178333333","25.113865","6502600","貢寮區"
"228002","585-TW","2017/12/04 18:49:52","新北市貢寮區福隆里東興街6-11號","121.950768333333","25.0210783333333","6502600","貢寮區"
"228001","670-TC","2017/12/04 18:49:44","新北市貢寮區仁理村保健街71號","121.923666666667","25.051655","6502600","貢寮區"
"224010","AGQ-8101","2017/12/04 18:49:41","新北市瑞芳區基山街3號","121.845291666667","25.1097333333333","6501200","瑞芳區"
"224006","676-BX","2017/12/04 18:49:51","新北市瑞芳區中正路91號","121.805156666667","25.107635","6501200","瑞芳區"
"224009","285-BY","2017/12/04 18:49:38","新北市瑞芳區祈堂路72號","121.859063333333","25.109915","6501200","瑞芳區"
"224008","275-VK","2017/12/04 18:49:46","新北市瑞芳區逢甲路189號","121.804745","25.1106","6501200","瑞芳區"
"224007","273-VK","2017/12/04 18:49:51","新北市瑞芳區大埔路186-1號","121.761528333333","25.1012483333333","6501200","瑞芳區"
"224005","271-BY","2017/12/04 18:49:49","新北市瑞芳區濱二路68號","121.830201666667","25.11986","6501200","瑞芳區"
"227001","642-TC","2017/12/04 18:49:45","新北市雙溪區平林里梅竹蹊28號","121.861645","25.0360016666667","6502500","雙溪區"
"227008","030-BX","2017/12/04 18:49:53","新北市雙溪區牡丹里聖南14號","121.858233333333","25.0526533333333","6502500","雙溪區"
"253005","032-BX","2017/12/04 18:49:45","新北市石門區石門街2巷30號","121.565886666667","25.2903683333333","6502200","石門區"
"253006","295-VK","2017/12/04 18:49:44","新北市石門區下員坑15號","121.511698333333","25.2848816666667","6502200","石門區"
"222001","KEA-2212","2017/12/04 18:49:45","新北市深坑區松柏街30巷2號","121.638683333333","25.0112116666667","6501800","深坑區"
"208002","742-BX","2017/12/04 18:49:38","新北市金山區信義路62號","121.635728333333","25.2189433333333","6502700","金山區"
"208003","665-BX","2017/12/04 18:49:45","新北市金山區中山路346號","121.633411666667","25.225315","6502700","金山區"
"208001","761-BX","2017/12/04 18:49:43","新北市金山區文化三路66巷2弄1號","121.63429","25.2256416666667","6502700","金山區"
"251013","182-VK","2017/12/04 18:49:38","新北市淡水區安子內5-2號","121.482466666667","25.2143833333333","6501000","淡水區"
"251010","413-VK","2017/12/04 18:49:41","新北市淡水區沙崙路11號","121.421155","25.1812216666667","6501000","淡水區"
"251012","441-VK","2017/12/04 18:49:42","新北市淡水區新興街3號","121.443773333333","25.180325","6501000","淡水區"
"251015","442-VK","2017/12/04 18:49:37","新北市淡水區興福寮66巷115號","121.487158333333","25.1614666666667","6501000","淡水區"
"251001","559-UM","2017/12/04 18:49:38","新北市淡水區自強路86號","121.462731666667","25.1282683333333","6501000","淡水區"
"251011","650-BX","2017/12/04 18:49:44","新北市淡水區學府路8號","121.447498333333","25.1678483333333","6501000","淡水區"
"251002","672-BX","2017/12/04 18:49:49","新北市淡水區學府路39號","121.447943333333","25.1690633333333","6501000","淡水區"
"251003","766-UM","2017/12/04 18:49:46","新北市淡水區中山北路一段149巷24號","121.442936666667","25.1779216666667","6501000","淡水區"
"207003","550-UM","2017/12/04 18:49:47","新北市萬里區大鵬里頂社2-1號","121.66031","25.2071733333333","6502800","萬里區"
"207004","225-TW","2017/12/04 18:49:56","新北市萬里區萬里里獅頭路23號","121.693195","25.1782483333333","6502800","萬里區"
"252002","178-VK","2017/12/04 18:49:39","新北市三芝區中正路一段101-1號","121.504786666667","25.2564016666667","6502100","三芝區"
"252003","249-BX","2017/12/04 18:49:38","新北市三芝區後厝里大片頭83-3號","121.45894","25.2440616666667","6502100","三芝區"
"252001","292-VK","2017/12/04 18:49:55","新北市三芝區中正路三段9號","121.502896666667","25.2540366666667","6502100","三芝區"
"237004","078-UY","2017/12/04 18:49:47","新北市三峽區插角104號","121.407578333333","24.8703466666667","6500900","三峽區"
"237007","153-BY","2017/12/04 18:49:51","新北市三峽區大埔路104號","121.36647","24.90664","6500900","三峽區"
"237009","210-TH","2017/12/04 18:49:53","新北市三峽區中山路31號","121.368418333333","24.9342716666667","6500900","三峽區"
"237013","252-BX","2017/12/04 18:49:47","新北市三峽區光明路69巷25號","121.376756666667","24.9292166666667","6500900","三峽區"
"237012","275-BY","2017/12/04 18:49:48","新北市三峽區三樹路340號","121.383961666667","24.9433366666667","6500900","三峽區"
"237008","302-VK","2017/12/04 18:49:36","新北市三峽區白雞33-19號","121.370925","24.91241","6500900","三峽區"
"237014","433-BY","2017/12/04 18:49:49","新北市三峽區復興路480巷53號","121.361138333333","24.9404716666667","6500900","三峽區"
"237006","5529-G3","2017/12/04 18:49:44","新北市三峽區溪東路233巷2弄1號","121.406891666667","24.9333183333333","6500900","三峽區"
"237011","572-TV","2017/12/04 18:03:26","新北市三峽區溪北街2號","121.396021666667","24.93621","6500900","三峽區"
"237015","649-BX","2017/12/04 18:49:37","新北市三峽區安坑7號","121.439475","24.9266966666667","6500900","三峽區"
"237005","AKY-6261","2017/12/04 18:49:39","新北市三峽區中山路299巷15弄29號","121.361498333333","24.9358616666667","6500900","三峽區"
"236069","105-UM","2017/12/04 18:49:50","新北市土城區明德路一段6號","121.464768333333","24.985675","6501300","土城區"
"236042","107-UM","2017/12/04 18:49:37","新北市土城區裕民路92巷25弄10號","121.449856666667","24.9857383333333","6501300","土城區"
"236078","166-UM","2017/12/04 17:48:26","新北市土城區中央路三段110號","121.435443333333","24.96634","6501300","土城區"
"236030","253-BX","2017/12/04 18:49:43","新北市土城區忠義路26巷19號","121.439848333333","24.9698666666667","6501300","土城區"
"236026","269-VK","2017/12/04 18:49:44","新北市土城區興城路48號","121.441351666667","24.9725716666667","6501300","土城區"
"236014","270-VK","2017/12/04 18:49:40","新北市土城區金城路二段354巷4號","121.461221666667","24.9849833333333","6501300","土城區"
"236036","271-VK","2017/12/04 18:49:35","新北市土城區明德路一段221巷5號","121.463681666667","24.9780833333333","6501300","土城區"
"236020","401-BY","2017/12/04 18:49:53","新北市土城區延吉街253巷9號","121.467881666667","24.9844333333333","6501300","土城區"
"236058","912-UM","2017/12/04 18:49:45","新北市土城區中央路三段141號","121.433488333333","24.9653716666667","6501300","土城區"
"236048","913-UM","2017/12/04 18:49:42","新北市土城區青雲路10-1號","121.460115","24.9889316666667","6501300","土城區"
"236062","915-UM","2017/12/04 18:49:42","新北市土城區金城路三段159號","121.468945","24.98842","6501300","土城區"
"236053","AAC-216","2017/12/04 18:49:47","新北市土城區裕民路202號","121.45329","24.98473","6501300","土城區"
"242060","362-BY","2017/12/04 18:49:39","新北市新莊區新樹路65-7號","121.439381666667","25.0307016666667","6500500","新莊區"
"242007","347-TH","2017/12/04 18:49:36","新北市板橋區金門街215巷111弄24號","121.434493333333","24.98771","6500500","新莊區"
"242056","349-TH","2017/12/04 18:49:53","新北市新莊區環河路636-7號","121.43747","25.0116633333333","6500500","新莊區"
"238023","601-UM","2017/12/04 18:49:52","新北市樹林區三福街114號","121.406488333333","25.0163483333333","6500700","樹林區"
"238019","599-UM","2017/12/04 18:49:39","新北市樹林區東榮街147巷2弄2號","121.414496666667","24.98151","6500700","樹林區"
"238018","571-TV","2017/12/04 18:49:40","新北市樹林區鎮前街168號","121.424363333333","24.98995","6500700","樹林區"
"238024","5061-A6","2017/12/04 18:49:48","新北市樹林區八德街365-2號","121.417076666667","24.9727816666667","6500700","樹林區"
"238022","KEA-2213","2017/12/04 18:49:53","新北市樹林區中華路379巷64號","121.413631666667","24.9778616666667","6500700","樹林區"
"238026","308-TH","2017/12/04 13:30:28","新北市樹林區育德街76巷1號","121.38876","24.9683033333333","6500700","樹林區"
"238025","303-VK","2017/12/04 18:49:54","新北市樹林區中山路三段22號","121.395671666667","24.9729633333333","6500700","樹林區"
"238014","282-BY","2017/12/04 18:49:41","新北市樹林區大安路111巷11號","121.423168333333","24.9976633333333","6500700","樹林區"
"238020","268-VK","2017/12/04 18:49:39","新北市樹林區俊英街83巷1號","121.425776666667","25.0080166666667","6500700","樹林區"
"238026","172-UY","2017/12/04 18:49:34","新北市樹林區中和街6號","121.391855","24.9729616666667","6500700","樹林區"
"238016","169-UY","2017/12/04 18:49:45","新北市樹林區文化街28號","121.419331666667","24.9877283333333","6500700","樹林區"
"239007","AAC-297","2017/12/04 18:49:44","新北市鶯歌區中正一路阿四巷7-1號","121.368546666667","24.9575566666667","6500800","鶯歌區"
"239008","527-UM","2017/12/04 18:49:42","新北市鶯歌區國際一路179號","121.33626","24.9765233333333","6500800","鶯歌區"
"239005","526-UM","2017/12/04 18:49:36","新北市鶯歌區鳳吉二街22號","121.32582","24.973205","6500800","鶯歌區"
"239001","417-VK","2017/12/04 18:49:45","新北市鶯歌區鶯桃路36號","121.341755","24.95244","6500800","鶯歌區"
"239003","360-BY","2017/12/04 18:49:53","新北市鶯歌區鶯桃路550號","121.331028333333","24.9673766666667","6500800","鶯歌區"
"239002","359-BY","2017/12/04 18:49:39","新北市鶯歌區中山路315號","121.344055","24.9569216666667","6500800","鶯歌區"
"239004","193-VK","2017/12/04 18:49:53","新北市鶯歌區中正三路230巷26號","121.329786666667","24.9396766666667","6500800","鶯歌區"
"221008","489-VK","2017/12/04 18:49:55","新北市汐止區康寧街901號","121.651373333333","25.0749583333333","6501100","汐止區"
"221036","130-UY","2017/12/04 18:49:48","新北市汐止區忠孝東路316巷3號","121.665051666667","25.0689966666667","6501100","汐止區"
"221010","269-BY","2017/12/04 18:49:37","新北市汐止區汐萬路二段1號","121.6493","25.0796716666667","6501100","汐止區"
"221012","278-VK","2017/12/04 18:49:34","新北市汐止區康寧街901號","121.650846666667","25.0752666666667","6501100","汐止區"
"221023","279-VK","2017/12/04 18:49:51","新北市汐止區康寧街901號","121.650941666667","25.07522","6501100","汐止區"
"221032","280-BY","2017/12/04 18:49:47","台北市南港區福山街44巷15弄31號","121.61783","25.0454383333333","6501100","汐止區"
"221027","281-BY","2017/12/04 18:49:51","新北市汐止區康寧街901號","121.651405","25.0749466666667","6501100","汐止區"
"221029","298-VK","2017/12/04 18:49:40","新北市汐止區樟樹一路87號","121.641758333333","25.0631316666667","6501100","汐止區"
"221021","299-VK","2017/12/04 18:49:49","新北市汐止區汐萬路一段159號","121.653075","25.0710566666667","6501100","汐止區"
"221031","353-TW","2017/12/04 18:49:44","新北市汐止區福德一路272巷11號","121.631873333333","25.0643016666667","6501100","汐止區"
"221015","567-BX","2017/12/04 18:49:38","新北市汐止區鄉長路一段281號","121.668478333333","25.0787266666667","6501100","汐止區"
"221035","622-UM","2017/12/04 18:49:39","新北市汐止區汐萬路一段273號","121.650426666667","25.074535","6501100","汐止區"
"221025","623-UM","2017/12/04 18:49:51","新北市汐止區秀峰路62號","121.659816666667","25.064645","6501100","汐止區"
"221038","646-BX","2017/12/04 18:49:46","新北市汐止區汐萬路一段256巷3號","121.653366666667","25.074665","6501100","汐止區"
"221033","647-BX","2017/12/04 18:49:51","新北市汐止區南勢街3號","121.627041666667","25.0373766666667","6501100","汐止區"
"221002","707-TV","2017/12/04 18:49:41","新北市汐止區大同路一段161號","121.632728333333","25.0566416666667","6501100","汐止區"
"221018","753-BX","2017/12/04 18:49:50","新北市汐止區茄苳路264號","121.671926666667","25.0681533333333","6501100","汐止區"
"220079","145-BY","2017/12/04 18:49:50","新北市板橋區民權路202巷6弄2號","121.46001","25.0145433333333","6500100","板橋區"
"220082","610-BX","2017/12/04 18:49:42","新北市板橋區篤行路三段32號","121.428343333333","24.9866333333333","6500100","板橋區"
"220080","256-TC","2017/12/04 18:49:46","新北市板橋區大觀路二段365巷12號","121.441163333333","24.997945","6500100","板橋區"
"220056","276-BY","2017/12/04 18:49:45","新北市板橋區信義路52-2號","121.457085","24.9942866666667","6500100","板橋區"
"220072","277-BY","2017/12/04 18:49:43","新北市板橋區大觀路三段36巷76號","121.43453","24.99741","6500100","板橋區"
"220101","280-UM","2017/12/04 18:49:47","新北市板橋區民生路二段120號","121.470568333333","25.019685","6500100","板橋區"
"220071","283-VK","2017/12/04 18:49:41","新北市板橋區忠孝路176巷5弄2號","121.464728333333","25.0020266666667","6500100","板橋區"
"220094","285-UM","2017/12/04 18:49:52","新北市板橋區民生路二段161巷5號","121.470216666667","25.01973","6500100","板橋區"
"220053","285-VK","2017/12/04 18:49:41","新北市板橋區民生路二段89-6號","121.470675","25.0189","6500100","板橋區"
"220083","286-VK","2017/12/04 18:49:55","新北市板橋區大觀路二段22巷30號","121.445175","25.0035916666667","6500100","板橋區"
"220081","287-VK","2017/12/04 18:49:49","新北市板橋區光華街13巷29號","121.453078333333","25.0112466666667","6500100","板橋區"
"220090","288-VK","2017/12/04 18:49:54","新北市板橋區民生路二段161巷9號","121.47023","25.019545","6500100","板橋區"
"220061","293-UM","2017/12/04 18:49:38","新北市板橋區民生路二段89-4號","121.471223333333","25.0184533333333","6500100","板橋區"
"220084","296-UM","2017/12/04 18:49:37","新北市板橋區大觀路二段150巷64號","121.44154","25.000735","6500100","板橋區"
"220075","297-UM","2017/12/04 18:49:38","新北市板橋區館前西路158號","121.454783333333","25.00858","6500100","板橋區"
"220062","305-R5","2017/12/04 18:49:34","新北市板橋區中山路二段25號","121.472496666667","25.0152733333333","6500100","板橋區"
"220092","307-R5","2017/12/04 16:40:54","新北市板橋區民生路二段120號","121.470363333333","25.0196683333333","6500100","板橋區"
"220098","317-R6","2017/12/04 18:49:47","新北市板橋區民生路二段161巷9號","121.470235","25.0196583333333","6500100","板橋區"
"220064","486-VK","2017/12/04 18:49:48","新北市板橋區民生路二段36-1號","121.472125","25.0167533333333","6500100","板橋區"
"220089","487-VK","2017/12/04 18:49:38","新北市板橋區民生路二段161巷1號","121.470083333333","25.0199583333333","6500100","板橋區"
"220088","491-VK","2017/12/04 18:49:40","新北市板橋區民生路二段161巷1號","121.469945","25.0200183333333","6500100","板橋區"
"220035","560-BX","2017/12/04 18:49:45","新北市板橋區南雅西路二段175巷2號","121.45159","25.0125266666667","6500100","板橋區"
"220103","561-BX","2017/12/04 18:49:51","新北市板橋區民生路二段161巷5號","121.470195","25.0197166666667","6500100","板橋區"
"220063","609-BX","2017/12/04 17:02:59","新北市板橋區民生路二段188號","121.470108333333","25.0202283333333","6500100","板橋區"
"220057","686-BX","2017/12/04 18:49:48","新北市板橋區華東街1-9號","121.448213333333","24.9949116666667","6500100","板橋區"
"220077","687-BX","2017/12/04 18:49:44","新北市板橋區龍興街103巷2號","121.444513333333","25.0034283333333","6500100","板橋區"
"220093","689-BX","2017/12/04 18:49:50","新北市板橋區民生路二段161巷1號","121.470136666667","25.020195","6500100","板橋區"
"220054","741-BX","2017/12/04 18:49:42","新北市板橋區南雅南路二段120-2號","121.452318333333","24.9997783333333","6500100","板橋區"
"220055","827-TW","2017/12/04 18:49:37","新北市板橋區華東街262號","121.452701666667","25.00148","6500100","板橋區"
"220067","829-TW","2017/12/04 18:49:53","新北市板橋區三民路二段正隆巷60號","121.476655","25.0143133333333","6500100","板橋區"
"220096","831-TW","2017/12/04 16:17:47","新北市板橋區民生路二段120號","121.470318333333","25.01976","6500100","板橋區"
"220074","895-R6","2017/12/04 18:49:42","新北市板橋區南雅南路二段7巷12號","121.45434","25.0029433333333","6500100","板橋區"
"220073","985-R7","2017/12/04 18:49:42","新北市板橋區南雅南路二段7巷12號","121.454331666667","25.0029","6500100","板橋區"
"220097","AAC-210","2017/12/04 18:49:52","新北市板橋區民生路二段120號","121.470375","25.0196766666667","6500100","板橋區"
"220070","AAC-253","2017/12/04 18:49:45","新北市板橋區南雅南路二段4巷10號","121.453855","25.0037","6500100","板橋區"
