"lineid","car","time","location","longitude","latitude","cityid","cityname"
"234046","148-BY","2017/12/04 19:59:42","新北市永和區成功路一段16巷4號","121.526781666667","25.005535","6500400","永和區"
"234013","149-BY","2017/12/04 19:59:36","新北市永和區永平路306號","121.507188333333","25.012495","6500400","永和區"
"234007","207-UY","2017/12/04 19:59:54","新北市永和區保生路22巷8號","121.507233333333","25.00801","6500400","永和區"
"234081","298-R6","2017/12/04 19:59:48","新北市永和區國中路17號","121.524295","25.0049683333333","6500400","永和區"
"234038","336-UY","2017/12/04 19:59:52","新北市永和區成功路二段177-1號","121.526643333333","24.996785","6500400","永和區"
"234064","337-UY","2017/12/04 19:59:41","新北市永和區中正路368巷1弄47號","121.519181666667","25.001245","6500400","永和區"
"234086","338-UY","2017/12/04 19:59:43","新北市永和區福和路192號","121.520118333333","25.0077066666667","6500400","永和區"
"234070","552-UM","2017/12/04 19:59:49","新北市永和區國光路49巷6號","121.518911666667","25.0079116666667","6500400","永和區"
"234054","553-UM","2017/12/04 19:59:38","新北市永和區環河東路一段122號","121.520648333333","25.01548","6500400","永和區"
"234017","745-BX","2017/12/04 19:59:42","新北市永和區文化路25號","121.514971666667","25.0149716666667","6500400","永和區"
"234030","746-BX","2017/12/04 19:59:53","新北市永和區民生路20號","121.522486666667","24.9973616666667","6500400","永和區"
"234061","AAD-866","2017/12/04 19:59:51","新北市永和區得和路76號","121.51639","25.0000616666667","6500400","永和區"
"234040","862-TW","2017/12/04 19:59:44","新北市永和區中和路421巷5弄2號","121.508516666667","25.0009933333333","6500400","永和區"
"234050","863-TW","2017/12/04 19:59:35","新北市永和區保安路212-1號","121.507501666667","25.0137416666667","6500400","永和區"
"234026","9371-KE","2017/12/04 19:59:51","新北市永和區水源街21巷14弄3號","121.511416666667","25.0037483333333","6500400","永和區"
"234011","9373-KE","2017/12/04 19:59:35","新北市永和區仁愛路352巷120號","121.500258333333","25.0084866666667","6500400","永和區"
"249005","172-UM","2017/12/04 19:59:52","新北市八里區楓林路2-23號","121.383818333333","25.13063","6502300","八里區"
"249001","173-UM","2017/12/04 19:59:46","新北市八里區中華路二段249-1號","121.403945","25.1482783333333","6502300","八里區"
"249004","303-UY","2017/12/04 19:59:44","新北市八里區中華路一段333-1號","121.413461666667","25.1536333333333","6502300","八里區"
"249002","305-UY","2017/12/04 19:59:35","新北市八里區龍米路一段87巷1號","121.45427","25.1233966666667","6502300","八里區"
"249003","759-BX","2017/12/04 19:59:33","新北市八里區中華路二段560巷1號","121.398655","25.14504","6502300","八里區"
"248016","026-BX","2017/12/04 19:59:51","新北市五股區成泰路三段577巷80弄69號","121.449731666667","25.10515","6501500","五股區"
"248008","095-VK","2017/12/04 19:59:51","新北市五股區四維路30巷36弄2號","121.468865","25.071465","6501500","五股區"
"248018","225-UY","2017/12/04 19:59:52","新北市五股區登林路118-6號","121.41396","25.0760066666667","6501500","五股區"
"248012","247-BX","2017/12/04 19:59:46","新北市五股區民義路一段84號","121.436038333333","25.0848816666667","6501500","五股區"
"248014","261-SL","2017/12/04 19:59:42","新北市五股區五福路22巷4號","121.434605","25.089","6501500","五股區"
"248010","272-BY","2017/12/04 19:59:46","新北市五股區登林路75號","121.42829","25.0698616666667","6501500","五股區"
"248004","677-BX","2017/12/04 19:59:38","新北市五股區成泰路一段32巷62號","121.435096666667","25.0670216666667","6501500","五股區"
"248002","678-BX","2017/12/04 19:59:54","新北市五股區成泰路三段487號","121.450825","25.0993316666667","6501500","五股區"
"234077","969-R7","2017/12/04 19:59:52","新北市永和區民有街23巷57號","121.517723333333","24.9975083333333","6500400","永和區"
"234074","AAC-211","2017/12/04 19:59:44","新北市永和區豫溪街162巷2號","121.523678333333","25.009555","6500400","永和區"
"234067","AAC-212","2017/12/04 19:59:45","新北市永和區永貞路356號","121.510218333333","25.006515","6500400","永和區"
"234003","AAC-295","2017/12/04 19:59:42","新北市永和區中正路690號","121.516546666667","25.0095933333333","6500400","永和區"
"244018","403-UM","2017/12/04 19:59:34","新北市林口區中山路584號","121.37601","25.08551","6501700","林口區"
"243011","267-VK","2017/12/04 19:59:42","新北市泰山區明志路三段196巷52號","121.421743333333","25.03991","6501600","泰山區"
"243012","AAD-798","2017/12/04 19:59:39","新北市泰山區仁德路52號","121.434065","25.0567316666667","6501600","泰山區"
"243009","297-R6","2017/12/04 19:59:45","新北市泰山區泰林路二段164巷30號","121.434446666667","25.0611183333333","6501600","泰山區"
"243015","380-SR","2017/12/04 19:59:29","新北市泰山區明志路二段214巷11號","121.426633333333","25.0489483333333","6501600","泰山區"
"243014","421-VK","2017/12/04 19:59:51","新北市泰山區泰林路二段148號","121.43414","25.0599116666667","6501600","泰山區"
"243010","KEA-2215","2017/12/04 19:59:49","新北市泰山區中華街10巷1號","121.427846666667","25.0525266666667","6501600","泰山區"
"243013","646-TV","2017/12/04 19:59:52","新北市泰山區應化街13號","121.423881666667","25.043665","6501600","泰山區"
"243016","680-BX","2017/12/04 19:59:08","新北市泰山區明志路三段519號","121.421461666667","25.0318266666667","6501600","泰山區"
"222003","436-BY","2017/12/04 19:59:44","新北市深坑區北深路二段16號","121.620805","25.0044533333333","6501800","深坑區"
"222002","659-BX","2017/12/04 19:59:38","新北市深坑區北深路二段81巷20號","121.618538333333","25.002565","6501800","深坑區"
"231041","001-UM","2017/12/04 19:59:32","新北市新店區民族路192號","121.535988333333","24.9755016666667","6500600","新店區"
"231059","046-UY","2017/12/04 19:59:50","新北市新店區安康路二段147號","121.511255","24.959875","6500600","新店區"
"231061","047-UY","2017/12/04 19:59:50","新北市新店區安民街321號","121.517411666667","24.9744833333333","6500600","新店區"
"231060","106-UY","2017/12/04 19:59:41","新北市新店區安康路二段454號","121.49449","24.9543183333333","6500600","新店區"
"231051","107-UY","2017/12/04 19:59:49","新北市新店區中央二街10號","121.529105","24.9731083333333","6500600","新店區"
"231047","108-UY","2017/12/04 19:59:45","新北市新店區寶宏路3-4號","121.549206666667","24.9765983333333","6500600","新店區"
"231052","187-VK","2017/12/04 19:59:49","新北市新店區新烏路三段229-1號","121.547085","24.896495","6500600","新店區"
"231050","KEA-2219","2017/12/04 19:59:50","新北市新店區北宜路一段3號","121.538103333333","24.9583766666667","6500600","新店區"
"231057","256-BX","2017/12/04 19:59:33","新北市新店區花園二路一段11號","121.555491666667","24.9325116666667","6500600","新店區"
"231063","268-BY","2017/12/04 19:59:48","新北市新店區黎明路3號","121.503631666667","24.9524833333333","6500600","新店區"
"231054","AAD-862","2017/12/04 19:59:34","新北市新店區光明街96巷3號","121.539426666667","24.959935","6500600","新店區"
"231056","3713-VJ","2017/12/04 19:59:41","新北市新店區中央路9號","121.533396666667","24.978535","6500600","新店區"
"231055","4716-K9","2017/12/04 19:59:55","新北市新店區力行路94號","121.53829","24.9665733333333","6500600","新店區"
"231065","512-UM","2017/12/04 19:59:36","新北市新店區安祥路106-16號","121.476573333333","24.9607166666667","6500600","新店區"
"231064","515-UM","2017/12/04 19:59:45","新北市新店區光華街22號","121.516996666667","24.96927","6500600","新店區"
"231042","616-UM","2017/12/04 19:59:44","新北市新店區中正路7號","121.545845","24.9692116666667","6500600","新店區"
"231040","619-UM","2017/12/04 19:59:46","新北市新店區北新路一段126巷27號","121.54324","24.9694683333333","6500600","新店區"
"231068","718-UY","2017/12/04 19:59:47","新北市新店區安華路28-1號","121.519068333333","24.9610466666667","6500600","新店區"
"231049","719-UM","2017/12/04 19:59:50","新北市新店區明德路42號","121.541396666667","24.9781866666667","6500600","新店區"
"231062","720-UM","2017/12/04 19:59:36","新北市新店區華城路5-3號","121.529378333333","24.9583666666667","6500600","新店區"
"231044","897-TW","2017/12/04 19:59:38","新北市新店區復興路27號","121.539028333333","24.9867133333333","6500600","新店區"
"231045","898-TW","2017/12/04 19:59:39","新北市新店區北宜路二段148號","121.557595","24.9538966666667","6500600","新店區"
"231043","899-TW","2017/12/04 19:59:48","新北市新店區中正路263-3號","121.538313333333","24.9737783333333","6500600","新店區"
"231066","AKT-0513","2017/12/04 19:59:41","新北市新店區柴埕路52巷5-1號","121.511756666667","24.9647316666667","6500600","新店區"
"241028","022-UY","2017/12/04 19:59:45","新北市三重區重新路三段84號","121.49331","25.0606666666667","6500200","三重區"
"241008","059-VK","2017/12/04 19:59:42","新北市三重區永福街181號","121.478928333333","25.074995","6500200","三重區"
"241009","060-VK","2017/12/04 19:59:46","新北市三重區三和路四段390巷37號","121.48033","25.0786233333333","6500200","三重區"
"241031","061-VK","2017/12/04 19:59:42","新北市三重區重新路四段184巷16號","121.48709","25.0548816666667","6500200","三重區"
"241015","062-VK","2017/12/04 19:59:36","新北市三重區三和路二段8號","121.501086666667","25.066915","6500200","三重區"
"241017","063-VK","2017/12/04 19:59:43","新北市三重區自強路一段284號","121.491738333333","25.0681166666667","6500200","三重區"
"241024","065-VK","2017/12/04 19:59:45","新北市三重區力行路一段178巷17號","121.48141","25.07137","6500200","三重區"
"241026","066-VK","2017/12/04 19:59:44","新北市三重區中央南路15號","121.501226666667","25.0626033333333","6500200","三重區"
"241002","090-VK","2017/12/04 19:59:41","新北市三重區仁愛街277號","121.492903333333","25.0786666666667","6500200","三重區"
"241003","091-VK","2017/12/04 19:59:49","新北市三重區仁愛街445巷30號","121.491195","25.0831633333333","6500200","三重區"
"241004","156-TC","2017/12/04 19:59:47","新北市三重區仁愛街425巷77號","121.49201","25.0825383333333","6500200","三重區"
"241005","262-UM","2017/12/04 19:59:33","新北市三重區溪尾街380號","121.488985","25.0856633333333","6500200","三重區"
"241011","265-UM","2017/12/04 19:59:44","新北市三重區三和路三段35巷3號","121.496118333333","25.0711466666667","6500200","三重區"
"241016","266-UM","2017/12/04 19:59:37","新北市三重區正義北路23號","121.497511666667","25.06341","6500200","三重區"
"241022","267-UM","2017/12/04 19:59:43","新北市三重區過圳街31巷2號","121.488826666667","25.0605233333333","6500200","三重區"
"241018","268-UM","2017/12/04 19:59:44","新北市三重區正義北路185號","121.496336666667","25.067855","6500200","三重區"
"241032","269-UM","2017/12/04 19:59:51","新北市三重區朝陽街23號","121.483605","25.056505","6500200","三重區"
"241013","270-UM","2017/12/04 19:59:42","新北市三重區三和路三段125巷30號","121.493743333333","25.0736883333333","6500200","三重區"
"241025","271-UM","2017/12/04 19:59:50","新北市三重區頂崁街210巷22號","121.476173333333","25.0679083333333","6500200","三重區"
"241007","398-BY","2017/12/04 19:59:36","新北市三重區溪尾街146-1號","121.489043333333","25.07992","6500200","三重區"
"241030","KEA-2210","2017/12/04 19:59:36","新北市三重區成功路97號","121.487736666667","25.0516566666667","6500200","三重區"
"241020","413-TH","2017/12/04 19:59:49","新北市三重區大智街165巷13號","121.490375","25.0725416666667","6500200","三重區"
"241035","462-BY","2017/12/04 19:59:41","新北市三重區大榮街13號","121.498291666667","25.063095","6500200","三重區"
"241019","478-VK","2017/12/04 19:59:39","新北市三重區重陽路四段2號","121.490545","25.0687233333333","6500200","三重區"
"241014","543-UM","2017/12/04 19:59:34","新北市三重區三和路二段156號","121.49942","25.068535","6500200","三重區"
"241023","545-UM","2017/12/04 19:59:39","新北市三重區大有街1-1號","121.477643333333","25.06555","6500200","三重區"
"241001","547-UM","2017/12/04 19:59:43","新北市三重區仁愛街283巷36號","121.494366666667","25.0799383333333","6500200","三重區"
"241006","887-TS","2017/12/04 19:59:43","新北市三重區力行路二段33巷8號","121.48243","25.0735933333333","6500200","三重區"
"241012","941-UM","2017/12/04 19:59:43","新北市三重區仁厚街43號","121.500211666667","25.0764883333333","6500200","三重區"
"241029","942-UM","2017/12/04 19:59:41","新北市三重區重新路三段204號","121.490136666667","25.058225","6500200","三重區"
"241033","AAC-255","2017/12/04 19:59:32","新北市三重區中興北街75號","121.469513333333","25.0476983333333","6500200","三重區"
"235066","003-UY","2017/12/04 19:59:48","新北市中和區中山路二段57號","121.504335","25.0048233333333","6500300","中和區"
"235047","031-BX","2017/12/04 19:59:39","新北市中和區興南路一段91-2號","121.509655","24.9885916666667","6500300","中和區"
"235056","096-UM","2017/12/04 19:59:40","新北市中和區中山路三段136巷45號","121.473175","25.007735","6500300","中和區"
"235039","097-UM","2017/12/04 19:59:48","新北市中和區大勇街25巷38弄1號","121.515788333333","24.9937083333333","6500300","中和區"
"235065","098-UM","2017/12/04 19:59:37","新北市中和區福美路261號","121.498468333333","25.005125","6500300","中和區"
"235040","150-BY","2017/12/04 19:59:43","新北市中和區保健路19巷2弄8號","121.508515","24.9981766666667","6500300","中和區"
"235058","151-BY","2017/12/04 19:59:52","新北市中和區員山路150巷2弄57號","121.481843333333","24.9973116666667","6500300","中和區"
"235055","183-VK","2017/12/04 19:59:54","新北市中和區民生街35巷1弄1號","121.470378333333","25.0051516666667","6500300","中和區"
"235038","185-VK","2017/12/04 19:59:42","新北市中和區秀朗路三段128巷1弄15號","121.523751666667","24.9916","6500300","中和區"
"235049","186-VK","2017/12/04 19:59:53","新北市中和區景平路534號","121.502691666667","24.9945616666667","6500300","中和區"
"235067","255-BX","2017/12/04 19:59:52","新北市中和區新生街211號","121.483831666667","24.999705","6500300","中和區"
"235044","293-VK","2017/12/04 19:59:49","新北市中和區中正路65巷1弄1號","121.501353333333","24.993155","6500300","中和區"
"235043","352-BY","2017/12/04 19:59:38","新北市中和區興南路二段159巷7號","121.505241666667","24.983135","6500300","中和區"
"235068","377-QA","2017/12/04 19:59:38","新北市中和區中山路二段250巷14號","121.497558333333","25.0030866666667","6500300","中和區"
"235050","4979-A6","2017/12/04 19:59:53","新北市中和區景平路255號","121.508633333333","24.9929516666667","6500300","中和區"
"235069","4980-A6","2017/12/04 19:59:53","新北市中和區景平路624號","121.500556666667","24.9974483333333","6500300","中和區"
"235070","558-UM","2017/12/04 19:59:47","新北市中和區景平路517號","121.499221666667","24.9987833333333","6500300","中和區"
"235054","640-BX","2017/12/04 19:59:37","新北市中和區莒光路179號","121.472781666667","24.9992133333333","6500300","中和區"
"235041","802-TS","2017/12/04 19:59:50","新北市中和區中安街46號","121.513123333333","25.0024283333333","6500300","中和區"
"235052","805-TS","2017/12/04 19:59:41","新北市中和區華新街30巷19號","121.506941666667","24.98414","6500300","中和區"
"235048","896-TW","2017/12/04 19:59:46","新北市中和區景新街397號","121.512611666667","24.9898016666667","6500300","中和區"
"235053","900-TW","2017/12/04 19:59:37","新北市中和區民德路258號","121.46793","24.9971","6500300","中和區"
"235037","157-BY","2017/12/04 19:59:50","新北市中和區復興路331號","121.500615","24.9902616666667","6500300","中和區"
"235037","AAC-213","2017/12/04 19:59:38","新北市中和區立人街1號","121.521895","24.9939116666667","6500300","中和區"
"235059","AAC-215","2017/12/04 19:59:51","新北市中和區圓通路343號","121.491565","24.9904216666667","6500300","中和區"
"220068","013-TV","2017/12/04 18:59:19","新北市板橋區縣民大道三段136號","121.474741666667","25.0209","6500100","板橋區"
"220065","072-UY","2017/12/04 19:59:53","新北市板橋區區運路32號","121.465651666667","25.00967","6500100","板橋區"
"220086","073-UY","2017/12/04 19:59:41","新北市板橋區南雅西路二段7巷25號","121.451908333333","25.00946","6500100","板橋區"
"220106","075-UY","2017/12/04 19:59:45","新北市板橋區民治街96巷21-1號","121.478541666667","25.0321383333333","6500100","板橋區"
"220069","AAD-861","2017/12/04 19:59:38","新北市板橋區貴興路81號","121.456741666667","25.0029766666667","6500100","板橋區"
"220102","120-SR","2017/12/04 19:59:40","新北市板橋區仁化街42巷3號","121.475421666667","25.0313533333333","6500100","板橋區"
"247020","500-BY","2017/12/04 19:59:52","新北市蘆洲區民義街76號","121.473325","25.0901283333333","6501400","蘆洲區"
"247008","341-TH","2017/12/04 19:59:43","新北市蘆洲區中山一路95巷20弄72號","121.476681666667","25.0805433333333","6501400","蘆洲區"
"247010","339-TH","2017/12/04 19:59:42","新北市蘆洲區集賢路227-1號","121.482425","25.0859566666667","6501400","蘆洲區"
"247002","337-TH","2017/12/04 19:59:39","新北市蘆洲區永樂街31巷9號","121.458118333333","25.087155","6501400","蘆洲區"
"247004","336-TH","2017/12/04 19:59:43","新北市蘆洲區永安南路二段328巷15弄15號","121.455793333333","25.0835816666667","6501400","蘆洲區"
"247024","335-TH","2017/12/04 19:59:38","新北市蘆洲區光榮路120巷12號","121.465433333333","25.088465","6501400","蘆洲區"
"247016","057-VK","2017/12/04 19:59:29","新北市蘆洲區光華路4號","121.469851666667","25.0836716666667","6501400","蘆洲區"
"247006","056-VK","2017/12/04 19:59:36","新北市蘆洲區九芎街89號","121.466326666667","25.0793133333333","6501400","蘆洲區"
"247014","007-UY","2017/12/04 19:59:46","新北市蘆洲區成功路115號","121.472576666667","25.0819566666667","6501400","蘆洲區"
"226004","312-R5","2017/12/04 19:59:41","新北市平溪區望古里灰3-1號","121.754613333333","25.0286216666667","6502400","平溪區"
"223002","198-BX","2017/12/04 11:53:09","新北市石碇區小粗坑(潭邊里)9-2號","121.678773333333","24.98578","6501900","石碇區"
"228003","097-TW","2017/12/04 19:59:50","新北市貢寮區仁理村仁和路63號","121.92414","25.0543833333333","6502600","貢寮區"
"224010","AGQ-8101","2017/12/04 19:59:50","新北市瑞芳區市下巷2號","121.844333333333","25.1090116666667","6501200","瑞芳區"
"227001","642-TC","2017/12/04 19:59:45","新北市雙溪區雙溪里長安街16號","121.865001666667","25.0346616666667","6502500","雙溪區"
"227008","030-BX","2017/12/04 19:59:50","新北市雙溪區新基里新基南街25號","121.866318333333","25.03811","6502500","雙溪區"
"222001","KEA-2212","2017/12/04 19:59:45","新北市深坑區北深路三段165-1號","121.602085","25.0033266666667","6501800","深坑區"
"208002","742-BX","2017/12/04 19:59:37","新北市金山區環金路147號","121.634891666667","25.217085","6502700","金山區"
"208003","665-BX","2017/12/04 19:59:45","新北市金山區香園14號","121.633946666667","25.25404","6502700","金山區"
"208001","761-BX","2017/12/04 19:59:43","新北市金山區南勢41-1號","121.629113333333","25.219855","6502700","金山區"
"251009","008-UM","2017/12/04 19:59:46","新北市淡水區英專路21巷13號","121.445043333333","25.1696866666667","6501000","淡水區"
"251004","009-UM","2017/12/04 19:59:51","新北市淡水區民族路46號","121.461511666667","25.1360666666667","6501000","淡水區"
"251005","010-UM","2017/12/04 19:59:39","新北市淡水區學府路136巷38號","121.45204","25.172615","6501000","淡水區"
"251008","181-VK","2017/12/04 19:59:41","新北市淡水區淡海路72巷1號","121.423336666667","25.18105","6501000","淡水區"
"251013","182-VK","2017/12/04 19:59:38","新北市淡水區淡金路三段254號","121.449095","25.20623","6501000","淡水區"
"251010","413-VK","2017/12/04 19:59:41","新北市淡水區崁頂107號","121.433298333333","25.2042316666667","6501000","淡水區"
"251012","441-VK","2017/12/04 19:59:42","新北市淡水區下圭柔山91巷1號","121.438226666667","25.2110883333333","6501000","淡水區"
"251015","442-VK","2017/12/04 19:59:36","新北市淡水區埤島80-2號","121.449381666667","25.18957","6501000","淡水區"
"251001","559-UM","2017/12/04 19:59:38","新北市淡水區淡金路二段62號","121.45109","25.1819983333333","6501000","淡水區"
"251006","561-UM","2017/12/04 19:59:44","新北市淡水區北新路8號","121.444438333333","25.17737","6501000","淡水區"
"251011","650-BX","2017/12/04 19:59:45","新北市淡水區崁頂55-3號","121.442335","25.19665","6501000","淡水區"
"207003","550-UM","2017/12/04 19:59:47","新北市萬里區大鵬里萬里加投41-2號","121.637763333333","25.2071916666667","6502800","萬里區"
"207004","225-TW","2017/12/04 19:59:36","新北市萬里區北基里忠二街35號","121.685653333333","25.175735","6502800","萬里區"
"252002","178-VK","2017/12/04 19:59:39","新北市三芝區三民街61號","121.50518","25.2582483333333","6502100","三芝區"
"252001","292-VK","2017/12/04 19:59:35","新北市三芝區公正街66號","121.49978","25.2574733333333","6502100","三芝區"
"237004","078-UY","2017/12/04 19:59:47","新北市三峽區添福2-5號","121.370808333333","24.9085883333333","6500900","三峽區"
"237007","153-BY","2017/12/04 19:59:51","新北市三峽區二鬮路136巷24弄33號","121.356626666667","24.9105866666667","6500900","三峽區"
"237009","210-TH","2017/12/04 19:59:53","新北市三峽區民族街26號","121.369231666667","24.9309783333333","6500900","三峽區"
"237012","275-BY","2017/12/04 19:59:48","新北市三峽區中華路3巷6-1號","121.375","24.9311833333333","6500900","三峽區"
"237008","302-VK","2017/12/04 19:59:36","新北市三峽區中華路39號","121.372631666667","24.931025","6500900","三峽區"
"237014","433-BY","2017/12/04 19:59:49","新北市三峽區添福141號","121.375285","24.9009966666667","6500900","三峽區"
"237006","5529-G3","2017/12/04 19:59:44","新北市三峽區中正路二段168號","121.36596","24.9157483333333","6500900","三峽區"
"237015","649-BX","2017/12/04 19:59:37","新北市三峽區介壽路三段1號","121.395013333333","24.936165","6500900","三峽區"
"237005","AKY-6261","2017/12/04 19:59:39","新北市三峽區民生街1巷27-1號","121.379455","24.9339216666667","6500900","三峽區"
"236069","105-UM","2017/12/04 19:59:50","新北市土城區忠義路77號","121.442978333333","24.9651183333333","6501300","土城區"
"236042","107-UM","2017/12/04 19:59:36","新北市土城區學府路一段143巷2號","121.453761666667","24.9860183333333","6501300","土城區"
"236078","166-UM","2017/12/04 19:59:46","新北市土城區中山路10號","121.416206666667","24.9619366666667","6501300","土城區"
"236030","253-BX","2017/12/04 19:59:43","新北市土城區中央路一段252-1號","121.444305","24.9845666666667","6501300","土城區"
"236026","269-VK","2017/12/04 19:59:44","新北市土城區員林街24-1號","121.443773333333","24.9774966666667","6501300","土城區"
"236014","270-VK","2017/12/04 19:59:40","新北市土城區廣福街123號","121.456278333333","24.99285","6501300","土城區"
"236036","271-VK","2017/12/04 19:59:35","新北市土城區國際路83號","121.46712","24.975955","6501300","土城區"
"236020","401-BY","2017/12/04 19:59:53","新北市土城區延吉街167號","121.469826666667","24.98589","6501300","土城區"
"236058","912-UM","2017/12/04 19:59:45","新北市土城區中央路一段116號","121.446613333333","24.98808","6501300","土城區"
"236048","913-UM","2017/12/04 19:59:37","新北市土城區金城路三段309號","121.474461666667","24.9909683333333","6501300","土城區"
"236062","915-UM","2017/12/04 19:59:42","新北市土城區金城路三段73巷4弄1號","121.466318333333","24.9877616666667","6501300","土城區"
"236053","AAC-216","2017/12/04 19:59:47","新北市土城區延和路11號","121.463941666667","24.9879466666667","6501300","土城區"
"242031","AAC-296","2017/12/04 19:59:44","新北市新莊區公園一路21號","121.443381666667","25.03509","6500500","新莊區"
"242029","986-R7","2017/12/04 19:59:47","新北市新莊區中平路303號","121.444623333333","25.051485","6500500","新莊區"
"242050","751-BX","2017/12/04 19:59:33","新北市新莊區西盛街131號","121.428368333333","25.0185833333333","6500500","新莊區"
"242025","615-BX","2017/12/04 19:59:48","新北市新莊區五工二路86巷29號","121.460401666667","25.0672016666667","6500500","新莊區"
"242023","613-BX","2017/12/04 19:59:51","新北市新莊區化成路354號","121.465881666667","25.049245","6500500","新莊區"
"242027","612-BX","2017/12/04 19:59:51","新北市新莊區立信三街14號","121.444045","25.0503816666667","6500500","新莊區"
"242039","566-BX","2017/12/04 19:59:50","新北市新莊區民安路285號","121.429036666667","25.0226866666667","6500500","新莊區"
"242044","497-BY","2017/12/04 19:59:48","新北市新莊區中正路742-5號","121.413136666667","25.02286","6500500","新莊區"
"242053","442-UM","2017/12/04 19:59:43","新北市新莊區西盛街416巷2號","121.427243333333","25.0123283333333","6500500","新莊區"
"242048","441-UM","2017/12/04 19:59:41","新北市新莊區四維路10號","121.42388","25.025175","6500500","新莊區"
"242034","415-TV","2017/12/04 19:59:44","新北市新莊區建中街107號","121.446478333333","25.0365216666667","6500500","新莊區"
"242004","413-TV","2017/12/04 19:59:39","新北市新莊區化成路63巷11號","121.464541666667","25.0458233333333","6500500","新莊區"
"242042","400-BY","2017/12/04 19:59:51","新北市新莊區青山路一段200-4號","121.397778333333","25.0317816666667","6500500","新莊區"
"242060","362-BY","2017/12/04 19:59:39","新北市新莊區瓊泰路7號","121.444733333333","25.0286383333333","6500500","新莊區"
"242058","353-BY","2017/12/04 19:59:50","新北市新莊區八德街135號","121.423833333333","25.02032","6500500","新莊區"
"242036","133-UY","2017/12/04 19:59:47","新北市新莊區建安街57巷3號","121.428715","25.0249183333333","6500500","新莊區"
"242021","135-UY","2017/12/04 19:59:49","新北市新莊區建中街48巷10弄12號","121.448596666667","25.0383933333333","6500500","新莊區"
"242002","173-VK","2017/12/04 19:59:47","新北市新莊區新豐街2號","121.44909","25.0347283333333","6500500","新莊區"
"242015","175-VK","2017/12/04 19:59:45","新北市新莊區復興路一段31號","121.44645","25.0419366666667","6500500","新莊區"
"242013","346-TH","2017/12/04 19:59:43","新北市新莊區幸福路670巷2弄1號","121.451061666667","25.0495616666667","6500500","新莊區"
"242007","347-TH","2017/12/04 19:59:36","新北市新莊區思源路587號","121.459796666667","25.0594733333333","6500500","新莊區"
"242019","348-TH","2017/12/04 19:59:46","新北市新莊區民生街28號","121.456321666667","25.0421883333333","6500500","新莊區"
"242056","349-TH","2017/12/04 19:59:53","新北市新莊區中正路347巷17弄4號","121.447351666667","25.0342816666667","6500500","新莊區"
"242017","350-TH","2017/12/04 19:59:41","新北市新莊區中港路332號","121.45253","25.045855","6500500","新莊區"
"242011","351-TH","2017/12/04 19:59:43","新北市新莊區中港路531巷35號","121.44994","25.0514733333333","6500500","新莊區"
"238015","755-BX","2017/12/04 19:59:39","新北市樹林區大安路630號","121.411043333333","24.98247","6500700","樹林區"
"238019","599-UM","2017/12/04 19:59:39","新北市樹林區中山路三段204號","121.387123333333","24.9683716666667","6500700","樹林區"
"238021","KEA-2217","2017/12/04 19:59:47","新北市樹林區佳園路三段113巷23號","121.387865","24.9501283333333","6500700","樹林區"
"238026","308-TH","2017/12/04 13:30:28","新北市樹林區育德街76巷1號","121.38876","24.9683033333333","6500700","樹林區"
"238020","268-VK","2017/12/04 19:59:39","新北市樹林區八德街832號","121.392446666667","24.9686166666667","6500700","樹林區"
"239006","891-R6","2017/12/04 19:59:35","新北市鶯歌區文化路145巷1號","121.356705","24.95401","6500800","鶯歌區"
"221008","489-VK","2017/12/04 19:59:35","台北市內湖區康樂街134號","121.619245","25.071765","6501100","汐止區"
"221036","130-UY","2017/12/04 19:59:48","新北市汐止區新台五路二段85巷19號","121.664048333333","25.0673983333333","6501100","汐止區"
"221010","269-BY","2017/12/04 19:59:36","新北市汐止區連峰街225巷1號","121.644776666667","25.0808983333333","6501100","汐止區"
"221012","278-VK","2017/12/04 19:59:54","新北市汐止區大同路三段279號","121.674225","25.0749816666667","6501100","汐止區"
"221023","279-VK","2017/12/04 19:59:54","新北市汐止區明峰街200-1號","121.627738333333","25.069365","6501100","汐止區"
"221032","280-BY","2017/12/04 19:59:47","新北市汐止區橫科路25號","121.618113333333","25.0511566666667","6501100","汐止區"
"221027","281-BY","2017/12/04 19:59:51","新北市汐止區中正路49號","121.661935","25.0700233333333","6501100","汐止區"
"221029","298-VK","2017/12/04 19:59:40","新北市汐止區樟樹一路137巷26號","121.64104","25.06592","6501100","汐止區"
"221021","299-VK","2017/12/04 19:59:48","新北市汐止區水源路一段109號","121.656426666667","25.0632816666667","6501100","汐止區"
"221031","353-TW","2017/12/04 19:59:44","新北市汐止區福德路52號","121.635486666667","25.0664716666667","6501100","汐止區"
"221015","567-BX","2017/12/04 19:59:38","新北市汐止區橋東街11號","121.666538333333","25.0759483333333","6501100","汐止區"
"221035","622-UM","2017/12/04 19:59:39","新北市汐止區長江街39巷10號","121.655448333333","25.0718666666667","6501100","汐止區"
"221025","623-UM","2017/12/04 19:59:51","新北市汐止區秀峰路109巷20號","121.660728333333","25.0634816666667","6501100","汐止區"
"221038","646-BX","2017/12/04 19:59:46","新北市汐止區忠孝東路448號","121.6661","25.07266","6501100","汐止區"
"221033","647-BX","2017/12/04 19:59:51","新北市汐止區東勢街190巷1號","121.633826666667","25.0416716666667","6501100","汐止區"
"221002","707-TV","2017/12/04 19:59:40","新北市汐止區大同路一段219巷27號","121.633248333333","25.0583766666667","6501100","汐止區"
"221018","753-BX","2017/12/04 19:59:45","新北市汐止區茄苳路277號","121.672326666667","25.0679366666667","6501100","汐止區"
"220079","145-BY","2017/12/04 19:59:40","新北市板橋區僑中一街124巷70-5號","121.448835","25.0163266666667","6500100","板橋區"
"220082","610-BX","2017/12/04 19:59:54","新北市板橋區篤行路二段131巷19號","121.431688333333","24.9903566666667","6500100","板橋區"
"220080","256-TC","2017/12/04 19:59:46","新北市板橋區大觀路二段153巷24號","121.446806666667","25.0001366666667","6500100","板橋區"
"220091","267-BY","2017/12/04 19:59:45","新北市板橋區文聖街89巷2號","121.477516666667","25.0297666666667","6500100","板橋區"
"220072","277-BY","2017/12/04 19:59:43","新北市板橋區金門街96-2號","121.433135","24.9924666666667","6500100","板橋區"
"220101","280-UM","2017/12/04 19:59:48","新北市板橋區縣民大道三段97巷2號","121.476081666667","25.0221833333333","6500100","板橋區"
"220071","283-VK","2017/12/04 19:59:41","新北市板橋區五權街30巷26號","121.463896666667","24.99316","6500100","板橋區"
"220094","285-UM","2017/12/04 19:59:40","新北市板橋區雨農路19號","121.461791666667","25.02453","6500100","板橋區"
"220053","285-VK","2017/12/04 19:59:45","新北市板橋區永豐街67號","121.473855","25.0186083333333","6500100","板橋區"
"220083","286-VK","2017/12/04 19:59:52","新北市板橋區僑中二街88巷11號","121.445833333333","25.0094016666667","6500100","板橋區"
"220081","287-VK","2017/12/04 19:59:49","新北市板橋區僑中一街80巷12弄1號","121.448096666667","25.013225","6500100","板橋區"
"220090","288-VK","2017/12/04 19:59:54","新北市板橋區綠堤街47號","121.455318333333","25.0259133333333","6500100","板橋區"
"220061","293-UM","2017/12/04 19:59:38","新北市板橋區觀光街3巷1號","121.471853333333","25.0157816666667","6500100","板橋區"
"220084","296-UM","2017/12/04 19:59:43","新北市板橋區板林路200號","121.424548333333","24.988405","6500100","板橋區"
"220075","297-UM","2017/12/04 19:59:51","新北市板橋區金華街10巷78號","121.457758333333","25.0203166666667","6500100","板橋區"
"220062","305-R5","2017/12/04 19:59:34","新北市板橋區中山路二段416巷57弄2號","121.482963333333","25.018915","6500100","板橋區"
"220092","307-R5","2017/12/04 19:59:41","新北市板橋區互助街79號","121.460093333333","25.0260416666667","6500100","板橋區"
"220098","317-R6","2017/12/04 19:59:47","新北市板橋區漢生西路165巷7號","121.462623333333","25.0232466666667","6500100","板橋區"
"220064","486-VK","2017/12/04 19:59:48","新北市板橋區漢生東路193巷23-4號","121.4709","25.0121883333333","6500100","板橋區"
"220089","487-VK","2017/12/04 19:59:38","新北市板橋區新海路385巷32號","121.457443333333","25.025465","6500100","板橋區"
"242009","280-VK","2017/12/04 19:59:40","新北市新莊區昌盛街4號","121.453071666667","25.0499983333333","6500500","新莊區"
"220088","491-VK","2017/12/04 19:59:40","新北市板橋區懷德街189-1號","121.479798333333","25.029585","6500100","板橋區"
"220035","560-BX","2017/12/04 19:59:45","新北市板橋區新生街36號","121.456406666667","25.02108","6500100","板橋區"
"220103","561-BX","2017/12/04 19:59:51","新北市板橋區自由路13號","121.465495","25.0227166666667","6500100","板橋區"
"220063","609-BX","2017/12/04 19:59:53","新北市板橋區中山路二段87號","121.474058333333","25.0158283333333","6500100","板橋區"
"220057","686-BX","2017/12/04 19:59:48","新北市板橋區信義路19號","121.457041666667","24.996585","6500100","板橋區"
"220093","689-BX","2017/12/04 19:59:50","新北市板橋區文化路二段656號","121.478831666667","25.035745","6500100","板橋區"
"220054","741-BX","2017/12/04 19:59:46","新北市板橋區國泰街75巷28弄76號","121.467138333333","25.0042816666667","6500100","板橋區"
"220055","827-TW","2017/12/04 19:59:37","新北市板橋區仁愛路62巷17弄1號","121.46006","24.99823","6500100","板橋區"
"220067","829-TW","2017/12/04 19:59:55","新北市板橋區漢生東路181號","121.469758333333","25.01169","6500100","板橋區"
"220096","831-TW","2017/12/04 19:59:34","新北市板橋區莒光路133巷7弄2號","121.472566666667","25.0243716666667","6500100","板橋區"
"220074","895-R6","2017/12/04 19:59:42","新北市板橋區府中路29-1號","121.458681666667","25.0081966666667","6500100","板橋區"
"220073","985-R7","2017/12/04 19:59:45","新北市板橋區南雅西路二段200號","121.451776666667","25.0147616666667","6500100","板橋區"
"220097","AAC-210","2017/12/04 19:59:52","新北市板橋區光正街30號","121.462188333333","25.01725","6500100","板橋區"
"220070","AAC-253","2017/12/04 19:59:45","新北市板橋區成都街10號","121.460265","25.0047283333333","6500100","板橋區"
