"lineid","car","time","location","longitude","latitude","cityid","cityname"
"234046","148-BY","2017/12/04 20:07:42","新北市永和區成功路二段87號","121.52693","24.999395","6500400","永和區"
"234013","149-BY","2017/12/04 20:15:36","新北市永和區永貞路424號","121.508185","25.0086533333333","6500400","永和區"
"234007","207-UY","2017/12/04 20:25:14","新北市永和區環河西路二段229巷5號","121.501276666667","25.0097666666667","6500400","永和區"
"234081","298-R6","2017/12/04 20:07:28","新北市永和區國中路109巷5弄1號","121.52374","25.0053966666667","6500400","永和區"
"234038","336-UY","2017/12/04 20:04:52","新北市永和區成功路二段119號","121.526703333333","24.9985833333333","6500400","永和區"
"234064","337-UY","2017/12/04 20:11:01","新北市永和區永元路95號","121.522266666667","25.0018116666667","6500400","永和區"
"234086","338-UY","2017/12/04 20:09:43","新北市永和區福和路199號","121.51947","25.0075816666667","6500400","永和區"
"234070","552-UM","2017/12/04 20:13:37","新北市永和區永亨路31號","121.519731666667","25.0062083333333","6500400","永和區"
"234054","553-UM","2017/12/04 20:12:38","新北市永和區博愛街9號","121.517071666667","25.01584","6500400","永和區"
"234017","745-BX","2017/12/04 20:13:22","新北市永和區文化路66號","121.514343333333","25.0151616666667","6500400","永和區"
"234030","746-BX","2017/12/04 20:09:48","新北市永和區民權路49巷5弄11號","121.520616666667","24.997565","6500400","永和區"
"234061","AAD-866","2017/12/04 20:10:51","新北市永和區中正路226號","121.515988333333","24.9978666666667","6500400","永和區"
"234040","862-TW","2017/12/04 20:06:18","新北市永和區雙和街16巷20號","121.509886666667","25.0028566666667","6500400","永和區"
"234050","863-TW","2017/12/04 20:07:55","新北市永和區保安路292號","121.505143333333","25.011905","6500400","永和區"
"234011","9373-KE","2017/12/04 20:20:15","新北市永和區保生路55號","121.50443","25.0108733333333","6500400","永和區"
"249005","172-UM","2017/12/04 20:14:12","新北市八里區下罟子58-3號","121.388993333333","25.1386783333333","6502300","八里區"
"249001","173-UM","2017/12/04 20:16:06","新北市八里區中華路二段341號","121.401146666667","25.14608","6502300","八里區"
"249004","303-UY","2017/12/04 20:22:44","新北市八里區中山路一段129巷5號","121.413606666667","25.1589983333333","6502300","八里區"
"249002","305-UY","2017/12/04 20:15:55","新北市八里區龍米路一段100巷3號","121.45349","25.1250633333333","6502300","八里區"
"249003","759-BX","2017/12/04 20:13:14","新北市八里區中山路二段540巷9弄22號","121.396498333333","25.1466016666667","6502300","八里區"
"248016","026-BX","2017/12/04 20:17:11","新北市五股區天乙路34號","121.448435","25.10349","6501500","五股區"
"248008","095-VK","2017/12/04 20:13:31","新北市五股區中興路一段171巷65號","121.46505","25.07096","6501500","五股區"
"248018","225-UY","2017/12/04 20:18:32","新北市五股區中興路三段163號","121.448621666667","25.0805283333333","6501500","五股區"
"248012","247-BX","2017/12/04 20:17:46","新北市五股區六合街42號","121.432788333333","25.0893683333333","6501500","五股區"
"248014","261-SL","2017/12/04 20:18:42","新北市五股區凌雲路二段18巷62-2號","121.442596666667","25.1066316666667","6501500","五股區"
"248010","272-BY","2017/12/04 20:14:26","新北市五股區成泰路一段2-9號","121.434215","25.0671466666667","6501500","五股區"
"248004","677-BX","2017/12/04 20:11:38","新北市五股區成泰路一段141號","121.435485","25.0729683333333","6501500","五股區"
"248002","678-BX","2017/12/04 20:13:14","新北市五股區成泰路三段280號","121.447315","25.0940566666667","6501500","五股區"
"234023","9380-KE","2017/12/04 20:11:20","新北市永和區中正路662巷12號","121.51762","25.0087783333333","6500400","永和區"
"234077","969-R7","2017/12/04 20:06:52","新北市永和區智光街101號","121.516325","24.9968183333333","6500400","永和區"
"234074","AAC-211","2017/12/04 20:10:44","新北市永和區竹林路159號","121.520541666667","25.01029","6500400","永和區"
"234067","AAC-212","2017/12/04 20:10:05","新北市永和區保平路236巷12弄4號","121.508716666667","25.0065116666667","6500400","永和區"
"234003","AAC-295","2017/12/04 20:07:02","新北市永和區中正路652號","121.516845","25.0084","6500400","永和區"
"244018","403-UM","2017/12/04 20:26:34","新北市八里區中山路三段409號","121.368466666667","25.1352583333333","6501700","林口區"
"243011","267-VK","2017/12/04 20:19:42","新北市新莊區壽山路160巷21號","121.4174","25.0318866666667","6501600","泰山區"
"243012","AAD-798","2017/12/04 20:10:19","新北市泰山區楓江路81號","121.436836666667","25.0634033333333","6501600","泰山區"
"243009","297-R6","2017/12/04 20:08:05","新北市泰山區泰林路二段114號","121.434788333333","25.0593383333333","6501600","泰山區"
"243015","380-SR","2017/12/04 20:11:29","新北市泰山區明志路二段8號","121.430003333333","25.05361","6501600","泰山區"
"243014","421-VK","2017/12/04 20:09:12","新北市泰山區明志路一段24-1號","121.433623333333","25.065595","6501600","泰山區"
"243010","KEA-2215","2017/12/04 20:13:29","新北市泰山區明志路二段214巷16弄43號","121.42664","25.0504316666667","6501600","泰山區"
"243013","646-TV","2017/12/04 20:14:12","新北市泰山區新民路14巷11弄1號","121.426241666667","25.044305","6501600","泰山區"
"243016","680-BX","2017/12/04 20:17:08","新北市泰山區明志路三段297號","121.422771666667","25.0362933333333","6501600","泰山區"
"222003","436-BY","2017/12/04 20:13:17","新北市深坑區埔新街87號","121.6197","25.0022016666667","6501800","深坑區"
"222002","659-BX","2017/12/04 20:20:52","新北市深坑區萬福路75巷36號","121.598633333333","25.0097216666667","6501800","深坑區"
"231041","001-UM","2017/12/04 20:12:52","新北市新店區民權路129-1號","121.535538333333","24.9828033333333","6500600","新店區"
"231059","046-UY","2017/12/04 20:15:50","新北市新店區安德街117號","121.50927","24.9607633333333","6500600","新店區"
"231061","047-UY","2017/12/04 20:28:10","新北市新店區安興路69號","121.515951666667","24.9751666666667","6500600","新店區"
"231060","106-UY","2017/12/04 20:11:01","新北市新店區安康路三段456號","121.484311666667","24.9512216666667","6500600","新店區"
"231051","107-UY","2017/12/04 20:24:49","新北市新店區溪園路455號","121.525051666667","24.97749","6500600","新店區"
"231047","108-UY","2017/12/04 20:22:05","新北市新店區中興路三段252號","121.542823333333","24.9840716666667","6500600","新店區"
"231052","187-VK","2017/12/04 20:21:29","新北市新店區新烏路二段301號","121.549461666667","24.9115416666667","6500600","新店區"
"231050","KEA-2219","2017/12/04 20:27:10","新北市新店區博愛街6巷1號","121.541098333333","24.9733166666667","6500600","新店區"
"231057","256-BX","2017/12/04 20:15:13","新北市新店區花園五路一段2巷8號","121.552475","24.933515","6500600","新店區"
"231063","268-BY","2017/12/04 20:28:28","新北市新店區安康路二段458號","121.49408","24.954","6500600","新店區"
"231054","AAD-862","2017/12/04 20:09:14","新北市新店區光明街290號","121.540491666667","24.9646366666667","6500600","新店區"
"231056","3713-VJ","2017/12/04 20:13:41","新北市新店區北新路二段29巷1弄2號","121.542466666667","24.9725666666667","6500600","新店區"
"231055","4716-K9","2017/12/04 20:16:55","新北市新店區北新路一段297巷37號","121.540321666667","24.96847","6500600","新店區"
"231067","4772-VM","2017/12/04 20:24:12","新北市新店區溪洲路8巷18號","121.533495","24.9617783333333","6500600","新店區"
"231065","512-UM","2017/12/04 20:23:16","新北市新店區安祥路104巷6弄36號","121.483085","24.9629466666667","6500600","新店區"
"231064","515-UM","2017/12/04 20:24:06","新北市新店區安和路二段192號","121.518985","24.974545","6500600","新店區"
"231042","616-UM","2017/12/04 20:14:38","新北市新店區中興路二段231-2號","121.547855","24.97503","6500600","新店區"
"231040","619-UM","2017/12/04 20:15:46","新北市新店區北新路二段2號","121.54287","24.970615","6500600","新店區"
"231068","718-UY","2017/12/04 20:20:47","新北市新店區寶安街30-1號","121.542123333333","24.982405","6500600","新店區"
"231049","719-UM","2017/12/04 20:08:10","新北市新店區北新路二段139巷5號","121.54224","24.9755366666667","6500600","新店區"
"231062","720-UM","2017/12/04 20:25:14","新北市新店區安泰路12巷6號","121.485593333333","24.9504533333333","6500600","新店區"
"231044","897-TW","2017/12/04 20:18:18","新北市新店區北新路三段165號","121.54108","24.9838666666667","6500600","新店區"
"231045","898-TW","2017/12/04 20:12:19","新北市新店區北宜路一段69號","121.538453333333","24.9564416666667","6500600","新店區"
"231043","899-TW","2017/12/04 20:14:28","新北市新店區民族路108號","121.538165","24.9772","6500600","新店區"
"231066","AKT-0513","2017/12/04 20:28:37","新北市新店區安興路105-1號","121.514681666667","24.9777416666667","6500600","新店區"
"241028","022-UY","2017/12/04 20:08:25","新北市三重區仁化街174號","121.494788333333","25.057085","6500200","三重區"
"241008","059-VK","2017/12/04 20:18:22","新北市三重區永福街211巷12號","121.479428333333","25.07406","6500200","三重區"
"241009","060-VK","2017/12/04 20:24:26","新北市三重區三和路四段382巷25號","121.481728333333","25.07867","6500200","三重區"
"241031","061-VK","2017/12/04 20:20:42","新北市三重區三寧街15號","121.489463333333","25.0597966666667","6500200","三重區"
"241015","062-VK","2017/12/04 20:14:56","新北市三重區重新路一段58號","121.502215","25.06378","6500200","三重區"
"241017","063-VK","2017/12/04 20:28:03","新北市三重區自強路一段288號","121.491561666667","25.0682583333333","6500200","三重區"
"241024","065-VK","2017/12/04 20:19:45","新北市三重區忠孝路三段15巷9號","121.481261666667","25.0675283333333","6500200","三重區"
"241026","066-VK","2017/12/04 20:19:04","新北市三重區中央南路26號","121.501308333333","25.0623883333333","6500200","三重區"
"241002","090-VK","2017/12/04 20:20:41","新北市三重區仁義街101巷2號","121.497671666667","25.0800266666667","6500200","三重區"
"241003","091-VK","2017/12/04 20:22:29","新北市三重區五華街103號","121.491698333333","25.083885","6500200","三重區"
"241004","156-TC","2017/12/04 20:15:48","新北市三重區溪尾街101號","121.489951666667","25.07833","6500200","三重區"
"241005","262-UM","2017/12/04 20:23:53","新北市三重區碧華街268號","121.488298333333","25.0829316666667","6500200","三重區"
"241011","265-UM","2017/12/04 20:09:41","新北市三重區仁愛街32號","121.496315","25.0717333333333","6500200","三重區"
"241016","266-UM","2017/12/04 20:19:17","新北市三重區大同北路54巷1號","121.494263333333","25.06355","6500200","三重區"
"241022","267-UM","2017/12/04 20:19:03","新北市三重區明志街135號","121.48917","25.063225","6500200","三重區"
"241018","268-UM","2017/12/04 20:23:44","新北市三重區雙園街51號","121.495175","25.0676983333333","6500200","三重區"
"241032","269-UM","2017/12/04 20:18:32","新北市三重區捷運路19巷6弄5號","121.484738333333","25.056955","6500200","三重區"
"241013","270-UM","2017/12/04 20:17:42","新北市三重區三和路三段167巷1號","121.492005","25.0740816666667","6500200","三重區"
"241025","271-UM","2017/12/04 20:11:10","新北市三重區中正北路193巷39號","121.475716666667","25.0709283333333","6500200","三重區"
"241007","398-BY","2017/12/04 20:24:16","新北市三重區溪尾街110號","121.489438333333","25.0788816666667","6500200","三重區"
"241030","KEA-2210","2017/12/04 20:19:36","新北市三重區集美街75巷10號","121.488151666667","25.05312","6500200","三重區"
"241020","413-TH","2017/12/04 20:18:09","新北市三重區忠孝路一段21巷5弄1號","121.491808333333","25.0723766666667","6500200","三重區"
"241035","462-BY","2017/12/04 20:23:01","新北市三重區重新路一段137號","121.499833333333","25.0630983333333","6500200","三重區"
"241019","478-VK","2017/12/04 20:24:20","新北市三重區忠孝路一段35號","121.491268333333","25.071935","6500200","三重區"
"241014","543-UM","2017/12/04 20:22:54","新北市三重區龍濱路190號","121.50114","25.0732416666667","6500200","三重區"
"241023","545-UM","2017/12/04 20:18:00","新北市三重區頂崁街199號","121.477631666667","25.0668066666667","6500200","三重區"
"241001","547-UM","2017/12/04 20:15:43","新北市三重區三和路四段91號","121.48885","25.0755566666667","6500200","三重區"
"241006","887-TS","2017/12/04 20:19:23","新北市三重區車路頭街139巷14號","121.484283333333","25.0762066666667","6500200","三重區"
"241012","941-UM","2017/12/04 20:19:43","新北市三重區河邊北街266號","121.501663333333","25.0764716666667","6500200","三重區"
"241029","942-UM","2017/12/04 20:19:41","新北市三重區光明路114號","121.492728333333","25.0561066666667","6500200","三重區"
"241033","AAC-255","2017/12/04 20:20:52","新北市三重區五谷王北街50巷10號","121.475715","25.051415","6500200","三重區"
"235066","003-UY","2017/12/04 20:22:47","新北市中和區光華街31巷26號","121.505661666667","25.0050016666667","6500300","中和區"
"235047","031-BX","2017/12/04 20:25:00","新北市新店區安興路83-3號","121.515433333333","24.97555","6500300","中和區"
"235039","097-UM","2017/12/04 20:19:08","新北市中和區大勇街25巷9弄1號","121.5168","24.993255","6500300","中和區"
"235065","098-UM","2017/12/04 20:18:57","新北市中和區永和路128巷47號","121.497726666667","25.006905","6500300","中和區"
"235055","183-VK","2017/12/04 20:13:34","新北市板橋區民生路三段120-2號","121.466296666667","25.026485","6500300","中和區"
"235050","4979-A6","2017/12/04 20:13:33","新北市中和區景新街302號","121.511275","24.9918766666667","6500300","中和區"
"235069","4980-A6","2017/12/04 20:23:53","新北市中和區中正路448號","121.490916666667","24.99423","6500300","中和區"
"235054","640-BX","2017/12/04 20:19:37","新北市五股區五工一路103號","121.458576666667","25.0694","6500300","中和區"
"235041","802-TS","2017/12/04 20:26:50","新北市五股區成泰路三段358號","121.451115","25.0980433333333","6500300","中和區"
"235059","AAC-215","2017/12/04 20:19:27","新北市中和區員山路30-1號","121.483445","24.9878783333333","6500300","中和區"
"220068","013-TV","2017/12/04 18:59:19","新北市板橋區縣民大道三段136號","121.474741666667","25.0209","6500100","板橋區"
"220065","072-UY","2017/12/04 20:06:55","新北市板橋區長安街5號","121.46608","25.0086433333333","6500100","板橋區"
"220106","075-UY","2017/12/04 20:04:25","新北市板橋區懷德街55號","121.477305","25.0327983333333","6500100","板橋區"
"220069","AAD-861","2017/12/04 20:07:58","新北市板橋區貴興路57號","121.45737","25.0030883333333","6500100","板橋區"
"220102","120-SR","2017/12/04 20:19:00","新北市板橋區漢生東路5號","121.464578333333","25.0175","6500100","板橋區"
"247022","893-R6","2017/12/04 20:17:39","新北市蘆洲區民族路451號","121.467396666667","25.08866","6501400","蘆洲區"
"247012","546-UM","2017/12/04 20:12:08","新北市蘆洲區復興路258巷2弄9號","121.479661666667","25.08897","6501400","蘆洲區"
"247020","500-BY","2017/12/04 20:17:12","新北市蘆洲區仁愛街65號","121.471716666667","25.0935583333333","6501400","蘆洲區"
"247008","341-TH","2017/12/04 20:18:43","新北市蘆洲區集賢路300號","121.481581666667","25.0852933333333","6501400","蘆洲區"
"247010","339-TH","2017/12/04 20:21:23","新北市蘆洲區信義路257號","121.478898333333","25.0846683333333","6501400","蘆洲區"
"247002","337-TH","2017/12/04 20:23:19","新北市蘆洲區長安街331巷30號","121.456143333333","25.0866183333333","6501400","蘆洲區"
"247004","336-TH","2017/12/04 20:10:43","新北市蘆洲區長安街267巷27號","121.457256666667","25.0831366666667","6501400","蘆洲區"
"247024","335-TH","2017/12/04 20:11:58","新北市蘆洲區光明路139號","121.464123333333","25.0884816666667","6501400","蘆洲區"
"247016","057-VK","2017/12/04 20:18:48","新北市蘆洲區光華路150巷40號","121.464961666667","25.0835683333333","6501400","蘆洲區"
"247006","056-VK","2017/12/04 20:15:55","新北市蘆洲區九芎街153巷5號","121.465476666667","25.0789883333333","6501400","蘆洲區"
"247014","007-UY","2017/12/04 20:23:06","新北市蘆洲區中山一路287號","121.471741666667","25.0793066666667","6501400","蘆洲區"
"226004","312-R5","2017/12/04 20:02:52","新北市平溪區嶺腳里田子22號","121.747028333333","25.0281683333333","6502400","平溪區"
"223002","198-BX","2017/12/04 11:53:09","新北市石碇區小粗坑(潭邊里)9-2號","121.678773333333","24.98578","6501900","石碇區"
"227001","642-TC","2017/12/04 20:15:45","新北市雙溪區牡丹里下坑25號","121.850233333333","25.0566016666667","6502500","雙溪區"
"222001","KEA-2212","2017/12/04 20:18:45","新北市深坑區北深路三段217號","121.60027","25.0039833333333","6501800","深坑區"
"208002","742-BX","2017/12/04 20:02:45","新北市金山區環金路23號","121.639953333333","25.21742","6502700","金山區"
"208003","665-BX","2017/12/04 20:10:05","新北市金山區永興里跳石4號","121.633598333333","25.2548333333333","6502700","金山區"
"251004","009-UM","2017/12/04 20:16:11","新北市淡水區中正東路二段88巷37-21號","121.459801666667","25.1438816666667","6501000","淡水區"
"251008","181-VK","2017/12/04 20:15:01","新北市淡水區沙崙路131巷11號","121.42195","25.183","6501000","淡水區"
"251013","182-VK","2017/12/04 20:18:38","新北市淡水區奎柔山路752巷31號","121.47402","25.2053533333333","6501000","淡水區"
"251010","413-VK","2017/12/04 20:19:20","新北市淡水區新民街一段132號","121.427711666667","25.1888466666667","6501000","淡水區"
"251012","441-VK","2017/12/04 20:14:22","新北市淡水區淡金路三段306號","121.449066666667","25.2078833333333","6501000","淡水區"
"251015","442-VK","2017/12/04 20:22:36","新北市淡水區興仁路162號","121.451615","25.2206566666667","6501000","淡水區"
"251001","559-UM","2017/12/04 20:27:17","新北市淡水區中山北路二段191號","121.444258333333","25.1853533333333","6501000","淡水區"
"251006","561-UM","2017/12/04 20:26:04","新北市淡水區北新路一段403號","121.468185","25.1828083333333","6501000","淡水區"
"251002","672-BX","2017/12/04 20:13:29","新北市淡水區中正路246號","121.43895","25.1710783333333","6501000","淡水區"
"251003","766-UM","2017/12/04 20:09:06","新北市淡水區中山北路一段271號","121.444618333333","25.1812916666667","6501000","淡水區"
"207003","550-UM","2017/12/04 20:12:27","新北市萬里區大鵬里萬里加投99號","121.646125","25.2127966666667","6502800","萬里區"
"207004","225-TW","2017/12/04 20:04:16","新北市萬里區北基里忠六街6號","121.684998333333","25.17688","6502800","萬里區"
"252002","178-VK","2017/12/04 20:15:19","新北市三芝區三民街8巷6號","121.503886666667","25.2582916666667","6502100","三芝區"
"252001","292-VK","2017/12/04 20:23:15","新北市三芝區中山路一段35號","121.500653333333","25.2579966666667","6502100","三芝區"
"237006","5529-G3","2017/12/04 20:14:44","新北市三峽區嘉添159號","121.36902","24.9118766666667","6500900","三峽區"
"237005","AKY-6261","2017/12/04 20:21:19","新北市三峽區三樹路98巷91號","121.381998333333","24.93994","6500900","三峽區"
"236069","105-UM","2017/12/04 20:20:10","新北市土城區福安街44號","121.41895","24.9648566666667","6501300","土城區"
"236042","107-UM","2017/12/04 20:20:56","新北市土城區裕民路10號","121.44735","24.9888366666667","6501300","土城區"
"236078","166-UM","2017/12/04 20:11:46","新北市土城區中山路45-1號","121.420438333333","24.962795","6501300","土城區"
"236030","253-BX","2017/12/04 20:09:43","新北市土城區中央路一段143巷1號","121.446971666667","24.9878416666667","6501300","土城區"
"236026","269-VK","2017/12/04 20:05:44","新北市土城區明德路二段102巷9號","121.445488333333","24.9845516666667","6501300","土城區"
"236014","270-VK","2017/12/04 20:06:40","新北市土城區廣明街18號","121.455841666667","24.9922433333333","6501300","土城區"
"236036","271-VK","2017/12/04 20:11:15","新北市土城區明德路一段48巷12號","121.464641666667","24.98379","6501300","土城區"
"236020","401-BY","2017/12/04 20:14:53","新北市土城區延吉街87巷7號","121.472306666667","24.9868183333333","6501300","土城區"
"236058","912-UM","2017/12/04 20:11:06","新北市土城區中央路二段35號","121.442773333333","24.97999","6501300","土城區"
"236048","913-UM","2017/12/04 20:16:17","新北市土城區明德路一段398號","121.452978333333","24.9796616666667","6501300","土城區"
"236053","AAC-216","2017/12/04 20:10:27","新北市土城區中華路一段28號","121.447166666667","24.9899866666667","6501300","土城區"
"242031","AAC-296","2017/12/04 20:09:04","新北市新莊區忠孝街29巷26號","121.443688333333","25.03663","6500500","新莊區"
"242029","986-R7","2017/12/04 20:14:25","新北市新莊區中榮街103號","121.444791666667","25.0528","6500500","新莊區"
"242050","751-BX","2017/12/04 20:03:53","新北市新莊區民安西路150巷5號","121.42569","25.016545","6500500","新莊區"
"242025","615-BX","2017/12/04 20:02:20","新北市新莊區五工一路86號","121.461348333333","25.0675033333333","6500500","新莊區"
"242023","613-BX","2017/12/04 20:02:31","新北市新莊區化成路384號","121.46593","25.0502033333333","6500500","新莊區"
"242027","612-BX","2017/12/04 20:16:51","新北市新莊區幸福路610號","121.451768333333","25.049225","6500500","新莊區"
"242039","566-BX","2017/12/04 20:14:30","新北市新莊區龍安路497號","121.425976666667","25.0180166666667","6500500","新莊區"
"242044","497-BY","2017/12/04 20:09:48","新北市新莊區中正路895-45號","121.412311666667","25.021335","6500500","新莊區"
"242053","442-UM","2017/12/04 20:12:03","新北市新莊區西盛街380號","121.42792","25.0130583333333","6500500","新莊區"
"242048","441-UM","2017/12/04 20:12:41","新北市新莊區四維路182巷8號","121.421836666667","25.0218183333333","6500500","新莊區"
"242034","415-TV","2017/12/04 20:10:20","新北市新莊區中正路318巷18號","121.446365","25.03604","6500500","新莊區"
"242004","413-TV","2017/12/04 20:13:57","新北市新莊區中原東路99號","121.461823333333","25.0536533333333","6500500","新莊區"
"242042","400-BY","2017/12/04 20:13:51","新北市新莊區壽山路55號","121.41261","25.031335","6500500","新莊區"
"242060","362-BY","2017/12/04 20:09:19","新北市新莊區瓊林路瓊英巷3號","121.44368","25.0273733333333","6500500","新莊區"
"242058","353-BY","2017/12/04 20:08:10","新北市新莊區龍安路327號","121.422083333333","25.01944","6500500","新莊區"
"242036","133-UY","2017/12/04 20:10:07","新北市新莊區後港一路130巷47號","121.43004","25.025655","6500500","新莊區"
"242021","135-UY","2017/12/04 20:07:29","新北市新莊區建中街48巷10弄4號","121.448246666667","25.0383366666667","6500500","新莊區"
"242046","172-VK","2017/12/04 20:16:31","新北市新莊區裕民街132號","121.418056666667","25.0222666666667","6500500","新莊區"
"242002","173-VK","2017/12/04 20:02:27","新北市新莊區中正路261號","121.449721666667","25.0354733333333","6500500","新莊區"
"242015","175-VK","2017/12/04 20:07:45","新北市新莊區中平路26巷24號","121.445716666667","25.0432933333333","6500500","新莊區"
"242013","346-TH","2017/12/04 20:10:43","新北市新莊區幸福路710巷1弄14號","121.449036666667","25.0497033333333","6500500","新莊區"
"242007","347-TH","2017/12/04 20:15:16","新北市新莊區思源路419巷1弄13號","121.459268333333","25.0520533333333","6500500","新莊區"
"242019","348-TH","2017/12/04 20:07:46","新北市新莊區思源路123號","121.459745","25.0424383333333","6500500","新莊區"
"242056","349-TH","2017/12/04 20:10:13","新北市新莊區新莊路649巷15弄18-1號","121.445303333333","25.0315183333333","6500500","新莊區"
"242017","350-TH","2017/12/04 20:09:21","新北市新莊區中港路352號","121.451835","25.04649","6500500","新莊區"
"242011","351-TH","2017/12/04 20:07:03","新北市新莊區中和街208號","121.447855","25.0506116666667","6500500","新莊區"
"238021","KEA-2217","2017/12/04 20:14:47","新北市樹林區田尾街192巷10號","121.40014","24.94946","6500700","樹林區"
"238026","308-TH","2017/12/04 13:30:28","新北市樹林區育德街76巷1號","121.38876","24.9683033333333","6500700","樹林區"
"221008","489-VK","2017/12/04 20:20:35","新北市汐止區康寧街227號","121.623443333333","25.0669","6501100","汐止區"
"221036","130-UY","2017/12/04 20:09:48","新北市汐止區新台五路二段27號","121.662845","25.0662033333333","6501100","汐止區"
"221010","269-BY","2017/12/04 20:14:56","新北市汐止區八連路一段317號","121.639591666667","25.0862866666667","6501100","汐止區"
"221012","278-VK","2017/12/04 20:13:54","新北市汐止區汐平路二段72號","121.699368333333","25.0606566666667","6501100","汐止區"
"221023","279-VK","2017/12/04 20:20:31","新北市汐止區明峰街132號","121.629853333333","25.0708683333333","6501100","汐止區"
"221032","280-BY","2017/12/04 20:17:27","新北市汐止區弘道街10號","121.616975","25.0486583333333","6501100","汐止區"
"221027","281-BY","2017/12/04 20:18:11","新北市汐止區光明街21號","121.660426666667","25.06858","6501100","汐止區"
"221029","298-VK","2017/12/04 20:27:20","新北市汐止區樟樹一路129巷32號","121.640605","25.0650966666667","6501100","汐止區"
"221021","299-VK","2017/12/04 20:25:28","新北市汐止區水源路一段284號","121.65426","25.0583233333333","6501100","汐止區"
"221031","353-TW","2017/12/04 20:19:04","新北市汐止區原興路60巷8-1號","121.633211666667","25.0656833333333","6501100","汐止區"
"221015","567-BX","2017/12/04 20:21:38","新北市汐止區建成路160巷23號","121.661736666667","25.07397","6501100","汐止區"
"221035","622-UM","2017/12/04 20:23:39","新北市汐止區長江街101-5號","121.658721666667","25.073205","6501100","汐止區"
"221025","623-UM","2017/12/04 20:12:31","新北市汐止區仁愛路1-2號","121.65899","25.0646066666667","6501100","汐止區"
"221038","646-BX","2017/12/04 20:24:05","新北市汐止區忠孝東路476-1號","121.666131666667","25.0735883333333","6501100","汐止區"
"221033","647-BX","2017/12/04 20:25:31","新北市汐止區林森街132巷7號","121.624968333333","25.0402133333333","6501100","汐止區"
"221002","707-TV","2017/12/04 20:20:00","新北市汐止區福德三路26號","121.636803333333","25.0694933333333","6501100","汐止區"
"221018","753-BX","2017/12/04 20:28:05","新北市汐止區茄苳路225巷1號","121.67107","25.068925","6501100","汐止區"
"220082","610-BX","2017/12/04 20:11:22","新北市板橋區金門街306號","121.428971666667","24.9854483333333","6500100","板橋區"
"220072","277-BY","2017/12/04 20:16:43","新北市板橋區大觀路一段28巷1弄57-3號","121.451823333333","25.0070966666667","6500100","板橋區"
"220101","280-UM","2017/12/04 20:12:28","新北市板橋區莒光路171巷1弄16號","121.474478333333","25.0246266666667","6500100","板橋區"
"220071","283-VK","2017/12/04 20:06:21","新北市板橋區和平路174巷28號","121.464613333333","24.9945","6500100","板橋區"
"220053","285-VK","2017/12/04 20:07:21","新北市板橋區懷仁街58號","121.476898333333","25.018895","6500100","板橋區"
"220083","286-VK","2017/12/04 20:10:50","新北市板橋區僑中二街100巷38號","121.444455","25.0087266666667","6500100","板橋區"
"220081","287-VK","2017/12/04 20:14:29","新北市板橋區僑中一街102巷5弄2號","121.446796666667","25.01263","6500100","板橋區"
"220090","288-VK","2017/12/04 20:05:34","新北市板橋區幸福路32巷4弄7號","121.46112","25.021535","6500100","板橋區"
"220061","293-UM","2017/12/04 20:06:58","新北市板橋區觀光街61號","121.470393333333","25.0162533333333","6500100","板橋區"
"220062","305-R5","2017/12/04 20:07:14","新北市板橋區萬安街20巷4弄11號","121.485195","25.0229733333333","6500100","板橋區"
"220092","307-R5","2017/12/04 20:08:21","新北市板橋區文化路一段81巷7號","121.460496666667","25.01417","6500100","板橋區"
"220098","317-R6","2017/12/04 20:12:07","新北市板橋區新海路72巷5弄34號","121.461576666667","25.022975","6500100","板橋區"
"220089","487-VK","2017/12/04 20:02:18","新北市板橋區新海路385巷34弄12號","121.457103333333","25.0259783333333","6500100","板橋區"
"242009","280-VK","2017/12/04 20:08:40","新北市新莊區昌隆街30號","121.454105","25.050675","6500500","新莊區"
"220088","491-VK","2017/12/04 20:09:40","新北市板橋區民治街85號","121.479488333333","25.0321133333333","6500100","板橋區"
"220035","560-BX","2017/12/04 20:10:25","新北市板橋區新生街22號","121.45584","25.021135","6500100","板橋區"
"220103","561-BX","2017/12/04 20:15:11","新北市板橋區英士路58巷5號","121.460725","25.0250916666667","6500100","板橋區"
"220057","686-BX","2017/12/04 20:02:28","新北市板橋區四川路二段2號","121.45667","24.9966816666667","6500100","板橋區"
"220093","689-BX","2017/12/04 20:04:10","新北市板橋區長江路二段320號","121.471683333333","25.033525","6500100","板橋區"
"220054","741-BX","2017/12/04 20:08:22","新北市板橋區忠孝路忠義巷3弄16號","121.465365","25.0039833333333","6500100","板橋區"
"220055","827-TW","2017/12/04 20:03:07","新北市板橋區仁愛路62巷11號","121.45998","24.9987733333333","6500100","板橋區"
"220067","829-TW","2017/12/04 20:10:19","新北市板橋區中山路一段208號","121.469941666667","25.0136883333333","6500100","板橋區"
"220074","895-R6","2017/12/04 20:06:02","新北市板橋區縣民大道一段312號","121.46148","25.0109616666667","6500100","板橋區"
"220073","985-R7","2017/12/04 20:04:42","新北市板橋區南雅西路二段82號","121.45255","25.0109016666667","6500100","板橋區"
"220097","AAC-210","2017/12/04 20:04:12","新北市板橋區漢生西路33號","121.463143333333","25.0184066666667","6500100","板橋區"
"220070","AAC-253","2017/12/04 20:14:25","新北市板橋區四川路二段245巷35號","121.45165","24.9927166666667","6500100","板橋區"
