"lineid","car","time","location","longitude","latitude","cityid","cityname"
"234046","148-BY","2017/12/04 20:07:42","新北市永和區成功路二段87號","121.52693","24.999395","6500400","永和區"
"234013","149-BY","2017/12/04 20:21:56","新北市永和區保生路40巷1號","121.505853333333","25.00828","6500400","永和區"
"234081","298-R6","2017/12/04 20:10:48","新北市永和區永亨路98號","121.523081666667","25.0048866666667","6500400","永和區"
"234038","336-UY","2017/12/04 20:11:32","新北市永和區成功路一段71號","121.526991666667","25.0033116666667","6500400","永和區"
"234064","337-UY","2017/12/04 20:18:21","新北市永和區得和路129號","121.519036666667","25.0002183333333","6500400","永和區"
"234086","338-UY","2017/12/04 20:11:43","新北市永和區中正路529號","121.516843333333","25.0077116666667","6500400","永和區"
"234070","552-UM","2017/12/04 20:20:37","新北市永和區福和路263巷7弄1號","121.517928333333","25.0069033333333","6500400","永和區"
"234054","553-UM","2017/12/04 20:12:38","新北市永和區博愛街9號","121.517071666667","25.01584","6500400","永和區"
"234017","745-BX","2017/12/04 20:16:42","新北市永和區文化路7號","121.515418333333","25.0149683333333","6500400","永和區"
"234030","746-BX","2017/12/04 20:12:08","新北市永和區民權路49巷5弄33號","121.521643333333","24.99788","6500400","永和區"
"234061","AAD-866","2017/12/04 20:10:51","新北市永和區中正路226號","121.515988333333","24.9978666666667","6500400","永和區"
"234040","862-TW","2017/12/04 20:09:38","新北市永和區雙和街50號","121.508935","25.0029883333333","6500400","永和區"
"234050","863-TW","2017/12/04 20:12:55","新北市永和區環河西路二段101號","121.506401666667","25.0147666666667","6500400","永和區"
"234011","9373-KE","2017/12/04 20:20:15","新北市永和區保生路55號","121.50443","25.0108733333333","6500400","永和區"
"249005","172-UM","2017/12/04 20:24:52","新北市八里區中山路三段131號","121.388541666667","25.1424366666667","6502300","八里區"
"249001","173-UM","2017/12/04 20:24:46","新北市八里區商港路26號","121.396643333333","25.14488","6502300","八里區"
"249004","303-UY","2017/12/04 20:29:44","新北市八里區中山路一段129巷45號","121.413873333333","25.1585633333333","6502300","八里區"
"249002","305-UY","2017/12/04 20:22:15","新北市八里區龍米路二段60巷5號","121.448473333333","25.1410933333333","6502300","八里區"
"249003","759-BX","2017/12/04 20:13:14","新北市八里區中山路二段540巷9弄22號","121.396498333333","25.1466016666667","6502300","八里區"
"248016","026-BX","2017/12/04 20:23:11","新北市五股區凌雲路三段17-2號","121.430096666667","25.108685","6501500","五股區"
"248008","095-VK","2017/12/04 20:13:31","新北市五股區中興路一段171巷65號","121.46505","25.07096","6501500","五股區"
"248012","247-BX","2017/12/04 20:28:27","新北市五股區新五路二段550號","121.442591666667","25.08504","6501500","五股區"
"248014","261-SL","2017/12/04 20:18:42","新北市五股區凌雲路二段18巷62-2號","121.442596666667","25.1066316666667","6501500","五股區"
"248010","272-BY","2017/12/04 20:18:26","新北市五股區成泰路一段110-7號","121.43558","25.072475","6501500","五股區"
"248004","677-BX","2017/12/04 20:11:38","新北市五股區成泰路一段141號","121.435485","25.0729683333333","6501500","五股區"
"248002","678-BX","2017/12/04 20:16:54","新北市五股區成泰路三段195號","121.445766666667","25.09236","6501500","五股區"
"234023","9380-KE","2017/12/04 20:11:20","新北市永和區中正路662巷12號","121.51762","25.0087783333333","6500400","永和區"
"234077","969-R7","2017/12/04 20:06:52","新北市永和區智光街101號","121.516325","24.9968183333333","6500400","永和區"
"234074","AAC-211","2017/12/04 20:21:24","新北市永和區竹林路201巷5號","121.521143333333","25.0092016666667","6500400","永和區"
"234067","AAC-212","2017/12/04 20:15:05","新北市永和區保平路214巷1弄11號","121.50913","25.005735","6500400","永和區"
"234003","AAC-295","2017/12/04 20:15:42","新北市永和區自強街2號","121.514006666667","25.008005","6500400","永和區"
"244018","403-UM","2017/12/04 20:37:14","新北市八里區長道坑16-3號","121.395103333333","25.1155166666667","6501700","林口區"
"243011","267-VK","2017/12/04 20:23:42","新北市泰山區德安街19-1號","121.41868","25.031465","6501600","泰山區"
"243012","AAD-798","2017/12/04 20:18:19","新北市泰山區楓江路81號","121.436748333333","25.06352","6501600","泰山區"
"243009","297-R6","2017/12/04 20:19:45","新北市泰山區泰林路二段292巷11號","121.431525","25.0633833333333","6501600","泰山區"
"243015","380-SR","2017/12/04 20:13:49","新北市泰山區明志路一段489號","121.430735","25.0552566666667","6501600","泰山區"
"243014","421-VK","2017/12/04 20:09:12","新北市泰山區明志路一段24-1號","121.433623333333","25.065595","6501600","泰山區"
"243010","KEA-2215","2017/12/04 20:17:09","新北市泰山區明志路二段254巷16弄23號","121.426475","25.048685","6501600","泰山區"
"243013","646-TV","2017/12/04 20:22:32","新北市泰山區中央路5巷14號","121.42703","25.0433816666667","6501600","泰山區"
"243016","680-BX","2017/12/04 20:18:08","新北市泰山區明志路三段239號","121.423571666667","25.0376966666667","6501600","泰山區"
"222003","436-BY","2017/12/04 20:24:57","新北市深坑區深坑街27號","121.615996666667","25.0023166666667","6501800","深坑區"
"222002","659-BX","2017/12/04 20:26:52","新北市深坑區萬福路16巷36-1號","121.61088","25.0080183333333","6501800","深坑區"
"231041","001-UM","2017/12/04 20:15:32","新北市新店區民權路63號","121.539145","24.9829033333333","6500600","新店區"
"231059","046-UY","2017/12/04 20:20:30","新北市新店區安德街151號","121.508431666667","24.95989","6500600","新店區"
"231061","047-UY","2017/12/04 20:33:10","新北市新店區新和街34號","121.519193333333","24.9847683333333","6500600","新店區"
"231060","106-UY","2017/12/04 20:30:01","新北市新店區錦秀路56號","121.478998333333","24.9432066666667","6500600","新店區"
"231051","107-UY","2017/12/04 20:33:29","新北市新店區中央七街36號","121.529093333333","24.975585","6500600","新店區"
"231047","108-UY","2017/12/04 20:31:45","新北市新店區寶慶街58巷12號","121.542046666667","24.9872583333333","6500600","新店區"
"231052","187-VK","2017/12/04 20:30:29","新北市新店區松林路38號","121.546226666667","24.91024","6500600","新店區"
"231050","KEA-2219","2017/12/04 20:35:10","新北市新店區建國路75號","121.540535","24.9760833333333","6500600","新店區"
"231057","256-BX","2017/12/04 20:21:13","新北市新店區花園五路二段27號","121.554745","24.93476","6500600","新店區"
"231063","268-BY","2017/12/04 20:28:28","新北市新店區安康路二段458號","121.49408","24.954","6500600","新店區"
"231054","AAD-862","2017/12/04 20:09:14","新北市新店區光明街290號","121.540491666667","24.9646366666667","6500600","新店區"
"231056","3713-VJ","2017/12/04 20:13:41","新北市新店區北新路二段29巷1弄2號","121.542466666667","24.9725666666667","6500600","新店區"
"231055","4716-K9","2017/12/04 20:23:35","新北市新店區中華路48巷3號","121.539916666667","24.9685616666667","6500600","新店區"
"231067","4772-VM","2017/12/04 20:24:12","新北市新店區溪洲路8巷18號","121.533495","24.9617783333333","6500600","新店區"
"231065","512-UM","2017/12/04 20:26:16","新北市新店區安祥路102巷30弄24號","121.48443","24.963635","6500600","新店區"
"231064","515-UM","2017/12/04 20:31:25","新北市新店區新和街59巷17號","121.519236666667","24.98597","6500600","新店區"
"231042","616-UM","2017/12/04 20:26:18","新北市新店區寶橋路156-1號","121.548586666667","24.9770016666667","6500600","新店區"
"231040","619-UM","2017/12/04 20:20:46","新北市新店區三民路39號","121.53725","24.9707966666667","6500600","新店區"
"231068","718-UY","2017/12/04 20:32:47","新北市新店區寶元路一段65號","121.542253333333","24.9857883333333","6500600","新店區"
"231049","719-UM","2017/12/04 20:15:10","新北市新店區北新路二段59巷9號","121.542546666667","24.97331","6500600","新店區"
"231062","720-UM","2017/12/04 20:33:54","新北市新店區安泰路60巷59號","121.484078333333","24.9451533333333","6500600","新店區"
"231044","897-TW","2017/12/04 20:22:38","新北市新店區北新路三段92號","121.541916666667","24.9808883333333","6500600","新店區"
"231045","898-TW","2017/12/04 20:18:39","新北市新店區新坡一街104號","121.54837","24.9640216666667","6500600","新店區"
"231043","899-TW","2017/12/04 20:15:48","新北市新店區民族路105號","121.538485","24.977485","6500600","新店區"
"231066","AKT-0513","2017/12/04 20:33:57","新北市新店區安興路105-1號","121.514671666667","24.9777416666667","6500600","新店區"
"241028","022-UY","2017/12/04 20:21:05","新北市三重區大同南路142號","121.49647","25.0579683333333","6500200","三重區"
"241008","059-VK","2017/12/04 20:24:42","新北市三重區車路頭街135-1號","121.484291666667","25.0760316666667","6500200","三重區"
"241009","060-VK","2017/12/04 20:38:06","新北市三重區三和路四段420-1號","121.480501666667","25.0799333333333","6500200","三重區"
"241031","061-VK","2017/12/04 20:29:02","新北市三重區三寧街15號","121.489456666667","25.05984","6500200","三重區"
"241015","062-VK","2017/12/04 20:26:16","新北市三重區文化北路24號","121.499166666667","25.0644683333333","6500200","三重區"
"241017","063-VK","2017/12/04 20:36:03","新北市三重區安慶街245號","121.490655","25.0677583333333","6500200","三重區"
"241024","065-VK","2017/12/04 20:21:25","新北市三重區忠孝路三段15巷19號","121.481016666667","25.0677","6500200","三重區"
"241026","066-VK","2017/12/04 20:26:44","新北市三重區環河南路6-1號","121.503863333333","25.0634133333333","6500200","三重區"
"241002","090-VK","2017/12/04 20:25:21","新北市三重區五華街21巷38號","121.495716666667","25.081125","6500200","三重區"
"241003","091-VK","2017/12/04 20:29:49","新北市三重區富華街198號","121.49318","25.0850233333333","6500200","三重區"
"241004","156-TC","2017/12/04 20:20:08","新北市三重區仁政街205號","121.490531666667","25.0805516666667","6500200","三重區"
"241005","262-UM","2017/12/04 20:35:53","新北市三重區碧華街416號","121.49221","25.0851833333333","6500200","三重區"
"241011","265-UM","2017/12/04 20:23:41","新北市三重區龍門路102號","121.497551666667","25.0727933333333","6500200","三重區"
"241016","266-UM","2017/12/04 20:26:17","新北市三重區大同北路71號","121.495305","25.06379","6500200","三重區"
"241022","267-UM","2017/12/04 20:25:43","新北市三重區新北大道一段66號","121.487213333333","25.0614416666667","6500200","三重區"
"241018","268-UM","2017/12/04 20:28:04","新北市三重區正義北路216巷17號","121.49555","25.06743","6500200","三重區"
"241032","269-UM","2017/12/04 20:26:52","新北市三重區重陽路一段10號","121.486196666667","25.0576433333333","6500200","三重區"
"241013","270-UM","2017/12/04 20:24:01","新北市三重區三和路三段167巷46號","121.493443333333","25.074585","6500200","三重區"
"241025","271-UM","2017/12/04 20:17:10","新北市三重區中正北路312巷6號","121.479233333333","25.068685","6500200","三重區"
"241007","398-BY","2017/12/04 20:33:55","新北市三重區三和路四段95號","121.488008333333","25.076015","6500200","三重區"
"241030","KEA-2210","2017/12/04 20:31:56","新北市三重區集成路32巷3號","121.488445","25.0528016666667","6500200","三重區"
"241020","413-TH","2017/12/04 20:30:29","新北市三重區三和路三段140號","121.493456666667","25.0723716666667","6500200","三重區"
"241035","462-BY","2017/12/04 20:27:01","新北市三重區重新路二段60號","121.498075","25.062055","6500200","三重區"
"241019","478-VK","2017/12/04 20:29:20","新北市三重區重陽路四段77號","121.4925","25.0709783333333","6500200","三重區"
"241014","543-UM","2017/12/04 20:32:34","新北市三重區長興街45號","121.50073","25.068895","6500200","三重區"
"241023","545-UM","2017/12/04 20:24:39","新北市三重區忠孝路三段54號","121.480661666667","25.0655466666667","6500200","三重區"
"241001","547-UM","2017/12/04 20:25:03","新北市三重區自強路四段31巷15號","121.490083333333","25.076725","6500200","三重區"
"241012","941-UM","2017/12/04 20:27:03","新北市三重區龍門路240號","121.50075","25.073685","6500200","三重區"
"241029","942-UM","2017/12/04 20:27:20","新北市三重區集美街227號","121.492136666667","25.0551366666667","6500200","三重區"
"241033","AAC-255","2017/12/04 20:26:52","新北市三重區五谷王北街58巷42號","121.474383333333","25.051705","6500200","三重區"
"235066","003-UY","2017/12/04 20:35:28","新北市中和區景新街345-3號","121.511871666667","24.9911466666667","6500300","中和區"
"235039","097-UM","2017/12/04 20:31:08","新北市中和區大勇街29巷10號","121.515981666667","24.99445","6500300","中和區"
"235065","098-UM","2017/12/04 20:24:37","新北市中和區景平路780號","121.496115","25.005355","6500300","中和區"
"235055","183-VK","2017/12/04 20:27:34","新北市八里區荖阡坑路24-11號","121.398525","25.13788","6500300","中和區"
"235050","4979-A6","2017/12/04 20:18:53","新北市中和區景平路221巷2號","121.510316666667","24.9924316666667","6500300","中和區"
"235069","4980-A6","2017/12/04 20:30:13","新北市中和區中正路434號","121.491233333333","24.9941916666667","6500300","中和區"
"235059","AAC-215","2017/12/04 20:30:27","新北市中和區員山路36巷2-1號","121.4828","24.99067","6500300","中和區"
"220065","072-UY","2017/12/04 20:15:55","新北市板橋區板新路235號","121.467748333333","25.0160166666667","6500100","板橋區"
"220106","075-UY","2017/12/04 20:21:45","新北市五股區成泰路四段22巷10-2號","121.454276666667","25.1046933333333","6500100","板橋區"
"220069","AAD-861","2017/12/04 20:12:38","新北市板橋區大明街25巷2弄2號","121.458231666667","25.00236","6500100","板橋區"
"220102","120-SR","2017/12/04 20:19:00","新北市板橋區漢生東路5號","121.464578333333","25.0175","6500100","板橋區"
"247022","893-R6","2017/12/04 20:22:39","新北市蘆洲區三民路263號","121.468208333333","25.0894316666667","6501400","蘆洲區"
"247012","546-UM","2017/12/04 20:22:28","新北市蘆洲區中興街53號","121.481351666667","25.087275","6501400","蘆洲區"
"247020","500-BY","2017/12/04 20:22:11","新北市蘆洲區水湳街395號","121.46922","25.0944083333333","6501400","蘆洲區"
"247008","341-TH","2017/12/04 20:25:03","新北市三重區永安北路二段177號","121.483918333333","25.0854183333333","6501400","蘆洲區"
"247010","339-TH","2017/12/04 20:30:03","新北市蘆洲區集賢路300號","121.481423333333","25.0851916666667","6501400","蘆洲區"
"247002","337-TH","2017/12/04 20:30:19","新北市蘆洲區長安街347巷32號","121.455473333333","25.0870166666667","6501400","蘆洲區"
"247004","336-TH","2017/12/04 20:18:43","新北市蘆洲區長安街285巷2號","121.457993333333","25.0843266666667","6501400","蘆洲區"
"247024","335-TH","2017/12/04 20:26:19","新北市蘆洲區長興路158巷1號","121.461723333333","25.0855533333333","6501400","蘆洲區"
"247016","057-VK","2017/12/04 20:23:08","新北市蘆洲區中正路185巷45弄1號","121.465988333333","25.0837366666667","6501400","蘆洲區"
"247006","056-VK","2017/12/04 20:22:55","新北市蘆洲區永安南路二段52-1號","121.465806666667","25.0777283333333","6501400","蘆洲區"
"247014","007-UY","2017/12/04 20:28:46","新北市蘆洲區中山二路126號","121.471893333333","25.081715","6501400","蘆洲區"
"226004","312-R5","2017/12/04 20:02:52","新北市平溪區嶺腳里田子22號","121.747028333333","25.0281683333333","6502400","平溪區"
"223002","198-BX","2017/12/04 11:53:09","新北市石碇區小粗坑(潭邊里)9-2號","121.678773333333","24.98578","6501900","石碇區"
"227001","642-TC","2017/12/04 20:15:45","新北市雙溪區牡丹里下坑25號","121.850233333333","25.0566016666667","6502500","雙溪區"
"222001","KEA-2212","2017/12/04 20:25:45","新北市深坑區北深路三段345號","121.597035","25.00509","6501800","深坑區"
"208003","665-BX","2017/12/04 20:13:25","新北市金山區海興路81號","121.632611666667","25.2399083333333","6502700","金山區"
"251004","009-UM","2017/12/04 20:16:11","新北市淡水區中正東路二段88巷37-21號","121.459801666667","25.1438816666667","6501000","淡水區"
"251008","181-VK","2017/12/04 20:24:21","新北市淡水區淡海路206巷21號","121.421468333333","25.185665","6501000","淡水區"
"251013","182-VK","2017/12/04 20:24:58","新北市淡水區水汴頭4-1號","121.475681666667","25.20402","6501000","淡水區"
"251010","413-VK","2017/12/04 20:25:01","新北市淡水區沙崙路224號","121.425311666667","25.1845416666667","6501000","淡水區"
"251012","441-VK","2017/12/04 20:22:42","新北市淡水區興仁路26號","121.451791666667","25.2153316666667","6501000","淡水區"
"251015","442-VK","2017/12/04 20:33:16","新北市淡水區興仁路162號","121.451616666667","25.22066","6501000","淡水區"
"251001","559-UM","2017/12/04 20:27:17","新北市淡水區中山北路二段191號","121.444258333333","25.1853533333333","6501000","淡水區"
"251006","561-UM","2017/12/04 20:29:04","新北市淡水區商工路373號","121.470395","25.1849816666667","6501000","淡水區"
"251002","672-BX","2017/12/04 20:21:49","新北市淡水區中正路63號","121.441406666667","25.1695666666667","6501000","淡水區"
"251003","766-UM","2017/12/04 20:21:26","新北市淡水區新生街53號","121.440468333333","25.1747433333333","6501000","淡水區"
"207003","550-UM","2017/12/04 20:12:27","新北市萬里區大鵬里萬里加投99號","121.646125","25.2127966666667","6502800","萬里區"
"207004","225-TW","2017/12/04 20:16:36","新北市萬里區北基里仁七街4號","121.681088333333","25.175105","6502800","萬里區"
"252002","178-VK","2017/12/04 20:27:39","新北市三芝區淡金路二段17號","121.502665","25.2594616666667","6502100","三芝區"
"252001","292-VK","2017/12/04 20:36:15","新北市三芝區中山路一段72號","121.502016666667","25.2566566666667","6502100","三芝區"
"237006","5529-G3","2017/12/04 20:27:24","新北市三峽區民權街154號","121.36859","24.93169","6500900","三峽區"
"237005","AKY-6261","2017/12/04 20:29:19","新北市三峽區三樹路98巷91號","121.382006666667","24.9399433333333","6500900","三峽區"
"236069","105-UM","2017/12/04 20:26:50","新北市土城區福安街102巷5弄12號","121.417096666667","24.9650433333333","6501300","土城區"
"236042","107-UM","2017/12/04 20:26:56","新北市土城區城林路6巷80號","121.438413333333","24.98009","6501300","土城區"
"236078","166-UM","2017/12/04 20:11:46","新北市土城區中山路45-1號","121.420438333333","24.962795","6501300","土城區"
"236030","253-BX","2017/12/04 20:09:43","新北市土城區中央路一段143巷1號","121.446971666667","24.9878416666667","6501300","土城區"
"236026","269-VK","2017/12/04 20:13:24","新北市土城區裕生路102巷5號","121.44631","24.9848016666667","6501300","土城區"
"236014","270-VK","2017/12/04 20:06:40","新北市土城區廣明街18號","121.455841666667","24.9922433333333","6501300","土城區"
"236036","271-VK","2017/12/04 20:14:55","新北市土城區延吉街312號","121.463886666667","24.9840016666667","6501300","土城區"
"236020","401-BY","2017/12/04 20:16:13","新北市土城區延吉街111巷12弄15-3號","121.471545","24.984975","6501300","土城區"
"236058","912-UM","2017/12/04 20:16:25","新北市土城區中央路二段209號","121.441516666667","24.9743566666667","6501300","土城區"
"236048","913-UM","2017/12/04 20:26:37","新北市土城區自由街17號","121.423535","24.9673316666667","6501300","土城區"
"236053","AAC-216","2017/12/04 20:10:27","新北市土城區中華路一段28號","121.447166666667","24.9899866666667","6501300","土城區"
"242031","AAC-296","2017/12/04 20:09:04","新北市新莊區忠孝街29巷26號","121.443688333333","25.03663","6500500","新莊區"
"242029","986-R7","2017/12/04 20:19:25","新北市新莊區中原路349號","121.44504","25.054395","6500500","新莊區"
"242050","751-BX","2017/12/04 20:16:53","新北市新莊區民安西路196巷21號","121.424986666667","25.0153716666667","6500500","新莊區"
"242025","615-BX","2017/12/04 20:12:20","新北市新莊區五權一路12巷25弄26號","121.458863333333","25.06493","6500500","新莊區"
"242023","613-BX","2017/12/04 20:02:31","新北市新莊區化成路384號","121.46593","25.0502033333333","6500500","新莊區"
"242027","612-BX","2017/12/04 20:19:31","新北市新莊區幸福路592號","121.453581666667","25.0492883333333","6500500","新莊區"
"242039","566-BX","2017/12/04 20:15:10","新北市新莊區龍安路497號","121.425935","25.0180616666667","6500500","新莊區"
"242044","497-BY","2017/12/04 20:12:48","新北市新莊區中正路895-20號","121.412531666667","25.0215066666667","6500500","新莊區"
"242053","442-UM","2017/12/04 20:18:03","新北市新莊區民安西路259號","121.426183333333","25.01313","6500500","新莊區"
"242048","441-UM","2017/12/04 20:17:21","新北市新莊區萬安街149巷23弄1號","121.421295","25.0211916666667","6500500","新莊區"
"242034","415-TV","2017/12/04 20:10:20","新北市新莊區中正路318巷18號","121.446365","25.03604","6500500","新莊區"
"242004","413-TV","2017/12/04 20:15:18","新北市新莊區頭興街110號","121.46254","25.0536616666667","6500500","新莊區"
"242042","400-BY","2017/12/04 20:17:30","新北市新莊區天祥街54巷2弄1號","121.41666","25.0292283333333","6500500","新莊區"
"242060","362-BY","2017/12/04 20:09:19","新北市新莊區瓊林路瓊英巷3號","121.44368","25.0273733333333","6500500","新莊區"
"242058","353-BY","2017/12/04 20:14:50","新北市新莊區龍安路280號","121.422291666667","25.0192","6500500","新莊區"
"242036","133-UY","2017/12/04 20:12:28","新北市新莊區建安街17巷13號","121.429696666667","25.0265666666667","6500500","新莊區"
"242021","135-UY","2017/12/04 20:07:29","新北市新莊區建中街48巷10弄4號","121.448246666667","25.0383366666667","6500500","新莊區"
"242046","172-VK","2017/12/04 20:16:31","新北市新莊區裕民街132號","121.418056666667","25.0222666666667","6500500","新莊區"
"242002","173-VK","2017/12/04 20:12:47","新北市新莊區中正路69號","121.461561666667","25.0395066666667","6500500","新莊區"
"242015","175-VK","2017/12/04 20:07:45","新北市新莊區中平路26巷24號","121.445716666667","25.0432933333333","6500500","新莊區"
"242013","346-TH","2017/12/04 20:10:43","新北市新莊區幸福路710巷1弄14號","121.449036666667","25.0497033333333","6500500","新莊區"
"242007","347-TH","2017/12/04 20:16:56","新北市新莊區福壽街136巷37號","121.459241666667","25.0517166666667","6500500","新莊區"
"242019","348-TH","2017/12/04 20:10:46","新北市新莊區長青街35巷2號","121.456716666667","25.0421766666667","6500500","新莊區"
"242056","349-TH","2017/12/04 20:12:13","新北市新莊區豐年街28巷1弄12號","121.446001666667","25.0318766666667","6500500","新莊區"
"242017","350-TH","2017/12/04 20:15:21","新北市新莊區中港一街48號","121.450495","25.0455133333333","6500500","新莊區"
"242011","351-TH","2017/12/04 20:12:03","新北市新莊區中信街53號","121.44964","25.0506916666667","6500500","新莊區"
"238021","KEA-2217","2017/12/04 20:21:27","新北市樹林區佳園路三段99巷87號","121.395201666667","24.952885","6500700","樹林區"
"238026","308-TH","2017/12/04 13:30:28","新北市樹林區育德街76巷1號","121.38876","24.9683033333333","6500700","樹林區"
"221008","489-VK","2017/12/04 20:20:35","新北市汐止區康寧街227號","121.623443333333","25.0669","6501100","汐止區"
"221036","130-UY","2017/12/04 20:17:48","新北市汐止區福安街59巷5號","121.664216666667","25.0637783333333","6501100","汐止區"
"221010","269-BY","2017/12/04 20:17:37","新北市汐止區八連路二段36巷10號","121.637375","25.0943833333333","6501100","汐止區"
"221012","278-VK","2017/12/04 20:18:34","新北市汐止區保新街155號","121.688385","25.0693816666667","6501100","汐止區"
"221023","279-VK","2017/12/04 20:24:51","新北市汐止區湖東街5巷19號","121.634218333333","25.0731366666667","6501100","汐止區"
"221032","280-BY","2017/12/04 20:26:07","新北市汐止區民權街二段28號","121.619425","25.0498516666667","6501100","汐止區"
"221027","281-BY","2017/12/04 20:23:51","新北市汐止區大同路二段517號","121.661441666667","25.06895","6501100","汐止區"
"221029","298-VK","2017/12/04 20:30:00","新北市汐止區樟樹一路135巷29號","121.640918333333","25.0655083333333","6501100","汐止區"
"221021","299-VK","2017/12/04 20:37:08","新北市汐止區水源路一段284號","121.654215","25.058305","6501100","汐止區"
"221031","353-TW","2017/12/04 20:25:44","新北市汐止區中興路142號","121.632785","25.0643516666667","6501100","汐止區"
"221012","490-VK","2017/12/04 20:37:26","新北市汐止區汐萬路一段256巷3號","121.653153333333","25.0743916666667","6501100","汐止區"
"221015","567-BX","2017/12/04 20:38:38","新北市汐止區建成路52號","121.663556666667","25.072875","6501100","汐止區"
"221035","622-UM","2017/12/04 20:38:39","新北市汐止區長江街101-5號","121.6588","25.0731816666667","6501100","汐止區"
"221025","623-UM","2017/12/04 20:23:11","新北市汐止區水源路二段78號","121.656238333333","25.05638","6501100","汐止區"
"221038","646-BX","2017/12/04 20:38:05","新北市汐止區水源路一段56-1號","121.657005","25.0654433333333","6501100","汐止區"
"221033","647-BX","2017/12/04 20:33:11","新北市汐止區林森街73巷15號","121.623945","25.04141","6501100","汐止區"
"221002","707-TV","2017/12/04 20:25:41","新北市汐止區福德一路86巷8號","121.637928333333","25.068835","6501100","汐止區"
"221018","753-BX","2017/12/04 20:33:45","新北市汐止區茄苳路225巷11弄33號","121.670446666667","25.07005","6501100","汐止區"
"220101","280-UM","2017/12/04 20:12:28","新北市板橋區莒光路171巷1弄16號","121.474478333333","25.0246266666667","6500100","板橋區"
"220071","283-VK","2017/12/04 20:09:41","新北市板橋區和平路174巷33號","121.465131666667","24.9943533333333","6500100","板橋區"
"220083","286-VK","2017/12/04 20:10:50","新北市板橋區僑中二街100巷38號","121.444455","25.0087266666667","6500100","板橋區"
"220090","288-VK","2017/12/04 20:16:13","新北市板橋區長江路一段105巷1弄1號","121.459023333333","25.03074","6500100","板橋區"
"220061","293-UM","2017/12/04 20:12:58","新北市板橋區縣民大道二段200巷25號","121.470411666667","25.01768","6500100","板橋區"
"220062","305-R5","2017/12/04 20:10:34","新北市板橋區田單街65號","121.483373333333","25.0283016666667","6500100","板橋區"
"220092","307-R5","2017/12/04 20:13:01","新北市板橋區民權路252號","121.458396666667","25.0147266666667","6500100","板橋區"
"220089","487-VK","2017/12/04 20:11:58","新北市板橋區互助街56號","121.461395","25.0268233333333","6500100","板橋區"
"242009","280-VK","2017/12/04 20:13:40","新北市新莊區昌平街22號","121.454816666667","25.0528666666667","6500500","新莊區"
"220035","560-BX","2017/12/04 20:13:45","新北市板橋區中正路511號","121.456123333333","25.0286783333333","6500100","板橋區"
"220103","561-BX","2017/12/04 20:16:51","新北市板橋區陽明街279巷32號","121.461","25.02565","6500100","板橋區"
"220057","686-BX","2017/12/04 20:02:28","新北市板橋區四川路二段2號","121.45667","24.9966816666667","6500100","板橋區"
"220093","689-BX","2017/12/04 20:10:10","新北市板橋區長江路一段224號","121.463303333333","25.0309383333333","6500100","板橋區"
"220054","741-BX","2017/12/04 20:09:42","新北市板橋區忠孝路忠義巷9弄1號","121.465155","25.00473","6500100","板橋區"
"220055","827-TW","2017/12/04 20:13:37","新北市板橋區仁愛路75號","121.460908333333","24.9997233333333","6500100","板橋區"
"220067","829-TW","2017/12/04 20:13:39","新北市板橋區中山路二段145號","121.475381666667","25.01652","6500100","板橋區"
"220074","895-R6","2017/12/04 20:06:02","新北市板橋區縣民大道一段312號","121.46148","25.0109616666667","6500100","板橋區"
"220073","985-R7","2017/12/04 20:09:02","新北市板橋區南雅西路二段2-1號","121.453226666667","25.0088233333333","6500100","板橋區"
"220097","AAC-210","2017/12/04 20:11:32","新北市板橋區建國街127號","121.460923333333","25.01767","6500100","板橋區"
"220070","AAC-253","2017/12/04 20:19:45","新北市板橋區四川路二段237號","121.45084","24.9940133333333","6500100","板橋區"
