"lineid","car","time","location","longitude","latitude","cityid","cityname"
"234011","9373-KE","2017/12/04 20:20:15","新北市永和區保生路55號","121.50443","25.0108733333333","6500400","永和區"
"248008","095-VK","2017/12/04 20:13:31","新北市五股區中興路一段171巷65號","121.46505","25.07096","6501500","五股區"
"248004","677-BX","2017/12/04 20:45:30","新北市五股區中興路二段83巷26-6號","121.460056666667","25.0750283333333","6501500","五股區"
"248002","678-BX","2017/12/04 20:46:23","新北市五股區中興路二段37巷28號","121.460205","25.074825","6501500","五股區"
"244018","403-UM","2017/12/04 20:58:34","新北市林口區粉寮路二段160巷28號","121.405121666667","25.090775","6501700","林口區"
"231059","046-UY","2017/12/04 21:09:50","新北市新店區僑義路11巷1號","121.500315","24.9516666666667","6500600","新店區"
"231061","047-UY","2017/12/04 21:09:57","新北市新店區永平街52號","121.516138333333","24.9844433333333","6500600","新店區"
"231060","106-UY","2017/12/04 21:09:41","新北市新店區安康路二段383號","121.495008333333","24.9546066666667","6500600","新店區"
"231051","107-UY","2017/12/04 21:09:49","新北市新店區中正路663巷7弄15號","121.532905","24.990095","6500600","新店區"
"231047","108-UY","2017/12/04 21:09:52","新北市新店區文化路19號","121.543241666667","24.979465","6500600","新店區"
"231050","KEA-2219","2017/12/04 21:09:50","新北市新店區三民路20巷3號","121.5374","24.970775","6500600","新店區"
"231063","268-BY","2017/12/04 21:09:48","新北市新店區玫瑰路58巷1號","121.495448333333","24.9465683333333","6500600","新店區"
"231054","AAD-862","2017/12/04 21:09:54","新北市新店區五峰路51號","121.544806666667","24.96879","6500600","新店區"
"231067","4772-VM","2017/12/04 21:09:52","新北市新店區安康路二段316號","121.505188333333","24.9581266666667","6500600","新店區"
"231065","512-UM","2017/12/04 21:09:36","新北市新店區安祥路69巷89弄37號","121.482711666667","24.96119","6500600","新店區"
"231064","515-UM","2017/12/04 21:09:45","新北市新店區安民街65巷11號","121.515413333333","24.9664866666667","6500600","新店區"
"231042","616-UM","2017/12/04 21:09:38","新北市新店區寶興路60巷4號","121.549865","24.9718966666667","6500600","新店區"
"231040","619-UM","2017/12/04 21:09:46","新北市新店區北新路一段100號","121.542061666667","24.9694066666667","6500600","新店區"
"231062","720-UM","2017/12/04 21:09:54","新北市新店區雙城路4巷1號","121.491375","24.9507833333333","6500600","新店區"
"241028","022-UY","2017/12/04 21:09:45","新北市三重區正義南路53號","121.498226666667","25.0606366666667","6500200","三重區"
"241008","059-VK","2017/12/04 21:09:42","新北市三重區自強路一段62號","121.497245","25.0667016666667","6500200","三重區"
"241009","060-VK","2017/12/04 21:09:46","新北市三重區忠孝路二段124號","121.483028333333","25.06883","6500200","三重區"
"241031","061-VK","2017/12/04 21:09:42","新北市三重區重新路五段428號","121.475243333333","25.0475266666667","6500200","三重區"
"241015","062-VK","2017/12/04 21:09:56","新北市三重區長元街105號","121.504425","25.0666","6500200","三重區"
"241017","063-VK","2017/12/04 21:09:43","新北市三重區大同北路132巷8號","121.492283333333","25.0646366666667","6500200","三重區"
"241024","065-VK","2017/12/04 21:09:45","新北市三重區大勇街49號","121.48132","25.0719883333333","6500200","三重區"
"241002","090-VK","2017/12/04 21:09:41","新北市三重區五華街19-1號","121.494858333333","25.080455","6500200","三重區"
"241003","091-VK","2017/12/04 21:09:49","新北市三重區仁義街337-1號","121.495","25.0847566666667","6500200","三重區"
"241004","156-TC","2017/12/04 21:09:48","新北市三重區仁愛街423-1號","121.490405","25.081455","6500200","三重區"
"241005","262-UM","2017/12/04 21:09:53","新北市三重區三信路182號","121.487903333333","25.0861766666667","6500200","三重區"
"241011","265-UM","2017/12/04 21:09:48","新北市三重區龍濱路191號","121.501965","25.07108","6500200","三重區"
"241016","266-UM","2017/12/04 21:09:36","新北市三重區信義西街138號","121.495655","25.064465","6500200","三重區"
"241022","267-UM","2017/12/04 21:09:43","新北市三重區中正北路64巷24號","121.486155","25.0636566666667","6500200","三重區"
"241018","268-UM","2017/12/04 21:09:44","新北市三重區正義北路332-1號","121.494381666667","25.0705816666667","6500200","三重區"
"241032","269-UM","2017/12/04 21:09:51","新北市三重區光復路二段171號","121.473601666667","25.0615516666667","6500200","三重區"
"241013","270-UM","2017/12/04 21:09:47","新北市三重區仁愛街83號","121.495878333333","25.0731883333333","6500200","三重區"
"241025","271-UM","2017/12/04 21:09:50","新北市三重區忠孝路三段40巷6弄11號","121.482236666667","25.066905","6500200","三重區"
"241007","398-BY","2017/12/04 21:09:55","新北市三重區三和路四段145巷85號","121.486425","25.0786866666667","6500200","三重區"
"241030","KEA-2210","2017/12/04 21:09:35","新北市三重區中正南路252巷5號","121.493435","25.0526483333333","6500200","三重區"
"241020","413-TH","2017/12/04 21:09:49","新北市三重區忠孝路二段34號","121.48571","25.0709433333333","6500200","三重區"
"241019","478-VK","2017/12/04 21:09:39","新北市三重區自強路二段74巷21號","121.487935","25.0698766666667","6500200","三重區"
"241014","543-UM","2017/12/04 21:09:54","新北市三重區長安街82-1號","121.50137","25.06771","6500200","三重區"
"241023","545-UM","2017/12/04 21:09:39","新北市三重區洛陽街45巷15號","121.482441666667","25.0637383333333","6500200","三重區"
"241001","547-UM","2017/12/04 21:09:43","新北市三重區福隆路10號","121.49014","25.0773316666667","6500200","三重區"
"241006","887-TS","2017/12/04 21:09:43","新北市三重區重陽路三段5巷1號","121.49071","25.06549","6500200","三重區"
"241012","941-UM","2017/12/04 21:09:43","新北市三重區河邊北街319號","121.502298333333","25.0749416666667","6500200","三重區"
"241029","942-UM","2017/12/04 21:09:40","新北市三重區正義南路107號","121.498228333333","25.0585416666667","6500200","三重區"
"241033","AAC-255","2017/12/04 21:09:52","新北市三重區重光街100號","121.466366666667","25.0641583333333","6500200","三重區"
"235050","4979-A6","2017/12/04 20:53:31","新北市中和區員山路36巷13號","121.484208333333","24.991275","6500300","中和區"
"247022","893-R6","2017/12/04 21:09:42","新北市蘆洲區三民路251號","121.468313333333","25.089355","6501400","蘆洲區"
"247012","546-UM","2017/12/04 21:09:48","新北市蘆洲區三民路72號","121.475178333333","25.0839133333333","6501400","蘆洲區"
"247020","500-BY","2017/12/04 21:09:52","新北市蘆洲區民族路436巷7號","121.472788333333","25.0928916666667","6501400","蘆洲區"
"247008","341-TH","2017/12/04 21:09:43","新北市蘆洲區民生街45號","121.47502","25.0788233333333","6501400","蘆洲區"
"247010","339-TH","2017/12/04 21:09:42","新北市蘆洲區鷺江街42號","121.477271666667","25.083105","6501400","蘆洲區"
"247002","337-TH","2017/12/04 21:09:39","新北市蘆洲區永平街12號","121.459311666667","25.090585","6501400","蘆洲區"
"247004","336-TH","2017/12/04 21:09:43","新北市蘆洲區永安南路二段322號","121.457046666667","25.08278","6501400","蘆洲區"
"247024","335-TH","2017/12/04 21:09:58","新北市蘆洲區長興路50巷1號","121.463786666667","25.083825","6501400","蘆洲區"
"247016","057-VK","2017/12/04 21:09:49","新北市蘆洲區和平路194號","121.466133333333","25.08175","6501400","蘆洲區"
"247006","056-VK","2017/12/04 21:09:56","新北市蘆洲區和平路97巷13號","121.467595","25.0786266666667","6501400","蘆洲區"
"247014","007-UY","2017/12/04 21:09:46","新北市蘆洲區中央路155號","121.472645","25.084705","6501400","蘆洲區"
"247018","001-UY","2017/12/04 21:09:48","新北市蘆洲區民族路408巷14號","121.474953333333","25.091935","6501400","蘆洲區"
"226004","312-R5","2017/12/04 20:02:52","新北市平溪區嶺腳里田子22號","121.747028333333","25.0281683333333","6502400","平溪區"
"223002","198-BX","2017/12/04 11:53:09","新北市石碇區小粗坑(潭邊里)9-2號","121.678773333333","24.98578","6501900","石碇區"
"227001","642-TC","2017/12/04 20:15:45","新北市雙溪區牡丹里下坑25號","121.850233333333","25.0566016666667","6502500","雙溪區"
"208003","665-BX","2017/12/04 21:00:41","新北市金山區磺清路135號","121.639428333333","25.22753","6502700","金山區"
"251009","008-UM","2017/12/04 21:09:46","新北市淡水區民族路112巷40號","121.461976666667","25.1343916666667","6501000","淡水區"
"251004","009-UM","2017/12/04 21:09:51","新北市淡水區民族路91號","121.462638333333","25.1337066666667","6501000","淡水區"
"251005","010-UM","2017/12/04 21:09:39","新北市淡水區博愛街47-1號","121.446711666667","25.1690716666667","6501000","淡水區"
"251013","182-VK","2017/12/04 21:09:38","新北市淡水區水汴頭12號","121.469753333333","25.2034583333333","6501000","淡水區"
"251010","413-VK","2017/12/04 21:09:41","新北市淡水區中正路一段63巷8號","121.423025","25.177375","6501000","淡水區"
"251012","441-VK","2017/12/04 21:09:41","新北市淡水區淡金路五段172號","121.45704","25.2398516666667","6501000","淡水區"
"251015","442-VK","2017/12/04 21:09:36","新北市淡水區淡金路四段542巷52-2號","121.455551666667","25.22587","6501000","淡水區"
"251001","559-UM","2017/12/04 21:09:58","新北市淡水區新市一路三段101巷16弄3號","121.446655","25.183925","6501000","淡水區"
"251011","650-BX","2017/12/04 21:09:45","新北市淡水區新民街222巷16弄5-25號","121.437351666667","25.179845","6501000","淡水區"
"251002","672-BX","2017/12/04 21:09:48","新北市淡水區水源街二段6號","121.449261666667","25.17331","6501000","淡水區"
"251003","766-UM","2017/12/04 21:09:46","新北市淡水區新春街95-2號","121.439585","25.182685","6501000","淡水區"
"207003","550-UM","2017/12/04 20:12:27","新北市萬里區大鵬里萬里加投99號","121.646125","25.2127966666667","6502800","萬里區"
"207004","225-TW","2017/12/04 20:16:36","新北市萬里區北基里仁七街4號","121.681088333333","25.175105","6502800","萬里區"
"237006","5529-G3","2017/12/04 20:41:04","新北市三峽區中山路459巷163-3號","121.349086666667","24.9332966666667","6500900","三峽區"
"238026","308-TH","2017/12/04 13:30:28","新北市樹林區育德街76巷1號","121.38876","24.9683033333333","6500700","樹林區"
"221012","490-VK","2017/12/04 20:57:17","新北市汐止區汐萬路一段256巷3號","121.653186666667","25.0744666666667","6501100","汐止區"
"220062","305-R5","2017/12/04 21:09:27","新北市板橋區民生路二段120號","121.470376666667","25.0198433333333","6500100","板橋區"
"220070","AAC-253","2017/12/04 21:09:45","新北市林口區太平里180號","121.368228333333","25.134345","6500100","板橋區"
