"lineid","car","time","location","longitude","latitude","cityid","cityname"
"234011","9373-KE","2017/12/04 20:20:15","新北市永和區保生路55號","121.50443","25.0108733333333","6500400","永和區"
"248008","095-VK","2017/12/04 20:13:31","新北市五股區中興路一段171巷65號","121.46505","25.07096","6501500","五股區"
"248004","677-BX","2017/12/04 20:45:30","新北市五股區中興路二段83巷26-6號","121.460056666667","25.0750283333333","6501500","五股區"
"248002","678-BX","2017/12/04 20:46:23","新北市五股區中興路二段37巷28號","121.460205","25.074825","6501500","五股區"
"244018","403-UM","2017/12/04 20:58:34","新北市林口區粉寮路二段160巷28號","121.405121666667","25.090775","6501700","林口區"
"235050","4979-A6","2017/12/04 20:53:31","新北市中和區員山路36巷13號","121.484208333333","24.991275","6500300","中和區"
"247008","341-TH","2017/12/04 21:59:43","新北市林口區太平里180號","121.366488333333","25.1346216666667","6501400","蘆洲區"
"226004","312-R5","2017/12/04 20:02:52","新北市平溪區嶺腳里田子22號","121.747028333333","25.0281683333333","6502400","平溪區"
"223002","198-BX","2017/12/04 11:53:09","新北市石碇區小粗坑(潭邊里)9-2號","121.678773333333","24.98578","6501900","石碇區"
"227001","642-TC","2017/12/04 20:15:45","新北市雙溪區牡丹里下坑25號","121.850233333333","25.0566016666667","6502500","雙溪區"
"208003","665-BX","2017/12/04 21:00:41","新北市金山區磺清路135號","121.639428333333","25.22753","6502700","金山區"
"251004","009-UM","2017/12/04 21:59:55","新北市淡水區民權路179-3號","121.459686666667","25.1347633333333","6501000","淡水區"
"251005","010-UM","2017/12/04 21:59:39","新北市淡水區鄧公路30巷1弄65號","121.454475","25.16962","6501000","淡水區"
"251007","179-VK","2017/12/04 21:59:38","新北市淡水區北新路184巷59號","121.451141666667","25.1776466666667","6501000","淡水區"
"251008","181-VK","2017/12/04 21:59:41","新北市淡水區學府路104號","121.44983","25.1717833333333","6501000","淡水區"
"251015","442-VK","2017/12/04 21:59:36","新北市淡水區水碓街7號","121.443145","25.17709","6501000","淡水區"
"251006","561-UM","2017/12/04 21:59:52","新北市淡水區真理街1號","121.438118333333","25.1729483333333","6501000","淡水區"
"251003","766-UM","2017/12/04 21:59:46","新北市淡水區新春街146-2號","121.441856666667","25.1815933333333","6501000","淡水區"
"207003","550-UM","2017/12/04 20:12:27","新北市萬里區大鵬里萬里加投99號","121.646125","25.2127966666667","6502800","萬里區"
"207004","225-TW","2017/12/04 20:16:36","新北市萬里區北基里仁七街4號","121.681088333333","25.175105","6502800","萬里區"
"237006","5529-G3","2017/12/04 20:41:04","新北市三峽區中山路459巷163-3號","121.349086666667","24.9332966666667","6500900","三峽區"
"238026","308-TH","2017/12/04 13:30:28","新北市樹林區育德街76巷1號","121.38876","24.9683033333333","6500700","樹林區"
"221012","490-VK","2017/12/04 20:57:17","新北市汐止區汐萬路一段256巷3號","121.653186666667","25.0744666666667","6501100","汐止區"
"220062","305-R5","2017/12/04 21:09:27","新北市板橋區民生路二段120號","121.470376666667","25.0198433333333","6500100","板橋區"
