"lineid","car","time","location","longitude","latitude","cityid","cityname"
"232002","290-BY","2017/12/05 04:18:51","新北市坪林區北宜路八段558號","121.717968333333","24.908955","6502000","坪林區"
"232013","291-BY","2017/12/05 06:39:52","新北市坪林區北宜路八段558號","121.718045","24.9092416666667","6502000","坪林區"
"232006","758-BX","2017/12/05 06:39:38","新北市坪林區北宜路八段558號","121.717991666667","24.9093483333333","6502000","坪林區"
"223006","022-BY","2017/12/05 06:39:50","新北市石碇區石崁1號","121.652026666667","25.000205","6501900","石碇區"
"223001","205-TH","2017/12/05 06:39:49","新北市石碇區湳窟26號","121.661896666667","24.99161","6501900","石碇區"
"223001","437-BY","2017/12/05 06:39:56","新北市石碇區碇坪路一段186號","121.667936666667","24.98338","6501900","石碇區"
"223007","661-BX","2017/12/05 06:39:36","新北市石碇區碇坪路一段18號","121.651641666667","25.0055083333333","6501900","石碇區"
"227006","282-VK","2017/12/05 06:39:38","新北市雙溪區牡丹里中正路103號","121.86168","25.047475","6502500","雙溪區"
"236008","165-UM","2017/12/05 06:39:46","新北市土城區永平街51號","121.42797","24.9591866666667","6501300","土城區"
"220080","461-BY","2017/12/05 06:39:52","新北市板橋區南雅西路二段175巷2號","121.451625","25.0125516666667","6500100","板橋區"
