"lineid","car","time","location","longitude","latitude","cityid","cityname"
"248012","655-BX","2017/07/25 10:25:08","新北市五股區中興路二段83巷26-6號","121.459795","25.07518","6501500","五股區"
"231007","189-VK","2017/07/25 10:39:53","新北市新店區新潭路三段76-1號","121.505015","24.9109333333333","6500600","新店區"
"231009","192-VK","2017/07/25 10:39:44","新北市新店區小坑一路22號","121.531671666667","24.9138416666667","6500600","新店區"
"247001","402-BY","2017/07/25 10:39:42","新北市五股區中興路三段171-22號","121.44263","25.0813766666667","6501400","蘆洲區"
"227006","282-VK","2017/07/25 10:38:50","新北市雙溪區新基里新基東街14-5號","121.873515","25.04251","6502500","雙溪區"
"227012","030-BX","2017/07/25 10:39:40","新北市雙溪區泰平里料角坑42號","121.791806666667","24.9544466666667","6502500","雙溪區"
"207001","662-BX","2017/07/25 10:35:01","新北市萬里區萬里里成功新村67號","121.689628333333","25.1741683333333","6502800","萬里區"
