"lineid","car","time","location","longitude","latitude","cityid","cityname"
"248012","655-BX","2017/07/25 10:25:08","新北市五股區中興路二段83巷26-6號","121.459795","25.07518","6501500","五股區"
"231007","189-VK","2017/07/25 10:49:47","新北市新店區新潭路二段62巷28號","121.520225","24.9268916666667","6500600","新店區"
"231009","192-VK","2017/07/25 10:48:24","新北市新店區小坑一路73巷6號","121.53076","24.9083183333333","6500600","新店區"
"247001","402-BY","2017/07/25 10:42:56","新北市五股區中興路三段3-6號","121.449565","25.0787733333333","6501400","蘆洲區"
"227006","282-VK","2017/07/25 10:49:50","新北市雙溪區新基里新基東街15-2號","121.87244","25.041955","6502500","雙溪區"
"207001","662-BX","2017/07/25 10:35:01","新北市萬里區萬里里成功新村67號","121.689628333333","25.1741683333333","6502800","萬里區"
