"lineid","car","time","location","longitude","latitude","cityid","cityname"
"248012","655-BX","2017/07/25 10:25:08","新北市五股區中興路二段83巷26-6號","121.459795","25.07518","6501500","五股區"
"231009","192-VK","2017/07/25 11:30:04","新北市新店區成功路126號","121.533673333333","24.894535","6500600","新店區"
"247001","402-BY","2017/07/25 10:42:56","新北市五股區中興路三段3-6號","121.449565","25.0787733333333","6501400","蘆洲區"
"228004","212-TW","2017/07/25 11:39:28","新北市貢寮區貢寮里朝陽街1-2號","121.912196666667","25.021215","6502600","貢寮區"
"227006","282-VK","2017/07/25 11:39:30","新北市雙溪區魚行里內厝15號","121.887158333333","25.0262","6502500","雙溪區"
"207001","662-BX","2017/07/25 10:52:14","新北市萬里區萬里里成功新村67號","121.689543333333","25.1742083333333","6502800","萬里區"
