"lineid","car","time","location","longitude","latitude","cityid","cityname"
"248012","655-BX","2017/07/25 10:25:08","新北市五股區中興路二段83巷26-6號","121.459795","25.07518","6501500","五股區"
"231009","192-VK","2017/07/25 11:47:44","新北市新店區成功路100號","121.53718","24.8948783333333","6500600","新店區"
"247001","402-BY","2017/07/25 10:42:56","新北市五股區中興路三段3-6號","121.449565","25.0787733333333","6501400","蘆洲區"
"228004","212-TW","2017/07/25 11:49:28","新北市貢寮區貢寮里朝陽街1-2號","121.912201666667","25.0212083333333","6502600","貢寮區"
"227006","282-VK","2017/07/25 11:49:30","新北市雙溪區魚行里魚杭1號","121.883808333333","25.0266116666667","6502500","雙溪區"
"207001","662-BX","2017/07/25 10:52:14","新北市萬里區萬里里成功新村67號","121.689543333333","25.1742083333333","6502800","萬里區"
