"lineid","car","time","location","longitude","latitude","cityid","cityname"
"234040","862-TW","2017/07/25 12:09:40","新北市永和區福和路1號","121.52654","25.0096433333333","6500400","永和區"
"248012","655-BX","2017/07/25 10:25:08","新北市五股區中興路二段83巷26-6號","121.459795","25.07518","6501500","五股區"
"231069","189-VK","2017/07/25 12:08:18","新北市新店區安華路28-1號","121.519666666667","24.961005","6500600","新店區"
"231009","192-VK","2017/07/25 11:47:44","新北市新店區成功路100號","121.53718","24.8948783333333","6500600","新店區"
"235031","255-BX","2017/07/25 11:54:15","新北市中和區和城路一段271巷1號","121.48558","24.9918666666667","6500300","中和區"
"247001","402-BY","2017/07/25 12:09:34","新北市五股區中興路三段3-6號","121.449571666667","25.078695","6501400","蘆洲區"
"228004","212-TW","2017/07/25 12:09:42","新北市貢寮區貢寮里貢寮街134號","121.907443333333","25.0202466666667","6502600","貢寮區"
"228005","828-UM","2017/07/25 12:09:44","新北市貢寮區福隆里東興街11號","121.950463333333","25.0183383333333","6502600","貢寮區"
"207001","662-BX","2017/07/25 12:09:43","新北市萬里區萬里里成功新村67號","121.689203333333","25.174265","6502800","萬里區"
