"lineid","car","time","location","longitude","latitude","cityid","cityname"
"234044","148-BY","2017/07/25 13:09:28","新北市永和區永元路50號","121.522293333333","25.00102","6500400","永和區"
"234012","149-BY","2017/07/25 13:09:39","新北市永和區保福路二段85號","121.510633333333","25.0126916666667","6500400","永和區"
"234005","207-UY","2017/07/25 13:09:23","新北市永和區中山路一段243號","121.507803333333","25.0076266666667","6500400","永和區"
"234078","298-R6","2017/07/25 13:09:34","新北市永和區永貞路39巷9弄1號","121.521928333333","25.0066183333333","6500400","永和區"
"234036","336-UY","2017/07/25 13:09:34","新北市永和區民樂街49號","121.527511666667","24.9988166666667","6500400","永和區"
"234062","337-UY","2017/07/25 13:09:33","新北市永和區永元路95號","121.522313333333","25.001825","6500400","永和區"
"234084","338-UY","2017/07/25 13:09:35","新北市永和區永貞路90號","121.51955","25.0046266666667","6500400","永和區"
"234068","552-UM","2017/07/25 13:09:24","新北市永和區豫溪街76號","121.517361666667","25.0099233333333","6500400","永和區"
"234052","553-UM","2017/07/25 13:09:24","新北市永和區竹林路77號","121.51947","25.0127166666667","6500400","永和區"
"234015","745-BX","2017/07/25 13:09:36","新北市永和區文化路90巷34號","121.513541666667","25.0163683333333","6500400","永和區"
"234028","746-BX","2017/07/25 13:08:45","新北市永和區厚德街84號","121.523706666667","24.9988966666667","6500400","永和區"
"234060","AAD-866","2017/07/25 13:09:31","新北市永和區安樂路300號","121.514426666667","25.00488","6500400","永和區"
"234040","862-TW","2017/07/25 13:09:22","新北市永和區保平路93巷7號","121.511886666667","25.0065283333333","6500400","永和區"
"234048","863-TW","2017/07/25 13:09:34","新北市永和區仁愛路104巷7弄64號","121.510818333333","25.014295","6500400","永和區"
"234025","9371-KE","2017/07/25 13:09:35","新北市永和區大新街19巷2號","121.515031666667","25.0088033333333","6500400","永和區"
"234010","9373-KE","2017/07/25 13:09:34","新北市永和區仁愛路31巷2弄15號","121.513463333333","25.0128433333333","6500400","永和區"
"248017","225-UY","2017/07/25 13:09:28","新北市五股區新五路三段9號","121.444415","25.0890233333333","6501500","五股區"
"248012","655-BX","2017/07/25 10:25:08","新北市五股區中興路二段83巷26-6號","121.459795","25.07518","6501500","五股區"
"234022","9380-KE","2017/07/25 13:09:31","新北市永和區中興街52巷8號","121.516916666667","25.01085","6500400","永和區"
"234076","969-R7","2017/07/25 13:09:23","新北市永和區民光街7號","121.515425","24.9962783333333","6500400","永和區"
"234072","AAC-211","2017/07/25 13:09:32","新北市永和區竹林路168號","121.520256666667","25.0101933333333","6500400","永和區"
"234066","AAC-212","2017/07/25 13:09:24","新北市永和區永和路一段63號","121.513105","25.0070066666667","6500400","永和區"
"234001","AAC-295","2017/07/25 13:09:38","新北市永和區和平街21號","121.513391666667","25.0099183333333","6500400","永和區"
"244002","248-BX","2017/07/25 13:09:30","新北市林口區中山路492號","121.379816666667","25.0825983333333","6501700","林口區"
"231002","002-UM","2017/07/25 13:09:36","新北市新店區安華路28-1號","121.519838333333","24.9607666666667","6500600","新店區"
"231025","0293-UT","2017/07/25 13:09:23","新北市新店區安華路28-1號","121.51927","24.9606216666667","6500600","新店區"
"231028","046-UY","2017/07/25 13:09:20","新北市新店區安華路28-1號","121.519576666667","24.9609483333333","6500600","新店區"
"231030","047-UY","2017/07/25 13:09:36","新北市新店區安華路28-1號","121.519305","24.96092","6500600","新店區"
"231029","106-UY","2017/07/25 13:09:22","新北市新店區安華路28-1號","121.519553333333","24.9608166666667","6500600","新店區"
"231018","107-UY","2017/07/25 13:09:35","新北市新店區安華路28-1號","121.519458333333","24.961345","6500600","新店區"
"231012","108-UY","2017/07/25 13:09:29","新北市新店區安華路28-1號","121.519553333333","24.961155","6500600","新店區"
"231020","187-VK","2017/07/25 13:09:35","新北市新店區安華路28-1號","121.519633333333","24.9612733333333","6500600","新店區"
"231069","189-VK","2017/07/25 12:45:26","新北市新店區安華路28-1號","121.519675","24.9609266666667","6500600","新店區"
"231009","192-VK","2017/07/25 13:09:29","新北市新店區頂石厝路8號","121.540971666667","24.91973","6500600","新店區"
"231026","256-BX","2017/07/25 13:09:30","新北市新店區安華路28-1號","121.519656666667","24.9613233333333","6500600","新店區"
"231034","268-BY","2017/07/25 13:09:36","新北市新店區安華路28-1號","121.519351666667","24.9605766666667","6500600","新店區"
"231010","278-BY","2017/07/25 13:09:22","新北市新店區安華路28-1號","121.519698333333","24.96123","6500600","新店區"
"231015","AAD-862","2017/07/25 13:09:21","新北市新店區安華路28-1號","121.519978333333","24.9612416666667","6500600","新店區"
"231038","4715-K9","2017/07/25 13:09:20","新北市新店區安華路28-1號","121.51934","24.9605883333333","6500600","新店區"
"231036","512-UM","2017/07/25 13:07:06","新北市新店區安康路一段359-27號","121.51883","24.961335","6500600","新店區"
"231023","513-UM","2017/07/25 13:09:36","新北市新店區安華路28-1號","121.519703333333","24.9611916666667","6500600","新店區"
"231006","617-UM","2017/07/25 13:09:25","新北市新店區安華路28-1號","121.519308333333","24.96094","6500600","新店區"
"231001","619-UM","2017/07/25 13:09:23","新北市新店區安華路28-1號","121.519473333333","24.9609083333333","6500600","新店區"
"231003","641-BX","2017/07/25 13:09:23","新北市新店區安華路28-1號","121.519515","24.96055","6500600","新店區"
"231013","719-UM","2017/07/25 13:09:36","新北市新店區安華路28-1號","121.519553333333","24.9613783333333","6500600","新店區"
"231032","720-UM","2017/07/25 13:09:28","新北市新店區安華路28-1號","121.519373333333","24.961165","6500600","新店區"
"231005","897-TW","2017/07/25 13:09:21","新北市新店區安華路28-1號","121.519543333333","24.9606883333333","6500600","新店區"
"231004","899-TW","2017/07/25 13:09:31","新北市新店區安華路28-1號","121.519305","24.9609416666667","6500600","新店區"
"231037","AKT-0513","2017/07/25 13:09:29","新北市新店區安華路1-1號","121.519361666667","24.9605316666667","6500600","新店區"
"235030","003-UY","2017/07/25 13:09:33","新北市中和區廣福路55號","121.502723333333","25.0013433333333","6500300","中和區"
"235028","005-UY","2017/07/25 13:09:39","新北市中和區中正路509號","121.488481666667","24.9940766666667","6500300","中和區"
"235029","098-UM","2017/07/25 13:09:20","新北市中和區橋和路270號","121.495725","25.0066483333333","6500300","中和區"
"235004","150-BY","2017/07/25 13:09:32","新北市中和區和城路一段271巷1號","121.485456666667","24.9917816666667","6500300","中和區"
"235022","151-BY","2017/07/25 13:09:27","新北市中和區圓通路367巷33弄6-1號","121.493073333333","24.9856333333333","6500300","中和區"
"235019","183-VK","2017/07/25 13:09:23","新北市中和區員山路36巷16-3號","121.485035","24.991365","6500300","中和區"
"235002","185-VK","2017/07/25 13:09:34","新北市中和區秀朗路三段10巷14弄102號","121.523165","24.9966416666667","6500300","中和區"
"235031","255-BX","2017/07/25 13:09:26","新北市中和區新生街17號","121.483251666667","25.0041633333333","6500300","中和區"
"235025","378-QA","2017/07/25 13:09:27","新北市中和區員山路36巷16-2號","121.485086666667","24.9916183333333","6500300","中和區"
"235033","4980-A6","2017/07/25 13:09:22","新北市中和區中正路637巷52弄1號","121.485508333333","24.9933666666667","6500300","中和區"
"235018","640-BX","2017/07/25 13:09:38","新北市中和區中正路637巷52弄1號","121.485546666667","24.993445","6500300","中和區"
"235035","783-BX","2017/07/25 13:09:26","新北市中和區橋和路81號","121.489455","25.0052466666667","6500300","中和區"
"235026","800-TS","2017/07/25 13:09:19","新北市中和區錦和路45號","121.488048333333","25.00087","6500300","中和區"
"235027","911-UM","2017/07/25 02:17:22","新北市中和區員山路36巷16-3號","121.485141666667","24.9913983333333","6500300","中和區"
"235001","AAC-213","2017/07/25 13:09:26","新北市中和區中正路637巷60弄61號","121.485583333333","24.9932566666667","6500300","中和區"
"235023","AAC-215","2017/07/25 13:09:31","新北市中和區員山路36巷16-2號","121.48518","24.9914","6500300","中和區"
"220016","013-TV","2017/07/25 13:09:31","新北市板橋區民生路二段15-1號","121.472751666667","25.0164383333333","6500100","板橋區"
"220013","072-UY","2017/07/25 13:09:22","新北市板橋區民生路二段22號","121.4728","25.0166583333333","6500100","板橋區"
"247001","402-BY","2017/07/25 13:09:32","新北市五股區中興路二段161號","121.457913333333","25.0770216666667","6501400","蘆洲區"
"228004","212-TW","2017/07/25 13:09:28","新北市貢寮區吉林里內寮街65-5號","121.891586666667","24.9787416666667","6502600","貢寮區"
"228005","828-UM","2017/07/25 13:09:24","新北市貢寮區仁理村尖山腳街20號","121.924631666667","25.047245","6502600","貢寮區"
"208004","AAC-292","2017/07/25 13:09:28","新北市金山區中山路251號","121.637078333333","25.2221166666667","6502700","金山區"
"207002","749-BX","2017/07/25 13:09:35","新北市萬里區崁腳里內崁路4號","121.642601666667","25.1595616666667","6502800","萬里區"
"207001","662-BX","2017/07/25 13:09:23","新北市萬里區萬里里獅頭路22-1號","121.69301","25.1781716666667","6502800","萬里區"
"252005","AAC-283","2017/07/25 13:09:27","新北市三芝區八賢里八連溪43-3號","121.51461","25.235215","6502100","三芝區"
"236006","498-BY","2017/07/25 13:09:23","新北市土城區亞洲路58巷2-5號","121.434936666667","24.9738183333333","6501300","土城區"
"221032","280-BY","2017/07/25 13:09:36","新北市汐止區龍安路171號","121.653646666667","25.0632883333333","6501100","汐止區"
"221002","753-BX","2017/07/25 13:09:35","新北市汐止區福德一路342巷1弄16號","121.628881666667","25.0634233333333","6501100","汐止區"
