"lineid","car","time","location","longitude","latitude","cityid","cityname"
"234044","148-BY","2017/07/25 13:59:28","新北市永和區成功路一段18巷20號","121.526176666667","25.0051683333333","6500400","永和區"
"234012","149-BY","2017/07/25 13:59:39","新北市永和區仁愛路287號","121.505528333333","25.0094333333333","6500400","永和區"
"234005","207-UY","2017/07/25 13:59:23","新北市中和區中和路234號","121.506945","24.999395","6500400","永和區"
"234078","298-R6","2017/07/25 13:59:34","新北市永和區國中路12號","121.524358333333","25.0050133333333","6500400","永和區"
"234036","336-UY","2017/07/25 13:59:27","新北市永和區成功路一段126號","121.52685","25.0023","6500400","永和區"
"234062","337-UY","2017/07/25 13:59:39","新北市永和區秀朗路一段196巷9號","121.519715","25.00272","6500400","永和區"
"234084","338-UY","2017/07/25 13:59:35","新北市永和區福和路149號","121.520613333333","25.0076766666667","6500400","永和區"
"234068","552-UM","2017/07/25 13:59:36","新北市永和區永貞路8號","121.520855","25.007295","6500400","永和區"
"234052","553-UM","2017/07/25 13:59:24","新北市永和區環河東路一段122號","121.520611666667","25.01551","6500400","永和區"
"234015","745-BX","2017/07/25 13:59:33","新北市永和區文化路14號","121.515388333333","25.015135","6500400","永和區"
"234028","746-BX","2017/07/25 13:59:34","新北市永和區民權路49巷14號","121.520875","24.99729","6500400","永和區"
"234060","AAD-866","2017/07/25 13:59:31","新北市永和區中正路151巷5弄1號","121.515931666667","24.9985183333333","6500400","永和區"
"234040","862-TW","2017/07/25 13:59:20","新北市永和區中和路335巷18弄17號","121.50792","25.0004183333333","6500400","永和區"
"234048","863-TW","2017/07/25 13:59:34","新北市永和區新生路271巷5號","121.50554","25.0129983333333","6500400","永和區"
"234025","9371-KE","2017/07/25 13:59:20","新北市永和區安樂路459號","121.5143","25.00508","6500400","永和區"
"234010","9373-KE","2017/07/25 13:59:34","新北市永和區仁愛路352巷92弄16號","121.501326666667","25.0082516666667","6500400","永和區"
"248017","225-UY","2017/07/25 13:59:28","新北市五股區民義路一段260號","121.426045","25.0925933333333","6501500","五股區"
"248012","655-BX","2017/07/25 10:25:08","新北市五股區中興路二段83巷26-6號","121.459795","25.07518","6501500","五股區"
"234022","9380-KE","2017/07/25 13:59:31","新北市永和區光復街2巷16弄35號","121.518256666667","25.016355","6500400","永和區"
"234076","969-R7","2017/07/25 13:59:23","新北市中和區自強路6-1號","121.519948333333","24.9960083333333","6500400","永和區"
"234072","AAC-211","2017/07/25 13:59:32","新北市永和區竹林路201巷29號","121.52197","25.009465","6500400","永和區"
"234066","AAC-212","2017/07/25 13:59:24","新北市永和區保平路236巷15弄18號","121.507723333333","25.006845","6500400","永和區"
"234001","AAC-295","2017/07/25 13:59:18","新北市永和區福和路316號","121.516096666667","25.007385","6500400","永和區"
"231002","002-UM","2017/07/25 13:59:36","新北市新店區中正路629號","121.533876666667","24.9891383333333","6500600","新店區"
"231025","0293-UT","2017/07/25 13:59:23","新北市新店區中正路366號","121.535291666667","24.9760966666667","6500600","新店區"
"231028","046-UY","2017/07/25 13:59:20","新北市新店區安和路三段125號","121.517311666667","24.985285","6500600","新店區"
"231030","047-UY","2017/07/25 13:59:36","新北市新店區安興路7-1號","121.515013333333","24.96866","6500600","新店區"
"231029","106-UY","2017/07/25 13:59:22","新北市新店區安和路一段7號","121.516693333333","24.964025","6500600","新店區"
"231018","107-UY","2017/07/25 13:59:15","新北市新店區中央路99號","121.531086666667","24.9750366666667","6500600","新店區"
"231012","108-UY","2017/07/25 13:59:29","新北市新店區中興路一段266-2號","121.545411666667","24.967115","6500600","新店區"
"231020","187-VK","2017/07/25 13:59:35","新北市新店區頂石厝路16號","121.536281666667","24.9203816666667","6500600","新店區"
"231069","189-VK","2017/07/25 12:45:26","新北市新店區安華路28-1號","121.519675","24.9609266666667","6500600","新店區"
"231026","256-BX","2017/07/25 13:59:30","新北市新店區安康路一段24巷6號","121.532403333333","24.9606933333333","6500600","新店區"
"231034","268-BY","2017/07/25 13:59:36","新北市新店區達觀路8巷5號","121.50384","24.9437716666667","6500600","新店區"
"231015","AAD-862","2017/07/25 13:59:26","新北市新店區郵政路3巷2號","121.557283333333","24.9518383333333","6500600","新店區"
"231027","3712-VJ","2017/07/25 13:59:21","新北市新店區北宜路一段39巷20號","121.538736666667","24.95841","6500600","新店區"
"231024","3713-VJ","2017/07/25 13:59:33","新北市新店區新生街13巷26號","121.539005","24.96655","6500600","新店區"
"231038","4715-K9","2017/07/25 13:59:20","新北市新店區溪洲路121號","121.531381666667","24.9626833333333","6500600","新店區"
"231036","512-UM","2017/07/25 13:59:38","新北市新店區安祥路109巷5號","121.47568","24.9589383333333","6500600","新店區"
"231023","513-UM","2017/07/25 13:59:36","新北市新店區文中路40號","121.539693333333","24.9565833333333","6500600","新店區"
"231035","515-UM","2017/07/25 13:59:28","新北市新店區安和路二段1-1號","121.517851666667","24.9668183333333","6500600","新店區"
"231006","617-UM","2017/07/25 13:59:25","新北市新店區北宜路二段209號","121.553185","24.95329","6500600","新店區"
"231001","619-UM","2017/07/25 13:59:23","新北市新店區三民路24號","121.537158333333","24.9710016666667","6500600","新店區"
"231003","641-BX","2017/07/25 13:59:23","新北市新店區北宜路一段3號","121.538381666667","24.9585316666667","6500600","新店區"
"231013","719-UM","2017/07/25 13:59:36","新北市新店區明德路66號","121.541518333333","24.9795416666667","6500600","新店區"
"231032","720-UM","2017/07/25 13:59:28","新北市新店區華城路36巷10-2號","121.527116666667","24.9566783333333","6500600","新店區"
"231005","897-TW","2017/07/25 13:59:21","新北市新店區中興路三段218號","121.54354","24.9825933333333","6500600","新店區"
"231004","899-TW","2017/07/25 13:59:30","新北市新店區北新路二段137號","121.542883333333","24.9755883333333","6500600","新店區"
"231037","AKT-0513","2017/07/25 13:59:29","新北市新店區安康路三段165巷2-1號","121.489593333333","24.9516016666667","6500600","新店區"
"235030","003-UY","2017/07/25 13:59:33","新北市中和區中山路二段131巷5弄6號","121.503058333333","25.0029366666667","6500300","中和區"
"235028","005-UY","2017/07/25 13:59:18","新北市中和區泰和街44巷1號","121.498725","25.00013","6500300","中和區"
"235020","096-UM","2017/07/25 13:59:36","新北市中和區中正路1222號","121.479641666667","25.0108983333333","6500300","中和區"
"235003","097-UM","2017/07/25 13:59:21","新北市中和區大智街57號","121.521108333333","24.9921383333333","6500300","中和區"
"235029","098-UM","2017/07/25 13:59:28","新北市中和區福祥路133號","121.498466666667","25.0072666666667","6500300","中和區"
"235004","150-BY","2017/07/25 13:59:33","新北市中和區保健路50巷29號","121.509898333333","24.9961666666667","6500300","中和區"
"235022","151-BY","2017/07/25 13:59:27","新北市中和區連城路571-1號","121.479281666667","24.9946","6500300","中和區"
"235019","183-VK","2017/07/25 13:59:23","新北市中和區中山路三段229巷17號","121.470418333333","25.0062733333333","6500300","中和區"
"235002","185-VK","2017/07/25 13:59:34","新北市中和區大勇街31巷6弄2號","121.517228333333","24.9943316666667","6500300","中和區"
"235013","186-VK","2017/07/25 13:59:28","新北市中和區景安路167巷1號","121.505536666667","24.9947616666667","6500300","中和區"
"235031","255-BX","2017/07/25 13:59:27","新北市中和區連城路340巷14弄2號","121.483313333333","24.9971816666667","6500300","中和區"
"235008","293-VK","2017/07/25 13:59:29","新北市中和區中興街165號","121.499843333333","24.9906766666667","6500300","中和區"
"235036","301-VK","2017/07/25 13:59:28","新北市中和區中山路二段152號","121.501555","25.0030733333333","6500300","中和區"
"235007","352-BY","2017/07/25 13:59:18","新北市中和區成功路90號","121.525798333333","24.9912533333333","6500300","中和區"
"235015","376-QA","2017/07/25 13:59:36","新北市中和區忠孝街106巷33號","121.513356666667","24.9843133333333","6500300","中和區"
"235032","377-QA","2017/07/25 13:59:18","新北市中和區圓通路265巷32號","121.495881666667","24.992545","6500300","中和區"
"235025","378-QA","2017/07/25 13:59:27","新北市中和區民享街89巷9弄3號","121.474941666667","25.001995","6500300","中和區"
"235014","4979-A6","2017/07/25 13:59:30","新北市中和區華新街50巷3號","121.50775","24.9838566666667","6500300","中和區"
"235033","4980-A6","2017/07/25 13:59:22","新北市中和區圓通路78號","121.50004","24.9970533333333","6500300","中和區"
"235006","551-UM","2017/07/25 13:59:28","新北市中和區秀朗路三段10巷29弄8號","121.524876666667","24.99602","6500300","中和區"
"235034","558-UM","2017/07/25 13:59:18","新北市中和區南山路24號","121.501968333333","24.9983016666667","6500300","中和區"
"235009","565-BX","2017/07/25 13:59:30","新北市中和區景新街459號","121.513283333333","24.988315","6500300","中和區"
"235018","640-BX","2017/07/25 13:59:35","新北市中和區民享街29巷1-1號","121.474031666667","25.004525","6500300","中和區"
"235024","647-TV","2017/07/25 13:59:21","新北市中和區中山路三段150號","121.473531666667","25.0063216666667","6500300","中和區"
"235011","732-UM","2017/07/25 13:59:24","新北市中和區興南路二段82號","121.505741666667","24.9845466666667","6500300","中和區"
"235010","733-UM","2017/07/25 13:59:20","新北市中和區興南路二段11號","121.508148333333","24.9862","6500300","中和區"
"235035","783-BX","2017/07/25 13:59:26","新北市中和區立德街98巷79號","121.488313333333","25.008895","6500300","中和區"
"235026","800-TS","2017/07/25 13:59:19","新北市中和區中山路二段366巷20號","121.491843333333","25.004385","6500300","中和區"
"235021","801-TS","2017/07/25 13:59:21","新北市中和區民安街25巷11號","121.480523333333","25.0003433333333","6500300","中和區"
"235005","802-TS","2017/07/25 13:59:35","新北市中和區永貞路241號","121.513173333333","25.0038383333333","6500300","中和區"
"235016","805-TS","2017/07/25 13:59:36","新北市中和區興南路二段261巷6-3號","121.502583333333","24.9795883333333","6500300","中和區"
"235012","896-TW","2017/07/25 13:59:31","新北市中和區華新街35號","121.507765","24.984675","6500300","中和區"
"235017","900-TW","2017/07/25 13:59:17","新北市中和區華順街142號","121.46467","24.9957483333333","6500300","中和區"
"235027","911-UM","2017/07/25 13:59:35","新北市中和區連城路319巷11弄12號","121.489706666667","24.9949466666667","6500300","中和區"
"235001","AAC-213","2017/07/25 13:59:26","新北市中和區秀朗路三段128巷13號","121.524486666667","24.9933733333333","6500300","中和區"
"235023","AAC-215","2017/07/25 13:59:31","新北市中和區圓通路367巷18-5號","121.491815","24.9884766666667","6500300","中和區"
"220016","013-TV","2017/07/25 13:59:31","新北市板橋區中山路二段465巷46號","121.48117","25.0216733333333","6500100","板橋區"
"220013","072-UY","2017/07/25 13:59:31","新北市板橋區民族路247巷9弄4號","121.471286666667","25.0079916666667","6500100","板橋區"
"220034","073-UY","2017/07/25 13:59:21","新北市板橋區中正路277號","121.455521666667","25.0189866666667","6500100","板橋區"
"220105","075-UY","2017/07/25 13:59:15","新北市板橋區文化路二段124巷28-2號","121.471228333333","25.0256783333333","6500100","板橋區"
"220047","120-SR","2017/07/25 13:59:29","新北市板橋區民生路三段66號","121.466755","25.025625","6500100","板橋區"
"247019","893-R6","2017/07/25 13:59:37","新北市蘆洲區民族路422巷90號","121.473321666667","25.093925","6501400","蘆洲區"
"247009","546-UM","2017/07/25 13:59:28","新北市蘆洲區集賢路224巷5號","121.482111666667","25.0866366666667","6501400","蘆洲區"
"247017","500-BY","2017/07/25 13:59:37","新北市蘆洲區民族路327巷73號","121.475271666667","25.0898216666667","6501400","蘆洲區"
"247001","402-BY","2017/07/25 13:59:32","新北市蘆洲區集賢路237號","121.482008333333","25.0850633333333","6501400","蘆洲區"
"247005","341-TH","2017/07/25 13:59:31","新北市蘆洲區九芎街189號","121.464526666667","25.078465","6501400","蘆洲區"
"247007","339-TH","2017/07/25 13:59:27","新北市三重區三和路四段396巷43號","121.47956","25.0788283333333","6501400","蘆洲區"
"247023","337-TH","2017/07/25 13:59:28","新北市蘆洲區光榮路120巷9號","121.465205","25.0887983333333","6501400","蘆洲區"
"247001","336-TH","2017/07/25 13:59:26","新北市蘆洲區三民路605號","121.460636666667","25.0937216666667","6501400","蘆洲區"
"247013","057-VK","2017/07/25 13:59:21","新北市蘆洲區保和街81號","121.469103333333","25.086","6501400","蘆洲區"
"247003","056-VK","2017/07/25 13:59:25","新北市蘆洲區長榮路1號","121.463848333333","25.0820616666667","6501400","蘆洲區"
"247011","007-UY","2017/07/25 13:59:27","新北市蘆洲區民族路158號","121.47967","25.0861966666667","6501400","蘆洲區"
"247021","002-UY","2017/07/25 13:59:29","新北市蘆洲區中正路263巷2號","121.467283333333","25.0874133333333","6501400","蘆洲區"
"247015","001-UY","2017/07/25 13:59:28","新北市蘆洲區光華路22巷4號","121.469416666667","25.0836866666667","6501400","蘆洲區"
"228004","212-TW","2017/07/25 13:59:28","新北市貢寮區龍崗里嵩陽街40號","121.905396666667","25.0149816666667","6502600","貢寮區"
"228005","828-UM","2017/07/25 13:59:24","新北市貢寮區美豐里土地公嶺24號","121.890828333333","25.0634433333333","6502600","貢寮區"
"208004","AAC-292","2017/07/25 13:59:28","新北市金山區山城路29號","121.59833","25.2019466666667","6502700","金山區"
"207002","749-BX","2017/07/25 13:59:34","新北市萬里區溪底里溪底路11號","121.613125","25.1470866666667","6502800","萬里區"
"207001","662-BX","2017/07/25 13:59:23","新北市萬里區磺潭里磺溪12-1號","121.632955","25.202445","6502800","萬里區"
"252005","AAC-283","2017/07/25 13:59:27","新北市三芝區橫山里橫山52號","121.533433333333","25.25639","6502100","三芝區"
"236065","105-UM","2017/07/25 13:59:30","新北市土城區和平路42號","121.444928333333","24.970665","6501300","土城區"
"236041","107-UM","2017/07/25 13:59:25","新北市土城區中央路一段303號","121.443865","24.98352","6501300","土城區"
"236075","166-UM","2017/07/25 13:59:31","新北市土城區永寧路32巷4號","121.429116666667","24.9606616666667","6501300","土城區"
"236029","253-BX","2017/07/25 13:59:23","新北市土城區中央路二段280號","121.440716666667","24.97422","6501300","土城區"
"236013","270-VK","2017/07/25 13:59:32","新北市土城區員福街50號","121.440503333333","24.9791316666667","6501300","土城區"
"236034","271-VK","2017/07/25 13:59:20","新北市土城區城林路6巷80號","121.43841","24.9798216666667","6501300","土城區"
"236017","401-BY","2017/07/25 13:59:19","新北市土城區城林路6巷80號","121.438701666667","24.9797916666667","6501300","土城區"
"236006","498-BY","2017/07/25 13:59:23","新北市土城區中央路一段365巷11號","121.444773333333","24.98051","6501300","土城區"
"236057","912-UM","2017/07/25 13:59:27","新北市土城區大安路2號","121.432785","24.9654866666667","6501300","土城區"
"236045","913-UM","2017/07/25 13:59:33","新北市土城區城林路6巷80號","121.438375","24.97981","6501300","土城區"
"236061","915-UM","2017/07/25 13:59:28","新北市土城區城林路6巷80號","121.43839","24.9797833333333","6501300","土城區"
"236054","AAC-216","2017/07/25 13:59:28","新北市土城區城林路6巷80號","121.438413333333","24.9797366666667","6501300","土城區"
"242044","172-VK","2017/07/25 13:59:21","新北市新莊區龍安路425號","121.423663333333","25.01889","6500500","新莊區"
"220027","145-BY","2017/07/25 13:59:26","新北市板橋區民權路202巷9弄62號","121.459161666667","25.01572","6500100","板橋區"
"220028","200-UY","2017/07/25 13:59:32","新北市板橋區大觀路二段力行3巷42號","121.444615","24.9976866666667","6500100","板橋區"
"220030","610-BX","2017/07/25 13:59:37","新北市板橋區篤行路三段2-1號","121.42931","24.987915","6500100","板橋區"
"220050","245-BX","2017/07/24 21:29:22","新北市板橋區民生路二段120號","121.470471666667","25.0195216666667","6500100","板橋區"
"220017","258-TC","2017/07/25 13:59:31","新北市板橋區大華街70號","121.459081666667","25.005825","6500100","板橋區"
"220004","276-BY","2017/07/25 13:59:27","新北市板橋區信義路146號","121.458715","24.9918816666667","6500100","板橋區"
"220020","277-BY","2017/07/25 13:59:17","新北市板橋區大觀路三段50巷91號","121.43123","24.99646","6500100","板橋區"
"220043","283-UM","2017/07/25 13:59:25","新北市板橋區莒光路8-2號","121.46955","25.0248283333333","6500100","板橋區"
"220019","283-VK","2017/07/25 13:59:31","新北市板橋區忠孝路176巷23號","121.465285","25.001815","6500100","板橋區"
"220001","285-VK","2017/07/25 13:59:20","新北市板橋區中山路二段89巷68號","121.473616666667","25.017685","6500100","板橋區"
"220031","286-VK","2017/07/25 13:59:34","新北市板橋區大觀路一段38巷156弄59號","121.443005","25.006695","6500100","板橋區"
"220029","287-VK","2017/07/25 13:59:33","新北市板橋區南雅西路二段98-4號","121.452393333333","25.0115166666667","6500100","板橋區"
"220039","288-VK","2017/07/25 13:59:25","新北市板橋區民生路三段66-3號","121.46688","25.02575","6500100","板橋區"
"220009","295-UM","2017/07/25 13:59:33","新北市板橋區富山街100號","121.476338333333","25.0219733333333","6500100","板橋區"
"220032","296-UM","2017/07/25 13:59:34","新北市板橋區大觀路二段142-1號","121.44264","24.9992383333333","6500100","板橋區"
"220023","297-UM","2017/07/25 13:59:24","新北市板橋區館前西路213巷13號","121.45439","25.0082216666667","6500100","板橋區"
"220010","303-R5","2017/07/25 13:59:30","新北市板橋區三民路二段251號","121.478985","25.0122","6500100","板橋區"
"220041","307-R5","2017/07/25 13:59:35","新北市板橋區文化路一段88號","121.464461666667","25.0174566666667","6500100","板橋區"
"220012","486-VK","2017/07/25 13:59:19","新北市板橋區縣民大道二段90號","121.466621666667","25.0145366666667","6500100","板橋區"
"220038","487-VK","2017/07/25 13:59:04","新北市板橋區文化路二段318號","121.472308333333","25.0298183333333","6500100","板橋區"
"220037","491-VK","2017/07/25 13:59:18","新北市板橋區文化路二段159號","121.470363333333","25.0272033333333","6500100","板橋區"
"220104","560-BX","2017/07/25 13:59:24","新北市板橋區中正路375巷27號","121.453816666667","25.020195","6500100","板橋區"
"220052","561-BX","2017/07/25 13:59:36","新北市板橋區縣民大道二段279號","121.470016666667","25.017795","6500100","板橋區"
"220011","609-BX","2017/07/25 13:59:21","新北市板橋區中山路二段110號","121.475933333333","25.0166616666667","6500100","板橋區"
"220040","637-BX","2017/07/25 13:59:20","新北市板橋區萬板路165號","121.474026666667","25.0237383333333","6500100","板橋區"
"220005","686-BX","2017/07/25 13:59:29","新北市板橋區縣民大道二段1號","121.462251666667","25.0115016666667","6500100","板橋區"
"220025","687-BX","2017/07/25 13:59:34","新北市板橋區大觀路二段174巷139號","121.441321666667","25.0023633333333","6500100","板橋區"
"220042","689-BX","2017/07/25 13:59:22","新北市板橋區民生路三段10號","121.46772","25.0240583333333","6500100","板橋區"
"220002","741-BX","2017/07/25 13:59:22","新北市板橋區中山路一段30號","121.460425","25.008475","6500100","板橋區"
"220003","827-TW","2017/07/25 13:59:29","新北市板橋區民安街18號","121.466813333333","25.0116083333333","6500100","板橋區"
"220014","829-TW","2017/07/25 13:59:32","新北市板橋區三民路二段正隆巷12弄1號","121.478038333333","25.0129016666667","6500100","板橋區"
"220051","830-TW","2017/07/25 13:59:21","新北市板橋區雙十路一段44巷36號","121.477381666667","25.0247366666667","6500100","板橋區"
"220045","831-TW","2017/07/25 13:59:31","新北市板橋區莒光路133巷7弄2號","121.47261","25.0244866666667","6500100","板橋區"
"220022","895-R6","2017/07/25 13:59:27","新北市板橋區林園街7-1號","121.453938333333","25.0091516666667","6500100","板橋區"
"220021","985-R7","2017/07/25 13:59:25","新北市板橋區館前西路195號","121.455211666667","25.0082133333333","6500100","板橋區"
"220046","AAC-210","2017/07/25 13:59:29","新北市板橋區四維路137巷5號","121.464361666667","25.0249783333333","6500100","板橋區"
"220018","AAC-253","2017/07/25 13:59:16","新北市板橋區中山路一段34號","121.46048","25.0086583333333","6500100","板橋區"
