"lineid","car","time","location","longitude","latitude","cityid","cityname"
"234044","148-BY","2017/07/25 14:09:28","新北市永和區得和路395號","121.525353333333","24.9992566666667","6500400","永和區"
"234012","149-BY","2017/07/25 14:09:18","新北市永和區保生路5巷1號","121.506218333333","25.0071816666667","6500400","永和區"
"234005","207-UY","2017/07/25 14:09:23","新北市永和區永貞路372號","121.510005","25.0067666666667","6500400","永和區"
"234078","298-R6","2017/07/25 14:09:21","新北市永和區國中路109巷3弄1號","121.523828333333","25.0056116666667","6500400","永和區"
"234036","336-UY","2017/07/25 14:09:27","新北市永和區成功路一段93巷20弄2號","121.528271666667","25.0026966666667","6500400","永和區"
"234062","337-UY","2017/07/25 14:09:31","新北市永和區林森路122號","121.522498333333","25.0031433333333","6500400","永和區"
"234084","338-UY","2017/07/25 14:09:35","新北市永和區福和路217號","121.519128333333","25.00743","6500400","永和區"
"234068","552-UM","2017/07/25 14:09:24","新北市永和區福和路239號","121.518411666667","25.0072966666667","6500400","永和區"
"234052","553-UM","2017/07/25 14:09:24","新北市永和區博愛街14號","121.516976666667","25.015775","6500400","永和區"
"234015","745-BX","2017/07/25 14:09:33","新北市永和區仁愛路97號","121.512918333333","25.0131716666667","6500400","永和區"
"234028","746-BX","2017/07/25 14:09:34","新北市永和區民權路84號","121.519845","24.997025","6500400","永和區"
"234060","AAD-866","2017/07/25 14:09:35","新北市永和區得和路9號","121.515121666667","25.000625","6500400","永和區"
"234040","862-TW","2017/07/25 14:09:21","新北市永和區雙和街64巷22弄5-1號","121.509773333333","25.00289","6500400","永和區"
"234048","863-TW","2017/07/25 14:09:14","新北市永和區新生路28巷16號","121.508295","25.0163416666667","6500400","永和區"
"234025","9371-KE","2017/07/25 14:09:20","新北市永和區安樂路417號","121.514486666667","25.0040116666667","6500400","永和區"
"234010","9373-KE","2017/07/25 14:09:15","新北市永和區環河西路二段241號","121.500655","25.0091866666667","6500400","永和區"
"248017","225-UY","2017/07/25 14:09:28","新北市五股區民義路一段251號","121.42789","25.0908816666667","6501500","五股區"
"248012","655-BX","2017/07/25 10:25:08","新北市五股區中興路二段83巷26-6號","121.459795","25.07518","6501500","五股區"
"234022","9380-KE","2017/07/25 14:09:31","新北市永和區竹林路25巷15號","121.517795","25.0149133333333","6500400","永和區"
"234076","969-R7","2017/07/25 14:09:23","新北市永和區民族街81巷50號","121.51992","24.9965166666667","6500400","永和區"
"234072","AAC-211","2017/07/25 14:09:32","新北市永和區豫溪街191巷7弄18號","121.523361666667","25.0109783333333","6500400","永和區"
"234066","AAC-212","2017/07/25 14:09:24","新北市永和區永貞路358號","121.510113333333","25.006605","6500400","永和區"
"234001","AAC-295","2017/07/25 14:09:19","新北市永和區中正路708號","121.515975","25.009985","6500400","永和區"
"231002","002-UM","2017/07/25 14:09:16","新北市新店區中正路485號","121.533803333333","24.9819083333333","6500600","新店區"
"231025","0293-UT","2017/07/25 14:09:23","新北市新店區中正路328巷32號","121.53783","24.976135","6500600","新店區"
"231028","046-UY","2017/07/25 14:09:20","新北市新店區安和路2段237-1號","121.516931666667","24.97644","6500600","新店區"
"231030","047-UY","2017/07/25 14:09:17","新北市新店區安民街115巷28號","121.515166666667","24.9676033333333","6500600","新店區"
"231029","106-UY","2017/07/25 14:09:22","新北市新店區安康路二段161號","121.51028","24.9593733333333","6500600","新店區"
"231018","107-UY","2017/07/25 14:09:35","新北市新店區中央五街46號","121.52808","24.9750733333333","6500600","新店區"
"231012","108-UY","2017/07/25 14:09:29","新北市新店區五峰路63巷8弄44號","121.547986666667","24.9685933333333","6500600","新店區"
"231020","187-VK","2017/07/25 14:09:35","新北市新店區新烏路二段313號","121.5489","24.912475","6500600","新店區"
"231069","189-VK","2017/07/25 12:45:26","新北市新店區安華路28-1號","121.519675","24.9609266666667","6500600","新店區"
"231026","256-BX","2017/07/25 14:09:30","新北市新店區安華路28-1號","121.519701666667","24.9611733333333","6500600","新店區"
"231034","268-BY","2017/07/25 14:09:16","新北市新店區黎明路3號","121.50329","24.9523033333333","6500600","新店區"
"231015","AAD-862","2017/07/25 14:09:21","新北市新店區中生路125-1號","121.566013333333","24.9507866666667","6500600","新店區"
"231027","3712-VJ","2017/07/25 14:09:21","新北市新店區北宜路一段9號","121.538385","24.958075","6500600","新店區"
"231038","4715-K9","2017/07/25 14:09:20","新北市新店區溪洲路121號","121.531383333333","24.962695","6500600","新店區"
"231036","512-UM","2017/07/25 14:09:27","新北市新店區安祥路109巷6弄41號","121.475525","24.95738","6500600","新店區"
"231023","513-UM","2017/07/25 14:09:16","新北市新店區文中路39巷2號","121.53937","24.95679","6500600","新店區"
"231035","515-UM","2017/07/25 14:09:28","新北市新店區安民街156巷33號","121.51799","24.9701333333333","6500600","新店區"
"231006","617-UM","2017/07/25 14:09:25","新北市新店區北宜路二段126號","121.556861666667","24.9538683333333","6500600","新店區"
"231001","619-UM","2017/07/25 14:09:23","新北市新店區中華路52號","121.539558333333","24.9685716666667","6500600","新店區"
"231003","641-BX","2017/07/25 14:09:24","新北市新店區中興路一段144號","121.542361666667","24.96376","6500600","新店區"
"231013","719-UM","2017/07/25 14:09:16","新北市新店區北新路三段65巷34弄9號","121.54002","24.9813666666667","6500600","新店區"
"231032","720-UM","2017/07/25 14:09:28","新北市新店區碧潭路43號","121.534118333333","24.9563916666667","6500600","新店區"
"231005","897-TW","2017/07/25 14:09:21","新北市新店區中興路三段247-1號","121.54268","24.983895","6500600","新店區"
"231004","899-TW","2017/07/25 14:09:31","新北市新店區北新路二段173號","121.54288","24.97673","6500600","新店區"
"231037","AKT-0513","2017/07/25 14:09:29","新北市新店區安康路二段311號","121.49991","24.9568766666667","6500600","新店區"
"235030","003-UY","2017/07/25 14:09:33","新北市中和區廣福路38號","121.504395","25.002145","6500300","中和區"
"235028","005-UY","2017/07/25 14:09:18","新北市中和區連城路47巷1號","121.498283333333","25.0016016666667","6500300","中和區"
"235020","096-UM","2017/07/25 14:09:36","新北市中和區中正路1171號","121.481356666667","25.0094983333333","6500300","中和區"
"235003","097-UM","2017/07/25 14:09:21","新北市中和區景平路3號","121.523716666667","24.9903016666667","6500300","中和區"
"235029","098-UM","2017/07/25 14:09:24","新北市中和區中山路二段116巷3弄9號","121.502196666667","25.0040083333333","6500300","中和區"
"235004","150-BY","2017/07/25 14:09:13","新北市中和區保健路10巷23弄1號","121.50797","24.9966833333333","6500300","中和區"
"235022","151-BY","2017/07/25 14:09:27","新北市中和區員山路116號","121.48106","24.9958016666667","6500300","中和區"
"235019","183-VK","2017/07/25 14:09:23","新北市中和區德光路132號","121.467983333333","25.003295","6500300","中和區"
"235002","185-VK","2017/07/25 14:09:34","新北市中和區自強路52號","121.520093333333","24.9948333333333","6500300","中和區"
"235013","186-VK","2017/07/25 14:09:22","新北市中和區景新街171號","121.506613333333","24.9956333333333","6500300","中和區"
"235031","255-BX","2017/07/25 14:09:34","新北市中和區新生街221號","121.48382","24.9994283333333","6500300","中和區"
"235008","293-VK","2017/07/25 14:09:16","新北市中和區中興街161巷6弄1號","121.500765","24.990895","6500300","中和區"
"235036","301-VK","2017/07/25 14:09:28","新北市中和區莊敬路33巷20號","121.5002","25.0055083333333","6500300","中和區"
"235007","352-BY","2017/07/25 14:09:18","新北市中和區景平路266號","121.51472","24.992715","6500300","中和區"
"235015","376-QA","2017/07/25 14:09:36","新北市中和區忠孝街31巷33弄2號","121.509716666667","24.9846516666667","6500300","中和區"
"235032","377-QA","2017/07/25 14:09:18","新北市中和區安邦街95號","121.497241666667","24.996105","6500300","中和區"
"235025","378-QA","2017/07/25 14:09:27","新北市中和區中山路三段63巷9號","121.477155","25.00426","6500300","中和區"
"235014","4979-A6","2017/07/25 14:09:30","新北市中和區復興路280巷18弄18號","121.501955","24.99205","6500300","中和區"
"235033","4980-A6","2017/07/25 14:09:22","新北市中和區廣福路71巷34號","121.502543333333","25.0004816666667","6500300","中和區"
"235006","551-UM","2017/07/25 14:09:28","新北市中和區立人街69巷15弄5號","121.521156666667","24.9935866666667","6500300","中和區"
"235034","558-UM","2017/07/25 14:09:18","新北市中和區中和路275號","121.505676666667","24.9997616666667","6500300","中和區"
"235009","565-BX","2017/07/25 14:09:33","新北市中和區景新街467巷33號","121.514591666667","24.9887466666667","6500300","中和區"
"235018","640-BX","2017/07/25 14:09:18","新北市中和區國光街107巷4弄4-3號","121.470181666667","24.9996916666667","6500300","中和區"
"235024","647-TV","2017/07/25 14:09:21","新北市中和區民享街38號","121.473911666667","25.0030316666667","6500300","中和區"
"235011","732-UM","2017/07/25 14:09:24","新北市中和區興南路一段58號","121.51091","24.9904","6500300","中和區"
"235010","733-UM","2017/07/25 14:09:20","新北市中和區忠孝街1巷48號","121.508443333333","24.9843116666667","6500300","中和區"
"235035","783-BX","2017/07/25 14:09:26","新北市中和區中山路二段361號","121.487883333333","25.00456","6500300","中和區"
"235026","800-TS","2017/07/25 14:09:19","新北市中和區中山路二段380巷14-1號","121.490833333333","25.0049016666667","6500300","中和區"
"235021","801-TS","2017/07/25 14:09:20","新北市中和區民利街40巷3弄11號","121.47887","24.99919","6500300","中和區"
"235005","802-TS","2017/07/25 14:09:15","新北市中和區中安街58號","121.512603333333","25.00234","6500300","中和區"
"235016","805-TS","2017/07/25 14:09:36","新北市中和區興南路二段114巷2號","121.504351666667","24.984235","6500300","中和區"
"235012","896-TW","2017/07/25 14:09:31","新北市中和區華新街109巷11弄2-10號","121.50859","24.9793833333333","6500300","中和區"
"235017","900-TW","2017/07/25 14:09:17","新北市中和區華福街2-3號","121.465175","24.9969416666667","6500300","中和區"
"235027","911-UM","2017/07/25 14:09:15","新北市中和區中正路538號","121.487493333333","24.9943783333333","6500300","中和區"
"235001","AAC-213","2017/07/25 14:09:26","新北市中和區秀朗路三段10巷37弄1號","121.524161666667","24.9960916666667","6500300","中和區"
"235023","AAC-215","2017/07/25 14:09:31","新北市中和區圓通路296巷31弄1號","121.488596666667","24.9904616666667","6500300","中和區"
"220016","013-TV","2017/07/25 14:09:31","新北市板橋區翠華街6巷1號","121.480415","25.02402","6500100","板橋區"
"220013","072-UY","2017/07/25 14:09:28","新北市板橋區民族路151巷2弄10號","121.469435","25.0080216666667","6500100","板橋區"
"220034","073-UY","2017/07/25 14:09:21","新北市板橋區中正路236巷77號","121.459058333333","25.0196233333333","6500100","板橋區"
"220105","075-UY","2017/07/25 14:09:35","新北市板橋區文化路二段263巷20號","121.471293333333","25.0298583333333","6500100","板橋區"
"220047","120-SR","2017/07/25 14:09:29","新北市板橋區自由路51巷14弄1號","121.464781666667","25.02359","6500100","板橋區"
"247019","893-R6","2017/07/25 14:09:17","新北市蘆洲區仁愛街25號","121.472348333333","25.092545","6501400","蘆洲區"
"247009","546-UM","2017/07/25 14:09:28","新北市蘆洲區民族路38號","121.476576666667","25.084335","6501400","蘆洲區"
"247017","500-BY","2017/07/25 14:09:17","新北市蘆洲區民族路201巷5號","121.477548333333","25.0889083333333","6501400","蘆洲區"
"247001","402-BY","2017/07/25 14:09:34","新北市蘆洲區三民路88號","121.47361","25.0854983333333","6501400","蘆洲區"
"247005","341-TH","2017/07/25 14:09:31","新北市蘆洲區永安南路二段16巷17弄17號","121.467528333333","25.0779266666667","6501400","蘆洲區"
"247007","339-TH","2017/07/25 14:09:27","新北市蘆洲區中山一路285號","121.47195","25.0795833333333","6501400","蘆洲區"
"247023","337-TH","2017/07/25 14:09:29","新北市蘆洲區光榮路112號","121.464396666667","25.0893883333333","6501400","蘆洲區"
"247001","336-TH","2017/07/25 14:09:26","新北市蘆洲區永平街63號","121.457495","25.0915016666667","6501400","蘆洲區"
"247013","057-VK","2017/07/25 14:09:21","新北市蘆洲區三民路123號","121.47235","25.0862233333333","6501400","蘆洲區"
"247003","056-VK","2017/07/25 14:09:24","新北市蘆洲區中華街6巷40號","121.462591666667","25.0824216666667","6501400","蘆洲區"
"247011","007-UY","2017/07/25 14:09:27","新北市蘆洲區信義路282號","121.477845","25.087225","6501400","蘆洲區"
"247021","002-UY","2017/07/25 14:09:29","新北市蘆洲區保和街22號","121.470685","25.0865983333333","6501400","蘆洲區"
"247015","001-UY","2017/07/25 14:09:27","新北市蘆洲區光華路48號","121.46867","25.083105","6501400","蘆洲區"
"228004","212-TW","2017/07/25 14:09:08","新北市貢寮區龍崗里嵩陽街40號","121.905651666667","25.0151283333333","6502600","貢寮區"
"228005","828-UM","2017/07/25 14:00:44","新北市貢寮區美豐里雞母嶺街52號","121.88986","25.0679333333333","6502600","貢寮區"
"208004","AAC-292","2017/07/25 14:09:28","新北市金山區重和里六股林口75號","121.6013","25.2168866666667","6502700","金山區"
"207002","749-BX","2017/07/25 14:09:14","新北市萬里區溪底里瑞泉路21號","121.60463","25.1488516666667","6502800","萬里區"
"207001","662-BX","2017/07/25 14:09:23","新北市萬里區磺潭里清水18號","121.637761666667","25.1977833333333","6502800","萬里區"
"252005","AAC-283","2017/07/25 14:09:27","新北市三芝區橫山里橫山13-1號","121.537841666667","25.262805","6502100","三芝區"
"236065","105-UM","2017/07/25 14:09:30","新北市土城區金城路一段131號","121.444983333333","24.9737266666667","6501300","土城區"
"236041","107-UM","2017/07/25 14:09:25","新北市土城區裕生路61號","121.447635","24.9860966666667","6501300","土城區"
"236075","166-UM","2017/07/25 14:09:33","新北市土城區永安街85號","121.430975","24.9638283333333","6501300","土城區"
"236029","253-BX","2017/07/25 14:09:23","新北市土城區中央路三段1號","121.439801666667","24.97076","6501300","土城區"
"236025","269-VK","2017/07/25 14:09:30","新北市土城區承天路18號","121.439451666667","24.9634916666667","6501300","土城區"
"236013","270-VK","2017/07/25 14:09:32","新北市土城區青雲路39巷7號","121.460333333333","24.9876016666667","6501300","土城區"
"236034","271-VK","2017/07/25 14:09:20","新北市土城區青雲路449號","121.459013333333","24.974895","6501300","土城區"
"236017","401-BY","2017/07/25 14:09:19","新北市土城區中央路二段282號","121.440598333333","24.9740133333333","6501300","土城區"
"236006","498-BY","2017/07/25 14:09:23","新北市土城區中華路一段10-1號","121.448055","24.9907233333333","6501300","土城區"
"236057","912-UM","2017/07/25 14:09:27","新北市土城區中央路四段22號","121.421023333333","24.9609816666667","6501300","土城區"
"236045","913-UM","2017/07/25 14:09:13","新北市土城區明德路一段365-1號","121.453543333333","24.9790833333333","6501300","土城區"
"236061","915-UM","2017/07/25 14:09:28","新北市土城區中正路82-1號","121.445206666667","24.9757566666667","6501300","土城區"
"236054","AAC-216","2017/07/25 14:09:28","新北市土城區中華路二段92號","121.438225","24.9747466666667","6501300","土城區"
"242044","172-VK","2017/07/25 14:09:21","新北市新莊區民安西路410巷8弄4號","121.428245","25.0098516666667","6500500","新莊區"
"220027","145-BY","2017/07/25 14:09:26","新北市板橋區民權路260巷5號","121.458296666667","25.015385","6500100","板橋區"
"220028","200-UY","2017/07/25 14:09:26","新北市板橋區大觀路二段7巷90號","121.449851666667","25.00297","6500100","板橋區"
"220030","610-BX","2017/07/25 14:09:17","新北市板橋區溪崑二街35號","121.428451666667","24.991105","6500100","板橋區"
"220050","245-BX","2017/07/24 21:29:22","新北市板橋區民生路二段120號","121.470471666667","25.0195216666667","6500100","板橋區"
"220017","258-TC","2017/07/25 14:09:31","新北市板橋區南雅南路一段1巷42號","121.457615","25.00638","6500100","板橋區"
"220004","276-BY","2017/07/25 14:09:27","新北市板橋區信義路215號","121.459425","24.991535","6500100","板橋區"
"220020","277-BY","2017/07/25 14:09:25","新北市板橋區金門街369巷57弄7-1號","121.429251666667","24.9840683333333","6500100","板橋區"
"220043","283-UM","2017/07/25 14:09:25","新北市板橋區光武街138號","121.4653","25.0300416666667","6500100","板橋區"
"220019","283-VK","2017/07/25 14:09:31","新北市板橋區重慶路245巷58號","121.46535","25.0007933333333","6500100","板橋區"
"220001","285-VK","2017/07/25 14:09:20","新北市板橋區懷仁街35巷7號","121.476865","25.0197633333333","6500100","板橋區"
"220031","286-VK","2017/07/25 14:09:28","新北市板橋區大觀路二段174巷174號","121.442176666667","25.0034183333333","6500100","板橋區"
"220029","287-VK","2017/07/25 14:09:33","新北市板橋區南雅西路二段156巷17號","121.452311666667","25.0132116666667","6500100","板橋區"
"220039","288-VK","2017/07/25 14:09:25","新北市板橋區裕民街45巷4號","121.461483333333","25.0283616666667","6500100","板橋區"
"220009","295-UM","2017/07/25 14:09:21","新北市板橋區三民路二段21巷13號","121.479865","25.018235","6500100","板橋區"
"220032","296-UM","2017/07/25 14:09:34","新北市板橋區溪崑一街17號","121.430821666667","24.9920533333333","6500100","板橋區"
"220023","297-UM","2017/07/25 14:09:24","新北市板橋區大仁街128號","121.452213333333","25.0155966666667","6500100","板橋區"
"220010","303-R5","2017/07/25 14:09:30","新北市板橋區三民路二段居仁巷1弄48號","121.481156666667","25.0136016666667","6500100","板橋區"
"220041","307-R5","2017/07/25 14:09:15","新北市板橋區文化路二段225巷62號","121.4692","25.0284266666667","6500100","板橋區"
"220012","486-VK","2017/07/25 14:09:19","新北市板橋區板新路11號","121.475143333333","25.0126616666667","6500100","板橋區"
"220038","487-VK","2017/07/25 14:09:24","新北市板橋區文化路二段413號","121.474281666667","25.0323233333333","6500100","板橋區"
"220037","491-VK","2017/07/25 14:09:18","新北市板橋區文化路二段182巷3弄26號","121.47202","25.02802","6500100","板橋區"
"220104","560-BX","2017/07/25 14:09:24","新北市板橋區中正路360巷42號","121.455775","25.0230333333333","6500100","板橋區"
"220052","561-BX","2017/07/25 14:09:36","新北市板橋區文化路一段188巷9弄126號","121.469205","25.0189833333333","6500100","板橋區"
"220011","609-BX","2017/07/25 14:09:21","新北市板橋區三民路二段196號","121.47897","25.014585","6500100","板橋區"
"220040","637-BX","2017/07/25 14:09:00","新北市板橋區萬板路478號","121.480041666667","25.0260983333333","6500100","板橋區"
"220005","686-BX","2017/07/25 14:09:32","新北市板橋區重慶路182號","121.462496666667","25.0034283333333","6500100","板橋區"
"220025","687-BX","2017/07/25 14:09:14","新北市板橋區龍興街55號","121.443183333333","25.0010933333333","6500100","板橋區"
"220042","689-BX","2017/07/25 14:09:35","新北市板橋區民生路三段251號","121.464523333333","25.0291583333333","6500100","板橋區"
"220002","741-BX","2017/07/25 14:09:22","新北市板橋區重慶路93巷32號","121.463323333333","25.005915","6500100","板橋區"
"220003","827-TW","2017/07/25 14:09:29","新北市板橋區中山路一段130號","121.46337","25.0108816666667","6500100","板橋區"
"220014","829-TW","2017/07/25 14:09:32","新北市板橋區長安街236-3號","121.475323333333","25.0126266666667","6500100","板橋區"
"220051","830-TW","2017/07/25 14:09:33","新北市板橋區萬板路818巷9號","121.48308","25.0266816666667","6500100","板橋區"
"220045","831-TW","2017/07/25 14:09:31","新北市板橋區雙十路二段6-12號","121.476683333333","25.0266266666667","6500100","板橋區"
"220022","895-R6","2017/07/25 14:09:27","新北市板橋區府中路118號","121.455533333333","25.0095766666667","6500100","板橋區"
"220021","985-R7","2017/07/25 14:09:25","新北市板橋區中正路159巷4號","121.45638","25.0161133333333","6500100","板橋區"
"220046","AAC-210","2017/07/25 14:09:28","新北市板橋區英士路199號","121.458658333333","25.0233316666667","6500100","板橋區"
"220018","AAC-253","2017/07/25 14:09:16","新北市板橋區四川路一段276號","121.458828333333","25.00101","6500100","板橋區"
