"lineid","car","time","location","longitude","latitude","cityid","cityname"
"234025","9371-KE","2017/07/25 14:59:20","新北市永和區水源街27巷2號","121.511121666667","25.00421","6500400","永和區"
"248017","225-UY","2017/07/25 14:59:24","新北市五股區外寮路189巷41號","121.429091666667","25.0760533333333","6501500","五股區"
"248012","655-BX","2017/07/25 10:25:08","新北市五股區中興路二段83巷26-6號","121.459795","25.07518","6501500","五股區"
"231002","002-UM","2017/07/25 14:59:16","新北市新店區民權路102號","121.536046666667","24.9829733333333","6500600","新店區"
"231025","0293-UT","2017/07/25 14:59:23","新北市新店區大同街32號","121.53896","24.9804816666667","6500600","新店區"
"231028","046-UY","2017/07/25 14:59:20","新北市新店區安豐路49號","121.500041666667","24.9549083333333","6500600","新店區"
"231030","047-UY","2017/07/25 14:59:17","新北市新店區安民街339號","121.516986666667","24.9748683333333","6500600","新店區"
"231029","106-UY","2017/07/25 14:59:22","新北市新店區錦秀路31號","121.479266666667","24.9439633333333","6500600","新店區"
"231018","107-UY","2017/07/25 14:59:15","新北市新店區中央路226號","121.529476666667","24.9728283333333","6500600","新店區"
"231012","108-UY","2017/07/25 14:59:29","新北市新店區中興路三段205巷9號","121.543173333333","24.9814766666667","6500600","新店區"
"231020","187-VK","2017/07/25 14:59:15","新北市新店區永福路54-2號","121.55811","24.9287416666667","6500600","新店區"
"231069","189-VK","2017/07/25 12:45:26","新北市新店區安華路28-1號","121.519675","24.9609266666667","6500600","新店區"
"231026","256-BX","2017/07/25 14:59:18","新北市新店區北新路一段351號","121.541996666667","24.9692983333333","6500600","新店區"
"231034","268-BY","2017/07/25 14:59:16","新北市新店區玫瑰路4-1號","121.493605","24.9513916666667","6500600","新店區"
"231015","AAD-862","2017/07/25 14:59:21","新北市新店區銀河路21號","121.573155","24.9571683333333","6500600","新店區"
"231024","3713-VJ","2017/07/25 14:59:25","新北市新店區中華路83巷21號","121.538711666667","24.96808","6500600","新店區"
"231036","512-UM","2017/07/25 14:59:27","新北市新店區安祥路102巷46弄25號","121.485496666667","24.9637883333333","6500600","新店區"
"231023","513-UM","2017/07/25 14:59:16","新北市新店區檳榔路109號","121.544381666667","24.961605","6500600","新店區"
"231035","515-UM","2017/07/25 14:59:28","新北市新店區新和街59巷17號","121.519268333333","24.986035","6500600","新店區"
"231006","617-UM","2017/07/25 14:59:25","新北市新店區五峰路145巷7號","121.546401666667","24.96458","6500600","新店區"
"231001","619-UM","2017/07/25 14:59:23","新北市新店區中正路274號","121.538941666667","24.9737516666667","6500600","新店區"
"231003","641-BX","2017/07/25 14:59:23","新北市新店區中興路二段192號","121.548471666667","24.9736183333333","6500600","新店區"
"231039","718-UY","2017/07/25 14:59:31","新北市新店區北新路三段58號","121.54201","24.9802466666667","6500600","新店區"
"231032","720-UM","2017/07/25 14:59:28","新北市新店區安泰路19巷2號","121.485518333333","24.9493816666667","6500600","新店區"
"231005","897-TW","2017/07/25 14:59:21","新北市新店區復興路51-8號","121.536595","24.9871483333333","6500600","新店區"
"231004","899-TW","2017/07/25 14:59:18","新北市新店區民族路66號","121.539585","24.9783683333333","6500600","新店區"
"231037","AKT-0513","2017/07/25 14:59:09","新北市新店區安興路69號","121.515956666667","24.9751866666667","6500600","新店區"
"235030","003-UY","2017/07/25 14:59:13","新北市中和區中山路二段69號","121.504021666667","25.0043266666667","6500300","中和區"
"235020","096-UM","2017/07/25 14:59:27","新北市板橋區漢生東路346號","121.471993333333","25.0074216666667","6500300","中和區"
"235003","097-UM","2017/07/25 14:59:21","新北市中和區安樂路139號","121.514458333333","24.9967533333333","6500300","中和區"
"235029","098-UM","2017/07/25 14:59:20","新北市中和區永和路118-1號","121.496531666667","25.0063083333333","6500300","中和區"
"235004","150-BY","2017/07/25 14:59:13","新北市中和區宜安路121號","121.510096666667","24.997915","6500300","中和區"
"235022","151-BY","2017/07/25 14:59:28","新北市中和區員山路163號","121.481098333333","24.99665","6500300","中和區"
"235002","185-VK","2017/07/25 14:59:14","新北市中和區自立路10號","121.522458333333","24.996415","6500300","中和區"
"235013","186-VK","2017/07/25 14:59:22","新北市中和區景平路385-1號","121.502938333333","24.9940533333333","6500300","中和區"
"235031","255-BX","2017/07/25 14:59:26","新北市中和區新生街184號","121.483595","24.99971","6500300","中和區"
"235008","293-VK","2017/07/25 14:59:16","新北市中和區南山路186號","121.505756666667","24.990655","6500300","中和區"
"235036","301-VK","2017/07/25 14:59:28","新北市中和區連城路265巷1號","121.491388333333","24.99646","6500300","中和區"
"235007","352-BY","2017/07/25 14:59:25","新北市中和區華新街230號","121.506075","24.9816883333333","6500300","中和區"
"235015","376-QA","2017/07/25 14:59:16","新北市中和區景安路251號","121.503953333333","24.9905633333333","6500300","中和區"
"235032","377-QA","2017/07/25 14:59:18","新北市中和區福祥路83號","121.498963333333","25.0057733333333","6500300","中和區"
"235025","378-QA","2017/07/25 14:59:27","新北市中和區員山路263號","121.481248333333","24.99929","6500300","中和區"
"235014","4979-A6","2017/07/25 14:59:30","新北市中和區安樂路60巷2號","121.512298333333","24.9930766666667","6500300","中和區"
"235033","4980-A6","2017/07/25 14:58:42","新北市中和區景平路630巷11號","121.500771666667","24.9983483333333","6500300","中和區"
"235034","558-UM","2017/07/25 14:59:28","新北市中和區連勝街50號","121.497855","24.9973916666667","6500300","中和區"
"235018","640-BX","2017/07/25 14:59:18","新北市中和區莒光路211-7號","121.469415","24.995075","6500300","中和區"
"235024","647-TV","2017/07/25 14:59:21","新北市中和區新生街30巷1號","121.483056666667","25.00387","6500300","中和區"
"235010","733-UM","2017/07/25 14:59:20","新北市中和區興南路一段93巷79號","121.5105","24.9864383333333","6500300","中和區"
"235035","783-BX","2017/07/25 14:59:27","新北市中和區中正路755號","121.484923333333","25.0003066666667","6500300","中和區"
"235016","805-TS","2017/07/25 14:59:17","新北市中和區忠孝街37巷7號","121.511035","24.98351","6500300","中和區"
"235012","896-TW","2017/07/25 14:59:11","新北市中和區忠孝街1巷2-1號","121.509176666667","24.9831466666667","6500300","中和區"
"235017","900-TW","2017/07/25 14:59:17","新北市中和區國光街189巷12弄4號","121.467393333333","25.0015","6500300","中和區"
"235027","911-UM","2017/07/25 14:59:16","新北市中和區連城路174巷20-2號","121.492485","24.9983033333333","6500300","中和區"
"235001","AAC-213","2017/07/25 14:59:26","新北市中和區自立路64-1號","121.523741666667","24.991295","6500300","中和區"
"235023","AAC-215","2017/07/25 14:59:30","新北市中和區圓通路335巷4弄17號","121.492466666667","24.9900316666667","6500300","中和區"
"220016","013-TV","2017/07/25 14:59:11","新北市板橋區中山路二段455號","121.481705","25.02027","6500100","板橋區"
"220013","072-UY","2017/07/25 14:59:22","新北市板橋區長安街23號","121.466668333333","25.0087116666667","6500100","板橋區"
"220105","075-UY","2017/07/25 14:59:15","新北市板橋區文聖街11巷24號","121.476128333333","25.0329816666667","6500100","板橋區"
"220047","120-SR","2017/07/25 14:59:29","新北市板橋區新海路72巷48號","121.462098333333","25.02305","6500100","板橋區"
"247001","402-BY","2017/07/25 14:59:26","新北市八里區荖阡坑路15-66號","121.398728333333","25.1403183333333","6501400","蘆洲區"
"247005","341-TH","2017/07/25 14:59:11","新北市八里區下罟子8-10號","121.384175","25.14479","6501400","蘆洲區"
"247007","339-TH","2017/07/25 14:59:27","新北市五股區中興路三段2巷10號","121.44875","25.0815516666667","6501400","蘆洲區"
"228004","585-TW","2017/07/25 14:59:20","新北市貢寮區福隆里裕隆街2號","121.946635","25.0152333333333","6502600","貢寮區"
"208004","AAC-292","2017/07/25 14:59:28","新北市金山區法鼓路555號","121.615735","25.2398933333333","6502700","金山區"
"207002","749-BX","2017/07/25 14:59:20","新北市萬里區雙興里太和路10-3號","121.664361666667","25.16495","6502800","萬里區"
"207001","662-BX","2017/07/25 14:59:23","新北市萬里區雙興里太和路27-2號","121.654756666667","25.1767616666667","6502800","萬里區"
"252005","AAC-283","2017/07/25 14:59:27","新北市三芝區福德里埔尾20-7號","121.502655","25.2404066666667","6502100","三芝區"
"236065","105-UM","2017/07/25 14:59:22","新北市土城區裕生路65號","121.447265","24.9851366666667","6501300","土城區"
"236041","107-UM","2017/07/25 14:59:25","新北市土城區學府路一段189巷6號","121.45234","24.984635","6501300","土城區"
"236075","166-UM","2017/07/25 14:59:11","新北市土城區中央路四段125巷2弄17-1號","121.416375","24.95674","6501300","土城區"
"236029","253-BX","2017/07/25 14:59:23","新北市土城區福仁街33號","121.440071666667","24.9757466666667","6501300","土城區"
"236025","269-VK","2017/07/25 14:59:30","新北市土城區中正路72號","121.444553333333","24.975485","6501300","土城區"
"236013","270-VK","2017/07/25 14:59:12","新北市土城區永豐路29巷2號","121.463155","24.988315","6501300","土城區"
"236034","271-VK","2017/07/25 14:59:20","新北市土城區仁愛路4號","121.459786666667","24.981175","6501300","土城區"
"236017","401-BY","2017/07/25 14:59:24","新北市土城區延吉街168巷1號","121.468268333333","24.9855133333333","6501300","土城區"
"236057","912-UM","2017/07/25 14:59:27","新北市土城區金城路一段80號","121.444585","24.9732633333333","6501300","土城區"
"236045","913-UM","2017/07/25 14:59:13","新北市土城區明德路一段398-1號","121.453645","24.979105","6501300","土城區"
"236061","915-UM","2017/07/25 14:59:28","新北市土城區延和路49號","121.466366666667","24.9895516666667","6501300","土城區"
"236054","AAC-216","2017/07/25 14:59:28","新北市土城區學成路164號","121.448095","24.9891266666667","6501300","土城區"
"242044","172-VK","2017/07/25 14:59:20","新北市新莊區三和路12-21號","121.44229","25.0379016666667","6500500","新莊區"
"221032","280-BY","2017/07/25 14:59:16","新北市汐止區水源路一段56號","121.657483333333","25.0656833333333","6501100","汐止區"
"221002","707-TV","2017/07/25 14:59:26","新北市汐止區莊敬街19巷1號","121.657361666667","25.06148","6501100","汐止區"
"220028","200-UY","2017/07/25 14:59:20","新北市板橋區大觀路二段153巷33號","121.446766666667","25.0003133333333","6500100","板橋區"
"220030","610-BX","2017/07/25 14:59:27","新北市板橋區篤行路二段102號","121.431441666667","24.991325","6500100","板橋區"
"220050","245-BX","2017/07/25 14:59:29","新北市板橋區莒光路180巷21號","121.47327","25.0226","6500100","板橋區"
"220017","258-TC","2017/07/25 14:59:19","新北市板橋區大明街20巷19弄16號","121.458048333333","25.0032716666667","6500100","板橋區"
"220004","276-BY","2017/07/25 14:59:26","新北市樹林區八德街437-1號","121.405478333333","24.96941","6500100","板橋區"
"220020","277-BY","2017/07/25 14:59:18","新北市板橋區金門街109巷25號","121.433911666667","24.9916566666667","6500100","板橋區"
"220043","283-UM","2017/07/25 14:59:25","新北市板橋區陽明街33號","121.465313333333","25.0221133333333","6500100","板橋區"
"220019","283-VK","2017/07/25 14:59:31","新北市板橋區和平路178號","121.463436666667","24.995565","6500100","板橋區"
"220001","285-VK","2017/07/25 14:59:28","新北市板橋區永豐街163號","121.475515","25.02044","6500100","板橋區"
"220031","286-VK","2017/07/25 14:59:17","新北市板橋區僑中二街90巷34號","121.44465","25.0094083333333","6500100","板橋區"
"220029","287-VK","2017/07/25 14:59:13","新北市板橋區僑中一街124巷18弄23號","121.447156666667","25.013725","6500100","板橋區"
"220039","288-VK","2017/07/25 14:59:25","新北市板橋區幸福路32巷4弄5-3號","121.461098333333","25.0214533333333","6500100","板橋區"
"220009","295-UM","2017/07/25 14:59:21","新北市板橋區中山路一段161號","121.465291666667","25.01187","6500100","板橋區"
"220032","296-UM","2017/07/25 14:59:22","新北市板橋區滿平街2巷10號","121.425096666667","24.989405","6500100","板橋區"
"220023","297-UM","2017/07/25 14:59:24","新北市板橋區金華街10巷59號","121.457628333333","25.0203383333333","6500100","板橋區"
"220010","303-R5","2017/07/25 14:59:30","新北市板橋區中山路二段613號","121.48544","25.0224516666667","6500100","板橋區"
"220041","307-R5","2017/07/25 14:59:15","新北市板橋區新海路382巷11號","121.45976","25.02638","6500100","板橋區"
"220012","486-VK","2017/07/25 14:59:19","新北市板橋區漢生東路215號","121.470771666667","25.01028","6500100","板橋區"
"220038","487-VK","2017/07/25 14:59:24","新北市板橋區龍泉街128號","121.456838333333","25.0239816666667","6500100","板橋區"
"220037","491-VK","2017/07/25 14:59:18","新北市板橋區懷德街236號","121.480561666667","25.028775","6500100","板橋區"
"220052","561-BX","2017/07/25 14:59:21","新北市板橋區文化路一段421巷40號","121.46622","25.0232883333333","6500100","板橋區"
"220011","609-BX","2017/07/25 14:59:21","新北市板橋區三民路一段147號","121.479171666667","25.0196833333333","6500100","板橋區"
"220040","637-BX","2017/07/25 14:59:23","新北市板橋區文聖街101巷1號","121.47799","25.029665","6500100","板橋區"
"220005","686-BX","2017/07/25 14:59:29","新北市板橋區信義路16-7號","121.457045","24.995675","6500100","板橋區"
"220025","687-BX","2017/07/25 14:59:14","新北市板橋區僑中一街124巷92-1號","121.447196666667","25.0186283333333","6500100","板橋區"
"220042","689-BX","2017/07/25 14:59:22","新北市板橋區長江路三段57號","121.473925","25.0341533333333","6500100","板橋區"
"220002","741-BX","2017/07/25 14:59:30","新北市板橋區忠孝路忠義巷3弄44號","121.465145","25.00447","6500100","板橋區"
"220003","827-TW","2017/07/25 14:59:29","新北市板橋區重慶路278-1號","121.4631","24.9997333333333","6500100","板橋區"
"220014","829-TW","2017/07/25 14:59:12","新北市板橋區三民路一段143號","121.479243333333","25.0198383333333","6500100","板橋區"
"220051","830-TW","2017/07/25 14:59:21","新北市板橋區懷德街71號","121.477696666667","25.0322066666667","6500100","板橋區"
"220045","831-TW","2017/07/25 14:59:12","新北市板橋區莒光路78巷3號","121.471486666667","25.0237683333333","6500100","板橋區"
"220022","895-R6","2017/07/25 14:59:27","新北市板橋區館前西路97號","121.457091666667","25.0073633333333","6500100","板橋區"
"220046","AAC-210","2017/07/25 14:59:28","新北市板橋區國光路194號","121.461458333333","25.018485","6500100","板橋區"
"220018","AAC-253","2017/07/25 14:59:26","新北市板橋區民族路97號","121.466563333333","25.0083183333333","6500100","板橋區"
