"lineid","car","time","location","longitude","latitude","cityid","cityname"
"249005","172-UM","2017/07/25 16:49:01","新北市八里區大堀湖1-5號","121.422931666667","25.1542983333333","6502300","八里區"
"249002","305-UY","2017/07/25 16:49:10","新北市八里區牛寮埔31號","121.429833333333","25.1457133333333","6502300","八里區"
"249001","759-BX","2017/07/25 16:49:13","新北市八里區博物館路15號","121.415283333333","25.1638216666667","6502300","八里區"
"248012","655-BX","2017/07/25 10:25:08","新北市五股區中興路二段83巷26-6號","121.459795","25.07518","6501500","五股區"
"244007","080-UY","2017/07/25 16:49:15","新北市林口區竹林路278巷1號","121.390305","25.081985","6501700","林口區"
"231069","189-VK","2017/07/25 12:45:26","新北市新店區安華路28-1號","121.519675","24.9609266666667","6500600","新店區"
"231046","278-BY","2017/07/25 16:49:17","新北市新店區灣潭路29-3號","121.54076","24.9388283333333","6500600","新店區"
"241011","013-R5","2017/07/25 16:49:07","新北市三重區仁愛街53巷179號","121.500211666667","25.072835","6500200","三重區"
"241028","022-UY","2017/07/25 16:49:02","新北市三重區光興街95號","121.49728","25.0599083333333","6500200","三重區"
"241009","060-VK","2017/07/25 16:49:00","新北市三重區溪尾街229號","121.488171666667","25.0812516666667","6500200","三重區"
"241031","061-VK","2017/07/25 16:49:04","新北市三重區過圳街42-2號","121.487961666667","25.06011","6500200","三重區"
"241015","062-VK","2017/07/25 16:49:11","新北市三重區長元西街1號","121.498775","25.0656183333333","6500200","三重區"
"241017","063-VK","2017/07/25 16:49:19","新北市三重區大同北路62號","121.494121666667","25.0639033333333","6500200","三重區"
"241026","066-VK","2017/07/25 16:49:19","新北市三重區文化南路10巷28號","121.50101","25.06216","6500200","三重區"
"241002","090-VK","2017/07/25 16:48:59","新北市三重區仁義街239號","121.496365","25.082635","6500200","三重區"
"241003","091-VK","2017/07/25 16:49:14","新北市三重區五華街87巷24號","121.492843333333","25.083885","6500200","三重區"
"241008","156-TC","2017/07/25 16:49:18","新北市三重區永福街179巷29號","121.477783333333","25.0748966666667","6500200","三重區"
"241024","265-UM","2017/07/25 16:49:01","新北市三重區中正北路317巷30號","121.475846666667","25.073055","6500200","三重區"
"241016","266-UM","2017/07/25 16:49:01","新北市三重區大同北路111號","121.494205","25.06429","6500200","三重區"
"241022","267-UM","2017/07/25 16:49:07","新北市三重區中華路111巷20號","121.484328333333","25.0634966666667","6500200","三重區"
"241018","268-UM","2017/07/25 16:49:00","新北市三重區安樂街80號","121.494916666667","25.0693433333333","6500200","三重區"
"241032","269-UM","2017/07/25 16:49:17","新北市三重區重陽路一段120巷22號","121.485763333333","25.0600633333333","6500200","三重區"
"241013","270-UM","2017/07/25 16:49:11","新北市三重區仁壽街1號","121.496153333333","25.073195","6500200","三重區"
"241025","271-UM","2017/07/25 16:49:15","新北市三重區中正北路530巷8號","121.472131666667","25.0709116666667","6500200","三重區"
"241007","398-BY","2017/07/25 16:49:15","新北市三重區三和路四段181巷27號","121.483481666667","25.0792483333333","6500200","三重區"
"241020","413-TH","2017/07/25 16:49:12","新北市三重區忠孝路二段65巷5弄5號","121.485026666667","25.0712933333333","6500200","三重區"
"241004","475-VK","2017/07/25 16:49:21","新北市三重區仁愛街397巷1號","121.491405","25.0810333333333","6500200","三重區"
"241019","478-VK","2017/07/25 16:49:13","新北市三重區忠孝路二段38巷15號","121.485455","25.070015","6500200","三重區"
"241030","480-VK","2017/07/25 16:49:14","新北市三重區中正南路271號","121.492691666667","25.05267","6500200","三重區"
"241014","543-UM","2017/07/25 16:49:20","新北市三重區長榮路75號","121.502593333333","25.0690983333333","6500200","三重區"
"241023","545-UM","2017/07/25 16:49:16","新北市三重區新北大道一段206巷32號","121.482551666667","25.0624366666667","6500200","三重區"
"241001","547-UM","2017/07/25 16:49:17","新北市三重區仁政街76巷2號","121.492415","25.077205","6500200","三重區"
"241006","AAD-863","2017/07/25 16:49:05","新北市三重區力行路二段154號","121.482676666667","25.07624","6500200","三重區"
"241005","887-TS","2017/07/25 16:49:03","新北市三重區仁華街80巷20號","121.484436666667","25.0837466666667","6500200","三重區"
"241012","941-UM","2017/07/25 16:49:18","新北市三重區仁興街11巷58號","121.5011","25.074495","6500200","三重區"
"241029","942-UM","2017/07/25 16:49:13","新北市三重區集美街175號","121.491415","25.05409","6500200","三重區"
"241033","AAC-255","2017/07/25 16:49:08","新北市三重區新北大道二段139巷2號","121.465901666667","25.0610383333333","6500200","三重區"
"235064","005-UY","2017/07/25 16:48:58","新北市中和區員山路36巷16-3號","121.485013333333","24.9911533333333","6500300","中和區"
"235026","800-TS","2017/07/25 16:49:19","新北市中和區員山路36巷16-3號","121.485101666667","24.9912433333333","6500300","中和區"
"247006","341-TH","2017/07/25 16:49:10","新北市五股區四維路185巷60號","121.462175","25.0782883333333","6501400","蘆洲區"
"247008","339-TH","2017/07/25 16:49:07","新北市蘆洲區中山一路203號","121.474295","25.0810883333333","6501400","蘆洲區"
"247014","057-VK","2017/07/25 16:49:01","新北市蘆洲區三民路89號","121.474225","25.0845083333333","6501400","蘆洲區"
"247004","056-VK","2017/07/25 16:49:00","新北市蘆洲區長榮路100號","121.462006666667","25.08408","6501400","蘆洲區"
"247016","001-UY","2017/07/25 16:49:15","新北市蘆洲區正和街3號","121.470426666667","25.082695","6501400","蘆洲區"
"228001","212-TW","2017/07/25 16:49:06","新北市貢寮區貢寮里朝陽街1-2號","121.912318333333","25.021265","6502600","貢寮區"
"228002","585-TW","2017/07/25 16:49:14","新北市貢寮區貢寮里長潭街25號","121.899166666667","25.0239266666667","6502600","貢寮區"
"224006","676-BX","2017/07/25 16:49:14","新北市瑞芳區大寮路356-1號","121.784613333333","25.10323","6501200","瑞芳區"
"224008","275-VK","2017/07/25 16:49:11","新北市瑞芳區民權街3-1號","121.809236666667","25.1084166666667","6501200","瑞芳區"
"224007","273-VK","2017/07/25 16:49:05","新北市瑞芳區中央路48巷166號","121.759155","25.1033516666667","6501200","瑞芳區"
"224005","271-BY","2017/07/25 16:48:59","新北市瑞芳區明里路122號","121.863511666667","25.121735","6501200","瑞芳區"
"227009","642-TC","2017/07/25 16:49:00","新北市雙溪區牡丹里五分2號","121.866641666667","25.0470783333333","6502500","雙溪區"
"227003","400-TW","2017/07/25 16:49:05","新北市雙溪區外柑里外柑腳77號","121.806883333333","25.0174866666667","6502500","雙溪區"
"251014","180-VK","2017/07/25 16:49:09","新北市淡水區淡金路三段446號","121.450726666667","25.2144216666667","6501000","淡水區"
"251008","181-VK","2017/07/25 16:49:15","新北市淡水區樹梅坑9號","121.472741666667","25.1426783333333","6501000","淡水區"
"251012","441-VK","2017/07/25 16:49:16","新北市淡水區中正路二段31號","121.419756666667","25.1815383333333","6501000","淡水區"
"251016","442-VK","2017/07/25 16:49:16","新北市淡水區水頭42號","121.47809","25.1850583333333","6501000","淡水區"
"251007","577-R6","2017/07/25 16:49:00","新北市淡水區中正路二段31號","121.419273333333","25.1817083333333","6501000","淡水區"
"251011","650-BX","2017/07/25 16:49:12","新北市淡水區中正路二段31號","121.419326666667","25.1816766666667","6501000","淡水區"
"251003","673-BX","2017/07/25 16:49:01","新北市淡水區中正路二段31號","121.419506666667","25.1814716666667","6501000","淡水區"
"252002","178-VK","2017/07/25 16:49:12","新北市三芝區忠孝街85號","121.505881666667","25.256735","6502100","三芝區"
"252001","292-VK","2017/07/25 16:49:12","新北市三芝區埔坪里埔頭坑60號","121.507936666667","25.2645283333333","6502100","三芝區"
"252005","AAC-283","2017/07/25 15:43:11","新北市三芝區埔坪里埔頭坑41號","121.504523333333","25.264415","6502100","三芝區"
"242048","751-BX","2017/07/25 16:49:15","新北市新莊區三和路18-25號","121.441766666667","25.0391016666667","6500500","新莊區"
"242023","613-BX","2017/07/25 14:29:09","新北市新莊區新泰路255巷83號","121.442213333333","25.0390883333333","6500500","新莊區"
"242061","362-BY","2017/07/25 16:49:12","新北市新莊區新泰路255巷83號","121.442141666667","25.0390266666667","6500500","新莊區"
"242044","172-VK","2017/07/25 16:39:07","新北市新莊區三和路12-21號","121.442263333333","25.0383183333333","6500500","新莊區"
"242011","346-TH","2017/07/25 16:05:45","新北市新莊區三和路12-17號","121.44193","25.037505","6500500","新莊區"
"242017","348-TH","2017/07/25 01:12:09","新北市新莊區新泰路357巷3弄57號","121.442013333333","25.0395183333333","6500500","新莊區"
"242009","351-TH","2017/07/25 16:49:17","新北市新莊區新泰路357巷3弄57號","121.441905","25.0395333333333","6500500","新莊區"
"239007","AAC-297","2017/07/25 04:45:07","新北市鶯歌區二甲路13-16號","121.344778333333","24.9349333333333","6500800","鶯歌區"
"239008","527-UM","2017/07/25 16:49:17","新北市鶯歌區二甲路13-16號","121.345043333333","24.9354033333333","6500800","鶯歌區"
"239005","526-UM","2017/07/25 16:49:14","新北市鶯歌區二甲路13-16號","121.345138333333","24.9353716666667","6500800","鶯歌區"
"239003","360-BY","2017/07/25 16:49:21","新北市鶯歌區二甲路13-16號","121.345446666667","24.9351416666667","6500800","鶯歌區"
"239002","359-BY","2017/07/24 20:03:52","新北市鶯歌區環河路175號","121.346196666667","24.9361133333333","6500800","鶯歌區"
"241031","3G-TL5","2017/07/25 16:13:05","桃園市楊梅區電研路100-24號","121.166076666667","24.9536533333333","6500200","三重區"
