"lineid","car","time","location","longitude","latitude","cityid","cityname"
"249005","172-UM","2017/07/25 17:17:21","新北市五股區凌雲路三段130號","121.417941666667","25.12861","6502300","八里區"
"249004","303-UY","2017/07/25 17:19:11","新北市八里區文化街127號","121.42223","25.1599916666667","6502300","八里區"
"249002","305-UY","2017/07/25 17:19:10","新北市八里區龍米路二段117巷37號","121.443646666667","25.1419666666667","6502300","八里區"
"249003","593-UM","2017/07/25 17:19:09","新北市八里區商港路50號","121.395448333333","25.14618","6502300","八里區"
"249001","759-BX","2017/07/25 17:19:13","新北市八里區中華路二段165巷3號","121.407635","25.1508916666667","6502300","八里區"
"248012","655-BX","2017/07/25 10:25:08","新北市五股區中興路二段83巷26-6號","121.459795","25.07518","6501500","五股區"
"244013","069-UM","2017/07/25 17:19:10","新北市林口區粉寮69號","121.405085","25.0908416666667","6501700","林口區"
"244007","080-UY","2017/07/25 17:19:15","新北市林口區中華路96號","121.385048333333","25.0903233333333","6501700","林口區"
"244019","403-UM","2017/07/25 17:19:00","新北市林口區公園路233-4號","121.37631","25.07556","6501700","林口區"
"244009","410-SL","2017/07/25 17:19:03","新北市林口區中華路387號","121.379251666667","25.0937766666667","6501700","林口區"
"244023","483-VK","2017/07/25 17:19:05","新北市林口區仁愛路一段667巷12號","121.387096666667","25.0763","6501700","林口區"
"244017","485-VK","2017/07/25 17:19:12","新北市林口區粉寮69號","121.404975","25.0908733333333","6501700","林口區"
"244021","838-TS","2017/07/25 17:19:11","新北市林口區粉寮路二段458號","121.404121666667","25.0989283333333","6501700","林口區"
"231069","189-VK","2017/07/25 12:45:26","新北市新店區安華路28-1號","121.519675","24.9609266666667","6500600","新店區"
"241011","013-R5","2017/07/25 17:19:07","新北市三重區龍濱路197號","121.501891666667","25.0713766666667","6500200","三重區"
"241028","022-UY","2017/07/25 17:19:02","新北市三重區仁化街63-8號","121.493965","25.0588233333333","6500200","三重區"
"241009","060-VK","2017/07/25 17:19:00","新北市三重區仁美街116號","121.485593333333","25.081055","6500200","三重區"
"241015","062-VK","2017/07/25 17:19:11","新北市三重區福德北路82-1號","121.501791666667","25.06618","6500200","三重區"
"241017","063-VK","2017/07/25 17:18:59","新北市三重區大同北路91號","121.494716666667","25.06365","6500200","三重區"
"241026","066-VK","2017/07/25 17:18:59","新北市三重區福裕街27號","121.499338333333","25.0616","6500200","三重區"
"241002","090-VK","2017/07/25 17:18:59","新北市三重區自強路五段17-1號","121.492918333333","25.0806483333333","6500200","三重區"
"241003","091-VK","2017/07/25 17:19:14","新北市三重區富福街56號","121.491826666667","25.0844616666667","6500200","三重區"
"241008","156-TC","2017/07/25 17:19:18","新北市三重區永福街72巷11號","121.479473333333","25.0768116666667","6500200","三重區"
"241024","265-UM","2017/07/25 17:19:01","新北市三重區後竹圍街297號","121.478621666667","25.0698883333333","6500200","三重區"
"241016","266-UM","2017/07/25 17:19:01","新北市三重區重新路三段94號","121.492618333333","25.0609933333333","6500200","三重區"
"241022","267-UM","2017/07/25 17:19:07","新北市三重區中正北路64巷20號","121.486191666667","25.0638833333333","6500200","三重區"
"241018","268-UM","2017/07/25 17:19:00","新北市三重區安慶街143號","121.494491666667","25.068865","6500200","三重區"
"241032","269-UM","2017/07/25 17:19:16","新北市三重區新北大道一段167號","121.482168333333","25.06092","6500200","三重區"
"241013","270-UM","2017/07/25 17:19:15","新北市三重區三和路三段107巷2號","121.494396666667","25.0729566666667","6500200","三重區"
"241025","271-UM","2017/07/25 17:19:15","新北市三重區中正北路416號","121.475215","25.070815","6500200","三重區"
"241007","398-BY","2017/07/25 17:19:15","新北市三重區慈愛街8號","121.484453333333","25.078415","6500200","三重區"
"241020","413-TH","2017/07/25 17:19:12","新北市三重區自強路三段7巷64號","121.48898","25.0725683333333","6500200","三重區"
"241004","475-VK","2017/07/25 17:19:01","新北市三重區仁愛街425巷28號","121.491006666667","25.08219","6500200","三重區"
"241019","478-VK","2017/07/25 17:19:13","新北市三重區忠孝路二段99-1號","121.484011666667","25.069795","6500200","三重區"
"241030","480-VK","2017/07/25 17:19:14","新北市三重區成功路73巷11號","121.489473333333","25.0519366666667","6500200","三重區"
"241014","543-UM","2017/07/25 17:19:00","新北市三重區長榮路6號","121.500176666667","25.0684966666667","6500200","三重區"
"241023","545-UM","2017/07/25 17:19:16","新北市三重區三民街170號","121.48212","25.0655466666667","6500200","三重區"
"241001","547-UM","2017/07/25 17:19:17","新北市三重區仁愛街269巷8號","121.49339","25.078955","6500200","三重區"
"241006","AAD-863","2017/07/25 17:18:43","新北市三重區車路頭街137號","121.484175","25.0761616666667","6500200","三重區"
"241005","887-TS","2017/07/25 17:19:03","新北市三重區永安北路二段13巷19號","121.482905","25.08156","6500200","三重區"
"241012","941-UM","2017/07/25 17:19:18","新北市三重區仁興街31巷36號","121.500306666667","25.0755816666667","6500200","三重區"
"241029","942-UM","2017/07/25 17:19:13","新北市三重區重新路四段3號","121.489026666667","25.0581716666667","6500200","三重區"
"241033","AAC-255","2017/07/25 17:19:08","新北市新莊區化成路630巷19弄3號","121.467188333333","25.0558766666667","6500200","三重區"
"235064","005-UY","2017/07/25 17:18:58","新北市中和區員山路36巷16-3號","121.484991666667","24.9912533333333","6500300","中和區"
"235026","800-TS","2017/07/25 17:19:01","新北市中和區員山路36巷16-3號","121.485128333333","24.991335","6500300","中和區"
"247020","893-R6","2017/07/25 17:19:05","新北市蘆洲區民族路428號","121.473685","25.0920733333333","6501400","蘆洲區"
"247010","546-UM","2017/07/25 17:19:12","新北市蘆洲區中山一路120巷7弄24號","121.477331666667","25.082045","6501400","蘆洲區"
"247018","500-BY","2017/07/25 17:19:00","新北市蘆洲區民權路82巷5弄1號","121.474998333333","25.088185","6501400","蘆洲區"
"247006","341-TH","2017/07/25 17:19:10","新北市蘆洲區永安南路二段160號","121.461681666667","25.07908","6501400","蘆洲區"
"247008","339-TH","2017/07/25 17:19:07","新北市蘆洲區永安北路一段72巷40號","121.476336666667","25.07702","6501400","蘆洲區"
"247024","337-TH","2017/07/25 17:19:13","新北市蘆洲區長榮路416號","121.459435","25.0881","6501400","蘆洲區"
"247002","336-TH","2017/07/25 17:18:57","新北市蘆洲區永樂街38巷37號","121.45819","25.08942","6501400","蘆洲區"
"247014","057-VK","2017/07/25 17:19:09","新北市蘆洲區中正路96號","121.470068333333","25.0838433333333","6501400","蘆洲區"
"247004","056-VK","2017/07/25 17:19:00","新北市蘆洲區中原路13-5號","121.460793333333","25.0831516666667","6501400","蘆洲區"
"247012","007-UY","2017/07/25 17:18:57","新北市蘆洲區信義路319巷8號","121.477878333333","25.0861816666667","6501400","蘆洲區"
"247022","002-UY","2017/07/25 17:19:04","新北市蘆洲區三民路128巷94號","121.469665","25.0902316666667","6501400","蘆洲區"
"247016","001-UY","2017/07/25 17:19:13","新北市蘆洲區光華路22巷50號","121.468058333333","25.085165","6501400","蘆洲區"
"228001","212-TW","2017/07/25 17:19:05","新北市貢寮區仁理村尖山腳街18-3號","121.925498333333","25.04833","6502600","貢寮區"
"228002","585-TW","2017/07/25 17:19:14","新北市貢寮區雙玉里田寮洋街35號","121.928396666667","25.017175","6502600","貢寮區"
"228003","828-UM","2017/07/25 17:19:02","新北市貢寮區福隆里興隆街23號","121.942976666667","25.01659","6502600","貢寮區"
"224010","AGQ-8101","2017/07/25 17:19:10","新北市瑞芳區明燈路二段66號","121.809503333333","25.1073483333333","6501200","瑞芳區"
"224006","676-BX","2017/07/25 17:19:14","新北市瑞芳區大寮路55號","121.781673333333","25.0979416666667","6501200","瑞芳區"
"224009","285-BY","2017/07/25 17:18:59","新北市瑞芳區汽車路147號","121.838551666667","25.1098466666667","6501200","瑞芳區"
"224008","275-VK","2017/07/25 17:19:14","新北市瑞芳區侯硐路139號","121.83163","25.090305","6501200","瑞芳區"
"224005","271-BY","2017/07/25 17:18:59","新北市瑞芳區鼻頭路247號","121.912141666667","25.1233116666667","6501200","瑞芳區"
"227009","642-TC","2017/07/25 17:19:00","新北市雙溪區三貂里十三層2號","121.852276666667","25.0763766666667","6502500","雙溪區"
"227003","400-TW","2017/07/25 17:19:05","新北市雙溪區上林里內平林66-1號","121.831368333333","25.02916","6502500","雙溪區"
"251004","009-UM","2017/07/25 17:19:00","新北市淡水區中正東路二段88巷11號","121.459121666667","25.1510883333333","6501000","淡水區"
"251005","010-UM","2017/07/25 17:19:15","新北市淡水區鄧公路19-1號","121.450266666667","25.1699366666667","6501000","淡水區"
"251014","180-VK","2017/07/25 17:19:09","新北市淡水區番子田114號","121.463701666667","25.2297333333333","6501000","淡水區"
"251008","181-VK","2017/07/25 17:19:15","新北市淡水區大同路269號","121.467246666667","25.1422533333333","6501000","淡水區"
"251010","413-VK","2017/07/25 17:19:13","新北市淡水區中正路二段31號","121.419423333333","25.181685","6501000","淡水區"
"251012","441-VK","2017/07/25 17:19:16","新北市淡水區中山北路一段158號","121.444261666667","25.1778333333333","6501000","淡水區"
"251016","442-VK","2017/07/25 17:19:16","新北市淡水區鄒厝崙5號","121.469445","25.1886666666667","6501000","淡水區"
"251006","561-UM","2017/07/25 17:19:17","新北市淡水區中山路189號","121.441261666667","25.1744733333333","6501000","淡水區"
"251009","575-R6","2017/07/25 17:19:16","新北市淡水區三民街21號","121.43905","25.17193","6501000","淡水區"
"251007","577-R6","2017/07/25 17:19:00","新北市淡水區民生路47-4號","121.462038333333","25.1380166666667","6501000","淡水區"
"251011","650-BX","2017/07/25 17:19:11","新北市淡水區坪頂路128號","121.46494","25.16137","6501000","淡水區"
"251002","672-BX","2017/07/25 17:19:01","新北市淡水區中正路二段31號","121.419368333333","25.1817133333333","6501000","淡水區"
"251003","673-BX","2017/07/25 17:19:01","新北市淡水區中正路二段31號","121.41943","25.1817116666667","6501000","淡水區"
"207003","550-UM","2017/07/25 17:19:07","新北市萬里區萬里里瑪鋉路314號","121.68823","25.1821016666667","6502800","萬里區"
"252002","178-VK","2017/07/25 17:19:12","新北市三芝區忠孝街1-14號","121.505488333333","25.2539383333333","6502100","三芝區"
"252001","292-VK","2017/07/25 17:19:12","新北市三芝區長安街119號","121.498018333333","25.25964","6502100","三芝區"
"252005","AAC-283","2017/07/25 15:43:11","新北市三芝區埔坪里埔頭坑41號","121.504523333333","25.264415","6502100","三芝區"
"242021","AAC-296","2017/07/25 14:15:36","新北市新莊區新泰路357巷3弄57號","121.442326666667","25.0394366666667","6500500","新莊區"
"242048","751-BX","2017/07/25 17:19:15","新北市新莊區裕民街19巷20號","121.419675","25.0244033333333","6500500","新莊區"
"242029","705-TV","2017/07/25 17:18:56","新北市新莊區幸福路616號","121.451498333333","25.0492766666667","6500500","新莊區"
"242025","615-BX","2017/07/25 17:18:57","新北市新莊區中平路82巷2號","121.444866666667","25.0448066666667","6500500","新莊區"
"242023","613-BX","2017/07/25 17:19:18","新北市新莊區中平路82巷24號","121.445801666667","25.0448066666667","6500500","新莊區"
"242027","612-BX","2017/07/25 17:19:08","新北市新莊區中和街12號","121.44837","25.04316","6500500","新莊區"
"242037","566-BX","2017/07/25 17:19:02","新北市新莊區新樹路69-34號","121.438073333333","25.0287233333333","6500500","新莊區"
"242005","442-UM","2017/07/25 17:19:06","新北市新莊區中平路82巷36-2號","121.44629","25.0449116666667","6500500","新莊區"
"242046","441-UM","2017/07/25 17:19:03","新北市新莊區新樹路67巷32號","121.44029","25.0301933333333","6500500","新莊區"
"242051","440-UM","2017/07/25 17:19:01","新北市新莊區瓊林路182-1號","121.440196666667","25.02192","6500500","新莊區"
"242032","415-TV","2017/07/25 17:19:11","新北市新莊區新泰路462號","121.443221666667","25.044855","6500500","新莊區"
"242002","413-TV","2017/07/25 17:19:07","新北市新莊區新莊路773號","121.442055","25.032755","6500500","新莊區"
"242039","400-BY","2017/07/25 17:19:12","新北市新莊區新樹路90號","121.436165","25.024525","6500500","新莊區"
"242061","362-BY","2017/07/25 17:19:11","新北市新莊區新泰路357巷3弄57號","121.441836666667","25.0395833333333","6500500","新莊區"
"242058","353-BY","2017/07/25 17:19:11","新北市泰山區磚雅厝6號","121.441988333333","25.0423633333333","6500500","新莊區"
"242042","132-UY","2017/07/25 17:19:08","新北市新莊區新樹路111號","121.43778","25.026615","6500500","新莊區"
"242034","133-UY","2017/07/25 17:19:13","新北市新莊區瓊林路50-10號","121.445866666667","25.02883","6500500","新莊區"
"242019","135-UY","2017/07/25 17:19:11","新北市新莊區公園路2-1號","121.447261666667","25.0384966666667","6500500","新莊區"
"242044","172-VK","2017/07/25 17:18:58","新北市新莊區福營路262號","121.425181666667","25.028465","6500500","新莊區"
"242007","173-VK","2017/07/25 17:19:09","新北市新莊區新泰路357巷3弄53號","121.442111666667","25.03988","6500500","新莊區"
"242013","175-VK","2017/07/25 17:19:08","新北市新莊區新泰路488號","121.442488333333","25.0458766666667","6500500","新莊區"
"242056","176-VK","2017/07/25 17:19:01","新北市新莊區新莊路763巷2號","121.442463333333","25.0324666666667","6500500","新莊區"
"242011","346-TH","2017/07/25 17:18:58","新北市新莊區新泰路502巷55號","121.444383333333","25.04643","6500500","新莊區"
"242017","348-TH","2017/07/25 17:18:58","新北市新莊區中港一街142號","121.446728333333","25.0451233333333","6500500","新莊區"
"242054","349-TH","2017/07/25 17:19:17","新北市新莊區瓊林路59-17號","121.442121666667","25.0248683333333","6500500","新莊區"
"242015","350-TH","2017/07/25 17:18:56","新北市新莊區建中街152號","121.444833333333","25.03646","6500500","新莊區"
"242009","351-TH","2017/07/25 17:19:16","新北市新莊區立信一街39號","121.442316666667","25.0493516666667","6500500","新莊區"
"238015","755-BX","2017/07/25 17:19:00","新北市樹林區東興街3號","121.409803333333","24.980475","6500700","樹林區"
"238023","601-UM","2017/07/25 17:19:14","新北市樹林區大安路283號","121.418221666667","24.9928383333333","6500700","樹林區"
"238019","599-UM","2017/07/25 17:19:17","新北市樹林區八德街281號","121.422708333333","24.97863","6500700","樹林區"
"238018","571-TV","2017/07/25 17:19:03","新北市板橋區篤行路三段98號","121.42582","24.9848283333333","6500700","樹林區"
"238024","5061-A6","2017/07/25 17:19:03","新北市樹林區博愛一街29巷64號","121.425976666667","24.9916216666667","6500700","樹林區"
"238022","312-TH","2017/07/25 17:19:04","新北市樹林區忠孝街31號","121.423778333333","24.982225","6500700","樹林區"
"238021","311-TH","2017/07/25 17:18:59","新北市樹林區西圳街165巷20弄26號","121.39543","24.96005","6500700","樹林區"
"238025","303-VK","2017/07/25 17:18:58","新北市樹林區中山路一段414號","121.417948333333","24.985255","6500700","樹林區"
"238017","283-BY","2017/07/25 17:19:15","新北市樹林區文化街91巷16號","121.415755","24.9893983333333","6500700","樹林區"
"238014","282-BY","2017/07/25 17:19:15","新北市樹林區大安路415號","121.415453333333","24.9887783333333","6500700","樹林區"
"238020","268-VK","2017/07/25 01:07:09","新北市樹林區中山路三段202號","121.386666666667","24.9683483333333","6500700","樹林區"
"238026","172-UY","2017/07/25 17:19:15","新北市樹林區東大街146號","121.409996666667","24.9757783333333","6500700","樹林區"
"238016","169-UY","2017/07/25 17:19:01","新北市樹林區中山路二段46-2號","121.416813333333","24.9846416666667","6500700","樹林區"
"239007","AAC-297","2017/07/25 17:19:03","新北市鶯歌區光復街10號","121.351768333333","24.9551033333333","6500800","鶯歌區"
"239006","891-R6","2017/07/25 17:19:12","新北市鶯歌區福昌街10號","121.33319","24.9607933333333","6500800","鶯歌區"
"239008","527-UM","2017/07/25 17:19:17","新北市鶯歌區西湖街279巷15號","121.340516666667","24.9679533333333","6500800","鶯歌區"
"239005","526-UM","2017/07/25 17:19:14","新北市鶯歌區福德三街19號","121.329528333333","24.967405","6500800","鶯歌區"
"239001","417-VK","2017/07/25 17:19:13","新北市鶯歌區尖山路卓厝巷1號","121.342113333333","24.9458966666667","6500800","鶯歌區"
"239003","360-BY","2017/07/25 17:19:00","新北市鶯歌區德昌街98號","121.332375","24.9602316666667","6500800","鶯歌區"
"239002","359-BY","2017/07/25 17:19:04","新北市鶯歌區南昌街24號","121.349661666667","24.9542133333333","6500800","鶯歌區"
"239004","193-VK","2017/07/25 17:19:05","新北市鶯歌區文化路427-2號","121.353866666667","24.9484816666667","6500800","鶯歌區"
"241031","3G-TL5","2017/07/25 16:13:05","桃園市楊梅區電研路100-24號","121.166076666667","24.9536533333333","6500200","三重區"
