"lineid","car","time","location","longitude","latitude","cityid","cityname"
"234026","9371-KE","2017/07/25 17:58:57","新北市永和區永和路一段45-1號","121.512868333333","25.006285","6500400","永和區"
"249005","172-UM","2017/07/25 17:30:21","新北市八里區荖阡坑路28-2號","121.404746666667","25.1281233333333","6502300","八里區"
"249004","303-UY","2017/07/25 17:59:11","新北市八里區中山路一段1號","121.4232","25.1589816666667","6502300","八里區"
"249002","305-UY","2017/07/25 17:59:10","新北市八里區龍米路一段259號","121.450696666667","25.1336566666667","6502300","八里區"
"249003","593-UM","2017/07/25 17:59:09","新北市八里區中山路二段93號","121.405956666667","25.1527316666667","6502300","八里區"
"249001","759-BX","2017/07/25 17:59:13","新北市八里區龍米路二段35號","121.448368333333","25.1399583333333","6502300","八里區"
"248014","025-BX","2017/07/25 17:59:08","新北市五股區更洲路70號","121.453136666667","25.07865","6501500","五股區"
"248006","077-UY","2017/07/25 17:58:59","新北市五股區中興路二段37巷28號","121.460316666667","25.0749766666667","6501500","五股區"
"248008","095-VK","2017/07/25 17:59:09","新北市五股區更洲路18號","121.458095","25.0789833333333","6501500","五股區"
"248020","225-UY","2017/07/25 17:59:03","新北市五股區中興路二段83巷26-3號","121.460026666667","25.0754516666667","6501500","五股區"
"248010","272-BY","2017/07/25 17:59:12","新北市五股區中興路二段163號","121.45773","25.0776216666667","6501500","五股區"
"248012","655-BX","2017/07/25 17:59:01","新北市五股區中興路二段83巷26-3號","121.46011","25.0753516666667","6501500","五股區"
"232011","375-UM","2017/07/25 17:58:56","新北市坪林區水柳腳39號","121.709716666667","24.9351933333333","6502000","坪林區"
"244013","069-UM","2017/07/25 17:59:09","新北市林口區中山路79號","121.390266666667","25.0787366666667","6501700","林口區"
"244007","080-UY","2017/07/25 17:58:54","新北市林口區林口路222號","121.386865","25.0837083333333","6501700","林口區"
"244019","403-UM","2017/07/25 17:59:00","新北市林口區忠孝路542巷11弄12號","121.373846666667","25.06707","6501700","林口區"
"244009","410-SL","2017/07/25 17:59:03","新北市林口區林口路241號","121.386678333333","25.08385","6501700","林口區"
"244023","483-VK","2017/07/25 17:59:05","新北市林口區東湖路41巷16號","121.386263333333","25.07326","6501700","林口區"
"244017","485-VK","2017/07/25 17:59:08","新北市林口區文化二路一段230巷5號","121.370666666667","25.072085","6501700","林口區"
"244025","656-BX","2017/07/25 17:59:06","新北市林口區文化三路一段39巷185號","121.359248333333","25.0679966666667","6501700","林口區"
"244011","701-TV","2017/07/25 17:58:56","新北市林口區中正路148號","121.39262","25.0773416666667","6501700","林口區"
"244021","838-TS","2017/07/25 17:59:11","新北市林口區新寮27-1號","121.397205","25.0680166666667","6501700","林口區"
"222003","436-BY","2017/07/25 17:59:02","新北市深坑區炮子崙23號","121.607148333333","24.9908833333333","6501800","深坑區"
"222001","628-TS","2017/07/25 17:58:53","新北市深坑區北深路三段25巷12-1號","121.609035","25.0008033333333","6501800","深坑區"
"222002","659-BX","2017/07/25 17:58:58","新北市深坑區深坑街35號","121.616006666667","25.00176","6501800","深坑區"
"231069","189-VK","2017/07/25 12:45:26","新北市新店區安華路28-1號","121.519675","24.9609266666667","6500600","新店區"
"231046","278-BY","2017/07/25 17:58:57","新北市新店區康雅崙路3號","121.539976666667","24.92572","6500600","新店區"
"241008","156-TC","2017/07/25 17:58:58","新北市三重區永福街72巷25號","121.4799","25.0764","6500200","三重區"
"241024","265-UM","2017/07/25 17:59:01","新北市三重區中正北路193巷35弄23號","121.47711","25.0708266666667","6500200","三重區"
"241016","266-UM","2017/07/25 17:59:01","新北市五股區五工一路103號","121.458355","25.0695316666667","6500200","三重區"
"241033","AAC-255","2017/07/25 17:59:08","新北市三重區重新路五段596號","121.469176666667","25.0452633333333","6500200","三重區"
"235064","005-UY","2017/07/25 17:58:58","新北市中和區員山路36巷13號","121.484166666667","24.9906283333333","6500300","中和區"
"235065","098-UM","2017/07/25 17:59:04","新北市中和區連城路469巷20號","121.48354","24.9950916666667","6500300","中和區"
"235058","151-BY","2017/07/25 17:58:47","新北市中和區中正路589巷15號","121.485975","24.993565","6500300","中和區"
"235038","185-VK","2017/07/25 17:58:57","新北市中和區中正路406號","121.492361666667","24.993955","6500300","中和區"
"235067","255-BX","2017/07/25 17:59:10","新北市中和區和城路一段271巷1號","121.485455","24.991905","6500300","中和區"
"235072","301-VK","2017/07/25 17:59:07","新北市中和區員山路36巷12號","121.4839","24.9907083333333","6500300","中和區"
"235071","783-BX","2017/07/25 17:59:03","新北市中和區員山路36巷16-3號","121.485248333333","24.9911983333333","6500300","中和區"
"235026","800-TS","2017/07/25 17:58:57","新北市中和區員山路36巷16-3號","121.485105","24.991305","6500300","中和區"
"235063","911-UM","2017/07/25 17:59:07","新北市中和區員山路36巷16-3號","121.485166666667","24.9911466666667","6500300","中和區"
"247020","893-R6","2017/07/25 17:59:05","新北市蘆洲區民權路137巷5號","121.471425","25.090055","6501400","蘆洲區"
"247018","500-BY","2017/07/25 17:59:00","新北市蘆洲區復興路228號","121.479225","25.089305","6501400","蘆洲區"
"247006","341-TH","2017/07/25 17:59:10","新北市蘆洲區長榮路1號","121.463771666667","25.0817633333333","6501400","蘆洲區"
"247008","339-TH","2017/07/25 17:59:07","新北市蘆洲區中山一路355號","121.470358333333","25.07794","6501400","蘆洲區"
"247002","336-TH","2017/07/25 17:58:57","新北市蘆洲區永平街32巷57弄6-1號","121.459518333333","25.0929333333333","6501400","蘆洲區"
"247014","057-VK","2017/07/25 17:59:01","新北市八里區商港路96號","121.394168333333","25.1481666666667","6501400","蘆洲區"
"247022","002-UY","2017/07/25 17:59:04","新北市五股區新五路二段372巷20號","121.451915","25.0852866666667","6501400","蘆洲區"
"226004","312-R5","2017/07/25 17:59:03","新北市平溪區石底里石筍尖21號","121.730256666667","25.0257666666667","6502400","平溪區"
"228001","212-TW","2017/07/25 17:59:05","新北市貢寮區真理里新港街26巷53號","121.927946666667","25.0534316666667","6502600","貢寮區"
"228002","585-TW","2017/07/25 17:58:54","新北市貢寮區福連里香蘭街2-1號","121.970506666667","25.0240166666667","6502600","貢寮區"
"228003","828-UM","2017/07/25 17:59:02","新北市貢寮區真理里美艷山街6-2號","121.928906666667","25.060685","6502600","貢寮區"
"224006","676-BX","2017/07/25 17:58:54","新北市瑞芳區瑞興新村12巷1號","121.78838","25.1083016666667","6501200","瑞芳區"
"224002","639-TC","2017/07/25 17:58:54","新北市瑞芳區三爪子坑路127號","121.810273333333","25.1068933333333","6501200","瑞芳區"
"224009","285-BY","2017/07/25 17:58:59","新北市瑞芳區山尖路86號","121.85335","25.1157983333333","6501200","瑞芳區"
"224008","275-VK","2017/07/25 17:59:11","新北市瑞芳區明燈路一段45巷61-4號","121.821821666667","25.105225","6501200","瑞芳區"
"224007","273-VK","2017/07/25 17:59:05","新北市瑞芳區大寮路84號","121.780418333333","25.101275","6501200","瑞芳區"
"224005","271-BY","2017/07/25 17:58:59","新北市瑞芳區深澳路205號","121.819528333333","25.1331866666667","6501200","瑞芳區"
"253006","032-BX","2017/07/25 17:59:00","新北市石門區大丘田45-2號","121.549825","25.2748366666667","6502200","石門區"
"208003","665-BX","2017/07/25 17:58:58","新北市金山區磺港里磺港路202-1號","121.64511","25.2275","6502700","金山區"
"208001","761-BX","2017/07/25 17:59:09","新北市金山區磺港里磺港路248號","121.643806666667","25.2250433333333","6502700","金山區"
"251004","009-UM","2017/07/25 17:59:00","新北市淡水區民權路187號","121.459311666667","25.1334883333333","6501000","淡水區"
"251005","010-UM","2017/07/25 17:58:55","新北市淡水區英專路135號","121.44653","25.17271","6501000","淡水區"
"251014","180-VK","2017/07/25 17:59:09","新北市淡水區公埔子16-6號","121.481021666667","25.2245666666667","6501000","淡水區"
"251008","181-VK","2017/07/25 17:59:08","新北市淡水區八勢一街55號","121.461893333333","25.155495","6501000","淡水區"
"251010","413-VK","2017/07/25 17:58:53","新北市淡水區中正路一段132巷22號","121.423035","25.1799633333333","6501000","淡水區"
"251012","441-VK","2017/07/25 17:59:07","新北市淡水區北新路三段38巷1號","121.484283333333","25.187065","6501000","淡水區"
"251016","442-VK","2017/07/25 17:58:56","新北市淡水區埤島35-1號","121.449206666667","25.1975416666667","6501000","淡水區"
"251001","559-UM","2017/07/25 17:59:10","新北市淡水區民權路94巷1號","121.463078333333","25.1247766666667","6501000","淡水區"
"251006","561-UM","2017/07/25 17:58:57","新北市淡水區真理街2-1號","121.438765","25.1729416666667","6501000","淡水區"
"251009","575-R6","2017/07/25 17:58:56","新北市淡水區大仁街6巷1號","121.442435","25.174675","6501000","淡水區"
"251011","650-BX","2017/07/25 17:59:11","新北市淡水區三空泉5-1號","121.478013333333","25.1619833333333","6501000","淡水區"
"251002","672-BX","2017/07/25 17:59:03","新北市淡水區中正東路1號","121.447198333333","25.1672233333333","6501000","淡水區"
"251003","673-BX","2017/07/25 17:59:01","新北市淡水區大忠街79-1號","121.445893333333","25.177295","6501000","淡水區"
"207003","550-UM","2017/07/25 17:59:07","新北市萬里區港東路野柳風景區攤販66號","121.69133","25.205835","6502800","萬里區"
"207004","225-TW","2017/07/25 17:58:58","新北市萬里區中幅里中福路48號","121.683448333333","25.1741383333333","6502800","萬里區"
"252002","178-VK","2017/07/25 17:59:12","新北市三芝區中山路二段29號","121.502866666667","25.2553183333333","6502100","三芝區"
"252001","292-VK","2017/07/25 17:58:52","新北市三芝區中興街一段28號","121.49768","25.2578566666667","6502100","三芝區"
"252005","AAC-283","2017/07/25 15:43:11","新北市三芝區埔坪里埔頭坑41號","121.504523333333","25.264415","6502100","三芝區"
"208002","170-UY","2017/07/25 17:59:07","新北市金山區三界壇路33號","121.627565","25.2279216666667","6502700","金山區"
"237004","078-UY","2017/07/25 17:58:59","新北市三峽區中園街153號","121.367221666667","24.9223533333333","6500900","三峽區"
"237007","153-BY","2017/07/25 17:59:06","新北市三峽區中園街177號","121.367098333333","24.9216233333333","6500900","三峽區"
"237009","210-TH","2017/07/25 17:58:55","新北市三峽區文化路266-9號","121.366326666667","24.93572","6500900","三峽區"
"237013","252-BX","2017/07/25 17:59:00","新北市三峽區介壽路一段193號","121.37784","24.9307583333333","6500900","三峽區"
"237012","275-BY","2017/07/25 17:59:07","新北市三峽區民生街92號","121.3741","24.9355933333333","6500900","三峽區"
"237008","302-VK","2017/07/25 17:58:58","新北市三峽區正義街153號","121.368173333333","24.9152333333333","6500900","三峽區"
"237014","433-BY","2017/07/25 17:59:13","新北市三峽區復興路101巷1弄47號","121.37178","24.9373416666667","6500900","三峽區"
"237006","5529-G3","2017/07/25 17:59:02","新北市三峽區介壽路二段136巷68號","121.392495","24.933765","6500900","三峽區"
"237011","572-TV","2017/07/25 12:44:38","新北市三峽區中山路459巷163-3號","121.348816666667","24.9330533333333","6500900","三峽區"
"237016","649-BX","2017/07/25 17:59:03","新北市三峽區紫微路109號","121.407625","24.9113966666667","6500900","三峽區"
"237010","706-TV","2017/07/25 17:59:10","新北市三峽區文化路212-6號","121.368363333333","24.93593","6500900","三峽區"
"237005","AKY-6261","2017/07/25 17:58:58","新北市三峽區文化路186號","121.369708333333","24.9370866666667","6500900","三峽區"
"236070","105-UM","2017/07/25 17:59:06","新北市土城區青雲路482-2號","121.468868333333","24.964645","6501300","土城區"
"236043","107-UM","2017/07/25 17:58:56","新北市土城區明德路二段207號","121.446563333333","24.9837383333333","6501300","土城區"
"236079","166-UM","2017/07/25 17:58:55","新北市土城區永寧路32巷10弄21號","121.428951666667","24.961015","6501300","土城區"
"236031","253-BX","2017/07/25 17:59:01","新北市土城區城林路6巷80號","121.438485","24.97981","6501300","土城區"
"236027","269-VK","2017/07/25 17:59:08","新北市土城區承天路18號","121.439425","24.9634066666667","6501300","土城區"
"236015","270-VK","2017/07/25 17:59:02","新北市土城區城林路6巷80號","121.438553333333","24.9795983333333","6501300","土城區"
"236038","271-VK","2017/07/25 17:58:55","新北市土城區城林路6巷80號","121.438465","24.979745","6501300","土城區"
"236023","401-BY","2017/07/25 17:58:54","新北市土城區城林路6巷80號","121.438678333333","24.9797033333333","6501300","土城區"
"236059","912-UM","2017/07/25 17:58:59","新北市土城區中央路三段32號","121.438528333333","24.9689666666667","6501300","土城區"
"236049","913-UM","2017/07/25 17:58:52","新北市土城區城林路6巷80號","121.438533333333","24.9797466666667","6501300","土城區"
"236063","915-UM","2017/07/25 17:59:13","新北市土城區中央路二段280號","121.440785","24.973965","6501300","土城區"
"236055","AAC-216","2017/07/25 17:59:05","新北市土城區城林路6巷80號","121.438483333333","24.9795966666667","6501300","土城區"
"242021","AAC-296","2017/07/25 17:59:02","新北市新莊區中華路一段2號","121.452183333333","25.0364883333333","6500500","新莊區"
"242048","751-BX","2017/07/25 17:58:55","新北市新莊區萬安街47巷14號","121.422098333333","25.024405","6500500","新莊區"
"242029","705-TV","2017/07/25 17:58:56","新北市新莊區中平路79號","121.444725","25.0452833333333","6500500","新莊區"
"242025","615-BX","2017/07/25 17:58:57","新北市新莊區五工路93-1號","121.458153333333","25.0633283333333","6500500","新莊區"
"242023","613-BX","2017/07/25 17:58:57","新北市新莊區福壽街37號","121.458231666667","25.048495","6500500","新莊區"
"242027","612-BX","2017/07/25 17:59:08","新北市新莊區思源路448號","121.459943333333","25.0535416666667","6500500","新莊區"
"242037","566-BX","2017/07/25 17:59:02","新北市新莊區建福路46號","121.426621666667","25.027715","6500500","新莊區"
"242005","442-UM","2017/07/25 17:59:06","新北市新莊區思源路177巷35號","121.459135","25.046715","6500500","新莊區"
"242046","441-UM","2017/07/25 17:59:03","新北市新莊區福營路184號","121.431306666667","25.030875","6500500","新莊區"
"242051","440-UM","2017/07/25 17:59:01","新北市新莊區龍安路537號","121.428033333333","25.0175066666667","6500500","新莊區"
"242032","415-TV","2017/07/25 17:59:11","新北市新莊區新泰路289巷28號","121.444283333333","25.0405266666667","6500500","新莊區"
"242002","413-TV","2017/07/25 17:59:09","新北市新莊區中正路157-1號","121.455743333333","25.03663","6500500","新莊區"
"242039","400-BY","2017/07/25 17:59:12","新北市新莊區民安西路24巷17號","121.426221666667","25.0207333333333","6500500","新莊區"
"242061","362-BY","2017/07/25 17:59:11","新北市新莊區新樹路469號","121.432631666667","25.0128983333333","6500500","新莊區"
"242058","353-BY","2017/07/25 17:58:51","新北市新莊區新北大道七段375號","121.412573333333","25.0265116666667","6500500","新莊區"
"242042","132-UY","2017/07/25 17:59:08","新北市新莊區天祥街89號","121.415285","25.029465","6500500","新莊區"
"242034","133-UY","2017/07/25 17:58:53","新北市新莊區景德路414號","121.44464","25.03342","6500500","新莊區"
"242019","135-UY","2017/07/25 17:59:11","新北市新莊區明中街45-2號","121.45743","25.0392966666667","6500500","新莊區"
"242044","172-VK","2017/07/25 17:58:59","新北市新莊區雙鳳路107號","121.414036666667","25.027885","6500500","新莊區"
"242007","173-VK","2017/07/25 17:59:10","新北市新莊區自信街81巷1號","121.455946666667","25.0481533333333","6500500","新莊區"
"242013","175-VK","2017/07/25 17:59:08","新北市新莊區中和街125巷5號","121.447005","25.0485516666667","6500500","新莊區"
"242056","176-VK","2017/07/25 17:59:04","新北市新莊區豐年街124巷12號","121.44577","25.029865","6500500","新莊區"
"242011","346-TH","2017/07/25 17:58:58","新北市新莊區中港路中慶巷13號","121.450628333333","25.0537733333333","6500500","新莊區"
"242017","348-TH","2017/07/25 17:58:58","新北市新莊區中港路339巷38號","121.450516666667","25.0451483333333","6500500","新莊區"
"242054","349-TH","2017/07/25 17:58:57","新北市新莊區民安西路403巷15號","121.430055","25.0106466666667","6500500","新莊區"
"242015","350-TH","2017/07/25 17:59:06","新北市新莊區中平路87巷3號","121.444515","25.0457566666667","6500500","新莊區"
"242009","351-TH","2017/07/25 17:58:56","新北市新莊區中華路二段254號","121.452553333333","25.0530233333333","6500500","新莊區"
"238015","755-BX","2017/07/25 17:59:00","新北市樹林區復興路192號","121.419828333333","24.9910633333333","6500700","樹林區"
"238023","601-UM","2017/07/25 17:58:54","新北市樹林區龍興街30號","121.40297","25.015885","6500700","樹林區"
"238019","599-UM","2017/07/25 17:58:57","新北市樹林區八德街225號","121.421658333333","24.9794866666667","6500700","樹林區"
"238018","571-TV","2017/07/25 17:59:03","新北市樹林區鎮前街97巷2-1號","121.424555","24.9897133333333","6500700","樹林區"
"238022","312-TH","2017/07/25 17:59:04","新北市樹林區太順街62巷3弄35號","121.416476666667","24.9790083333333","6500700","樹林區"
"238021","311-TH","2017/07/25 17:59:11","新北市樹林區柑園街一段57號","121.402815","24.9603266666667","6500700","樹林區"
"238025","303-VK","2017/07/25 17:58:58","新北市樹林區俊興街209-6號","121.417541666667","25.0145066666667","6500700","樹林區"
"238017","283-BY","2017/07/25 17:58:55","新北市樹林區俊德街56號","121.415325","25.01338","6500700","樹林區"
"238014","282-BY","2017/07/25 17:58:55","新北市樹林區大安路127號","121.422333333333","24.9973833333333","6500700","樹林區"
"238020","268-VK","2017/07/25 01:07:09","新北市樹林區中山路三段202號","121.386666666667","24.9683483333333","6500700","樹林區"
"238026","172-UY","2017/07/25 17:58:55","新北市樹林區中洲街21號","121.397221666667","24.9721016666667","6500700","樹林區"
"238016","169-UY","2017/07/25 17:59:01","新北市樹林區復興路360號","121.415761666667","24.985935","6500700","樹林區"
"239007","AAC-297","2017/07/25 17:59:03","新北市鶯歌區尖山埔路193號","121.345368333333","24.95055","6500800","鶯歌區"
"239006","891-R6","2017/07/25 17:59:12","新北市鶯歌區鶯桃路455巷2弄1號","121.331945","24.9653","6500800","鶯歌區"
"239008","527-UM","2017/07/25 17:58:57","新北市鶯歌區明圓街23號","121.336251666667","24.9773083333333","6500800","鶯歌區"
"239005","526-UM","2017/07/25 17:59:14","新北市鶯歌區鶯桃路668巷73號","121.329901666667","24.9717466666667","6500800","鶯歌區"
"239001","417-VK","2017/07/25 17:59:12","新北市鶯歌區中正三路121號","121.337761666667","24.94064","6500800","鶯歌區"
"239003","360-BY","2017/07/25 17:58:40","新北市鶯歌區鶯桃路390號","121.333883333333","24.9636316666667","6500800","鶯歌區"
"239002","359-BY","2017/07/25 17:59:04","新北市鶯歌區光明街76號","121.346925","24.9560166666667","6500800","鶯歌區"
"239004","193-VK","2017/07/25 17:59:05","新北市鶯歌區尖山路137巷2號","121.346898333333","24.94866","6500800","鶯歌區"
"221008","489-VK","2017/07/25 17:59:11","新北市汐止區明峰街16-1號","121.634811666667","25.0714683333333","6501100","汐止區"
"221036","130-UY","2017/07/25 17:58:53","新北市汐止區大同路三段34號","121.667136666667","25.0765183333333","6501100","汐止區"
"221015","131-UY","2017/07/25 17:59:04","新北市汐止區長江街361號","121.667855","25.08224","6501100","汐止區"
"221010","269-BY","2017/07/25 17:58:56","新北市汐止區汐萬路二段222號","121.646773333333","25.0877666666667","6501100","汐止區"
"221031","277-VK","2017/07/25 17:58:59","新北市汐止區中興路96巷16號","121.635581666667","25.06251","6501100","汐止區"
"221012","278-VK","2017/07/25 17:58:21","新北市汐止區長興街二段6號","121.672316666667","25.081","6501100","汐止區"
"221023","279-VK","2017/07/25 17:59:11","新北市汐止區民族六街1巷3號","121.629215","25.0709366666667","6501100","汐止區"
"221032","280-BY","2017/07/25 17:59:07","新北市汐止區橫科路73巷22-1號","121.619305","25.0518583333333","6501100","汐止區"
"221027","281-BY","2017/07/25 17:59:08","新北市汐止區大同路二段341-1號","121.656176666667","25.0672016666667","6501100","汐止區"
"221038","297-VK","2017/07/25 17:59:10","新北市汐止區連興街128巷7弄8號","121.653441666667","25.061385","6501100","汐止區"
"221029","298-VK","2017/07/25 17:59:02","新北市汐止區樟樹二路330巷1號","121.64166","25.0703033333333","6501100","汐止區"
"221021","299-VK","2017/07/25 17:42:46","新北市汐止區汐萬路一段312號","121.650196666667","25.0754066666667","6501100","汐止區"
"221035","622-UM","2017/07/25 17:58:55","新北市汐止區新江北路30巷22弄3號","121.651696666667","25.0697616666667","6501100","汐止區"
"221025","623-UM","2017/07/25 17:58:56","新北市汐止區仁愛路12號","121.659516666667","25.0633416666667","6501100","汐止區"
"221033","647-BX","2017/07/25 17:59:05","新北市汐止區合順街42號","121.620315","25.0431183333333","6501100","汐止區"
"221002","707-TV","2017/07/25 17:59:07","新北市汐止區中興路60號","121.635573333333","25.0615383333333","6501100","汐止區"
"221018","753-BX","2017/07/25 17:59:08","新北市汐止區忠孝東路382巷3弄1號","121.66582","25.069775","6501100","汐止區"
"241031","3G-TL5","2017/07/25 16:13:05","桃園市楊梅區電研路100-24號","121.166076666667","24.9536533333333","6500200","三重區"
