"lineid","car","time","location","longitude","latitude","cityid","cityname"
"234046","148-BY","2017/07/25 18:48:58","新北市永和區永元路40巷35號","121.523296666667","25.00065","6500400","永和區"
"234013","149-BY","2017/07/25 18:48:59","新北市永和區保福路二段133巷20號","121.509275","25.013635","6500400","永和區"
"234007","207-UY","2017/07/25 18:49:08","新北市永和區復興街16巷2號","121.515298333333","25.0127366666667","6500400","永和區"
"234081","298-R6","2017/07/25 18:48:54","新北市永和區林森路114號","121.522581666667","25.00314","6500400","永和區"
"234038","336-UY","2017/07/25 18:49:06","新北市永和區成功路二段155號","121.526615","24.9975066666667","6500400","永和區"
"234064","337-UY","2017/07/25 18:48:51","新北市永和區福和路1號","121.525755","25.009375","6500400","永和區"
"234086","338-UY","2017/07/25 18:49:09","新北市中和區安樂路85號","121.512933333333","24.9943883333333","6500400","永和區"
"234070","552-UM","2017/07/25 18:48:51","新北市永和區中興街100號","121.519046666667","25.0121316666667","6500400","永和區"
"234054","553-UM","2017/07/25 18:49:07","新北市永和區竹林路155號","121.520493333333","25.0103483333333","6500400","永和區"
"234017","745-BX","2017/07/25 18:49:02","新北市永和區永和路二段393號","121.515678333333","25.0167266666667","6500400","永和區"
"234030","746-BX","2017/07/25 18:48:52","新北市永和區得和路338號","121.523583333333","24.99945","6500400","永和區"
"234061","AAD-866","2017/07/25 18:49:03","新北市永和區福和路309巷1號","121.516363333333","25.0070683333333","6500400","永和區"
"234042","862-TW","2017/07/25 18:48:57","新北市永和區永貞路306號","121.511901666667","25.0048483333333","6500400","永和區"
"234050","863-TW","2017/07/25 18:48:52","新北市永和區環河西路一段95巷4弄9號","121.511423333333","25.0174833333333","6500400","永和區"
"234026","9371-KE","2017/07/25 18:48:57","新北市永和區安樂路445號","121.51431","25.004825","6500400","永和區"
"249005","172-UM","2017/07/25 18:49:01","新北市八里區長道坑16-7號","121.395686666667","25.1153533333333","6502300","八里區"
"249004","303-UY","2017/07/25 18:48:51","新北市八里區博物館路23號","121.414908333333","25.1633666666667","6502300","八里區"
"249001","759-BX","2017/07/25 18:48:53","新北市八里區龍米路二段35號","121.448446666667","25.13999","6502300","八里區"
"248016","026-BX","2017/07/25 18:49:00","新北市五股區凌雲路一段149巷42號","121.448591666667","25.100995","6501500","五股區"
"248006","077-UY","2017/07/25 18:48:59","新北市五股區四維路1巷3-1號","121.466293333333","25.07023","6501500","五股區"
"248008","095-VK","2017/07/25 18:48:49","新北市五股區中興路一段151巷61號","121.46519","25.071645","6501500","五股區"
"248020","225-UY","2017/07/25 18:49:03","新北市五股區凌雲路三段41-2號","121.429976666667","25.117935","6501500","五股區"
"248010","272-BY","2017/07/25 18:48:53","新北市五股區水碓三路42號","121.431371666667","25.0725533333333","6501500","五股區"
"248012","655-BX","2017/07/25 18:49:01","新北市五股區成泰路二段147巷22-3號","121.438155","25.0871533333333","6501500","五股區"
"248004","677-BX","2017/07/25 18:48:59","新北市五股區民義路二段50-16號","121.413086666667","25.1020083333333","6501500","五股區"
"248002","682-TV","2017/07/25 18:48:56","新北市五股區西雲路272號","121.44925","25.097705","6501500","五股區"
"234023","9380-KE","2017/07/25 18:48:56","新北市永和區竹林路119巷26-1號","121.521331666667","25.0118116666667","6500400","永和區"
"234077","969-R7","2017/07/25 18:48:53","新北市永和區中正路2巷5號","121.51281","24.9934033333333","6500400","永和區"
"234074","AAC-211","2017/07/25 18:48:52","新北市永和區福和路1號","121.52648","25.01","6500400","永和區"
"234067","AAC-212","2017/07/25 18:48:49","新北市永和區永和路一段4號","121.512855","25.0043533333333","6500400","永和區"
"234003","AAC-295","2017/07/25 18:48:57","新北市永和區中正路618號","121.516991666667","25.00771","6500400","永和區"
"232011","375-UM","2017/07/25 18:19:31","新北市坪林區坪雙路一段43號","121.71171","24.9424733333333","6502000","坪林區"
"244013","069-UM","2017/07/25 18:48:50","新北市林口區中正路514巷17號","121.38181","25.077545","6501700","林口區"
"244019","403-UM","2017/07/25 18:49:02","新北市林口區忠孝路622巷15號","121.378385","25.0670633333333","6501700","林口區"
"244009","410-SL","2017/07/25 18:49:03","新北市林口區竹林路320巷1號","121.391136666667","25.0824333333333","6501700","林口區"
"244023","483-VK","2017/07/25 18:49:05","新北市林口區民權路98號","121.373165","25.0821833333333","6501700","林口區"
"244017","485-VK","2017/07/25 18:48:52","新北市林口區文化二路一段20巷25弄61號","121.366125","25.067695","6501700","林口區"
"244025","656-BX","2017/07/25 18:49:06","新北市林口區南勢二街160號","121.35918","25.0746783333333","6501700","林口區"
"244011","701-TV","2017/07/25 18:49:05","新北市林口區仁愛路一段272巷2號","121.393645","25.07598","6501700","林口區"
"243010","267-VK","2017/07/25 18:48:59","新北市泰山區辭修路34巷1號","121.428686666667","25.058005","6501600","泰山區"
"243013","AAD-798","2017/07/25 18:48:56","新北市泰山區明志路三段206巷3號","121.42331","25.0379166666667","6501600","泰山區"
"243015","380-SR","2017/07/25 18:49:02","新北市泰山區美寧街54號","121.430513333333","25.06451","6501600","泰山區"
"243011","549-UM","2017/07/25 18:48:58","新北市泰山區公園路10號","121.4298","25.0540533333333","6501600","泰山區"
"243012","646-TV","2017/07/25 18:49:03","新北市泰山區泰林路二段73巷31號","121.434386666667","25.0578266666667","6501600","泰山區"
"243016","680-BX","2017/07/25 18:48:49","新北市泰山區明志路二段137號","121.427618333333","25.0505783333333","6501600","泰山區"
"222003","436-BY","2017/07/25 18:49:02","新北市深坑區翠谷街17巷42弄2號","121.625353333333","25.01015","6501800","深坑區"
"222001","628-TS","2017/07/25 18:48:53","新北市深坑區松柏街30巷2號","121.638671666667","25.011235","6501800","深坑區"
"222002","659-BX","2017/07/25 18:48:58","新北市深坑區文山路一段62巷3號","121.622913333333","25.00085","6501800","深坑區"
"231041","002-UM","2017/07/25 18:48:47","新北市新店區安華路28-1號","121.519598333333","24.9608066666667","6500600","新店區"
"231056","0293-UT","2017/07/25 18:49:05","新北市新店區建國路198巷2號","121.538078333333","24.9804083333333","6500600","新店區"
"231059","046-UY","2017/07/25 18:48:48","新北市新店區安華路28-1號","121.519538333333","24.96083","6500600","新店區"
"231061","047-UY","2017/07/25 18:49:06","新北市新店區安忠路57巷13號","121.51329","24.95739","6500600","新店區"
"231060","106-UY","2017/07/25 18:49:05","新北市新店區安華路28-1號","121.519716666667","24.960805","6500600","新店區"
"231051","107-UY","2017/07/25 18:48:50","新北市新店區環河路114巷4-1號","121.536993333333","24.9645683333333","6500600","新店區"
"231048","108-UY","2017/07/25 18:49:01","新北市新店區北新路二段92巷8號","121.543593333333","24.9730616666667","6500600","新店區"
"231053","187-VK","2017/07/25 18:48:57","新北市新店區長興路28-1號","121.54684","24.9396583333333","6500600","新店區"
"231069","189-VK","2017/07/25 12:45:26","新北市新店區安華路28-1號","121.519675","24.9609266666667","6500600","新店區"
"231063","268-BY","2017/07/25 18:48:59","新北市新店區車子路115-11號","121.506783333333","24.9546","6500600","新店區"
"231046","278-BY","2017/07/25 18:48:57","新北市新店區直潭路41號","121.533741666667","24.9426016666667","6500600","新店區"
"231050","AAD-862","2017/07/25 18:48:50","新北市新店區安康路一段108號","121.527333333333","24.9626066666667","6500600","新店區"
"231058","3712-VJ","2017/07/25 18:48:52","新北市新店區能仁街16號","121.540606666667","24.9554616666667","6500600","新店區"
"231055","3713-VJ","2017/07/25 18:48:56","新北市新店區新生街37號","121.539383333333","24.966895","6500600","新店區"
"231067","4772-VM","2017/07/25 18:49:01","新北市新店區安康路一段76巷26號","121.528298333333","24.9632766666667","6500600","新店區"
"231065","512-UM","2017/07/25 18:49:00","新北市新店區車子路12號","121.505125","24.954555","6500600","新店區"
"231054","513-UM","2017/07/25 18:48:57","新北市新店區光明街67號","121.538615","24.9605733333333","6500600","新店區"
"231064","515-UM","2017/07/25 18:48:56","新北市新店區安華路28-1號","121.519638333333","24.9612216666667","6500600","新店區"
"231045","617-UM","2017/07/25 18:48:59","新北市新店區安康路一段355-3號","121.519781666667","24.9617566666667","6500600","新店區"
"231040","619-UM","2017/07/25 18:49:00","新北市新店區環河路114巷4-1號","121.537018333333","24.964785","6500600","新店區"
"231042","641-BX","2017/07/25 18:48:53","新北市新店區中正路69號","121.54344","24.9700166666667","6500600","新店區"
"231049","719-UM","2017/07/25 18:49:04","新北市新店區中正路454-5號","121.534438333333","24.9790116666667","6500600","新店區"
"231062","720-UM","2017/07/25 18:48:54","新北市新店區安華路30巷12-1號","121.518366666667","24.9579983333333","6500600","新店區"
"231044","897-TW","2017/07/25 18:48:49","新北市新店區中興路二段192號","121.54828","24.973445","6500600","新店區"
"231043","899-TW","2017/07/25 18:48:58","新北市新店區安康路一段194號","121.524615","24.9634933333333","6500600","新店區"
"231066","AKT-0513","2017/07/25 18:48:50","新北市新店區安豐路22巷3-1號","121.502263333333","24.955655","6500600","新店區"
"241008","156-TC","2017/07/25 18:48:58","新北市三重區永福街72巷25號","121.479918333333","25.0764383333333","6500200","三重區"
"235066","003-UY","2017/07/25 18:48:58","新北市中和區光華街42號","121.504996666667","25.0038666666667","6500300","中和區"
"235064","005-UY","2017/07/25 18:48:58","新北市中和區連城路109巷38號","121.49715","24.997955","6500300","中和區"
"235056","096-UM","2017/07/25 18:48:57","新北市中和區員山路611巷5弄7號","121.478133333333","25.0110366666667","6500300","中和區"
"235039","097-UM","2017/07/25 18:48:57","新北市中和區宜安路2號","121.513761666667","24.995585","6500300","中和區"
"235065","098-UM","2017/07/25 18:49:04","新北市中和區莊敬路33巷22弄8號","121.500783333333","25.0063333333333","6500300","中和區"
"235040","150-BY","2017/07/25 18:49:04","新北市中和區安平路42號","121.510033333333","24.9953316666667","6500300","中和區"
"235058","151-BY","2017/07/25 18:49:07","新北市中和區連城路525-8號","121.480928333333","24.9948516666667","6500300","中和區"
"235055","183-VK","2017/07/25 18:48:59","新北市中和區民生街22號","121.470013333333","25.0053666666667","6500300","中和區"
"235038","185-VK","2017/07/25 18:48:57","新北市中和區立人街14巷65號","121.518645","24.9956166666667","6500300","中和區"
"235049","186-VK","2017/07/25 18:48:50","新北市中和區景安路132巷10號","121.504388333333","24.9942766666667","6500300","中和區"
"235067","255-BX","2017/07/25 18:48:51","新北市中和區中正路875號","121.484346666667","25.00399","6500300","中和區"
"235044","293-VK","2017/07/25 18:48:56","新北市中和區復興路280巷1弄2號","121.502203333333","24.9907083333333","6500300","中和區"
"235072","301-VK","2017/07/25 18:48:47","新北市中和區中山路二段122號","121.50258","25.003545","6500300","中和區"
"235043","352-BY","2017/07/25 18:48:54","新北市中和區景平路2-1號","121.525301666667","24.9906283333333","6500300","中和區"
"235051","376-QA","2017/07/25 18:48:52","新北市中和區華新街143巷46號","121.506035","24.9800516666667","6500300","中和區"
"235068","377-QA","2017/07/25 18:48:59","新北市中和區中正路209號","121.497075","24.993375","6500300","中和區"
"235061","378-QA","2017/07/25 18:49:00","新北市中和區民享街85號","121.474261666667","25.00164","6500300","中和區"
"235050","4979-A6","2017/07/25 18:48:52","新北市中和區忠孝街62巷42號","121.5131","24.9836733333333","6500300","中和區"
"235069","4980-A6","2017/07/25 18:49:02","新北市中和區泰和街16號","121.499768333333","25.000875","6500300","中和區"
"235042","551-UM","2017/07/25 18:49:06","新北市中和區秀朗路三段153巷11號","121.525195","24.991735","6500300","中和區"
"235070","558-UM","2017/07/25 18:48:56","新北市中和區景新街129號","121.505776666667","24.9972466666667","6500300","中和區"
"235045","565-BX","2017/07/25 18:48:57","新北市中和區南山路389號","121.506523333333","24.9903316666667","6500300","中和區"
"235054","640-BX","2017/07/25 18:49:04","新北市中和區民享街32巷1號","121.473745","25.0032166666667","6500300","中和區"
"235060","647-TV","2017/07/25 18:48:58","新北市中和區中山路三段29號","121.47918","25.00588","6500300","中和區"
"235047","732-UM","2017/07/25 18:49:04","新北市中和區興南路二段74巷8號","121.505195","24.9846033333333","6500300","中和區"
"235046","733-UM","2017/07/25 18:48:55","新北市中和區仁愛街36巷51號","121.511461666667","24.9861966666667","6500300","中和區"
"235071","783-BX","2017/07/25 18:49:03","新北市中和區員山路36巷16-3號","121.485155","24.9911883333333","6500300","中和區"
"235026","800-TS","2017/07/25 18:48:57","新北市中和區中山路二段348巷6號","121.49305","25.0029233333333","6500300","中和區"
"235057","801-TS","2017/07/25 18:49:06","新北市中和區民安街22巷16號","121.479706666667","25.0014416666667","6500300","中和區"
"235041","802-TS","2017/07/25 18:49:03","新北市中和區宜安路170號","121.508973333333","24.9991416666667","6500300","中和區"
"235052","805-TS","2017/07/25 18:48:49","新北市中和區興南路二段399巷35-2號","121.500261666667","24.978205","6500300","中和區"
"235048","896-TW","2017/07/25 18:49:01","新北市中和區南山路300號","121.507851666667","24.9871066666667","6500300","中和區"
"235053","900-TW","2017/07/25 18:49:05","新北市中和區華福街28號","121.466031666667","24.9966216666667","6500300","中和區"
"235063","911-UM","2017/07/25 18:49:07","新北市中和區連城路246-4號","121.487985","24.996395","6500300","中和區"
"235037","AAC-213","2017/07/25 18:49:07","新北市中和區景新街383巷52號","121.514448333333","24.9906916666667","6500300","中和區"
"235059","AAC-215","2017/07/25 18:48:54","新北市中和區圓通路393巷16號","121.489813333333","24.9885916666667","6500300","中和區"
"220068","013-TV","2017/07/25 18:48:52","新北市板橋區民生路二段22號","121.472731666667","25.01654","6500100","板橋區"
"220065","072-UY","2017/07/25 18:48:58","新北市板橋區中山路二段89巷7弄15號","121.47267","25.01682","6500100","板橋區"
"220086","073-UY","2017/07/25 18:48:59","新北市板橋區南雅西路二段180巷22號","121.452563333333","25.013795","6500100","板橋區"
"220106","075-UY","2017/07/25 18:49:05","新北市板橋區民生路二段161巷9號","121.470246666667","25.019635","6500100","板橋區"
"220098","120-SR","2017/07/25 18:48:52","新北市板橋區民生路二段120號","121.470446666667","25.01973","6500100","板橋區"
"247006","341-TH","2017/07/25 18:47:55","新北市五股區中興路三段163號","121.449235","25.0808016666667","6501400","蘆洲區"
"247008","339-TH","2017/07/25 18:49:07","新北市五股區成泰路一段98巷77號","121.451081666667","25.07926","6501400","蘆洲區"
"247002","336-TH","2017/07/25 18:48:57","新北市五股區更洲路68號","121.456651666667","25.07967","6501400","蘆洲區"
"247014","057-VK","2017/07/25 18:41:43","新北市五股區中興路三段163號","121.449345","25.0807466666667","6501400","蘆洲區"
"226004","312-R5","2017/07/25 18:49:02","新北市平溪區靜安路二段441號","121.740253333333","25.02502","6502400","平溪區"
"228001","212-TW","2017/07/25 18:49:05","新北市貢寮區仁理村保健街71號","121.923733333333","25.0516416666667","6502600","貢寮區"
"228002","585-TW","2017/07/25 18:48:54","新北市貢寮區福隆里東興街6-11號","121.950783333333","25.02108","6502600","貢寮區"
"228003","828-UM","2017/07/25 18:49:02","新北市貢寮區和美里龍洞街56-2號","121.912271666667","25.1138933333333","6502600","貢寮區"
"224010","AGQ-8101","2017/07/25 18:43:10","新北市瑞芳區金光路372號","121.849231666667","25.11133","6501200","瑞芳區"
"224006","676-BX","2017/07/25 18:48:54","新北市瑞芳區中正路83號","121.80529","25.1076733333333","6501200","瑞芳區"
"224011","420-VK","2017/07/25 18:48:53","新北市瑞芳區崙頂路3-1號","121.847011666667","25.1047066666667","6501200","瑞芳區"
"224009","285-BY","2017/07/25 18:48:59","新北市瑞芳區祈堂路53-1號","121.859565","25.11043","6501200","瑞芳區"
"224008","275-VK","2017/07/25 18:48:51","新北市瑞芳區裕民新城5號","121.801618333333","25.111865","6501200","瑞芳區"
"224007","273-VK","2017/07/25 18:49:05","新北市瑞芳區大埔路188-1號","121.761445","25.1011283333333","6501200","瑞芳區"
"224005","271-BY","2017/07/25 18:48:59","新北市瑞芳區瑞濱路7號","121.827045","25.1216266666667","6501200","瑞芳區"
"227009","642-TC","2017/07/25 18:48:48","新北市雙溪區牡丹里聖南32號","121.85412","25.055595","6502500","雙溪區"
"227003","400-TW","2017/07/25 18:49:05","新北市雙溪區平林里梅竹蹊28號","121.861636666667","25.036015","6502500","雙溪區"
"253006","032-BX","2017/07/25 18:49:00","新北市石門區下員坑16號","121.510616666667","25.2838233333333","6502200","石門區"
"253005","295-VK","2017/07/25 18:48:59","新北市石門區中山路28-3號","121.565696666667","25.28989","6502200","石門區"
"208003","665-BX","2017/07/25 18:48:59","新北市金山區中山路393號","121.633483333333","25.2252483333333","6502700","金山區"
"208001","761-BX","2017/07/25 18:48:53","新北市金山區文化三路66巷2弄3號","121.634355","25.2256866666667","6502700","金山區"
"251014","180-VK","2017/07/25 18:48:49","新北市淡水區崙頂17號","121.486658333333","25.2231033333333","6501000","淡水區"
"251010","413-VK","2017/07/25 18:48:53","新北市淡水區沙崙路23號","121.421295","25.18146","6501000","淡水區"
"251012","441-VK","2017/07/25 18:48:55","新北市淡水區北新路2號","121.444303333333","25.1777233333333","6501000","淡水區"
"251016","442-VK","2017/07/25 18:48:56","新北市淡水區下圭柔山71-3號","121.447025","25.206155","6501000","淡水區"
"251001","559-UM","2017/07/25 18:49:02","新北市淡水區自強路108-18號","121.46165","25.1310433333333","6501000","淡水區"
"251009","575-R6","2017/07/25 18:48:56","新北市淡水區重建街172號","121.44076","25.1739766666667","6501000","淡水區"
"251011","650-BX","2017/07/25 18:48:51","新北市淡水區學府路7號","121.447426666667","25.167995","6501000","淡水區"
"251002","672-BX","2017/07/25 18:49:01","新北市淡水區學府路88號","121.448996666667","25.17074","6501000","淡水區"
"251003","673-BX","2017/07/25 18:49:01","新北市淡水區中山北路一段143號","121.442948333333","25.1773916666667","6501000","淡水區"
"207003","550-UM","2017/07/25 18:49:07","新北市萬里區大鵬里頂社1-2號","121.657343333333","25.2096833333333","6502800","萬里區"
"207004","225-TW","2017/07/25 18:48:58","新北市萬里區萬里里獅頭路23號","121.693233333333","25.178235","6502800","萬里區"
"252002","178-VK","2017/07/25 18:48:52","新北市三芝區智成街68號","121.504828333333","25.256215","6502100","三芝區"
"252003","249-BX","2017/07/25 18:49:03","新北市三芝區後厝里大片頭76號","121.459231666667","25.2456233333333","6502100","三芝區"
"252001","292-VK","2017/07/25 18:48:52","新北市三芝區中正路三段9號","121.502941666667","25.25391","6502100","三芝區"
"252005","AAC-283","2017/07/25 15:43:11","新北市三芝區埔坪里埔頭坑41號","121.504523333333","25.264415","6502100","三芝區"
"208002","170-UY","2017/07/25 18:49:07","新北市金山區信義路66號","121.635631666667","25.2189916666667","6502700","金山區"
"237004","078-UY","2017/07/25 18:48:59","新北市三峽區有木130-1號","121.435588333333","24.85706","6500900","三峽區"
"237007","153-BY","2017/07/25 18:49:05","新北市三峽區中正路二段458號","121.364276666667","24.907285","6500900","三峽區"
"237009","210-TH","2017/07/25 18:48:55","新北市三峽區中山路59號","121.367611666667","24.934745","6500900","三峽區"
"237013","252-BX","2017/07/25 18:49:00","新北市三峽區光明路69巷31號","121.376858333333","24.9291766666667","6500900","三峽區"
"237012","275-BY","2017/07/25 18:49:07","新北市三峽區三樹路340號","121.383965","24.94333","6500900","三峽區"
"237008","302-VK","2017/07/25 18:48:58","新北市三峽區白雞38-7號","121.373156666667","24.9124216666667","6500900","三峽區"
"237014","433-BY","2017/07/25 18:48:53","新北市三峽區復興路480巷50-5號","121.36026","24.9403233333333","6500900","三峽區"
"237006","5529-G3","2017/07/25 18:49:02","新北市三峽區溪東路233巷2弄1號","121.406911666667","24.9333733333333","6500900","三峽區"
"237011","572-TV","2017/07/25 12:44:38","新北市三峽區中山路459巷163-3號","121.348816666667","24.9330533333333","6500900","三峽區"
"237016","649-BX","2017/07/25 18:49:03","新北市三峽區竹崙路19巷1-1號","121.428593333333","24.922695","6500900","三峽區"
"237010","706-TV","2017/07/25 18:49:06","新北市三峽區復興路176-5號","121.370285","24.9385216666667","6500900","三峽區"
"237005","AKY-6261","2017/07/25 18:48:57","新北市三峽區中山路459巷163-1號","121.349258333333","24.93343","6500900","三峽區"
"236070","105-UM","2017/07/25 18:48:53","新北市土城區立德路111號","121.464016666667","24.9870933333333","6501300","土城區"
"236043","107-UM","2017/07/25 18:48:56","新北市土城區裕民路92巷25弄2號","121.449578333333","24.98594","6501300","土城區"
"236079","166-UM","2017/07/25 18:48:55","新北市土城區中央路四段67巷58-11號","121.417076666667","24.9560583333333","6501300","土城區"
"236031","253-BX","2017/07/25 18:49:01","新北市土城區忠義路36巷16號","121.439883333333","24.9698183333333","6501300","土城區"
"236027","269-VK","2017/07/25 18:49:08","新北市土城區興城路96巷3號","121.440485","24.9716466666667","6501300","土城區"
"236015","270-VK","2017/07/25 18:49:02","新北市土城區金城路二段354巷20號","121.460656666667","24.984055","6501300","土城區"
"236038","271-VK","2017/07/25 18:48:55","新北市土城區明德路一段247巷21號","121.463095","24.9773966666667","6501300","土城區"
"236023","401-BY","2017/07/25 18:48:54","新北市土城區延吉街253巷17號","121.467991666667","24.9841083333333","6501300","土城區"
"236059","912-UM","2017/07/25 18:48:59","新北市土城區中央路三段157號","121.432","24.9653266666667","6501300","土城區"
"236049","913-UM","2017/07/25 18:49:06","新北市土城區青雲路1-1號","121.460415","24.9898316666667","6501300","土城區"
"236063","915-UM","2017/07/25 18:48:52","新北市土城區金城路三段207巷8弄23號","121.470493333333","24.990865","6501300","土城區"
"236055","AAC-216","2017/07/25 18:49:05","新北市土城區裕民路169-1號","121.453125","24.985085","6501300","土城區"
"242061","362-BY","2017/07/25 18:48:51","新北市新莊區新泰路357巷3弄51號","121.44205","25.0400466666667","6500500","新莊區"
"242007","173-VK","2017/07/25 18:48:50","新北市樹林區八德街247巷24-3號","121.420103333333","24.973415","6500500","新莊區"
"238023","601-UM","2017/07/25 18:48:54","新北市樹林區三福街114號","121.406345","25.01636","6500700","樹林區"
"238019","599-UM","2017/07/25 18:48:57","新北市樹林區東陽街3號","121.412728333333","24.98217","6500700","樹林區"
"238018","571-TV","2017/07/25 18:49:07","新北市樹林區鎮前街15號","121.425953333333","24.992675","6500700","樹林區"
"238024","5061-A6","2017/07/25 18:49:03","新北市樹林區太平路190-1號","121.418391666667","24.9760116666667","6500700","樹林區"
"238022","312-TH","2017/07/25 18:49:04","新北市樹林區中華路379巷78弄15號","121.412955","24.9769116666667","6500700","樹林區"
"238025","303-VK","2017/07/25 18:48:58","新北市樹林區中山路三段22號","121.395656666667","24.9729016666667","6500700","樹林區"
"238017","283-BY","2017/07/25 18:48:55","新北市樹林區光興街50號","121.409861666667","25.0027216666667","6500700","樹林區"
"238014","282-BY","2017/07/25 18:48:55","新北市樹林區大安路113號","121.422906666667","24.9975983333333","6500700","樹林區"
"238020","268-VK","2017/07/25 01:07:09","新北市樹林區中山路三段202號","121.386666666667","24.9683483333333","6500700","樹林區"
"238026","172-UY","2017/07/25 18:48:55","新北市樹林區信和街140號","121.38673","24.9748633333333","6500700","樹林區"
"238016","169-UY","2017/07/25 18:49:01","新北市樹林區文化街26號","121.419391666667","24.9876466666667","6500700","樹林區"
"239007","AAC-297","2017/07/25 18:49:03","新北市鶯歌區中正一路221號","121.35412","24.957295","6500800","鶯歌區"
"239006","891-R6","2017/07/25 18:48:52","新北市鶯歌區鶯桃路296巷109號","121.33673","24.96204","6500800","鶯歌區"
"239008","527-UM","2017/07/25 18:48:57","新北市鶯歌區晨曦街9號","121.337421666667","24.9763783333333","6500800","鶯歌區"
"239005","526-UM","2017/07/25 18:48:54","新北市鶯歌區大湖路361巷50號","121.330906666667","24.9775533333333","6500800","鶯歌區"
"239001","417-VK","2017/07/25 18:48:52","新北市鶯歌區鶯桃路76號","121.340308333333","24.9534166666667","6500800","鶯歌區"
"239003","360-BY","2017/07/25 18:49:00","新北市鶯歌區鶯桃路524號","121.3317","24.9669016666667","6500800","鶯歌區"
"239002","359-BY","2017/07/25 18:49:04","新北市鶯歌區中正一路276號","121.355328333333","24.9570633333333","6500800","鶯歌區"
"239004","193-VK","2017/07/25 18:49:05","新北市鶯歌區中正三路282巷10弄11號","121.328613333333","24.9367166666667","6500800","鶯歌區"
"221008","489-VK","2017/07/25 18:48:51","新北市汐止區康寧街901號","121.651405","25.0750483333333","6501100","汐止區"
"221036","130-UY","2017/07/25 18:48:53","新北市汐止區水碓街59號","121.665196666667","25.0690066666667","6501100","汐止區"
"221015","131-UY","2017/07/25 18:49:04","新北市汐止區鄉長路一段37號","121.665413333333","25.0749183333333","6501100","汐止區"
"221010","269-BY","2017/07/25 18:48:56","新北市汐止區汐萬路一段310號","121.650293333333","25.0748033333333","6501100","汐止區"
"221031","277-VK","2017/07/25 18:48:59","新北市汐止區大同路一段215-1號","121.633938333333","25.057155","6501100","汐止區"
"221012","278-VK","2017/07/25 18:49:01","新北市汐止區康寧街901號","121.650881666667","25.0753866666667","6501100","汐止區"
"221023","279-VK","2017/07/25 18:48:51","新北市汐止區康寧街901號","121.650996666667","25.0751933333333","6501100","汐止區"
"221032","280-BY","2017/07/25 18:48:47","新北市汐止區橫科路241-1號","121.622151666667","25.0490783333333","6501100","汐止區"
"221027","281-BY","2017/07/25 18:49:08","新北市汐止區汐萬路一段256巷3號","121.652551666667","25.0745166666667","6501100","汐止區"
"221038","297-VK","2017/07/25 18:48:50","新北市汐止區康寧街901號","121.65073","25.07533","6501100","汐止區"
"221029","298-VK","2017/07/25 18:49:02","新北市汐止區工建路58號","121.640798333333","25.0629633333333","6501100","汐止區"
"221021","299-VK","2017/07/25 17:42:46","新北市汐止區汐萬路一段312號","121.650196666667","25.0754066666667","6501100","汐止區"
"221035","622-UM","2017/07/25 18:49:01","新北市汐止區中正路299號","121.656233333333","25.0678633333333","6501100","汐止區"
"221025","623-UM","2017/07/25 18:48:56","新北市汐止區秀峰路68號","121.659855","25.0644866666667","6501100","汐止區"
"221033","647-BX","2017/07/25 18:39:15","台北市南港區舊莊街二段9號","121.624765","25.03755","6501100","汐止區"
"221002","707-TV","2017/07/25 18:48:47","新北市汐止區大同路一段142-1號","121.631431666667","25.0554833333333","6501100","汐止區"
"221018","753-BX","2017/07/25 18:49:08","新北市汐止區茄興街12號","121.673556666667","25.0671966666667","6501100","汐止區"
"220079","145-BY","2017/07/25 18:48:59","新北市板橋區民權路202巷4弄1號","121.459698333333","25.0142466666667","6500100","板橋區"
"220080","200-UY","2017/07/25 18:48:49","新北市板橋區大觀路二段265巷128號","121.442303333333","24.99632","6500100","板橋區"
"220082","610-BX","2017/07/25 18:48:51","新北市板橋區篤行路二段143號","121.429748333333","24.9882433333333","6500100","板橋區"
"220101","245-BX","2017/07/25 15:13:49","新北市板橋區雙十路二段87號","121.475486666667","25.026855","6500100","板橋區"
"220069","258-TC","2017/07/25 18:48:53","新北市板橋區民生路二段36-1號","121.472418333333","25.016805","6500100","板橋區"
"220056","276-BY","2017/07/25 18:48:50","新北市板橋區四川路二段23-3號","121.45467","24.9959066666667","6500100","板橋區"
"220072","277-BY","2017/07/25 18:49:08","新北市板橋區金門街25巷9號","121.433875","24.994545","6500100","板橋區"
"220094","283-UM","2017/07/25 18:48:54","新北市板橋區民生路二段120號","121.470363333333","25.0197583333333","6500100","板橋區"
"220071","283-VK","2017/07/25 18:48:51","新北市板橋區民生路二段36-1號","121.472585","25.0166116666667","6500100","板橋區"
"220053","285-VK","2017/07/25 18:48:49","新北市板橋區民生路二段36-1號","121.472406666667","25.0167516666667","6500100","板橋區"
"220083","286-VK","2017/07/25 18:49:01","新北市板橋區大觀路二段22巷20號","121.445671666667","25.00362","6500100","板橋區"
"220081","287-VK","2017/07/25 18:48:59","新北市板橋區南雅西路二段153號","121.452136666667","25.011995","6500100","板橋區"
"220090","288-VK","2017/07/25 18:48:55","新北市板橋區民生路二段161巷5號","121.47019","25.0197466666667","6500100","板橋區"
"220061","295-UM","2017/07/25 18:49:06","新北市板橋區民生路二段36-1號","121.472601666667","25.01657","6500100","板橋區"
"220084","296-UM","2017/07/25 18:49:05","新北市板橋區大觀路二段148巷29號","121.441815","25.0002883333333","6500100","板橋區"
"220075","297-UM","2017/07/25 18:48:54","新北市板橋區大觀路一段28巷106-3號","121.451135","25.0107683333333","6500100","板橋區"
"220062","303-R5","2017/07/25 18:48:50","新北市板橋區民生路二段16號","121.473","25.016575","6500100","板橋區"
"220092","307-R5","2017/07/25 18:48:56","新北市板橋區民生路二段180號","121.470781666667","25.02021","6500100","板橋區"
"220064","486-VK","2017/07/25 18:44:16","新北市板橋區中山路二段89巷7弄16號","121.472851666667","25.0171833333333","6500100","板橋區"
"220089","487-VK","2017/07/25 18:48:50","新北市板橋區民生路二段120號","121.470668333333","25.019705","6500100","板橋區"
"220088","491-VK","2017/07/25 18:48:55","新北市板橋區民生路二段188號","121.470195","25.0202766666667","6500100","板橋區"
"220035","560-BX","2017/07/25 18:49:03","新北市板橋區中正路275巷68號","121.452721666667","25.0179566666667","6500100","板橋區"
"220103","561-BX","2017/07/25 18:48:55","新北市板橋區民生路二段120號","121.47037","25.0196833333333","6500100","板橋區"
"220063","609-BX","2017/07/25 15:19:01","新北市板橋區民生路二段36-1號","121.472356666667","25.0166866666667","6500100","板橋區"
"220091","637-BX","2017/07/25 18:49:09","新北市板橋區民生路二段226巷8弄11號","121.47055","25.0213183333333","6500100","板橋區"
"220057","686-BX","2017/07/25 18:48:40","新北市板橋區中山路二段89巷5弄12號","121.47272","25.0167666666667","6500100","板橋區"
"220077","687-BX","2017/07/25 18:48:57","新北市板橋區大觀路二段174巷165弄2號","121.441881666667","25.0034183333333","6500100","板橋區"
"220093","689-BX","2017/07/25 18:48:58","新北市板橋區民生路二段120號","121.470535","25.020055","6500100","板橋區"
"220054","741-BX","2017/07/25 18:49:04","新北市板橋區中山路二段89巷5弄4號","121.473331666667","25.0169716666667","6500100","板橋區"
"220055","827-TW","2017/07/25 18:49:00","新北市板橋區中山路二段89巷5弄12號","121.472825","25.0168266666667","6500100","板橋區"
"220014","829-TW","2017/07/25 16:28:50","新北市板橋區民生路二段36-1號","121.472628333333","25.0165633333333","6500100","板橋區"
"220102","830-TW","2017/07/25 15:35:45","新北市板橋區民生路二段120號","121.470483333333","25.0194816666667","6500100","板橋區"
"220096","831-TW","2017/07/25 16:21:11","新北市板橋區民生路二段120號","121.470338333333","25.0198833333333","6500100","板橋區"
"220074","895-R6","2017/07/25 18:49:03","新北市板橋區館前西路120號","121.456758333333","25.0077516666667","6500100","板橋區"
"220073","985-R7","2017/07/25 18:48:56","新北市板橋區館前西路47號","121.457963333333","25.0069283333333","6500100","板橋區"
"220097","AAC-210","2017/07/25 18:48:52","新北市板橋區民生路二段120號","121.470346666667","25.0198016666667","6500100","板橋區"
"220070","AAC-253","2017/07/25 18:48:57","新北市板橋區中山路二段89巷7弄15號","121.47274","25.0169066666667","6500100","板橋區"
"241031","3G-TL5","2017/07/25 18:17:21","桃園市楊梅區電研路100-24號","121.16609","24.9536233333333","6500200","三重區"
