"lineid","car","time","location","longitude","latitude","cityid","cityname"
"234046","148-BY","2017/07/25 19:08:58","新北市永和區永元路52巷20號","121.523123333333","25.00097","6500400","永和區"
"234013","149-BY","2017/07/25 19:08:59","新北市永和區保福路二段6號","121.510988333333","25.01101","6500400","永和區"
"234007","207-UY","2017/07/25 19:09:02","新北市永和區中山路一段331號","121.506036666667","25.0061433333333","6500400","永和區"
"234081","298-R6","2017/07/25 19:08:34","新北市永和區福和路85號","121.522318333333","25.0078616666667","6500400","永和區"
"234038","336-UY","2017/07/25 19:09:02","新北市永和區環河東路4段84-1號","121.528351666667","24.9980216666667","6500400","永和區"
"234064","337-UY","2017/07/25 19:08:51","新北市永和區秀朗路二段33號","121.521263333333","25.00245","6500400","永和區"
"234086","338-UY","2017/07/25 19:08:54","新北市永和區永貞路75號","121.51867","25.00439","6500400","永和區"
"234070","552-UM","2017/07/25 19:08:52","新北市永和區豫溪街86號","121.518375","25.0099733333333","6500400","永和區"
"234054","553-UM","2017/07/25 19:09:06","新北市永和區中興街133巷6號","121.518743333333","25.0126733333333","6500400","永和區"
"234017","745-BX","2017/07/25 19:09:02","新北市永和區文化路90巷17號","121.513665","25.0161333333333","6500400","永和區"
"234030","746-BX","2017/07/25 19:08:52","新北市永和區厚德街114號","121.523158333333","24.9989733333333","6500400","永和區"
"234061","AAD-866","2017/07/25 19:09:03","新北市永和區安樂路304巷4號","121.514546666667","25.005025","6500400","永和區"
"234042","862-TW","2017/07/25 19:08:57","新北市永和區永貞路334號","121.511165","25.0054616666667","6500400","永和區"
"234050","863-TW","2017/07/25 19:08:52","新北市永和區文化路135巷9號","121.510891666667","25.0145683333333","6500400","永和區"
"234026","9371-KE","2017/07/25 19:08:57","新北市永和區安樂路272巷11號","121.51494","25.00442","6500400","永和區"
"234011","9373-KE","2017/07/25 19:08:44","新北市永和區文化路90巷32弄16號","121.513573333333","25.0166183333333","6500400","永和區"
"249005","172-UM","2017/07/25 19:09:01","新北市八里區中華路三段101號","121.393315","25.1388133333333","6502300","八里區"
"249001","759-BX","2017/07/25 19:08:53","新北市八里區龍米路二段203-1號","121.432808333333","25.15834","6502300","八里區"
"248016","026-BX","2017/07/25 19:09:06","新北市五股區成泰路三段543巷23號","121.450493333333","25.1024183333333","6501500","五股區"
"248006","077-UY","2017/07/25 19:08:59","新北市五股區四維路112號","121.467668333333","25.0739","6501500","五股區"
"248020","225-UY","2017/07/25 19:09:03","新北市五股區凌雲路三段57號","121.425328333333","25.1250016666667","6501500","五股區"
"248010","272-BY","2017/07/25 19:08:53","新北市五股區水碓一路23號","121.430641666667","25.0712883333333","6501500","五股區"
"248012","655-BX","2017/07/25 19:09:01","新北市五股區中興路四段38巷11號","121.438796666667","25.083345","6501500","五股區"
"248004","677-BX","2017/07/25 19:08:59","新北市五股區六合街3號","121.431926666667","25.0885516666667","6501500","五股區"
"248002","682-TV","2017/07/25 19:08:56","新北市五股區凌雲路一段158巷6號","121.447788333333","25.1029766666667","6501500","五股區"
"234023","9380-KE","2017/07/25 19:08:56","新北市永和區中興街29巷3號","121.51618","25.012185","6500400","永和區"
"234077","969-R7","2017/07/25 19:08:53","新北市永和區得和路235號","121.52016","25.000265","6500400","永和區"
"234074","AAC-211","2017/07/25 19:08:52","新北市永和區竹林路217號","121.520745","25.00866","6500400","永和區"
"234067","AAC-212","2017/07/25 19:08:49","新北市永和區保平路30巷2號","121.51203","25.0072833333333","6500400","永和區"
"234003","AAC-295","2017/07/25 19:08:57","新北市永和區保福路一段81號","121.511783333333","25.0105283333333","6500400","永和區"
"244013","069-UM","2017/07/25 19:08:50","新北市林口區麗園一街11巷1號","121.37716","25.0704033333333","6501700","林口區"
"244019","403-UM","2017/07/25 19:09:00","新北市林口區麗園二街47巷13號","121.381455","25.0694483333333","6501700","林口區"
"244009","410-SL","2017/07/25 19:09:03","新北市林口區台電新村26號","121.38719","25.0861183333333","6501700","林口區"
"244023","483-VK","2017/07/25 19:09:05","新北市林口區文化三路一段555巷50號","121.369713333333","25.07686","6501700","林口區"
"244025","656-BX","2017/07/25 19:09:06","新北市林口區民族路185號","121.367958333333","25.07683","6501700","林口區"
"244011","701-TV","2017/07/25 19:08:56","新北市林口區中山路185-1號","121.387971666667","25.0787566666667","6501700","林口區"
"243010","267-VK","2017/07/25 19:08:59","新北市泰山區明志路一段452號","121.430705","25.055905","6501600","泰山區"
"243013","AAD-798","2017/07/25 19:08:56","新北市泰山區漢口街11巷1號","121.423813333333","25.0364766666667","6501600","泰山區"
"243009","297-R6","2017/07/25 19:09:05","新北市泰山區楓江路25巷9號","121.434381666667","25.0636133333333","6501600","泰山區"
"243015","380-SR","2017/07/25 19:09:04","新北市泰山區明志路一段385號","121.43081","25.057705","6501600","泰山區"
"243014","421-VK","2017/07/25 19:08:49","新北市泰山區泰林路二段395號","121.427096666667","25.0641816666667","6501600","泰山區"
"243011","549-UM","2017/07/25 19:09:00","新北市泰山區明志路二段366號","121.425471666667","25.045115","6501600","泰山區"
"243012","646-TV","2017/07/25 19:09:03","新北市泰山區辭修路36巷8弄5號","121.427908333333","25.0585533333333","6501600","泰山區"
"243016","680-BX","2017/07/25 19:08:49","新北市泰山區明志路二段379號","121.42526","25.0437866666667","6501600","泰山區"
"222003","436-BY","2017/07/25 19:09:02","新北市深坑區深南路142號","121.622981666667","25.0141233333333","6501800","深坑區"
"222001","628-TS","2017/07/25 19:08:53","新北市深坑區北深路一段300號","121.624171666667","25.0057383333333","6501800","深坑區"
"222002","659-BX","2017/07/25 19:08:58","新北市深坑區北深路一段225號","121.628773333333","25.0082466666667","6501800","深坑區"
"231041","002-UM","2017/07/25 19:08:47","新北市新店區溪園路403號","121.524005","24.9781533333333","6500600","新店區"
"231056","0293-UT","2017/07/25 19:09:05","新北市新店區民權路107-3號","121.536365","24.9821033333333","6500600","新店區"
"231059","046-UY","2017/07/25 19:08:49","新北市新店區安和路二段142號","121.5196","24.9725516666667","6500600","新店區"
"231061","047-UY","2017/07/25 19:09:06","新北市新店區安康路一段107-2號","121.528718333333","24.9616416666667","6500600","新店區"
"231060","106-UY","2017/07/25 19:08:45","新北市新店區安康路二段240號","121.509145","24.95909","6500600","新店區"
"231051","107-UY","2017/07/25 19:08:50","新北市新店區中正路382巷5號","121.535178333333","24.9775316666667","6500600","新店區"
"231048","108-UY","2017/07/25 19:09:01","新北市新店區德正街27巷29弄25號","121.545521666667","24.971885","6500600","新店區"
"231053","187-VK","2017/07/25 19:08:37","新北市新店區櫻花街10號","121.546735","24.9267383333333","6500600","新店區"
"231069","189-VK","2017/07/25 12:45:26","新北市新店區安華路28-1號","121.519675","24.9609266666667","6500600","新店區"
"231063","268-BY","2017/07/25 19:08:59","新北市新店區車子路148號","121.505305","24.9471833333333","6500600","新店區"
"231046","278-BY","2017/07/25 19:08:57","新北市新店區新潭路一段35-1號","121.526021666667","24.943585","6500600","新店區"
"231050","AAD-862","2017/07/25 19:08:50","新北市新店區竹林路2巷33號","121.550473333333","24.9501966666667","6500600","新店區"
"231058","3712-VJ","2017/07/25 19:08:52","新北市新店區檳榔路13-1號","121.541246666667","24.9644233333333","6500600","新店區"
"231055","3713-VJ","2017/07/25 19:08:56","新北市新店區溪園路389-12號","121.523246666667","24.978625","6500600","新店區"
"231067","4772-VM","2017/07/25 19:09:01","新北市新店區安康路一段195巷5號","121.526296666667","24.9625366666667","6500600","新店區"
"231065","512-UM","2017/07/25 19:09:00","新北市新店區安祥路147巷19號","121.475611666667","24.956295","6500600","新店區"
"231054","513-UM","2017/07/25 19:08:57","新北市新店區新店路157號","121.537061666667","24.9551383333333","6500600","新店區"
"231064","515-UM","2017/07/25 19:08:59","新北市新店區安忠路59號","121.512183333333","24.9586466666667","6500600","新店區"
"231045","617-UM","2017/07/25 19:08:59","新北市新店區北宜路一段109巷2號","121.539933333333","24.95468","6500600","新店區"
"231040","619-UM","2017/07/25 19:09:00","新北市新店區三民路155-1號","121.533891666667","24.973385","6500600","新店區"
"231042","641-BX","2017/07/25 19:08:53","新北市新店區中興路一段163號","121.542635","24.9642516666667","6500600","新店區"
"231049","719-UM","2017/07/25 19:09:04","新北市新店區二十張路25巷2號","121.538535","24.9820333333333","6500600","新店區"
"231062","720-UM","2017/07/25 19:08:54","新北市新店區安平路13巷1號","121.524405","24.9659116666667","6500600","新店區"
"231044","897-TW","2017/07/25 19:08:49","新北市新店區中興路三段168號","121.544325","24.980835","6500600","新店區"
"231043","899-TW","2017/07/25 19:08:58","新北市新店區寶橋路98號","121.546703333333","24.9758483333333","6500600","新店區"
"231066","AKT-0513","2017/07/25 19:08:54","新北市新店區安康路三段359巷12弄2號","121.484463333333","24.9502183333333","6500600","新店區"
"241026","066-VK","2017/07/25 19:08:46","新北市三重區泉州街59號","121.494595","25.0547133333333","6500200","三重區"
"241008","156-TC","2017/07/25 19:08:58","新北市三重區永福街72巷25號","121.479966666667","25.0764466666667","6500200","三重區"
"241020","413-TH","2017/07/25 19:09:05","新北市三重區忠孝路二段51號","121.485555","25.0709416666667","6500200","三重區"
"241029","942-UM","2017/07/25 19:08:51","新北市三重區重安街83號","121.492548333333","25.0557766666667","6500200","三重區"
"235066","003-UY","2017/07/25 19:08:58","新北市中和區水源路102號","121.506133333333","25.003355","6500300","中和區"
"235064","005-UY","2017/07/25 19:08:58","新北市中和區景平路634-10號","121.4989","24.9998133333333","6500300","中和區"
"235056","096-UM","2017/07/25 19:08:57","新北市板橋區三民路二段224號","121.478833333333","25.0115383333333","6500300","中和區"
"235039","097-UM","2017/07/25 19:08:57","新北市永和區安樂路96號","121.514266666667","24.9990783333333","6500300","中和區"
"235065","098-UM","2017/07/25 19:09:04","新北市中和區勝利路1號","121.500021666667","25.0081683333333","6500300","中和區"
"235040","150-BY","2017/07/25 19:09:04","新北市中和區宜安路66號","121.5115","24.9970666666667","6500300","中和區"
"235058","151-BY","2017/07/25 19:09:07","新北市中和區連城路428巷12號","121.479971666667","24.9953683333333","6500300","中和區"
"235055","183-VK","2017/07/25 19:08:59","新北市中和區德光路79號","121.469333333333","25.0037233333333","6500300","中和區"
"235038","185-VK","2017/07/25 19:08:57","新北市中和區立人街20號","121.519048333333","24.994195","6500300","中和區"
"235049","186-VK","2017/07/25 19:08:50","新北市中和區明禮街13號","121.50493","24.995865","6500300","中和區"
"235067","255-BX","2017/07/25 19:08:51","新北市中和區中正路751巷3弄1號","121.484423333333","24.9996733333333","6500300","中和區"
"235044","293-VK","2017/07/25 19:08:56","新北市中和區中興街161巷10弄2號","121.50115","24.9909066666667","6500300","中和區"
"235072","301-VK","2017/07/25 19:08:55","新北市中和區景平路756號","121.496385","25.0047","6500300","中和區"
"235043","352-BY","2017/07/25 19:08:54","新北市中和區景平路116號","121.519401666667","24.9917183333333","6500300","中和區"
"235051","376-QA","2017/07/25 19:08:52","新北市中和區忠孝街19巷37號","121.509485","24.9847933333333","6500300","中和區"
"235068","377-QA","2017/07/25 19:08:59","新北市中和區中正路269號","121.495931666667","24.99347","6500300","中和區"
"235061","378-QA","2017/07/25 19:09:00","新北市中和區民享街59巷5號","121.474468333333","25.0025433333333","6500300","中和區"
"235050","4979-A6","2017/07/25 19:08:52","新北市中和區復興路73-7號","121.503735","24.9900083333333","6500300","中和區"
"235069","4980-A6","2017/07/25 19:09:02","新北市中和區中和路217巷20號","121.504791666667","25.0005216666667","6500300","中和區"
"235042","551-UM","2017/07/25 19:09:06","新北市中和區自立路117巷1號","121.522303333333","24.9945033333333","6500300","中和區"
"235070","558-UM","2017/07/25 19:08:56","新北市中和區中和路203號","121.503748333333","24.9998366666667","6500300","中和區"
"235045","565-BX","2017/07/25 19:08:57","新北市中和區景新街467巷20弄9號","121.514635","24.987655","6500300","中和區"
"235054","640-BX","2017/07/25 19:09:04","新北市中和區民享街86巷25號","121.473086666667","25.0005116666667","6500300","中和區"
"235060","647-TV","2017/07/25 19:08:56","新北市中和區民治街120號","121.475225","25.003375","6500300","中和區"
"235047","732-UM","2017/07/25 19:09:04","新北市中和區興南路二段32巷3號","121.507195","24.98553","6500300","中和區"
"235046","733-UM","2017/07/25 19:08:55","新北市中和區南山路322號","121.508015","24.986485","6500300","中和區"
"235071","783-BX","2017/07/25 19:09:03","新北市中和區連城路523巷13弄2號","121.481633333333","24.9934916666667","6500300","中和區"
"235057","801-TS","2017/07/25 19:08:46","新北市中和區民利街102號","121.477586666667","24.9977566666667","6500300","中和區"
"235041","802-TS","2017/07/25 19:09:06","新北市中和區安平路145巷2號","121.511961666667","24.9981066666667","6500300","中和區"
"235052","805-TS","2017/07/25 19:08:48","新北市中和區興南路二段142巷19弄15號","121.502586666667","24.9834233333333","6500300","中和區"
"235048","896-TW","2017/07/25 19:09:01","新北市中和區華新街143巷71弄51號","121.507928333333","24.979815","6500300","中和區"
"235053","900-TW","2017/07/25 19:09:05","新北市板橋區和平路153號","121.463368333333","24.9956233333333","6500300","中和區"
"235063","911-UM","2017/07/25 19:08:47","新北市中和區中正路570號","121.486426666667","24.994685","6500300","中和區"
"235037","AAC-213","2017/07/25 19:09:07","新北市中和區秀朗路三段10巷14弄41-5號","121.524168333333","24.9964383333333","6500300","中和區"
"235059","AAC-215","2017/07/25 19:08:54","新北市中和區圓通路294巷17-5號","121.488745","24.9904433333333","6500300","中和區"
"220068","013-TV","2017/07/25 19:08:53","新北市板橋區中山路二段443巷74號","121.480838333333","25.0221833333333","6500100","板橋區"
"220065","072-UY","2017/07/25 19:08:58","新北市板橋區民族路247巷7弄25號","121.470621666667","25.00807","6500100","板橋區"
"220086","073-UY","2017/07/25 19:09:01","新北市板橋區中正路250巷56號","121.457673333333","25.01961","6500100","板橋區"
"220106","075-UY","2017/07/25 19:09:06","新北市板橋區文化路二段315號","121.472123333333","25.0297266666667","6500100","板橋區"
"220098","120-SR","2017/07/25 19:08:53","新北市板橋區自由路51巷14弄6號","121.464696666667","25.0237416666667","6500100","板橋區"
"247006","341-TH","2017/07/25 18:47:55","新北市五股區中興路三段163號","121.449235","25.0808016666667","6501400","蘆洲區"
"247008","339-TH","2017/07/25 18:50:45","新北市五股區中興路三段163號","121.44918","25.0808633333333","6501400","蘆洲區"
"247002","336-TH","2017/07/25 19:08:57","新北市五股區中興路三段163號","121.449243333333","25.0807533333333","6501400","蘆洲區"
"247014","057-VK","2017/07/25 19:08:55","新北市五股區成洲一路25號","121.449883333333","25.0953133333333","6501400","蘆洲區"
"226004","312-R5","2017/07/25 19:09:02","新北市平溪區十分里十分街94號","121.777165","25.042065","6502400","平溪區"
"228001","212-TW","2017/07/25 19:09:05","新北市貢寮區真理里新港街10號","121.925516666667","25.0544016666667","6502600","貢寮區"
"228002","585-TW","2017/07/25 19:08:54","新北市貢寮區福隆里福隆街36號","121.945056666667","25.0174833333333","6502600","貢寮區"
"228003","828-UM","2017/07/25 19:09:02","新北市貢寮區和美里和美街36號","121.912285","25.0852533333333","6502600","貢寮區"
"224006","676-BX","2017/07/25 19:08:54","新北市瑞芳區三爪子坑路106巷11號","121.808825","25.1044683333333","6501200","瑞芳區"
"224011","420-VK","2017/07/25 19:08:53","新北市瑞芳區崙頂路1-6號","121.847071666667","25.1047033333333","6501200","瑞芳區"
"224009","285-BY","2017/07/25 19:08:59","新北市瑞芳區長仁路37-2號","121.864393333333","25.1170883333333","6501200","瑞芳區"
"224008","275-VK","2017/07/25 19:08:51","新北市瑞芳區瑞芳街112巷1號","121.80142","25.1107733333333","6501200","瑞芳區"
"224005","271-BY","2017/07/25 19:08:59","新北市瑞芳區三爪子坑路91巷2號","121.811373333333","25.1072833333333","6501200","瑞芳區"
"227009","642-TC","2017/07/25 19:08:48","新北市雙溪區牡丹里中正路30號","121.864566666667","25.038045","6502500","雙溪區"
"227003","400-TW","2017/07/25 19:09:06","新北市雙溪區平林里梅竹蹊56-4號","121.860588333333","25.03682","6502500","雙溪區"
"253006","032-BX","2017/07/25 19:09:00","新北市石門區海灣新城11號","121.525531666667","25.284905","6502200","石門區"
"253005","295-VK","2017/07/25 19:08:59","新北市石門區阿里荖41-1號","121.606111666667","25.2816916666667","6502200","石門區"
"208003","665-BX","2017/07/25 19:08:59","新北市金山區中正路63號","121.634141666667","25.2218633333333","6502700","金山區"
"208001","761-BX","2017/07/25 19:08:53","新北市金山區溫泉路4號","121.639595","25.2219533333333","6502700","金山區"
"251005","010-UM","2017/07/25 19:08:55","新北市淡水區中山路131號","121.441208333333","25.171375","6501000","淡水區"
"251014","180-VK","2017/07/25 19:08:49","新北市淡水區北勢子9號","121.482721666667","25.2282233333333","6501000","淡水區"
"251010","413-VK","2017/07/25 19:08:53","新北市淡水區中正路一段156巷3號","121.421158333333","25.1802633333333","6501000","淡水區"
"251016","442-VK","2017/07/25 19:08:56","新北市淡水區淡金路三段28號","121.447783333333","25.1987533333333","6501000","淡水區"
"251001","559-UM","2017/07/25 19:08:50","新北市淡水區民權路17號","121.46374","25.1243716666667","6501000","淡水區"
"251009","575-R6","2017/07/25 19:08:56","新北市淡水區清水街99-1號","121.440863333333","25.1706633333333","6501000","淡水區"
"251007","577-R6","2017/07/25 19:09:00","新北市淡水區民生路178號","121.465256666667","25.138735","6501000","淡水區"
"251011","650-BX","2017/07/25 19:08:51","新北市淡水區中正東路二段143巷2弄1號","121.460723333333","25.1473533333333","6501000","淡水區"
"251002","672-BX","2017/07/25 19:09:01","新北市淡水區中山路70-1號","121.443215","25.170465","6501000","淡水區"
"251003","673-BX","2017/07/25 19:09:01","新北市淡水區中山北路一段113號","121.442575","25.1767066666667","6501000","淡水區"
"207003","550-UM","2017/07/25 19:09:07","新北市萬里區大鵬里萬里加投24號","121.649146666667","25.2079316666667","6502800","萬里區"
"207004","225-TW","2017/07/25 19:08:58","新北市萬里區萬里里瑪鋉下街50號","121.691571666667","25.1795033333333","6502800","萬里區"
"252002","178-VK","2017/07/25 19:08:52","新北市三芝區中正路一段1號","121.502575","25.2590816666667","6502100","三芝區"
"252003","249-BX","2017/07/25 19:09:03","新北市三芝區錫板里南勢崗5-5號","121.480613333333","25.26277","6502100","三芝區"
"252001","292-VK","2017/07/25 19:08:52","新北市三芝區長勤街45巷2號","121.500328333333","25.2550766666667","6502100","三芝區"
"252005","AAC-283","2017/07/25 15:43:11","新北市三芝區埔坪里埔頭坑41號","121.504523333333","25.264415","6502100","三芝區"
"208002","170-UY","2017/07/25 19:08:47","新北市金山區仁愛路67巷28號","121.634015","25.2208466666667","6502700","金山區"
"237004","078-UY","2017/07/25 19:08:59","新北市三峽區有木205-1號","121.439023333333","24.85149","6500900","三峽區"
"237007","153-BY","2017/07/25 19:09:05","新北市三峽區中正路二段42巷84號","121.36449","24.9205216666667","6500900","三峽區"
"237013","252-BX","2017/07/25 19:09:05","新北市三峽區大同路48巷17弄15號","121.376418333333","24.9283833333333","6500900","三峽區"
"237012","275-BY","2017/07/25 19:09:07","新北市三峽區三樹路222巷254弄68-22號","121.394086666667","24.944505","6500900","三峽區"
"237008","302-VK","2017/07/25 19:08:57","新北市三峽區中正路一段191巷4號","121.37291","24.927655","6500900","三峽區"
"237014","433-BY","2017/07/25 19:09:08","新北市三峽區中山路259號","121.362325","24.9371633333333","6500900","三峽區"
"237006","5529-G3","2017/07/25 19:09:02","新北市三峽區橫溪路96號","121.398005","24.9354533333333","6500900","三峽區"
"237011","572-TV","2017/07/25 12:44:38","新北市三峽區中山路459巷163-3號","121.348816666667","24.9330533333333","6500900","三峽區"
"237016","649-BX","2017/07/25 19:09:03","新北市三峽區安坑49-9號","121.462598333333","24.9319716666667","6500900","三峽區"
"237010","706-TV","2017/07/25 19:07:50","新北市三峽區國光街35號","121.37517","24.9373233333333","6500900","三峽區"
"237005","AKY-6261","2017/07/25 19:08:57","新北市三峽區中山路459巷163-3號","121.348666666667","24.93291","6500900","三峽區"
"236070","105-UM","2017/07/25 19:08:53","新北市土城區明德路二段203號","121.446733333333","24.983755","6501300","土城區"
"236043","107-UM","2017/07/25 19:08:56","新北市土城區學府路一段189巷8號","121.452408333333","24.9845833333333","6501300","土城區"
"236079","166-UM","2017/07/25 19:08:55","新北市土城區龍泉路10-1號","121.409533333333","24.9493183333333","6501300","土城區"
"236027","269-VK","2017/07/25 19:09:08","新北市土城區中正路68號","121.444345","24.9754966666667","6501300","土城區"
"236015","270-VK","2017/07/25 19:09:02","新北市土城區學府路一段75巷18弄2號","121.457371666667","24.9875266666667","6501300","土城區"
"236038","271-VK","2017/07/25 19:08:54","新北市土城區清水路145號","121.458425","24.9818166666667","6501300","土城區"
"236023","401-BY","2017/07/25 19:08:54","新北市土城區延峰街36巷3號","121.469565","24.9845366666667","6501300","土城區"
"236059","912-UM","2017/07/25 19:08:59","新北市土城區金城路二段204號","121.45511","24.9819183333333","6501300","土城區"
"236049","913-UM","2017/07/25 19:08:52","新北市土城區明德路一段398-1號","121.453648333333","24.9790866666667","6501300","土城區"
"236063","915-UM","2017/07/25 19:08:52","新北市土城區金城路三段93巷14號","121.466896666667","24.9881816666667","6501300","土城區"
"236055","AAC-216","2017/07/25 19:08:45","新北市土城區學府路一段186號","121.453338333333","24.9860966666667","6501300","土城區"
"242007","173-VK","2017/07/25 19:08:50","新北市樹林區八德街395號","121.415561666667","24.971735","6500500","新莊區"
"238015","755-BX","2017/07/25 19:08:49","新北市樹林區備內街158巷40號","121.408106666667","24.9898733333333","6500700","樹林區"
"238023","601-UM","2017/07/25 19:08:54","新北市樹林區大慶街124號","121.396063333333","25.0135283333333","6500700","樹林區"
"238019","599-UM","2017/07/25 19:08:57","新北市樹林區東華街71號","121.415711666667","24.980985","6500700","樹林區"
"238018","571-TV","2017/07/25 19:09:02","新北市樹林區八德街37-3號","121.418945","24.9830033333333","6500700","樹林區"
"238022","312-TH","2017/07/25 19:09:04","新北市樹林區中山路二段151巷12號","121.406815","24.9782966666667","6500700","樹林區"
"238021","311-TH","2017/07/25 19:09:01","新北市樹林區柑園街二段276巷22號","121.372851666667","24.9530333333333","6500700","樹林區"
"238025","303-VK","2017/07/25 19:08:58","新北市樹林區民和街20號","121.385261666667","24.968655","6500700","樹林區"
"238017","283-BY","2017/07/25 19:08:55","新北市樹林區光興街52號","121.409803333333","25.00267","6500700","樹林區"
"238014","282-BY","2017/07/25 19:08:55","新北市樹林區千歲街92巷7弄37號","121.427546666667","24.9984116666667","6500700","樹林區"
"238020","268-VK","2017/07/25 01:07:09","新北市樹林區中山路三段202號","121.386666666667","24.9683483333333","6500700","樹林區"
"238026","172-UY","2017/07/25 19:08:55","新北市樹林區地政街41號","121.394853333333","24.9717766666667","6500700","樹林區"
"238016","169-UY","2017/07/25 19:09:01","新北市樹林區復興路335巷6弄2號","121.418336666667","24.9875983333333","6500700","樹林區"
"239007","AAC-297","2017/07/25 19:09:03","新北市鶯歌區大湖路18號","121.342953333333","24.9607333333333","6500800","鶯歌區"
"239006","891-R6","2017/07/25 19:08:52","新北市鶯歌區鶯桃路91巷42弄2號","121.336941666667","24.9520316666667","6500800","鶯歌區"
"239008","527-UM","2017/07/25 19:08:57","新北市鶯歌區國際二路6巷18號","121.339161666667","24.9738466666667","6500800","鶯歌區"
"239005","526-UM","2017/07/25 19:08:54","新北市鶯歌區東湖路30號","121.356616666667","24.9723266666667","6500800","鶯歌區"
"239001","417-VK","2017/07/25 19:08:52","新北市鶯歌區永智街43巷23號","121.337266666667","24.9538533333333","6500800","鶯歌區"
"239003","360-BY","2017/07/25 19:09:00","新北市鶯歌區德昌街7-1號","121.33361","24.9604466666667","6500800","鶯歌區"
"239002","359-BY","2017/07/25 19:09:04","新北市鶯歌區湖山路63巷2號","121.339631666667","24.975935","6500800","鶯歌區"
"239004","193-VK","2017/07/25 19:09:05","新北市鶯歌區二甲路2號","121.3348","24.9345733333333","6500800","鶯歌區"
"221008","489-VK","2017/07/25 19:08:51","新北市汐止區康寧街434號","121.631001666667","25.0680733333333","6501100","汐止區"
"221036","130-UY","2017/07/25 19:08:53","新北市汐止區大同路二段391號","121.657841666667","25.0672616666667","6501100","汐止區"
"221015","131-UY","2017/07/25 19:09:04","新北市汐止區汐萬路一段256巷3號","121.653411666667","25.07454","6501100","汐止區"
"221010","269-BY","2017/07/25 19:08:56","新北市汐止區康寧街901號","121.6514","25.0750033333333","6501100","汐止區"
"221031","277-VK","2017/07/25 19:08:59","新北市汐止區福德二路156巷27號","121.629988333333","25.065535","6501100","汐止區"
"221012","278-VK","2017/07/25 19:09:01","新北市汐止區康寧街901號","121.650816666667","25.07518","6501100","汐止區"
"221023","279-VK","2017/07/25 19:08:51","新北市汐止區康寧街901號","121.650985","25.0752516666667","6501100","汐止區"
"221027","281-BY","2017/07/25 18:55:34","新北市汐止區康寧街901號","121.650891666667","25.0752483333333","6501100","汐止區"
"221038","297-VK","2017/07/25 19:08:50","新北市汐止區康寧街901號","121.65073","25.0753033333333","6501100","汐止區"
"221029","298-VK","2017/07/25 19:09:02","新北市汐止區康寧街901號","121.651376666667","25.075065","6501100","汐止區"
"221021","299-VK","2017/07/25 19:09:06","新北市汐止區康寧街901號","121.651811666667","25.0751433333333","6501100","汐止區"
"221025","623-UM","2017/07/25 19:08:56","新北市汐止區康寧街901號","121.651465","25.0749566666667","6501100","汐止區"
"221033","647-BX","2017/07/25 19:08:48","新北市汐止區南勢街3號","121.627085","25.0373483333333","6501100","汐止區"
"221002","707-TV","2017/07/25 19:09:07","新北市汐止區大同路一段89-3號","121.624555","25.0545816666667","6501100","汐止區"
"221018","753-BX","2017/07/25 19:08:47","新北市汐止區汐萬路一段256巷3號","121.653325","25.0746633333333","6501100","汐止區"
"220079","145-BY","2017/07/25 19:08:59","新北市板橋區民權路243號","121.45728","25.01576","6500100","板橋區"
"220080","200-UY","2017/07/25 19:08:49","新北市板橋區大觀路二段力行3巷5號","121.445735","24.9955283333333","6500100","板橋區"
"220082","610-BX","2017/07/25 19:08:51","新北市板橋區大觀路三段275號","121.428495","24.9923883333333","6500100","板橋區"
"220101","245-BX","2017/07/25 19:09:05","新北市板橋區萬板路31-1號","121.470918333333","25.0212883333333","6500100","板橋區"
"220069","258-TC","2017/07/25 19:09:04","新北市板橋區縣民大道一段114號","121.457218333333","25.0059366666667","6500100","板橋區"
"220056","276-BY","2017/07/25 19:08:50","新北市板橋區信義路74巷1弄1號","121.457301666667","24.9931816666667","6500100","板橋區"
"220072","277-BY","2017/07/25 19:08:48","新北市板橋區金門街369巷55號","121.429216666667","24.9841666666667","6500100","板橋區"
"220094","283-UM","2017/07/25 19:09:04","新北市板橋區光武街108-5號","121.465766666667","25.0291083333333","6500100","板橋區"
"220071","283-VK","2017/07/25 19:08:51","新北市板橋區重慶路245巷45號","121.465076666667","25.000965","6500100","板橋區"
"220053","285-VK","2017/07/25 19:09:00","新北市板橋區懷仁街8號","121.476025","25.020035","6500100","板橋區"
"220083","286-VK","2017/07/25 19:09:01","新北市板橋區龍興街99巷21號","121.443456666667","25.00325","6500100","板橋區"
"220081","287-VK","2017/07/25 19:08:59","新北市板橋區南雅西路二段110巷20號","121.45263","25.01259","6500100","板橋區"
"220090","288-VK","2017/07/25 19:08:55","新北市板橋區裕民街47號","121.461383333333","25.0286333333333","6500100","板橋區"
"220061","295-UM","2017/07/25 19:09:06","新北市板橋區懷仁街85巷8號","121.477796666667","25.0186616666667","6500100","板橋區"
"220084","296-UM","2017/07/25 19:09:05","新北市板橋區大觀路三段59巷17弄6-1號","121.435823333333","24.9955166666667","6500100","板橋區"
"220075","297-UM","2017/07/25 19:08:54","新北市板橋區館前西路124號","121.456613333333","25.007875","6500100","板橋區"
"220062","303-R5","2017/07/25 19:08:50","新北市板橋區三民路二段245巷61號","121.480838333333","25.0125933333333","6500100","板橋區"
"220092","307-R5","2017/07/25 19:08:56","新北市板橋區文化路二段225巷60弄22號","121.469188333333","25.0289866666667","6500100","板橋區"
"220064","486-VK","2017/07/25 19:08:56","新北市板橋區民生路一段3號","121.476591666667","25.011995","6500100","板橋區"
"220089","487-VK","2017/07/25 19:09:03","新北市板橋區文化路二段464號","121.474785","25.0326066666667","6500100","板橋區"
"220088","491-VK","2017/07/25 19:08:58","新北市板橋區文化路二段182巷1弄21號","121.47151","25.0280516666667","6500100","板橋區"
"220035","560-BX","2017/07/25 19:09:02","新北市板橋區中正路379巷1弄36號","121.4531","25.0218533333333","6500100","板橋區"
"220103","561-BX","2017/07/25 19:08:55","新北市板橋區文化路一段188巷9弄108號","121.468443333333","25.019415","6500100","板橋區"
"220063","609-BX","2017/07/25 19:08:53","新北市板橋區三民路二段224號","121.47873","25.0115633333333","6500100","板橋區"
"220091","637-BX","2017/07/25 19:08:49","新北市板橋區萬板路558號","121.48093","25.0265633333333","6500100","板橋區"
"220057","686-BX","2017/07/25 19:09:00","新北市板橋區重慶路89巷2-1號","121.462051666667","25.0062883333333","6500100","板橋區"
"220077","687-BX","2017/07/25 19:09:08","新北市板橋區大觀路二段135號","121.445821666667","25.001185","6500100","板橋區"
"220093","689-BX","2017/07/25 19:08:58","新北市板橋區民生路三段283號","121.46408","25.03018","6500100","板橋區"
"220054","741-BX","2017/07/25 19:09:05","新北市板橋區重慶路127巷15-2號","121.463345","25.0049133333333","6500100","板橋區"
"220055","827-TW","2017/07/25 19:09:00","新北市板橋區中山路一段140號","121.463583333333","25.0108266666667","6500100","板橋區"
"220014","829-TW","2017/07/25 19:08:56","新北市板橋區民享街116巷1號","121.478028333333","25.0157916666667","6500100","板橋區"
"220102","830-TW","2017/07/25 19:09:05","新北市板橋區萬板路810-1號","121.482831666667","25.0275266666667","6500100","板橋區"
"220096","831-TW","2017/07/25 19:09:08","新北市板橋區雙十路二段47巷24號","121.475603333333","25.0259966666667","6500100","板橋區"
"220074","895-R6","2017/07/25 19:08:59","新北市板橋區府中路137號","121.455828333333","25.0095766666667","6500100","板橋區"
"220073","985-R7","2017/07/25 19:08:56","新北市板橋區中正路187號","121.456441666667","25.0168866666667","6500100","板橋區"
"220097","AAC-210","2017/07/25 19:08:52","新北市板橋區新生街96號","121.458435","25.0220683333333","6500100","板橋區"
"220070","AAC-253","2017/07/25 19:08:57","新北市板橋區四川路一段253號","121.459816666667","25.0025566666667","6500100","板橋區"
"241031","3G-TL5","2017/07/25 18:17:21","桃園市楊梅區電研路100-24號","121.16609","24.9536233333333","6500200","三重區"
