"lineid","car","time","location","longitude","latitude","cityid","cityname"
"234046","148-BY","2017/07/25 20:08:58","新北市永和區成功路一段20號","121.527033333333","25.0051033333333","6500400","永和區"
"234013","149-BY","2017/07/25 20:08:59","新北市永和區仁愛路279號","121.505776666667","25.0097216666667","6500400","永和區"
"234007","207-UY","2017/07/25 20:08:48","新北市永和區保順路37巷7號","121.503096666667","25.0103816666667","6500400","永和區"
"234081","298-R6","2017/07/25 20:08:54","新北市永和區國中路101號","121.524186666667","25.0062533333333","6500400","永和區"
"234038","336-UY","2017/07/25 20:09:02","新北市永和區環河東路三段96號","121.528193333333","25.0040383333333","6500400","永和區"
"234064","337-UY","2017/07/25 20:08:53","新北市永和區永利路94巷4號","121.52061","25.0035616666667","6500400","永和區"
"234086","338-UY","2017/07/25 20:08:49","新北市永和區福和路273號","121.51757","25.00733","6500400","永和區"
"234070","552-UM","2017/07/25 20:08:51","新北市永和區永寧街113號","121.518111666667","25.0061683333333","6500400","永和區"
"234054","553-UM","2017/07/25 20:08:47","新北市永和區博愛街29號","121.518243333333","25.015855","6500400","永和區"
"234017","745-BX","2017/07/25 20:08:42","新北市永和區文化路84號","121.513975","25.0151483333333","6500400","永和區"
"234030","746-BX","2017/07/25 20:08:52","新北市永和區民有街25巷2號","121.517285","24.9959883333333","6500400","永和區"
"234061","AAD-866","2017/07/25 20:08:43","新北市永和區安樂路58巷16號","121.515345","24.998205","6500400","永和區"
"234042","862-TW","2017/07/25 20:08:57","新北市永和區雙和街14號","121.50954","25.0020366666667","6500400","永和區"
"234050","863-TW","2017/07/25 20:08:52","新北市永和區新生路118巷3弄18號","121.506418333333","25.01458","6500400","永和區"
"234011","9373-KE","2017/07/25 20:08:44","新北市永和區仁愛路352巷96號","121.500995","25.007925","6500400","永和區"
"249005","172-UM","2017/07/25 20:08:41","新北市八里區下罟子49-1號","121.383748333333","25.1375783333333","6502300","八里區"
"249004","303-UY","2017/07/25 20:08:49","新北市八里區中山路一段217巷76號","121.412226666667","25.157715","6502300","八里區"
"249002","305-UY","2017/07/25 20:08:53","新北市八里區龍米路一段3-6號","121.457096666667","25.1176766666667","6502300","八里區"
"249003","593-UM","2017/07/25 20:08:44","新北市八里區中山路二段540巷26號","121.397176666667","25.1468883333333","6502300","八里區"
"249001","759-BX","2017/07/25 20:09:03","新北市八里區中華路二段312號","121.403651666667","25.14841","6502300","八里區"
"248014","025-BX","2017/07/25 20:08:49","新北市五股區成泰路二段147巷19號","121.438765","25.086545","6501500","五股區"
"248016","026-BX","2017/07/25 20:09:03","新北市五股區成泰路三段577巷80弄71號","121.448921666667","25.1048333333333","6501500","五股區"
"248008","095-VK","2017/07/25 20:08:49","新北市五股區中興路一段1巷12弄34-2號","121.469428333333","25.0694916666667","6501500","五股區"
"248020","225-UY","2017/07/25 20:09:02","新北市五股區凌雲路二段40-2號","121.439973333333","25.10249","6501500","五股區"
"248010","272-BY","2017/07/25 20:08:53","新北市五股區成泰路一段7巷66號","121.432573333333","25.0678916666667","6501500","五股區"
"248012","655-BX","2017/07/25 20:08:41","新北市五股區工商路207號","121.433168333333","25.0871933333333","6501500","五股區"
"248004","677-BX","2017/07/25 20:08:59","新北市五股區成泰路一段54號","121.435415","25.069355","6501500","五股區"
"248002","682-TV","2017/07/25 20:08:56","新北市五股區成泰路三段318-1號","121.449536666667","25.096965","6501500","五股區"
"234023","9380-KE","2017/07/25 20:08:56","新北市永和區中正路605號","121.516328333333","25.00977","6500400","永和區"
"234077","969-R7","2017/07/25 20:08:52","新北市永和區民光街20巷1號","121.515905","24.9958466666667","6500400","永和區"
"234074","AAC-211","2017/07/25 20:08:54","新北市永和區竹林路191巷6號","121.521028333333","25.0094816666667","6500400","永和區"
"234067","AAC-212","2017/07/25 20:08:49","新北市永和區永貞路374號","121.509853333333","25.0068166666667","6500400","永和區"
"234003","AAC-295","2017/07/25 20:08:57","新北市永和區中正路609巷1號","121.516151666667","25.009495","6500400","永和區"
"244019","403-UM","2017/07/25 20:09:00","新北市林口區汕頭32號","121.365946666667","25.1351766666667","6501700","林口區"
"243010","267-VK","2017/07/25 20:08:59","新北市泰山區明志路二段214巷16弄41號","121.426831666667","25.0504233333333","6501600","泰山區"
"243013","AAD-798","2017/07/25 20:08:56","新北市泰山區工專路82巷16號","121.423266666667","25.0416916666667","6501600","泰山區"
"243009","297-R6","2017/07/25 20:08:45","新北市泰山區泰林路二段142巷6號","121.434738333333","25.0600866666667","6501600","泰山區"
"243015","380-SR","2017/07/25 20:08:44","新北市泰山區明志路一段507-1號","121.430636666667","25.0545766666667","6501600","泰山區"
"243014","421-VK","2017/07/25 20:08:58","新北市泰山區明志路一段40號","121.43358","25.0652433333333","6501600","泰山區"
"243011","549-UM","2017/07/25 20:08:58","新北市泰山區明志路三段529號","121.420593333333","25.0299966666667","6501600","泰山區"
"243012","646-TV","2017/07/25 20:08:55","新北市泰山區楓江路86巷9號","121.437455","25.06269","6501600","泰山區"
"243016","680-BX","2017/07/25 20:08:49","新北市泰山區貴陽街4號","121.421475","25.03307","6501600","泰山區"
"222003","436-BY","2017/07/25 20:08:42","新北市深坑區埔新街65號","121.620195","25.0023133333333","6501800","深坑區"
"222001","628-TS","2017/07/25 20:08:53","新北市深坑區北深路三段183號","121.60136","25.0036033333333","6501800","深坑區"
"222002","659-BX","2017/07/25 20:08:58","新北市深坑區北深路三段91號","121.606258333333","25.001725","6501800","深坑區"
"231041","002-UM","2017/07/25 20:08:47","新北市新店區中正路468號","121.53399","24.979455","6500600","新店區"
"231056","0293-UT","2017/07/25 20:08:44","新北市新店區北新路三段54號","121.542038333333","24.980145","6500600","新店區"
"231059","046-UY","2017/07/25 20:08:48","新北市新店區安德街33-1號","121.511313333333","24.9625166666667","6500600","新店區"
"231061","047-UY","2017/07/25 20:08:47","新北市新店區安興路65巷16號","121.515935","24.9729466666667","6500600","新店區"
"231060","106-UY","2017/07/25 20:08:45","新北市新店區安康路三段49號","121.492563333333","24.95255","6500600","新店區"
"231051","107-UY","2017/07/25 20:08:50","新北市新店區中央六街5號","121.530335","24.9745866666667","6500600","新店區"
"231048","108-UY","2017/07/25 20:08:41","新北市新店區寶橋路59-1號","121.545136666667","24.975","6500600","新店區"
"231053","187-VK","2017/07/25 20:08:57","新北市新店區新烏路三段寶島巷2弄3號","121.552003333333","24.8986066666667","6500600","新店區"
"231069","189-VK","2017/07/25 12:45:26","新北市新店區安華路28-1號","121.519675","24.9609266666667","6500600","新店區"
"231057","256-BX","2017/07/25 20:08:41","新北市新店區花園一路一段2號","121.553128333333","24.9324716666667","6500600","新店區"
"231063","268-BY","2017/07/25 20:08:59","新北市新店區黎明路55巷1號","121.50237","24.94829","6500600","新店區"
"231050","AAD-862","2017/07/25 20:08:50","新北市新店區中生路61號","121.564753333333","24.95221","6500600","新店區"
"231055","3713-VJ","2017/07/25 20:08:56","新北市新店區中華路42巷22號","121.540766666667","24.9688133333333","6500600","新店區"
"231067","4772-VM","2017/07/25 20:09:01","新北市新店區安康路一段32號","121.531533333333","24.961955","6500600","新店區"
"231065","512-UM","2017/07/25 20:09:00","新北市新店區安祥路106巷345號","121.47289","24.9595","6500600","新店區"
"231054","513-UM","2017/07/25 20:08:57","新北市新店區檳榔路22巷1號","121.541331666667","24.9641433333333","6500600","新店區"
"231064","515-UM","2017/07/25 20:08:56","新北市新店區安光路10號","121.51396","24.963855","6500600","新店區"
"231045","617-UM","2017/07/25 20:08:59","新北市新店區北宜路二段4號","121.547636666667","24.9519266666667","6500600","新店區"
"231040","619-UM","2017/07/25 20:09:00","新北市新店區中正路106號","121.543116666667","24.9705266666667","6500600","新店區"
"231042","641-BX","2017/07/25 20:08:53","新北市新店區中興路二段226號","121.54802","24.975185","6500600","新店區"
"231068","718-UY","2017/07/25 20:08:50","新北市新店區環河路1-5號","121.538393333333","24.9616833333333","6500600","新店區"
"231049","719-UM","2017/07/25 20:08:44","新北市新店區北新路二段139巷9-1號","121.542186666667","24.9755933333333","6500600","新店區"
"231062","720-UM","2017/07/25 20:08:54","新北市新店區安華路16號","121.516158333333","24.95799","6500600","新店區"
"231044","897-TW","2017/07/25 20:08:49","新北市新店區寶慶街58巷8號","121.54212","24.98708","6500600","新店區"
"231043","899-TW","2017/07/25 20:08:58","新北市新店區中正路309號","121.536598333333","24.9749933333333","6500600","新店區"
"231066","AKT-0513","2017/07/25 20:08:50","新北市新店區柴埕路60巷17號","121.507955","24.9656533333333","6500600","新店區"
"241028","022-UY","2017/07/25 20:08:54","新北市三重區仁化街111號","121.49458","25.0578616666667","6500200","三重區"
"241009","060-VK","2017/07/25 20:08:40","新北市三重區三和路四段382巷102號","121.478616666667","25.0778483333333","6500200","三重區"
"241031","061-VK","2017/07/25 20:08:44","新北市三重區過圳街9-1號","121.488735","25.0600933333333","6500200","三重區"
"241015","062-VK","2017/07/25 20:08:56","新北市三重區福德北路45號","121.502306666667","25.0649916666667","6500200","三重區"
"241017","063-VK","2017/07/25 20:08:59","新北市三重區長壽西街167號","121.492666666667","25.06652","6500200","三重區"
"241026","066-VK","2017/07/25 20:09:01","新北市三重區福德南路65巷2號","121.502283333333","25.0604366666667","6500200","三重區"
"241002","090-VK","2017/07/25 20:08:59","新北市三重區五華街35巷54號","121.495633333333","25.0817783333333","6500200","三重區"
"241003","091-VK","2017/07/25 20:08:44","新北市三重區仁愛街423-1號","121.490513333333","25.081455","6500200","三重區"
"241008","156-TC","2017/07/25 20:08:58","新北市三重區永福街197巷37弄10號","121.477983333333","25.0741283333333","6500200","三重區"
"241024","265-UM","2017/07/25 20:08:49","新北市三重區中正北路294號","121.480093333333","25.0688183333333","6500200","三重區"
"241016","266-UM","2017/07/25 20:08:41","新北市三重區中正北路25巷8號","121.49337","25.0629","6500200","三重區"
"241022","267-UM","2017/07/25 20:09:00","新北市三重區新北大道一段17號","121.487985","25.061165","6500200","三重區"
"241018","268-UM","2017/07/25 20:09:00","新北市三重區正義北路256巷20號","121.495396666667","25.0683","6500200","三重區"
"241013","270-UM","2017/07/25 20:09:02","新北市三重區三和路三段139巷17號","121.493268333333","25.0738466666667","6500200","三重區"
"241025","271-UM","2017/07/25 20:08:41","新北市三重區中正北路430號","121.474585","25.07114","6500200","三重區"
"241007","398-BY","2017/07/25 20:08:54","新北市三重區三和路四段111-33號","121.486326666667","25.0774633333333","6500200","三重區"
"241020","413-TH","2017/07/25 20:08:44","新北市三重區後竹圍街2巷2號","121.491843333333","25.0734816666667","6500200","三重區"
"241004","475-VK","2017/07/25 20:08:40","新北市三重區自強路四段107號","121.491548333333","25.0799166666667","6500200","三重區"
"241019","478-VK","2017/07/25 20:08:58","新北市三重區自強路二段33巷51號","121.490826666667","25.0698166666667","6500200","三重區"
"241030","480-VK","2017/07/25 20:08:53","新北市三重區成功路145巷35號","121.487778333333","25.0532583333333","6500200","三重區"
"241014","543-UM","2017/07/25 20:08:40","新北市三重區安和路41號","121.500995","25.069345","6500200","三重區"
"241023","545-UM","2017/07/25 20:08:55","新北市三重區頂崁街225號","121.477015","25.0681333333333","6500200","三重區"
"241001","547-UM","2017/07/25 20:08:46","新北市三重區溪尾街24-1號","121.491011666667","25.0763916666667","6500200","三重區"
"241006","AAD-863","2017/07/25 20:08:54","新北市三重區力行路二段105號","121.482796666667","25.0762233333333","6500200","三重區"
"241035","743-BX","2017/07/25 20:08:44","新北市三重區文化北路22-2號","121.499136666667","25.06426","6500200","三重區"
"241005","887-TS","2017/07/25 20:08:43","新北市三重區溪尾街327號","121.48846","25.0848133333333","6500200","三重區"
"241012","941-UM","2017/07/25 20:08:58","新北市三重區仁興街56巷48號","121.497998333333","25.0755066666667","6500200","三重區"
"241029","942-UM","2017/07/25 20:08:57","新北市三重區光明路23號","121.491201666667","25.0586316666667","6500200","三重區"
"241033","AAC-255","2017/07/25 20:08:56","新北市三重區光復路一段66號","121.471978333333","25.0492033333333","6500200","三重區"
"235066","003-UY","2017/07/25 20:08:58","新北市中和區水源路127巷2弄2號","121.508058333333","25.0039966666667","6500300","中和區"
"235039","097-UM","2017/07/25 20:08:57","新北市中和區景平路278巷6號","121.51392","24.9926966666667","6500300","中和區"
"235065","098-UM","2017/07/25 20:08:45","新北市中和區福美路249號","121.498925","25.0052","6500300","中和區"
"235040","150-BY","2017/07/25 20:08:44","新北市中和區保健路33巷5號","121.509011666667","24.99801","6500300","中和區"
"235058","151-BY","2017/07/25 20:08:47","新北市中和區員山路104號","121.481095","24.99545","6500300","中和區"
"235055","183-VK","2017/07/25 20:08:59","新北市中和區德光路72號","121.469313333333","25.0038383333333","6500300","中和區"
"235038","185-VK","2017/07/25 20:08:57","新北市中和區更生街1號","121.52146","24.99628","6500300","中和區"
"235044","293-VK","2017/07/25 20:08:56","新北市中和區板南路118號","121.503128333333","24.9925333333333","6500300","中和區"
"235072","301-VK","2017/07/25 20:08:47","新北市中和區錦和路91-1號","121.490008333333","24.995705","6500300","中和區"
"235043","352-BY","2017/07/25 20:08:54","新北市中和區興南路二段159巷7號","121.505411666667","24.9830666666667","6500300","中和區"
"235051","376-QA","2017/07/25 20:09:00","新北市中和區復興路56號","121.503828333333","24.9902783333333","6500300","中和區"
"235068","377-QA","2017/07/25 20:08:59","新北市中和區中山路二段250巷20號","121.497431666667","25.003235","6500300","中和區"
"235061","378-QA","2017/07/25 20:09:00","新北市中和區新生街176巷34號","121.482471666667","24.999715","6500300","中和區"
"235050","4979-A6","2017/07/25 20:08:52","新北市中和區景新街323-1號","121.511288333333","24.992165","6500300","中和區"
"235069","4980-A6","2017/07/25 20:09:02","新北市中和區南山路127巷29號","121.503423333333","24.9974933333333","6500300","中和區"
"235042","551-UM","2017/07/25 20:08:46","新北市新店區溪園路247號","121.524861666667","24.983205","6500300","中和區"
"235070","558-UM","2017/07/25 20:08:56","新北市中和區景平路632-8號","121.499691666667","24.998515","6500300","中和區"
"235054","640-BX","2017/07/25 20:08:44","新北市中和區莒光路47號","121.472068333333","25.0046966666667","6500300","中和區"
"235046","733-UM","2017/07/25 20:08:55","新北市中和區忠孝街31巷42號","121.509851666667","24.9851266666667","6500300","中和區"
"235041","802-TS","2017/07/25 20:08:43","新北市中和區中安街54號","121.512795","25.0023183333333","6500300","中和區"
"235048","896-TW","2017/07/25 20:08:40","新北市中和區景新街463號","121.513368333333","24.988165","6500300","中和區"
"235037","AAC-213","2017/07/25 20:08:47","新北市中和區自立路163號","121.522978333333","24.992485","6500300","中和區"
"235059","AAC-215","2017/07/25 20:08:54","新北市中和區圓通路335巷33弄15號","121.493043333333","24.9890583333333","6500300","中和區"
"220068","013-TV","2017/07/25 20:08:52","新北市板橋區中山路二段363號","121.479821666667","25.0190683333333","6500100","板橋區"
"220065","072-UY","2017/07/25 20:08:58","新北市板橋區民族路69巷2弄1號","121.465625","25.0091533333333","6500100","板橋區"
"220106","075-UY","2017/07/25 20:08:52","新北市板橋區文化路二段548巷8弄13號","121.476381666667","25.033225","6500100","板橋區"
"220098","120-SR","2017/07/25 20:08:53","新北市板橋區新海路72巷5弄13號","121.461808333333","25.0225383333333","6500100","板橋區"
"247020","893-R6","2017/07/25 20:08:47","新北市蘆洲區民權路106巷5弄2-1號","121.474321666667","25.0891216666667","6501400","蘆洲區"
"247010","546-UM","2017/07/25 20:09:01","新北市蘆洲區集賢路376號","121.480556666667","25.0830433333333","6501400","蘆洲區"
"247018","500-BY","2017/07/25 20:08:59","新北市蘆洲區民族路350號","121.476361666667","25.0906483333333","6501400","蘆洲區"
"247006","341-TH","2017/07/25 20:08:59","新北市蘆洲區永安南路二段16巷8號","121.467783333333","25.07725","6501400","蘆洲區"
"247008","339-TH","2017/07/25 20:08:42","新北市蘆洲區集賢路300號","121.481561666667","25.0851116666667","6501400","蘆洲區"
"247024","337-TH","2017/07/25 20:08:52","新北市蘆洲區光明路88巷15號","121.463136666667","25.0873816666667","6501400","蘆洲區"
"247002","336-TH","2017/07/25 20:08:53","新北市蘆洲區永康街2巷8號","121.459355","25.0861683333333","6501400","蘆洲區"
"247014","057-VK","2017/07/25 20:08:55","新北市蘆洲區中山二路265巷20號","121.47059","25.0795716666667","6501400","蘆洲區"
"247004","056-VK","2017/07/25 20:09:00","新北市蘆洲區長安街267巷31號","121.457053333333","25.0830233333333","6501400","蘆洲區"
"247012","007-UY","2017/07/25 20:08:45","新北市蘆洲區中興街15巷40號","121.4799","25.088305","6501400","蘆洲區"
"247022","002-UY","2017/07/25 20:08:58","新北市蘆洲區三民路171巷19號","121.470591666667","25.086905","6501400","蘆洲區"
"247016","001-UY","2017/07/25 20:08:45","新北市蘆洲區光華路150巷10弄2號","121.4656","25.0827266666667","6501400","蘆洲區"
"224011","420-VK","2017/07/25 20:08:53","新北市瑞芳區崙頂路1-6號","121.84708","25.1047516666667","6501200","瑞芳區"
"208003","665-BX","2017/07/25 20:08:58","新北市金山區海興路35-2號","121.629486666667","25.23666","6502700","金山區"
"251004","009-UM","2017/07/25 20:08:43","新北市淡水區民族路31巷21號","121.462083333333","25.136565","6501000","淡水區"
"251005","010-UM","2017/07/25 20:08:55","新北市淡水區學府路136巷68號","121.452923333333","25.172525","6501000","淡水區"
"251014","180-VK","2017/07/25 20:08:49","新北市淡水區石頭厝1號","121.458685","25.2355083333333","6501000","淡水區"
"251008","181-VK","2017/07/25 20:08:55","新北市淡水區淡海路72巷28弄1號","121.424203333333","25.1821116666667","6501000","淡水區"
"251010","413-VK","2017/07/25 20:08:53","新北市淡水區後洲路一段157號","121.427503333333","25.1981616666667","6501000","淡水區"
"251012","441-VK","2017/07/25 20:08:49","新北市淡水區淡金路三段185號","121.448695","25.204505","6501000","淡水區"
"251016","442-VK","2017/07/25 20:08:56","新北市淡水區番子田18-6號","121.456215","25.2298016666667","6501000","淡水區"
"251001","559-UM","2017/07/25 20:08:50","新北市淡水區淡金路二段599號","121.445963333333","25.19248","6501000","淡水區"
"251006","561-UM","2017/07/25 20:08:57","新北市淡水區北新路141巷29號","121.448188333333","25.1795933333333","6501000","淡水區"
"251009","575-R6","2017/07/25 20:08:56","新北市淡水區英專路28巷5號","121.446003333333","25.1699583333333","6501000","淡水區"
"251011","650-BX","2017/07/25 20:08:51","新北市淡水區下圭柔山91-4號","121.429236666667","25.2084766666667","6501000","淡水區"
"251002","672-BX","2017/07/25 20:09:00","新北市淡水區中正路249號","121.433876666667","25.1741966666667","6501000","淡水區"
"207003","550-UM","2017/07/25 20:08:46","新北市萬里區大鵬里萬里加投186號","121.642836666667","25.21566","6502800","萬里區"
"207004","225-TW","2017/07/25 20:08:58","新北市萬里區北基里孝七街29號","121.682478333333","25.17669","6502800","萬里區"
"252002","178-VK","2017/07/25 20:08:52","新北市三芝區忠孝街116-3號","121.50556","25.2575183333333","6502100","三芝區"
"252001","292-VK","2017/07/25 20:08:52","新北市三芝區公正街9號","121.499743333333","25.257465","6502100","三芝區"
"252005","AAC-283","2017/07/25 15:43:11","新北市三芝區埔坪里埔頭坑41號","121.504523333333","25.264415","6502100","三芝區"
"237007","153-BY","2017/07/25 20:08:45","新北市三峽區二鬮路136巷20弄3號","121.356391666667","24.91016","6500900","三峽區"
"237013","252-BX","2017/07/25 20:09:00","新北市樹林區中山路三段210-2號","121.380685","24.9666266666667","6500900","三峽區"
"237012","275-BY","2017/07/25 20:08:47","新北市三峽區中華路72巷5號","121.371026666667","24.9296533333333","6500900","三峽區"
"237008","302-VK","2017/07/25 20:08:57","新北市三峽區中華路61號","121.372371666667","24.9303833333333","6500900","三峽區"
"237006","5529-G3","2017/07/25 20:09:01","新北市三峽區中正路二段285號","121.366008333333","24.9112316666667","6500900","三峽區"
"237016","649-BX","2017/07/25 20:08:43","新北市三峽區介壽路二段138巷1弄166號","121.40326","24.9275083333333","6500900","三峽區"
"236070","105-UM","2017/07/25 20:08:53","新北市土城區中央路三段118號","121.435188333333","24.966195","6501300","土城區"
"236043","107-UM","2017/07/25 20:08:56","新北市土城區學府路一段144巷2號","121.455068333333","24.98719","6501300","土城區"
"236079","166-UM","2017/07/25 20:08:55","新北市土城區福安街45號","121.418895","24.9646116666667","6501300","土城區"
"236031","253-BX","2017/07/25 20:08:41","新北市土城區中央路一段118巷1弄12號","121.445818333333","24.987855","6501300","土城區"
"236027","269-VK","2017/07/25 20:08:47","新北市土城區中央路二段293號","121.44456","24.9843183333333","6501300","土城區"
"236015","270-VK","2017/07/25 20:08:44","新北市土城區廣興街33號","121.455338333333","24.9915666666667","6501300","土城區"
"236038","271-VK","2017/07/25 20:08:54","新北市土城區明德路一段20巷1弄2號","121.464573333333","24.9847933333333","6501300","土城區"
"236023","401-BY","2017/07/25 20:08:54","新北市土城區延吉街111巷15號","121.47186","24.9862266666667","6501300","土城區"
"236059","912-UM","2017/07/25 20:08:59","新北市土城區中央路一段343號","121.443228333333","24.9814233333333","6501300","土城區"
"236049","913-UM","2017/07/25 20:08:52","新北市土城區清水路340號","121.464206666667","24.9858383333333","6501300","土城區"
"236063","915-UM","2017/07/25 20:08:52","新北市土城區延和路18巷13號","121.46473","24.98774","6501300","土城區"
"236055","AAC-216","2017/07/25 20:08:45","新北市土城區學府路一段125號","121.454931666667","24.986975","6501300","土城區"
"242029","705-TV","2017/07/25 20:08:46","新北市新莊區中原路317號","121.44705","25.0544533333333","6500500","新莊區"
"242025","615-BX","2017/07/25 20:08:56","新北市新莊區五工三路78巷8號","121.459188333333","25.0653","6500500","新莊區"
"242023","613-BX","2017/07/25 20:08:41","新北市新莊區化成路544號","121.46623","25.0535883333333","6500500","新莊區"
"242027","612-BX","2017/07/25 20:08:36","新北市新莊區幸福路765號","121.447138333333","25.0489683333333","6500500","新莊區"
"242037","566-BX","2017/07/25 20:09:02","新北市新莊區後港一路130巷29號","121.429918333333","25.0262333333333","6500500","新莊區"
"242005","442-UM","2017/07/25 20:08:58","新北市新莊區頭興街13巷2號","121.461173333333","25.0535683333333","6500500","新莊區"
"242046","441-UM","2017/07/25 20:08:56","新北市新莊區裕民街19巷4號","121.419716666667","25.025235","6500500","新莊區"
"242051","440-UM","2017/07/25 20:09:01","新北市新莊區民安西路172巷1弄2號","121.42568","25.0158916666667","6500500","新莊區"
"242032","415-TV","2017/07/25 20:08:56","新北市新莊區忠孝街29巷10號","121.443651666667","25.0359983333333","6500500","新莊區"
"242002","413-TV","2017/07/25 20:08:47","新北市新莊區中正路17號","121.46403","25.04093","6500500","新莊區"
"242039","400-BY","2017/07/25 20:09:01","新北市新莊區民安西路109號","121.426886666667","25.0183566666667","6500500","新莊區"
"242061","362-BY","2017/07/25 20:08:58","新北市新莊區瓊林路瓊英巷5號","121.443605","25.0273866666667","6500500","新莊區"
"242058","353-BY","2017/07/25 20:08:58","新北市新莊區八德街159號","121.423423333333","25.0194116666667","6500500","新莊區"
"242042","132-UY","2017/07/25 20:08:48","新北市新莊區青山路一段199-4號","121.397803333333","25.0316183333333","6500500","新莊區"
"242034","133-UY","2017/07/25 20:08:52","新北市新莊區中正路318巷16號","121.446461666667","25.0359216666667","6500500","新莊區"
"242019","135-UY","2017/07/25 20:08:41","新北市新莊區民樂街65巷5號","121.457403333333","25.0417233333333","6500500","新莊區"
"242044","172-VK","2017/07/25 20:08:47","新北市新莊區中正路929巷7弄12號","121.411391666667","25.0204183333333","6500500","新莊區"
"242007","173-VK","2017/07/25 20:08:50","新北市新莊區思源路423號","121.459471666667","25.0526783333333","6500500","新莊區"
"242013","175-VK","2017/07/25 20:08:48","新北市新莊區幸福路670巷5號","121.450923333333","25.049715","6500500","新莊區"
"242056","176-VK","2017/07/25 20:08:41","新北市新莊區新莊路649巷13弄14號","121.445636666667","25.0318466666667","6500500","新莊區"
"242011","346-TH","2017/07/25 20:08:33","新北市新莊區中和街206號","121.44779","25.050535","6500500","新莊區"
"242017","348-TH","2017/07/25 20:08:49","新北市新莊區中港一街1號","121.451861666667","25.0456333333333","6500500","新莊區"
"242054","349-TH","2017/07/25 20:08:57","新北市新莊區西盛街395巷22弄2號","121.428285","25.0126833333333","6500500","新莊區"
"242015","350-TH","2017/07/25 20:08:58","新北市新莊區中平路26巷11號","121.445411666667","25.0432583333333","6500500","新莊區"
"242009","351-TH","2017/07/25 20:08:56","新北市新莊區昌平街33號","121.454866666667","25.0520916666667","6500500","新莊區"
"238023","601-UM","2017/07/25 20:08:54","新北市樹林區中山路三段79號","121.400371666667","24.97496","6500700","樹林區"
"238021","311-TH","2017/07/25 20:08:21","新北市樹林區佳園路三段101巷142號","121.398613333333","24.9504","6500700","樹林區"
"221008","489-VK","2017/07/25 20:08:51","新北市汐止區忠三街9巷34號","121.6239","25.0803366666667","6501100","汐止區"
"221036","130-UY","2017/07/25 20:08:53","新北市汐止區新台五路二段21號","121.66261","25.0661066666667","6501100","汐止區"
"221015","131-UY","2017/07/25 20:08:44","新北市汐止區建成路23巷1號","121.664308333333","25.07244","6501100","汐止區"
"221010","269-BY","2017/07/25 20:08:56","新北市汐止區八連路一段86巷1號","121.644376666667","25.0801616666667","6501100","汐止區"
"221031","277-VK","2017/07/25 20:08:59","新北市汐止區中興路168號","121.632151666667","25.0650983333333","6501100","汐止區"
"221012","278-VK","2017/07/25 20:09:01","新北市汐止區汐平路二段28-3號","121.694163333333","25.0658433333333","6501100","汐止區"
"221023","279-VK","2017/07/25 20:08:51","新北市汐止區明峰街298巷2弄1號","121.625233333333","25.068165","6501100","汐止區"
"221032","280-BY","2017/07/25 20:08:46","新北市汐止區弘道街8巷5弄2號","121.61719","25.047845","6501100","汐止區"
"221027","281-BY","2017/07/25 20:08:50","新北市汐止區中正路137號","121.659916666667","25.06925","6501100","汐止區"
"221038","297-VK","2017/07/25 20:08:49","新北市汐止區大同路三段34號","121.666918333333","25.0764","6501100","汐止區"
"221029","298-VK","2017/07/25 20:08:42","新北市汐止區樟樹一路123巷17號","121.6413","25.06461","6501100","汐止區"
"221021","299-VK","2017/07/25 19:23:26","新北市汐止區康寧街901號","121.651568333333","25.0750333333333","6501100","汐止區"
"221035","622-UM","2017/07/25 20:08:55","新北市汐止區長江街67巷2弄2號","121.656806666667","25.0721966666667","6501100","汐止區"
"221025","623-UM","2017/07/25 20:08:56","新北市汐止區秀峰路68號","121.659828333333","25.0644666666667","6501100","汐止區"
"221033","647-BX","2017/07/25 20:08:48","新北市汐止區東勢街201巷104號","121.633656666667","25.04293","6501100","汐止區"
"221018","753-BX","2017/07/25 20:08:47","新北市汐止區茄苳路317號","121.673595","25.0665566666667","6501100","汐止區"
"220080","200-UY","2017/07/25 20:08:49","新北市板橋區大觀路二段153巷33號","121.446856666667","25.000185","6500100","板橋區"
"220082","610-BX","2017/07/25 20:08:51","新北市板橋區篤行路一段37號","121.432006666667","24.99394","6500100","板橋區"
"220101","245-BX","2017/07/25 20:08:45","新北市板橋區雙十路一段44巷36號","121.477291666667","25.0251566666667","6500100","板橋區"
"220069","258-TC","2017/07/25 20:08:53","新北市板橋區大明街13號","121.458896666667","25.0024916666667","6500100","板橋區"
"220072","277-BY","2017/07/25 20:08:48","新北市板橋區篤行路二段1巷5-3號","121.43227","24.99301","6500100","板橋區"
"220071","283-VK","2017/07/25 20:09:03","新北市板橋區五權街30巷19號","121.464191666667","24.99305","6500100","板橋區"
"220053","285-VK","2017/07/25 20:08:49","新北市板橋區中山路二段248號","121.478653333333","25.01829","6500100","板橋區"
"220083","286-VK","2017/07/25 20:09:00","新北市板橋區大觀路一段38巷156弄210號","121.445081666667","25.0104516666667","6500100","板橋區"
"220081","287-VK","2017/07/25 20:08:39","新北市板橋區僑中一街124巷20弄46號","121.448136666667","25.013765","6500100","板橋區"
"220090","288-VK","2017/07/25 20:08:55","新北市板橋區幸福路32巷65號","121.460363333333","25.022245","6500100","板橋區"
"220061","295-UM","2017/07/25 20:08:46","新北市板橋區板新路128號","121.470856666667","25.0155133333333","6500100","板橋區"
"220084","296-UM","2017/07/25 20:08:57","新北市樹林區博愛街207號","121.424275","24.987815","6500100","板橋區"
"220075","297-UM","2017/07/25 20:08:54","新北市板橋區金華街10巷50號","121.45703","25.0201433333333","6500100","板橋區"
"220092","307-R5","2017/07/25 20:08:56","新北市板橋區文化路一段45巷10號","121.460275","25.013775","6500100","板橋區"
"220064","486-VK","2017/07/25 20:08:58","新北市板橋區板新路81巷7號","121.473236666667","25.0131916666667","6500100","板橋區"
"220089","487-VK","2017/07/25 20:08:50","新北市板橋區互助街116號","121.459241666667","25.025765","6500100","板橋區"
"220088","491-VK","2017/07/25 20:08:55","新北市板橋區民治街42巷2號","121.478881666667","25.033835","6500100","板橋區"
"220035","560-BX","2017/07/25 20:08:42","新北市板橋區新生街44號","121.456665","25.02109","6500100","板橋區"
"220103","561-BX","2017/07/25 20:08:55","新北市板橋區文化路一段421巷11弄15號","121.466826666667","25.0225416666667","6500100","板橋區"
"220063","609-BX","2017/07/25 20:08:53","新北市五股區孝義路9-18號","121.449618333333","25.1068933333333","6500100","板橋區"
"220091","637-BX","2017/07/25 20:08:49","新北市板橋區文聖街73號","121.47725","25.030515","6500100","板橋區"
"220057","686-BX","2017/07/25 20:09:02","新北市板橋區四川路二段82號","121.45213","24.994655","6500100","板橋區"
"220093","689-BX","2017/07/25 20:08:58","新北市板橋區長江路二段110號","121.465245","25.0314133333333","6500100","板橋區"
"220054","741-BX","2017/07/25 20:08:44","新北市板橋區忠孝路忠義巷9弄1-2號","121.465176666667","25.0045716666667","6500100","板橋區"
"220055","827-TW","2017/07/25 20:09:00","新北市板橋區仁愛路86巷13弄1號","121.461121666667","24.99896","6500100","板橋區"
"220067","829-TW","2017/07/25 20:08:55","新北市板橋區中山路一段206巷68號","121.472046666667","25.0131616666667","6500100","板橋區"
"220102","830-TW","2017/07/25 20:08:45","新北市板橋區民治街137號","121.477733333333","25.0305333333333","6500100","板橋區"
"220096","831-TW","2017/07/25 20:08:53","新北市板橋區莒光路40巷7弄12號","121.47092","25.0237583333333","6500100","板橋區"
"220074","895-R6","2017/07/25 20:08:53","新北市板橋區文化路一段52巷29號","121.461518333333","25.01102","6500100","板橋區"
"220073","985-R7","2017/07/25 20:08:56","新北市板橋區南雅西路二段2-1號","121.45319","25.0088883333333","6500100","板橋區"
"220097","AAC-210","2017/07/25 20:09:00","新北市板橋區文化路一段221巷16號","121.46307","25.0178133333333","6500100","板橋區"
"220070","AAC-253","2017/07/25 20:08:57","新北市板橋區成都街43號","121.46136","25.0048683333333","6500100","板橋區"
"241031","3G-TL5","2017/07/25 18:17:21","桃園市楊梅區電研路100-24號","121.16609","24.9536233333333","6500200","三重區"
