"lineid","car","time","location","longitude","latitude","cityid","cityname"
"234046","148-BY","2017/07/25 20:18:58","新北市永和區得和路355號","121.52433","24.99944","6500400","永和區"
"234013","149-BY","2017/07/25 20:18:59","新北市永和區保生路5巷3號","121.506066666667","25.0069816666667","6500400","永和區"
"234007","207-UY","2017/07/25 20:18:48","新北市永和區仁愛路306巷71號","121.502025","25.0088816666667","6500400","永和區"
"234081","298-R6","2017/07/25 20:18:57","新北市永和區福和路19巷1弄7號","121.52441","25.00792","6500400","永和區"
"234038","336-UY","2017/07/25 20:18:48","新北市永和區成功路一段26號","121.52702","25.00479","6500400","永和區"
"234064","337-UY","2017/07/25 20:18:58","新北市永和區得和路160號","121.519193333333","25.0000983333333","6500400","永和區"
"234086","338-UY","2017/07/25 20:18:49","新北市永和區永和路二段93號","121.514843333333","25.0114966666667","6500400","永和區"
"234070","552-UM","2017/07/25 20:18:51","新北市永和區永寧街2號","121.520373333333","25.006535","6500400","永和區"
"234054","553-UM","2017/07/25 20:18:47","新北市永和區光復街2巷13號","121.5169","25.0165516666667","6500400","永和區"
"234017","745-BX","2017/07/25 20:19:02","新北市永和區仁愛路54號","121.513816666667","25.0133733333333","6500400","永和區"
"234030","746-BX","2017/07/25 20:18:52","新北市永和區民族街81巷58號","121.520048333333","24.9965316666667","6500400","永和區"
"234061","AAD-866","2017/07/25 20:18:43","新北市永和區得和路46號","121.515885","25.000215","6500400","永和區"
"234042","862-TW","2017/07/25 20:16:57","新北市永和區雙和街41號","121.508796666667","25.002465","6500400","永和區"
"234050","863-TW","2017/07/25 20:18:52","新北市永和區文化路228號","121.509851666667","25.0170016666667","6500400","永和區"
"234011","9373-KE","2017/07/25 20:18:51","新北市永和區仁愛路352巷122弄3號","121.500416666667","25.0086816666667","6500400","永和區"
"249005","172-UM","2017/07/25 20:18:41","新北市八里區下罟子2-17號","121.38826","25.14098","6502300","八里區"
"249004","303-UY","2017/07/25 20:18:49","新北市八里區中山路一段332號","121.412715","25.1590133333333","6502300","八里區"
"249002","305-UY","2017/07/25 20:18:53","新北市八里區龍米路二段36號","121.44844","25.1402416666667","6502300","八里區"
"249003","593-UM","2017/07/25 20:18:44","新北市八里區中山路二段447巷16號","121.396961666667","25.1454116666667","6502300","八里區"
"249001","759-BX","2017/07/25 20:18:43","新北市八里區中華路二段462號","121.400956666667","25.146175","6502300","八里區"
"248016","026-BX","2017/07/25 20:18:42","新北市五股區凌雲路一段158巷39弄6號","121.446695","25.103865","6501500","五股區"
"248010","272-BY","2017/07/25 20:18:53","新北市五股區新五路二段2巷26-1號","121.439811666667","25.0678883333333","6501500","五股區"
"248012","655-BX","2017/07/25 20:18:41","新北市五股區六合街94號","121.43125","25.09106","6501500","五股區"
"248004","677-BX","2017/07/25 20:18:59","新北市五股區成泰路二段38號","121.437121666667","25.0814466666667","6501500","五股區"
"248002","682-TV","2017/07/25 20:19:01","新北市五股區成泰路三段185號","121.445418333333","25.092115","6501500","五股區"
"234023","9380-KE","2017/07/25 20:18:56","新北市永和區永和路二段278號","121.515958333333","25.0153783333333","6500400","永和區"
"234077","969-R7","2017/07/25 20:18:32","新北市永和區民享街19號","121.515548333333","24.9951516666667","6500400","永和區"
"234074","AAC-211","2017/07/25 20:18:52","新北市永和區竹林路199-1號","121.520636666667","25.009125","6500400","永和區"
"234067","AAC-212","2017/07/25 20:18:52","新北市永和區保平路214巷9號","121.508978333333","25.0067433333333","6500400","永和區"
"234003","AAC-295","2017/07/25 20:18:57","新北市永和區自強街24-1號","121.515336666667","25.0080383333333","6500400","永和區"
"244019","403-UM","2017/07/25 20:19:00","新北市八里區下罟子30-35號","121.36785","25.1351683333333","6501700","林口區"
"243010","267-VK","2017/07/25 20:18:59","新北市泰山區明志路二段252號","121.426731666667","25.0476433333333","6501600","泰山區"
"243013","AAD-798","2017/07/25 20:18:56","新北市泰山區明志路二段359巷21號","121.426076666667","25.04411","6501600","泰山區"
"243009","297-R6","2017/07/25 20:18:50","新北市泰山區福泰街35號","121.433206666667","25.060025","6501600","泰山區"
"243015","380-SR","2017/07/25 20:18:42","新北市泰山區泰林路二段155號","121.433845","25.0603333333333","6501600","泰山區"
"243014","421-VK","2017/07/25 20:18:49","新北市泰山區泰林路二段370號","121.428481666667","25.0637583333333","6501600","泰山區"
"243011","549-UM","2017/07/25 20:18:58","新北市泰山區德安街24號","121.41853","25.03137","6501600","泰山區"
"243012","646-TV","2017/07/25 20:18:43","新北市泰山區楓江路59號","121.435948333333","25.062765","6501600","泰山區"
"243016","680-BX","2017/07/25 20:18:49","新北市泰山區明志路三段24號","121.424781666667","25.0429933333333","6501600","泰山區"
"222003","436-BY","2017/07/25 20:19:02","新北市深坑區文化街74號","121.618116666667","25.00186","6501800","深坑區"
"222001","628-TS","2017/07/25 20:18:53","新北市深坑區北深路三段213號","121.600368333333","25.0039666666667","6501800","深坑區"
"222002","659-BX","2017/07/25 20:18:58","新北市深坑區萬福路69-1號","121.600798333333","25.0080383333333","6501800","深坑區"
"231041","002-UM","2017/07/25 20:18:47","新北市新店區民權路44號","121.540246666667","24.9829966666667","6500600","新店區"
"231056","0293-UT","2017/07/25 20:18:44","新北市新店區中正路224號","121.540156666667","24.972675","6500600","新店區"
"231059","046-UY","2017/07/25 20:18:48","新北市新店區安德街132號","121.508648333333","24.9603516666667","6500600","新店區"
"231061","047-UY","2017/07/25 20:18:47","新北市新店區安興路33-1號","121.51579","24.970405","6500600","新店區"
"231060","106-UY","2017/07/25 20:18:45","新北市新店區安康路三段552號","121.481851666667","24.948785","6500600","新店區"
"231051","107-UY","2017/07/25 20:18:50","新北市新店區中央六街45號","121.52849","24.9755766666667","6500600","新店區"
"231048","108-UY","2017/07/25 20:19:01","新北市新店區寶元路一段74巷21號","121.542941666667","24.9837866666667","6500600","新店區"
"231053","187-VK","2017/07/25 20:18:57","新北市新店區新烏路二段321號","121.549971666667","24.9108633333333","6500600","新店區"
"231069","189-VK","2017/07/25 12:45:26","新北市新店區安華路28-1號","121.519675","24.9609266666667","6500600","新店區"
"231057","256-BX","2017/07/25 20:19:01","新北市新店區花園五路二段11號","121.55405","24.934335","6500600","新店區"
"231063","268-BY","2017/07/25 20:18:39","新北市新店區安康路二段320巷6號","121.504541666667","24.9595833333333","6500600","新店區"
"231050","AAD-862","2017/07/25 20:18:50","新北市新店區光明街22號","121.538153333333","24.9587166666667","6500600","新店區"
"231055","3713-VJ","2017/07/25 20:18:56","新北市新店區新明街24號","121.540805","24.968445","6500600","新店區"
"231067","4772-VM","2017/07/25 20:18:41","新北市新店區溪洲路8巷120-1號","121.533078333333","24.96322","6500600","新店區"
"231065","512-UM","2017/07/25 20:19:00","新北市新店區安祥路106巷40號","121.47709","24.9617566666667","6500600","新店區"
"231054","513-UM","2017/07/25 20:18:57","新北市新店區檳榔路109號","121.544418333333","24.9616","6500600","新店區"
"231064","515-UM","2017/07/25 20:18:56","新北市新店區安樂街12號","121.520753333333","24.9733966666667","6500600","新店區"
"231045","617-UM","2017/07/25 20:18:59","新北市新店區五峰路157號","121.544848333333","24.9654366666667","6500600","新店區"
"231040","619-UM","2017/07/25 20:19:00","新北市新店區中正路139號","121.5417","24.9714816666667","6500600","新店區"
"231042","641-BX","2017/07/25 20:18:53","新北市新店區中興路二段228號","121.547981666667","24.9752","6500600","新店區"
"231068","718-UY","2017/07/25 20:18:50","新北市新店區寶安街30號","121.54206","24.9824166666667","6500600","新店區"
"231049","719-UM","2017/07/25 20:18:44","新北市新店區北新路一段128-3號","121.54219","24.9698516666667","6500600","新店區"
"231062","720-UM","2017/07/25 20:18:54","新北市新店區安泰路7巷16號","121.485666666667","24.9509633333333","6500600","新店區"
"231044","897-TW","2017/07/25 20:18:49","新北市新店區順安街36號","121.541201666667","24.9857783333333","6500600","新店區"
"231043","899-TW","2017/07/25 20:18:58","新北市新店區民族路100號","121.539258333333","24.9780983333333","6500600","新店區"
"231066","AKT-0513","2017/07/25 20:18:50","新北市新店區安興路105-1號","121.514655","24.9777233333333","6500600","新店區"
"241011","013-R5","2017/07/25 20:18:50","新北市三重區龍門路211號","121.500033333333","25.0734233333333","6500200","三重區"
"241028","022-UY","2017/07/25 20:18:48","新北市三重區大同南路119號","121.496296666667","25.058305","6500200","三重區"
"241009","060-VK","2017/07/25 20:18:40","新北市三重區三和路四段382巷2號","121.481961666667","25.0786633333333","6500200","三重區"
"241031","061-VK","2017/07/25 20:18:44","新北市三重區三寧街15號","121.489441666667","25.0597766666667","6500200","三重區"
"241015","062-VK","2017/07/25 20:18:56","新北市三重區重新路一段120號","121.500448333333","25.0629933333333","6500200","三重區"
"241017","063-VK","2017/07/25 20:18:39","新北市三重區新北大道一段7號","121.48961","25.06121","6500200","三重區"
"241026","066-VK","2017/07/25 20:18:46","新北市三重區重新路一段12-1號","121.50385","25.0638533333333","6500200","三重區"
"241002","090-VK","2017/07/25 20:18:59","新北市三重區仁義街101巷52號","121.499638333333","25.0811216666667","6500200","三重區"
"241003","091-VK","2017/07/25 20:18:44","新北市三重區富華街78號","121.49075","25.083255","6500200","三重區"
"241008","156-TC","2017/07/25 20:18:58","新北市三重區永福街211巷22號","121.479165","25.0739316666667","6500200","三重區"
"241024","265-UM","2017/07/25 20:18:49","新北市三重區忠孝路三段4號","121.481868333333","25.0675266666667","6500200","三重區"
"241016","266-UM","2017/07/25 20:18:41","新北市三重區大同北路97號","121.494538333333","25.06369","6500200","三重區"
"241022","267-UM","2017/07/25 20:18:59","新北市三重區中正北路2號","121.489368333333","25.0629166666667","6500200","三重區"
"241018","268-UM","2017/07/25 20:19:00","新北市三重區雙園街103號","121.493693333333","25.0673033333333","6500200","三重區"
"241013","270-UM","2017/07/25 20:18:56","新北市三重區三和路三段155號","121.491963333333","25.0737633333333","6500200","三重區"
"241025","271-UM","2017/07/25 20:18:41","新北市三重區三民街261號","121.479421666667","25.06797","6500200","三重區"
"241007","398-BY","2017/07/25 20:18:54","新北市三重區溪尾街108巷38號","121.487903333333","25.078335","6500200","三重區"
"241020","413-TH","2017/07/25 20:18:44","新北市三重區三和路三段135號","121.492545","25.0733416666667","6500200","三重區"
"241004","475-VK","2017/07/25 20:19:00","新北市三重區仁愛街390號","121.490865","25.0808","6500200","三重區"
"241019","478-VK","2017/07/25 20:18:58","新北市三重區忠孝路一段68號","121.490131666667","25.0719916666667","6500200","三重區"
"241030","480-VK","2017/07/25 20:18:53","新北市三重區集美街89巷31號","121.48818","25.0524416666667","6500200","三重區"
"241014","543-UM","2017/07/25 20:18:40","新北市三重區河邊北街92巷1號","121.504128333333","25.06955","6500200","三重區"
"241023","545-UM","2017/07/25 20:18:55","新北市三重區大有街1-1號","121.47767","25.0654133333333","6500200","三重區"
"241001","547-UM","2017/07/25 20:18:46","新北市三重區自強路四段3巷32號","121.489825","25.0764583333333","6500200","三重區"
"241035","743-BX","2017/07/25 20:18:44","新北市三重區正義北路33巷44號","121.498776666667","25.0638916666667","6500200","三重區"
"241005","887-TS","2017/07/25 20:19:02","新北市三重區富華街2號","121.489293333333","25.0822866666667","6500200","三重區"
"241012","941-UM","2017/07/25 20:18:58","新北市三重區河邊北街379-1號","121.501758333333","25.0765066666667","6500200","三重區"
"241029","942-UM","2017/07/25 20:18:51","新北市三重區重安街98號","121.492683333333","25.0561283333333","6500200","三重區"
"241033","AAC-255","2017/07/25 20:18:56","新北市三重區五谷王北街79號","121.475731666667","25.0505016666667","6500200","三重區"
"235066","003-UY","2017/07/25 20:18:58","新北市中和區保平路326巷3號","121.507046666667","25.0043716666667","6500300","中和區"
"235039","097-UM","2017/07/25 20:18:57","新北市中和區大勇街25巷15弄1號","121.515828333333","24.9936416666667","6500300","中和區"
"235065","098-UM","2017/07/25 20:18:44","新北市中和區永和路90巷2弄22號","121.498183333333","25.005475","6500300","中和區"
"235044","293-VK","2017/07/25 20:18:56","新北市中和區復興路56號","121.503845","24.9904416666667","6500300","中和區"
"235072","301-VK","2017/07/25 20:18:47","新北市中和區橋和路281巷1號","121.495245","25.0075833333333","6500300","中和區"
"235068","377-QA","2017/07/25 20:18:39","新北市中和區福祥路85巷2弄6號","121.498745","25.005935","6500300","中和區"
"235050","4979-A6","2017/07/25 20:18:52","新北市中和區景平路444號","121.506841666667","24.993415","6500300","中和區"
"235069","4980-A6","2017/07/25 20:18:42","新北市中和區中正路368號","121.493121666667","24.9941533333333","6500300","中和區"
"235042","551-UM","2017/07/25 20:18:46","新北市新店區薏仁坑路自強巷1號","121.497803333333","24.957665","6500300","中和區"
"235070","558-UM","2017/07/25 20:18:56","新北市中和區圓通路162-8號","121.497446666667","24.9949966666667","6500300","中和區"
"235026","800-TS","2017/07/25 20:18:57","新北市中和區員山路36巷16-3號","121.485135","24.9913566666667","6500300","中和區"
"235041","802-TS","2017/07/25 20:18:43","新北市中和區保健路60號","121.510936666667","24.9965383333333","6500300","中和區"
"235037","AAC-213","2017/07/25 20:18:54","新北市中和區自立路141巷17號","121.523273333333","24.9937433333333","6500300","中和區"
"235059","AAC-215","2017/07/25 20:18:54","新北市中和區員山路30-1號","121.483403333333","24.9878933333333","6500300","中和區"
"220065","072-UY","2017/07/25 20:18:58","新北市板橋區三民路一段1巷37號","121.480103333333","25.0248266666667","6500100","板橋區"
"247020","893-R6","2017/07/25 20:18:50","新北市蘆洲區仁愛街116號","121.469745","25.0947916666667","6501400","蘆洲區"
"247010","546-UM","2017/07/25 20:18:58","新北市蘆洲區信義路188巷23號","121.48014","25.08459","6501400","蘆洲區"
"247018","500-BY","2017/07/25 20:18:59","新北市蘆洲區民族路253號","121.476755","25.0902983333333","6501400","蘆洲區"
"247006","341-TH","2017/07/25 20:18:59","新北市蘆洲區九芎街167巷3號","121.465005","25.0785516666667","6501400","蘆洲區"
"247008","339-TH","2017/07/25 20:18:42","新北市蘆洲區集賢路219號","121.48271","25.0865283333333","6501400","蘆洲區"
"247024","337-TH","2017/07/25 20:18:52","新北市蘆洲區長興路146-1號","121.462033333333","25.0849866666667","6501400","蘆洲區"
"247002","336-TH","2017/07/25 20:18:52","新北市蘆洲區長安街313巷6弄11號","121.456741666667","25.0865533333333","6501400","蘆洲區"
"247014","057-VK","2017/07/25 20:18:35","新北市蘆洲區成功路87巷11號","121.472585","25.0808283333333","6501400","蘆洲區"
"247004","056-VK","2017/07/25 20:19:00","新北市蘆洲區長安街220巷32-1號","121.459633333333","25.0850383333333","6501400","蘆洲區"
"247012","007-UY","2017/07/25 20:18:57","新北市蘆洲區民族路234號","121.47938","25.0882766666667","6501400","蘆洲區"
"247022","002-UY","2017/07/25 20:18:58","新北市蘆洲區民族路421號","121.468221666667","25.0892266666667","6501400","蘆洲區"
"247016","001-UY","2017/07/25 20:18:46","新北市蘆洲區光華路160號","121.465586666667","25.0822016666667","6501400","蘆洲區"
"224011","420-VK","2017/07/25 20:18:52","新北市瑞芳區金光路372號","121.848616666667","25.110255","6501200","瑞芳區"
"251014","180-VK","2017/07/25 20:18:49","新北市淡水區石頭厝3號","121.458663333333","25.2355383333333","6501000","淡水區"
"251008","181-VK","2017/07/25 20:18:55","新北市淡水區淡海路180巷20號","121.42143","25.18454","6501000","淡水區"
"251010","413-VK","2017/07/25 20:18:53","新北市淡水區新民街一段134號","121.427515","25.18889","6501000","淡水區"
"251012","441-VK","2017/07/25 20:18:49","新北市淡水區淡金路三段352號","121.44926","25.2091183333333","6501000","淡水區"
"251016","442-VK","2017/07/25 20:18:56","新北市淡水區淡金路五段20號","121.453403333333","25.232385","6501000","淡水區"
"251001","559-UM","2017/07/25 20:18:50","新北市淡水區淡金路二段599號","121.445958333333","25.1924866666667","6501000","淡水區"
"251006","561-UM","2017/07/25 20:18:57","新北市淡水區北新路228號","121.452395","25.180355","6501000","淡水區"
"251009","575-R6","2017/07/25 20:18:56","新北市淡水區中山路107號","121.441855","25.1707866666667","6501000","淡水區"
"251002","672-BX","2017/07/25 20:18:57","新北市淡水區中正路248號","121.438853333333","25.171095","6501000","淡水區"
"251003","673-BX","2017/07/25 20:18:40","新北市淡水區中山北路一段229號","121.444435","25.1795016666667","6501000","淡水區"
"207004","225-TW","2017/07/25 20:18:58","新北市萬里區北基里仁六街2-1號","121.681571666667","25.1750716666667","6502800","萬里區"
"252002","178-VK","2017/07/25 20:18:52","新北市三芝區淡金路二段19巷4號","121.503018333333","25.2593583333333","6502100","三芝區"
"252001","292-VK","2017/07/25 20:18:52","新北市三芝區中山路一段14號","121.500656666667","25.2580283333333","6502100","三芝區"
"252005","AAC-283","2017/07/25 15:43:11","新北市三芝區埔坪里埔頭坑41號","121.504523333333","25.264415","6502100","三芝區"
"237007","153-BY","2017/07/25 20:18:45","新北市三峽區麻園10號","121.362066666667","24.9172133333333","6500900","三峽區"
"237013","252-BX","2017/07/25 20:19:00","新北市鶯歌區文化路145巷7-1號","121.35749","24.9537366666667","6500900","三峽區"
"237012","275-BY","2017/07/25 20:18:47","新北市三峽區中華路33號","121.372821666667","24.9312266666667","6500900","三峽區"
"237006","5529-G3","2017/07/25 20:19:01","新北市三峽區中正路二段269號","121.366103333333","24.9116433333333","6500900","三峽區"
"237016","649-BX","2017/07/25 20:18:43","新北市三峽區介壽路二段165號","121.394068333333","24.9359816666667","6500900","三峽區"
"236070","105-UM","2017/07/25 20:18:53","新北市土城區亞洲路59號","121.433326666667","24.9708833333333","6501300","土城區"
"236043","107-UM","2017/07/25 20:18:55","新北市土城區學享街11號","121.45089","24.9873383333333","6501300","土城區"
"236031","253-BX","2017/07/25 20:19:01","新北市土城區學成路128巷8弄1號","121.449481666667","24.98997","6501300","土城區"
"236027","269-VK","2017/07/25 20:18:47","新北市土城區裕生路100巷9號","121.446131666667","24.98515","6501300","土城區"
"236015","270-VK","2017/07/25 20:19:02","新北市土城區廣明街90巷21號","121.45539","24.9945466666667","6501300","土城區"
"236038","271-VK","2017/07/25 20:18:54","新北市土城區延吉街280號","121.465105","24.984205","6501300","土城區"
"236023","401-BY","2017/07/25 20:18:54","新北市土城區和城路二段133-2號","121.475246666667","24.9876233333333","6501300","土城區"
"236059","912-UM","2017/07/25 20:18:59","新北市土城區中央路三段47號","121.439023333333","24.9697966666667","6501300","土城區"
"236055","AAC-216","2017/07/25 20:18:45","新北市土城區中華路二段56號","121.439016666667","24.9772316666667","6501300","土城區"
"242021","AAC-296","2017/07/25 20:18:58","新北市新莊區新泰路119號","121.448445","25.0359883333333","6500500","新莊區"
"242029","705-TV","2017/07/25 20:18:46","新北市新莊區中原路114號","121.450406666667","25.0543233333333","6500500","新莊區"
"242025","615-BX","2017/07/25 20:18:56","新北市新莊區五工二路70巷6號","121.460573333333","25.06604","6500500","新莊區"
"242023","613-BX","2017/07/25 20:18:42","新北市新莊區化成路750-2號","121.465466666667","25.0578116666667","6500500","新莊區"
"242027","612-BX","2017/07/25 20:18:56","新北市新莊區幸福路549號","121.454683333333","25.0492616666667","6500500","新莊區"
"242037","566-BX","2017/07/25 20:18:41","新北市新莊區建安街77號","121.427643333333","25.0247716666667","6500500","新莊區"
"242005","442-UM","2017/07/25 20:18:56","新北市新莊區頭前路2巷20號","121.468395","25.0533","6500500","新莊區"
"242046","441-UM","2017/07/25 20:18:56","新北市新莊區裕民街107號","121.418253333333","25.0229616666667","6500500","新莊區"
"242051","440-UM","2017/07/25 20:19:01","新北市新莊區民安西路216號","121.42581","25.0147466666667","6500500","新莊區"
"242032","415-TV","2017/07/25 20:18:56","新北市新莊區義豐街1號","121.44101","25.0345183333333","6500500","新莊區"
"242002","413-TV","2017/07/25 20:18:47","新北市新莊區中正路44號","121.464456666667","25.0415866666667","6500500","新莊區"
"242039","400-BY","2017/07/25 20:18:54","新北市新莊區龍安路437號","121.424166666667","25.0186783333333","6500500","新莊區"
"242061","362-BY","2017/07/25 20:18:58","新北市新莊區新樹路172-13號","121.434613333333","25.02173","6500500","新莊區"
"242058","353-BY","2017/07/25 20:18:58","新北市新莊區龍安路278巷20號","121.421881666667","25.0184116666667","6500500","新莊區"
"242042","132-UY","2017/07/25 20:18:48","新北市新莊區壽山路61-2號","121.410651666667","25.0327166666667","6500500","新莊區"
"242034","133-UY","2017/07/25 20:18:52","新北市新莊區仁愛街37號","121.444266666667","25.0365666666667","6500500","新莊區"
"242019","135-UY","2017/07/25 20:18:41","新北市新莊區博愛路4巷2號","121.456426666667","25.043085","6500500","新莊區"
"242044","172-VK","2017/07/25 20:19:01","新北市新莊區中正路新建巷28弄75號","121.413401666667","25.020985","6500500","新莊區"
"242007","173-VK","2017/07/25 20:18:50","新北市新莊區福壽街94巷19弄1號","121.459316666667","25.050275","6500500","新莊區"
"242013","175-VK","2017/07/25 20:18:48","新北市新莊區幸福路710巷5弄24號","121.449086666667","25.050195","6500500","新莊區"
"242056","176-VK","2017/07/25 20:18:41","新北市新莊區新莊路649巷7號","121.445111666667","25.032255","6500500","新莊區"
"242011","346-TH","2017/07/25 20:18:53","新北市新莊區中信街49號","121.449745","25.0506916666667","6500500","新莊區"
"242017","348-TH","2017/07/25 20:18:49","新北市新莊區中港一街141號","121.448053333333","25.04501","6500500","新莊區"
"242054","349-TH","2017/07/25 20:18:57","新北市新莊區民安西路261巷18號","121.426716666667","25.013065","6500500","新莊區"
"242015","350-TH","2017/07/25 20:18:58","新北市新莊區永樂街227號","121.446978333333","25.0444066666667","6500500","新莊區"
"242009","351-TH","2017/07/25 20:18:56","新北市新莊區昌盛街65巷2弄1號","121.454953333333","25.0501833333333","6500500","新莊區"
"238023","601-UM","2017/07/25 20:18:54","新北市樹林區中山路三段210-2號","121.380616666667","24.96693","6500700","樹林區"
"238021","311-TH","2017/07/25 20:19:01","新北市樹林區佳園路三段99巷71號","121.393853333333","24.952135","6500700","樹林區"
"221008","489-VK","2017/07/25 20:18:51","新北市汐止區康寧街119號","121.620998333333","25.066535","6501100","汐止區"
"221036","130-UY","2017/07/25 20:18:53","新北市汐止區福安街61巷18號","121.665043333333","25.0635416666667","6501100","汐止區"
"221015","131-UY","2017/07/25 20:18:44","新北市汐止區建成路142巷19弄17號","121.661803333333","25.07384","6501100","汐止區"
"221010","269-BY","2017/07/25 20:18:56","新北市汐止區八連路二段161號","121.635025","25.0949466666667","6501100","汐止區"
"221031","277-VK","2017/07/25 20:18:59","新北市汐止區福德二路93號","121.632618333333","25.066005","6501100","汐止區"
"221012","278-VK","2017/07/25 20:18:40","新北市汐止區保新街150號","121.68845","25.0686383333333","6501100","汐止區"
"221023","279-VK","2017/07/25 20:18:51","新北市汐止區湖東街5巷3號","121.633633333333","25.0729233333333","6501100","汐止區"
"221032","280-BY","2017/07/25 20:18:46","新北市汐止區民權街二段30號","121.619428333333","25.0498416666667","6501100","汐止區"
"221027","281-BY","2017/07/25 20:18:50","新北市汐止區大同路二段353號","121.656871666667","25.0672383333333","6501100","汐止區"
"221038","297-VK","2017/07/25 20:18:49","新北市汐止區忠孝東路493號","121.666328333333","25.07431","6501100","汐止區"
"221029","298-VK","2017/07/25 20:18:42","新北市汐止區樟樹一路99巷7弄2號","121.641151666667","25.06369","6501100","汐止區"
"221021","299-VK","2017/07/25 19:23:26","新北市汐止區康寧街901號","121.651568333333","25.0750333333333","6501100","汐止區"
"221035","622-UM","2017/07/25 20:18:55","新北市汐止區長江街101-5號","121.658703333333","25.0732416666667","6501100","汐止區"
"221025","623-UM","2017/07/25 20:18:56","新北市汐止區水源路二段51巷3-1號","121.655576666667","25.056685","6501100","汐止區"
"221033","647-BX","2017/07/25 20:18:48","新北市汐止區東勢街201巷104號","121.633613333333","25.0429483333333","6501100","汐止區"
"221002","707-TV","2017/07/25 20:18:47","新北市汐止區福德二路18號","121.635106666667","25.0681133333333","6501100","汐止區"
"221018","753-BX","2017/07/25 20:18:47","新北市汐止區茄苳路277號","121.67229","25.0679816666667","6501100","汐止區"
"220080","200-UY","2017/07/25 20:18:49","新北市板橋區大觀路二段187巷9號","121.44531","24.9995466666667","6500100","板橋區"
"220101","245-BX","2017/07/25 20:18:45","新北市板橋區雙十路二段33巷50-3號","121.475593333333","25.02541","6500100","板橋區"
"220069","258-TC","2017/07/25 20:18:53","新北市板橋區大明街18-5號","121.458745","25.003","6500100","板橋區"
"220072","277-BY","2017/07/25 20:18:47","新北市板橋區金門街251號","121.43188","24.989","6500100","板橋區"
"220071","283-VK","2017/07/25 20:18:51","新北市板橋區和平路174巷36弄3號","121.465121666667","24.994075","6500100","板橋區"
"220083","286-VK","2017/07/25 20:18:57","新北市板橋區僑中二街90巷16號","121.445556666667","25.0093133333333","6500100","板橋區"
"220081","287-VK","2017/07/25 20:18:59","新北市板橋區僑中一街80巷1弄18號","121.446716666667","25.0120283333333","6500100","板橋區"
"220061","295-UM","2017/07/25 20:18:46","新北市板橋區中山路一段263號","121.46885","25.01344","6500100","板橋區"
"220092","307-R5","2017/07/25 20:18:56","新北市板橋區南雅西路二段2-6號","121.453455","25.0088433333333","6500100","板橋區"
"220089","487-VK","2017/07/25 20:18:50","新北市板橋區四維路196號","121.464245","25.0270683333333","6500100","板橋區"
"220088","491-VK","2017/07/25 20:18:55","新北市板橋區文聖街211號","121.480131666667","25.026125","6500100","板橋區"
"220103","561-BX","2017/07/25 20:18:55","新北市板橋區陽明街279巷1弄1號","121.461875","25.0260883333333","6500100","板橋區"
"220055","827-TW","2017/07/25 20:19:00","新北市板橋區重慶路290巷11號","121.461136666667","24.9986333333333","6500100","板橋區"
"220102","830-TW","2017/07/25 20:18:45","新北市板橋區介壽街114號","121.469601666667","25.0176166666667","6500100","板橋區"
"220074","895-R6","2017/07/25 20:18:58","新北市板橋區府中路30號","121.459238333333","25.009885","6500100","板橋區"
"220097","AAC-210","2017/07/25 20:18:52","新北市板橋區民權路202巷30號","121.460926666667","25.0173466666667","6500100","板橋區"
"220070","AAC-253","2017/07/25 20:18:57","新北市板橋區德興街16號","121.453398333333","24.9943866666667","6500100","板橋區"
"241031","3G-TL5","2017/07/25 18:17:21","桃園市楊梅區電研路100-24號","121.16609","24.9536233333333","6500200","三重區"
