"lineid","car","time","location","longitude","latitude","cityid","cityname"
"248005","653-BX","2017/08/28 08:13:01","新北市五股區明德路8號","121.43336","25.0716183333333","6501500","五股區"
"232005","290-BY","2017/08/28 08:12:55","新北市坪林區鶯子瀨3-7號","121.705998333333","24.9140716666667","6502000","坪林區"
"232001","291-BY","2017/08/28 08:13:00","新北市坪林區大粗坑6-1號","121.73127","24.9480916666667","6502000","坪林區"
"232012","705-BZ","2017/08/28 08:12:24","新北市坪林區金瓜寮35號","121.675755","24.9017983333333","6502000","坪林區"
"232017","758-BX","2017/08/28 08:13:07","新北市坪林區柑腳坑21號","121.767828333333","24.9582716666667","6502000","坪林區"
"244006","080-UY","2017/08/28 08:12:58","新北市林口區中湖43-5號","121.381758333333","25.0923883333333","6501700","林口區"
"244001","248-BX","2017/08/28 08:12:40","新北市林口區頂福里80號","121.328875","25.1037266666667","6501700","林口區"
"244008","410-SL","2017/08/28 08:12:54","新北市林口區中北一街15巷26號","121.385201666667","25.0865483333333","6501700","林口區"
"244016","656-BX","2017/08/28 08:13:04","新北市林口區文化一路一段190巷5弄1號","121.379136666667","25.075665","6501700","林口區"
"244022","657-BX","2017/08/28 08:12:58","新北市林口區仁愛路一段665號","121.387763333333","25.0764733333333","6501700","林口區"
"244012","658-BX","2017/08/28 08:13:03","新北市林口區文化一路二段40號","121.3805","25.0772066666667","6501700","林口區"
"244010","701-TV","2017/08/28 08:12:54","新北市林口區佳林路154號","121.384165","25.0770983333333","6501700","林口區"
"244024","837-TS","2017/08/28 08:13:00","新北市林口區中山路585號","121.379878333333","25.0823766666667","6501700","林口區"
"244020","838-TS","2017/08/28 08:13:05","新北市林口區粉寮路一段149-4號","121.399305","25.0814516666667","6501700","林口區"
"222005","289-BY","2017/08/28 08:12:57","新北市深坑區萬福路169號","121.612943333333","25.0147516666667","6501800","深坑區"
"231007","189-VK","2017/08/28 08:13:07","新北市新店區華城路77巷6號","121.523858333333","24.9453133333333","6500600","新店區"
"231008","192-VK","2017/08/28 08:13:02","新北市新店區北宜路一段9號","121.538146666667","24.95812","6500600","新店區"
"226005","5620-A6","2017/08/28 08:08:54","新北市平溪區嶺腳里嶺腳寮83-2號","121.751545","25.0355183333333","6502400","平溪區"
"226001","8452-VL","2017/08/28 08:12:56","新北市平溪區東勢里芊蓁林51-7號","121.753583333333","25.00921","6502400","平溪區"
"226003","AGD-0702","2017/08/28 08:13:04","新北市平溪區嶺腳里嶺腳寮89號","121.747468333333","25.0349933333333","6502400","平溪區"
"223002","198-BX","2017/08/28 08:12:57","新北市石碇區北宜路五段大湖巷7號","121.632593333333","24.9457733333333","6501900","石碇區"
"223003","205-TH","2017/08/28 08:13:05","新北市石碇區北宜路六段塗潭巷2號","121.644913333333","24.9377566666667","6501900","石碇區"
"223008","406-TH","2017/08/28 08:12:59","新北市石碇區靜安路一段304號","121.69223","25.0064533333333","6501900","石碇區"
"223001","437-BY","2017/08/28 08:12:57","新北市石碇區北宜路五段80號","121.646395","24.951685","6501900","石碇區"
"223004","660-BX","2017/08/28 08:13:03","新北市石碇區外按8-1號","121.65159","24.9957166666667","6501900","石碇區"
"223007","661-BX","2017/08/28 08:13:12","新北市石碇區靜安路一段296號","121.69172","25.0062266666667","6501900","石碇區"
"223005","677-TV","2017/08/28 08:12:55","新北市石碇區外按8號","121.651135","24.9962433333333","6501900","石碇區"
"227005","282-VK","2017/08/28 08:13:03","新北市雙溪區上林里大瀨10號","121.822226666667","25.0222266666667","6502500","雙溪區"
"253003","6232-TK","2017/08/28 08:12:58","新北市石門區石崩山27號","121.5649","25.281645","6502200","石門區"
"253001","6251-TK","2017/08/28 08:13:03","新北市石門區銘德一村25號","121.541771666667","25.2909383333333","6502200","石門區"
"253002","637-UY","2017/08/28 08:12:53","新北市石門區老崩山36-5號","121.556776666667","25.2739016666667","6502200","石門區"
"253004","8270-PC","2017/08/28 08:13:00","新北市石門區草埔尾3號","121.598061666667","25.27897","6502200","石門區"
"252006","073-UM","2017/08/28 08:12:57","新北市三芝區後厝里大片頭88號","121.457408333333","25.24567","6502100","三芝區"
"252004","249-BX","2017/08/28 08:13:05","新北市三芝區興華里車埕62-1號","121.499916666667","25.196705","6502100","三芝區"
"237001","159-UY","2017/08/28 08:12:55","新北市三峽區學成路269號","121.375706666667","24.94302","6500900","三峽區"
"236007","165-UM","2017/08/28 08:13:05","新北市土城區青雲路567號","121.45901","24.9720083333333","6501300","土城區"
"236001","339-SR","2017/08/28 08:12:58","新北市土城區龍泉路80-1號","121.435528333333","24.9423433333333","6501300","土城區"
"236005","498-BY","2017/08/28 08:12:51","新北市土城區永平街51號","121.427641666667","24.9591933333333","6501300","土城區"
"242020","AAC-296","2017/08/28 08:12:58","新北市新莊區中港路253號","121.453885","25.04307","6500500","新莊區"
"242028","986-R7","2017/08/28 08:13:01","新北市新莊區復興路一段209號","121.452391666667","25.0436666666667","6500500","新莊區"
"242047","751-BX","2017/08/28 08:12:54","新北市新莊區萬安街103號","121.42098","25.0230316666667","6500500","新莊區"
"242024","615-BX","2017/08/28 08:13:06","新北市新莊區新北大道二段239號","121.460665","25.0603983333333","6500500","新莊區"
"242022","613-BX","2017/08/28 08:13:05","新北市新莊區福樂街6號","121.457941666667","25.04467","6500500","新莊區"
"242026","612-BX","2017/08/28 08:12:59","新北市新莊區福壽街140號","121.457788333333","25.0518316666667","6500500","新莊區"
"242035","566-BX","2017/08/28 08:13:09","新北市新莊區建福路69巷28號","121.428163333333","25.0271566666667","6500500","新莊區"
"242040","497-BY","2017/08/28 08:12:53","新北市泰山區貴鳳街22-2號","121.422486666667","25.0308683333333","6500500","新莊區"
"242052","442-UM","2017/08/28 08:12:59","新北市樹林區樹新路120巷20號","121.430573333333","24.9967583333333","6500500","新莊區"
"242045","441-UM","2017/08/28 08:12:49","新北市新莊區建國一路35號","121.434191666667","25.0310583333333","6500500","新莊區"
"242049","440-UM","2017/08/28 08:13:05","新北市新莊區西盛街257巷22號","121.428931666667","25.0157366666667","6500500","新莊區"
"242030","415-TV","2017/08/28 08:12:53","新北市新莊區新泰路321巷31號","121.44333","25.0411083333333","6500500","新莊區"
"242001","413-TV","2017/08/28 08:12:53","新北市新莊區新莊路214巷9號","121.45247","25.0351983333333","6500500","新莊區"
"242038","400-BY","2017/08/28 08:12:58","新北市新莊區民安路206號","121.425685","25.0230516666667","6500500","新莊區"
"242059","362-BY","2017/08/28 08:13:06","新北市新莊區瓊林南路257號","121.434723333333","25.00777","6500500","新莊區"
"242057","353-BY","2017/08/28 08:12:51","新北市新莊區中正路726-13號","121.415255","25.0238683333333","6500500","新莊區"
"242003","132-UY","2017/08/28 08:12:53","新北市新莊區福樂街18號","121.457925","25.0450066666667","6500500","新莊區"
"242033","133-UY","2017/08/28 08:12:51","新北市新莊區新莊路727號","121.443365","25.0329183333333","6500500","新莊區"
"242018","135-UY","2017/08/28 08:12:48","新北市新莊區中港路245號","121.454121666667","25.0427633333333","6500500","新莊區"
"242006","173-VK","2017/08/28 08:12:57","新北市新莊區福樂街73號","121.456931666667","25.04778","6500500","新莊區"
"242012","175-VK","2017/08/28 08:12:54","新北市新莊區幸福路753巷10弄2號","121.448361666667","25.0486333333333","6500500","新莊區"
"242055","176-VK","2017/08/28 08:12:50","新北市新莊區瓊林路38巷20號","121.447075","25.0304766666667","6500500","新莊區"
"242010","346-TH","2017/08/28 08:12:54","新北市新莊區中港路684號","121.450751666667","25.05674","6500500","新莊區"
"242043","347-TH","2017/08/28 08:13:04","新北市新莊區中正路871巷9弄22號","121.419295","25.0269483333333","6500500","新莊區"
"242016","348-TH","2017/08/28 08:12:52","新北市新莊區永安街176號","121.448701666667","25.04435","6500500","新莊區"
"242014","350-TH","2017/08/28 08:12:57","新北市新莊區新泰路480號","121.442716666667","25.0454233333333","6500500","新莊區"
"242008","351-TH","2017/08/28 08:12:55","新北市新莊區昌明街30巷18號","121.456878333333","25.053165","6500500","新莊區"
"220082","282-UM","2017/08/28 08:12:53","新北市五股區成泰路一段90號","121.437455","25.069405","6500100","板橋區"
