"lineid","car","time","location","longitude","latitude","cityid","cityname"
"244018","403-UM","2017/08/28 10:52:11","新北市林口區粉寮69號","121.405085","25.09083","6501700","林口區"
"244025","837-TS","2017/08/28 10:58:33","新北市林口區粉寮路二段160巷28號","121.405205","25.090775","6501700","林口區"
"231007","189-VK","2017/08/28 10:59:27","新北市新店區新潭路一段160巷17號","121.529666666667","24.9317016666667","6500600","新店區"
"231008","192-VK","2017/08/28 10:59:22","新北市新店區松林路81號","121.5452","24.90472","6500600","新店區"
"223002","198-BX","2017/08/28 10:59:17","新北市石碇區員潭子坑11-1號","121.640436666667","24.9927","6501900","石碇區"
"227005","282-VK","2017/08/28 10:59:03","新北市雙溪區泰平里溪尾寮46號","121.82137","24.9675216666667","6502500","雙溪區"
"241031","440-VK","2017/08/28 10:33:20","新北市八里區博物館路10-1號","121.415271666667","25.1642","6500200","三重區"
