"lineid","car","time","location","longitude","latitude","cityid","cityname"
"244018","403-UM","2017/08/28 10:52:11","新北市林口區粉寮69號","121.405085","25.09083","6501700","林口區"
"244025","837-TS","2017/08/28 11:09:13","新北市林口區粉寮路二段160巷28號","121.405228333333","25.090745","6501700","林口區"
"231007","189-VK","2017/08/28 11:09:27","新北市新店區新潭路一段160巷17號","121.529668333333","24.9317116666667","6500600","新店區"
"231008","192-VK","2017/08/28 11:04:22","新北市新店區成功路58-1號","121.538575","24.9000666666667","6500600","新店區"
"223002","198-BX","2017/08/28 11:09:17","新北市石碇區外按18-2號","121.651148333333","24.9994883333333","6501900","石碇區"
"227005","282-VK","2017/08/28 11:09:23","新北市雙溪區泰平里泰平39號","121.827635","24.97227","6502500","雙溪區"
