"lineid","car","time","location","longitude","latitude","cityid","cityname"
"244018","403-UM","2017/08/28 10:52:11","新北市林口區粉寮69號","121.405085","25.09083","6501700","林口區"
"244025","837-TS","2017/08/28 11:20:57","新北市林口區粉寮路二段160巷28號","121.40522","25.09076","6501700","林口區"
"231007","189-VK","2017/08/28 11:29:07","新北市新店區安康路一段61號","121.530603333333","24.9607316666667","6500600","新店區"
"231008","192-VK","2017/08/28 11:24:02","新北市新店區成功路100號","121.536926666667","24.8946883333333","6500600","新店區"
"227005","282-VK","2017/08/28 11:22:23","新北市雙溪區泰平里泰平43號","121.833065","24.9795516666667","6502500","雙溪區"
