"lineid","car","time","location","longitude","latitude","cityid","cityname"
"234044","148-BY","2017/08/28 14:08:26","新北市永和區成功路二段2號","121.526801666667","25.001085","6500400","永和區"
"234012","149-BY","2017/08/28 14:08:15","新北市永和區永貞路387號","121.508148333333","25.0086433333333","6500400","永和區"
"234005","207-UY","2017/08/28 14:08:18","新北市中和區中和路294號","121.508665","24.9997366666667","6500400","永和區"
"234078","298-R6","2017/08/28 14:08:26","新北市永和區永亨路98號","121.523078333333","25.0048316666667","6500400","永和區"
"234036","336-UY","2017/08/28 14:08:26","新北市永和區成功路一段93巷23弄15號","121.528473333333","25.003555","6500400","永和區"
"234062","337-UY","2017/08/28 14:08:20","新北市永和區永利路150號","121.52241","25.002725","6500400","永和區"
"234084","338-UY","2017/08/28 14:08:30","新北市永和區福和路208號","121.51969","25.0076716666667","6500400","永和區"
"234068","552-UM","2017/08/28 14:08:30","新北市永和區福和路245巷6號","121.518093333333","25.007235","6500400","永和區"
"234052","553-UM","2017/08/28 14:08:18","新北市永和區環河東路一段122號","121.520678333333","25.0154933333333","6500400","永和區"
"234015","745-BX","2017/08/28 14:08:21","新北市永和區仁愛路34號","121.51443","25.0134483333333","6500400","永和區"
"234028","746-BX","2017/08/28 14:08:23","新北市永和區民權路51號","121.519956666667","24.996975","6500400","永和區"
"234060","AAD-866","2017/08/28 14:08:30","新北市永和區中正路151巷5弄4-1號","121.5156","24.9986733333333","6500400","永和區"
"234040","862-TW","2017/08/28 14:08:24","新北市永和區雙和街16巷21號","121.509801666667","25.002755","6500400","永和區"
"234048","863-TW","2017/08/28 14:08:23","新北市永和區環河西路二段71號","121.506848333333","25.01519","6500400","永和區"
"234025","9371-KE","2017/08/28 14:08:17","新北市永和區安樂路198巷3號","121.515528333333","25.0019616666667","6500400","永和區"
"234010","9373-KE","2017/08/28 14:08:24","新北市永和區仁愛路352巷92弄2號","121.50119","25.0079783333333","6500400","永和區"
"248015","026-BX","2017/08/28 14:08:21","新北市五股區成泰路三段577巷52號","121.450761666667","25.10321","6501500","五股區"
"248007","095-VK","2017/08/28 14:08:28","新北市五股區中興路一段118巷14號","121.465988333333","25.0741366666667","6501500","五股區"
"248019","225-UY","2017/08/28 14:08:22","新北市五股區凌雲路三段57號","121.4253","25.125015","6501500","五股區"
"248011","247-BX","2017/08/28 14:08:34","新北市五股區工商路18巷21號","121.440061666667","25.084245","6501500","五股區"
"248013","261-SL","2017/08/28 14:08:18","新北市五股區民義路一段107巷23號","121.432158333333","25.0843816666667","6501500","五股區"
"248009","272-BY","2017/08/28 14:08:14","新北市五股區水碓一路23號","121.430645","25.071305","6501500","五股區"
"248003","677-BX","2017/08/28 14:08:15","新北市五股區六合街11號","121.431556666667","25.0885383333333","6501500","五股區"
"248001","678-BX","2017/08/28 14:08:23","新北市五股區成泰路三段577巷45號","121.450768333333","25.1031416666667","6501500","五股區"
"234022","9380-KE","2017/08/28 14:08:26","新北市永和區竹林路25巷21號","121.518183333333","25.01502","6500400","永和區"
"234076","969-R7","2017/08/28 14:08:18","新北市永和區民有街67巷8號","121.518261666667","24.99647","6500400","永和區"
"234072","AAC-211","2017/08/28 14:08:33","新北市永和區竹林路201巷24弄8號","121.522445","25.0096283333333","6500400","永和區"
"234066","AAC-212","2017/08/28 14:08:18","新北市永和區保平路236巷12弄4號","121.508698333333","25.0064533333333","6500400","永和區"
"234001","AAC-295","2017/08/28 14:08:22","新北市永和區中正路748號","121.514908333333","25.0102966666667","6500400","永和區"
"244018","403-UM","2017/08/28 10:52:11","新北市林口區粉寮69號","121.405085","25.09083","6501700","林口區"
"244025","837-TS","2017/08/28 11:20:57","新北市林口區粉寮路二段160巷28號","121.40522","25.09076","6501700","林口區"
"243005","AAD-798","2017/08/28 14:08:32","新北市泰山區明志路三段231巷2弄1號","121.424","25.0376766666667","6501600","泰山區"
"243001","297-R6","2017/08/28 14:08:26","新北市泰山區楓樹街15巷1-2號","121.435056666667","25.062995","6501600","泰山區"
"243007","380-SR","2017/08/28 14:08:17","新北市泰山區明志路一段418號","121.430691666667","25.05659","6501600","泰山區"
"243006","421-VK","2017/08/28 14:08:21","新北市泰山區泰林路二段478-1號","121.425148333333","25.0641083333333","6501600","泰山區"
"243003","549-UM","2017/08/28 14:08:19","新北市泰山區明志路二段360號","121.425868333333","25.0452033333333","6501600","泰山區"
"243004","646-TV","2017/08/28 14:08:25","新北市泰山區辭修路36巷1弄1號","121.427886666667","25.0583833333333","6501600","泰山區"
"243008","680-BX","2017/08/28 14:08:23","新北市泰山區明志路二段337號","121.425653333333","25.044725","6501600","泰山區"
"231028","001-UM","2017/08/28 14:08:30","新北市新店區安和路二段211號","121.517726666667","24.975445","6500600","新店區"
"231002","002-UM","2017/08/28 14:08:29","新北市新店區中正路608號","121.534045","24.9884166666667","6500600","新店區"
"231029","106-UY","2017/08/28 14:08:17","新北市新店區安康路二段115號","121.512558333333","24.96167","6500600","新店區"
"231018","107-UY","2017/08/28 14:08:25","新北市新店區中央路196號","121.53067","24.9744466666667","6500600","新店區"
"231011","108-UY","2017/08/28 14:08:22","新北市新店區中興路一段281號","121.54532","24.9683216666667","6500600","新店區"
"231026","110-UY","2017/08/28 14:08:16","新北市新店區安康路一段20號","121.53101","24.9610516666667","6500600","新店區"
"231019","187-VK","2017/08/28 14:08:28","新北市新店區屈尺路83-1號","121.545023333333","24.9223683333333","6500600","新店區"
"231014","AAD-862","2017/08/28 14:08:33","新北市新店區北宜路二段392巷17號","121.566793333333","24.9535733333333","6500600","新店區"
"231030","355-BY","2017/08/28 14:08:17","新北市新店區安民街115巷28號","121.515181666667","24.9676616666667","6500600","新店區"
"231027","3712-VJ","2017/08/28 14:08:24","新北市新店區北宜路一段39巷20號","121.538968333333","24.9584","6500600","新店區"
"231025","4716-K9","2017/08/28 14:08:24","新北市新店區中正路328巷3號","121.537088333333","24.975225","6500600","新店區"
"231038","4715-K9","2017/08/28 14:08:28","新北市新店區溪洲路121號","121.53136","24.96268","6500600","新店區"
"231036","512-UM","2017/08/28 14:08:16","新北市新店區安祥路109巷1弄3號","121.475715","24.9594283333333","6500600","新店區"
"231023","513-UM","2017/08/28 14:08:24","新北市新店區文中路51號","121.539791666667","24.9565816666667","6500600","新店區"
"231035","515-UM","2017/08/28 14:08:17","新北市新店區安和路一段52巷2號","121.517605","24.9662466666667","6500600","新店區"
"231003","616-UM","2017/08/28 14:08:26","新北市新店區光明街138巷22號","121.540398333333","24.9608916666667","6500600","新店區"
"231001","619-UM","2017/08/28 14:08:34","新北市新店區中華路147號","121.538101666667","24.970395","6500600","新店區"
"231034","645-TV","2017/08/28 14:08:28","新北市新店區黎明路3號","121.503298333333","24.9523483333333","6500600","新店區"
"231013","719-UM","2017/08/28 14:08:34","新北市新店區二十張路1巷3弄3號","121.540703333333","24.982145","6500600","新店區"
"231031","720-UM","2017/08/28 14:08:25","新北市新店區永業路45號","121.532296666667","24.955155","6500600","新店區"
"231005","897-TW","2017/08/28 14:08:29","新北市新店區中興路三段311號","121.541868333333","24.9860383333333","6500600","新店區"
"231006","898-TW","2017/08/28 14:08:21","新北市新店區北宜路二段126號","121.556843333333","24.9538716666667","6500600","新店區"
"231004","899-TW","2017/08/28 14:08:30","新北市新店區民族路1號","121.54242","24.9787833333333","6500600","新店區"
"231037","AKT-0513","2017/08/28 14:08:30","新北市新店區安康路二段385-1號","121.49475","24.9544566666667","6500600","新店區"
"235030","003-UY","2017/08/28 14:08:28","新北市中和區廣福路44號","121.504348333333","25.0020166666667","6500300","中和區"
"235027","006-UY","2017/08/28 14:08:26","新北市中和區連城路249巷17弄1號","121.493855","24.996485","6500300","中和區"
"235028","031-BX","2017/08/28 14:08:35","新北市中和區泰和街30巷19號","121.499015","25.001025","6500300","中和區"
"235020","096-UM","2017/08/28 14:08:30","新北市中和區員山路568號","121.478651666667","25.0108383333333","6500300","中和區"
"235003","097-UM","2017/08/28 14:08:30","新北市中和區秀峰街81巷2號","121.521491666667","24.9901933333333","6500300","中和區"
"235004","150-BY","2017/08/28 14:08:17","新北市中和區宜安路121號","121.510055","24.9978883333333","6500300","中和區"
"235022","151-BY","2017/08/28 14:08:18","新北市中和區員山路77巷7號","121.480223333333","24.99412","6500300","中和區"
"235019","183-VK","2017/08/28 03:52:41","新北市中和區員山路36巷16-3號","121.485125","24.9913816666667","6500300","中和區"
"235002","185-VK","2017/08/28 14:08:34","新北市中和區自強路56號","121.520183333333","24.99458","6500300","中和區"
"235013","186-VK","2017/08/28 14:08:28","新北市中和區明禮街13號","121.504963333333","24.9958183333333","6500300","中和區"
"235031","255-BX","2017/08/28 14:08:30","新北市中和區新生街162號","121.483676666667","25.0003366666667","6500300","中和區"
"235008","293-VK","2017/08/28 14:08:21","新北市中和區中興街161巷6弄2號","121.500658333333","24.990875","6500300","中和區"
"235007","352-BY","2017/08/28 14:08:31","新北市中和區景平路63-1號","121.52028","24.9912616666667","6500300","中和區"
"235015","376-QA","2017/08/28 14:08:29","新北市中和區忠孝街31巷51號","121.50949","24.9855666666667","6500300","中和區"
"235032","377-QA","2017/08/28 14:08:16","新北市中和區圓通路162巷37弄3號","121.496445","24.9955516666667","6500300","中和區"
"235025","378-QA","2017/08/28 14:08:27","新北市中和區中山路三段63巷9號","121.477163333333","25.0043833333333","6500300","中和區"
"235014","4979-A6","2017/08/28 14:08:26","新北市中和區復興路249巷11弄3-1號","121.503713333333","24.9897716666667","6500300","中和區"
"235033","4980-A6","2017/08/28 14:08:26","新北市中和區中和路165巷3號","121.502861666667","25.0001766666667","6500300","中和區"
"235006","551-UM","2017/08/28 14:08:32","新北市中和區自立路16巷9號","121.52139","24.99352","6500300","中和區"
"235034","558-UM","2017/08/28 14:08:34","新北市中和區安和路189號","121.506131666667","24.9982733333333","6500300","中和區"
"235009","565-BX","2017/08/28 14:08:17","新北市中和區景新街467巷22號","121.514216666667","24.988385","6500300","中和區"
"235018","640-BX","2017/08/28 14:08:14","新北市中和區國光街56號","121.470601666667","25.000285","6500300","中和區"
"235024","647-TV","2017/08/28 14:08:19","新北市中和區自治街36號","121.475163333333","25.0032133333333","6500300","中和區"
"235011","732-UM","2017/08/28 14:08:19","新北市中和區興南路二段42號","121.506811666667","24.9851716666667","6500300","中和區"
"235010","733-UM","2017/08/28 14:08:26","新北市中和區忠孝街1巷72號","121.508253333333","24.984785","6500300","中和區"
"235026","800-TS","2017/08/28 14:08:29","新北市中和區中山路二段380巷2號","121.490961666667","25.004365","6500300","中和區"
"235021","801-TS","2017/08/28 14:08:30","新北市中和區民利街100巷3弄2號","121.477346666667","24.9979683333333","6500300","中和區"
"235005","802-TS","2017/08/28 14:08:35","新北市中和區中安街66號","121.512503333333","25.002195","6500300","中和區"
"235016","805-TS","2017/08/28 14:08:25","新北市中和區興南路二段114巷6號","121.50415","24.9843183333333","6500300","中和區"
"235012","896-TW","2017/08/28 14:08:22","新北市中和區華新街75號","121.50828","24.98373","6500300","中和區"
"235017","900-TW","2017/08/28 14:08:24","新北市中和區和平路218-1號","121.463976666667","24.99632","6500300","中和區"
"235001","AAC-213","2017/08/28 14:08:20","新北市中和區秀朗路三段128巷29號","121.524651666667","24.9941716666667","6500300","中和區"
"235023","AAC-215","2017/08/28 14:08:21","新北市中和區圓通路294巷13號","121.488805","24.9900733333333","6500300","中和區"
"220016","013-TV","2017/08/28 14:08:28","新北市板橋區翠華街6巷48號","121.48145","25.0247316666667","6500100","板橋區"
"220013","072-UY","2017/08/28 14:08:33","新北市板橋區民族路247巷2弄1號","121.470416666667","25.0074933333333","6500100","板橋區"
"220034","073-UY","2017/08/28 14:08:17","新北市板橋區中正路236巷80號","121.45823","25.0194066666667","6500100","板橋區"
"220105","075-UY","2017/08/28 14:08:34","新北市板橋區文化路二段76號","121.469271666667","25.0250183333333","6500100","板橋區"
"220017","AAD-861","2017/08/28 14:08:29","新北市板橋區華興街72號","121.457315","25.0049816666667","6500100","板橋區"
"220051","120-SR","2017/08/28 14:08:20","新北市板橋區田單街2巷37號","121.482256666667","25.027815","6500100","板橋區"
"247019","893-R6","2017/08/28 14:08:32","新北市蘆洲區民族路426巷17號","121.473033333333","25.0926833333333","6501400","蘆洲區"
"247009","546-UM","2017/08/28 14:08:34","新北市蘆洲區信義路283號","121.478816666667","25.0854383333333","6501400","蘆洲區"
"247017","500-BY","2017/08/28 14:08:19","新北市蘆洲區復興路111-6號","121.476463333333","25.0883166666667","6501400","蘆洲區"
"247007","339-TH","2017/08/28 14:08:25","新北市蘆洲區中山二路309號","121.469148333333","25.07698","6501400","蘆洲區"
"247023","337-TH","2017/08/28 14:08:36","新北市蘆洲區光榮路116號","121.464546666667","25.0894033333333","6501400","蘆洲區"
"247001","336-TH","2017/08/28 14:08:21","新北市蘆洲區永平街37號","121.458283333333","25.0910183333333","6501400","蘆洲區"
"247013","057-VK","2017/08/28 14:08:33","新北市蘆洲區忠孝路37號","121.471345","25.08575","6501400","蘆洲區"
"247003","056-VK","2017/08/28 14:08:20","新北市蘆洲區長安街102巷22號","121.462705","25.0819516666667","6501400","蘆洲區"
"247005","053-VK","2017/08/28 14:08:30","新北市蘆洲區和平路97巷13號","121.467763333333","25.0786633333333","6501400","蘆洲區"
"247021","002-UY","2017/08/28 14:08:11","新北市蘆洲區三民路221號","121.469778333333","25.0882066666667","6501400","蘆洲區"
"247015","001-UY","2017/08/28 14:08:28","新北市蘆洲區中正路185巷17號","121.467613333333","25.0849416666667","6501400","蘆洲區"
"208004","AAC-292","2017/08/28 14:08:31","新北市金山區山城路29號","121.598318333333","25.20194","6502700","金山區"
"207002","749-BX","2017/08/28 14:08:26","新北市萬里區溪底里瑞泉路8-2號","121.607671666667","25.1442533333333","6502800","萬里區"
"252005","249-BX","2017/08/28 14:08:17","新北市三芝區橫山里橫山33號","121.542776666667","25.2588283333333","6502100","三芝區"
"207001","662-BX","2017/08/28 14:08:19","新北市萬里區磺潭里清水15號","121.638098333333","25.1980583333333","6502800","萬里區"
"236064","105-UM","2017/08/28 14:08:28","新北市土城區中華路一段227號","121.442","24.9837066666667","6501300","土城區"
"236040","107-UM","2017/08/28 14:08:29","新北市土城區裕生路61號","121.447603333333","24.9861016666667","6501300","土城區"
"236074","166-UM","2017/08/28 14:08:26","新北市土城區永寧路32巷42弄2號","121.428043333333","24.96094","6501300","土城區"
"236028","253-BX","2017/08/28 14:08:26","新北市土城區城林路6巷80號","121.438511666667","24.9797066666667","6501300","土城區"
"236024","269-VK","2017/08/28 14:08:27","新北市土城區承天路18號","121.439503333333","24.9634983333333","6501300","土城區"
"236012","270-VK","2017/08/28 14:08:32","新北市土城區學士路123號","121.446763333333","24.9758233333333","6501300","土城區"
"236032","271-VK","2017/08/28 14:08:24","新北市土城區金城路二段63號","121.451228333333","24.978805","6501300","土城區"
"236016","401-BY","2017/08/28 14:08:16","新北市土城區水源街91號","121.439343333333","24.9766766666667","6501300","土城區"
"236005","498-BY","2017/08/28 14:08:26","新北市土城區中央路一段22號","121.448396666667","24.9911183333333","6501300","土城區"
"236056","912-UM","2017/08/28 14:08:25","新北市土城區中央路四段38號","121.420808333333","24.9608066666667","6501300","土城區"
"236044","913-UM","2017/08/28 14:08:19","新北市土城區明德路一段365-1號","121.453555","24.9790266666667","6501300","土城區"
"236060","915-UM","2017/08/28 14:08:16","新北市土城區金城路二段54號","121.4519","24.9793133333333","6501300","土城區"
"236047","970-R7","2017/08/28 14:08:29","新北市土城區裕民路174號","121.452633333333","24.9854716666667","6501300","土城區"
"236052","AAC-216","2017/08/28 14:08:17","新北市土城區中華路二段80號","121.438731666667","24.9758616666667","6501300","土城區"
"221032","280-BY","2017/08/28 14:08:22","新北市新店區安豐路30-1號","121.500685","24.9569166666667","6501100","汐止區"
"220027","145-BY","2017/08/28 14:08:20","新北市板橋區民權路202巷12弄1號","121.460571666667","25.0156983333333","6500100","板橋區"
"220028","200-UY","2017/08/28 14:08:20","新北市板橋區大觀路二段19巷103號","121.450035","25.00284","6500100","板橋區"
"220030","610-BX","2017/08/28 14:08:34","新北市板橋區溪北路134號","121.429423333333","24.9888933333333","6500100","板橋區"
"220050","245-BX","2017/08/28 14:08:37","新北市板橋區莒光路63號","121.471325","25.0244916666667","6500100","板橋區"
"220023","256-TC","2017/08/28 14:08:21","新北市板橋區南雅西路二段295號","121.452088333333","25.0155483333333","6500100","板橋區"
"220004","276-BY","2017/08/28 14:08:27","新北市板橋區信義路74巷8號","121.45665","24.992815","6500100","板橋區"
"220020","277-BY","2017/08/28 14:08:36","新北市板橋區金門街369巷57弄7號","121.429385","24.9840233333333","6500100","板橋區"
"220043","283-UM","2017/08/28 14:08:17","新北市板橋區光武街123巷1號","121.466193333333","25.028255","6500100","板橋區"
"220019","283-VK","2017/08/28 14:08:29","新北市板橋區忠孝路132號","121.463398333333","25.00226","6500100","板橋區"
"220001","285-VK","2017/08/28 14:08:32","新北市板橋區懷仁街11號","121.476145","25.0201416666667","6500100","板橋區"
"220029","287-VK","2017/08/28 14:08:27","新北市板橋區光華街46號","121.453686666667","25.0131533333333","6500100","板橋區"
"220039","288-VK","2017/08/28 14:08:32","新北市板橋區四維路257號","121.463346666667","25.02818","6500100","板橋區"
"220009","293-UM","2017/08/28 14:08:21","新北市板橋區中山路二段214號","121.47788","25.0177983333333","6500100","板橋區"
"220032","296-UM","2017/08/28 14:08:19","新北市板橋區篤行路一段16-1號","121.431285","24.9955316666667","6500100","板橋區"
"242001","281-VK","2017/08/28 14:08:15","新北市新莊區公園路23號","121.452723333333","25.0401133333333","6500500","新莊區"
"220010","303-R5","2017/08/28 14:08:19","新北市中和區環中路122號","121.481925","25.0125283333333","6500100","板橋區"
"220041","307-R5","2017/08/28 14:08:22","新北市板橋區文化路一段162號","121.46559","25.019405","6500100","板橋區"
"220047","317-R6","2017/08/28 14:08:18","新北市板橋區自由路51巷14弄7號","121.464601666667","25.0237616666667","6500100","板橋區"
"220012","486-VK","2017/08/28 14:08:31","新北市板橋區板新路103號","121.472665","25.01425","6500100","板橋區"
"220038","487-VK","2017/08/28 14:08:18","新北市板橋區文化路二段516號","121.475768333333","25.0336866666667","6500100","板橋區"
"220037","491-VK","2017/08/28 14:08:20","新北市板橋區莊敬路38號","121.472743333333","25.0270666666667","6500100","板橋區"
"220104","560-BX","2017/08/28 14:08:32","新北市板橋區中正路377-3號","121.454345","25.0216166666667","6500100","板橋區"
"220052","561-BX","2017/08/28 14:08:30","新北市板橋區文化路一段188巷9弄108號","121.468443333333","25.0194333333333","6500100","板橋區"
"220011","609-BX","2017/08/28 14:08:32","新北市板橋區三民路二段32號","121.479213333333","25.0178683333333","6500100","板橋區"
"220031","630-UY","2017/08/28 14:08:30","新北市板橋區龍興街101巷16號","121.44367","25.0034866666667","6500100","板橋區"
"220040","637-BX","2017/08/28 14:08:28","新北市板橋區萬板路472號","121.479838333333","25.025965","6500100","板橋區"
"220005","686-BX","2017/08/28 14:08:24","新北市板橋區重慶路80號","121.461923333333","25.0061116666667","6500100","板橋區"
"220025","687-BX","2017/08/28 14:08:32","新北市板橋區大觀路二段174巷193弄2號","121.442248333333","25.00414","6500100","板橋區"
"220042","689-BX","2017/08/28 14:08:35","新北市板橋區民生路三段269號","121.464365","25.029785","6500100","板橋區"
"220002","741-BX","2017/08/28 14:08:28","新北市板橋區實踐路78號","121.463678333333","25.0054333333333","6500100","板橋區"
"220003","827-TW","2017/08/28 14:08:23","新北市板橋區新民街2號","121.464335","25.0091133333333","6500100","板橋區"
"220014","829-TW","2017/08/28 14:08:37","新北市板橋區中山路二段90巷43弄14號","121.476838333333","25.0151283333333","6500100","板橋區"
"220045","831-TW","2017/08/28 14:08:30","新北市板橋區雙十路二段47巷42號","121.475155","25.02556","6500100","板橋區"
"220022","895-R6","2017/08/28 14:08:28","新北市板橋區府中路126-7號","121.454556666667","25.0095066666667","6500100","板橋區"
"220021","985-R7","2017/08/28 14:08:20","新北市板橋區中正路125號","121.456525","25.0152366666667","6500100","板橋區"
"220046","AAC-210","2017/08/28 14:08:31","新北市板橋區英士路151號","121.459983333333","25.0241333333333","6500100","板橋區"
"220018","AAC-253","2017/08/28 14:08:33","新北市板橋區四川路一段338號","121.456861666667","24.996825","6500100","板橋區"
