"lineid","car","time","location","longitude","latitude","cityid","cityname"
"244018","403-UM","2017/08/28 10:52:11","新北市林口區粉寮69號","121.405085","25.09083","6501700","林口區"
"244025","837-TS","2017/08/28 11:20:57","新北市林口區粉寮路二段160巷28號","121.40522","25.09076","6501700","林口區"
"243003","549-UM","2017/08/28 15:28:59","新北市泰山區明志路二段125號","121.428021666667","25.0513216666667","6501600","泰山區"
"231028","001-UM","2017/08/28 15:28:50","新北市新店區僑信路29巷27號","121.499411666667","24.9509383333333","6500600","新店區"
"231002","002-UM","2017/08/28 15:28:48","新北市新店區環河路180-3號","121.535285","24.969225","6500600","新店區"
"231029","106-UY","2017/08/28 15:28:56","新北市新店區安康路三段628號","121.478716666667","24.9458933333333","6500600","新店區"
"231018","107-UY","2017/08/28 15:29:05","新北市新店區中央八街106號","121.52616","24.977885","6500600","新店區"
"231011","108-UY","2017/08/28 15:29:02","新北市新店區寶慶街36號","121.543011666667","24.9867133333333","6500600","新店區"
"231026","110-UY","2017/08/28 15:29:06","新北市新店區三民路117巷2弄1號","121.53461","24.9719066666667","6500600","新店區"
"231019","187-VK","2017/08/28 15:29:07","新北市新店區花園二路三段11-1號","121.555683333333","24.9318983333333","6500600","新店區"
"231030","355-BY","2017/08/28 15:28:58","新北市新店區新和街35號","121.519226666667","24.9849033333333","6500600","新店區"
"231024","3713-VJ","2017/08/28 15:29:03","新北市新店區安和路一段1號","121.51662","24.963865","6500600","新店區"
"231025","4716-K9","2017/08/28 15:29:04","新北市新店區環河路105-12號","121.531873333333","24.9700516666667","6500600","新店區"
"231038","4715-K9","2017/08/28 15:28:55","新北市新店區安華路28-1號","121.519245","24.9606016666667","6500600","新店區"
"231036","512-UM","2017/08/28 15:28:56","新北市新店區安祥路69巷54弄49號","121.483183333333","24.9585516666667","6500600","新店區"
"231023","513-UM","2017/08/28 15:29:04","新北市新店區北新路一段96巷21號","121.542645","24.9687533333333","6500600","新店區"
"231035","515-UM","2017/08/28 15:28:57","新北市新店區安興路102號","121.51516","24.9767633333333","6500600","新店區"
"231003","616-UM","2017/08/28 15:29:06","新北市新店區寶高路116號","121.554518333333","24.97606","6500600","新店區"
"231001","619-UM","2017/08/28 15:28:54","新北市新店區光明街137號","121.539253333333","24.962115","6500600","新店區"
"231034","645-TV","2017/08/28 15:29:08","新北市新店區富貴街11巷1號","121.494063333333","24.94903","6500600","新店區"
"231039","718-UY","2017/08/28 15:28:52","新北市新店區寶元路一段52號","121.543928333333","24.98474","6500600","新店區"
"231031","720-UM","2017/08/28 15:29:05","新北市新店區裕合街109號","121.490188333333","24.9493666666667","6500600","新店區"
"231005","897-TW","2017/08/28 15:29:09","新北市新店區建國路297號","121.53708","24.986185","6500600","新店區"
"231004","899-TW","2017/08/28 15:28:50","新北市新店區建國路94號","121.540073333333","24.97755","6500600","新店區"
"231037","AKT-0513","2017/08/28 15:29:10","新北市新店區安興路112號","121.514571666667","24.9776633333333","6500600","新店區"
"241015","062-VK","2017/08/28 15:29:06","新北市三重區重新路四段121號","121.485143333333","25.0519133333333","6500200","三重區"
"241013","270-UM","2017/08/28 15:29:03","新北市三重區重新路四段121號","121.484875","25.052575","6500200","三重區"
"241014","543-UM","2017/08/28 15:28:57","新北市三重區重新路四段121號","121.485365","25.0519266666667","6500200","三重區"
"241033","887-TS","2017/08/28 15:28:55","新北市三重區重新路五段283號","121.479221666667","25.0492783333333","6500200","三重區"
"235030","003-UY","2017/08/28 15:28:48","新北市中和區光華街31巷22弄11號","121.505751666667","25.0045733333333","6500300","中和區"
"235003","097-UM","2017/08/28 15:28:50","新北市中和區安樂路49號","121.512135","24.9935066666667","6500300","中和區"
"235014","4979-A6","2017/08/28 15:29:06","新北市中和區景平路385巷9弄22號","121.501806666667","24.9941133333333","6500300","中和區"
"235033","4980-A6","2017/08/28 15:29:06","新北市中和區中正路446號","121.490945","24.99436","6500300","中和區"
"235034","558-UM","2017/08/28 15:28:54","新北市中和區中正路466號","121.49007","24.994335","6500300","中和區"
"235012","896-TW","2017/08/28 15:29:02","新北市中和區四維街40號","121.51242","24.986935","6500300","中和區"
"235023","AAC-215","2017/08/28 15:29:01","新北市中和區員山路28-5號","121.481931666667","24.9867883333333","6500300","中和區"
"247007","339-TH","2017/08/28 15:29:05","新北市八里區荖阡坑路34號","121.402488333333","25.1284183333333","6501400","蘆洲區"
"208004","AAC-292","2017/08/28 15:28:51","新北市金山區六股里下六股9號","121.62618","25.22398","6502700","金山區"
"252005","249-BX","2017/08/28 15:29:07","新北市三芝區埔坪里埔頭坑41號","121.50465","25.26449","6502100","三芝區"
"207001","662-BX","2017/08/28 15:28:59","新北市萬里區龜吼里美崙路96號","121.683855","25.1849733333333","6502800","萬里區"
"236064","105-UM","2017/08/28 15:29:08","新北市土城區學士路377號","121.445336666667","24.9766933333333","6501300","土城區"
"236040","107-UM","2017/08/28 15:29:08","新北市土城區學府路一段125號","121.455015","24.9871333333333","6501300","土城區"
"236074","166-UM","2017/08/28 15:29:06","新北市土城區中央路四段486號","121.409255","24.9505683333333","6501300","土城區"
"236028","253-BX","2017/08/28 15:29:06","新北市土城區日新街8巷1號","121.445283333333","24.987195","6501300","土城區"
"236024","269-VK","2017/08/28 15:28:53","新北市土城區中央路二段61巷56號","121.4446","24.9782933333333","6501300","土城區"
"236012","270-VK","2017/08/28 15:28:52","新北市土城區廣明街13號","121.455781666667","24.9922316666667","6501300","土城區"
"236032","271-VK","2017/08/28 15:29:04","新北市土城區明德路一段20巷2弄1號","121.464555","24.9848833333333","6501300","土城區"
"236016","401-BY","2017/08/28 15:28:56","新北市土城區金城路三段200-5號","121.46886","24.98775","6501300","土城區"
"236056","912-UM","2017/08/28 15:28:56","新北市土城區中央路二段227號","121.44039","24.9725483333333","6501300","土城區"
"236044","913-UM","2017/08/28 15:29:08","新北市土城區明德路一段138號","121.463495","24.978845","6501300","土城區"
"236060","915-UM","2017/08/28 15:29:07","新北市土城區延和路64號","121.46582","24.9889433333333","6501300","土城區"
"236047","970-R7","2017/08/28 15:28:49","新北市樹林區中山路三段214號","121.380495","24.9668583333333","6501300","土城區"
"236052","AAC-216","2017/08/28 15:29:02","新北市土城區永豐路31巷2號","121.462821666667","24.9878816666667","6501300","土城區"
"238002","755-BX","2017/08/28 15:28:56","新北市樹林區復興路188號","121.420053333333","24.9911866666667","6500700","樹林區"
"238010","601-UM","2017/08/28 15:28:59","新北市樹林區中正路433號","121.415051666667","25.0085433333333","6500700","樹林區"
"238006","599-UM","2017/08/28 15:29:02","新北市樹林區太平路13號","121.41901","24.98365","6500700","樹林區"
"238005","571-TV","2017/08/28 15:29:05","新北市樹林區樹新路125號","121.428233333333","24.9961283333333","6500700","樹林區"
"238011","5061-A6","2017/08/28 15:29:04","新北市樹林區太平路89號","121.419073333333","24.981355","6500700","樹林區"
"238009","312-TH","2017/08/28 15:28:56","新北市樹林區和平街43號","121.423223333333","24.9819166666667","6500700","樹林區"
"238008","311-TH","2017/08/28 15:29:03","新北市樹林區西圳街一段165巷3號","121.395256666667","24.96226","6500700","樹林區"
"238012","303-VK","2017/08/28 15:29:03","新北市樹林區中山路一段149號","121.42222","24.989265","6500700","樹林區"
"238004","283-BY","2017/08/28 15:28:56","新北市樹林區光武街5-1號","121.41506","25.0049883333333","6500700","樹林區"
"238001","282-BY","2017/08/28 15:29:01","新北市樹林區大安路161號","121.42137","24.9965766666667","6500700","樹林區"
"238007","268-VK","2017/08/28 15:29:06","新北市樹林區環河路2-2號","121.425231666667","24.97727","6500700","樹林區"
"238013","172-UY","2017/08/28 15:29:02","新北市樹林區新興街15號","121.400056666667","24.9727716666667","6500700","樹林區"
"238003","169-UY","2017/08/28 15:29:08","新北市樹林區中山路一段169號","121.42164","24.9885183333333","6500700","樹林區"
"221032","280-BY","2017/08/28 15:04:01","新北市汐止區汐萬路一段256巷1號","121.651886666667","25.0747883333333","6501100","汐止區"
"220030","610-BX","2017/08/28 15:29:06","新北市板橋區篤行路二段52號","121.431681666667","24.9926583333333","6500100","板橋區"
"220050","245-BX","2017/08/28 15:28:57","新北市板橋區縣民大道二段166號","121.46836","25.0167416666667","6500100","板橋區"
"220029","287-VK","2017/08/28 15:23:47","新北市板橋區僑中一街80巷6弄1號","121.447758333333","25.0122016666667","6500100","板橋區"
"242001","281-VK","2017/08/28 15:28:55","新北市新莊區環河路636-7號","121.437371666667","25.011225","6500500","新莊區"
"220041","307-R5","2017/08/28 15:29:02","新北市板橋區民權路174號","121.459521666667","25.0132466666667","6500100","板橋區"
"220038","487-VK","2017/08/28 15:28:58","新北市板橋區四維路174-1號","121.464645","25.0264283333333","6500100","板橋區"
"220052","561-BX","2017/08/28 15:28:50","新北市板橋區漢生東路41-2號","121.465708333333","25.01686","6500100","板橋區"
"220031","630-UY","2017/08/28 15:28:48","新北市板橋區僑中二街104巷18號","121.445273333333","25.008045","6500100","板橋區"
"220042","689-BX","2017/08/28 15:28:55","新北市板橋區長江路二段8號","121.464598333333","25.031335","6500100","板橋區"
