"lineid","car","time","location","longitude","latitude","cityid","cityname"
"244018","403-UM","2017/08/28 10:52:11","新北市林口區粉寮69號","121.405085","25.09083","6501700","林口區"
"244025","837-TS","2017/08/28 11:20:57","新北市林口區粉寮路二段160巷28號","121.40522","25.09076","6501700","林口區"
"231018","107-UY","2017/08/28 16:08:45","新北市新店區中正路680巷33弄10號","121.535005","24.989315","6500600","新店區"
"231046","278-BY","2017/08/28 16:08:43","新北市新店區永業路31巷3號","121.533013333333","24.9554766666667","6500600","新店區"
"231038","4715-K9","2017/08/28 16:08:16","新北市新店區柴埕路100-2號","121.503091666667","24.9594033333333","6500600","新店區"
"231035","515-UM","2017/08/28 16:08:37","新北市新店區安德街148巷31號","121.506535","24.960905","6500600","新店區"
"231034","645-TV","2017/08/28 16:08:48","新北市新店區富貴街20巷17號","121.49322","24.9476816666667","6500600","新店區"
"241011","013-R5","2017/08/28 16:08:53","新北市三重區重陽路四段158號","121.49323","25.0720366666667","6500200","三重區"
"241028","022-UY","2017/08/28 16:08:50","新北市三重區正義南路107號","121.49829","25.0585616666667","6500200","三重區"
"241008","059-VK","2017/08/28 16:08:35","新北市三重區永福街113號","121.47928","25.077135","6500200","三重區"
"241031","061-VK","2017/08/28 16:08:33","新北市三重區重新路四段121號","121.484813333333","25.052555","6500200","三重區"
"241015","062-VK","2017/08/28 16:08:46","新北市三重區環河南路99號","121.50079","25.0577616666667","6500200","三重區"
"241017","063-VK","2017/08/28 16:08:54","新北市三重區大同北路148巷23號","121.491446666667","25.0650083333333","6500200","三重區"
"241024","065-VK","2017/08/28 16:08:41","新北市三重區中正北路145巷30號","121.485043333333","25.0680583333333","6500200","三重區"
"241026","066-VK","2017/08/28 16:08:50","新北市三重區重新路二段87號","121.496223333333","25.0617166666667","6500200","三重區"
"241002","090-VK","2017/08/28 16:08:24","新北市三重區溪尾街56號","121.490576666667","25.07756","6500200","三重區"
"241003","091-VK","2017/08/28 16:08:43","新北市三重區自強路五段114號","121.49684","25.0836516666667","6500200","三重區"
"241029","156-TC","2017/08/28 16:08:47","新北市三重區同安東街64號","121.498236666667","25.0574083333333","6500200","三重區"
"241005","262-UM","2017/08/28 16:08:37","新北市三重區溪尾街300-2號","121.487556666667","25.0836383333333","6500200","三重區"
"241016","265-UM","2017/08/28 16:08:39","新北市三重區新北大道一段7號","121.489633333333","25.0613316666667","6500200","三重區"
"241023","266-UM","2017/08/28 16:08:49","新北市三重區忠孝路二段80號","121.484215","25.0695983333333","6500200","三重區"
"241022","267-UM","2017/08/28 16:08:38","新北市三重區中正北路178號","121.483258333333","25.0666916666667","6500200","三重區"
"241018","268-UM","2017/08/28 16:08:48","新北市三重區明志街61號","121.491235","25.0639866666667","6500200","三重區"
"241013","270-UM","2017/08/28 16:08:43","新北市三重區正義北路253號","121.495691666667","25.06969","6500200","三重區"
"241025","271-UM","2017/08/28 16:08:45","新北市三重區忠孝路三段40巷11號","121.482106666667","25.0662233333333","6500200","三重區"
"241007","398-BY","2017/08/28 16:08:35","新北市三重區慈愛街10號","121.484546666667","25.0784316666667","6500200","三重區"
"241020","413-TH","2017/08/28 16:08:54","新北市三重區車路頭街5號","121.483865","25.0702016666667","6500200","三重區"
"241004","475-VK","2017/08/28 16:08:55","新北市三重區五華街74號","121.493483333333","25.081945","6500200","三重區"
"241019","478-VK","2017/08/28 16:08:46","新北市三重區重陽路三段95號","121.49016","25.067955","6500200","三重區"
"241030","480-VK","2017/08/28 16:08:32","新北市三重區重新路四段121號","121.484805","25.0524783333333","6500200","三重區"
"241014","543-UM","2017/08/28 16:08:37","新北市三重區同安東街115號","121.50041","25.057535","6500200","三重區"
"241001","547-UM","2017/08/28 16:08:46","新北市三重區忠孝路二段1號","121.487185","25.0715783333333","6500200","三重區"
"241033","887-TS","2017/08/28 16:08:35","新北市三重區五谷王南街9號","121.473086666667","25.04498","6500200","三重區"
"241012","941-UM","2017/08/28 16:08:50","新北市三重區文化北路102巷35號","121.49733","25.065945","6500200","三重區"
"241006","942-UM","2017/08/28 16:08:39","新北市三重區力行路一段183號","121.483758333333","25.0696433333333","6500200","三重區"
"235026","800-TS","2017/08/28 16:08:49","新北市中和區建康路200號","121.491281666667","25.000235","6500300","中和區"
"224008","275-VK","2017/08/28 16:08:44","新北市瑞芳區中山路350號","121.795911666667","25.11025","6501200","瑞芳區"
"224007","273-VK","2017/08/28 16:08:41","新北市瑞芳區粗坑口路42號","121.761995","25.0992266666667","6501200","瑞芳區"
"224005","271-BY","2017/08/28 16:08:36","新北市瑞芳區三爪子坑路114號","121.807028333333","25.1052616666667","6501200","瑞芳區"
"227001","642-TC","2017/08/28 16:08:33","新北市雙溪區上林里內平林26號","121.834135","25.0314966666667","6502500","雙溪區"
"227008","400-TW","2017/08/28 16:08:40","新北市雙溪區三港里雙澳路69號","121.88096","25.0538166666667","6502500","雙溪區"
"251008","181-VK","2017/08/28 16:08:38","新北市淡水區中正路一段49號","121.424515","25.1774883333333","6501000","淡水區"
"251013","182-VK","2017/08/28 16:08:38","新北市淡水區新市一路一段107號","121.431261666667","25.18684","6501000","淡水區"
"236056","912-UM","2017/08/28 16:08:38","新北市土城區中央路三段4-1號","121.439093333333","24.9700066666667","6501300","土城區"
"236044","913-UM","2017/08/28 16:08:39","新北市土城區城林路6巷80號","121.43831","24.9801716666667","6501300","土城區"
"236047","970-R7","2017/08/28 16:08:49","新北市土城區和平路14號","121.442955","24.9738783333333","6501300","土城區"
"238002","755-BX","2017/08/28 16:08:36","新北市樹林區啟智街86巷12號","121.41834","24.9908816666667","6500700","樹林區"
"238010","601-UM","2017/08/28 16:08:38","新北市樹林區三福街72號","121.404421666667","25.01621","6500700","樹林區"
"238006","599-UM","2017/08/28 16:08:41","新北市樹林區國凱街136巷25號","121.423695","24.97958","6500700","樹林區"
"238005","571-TV","2017/08/28 16:08:45","新北市樹林區博愛街120號","121.426558333333","24.9913933333333","6500700","樹林區"
"238011","5061-A6","2017/08/28 16:08:44","新北市樹林區佳園路一段72巷14號","121.391901666667","24.9696683333333","6500700","樹林區"
"238009","312-TH","2017/08/28 16:08:55","新北市樹林區太平路150巷39弄2號","121.417095","24.9770216666667","6500700","樹林區"
"238008","311-TH","2017/08/28 16:08:50","新北市樹林區柑園街二段131號","121.383391666667","24.9547783333333","6500700","樹林區"
"238012","303-VK","2017/08/28 16:08:43","新北市樹林區中正路19號","121.427663333333","24.9993","6500700","樹林區"
"238004","283-BY","2017/08/28 16:08:36","新北市樹林區中正路433-2號","121.41498","25.0081633333333","6500700","樹林區"
"238001","282-BY","2017/08/28 16:08:41","新北市樹林區保安二街64巷5弄1號","121.42443","24.9958616666667","6500700","樹林區"
"238007","268-VK","2017/08/28 16:08:46","新北市樹林區環河路2-2號","121.425231666667","24.97727","6500700","樹林區"
"238013","172-UY","2017/08/28 16:08:42","新北市樹林區佳園路一段75巷14弄4號","121.395298333333","24.9701366666667","6500700","樹林區"
"238003","169-UY","2017/08/28 16:08:47","新北市樹林區中山路一段306巷48號","121.418335","24.9864133333333","6500700","樹林區"
"221032","280-BY","2017/08/28 15:04:01","新北市汐止區汐萬路一段256巷1號","121.651886666667","25.0747883333333","6501100","汐止區"
"242001","281-VK","2017/08/28 16:08:35","新北市新莊區環河路636-7號","121.437368333333","25.0112183333333","6500500","新莊區"
