"lineid","car","time","location","longitude","latitude","cityid","cityname"
"249005","172-UM","2017/08/28 16:58:23","新北市八里區渡船頭3-16號","121.434385","25.1529133333333","6502300","八里區"
"249001","173-UM","2017/08/28 16:58:24","新北市八里區商港路48號","121.393888333333","25.144345","6502300","八里區"
"249004","303-UY","2017/08/28 16:58:26","新北市八里區挖子尾街97號","121.411068333333","25.164995","6502300","八里區"
"249002","305-UY","2017/08/28 16:58:33","新北市八里區牛寮埔22號","121.432596666667","25.1426616666667","6502300","八里區"
"249003","593-UM","2017/08/28 16:58:29","新北市八里區中山路二段275號","121.401898333333","25.1488033333333","6502300","八里區"
"244007","080-UY","2017/08/28 16:58:31","新北市林口區林口路296號","121.385801666667","25.0851616666667","6501700","林口區"
"244018","403-UM","2017/08/28 16:58:21","新北市林口區粉寮路一段105號","121.39809","25.080425","6501700","林口區"
"244009","410-SL","2017/08/28 16:58:31","新北市林口區粉寮69號","121.40497","25.090895","6501700","林口區"
"244023","657-BX","2017/08/28 16:58:20","新北市林口區粉寮69號","121.405091666667","25.0908433333333","6501700","林口區"
"244025","837-TS","2017/08/28 16:58:19","新北市林口區粉寮路二段160巷28號","121.405208333333","25.0907983333333","6501700","林口區"
"244021","838-TS","2017/08/28 16:57:15","新北市林口區粉寮69號","121.40479","25.0908533333333","6501700","林口區"
"231046","278-BY","2017/08/28 16:58:23","新北市新店區灣潭路15-2號","121.542343333333","24.9434366666667","6500600","新店區"
"241011","013-R5","2017/08/28 16:58:34","新北市三重區公園街13號","121.499383333333","25.0728933333333","6500200","三重區"
"241028","022-UY","2017/08/28 16:58:30","新北市三重區中正南路5號","121.493478333333","25.0602216666667","6500200","三重區"
"241008","059-VK","2017/08/28 16:58:35","新北市三重區永福街179巷42號","121.477441666667","25.0747383333333","6500200","三重區"
"241009","060-VK","2017/08/28 16:58:32","新北市三重區仁美街107號","121.48578","25.0807983333333","6500200","三重區"
"241031","061-VK","2017/08/28 16:58:32","新北市三重區三寧街18號","121.489281666667","25.059805","6500200","三重區"
"241015","062-VK","2017/08/28 16:58:26","新北市三重區福德北路82-1號","121.501576666667","25.0662683333333","6500200","三重區"
"241017","063-VK","2017/08/28 16:58:23","新北市三重區國隆路12巷7號","121.492635","25.0637116666667","6500200","三重區"
"241024","065-VK","2017/08/28 16:58:21","新北市蘆洲區國道路二段56號","121.472813333333","25.0744216666667","6500200","三重區"
"241026","066-VK","2017/08/28 16:58:30","新北市三重區中央南路29號","121.501143333333","25.0622533333333","6500200","三重區"
"241002","090-VK","2017/08/28 16:58:24","新北市三重區仁義街101巷52號","121.49964","25.081235","6500200","三重區"
"241003","091-VK","2017/08/28 16:58:23","新北市三重區五華街135號","121.490991666667","25.0844916666667","6500200","三重區"
"241029","156-TC","2017/08/28 16:58:31","新北市三重區集美街205號","121.491613333333","25.0546516666667","6500200","三重區"
"241005","262-UM","2017/08/28 16:58:37","新北市三重區仁華街106號","121.485293333333","25.083215","6500200","三重區"
"241016","265-UM","2017/08/28 16:58:18","新北市三重區大同北路167巷26號","121.493713333333","25.0652433333333","6500200","三重區"
"241023","266-UM","2017/08/28 16:58:29","新北市三重區新北大道一段250號","121.479988333333","25.061515","6500200","三重區"
"241022","267-UM","2017/08/28 16:58:18","新北市三重區貴陽街20號","121.48429","25.0621316666667","6500200","三重區"
"241018","268-UM","2017/08/28 16:58:28","新北市三重區六張街126巷2弄2號","121.492101666667","25.0693883333333","6500200","三重區"
"241032","269-UM","2017/08/28 16:58:16","新北市三重區三民街11號","121.485773333333","25.0607733333333","6500200","三重區"
"241013","270-UM","2017/08/28 16:58:23","新北市三重區仁愛街93號","121.495771666667","25.0734816666667","6500200","三重區"
"241025","271-UM","2017/08/28 16:58:15","新北市三重區中正北路357號","121.472666666667","25.07175","6500200","三重區"
"241007","398-BY","2017/08/28 16:58:15","新北市三重區三和路四段181巷248號","121.487968333333","25.0806283333333","6500200","三重區"
"241020","413-TH","2017/08/28 16:58:14","新北市三重區後竹圍街175巷18號","121.485708333333","25.0725383333333","6500200","三重區"
"241004","475-VK","2017/08/28 16:58:15","新北市三重區五華街98巷8號","121.492011666667","25.0819866666667","6500200","三重區"
"241019","478-VK","2017/08/28 16:58:26","新北市三重區自強路二段74巷21號","121.487943333333","25.0698766666667","6500200","三重區"
"241030","480-VK","2017/08/28 16:58:32","新北市三重區昌隆街49號","121.491271666667","25.0514033333333","6500200","三重區"
"241014","543-UM","2017/08/28 16:58:17","新北市三重區介壽路39巷98號","121.500765","25.07057","6500200","三重區"
"241001","547-UM","2017/08/28 16:58:26","新北市三重區仁愛街192巷15號","121.493596666667","25.07694","6500200","三重區"
"241012","941-UM","2017/08/28 16:58:30","新北市三重區仁壽街200號","121.501085","25.074995","6500200","三重區"
"241006","942-UM","2017/08/28 16:58:19","新北市三重區車路頭街126號","121.48399","25.0752383333333","6500200","三重區"
"235062","800-TS","2017/08/28 16:38:15","新北市中和區員山路36巷16-3號","121.485001666667","24.9914166666667","6500300","中和區"
"247020","893-R6","2017/08/28 16:58:23","新北市蘆洲區復興路323巷368號","121.474038333333","25.09393","6501400","蘆洲區"
"247010","546-UM","2017/08/28 16:58:13","新北市蘆洲區信義路233號","121.47917","25.0840116666667","6501400","蘆洲區"
"247008","339-TH","2017/08/28 16:58:29","新北市蘆洲區信義路56號","121.4754","25.0796933333333","6501400","蘆洲區"
"247002","336-TH","2017/08/28 16:58:33","新北市蘆洲區長榮路518號","121.459495","25.0899916666667","6501400","蘆洲區"
"247014","057-VK","2017/08/28 16:58:24","新北市蘆洲區中山二路36巷21號","121.474095","25.0829","6501400","蘆洲區"
"247004","056-VK","2017/08/28 16:58:34","新北市蘆洲區長安街131巷11號","121.460423333333","25.081","6501400","蘆洲區"
"247006","053-VK","2017/08/28 16:58:34","新北市蘆洲區長安街99巷31號","121.460723333333","25.0796766666667","6501400","蘆洲區"
"247012","007-UY","2017/08/28 16:58:21","新北市蘆洲區信義路298號","121.477568333333","25.087605","6501400","蘆洲區"
"247016","001-UY","2017/08/28 16:58:22","新北市蘆洲區正和街28號","121.469876666667","25.0821783333333","6501400","蘆洲區"
"228003","097-TW","2017/08/28 16:58:18","新北市貢寮區福隆里興隆街100巷7號","121.937291666667","25.0182583333333","6502600","貢寮區"
"228002","585-TW","2017/08/28 16:58:32","新北市貢寮區貢寮里朝陽街54號","121.910458333333","25.0213483333333","6502600","貢寮區"
"228001","670-TC","2017/08/28 16:58:23","新北市貢寮區貢寮里朝陽街1-2號","121.912328333333","25.0213216666667","6502600","貢寮區"
"224010","AGQ-8101","2017/08/28 09:04:45","新北市瑞芳區民權街3-1號","121.809431666667","25.1082566666667","6501200","瑞芳區"
"224006","676-BX","2017/08/28 16:58:17","新北市瑞芳區大寮路356-1號","121.785018333333","25.1033566666667","6501200","瑞芳區"
"224009","285-BY","2017/08/28 16:58:36","新北市瑞芳區明燈路一段1號","121.82664","25.10937","6501200","瑞芳區"
"224008","275-VK","2017/08/28 16:58:24","新北市瑞芳區坪林路7號","121.833833333333","25.1008516666667","6501200","瑞芳區"
"224007","273-VK","2017/08/28 16:58:21","新北市瑞芳區瑞竹路44號","121.763673333333","25.1034033333333","6501200","瑞芳區"
"224005","271-BY","2017/08/28 16:58:23","新北市瑞芳區南雅路29-1號","121.887976666667","25.120685","6501200","瑞芳區"
"227001","642-TC","2017/08/28 16:58:13","新北市雙溪區長源里內柑腳20號","121.801025","25.0142816666667","6502500","雙溪區"
"227008","400-TW","2017/08/28 16:58:19","新北市雙溪區牡丹里聖南1-1號","121.860626666667","25.0500383333333","6502500","雙溪區"
"251009","008-UM","2017/08/28 16:58:14","新北市淡水區中正路一段130號","121.422658333333","25.1787216666667","6501000","淡水區"
"251004","009-UM","2017/08/28 16:58:32","新北市淡水區中正路二段22巷3號","121.419931666667","25.1815116666667","6501000","淡水區"
"251008","181-VK","2017/08/28 16:58:18","新北市淡水區樹梅坑9號","121.472721666667","25.1427366666667","6501000","淡水區"
"251013","182-VK","2017/08/28 16:58:18","新北市淡水區泉洲厝32號","121.48929","25.19259","6501000","淡水區"
"251010","413-VK","2017/08/28 16:58:19","新北市淡水區新市二路三段20號","121.431873333333","25.19344","6501000","淡水區"
"251012","441-VK","2017/08/28 16:58:19","新北市淡水區中正路二段31號","121.419691666667","25.1815616666667","6501000","淡水區"
"251015","442-VK","2017/08/28 16:58:29","新北市淡水區忠愛街14號","121.458098333333","25.1747666666667","6501000","淡水區"
"251005","443-VK","2017/08/28 16:58:28","新北市淡水區中山路113號","121.44172","25.1709016666667","6501000","淡水區"
"251006","561-UM","2017/08/28 16:58:22","新北市淡水區中正路二段31號","121.419495","25.1816133333333","6501000","淡水區"
"251011","650-BX","2017/08/28 16:58:27","新北市淡水區中山路87巷1號","121.442551666667","25.17056","6501000","淡水區"
"252002","178-VK","2017/08/28 16:58:27","新北市三芝區忠孝街173號","121.505431666667","25.2614183333333","6502100","三芝區"
"252003","249-BX","2017/08/28 16:24:47","新北市三芝區埔坪里埔頭坑41號","121.504426666667","25.2646533333333","6502100","三芝區"
"252001","292-VK","2017/08/28 16:58:23","新北市三芝區淡金路二段89-1號","121.503971666667","25.26083","6502100","三芝區"
"236047","970-R7","2017/08/28 16:28:53","新北市土城區城林路6巷80號","121.438708333333","24.9796866666667","6501300","土城區"
"242021","AAC-296","2017/08/28 16:58:27","新北市新莊區新泰路357巷3弄57號","121.442378333333","25.03955","6500500","新莊區"
"242048","751-BX","2017/08/28 16:58:22","新北市新莊區三和路12-21號","121.44219","25.0383266666667","6500500","新莊區"
"242027","612-BX","2017/08/28 16:58:25","新北市新莊區新泰路357巷3弄57號","121.442211666667","25.0392483333333","6500500","新莊區"
"242036","566-BX","2017/08/28 16:58:33","新北市新莊區新泰路357巷3弄57號","121.442105","25.0391116666667","6500500","新莊區"
"242053","442-UM","2017/08/28 16:52:12","新北市新莊區新泰路255巷83號","121.442148333333","25.0389416666667","6500500","新莊區"
"242031","415-TV","2017/08/28 16:58:24","新北市新莊區新泰路357巷3弄57號","121.442098333333","25.039365","6500500","新莊區"
"242002","413-TV","2017/08/28 16:58:33","新北市新莊區新泰路357巷3弄57號","121.442083333333","25.0396916666667","6500500","新莊區"
"242034","133-UY","2017/08/28 16:58:25","新北市新莊區新泰路255巷83號","121.442091666667","25.0389733333333","6500500","新莊區"
"242013","175-VK","2017/08/28 16:58:35","新北市新莊區三和路12-21號","121.441983333333","25.0387583333333","6500500","新莊區"
"242056","176-VK","2017/08/28 16:58:27","新北市新莊區新泰路255巷83號","121.441958333333","25.03891","6500500","新莊區"
"242011","346-TH","2017/08/28 16:58:23","新北市新莊區三和路12-16號","121.442021666667","25.0373883333333","6500500","新莊區"
"242017","348-TH","2017/08/28 16:58:16","新北市新莊區新泰路357巷3弄57號","121.442121666667","25.0395916666667","6500500","新莊區"
"242009","351-TH","2017/08/28 16:58:28","新北市新莊區新泰路357巷3弄57號","121.442001666667","25.0395566666667","6500500","新莊區"
"238010","601-UM","2017/08/28 16:58:19","新北市樹林區中山路三段67-5號","121.400618333333","24.975075","6500700","樹林區"
"238004","283-BY","2017/08/28 16:58:16","新北市樹林區中正路433-1號","121.414658333333","25.008155","6500700","樹林區"
"238001","282-BY","2017/08/28 16:58:21","新北市樹林區大慶街99號","121.427545","24.9994933333333","6500700","樹林區"
"239007","AAC-297","2017/08/28 16:58:30","新北市鶯歌區環河路177-5號","121.345951666667","24.93572","6500800","鶯歌區"
"239006","891-R6","2017/08/27 17:02:32","新北市鶯歌區二甲路171-1號","121.343935","24.9355733333333","6500800","鶯歌區"
"239008","527-UM","2017/08/28 16:58:15","新北市鶯歌區環河路175號","121.346421666667","24.93628","6500800","鶯歌區"
"239005","526-UM","2017/08/28 16:58:16","新北市鶯歌區環河路155-1號","121.346458333333","24.9387433333333","6500800","鶯歌區"
"239001","417-VK","2017/08/28 11:12:37","新北市鶯歌區二甲路171-1號","121.343905","24.9358066666667","6500800","鶯歌區"
"239003","360-BY","2017/08/28 16:58:20","新北市鶯歌區環河路155號","121.34643","24.9382533333333","6500800","鶯歌區"
"239002","359-BY","2017/08/28 16:58:25","新北市鶯歌區環河路155-8號","121.346711666667","24.93933","6500800","鶯歌區"
"221032","280-BY","2017/08/28 15:04:01","新北市汐止區汐萬路一段256巷1號","121.651886666667","25.0747883333333","6501100","汐止區"
"242001","281-VK","2017/08/28 16:43:42","新北市新莊區環河路636-7號","121.437376666667","25.0112416666667","6500500","新莊區"
"242044","280-VK","2017/08/28 16:58:20","新北市新莊區三和路12-21號","121.442015","25.0383083333333","6500500","新莊區"
