"lineid","car","time","location","longitude","latitude","cityid","cityname"
"234026","9371-KE","2017/08/28 17:59:25","新北市永和區永和路一段45號","121.512903333333","25.0062833333333","6500400","永和區"
"234011","9373-KE","2017/08/28 17:59:12","新北市永和區福和路1號","121.525323333333","25.0093666666667","6500400","永和區"
"249005","172-UM","2017/08/28 17:59:23","新北市八里區荖阡坑路18號","121.397856666667","25.138255","6502300","八里區"
"249001","173-UM","2017/08/28 17:59:23","新北市八里區龍米路二段36號","121.448518333333","25.140055","6502300","八里區"
"249004","303-UY","2017/08/28 17:59:26","新北市八里區中華路一段309巷53-6號","121.415771666667","25.1549516666667","6502300","八里區"
"249002","305-UY","2017/08/28 17:59:12","新北市八里區龍米路一段259號","121.450713333333","25.1336766666667","6502300","八里區"
"249003","593-UM","2017/08/28 17:59:29","新北市八里區中山路二段198號","121.405565","25.152315","6502300","八里區"
"248016","026-BX","2017/08/28 17:59:11","新北市五股區中興路二段83巷26-6號","121.460046666667","25.0752233333333","6501500","五股區"
"248006","077-UY","2017/08/28 17:59:25","新北市五股區中興路二段37巷28號","121.460086666667","25.0750083333333","6501500","五股區"
"248008","095-VK","2017/08/28 17:59:16","新北市五股區中興路二段150號","121.458605","25.0785683333333","6501500","五股區"
"248018","225-UY","2017/08/28 17:59:13","新北市五股區中興路二段63巷17號","121.46029","25.0753866666667","6501500","五股區"
"248012","247-BX","2017/08/28 17:59:09","新北市五股區中興路二段83巷26-6號","121.460205","25.0751966666667","6501500","五股區"
"248014","261-SL","2017/08/28 17:59:14","新北市五股區中興路二段103巷14號","121.458163333333","25.0766533333333","6501500","五股區"
"248010","272-BY","2017/08/28 17:59:18","新北市五股區中興路二段83巷26號","121.459186666667","25.0755966666667","6501500","五股區"
"248004","677-BX","2017/08/28 17:59:13","新北市五股區中興路二段83巷26-6號","121.46005","25.0750083333333","6501500","五股區"
"248002","678-BX","2017/08/28 17:59:30","新北市五股區中興路二段37巷28號","121.46004","25.0748833333333","6501500","五股區"
"232011","375-UM","2017/08/28 17:59:12","新北市坪林區北宜路八段235號","121.709271666667","24.9351666666667","6502000","坪林區"
"244007","080-UY","2017/08/28 17:59:31","新北市林口區竹林路77-8號","121.388645","25.0797316666667","6501700","林口區"
"244018","403-UM","2017/08/28 17:59:20","新北市林口區忠孝路539號","121.372143333333","25.0688583333333","6501700","林口區"
"244009","410-SL","2017/08/28 17:59:11","新北市林口區竹林路582巷16-1號","121.386133333333","25.0833133333333","6501700","林口區"
"244017","656-BX","2017/08/28 17:59:16","新北市林口區文化二路一段260巷4號","121.37118","25.0731483333333","6501700","林口區"
"244023","657-BX","2017/08/28 17:59:20","新北市林口區東湖路93巷75號","121.384926666667","25.0716266666667","6501700","林口區"
"244013","658-BX","2017/08/28 17:59:14","新北市林口區林口路39號","121.390228333333","25.0787933333333","6501700","林口區"
"244011","701-TV","2017/08/28 17:59:28","新北市林口區中正路122號","121.39322","25.0773116666667","6501700","林口區"
"244025","837-TS","2017/08/28 17:59:19","新北市林口區八德路408號","121.358598333333","25.0662166666667","6501700","林口區"
"244021","838-TS","2017/08/28 17:59:14","新北市林口區新寮45號","121.404273333333","25.0644183333333","6501700","林口區"
"243015","380-SR","2017/08/28 17:50:07","新北市泰山區犁頭窠3-1號","121.422105","25.0605066666667","6501600","泰山區"
"222003","436-BY","2017/08/28 17:59:24","新北市深坑區炮子崙24號","121.60453","24.9871066666667","6501800","深坑區"
"222001","628-TS","2017/08/28 17:59:23","新北市深坑區北深路三段28號","121.609216666667","25.001185","6501800","深坑區"
"222002","659-BX","2017/08/28 17:59:25","新北市深坑區深坑街35號","121.615881666667","25.00181","6501800","深坑區"
"231046","278-BY","2017/08/28 17:59:23","新北市新店區下石厝路31號","121.533585","24.9314833333333","6500600","新店區"
"241016","265-UM","2017/08/28 17:58:59","新北市新莊區五工一路72巷3號","121.462381666667","25.06735","6500200","三重區"
"241024","743-BX","2017/08/28 17:59:12","新北市三重區車路頭街65號","121.484108333333","25.072555","6500200","三重區"
"241033","887-TS","2017/08/28 17:59:15","新北市三重區興德路145-2號","121.469118333333","25.0529616666667","6500200","三重區"
"235063","006-UY","2017/08/28 17:59:17","新北市中和區員山路36巷16-3號","121.48501","24.99117","6500300","中和區"
"235038","185-VK","2017/08/28 17:59:20","新北市中和區中正路637巷52弄1號","121.485351666667","24.9934766666667","6500300","中和區"
"235072","301-VK","2017/08/28 17:59:19","新北市中和區員山路36巷12號","121.483891666667","24.9911066666667","6500300","中和區"
"235062","800-TS","2017/08/28 17:59:11","新北市中和區和城路一段271巷1號","121.485406666667","24.991775","6500300","中和區"
"247020","893-R6","2017/08/28 17:59:23","新北市蘆洲區民族路377號","121.470133333333","25.0904883333333","6501400","蘆洲區"
"247010","546-UM","2017/08/28 17:59:13","新北市蘆洲區信義路184號","121.479205","25.0842583333333","6501400","蘆洲區"
"247018","500-BY","2017/08/28 17:59:31","新北市蘆洲區復興路298號","121.481083333333","25.0899616666667","6501400","蘆洲區"
"247008","339-TH","2017/08/28 17:59:09","新北市蘆洲區中山一路236號","121.472691666667","25.08018","6501400","蘆洲區"
"247024","337-TH","2017/08/28 17:59:19","新北市蘆洲區光明路50巷17號","121.46193","25.0866316666667","6501400","蘆洲區"
"247002","336-TH","2017/08/28 17:59:17","新北市蘆洲區永平街32巷57弄13號","121.459436666667","25.0929516666667","6501400","蘆洲區"
"247006","053-VK","2017/08/28 17:59:14","新北市蘆洲區中華街48號","121.46189","25.0803733333333","6501400","蘆洲區"
"247012","007-UY","2017/08/28 17:59:21","新北市蘆洲區民族路167巷4號","121.47881","25.0882283333333","6501400","蘆洲區"
"247022","002-UY","2017/08/28 17:59:16","新北市蘆洲區中正路516巷18-1號","121.462805","25.098185","6501400","蘆洲區"
"247016","001-UY","2017/08/28 17:59:21","新北市蘆洲區中正路185巷78弄20號","121.465831666667","25.0847683333333","6501400","蘆洲區"
"226001","312-R5","2017/08/28 17:59:22","新北市平溪區石底里石筍尖16號","121.732511666667","25.0260216666667","6502400","平溪區"
"228003","097-TW","2017/08/28 17:59:18","新北市貢寮區真理里美艷山街6-2號","121.928915","25.06081","6502600","貢寮區"
"228002","585-TW","2017/08/28 17:59:12","新北市貢寮區福隆里桂安街17號","121.965151666667","25.0215666666667","6502600","貢寮區"
"228001","670-TC","2017/08/28 17:59:23","新北市貢寮區真理里新港街26巷51號","121.92779","25.0532733333333","6502600","貢寮區"
"224006","676-BX","2017/08/28 17:59:17","新北市瑞芳區瑞興新村12巷1號","121.788418333333","25.1083433333333","6501200","瑞芳區"
"224002","639-TC","2017/08/28 17:59:32","新北市瑞芳區三爪子坑路143號","121.810478333333","25.1064483333333","6501200","瑞芳區"
"224009","285-BY","2017/08/28 17:59:15","新北市瑞芳區山尖路102號","121.853558333333","25.113955","6501200","瑞芳區"
"224008","275-VK","2017/08/28 17:59:23","新北市瑞芳區明燈路一段45巷99號","121.822076666667","25.104215","6501200","瑞芳區"
"224007","273-VK","2017/08/28 17:59:21","新北市瑞芳區大寮路84號","121.780446666667","25.1013266666667","6501200","瑞芳區"
"224005","271-BY","2017/08/28 17:59:15","新北市瑞芳區弘祥新村11號","121.817813333333","25.1285666666667","6501200","瑞芳區"
"253006","032-BX","2017/08/28 17:59:29","新北市石門區大丘田45-1號","121.54974","25.2753333333333","6502200","石門區"
"208002","742-BX","2017/08/28 17:59:28","新北市金山區三界壇路93-1號","121.624066666667","25.2289016666667","6502700","金山區"
"208003","665-BX","2017/08/28 17:59:14","新北市金山區磺港里磺港路203號","121.645001666667","25.22758","6502700","金山區"
"208001","761-BX","2017/08/28 17:59:24","新北市金山區磺港里磺港路162號","121.644173333333","25.22529","6502700","金山區"
"251009","008-UM","2017/08/28 17:59:14","新北市淡水區大仁街6巷1號","121.442396666667","25.1746266666667","6501000","淡水區"
"251004","009-UM","2017/08/28 17:59:32","新北市淡水區民權路187巷35號","121.461061666667","25.1336633333333","6501000","淡水區"
"251008","181-VK","2017/08/28 17:59:25","新北市淡水區八勢一街55號","121.461853333333","25.1555066666667","6501000","淡水區"
"251013","182-VK","2017/08/28 17:59:18","新北市淡水區泉洲厝31號","121.479483333333","25.1910616666667","6501000","淡水區"
"251010","413-VK","2017/08/28 17:59:19","新北市淡水區中正路一段87巷1號","121.421748333333","25.1791616666667","6501000","淡水區"
"251012","441-VK","2017/08/28 17:59:18","新北市淡水區北新路三段22號","121.483625","25.1862716666667","6501000","淡水區"
"251015","442-VK","2017/08/28 17:59:09","新北市淡水區興福寮100號","121.486913333333","25.1644466666667","6501000","淡水區"
"251005","443-VK","2017/08/28 17:59:28","新北市淡水區英專路125號","121.445828333333","25.1726416666667","6501000","淡水區"
"251001","559-UM","2017/08/28 17:59:23","新北市淡水區民權路94巷1號","121.463058333333","25.1248216666667","6501000","淡水區"
"251006","561-UM","2017/08/28 17:59:22","新北市淡水區真理街2-1號","121.438656666667","25.1729183333333","6501000","淡水區"
"251011","650-BX","2017/08/28 17:59:07","新北市淡水區三空泉8-1號","121.475818333333","25.16093","6501000","淡水區"
"251002","672-BX","2017/08/28 17:59:22","新北市淡水區中正東路81巷1號","121.447621666667","25.1671733333333","6501000","淡水區"
"251003","766-UM","2017/08/28 17:59:09","新北市淡水區大忠街79-6號","121.445761666667","25.177225","6501000","淡水區"
"207003","550-UM","2017/08/28 17:59:22","新北市萬里區港東路野柳風景區攤販98號","121.690955","25.2056416666667","6502800","萬里區"
"207004","225-TW","2017/08/28 17:59:29","新北市萬里區中幅里中福路48號","121.683353333333","25.1740983333333","6502800","萬里區"
"252002","178-VK","2017/08/28 17:59:27","新北市三芝區中山路一段120號","121.502431666667","25.256055","6502100","三芝區"
"252003","249-BX","2017/08/28 17:59:13","新北市三芝區埔坪里埔頭坑41號","121.50438","25.2645733333333","6502100","三芝區"
"252001","292-VK","2017/08/28 17:59:23","新北市三芝區中興街一段30號","121.497708333333","25.2578333333333","6502100","三芝區"
"237004","078-UY","2017/08/28 17:59:28","新北市三峽區中園街213號","121.367003333333","24.920435","6500900","三峽區"
"237007","153-BY","2017/08/28 17:59:14","新北市三峽區中園街104號","121.367148333333","24.9233433333333","6500900","三峽區"
"237009","210-TH","2017/08/28 17:59:20","新北市三峽區中山路106巷1號","121.366055","24.9358983333333","6500900","三峽區"
"237013","252-BX","2017/08/28 17:59:18","新北市三峽區介壽路一段137號","121.376326666667","24.9316566666667","6500900","三峽區"
"237012","275-BY","2017/08/28 17:59:17","新北市三峽區民生街27巷30號","121.375995","24.9360983333333","6500900","三峽區"
"237008","302-VK","2017/08/28 17:59:19","新北市三峽區白雞14號","121.368206666667","24.9129033333333","6500900","三峽區"
"237014","433-BY","2017/08/28 17:59:21","新北市三峽區復興路101巷1弄47號","121.371793333333","24.9373683333333","6500900","三峽區"
"237006","5529-G3","2017/08/28 17:59:11","新北市三峽區介壽路二段138巷1弄110號","121.397935","24.9308583333333","6500900","三峽區"
"237011","572-TV","2017/08/28 17:59:15","新北市三峽區大同路33號","121.376725","24.9283083333333","6500900","三峽區"
"237015","649-BX","2017/08/28 17:59:30","新北市三峽區紫微路139號","121.407285","24.911515","6500900","三峽區"
"237010","706-TV","2017/08/28 17:59:25","新北市三峽區民權街162號","121.368038333333","24.930595","6500900","三峽區"
"237005","AKY-6261","2017/08/28 17:59:28","新北市三峽區和平街89巷2號","121.37","24.9375566666667","6500900","三峽區"
"236069","105-UM","2017/08/28 17:59:15","新北市土城區城林路6巷80號","121.43847","24.9797483333333","6501300","土城區"
"236042","107-UM","2017/08/28 17:59:21","新北市土城區裕生路61號","121.447615","24.986075","6501300","土城區"
"236078","166-UM","2017/08/28 17:59:14","新北市土城區永寧路32巷10弄6號","121.429055","24.96092","6501300","土城區"
"236030","253-BX","2017/08/28 17:59:24","新北市土城區城林路6巷80號","121.438441666667","24.9797366666667","6501300","土城區"
"236026","269-VK","2017/08/28 17:59:17","新北市土城區承天路18號","121.439386666667","24.9634866666667","6501300","土城區"
"236014","270-VK","2017/08/28 17:59:18","新北市土城區城林路6巷80號","121.438511666667","24.9797333333333","6501300","土城區"
"236036","271-VK","2017/08/28 17:59:19","新北市土城區城林路6巷80號","121.43842","24.97974","6501300","土城區"
"236020","401-BY","2017/08/28 17:59:18","新北市土城區城林路6巷80號","121.438696666667","24.9797033333333","6501300","土城區"
"236058","912-UM","2017/08/28 17:59:17","新北市土城區中央路三段140號","121.433118333333","24.9655766666667","6501300","土城區"
"236048","913-UM","2017/08/28 17:59:19","新北市土城區城林路6巷80號","121.438398333333","24.9796916666667","6501300","土城區"
"236062","915-UM","2017/08/28 17:59:16","新北市土城區城林路6巷80號","121.438568333333","24.97963","6501300","土城區"
"236047","970-R7","2017/08/28 16:28:53","新北市土城區城林路6巷80號","121.438708333333","24.9796866666667","6501300","土城區"
"236053","AAC-216","2017/08/28 17:59:12","新北市土城區城林路6巷80號","121.438456666667","24.979615","6501300","土城區"
"242021","AAC-296","2017/08/28 17:59:27","新北市新莊區中正路176號","121.450201666667","25.0359766666667","6500500","新莊區"
"242029","986-R7","2017/08/28 17:59:11","新北市新莊區復興路一段9號","121.44574","25.0415883333333","6500500","新莊區"
"242048","751-BX","2017/08/28 17:59:22","新北市新莊區萬安街55號","121.421431666667","25.0244133333333","6500500","新莊區"
"242025","615-BX","2017/08/28 17:59:13","新北市新莊區新北大道二段221號","121.4623","25.0607066666667","6500500","新莊區"
"242023","613-BX","2017/08/28 17:59:24","新北市新莊區福壽街67號","121.45822","25.049405","6500500","新莊區"
"242027","612-BX","2017/08/28 17:59:25","新北市新莊區思源路379號","121.459836666667","25.0512683333333","6500500","新莊區"
"242036","566-BX","2017/08/28 17:59:13","新北市新莊區中正路685號","121.425953333333","25.029735","6500500","新莊區"
"242042","497-BY","2017/08/28 17:59:19","新北市新莊區壽山路31號","121.42007","25.0288433333333","6500500","新莊區"
"242053","442-UM","2017/08/28 17:59:32","新北市新莊區光華街8號","121.428738333333","25.01072","6500500","新莊區"
"242046","441-UM","2017/08/28 17:59:23","新北市新莊區福營路165巷41號","121.432756666667","25.0299883333333","6500500","新莊區"
"242050","440-UM","2017/08/28 17:59:22","新北市新莊區龍安路537號","121.428115","25.0175233333333","6500500","新莊區"
"242031","415-TV","2017/08/28 17:59:23","新北市新莊區新泰路306號","121.445381666667","25.0410266666667","6500500","新莊區"
"242002","413-TV","2017/08/28 17:59:14","新北市新莊區中正路147-2號","121.45776","25.03724","6500500","新莊區"
"242039","400-BY","2017/08/28 17:59:19","新北市新莊區民安西路24巷14號","121.426316666667","25.0209483333333","6500500","新莊區"
"242060","362-BY","2017/08/28 17:59:30","新北市新莊區新樹路525號","121.43273","25.0101566666667","6500500","新莊區"
"242058","353-BY","2017/08/28 17:59:26","新北市新莊區雙鳳路134巷8號","121.412798333333","25.0281866666667","6500500","新莊區"
"242004","132-UY","2017/08/28 17:59:10","新北市新莊區思源路177巷32號","121.459295","25.046265","6500500","新莊區"
"242034","133-UY","2017/08/28 17:59:25","新北市新莊區福海街18號","121.445248333333","25.0338016666667","6500500","新莊區"
"242019","135-UY","2017/08/28 17:59:22","新北市新莊區明中街47巷15號","121.456933333333","25.0386583333333","6500500","新莊區"
"242007","173-VK","2017/08/28 17:59:14","新北市新莊區自信街67號","121.455465","25.0483416666667","6500500","新莊區"
"242013","175-VK","2017/08/28 17:59:15","新北市新莊區中和街125巷14號","121.446951666667","25.048625","6500500","新莊區"
"242056","176-VK","2017/08/28 17:59:27","新北市新莊區豐年街122-3號","121.446425","25.0298283333333","6500500","新莊區"
"242011","346-TH","2017/08/28 17:59:23","新北市新莊區中港路中慶巷22號","121.449948333333","25.053845","6500500","新莊區"
"242017","348-TH","2017/08/28 17:59:26","新北市新莊區永樂街124號","121.449675","25.04494","6500500","新莊區"
"242015","350-TH","2017/08/28 17:59:17","新北市新莊區中平路87巷10號","121.444118333333","25.04583","6500500","新莊區"
"242009","351-TH","2017/08/28 17:59:28","新北市新莊區昌平街41巷12號","121.45399","25.0525316666667","6500500","新莊區"
"238015","755-BX","2017/08/28 17:59:16","新北市樹林區啟智街80巷16號","121.418821666667","24.9924566666667","6500700","樹林區"
"238023","601-UM","2017/08/28 17:59:19","新北市樹林區龍興街32巷13號","121.40243","25.0156716666667","6500700","樹林區"
"238019","599-UM","2017/08/28 17:59:21","新北市樹林區太平路273巷23號","121.421086666667","24.976195","6500700","樹林區"
"238018","571-TV","2017/08/28 17:59:25","新北市樹林區樹新路98號","121.429443333333","24.9975816666667","6500700","樹林區"
"238022","312-TH","2017/08/28 17:59:22","新北市樹林區太順街86-2號","121.417146666667","24.9787533333333","6500700","樹林區"
"238021","311-TH","2017/08/28 17:59:18","新北市樹林區柑園街一段67-1號","121.402301666667","24.9602066666667","6500700","樹林區"
"238012","303-VK","2017/08/28 17:59:23","新北市樹林區俊興街209-6號","121.417511666667","25.0146116666667","6500700","樹林區"
"238017","283-BY","2017/08/28 17:59:16","新北市樹林區三德街45號","121.416121666667","25.0138433333333","6500700","樹林區"
"238001","282-BY","2017/08/28 17:59:21","新北市樹林區保安街一段241-1號","121.42006","24.9966066666667","6500700","樹林區"
"238020","268-VK","2017/08/28 16:09:06","新北市樹林區環河路2-2號","121.425231666667","24.97727","6500700","樹林區"
"238026","172-UY","2017/08/28 17:59:18","新北市樹林區中洲街30巷4號","121.397361666667","24.9716133333333","6500700","樹林區"
"238016","169-UY","2017/08/28 17:59:27","新北市樹林區復興路284號","121.417876666667","24.9879533333333","6500700","樹林區"
"239007","AAC-297","2017/08/28 17:59:30","新北市鶯歌區永樂街22號","121.342011666667","24.95344","6500800","鶯歌區"
"239006","891-R6","2017/08/28 17:59:27","新北市鶯歌區鶯桃路413巷52號","121.33015","24.963205","6500800","鶯歌區"
"239008","527-UM","2017/08/28 17:59:16","新北市鶯歌區朝陽街50巷9號","121.337193333333","24.9782333333333","6500800","鶯歌區"
"239005","526-UM","2017/08/28 17:59:17","新北市鶯歌區鶯桃路668巷73號","121.329895","24.97178","6500800","鶯歌區"
"239001","417-VK","2017/08/28 17:59:13","新北市鶯歌區中正三路171號","121.3362","24.9398633333333","6500800","鶯歌區"
"239003","360-BY","2017/08/28 17:59:19","新北市鶯歌區鶯桃路213-1號","121.336846666667","24.9588366666667","6500800","鶯歌區"
"239002","359-BY","2017/08/28 17:59:25","新北市鶯歌區中山路249巷10號","121.34681","24.9565416666667","6500800","鶯歌區"
"239004","193-VK","2017/08/28 17:59:16","新北市鶯歌區文化路393巷6弄2號","121.352721666667","24.9510166666667","6500800","鶯歌區"
"221036","130-UY","2017/08/28 17:59:30","新北市汐止區大同路三段40號","121.667248333333","25.0766033333333","6501100","汐止區"
"221015","131-UY","2017/08/28 17:59:24","新北市汐止區長江街244號","121.66318","25.0792733333333","6501100","汐止區"
"221010","269-BY","2017/08/28 17:59:13","新北市汐止區汐萬路二段122巷40號","121.648405","25.0867866666667","6501100","汐止區"
"221031","277-VK","2017/08/28 17:59:10","新北市汐止區中興路96巷1-3號","121.635253333333","25.0625633333333","6501100","汐止區"
"221012","278-VK","2017/08/28 17:59:29","新北市汐止區保長路1號","121.671193333333","25.0801","6501100","汐止區"
"221023","279-VK","2017/08/28 17:59:23","新北市汐止區明峰街162號","121.629205","25.070615","6501100","汐止區"
"221032","280-BY","2017/08/28 17:59:30","新北市汐止區橫科路61號","121.618638333333","25.05088","6501100","汐止區"
"221027","281-BY","2017/08/28 17:59:25","新北市汐止區汐萬路一段18號","121.656038333333","25.0675","6501100","汐止區"
"221038","297-VK","2017/08/28 17:59:26","新北市汐止區大同路二段184巷11號","121.653466666667","25.0636483333333","6501100","汐止區"
"221029","298-VK","2017/08/28 17:59:22","新北市汐止區樟樹二路339巷6弄3-1號","121.641441666667","25.0707383333333","6501100","汐止區"
"221021","299-VK","2017/08/28 17:59:18","新北市汐止區新興路14號","121.656371666667","25.064715","6501100","汐止區"
"221008","358-BY","2017/08/28 17:59:17","新北市汐止區明峰街13號","121.635048333333","25.071415","6501100","汐止區"
"221035","622-UM","2017/08/28 17:59:14","新北市汐止區汐萬路一段115巷30號","121.65359","25.0704366666667","6501100","汐止區"
"221025","623-UM","2017/08/28 17:59:27","新北市汐止區仁愛路16號","121.659693333333","25.0631333333333","6501100","汐止區"
"221033","647-BX","2017/08/28 17:59:22","新北市汐止區合順街33號","121.620518333333","25.0432416666667","6501100","汐止區"
"221002","707-TV","2017/08/28 17:59:27","新北市汐止區工建路100號","121.639561666667","25.0639266666667","6501100","汐止區"
"221018","753-BX","2017/08/28 17:59:15","新北市汐止區招商街11巷1號","121.666521666667","25.0689016666667","6501100","汐止區"
"242001","281-VK","2017/08/28 16:43:42","新北市新莊區環河路636-7號","121.437376666667","25.0112416666667","6500500","新莊區"
"242044","280-VK","2017/08/28 17:59:20","新北市新莊區雙鳳路80號","121.415018333333","25.027655","6500500","新莊區"
