"lineid","car","time","location","longitude","latitude","cityid","cityname"
"234046","148-BY","2017/08/28 18:58:53","新北市永和區秀朗路二段176巷25號","121.525921666667","25.0003733333333","6500400","永和區"
"234013","149-BY","2017/08/28 18:58:53","新北市永和區信義路17巷10-1號","121.51377","25.011575","6500400","永和區"
"234007","207-UY","2017/08/28 18:59:04","新北市永和區中山路一段36號","121.513511666667","25.0106066666667","6500400","永和區"
"234081","298-R6","2017/08/28 18:58:48","新北市永和區永貞路35號","121.520993333333","25.006535","6500400","永和區"
"234038","336-UY","2017/08/28 18:59:05","新北市永和區民樂街100巷1號","121.527275","24.996665","6500400","永和區"
"234064","337-UY","2017/08/28 18:58:53","新北市永和區秀朗路一段156號","121.518365","25.00339","6500400","永和區"
"234086","338-UY","2017/08/28 18:58:55","新北市永和區中正路560號","121.517101666667","25.005815","6500400","永和區"
"234070","552-UM","2017/08/28 18:59:00","新北市永和區豫溪街95巷10弄1號","121.51807","25.0107866666667","6500400","永和區"
"234054","553-UM","2017/08/28 18:58:53","新北市永和區竹林路64號","121.518271666667","25.013475","6500400","永和區"
"234017","745-BX","2017/08/28 18:59:05","新北市永和區永和路二段298號","121.516183333333","25.0157216666667","6500400","永和區"
"234061","AAD-866","2017/08/28 18:59:04","新北市永和區福和路311號","121.51611","25.0070883333333","6500400","永和區"
"234030","847-RS","2017/08/28 18:58:56","新北市永和區四維街36號","121.525533333333","24.998095","6500400","永和區"
"234042","862-TW","2017/08/28 18:58:56","新北市永和區永貞路306號","121.511918333333","25.0048616666667","6500400","永和區"
"234050","863-TW","2017/08/28 18:57:58","新北市永和區環河西路二段3巷15號","121.51028","25.0171566666667","6500400","永和區"
"234026","9371-KE","2017/08/28 18:59:05","新北市永和區福和路352號","121.514875","25.0072833333333","6500400","永和區"
"234011","9373-KE","2017/08/28 18:58:52","新北市永和區文化路103號","121.513008333333","25.0152266666667","6500400","永和區"
"249005","172-UM","2017/08/28 18:59:03","新北市八里區長道坑11號","121.395456666667","25.1216166666667","6502300","八里區"
"249001","173-UM","2017/08/28 18:59:03","新北市八里區龍米路二段228-1號","121.432756666667","25.1584633333333","6502300","八里區"
"249004","303-UY","2017/08/28 18:59:06","新北市八里區挖子尾街16號","121.41537","25.1643933333333","6502300","八里區"
"248016","026-BX","2017/08/28 18:58:51","新北市五股區成泰路三段543巷18號","121.450941666667","25.1023333333333","6501500","五股區"
"248006","077-UY","2017/08/28 18:59:05","新北市五股區中興路一段56號","121.467823333333","25.07265","6501500","五股區"
"248008","095-VK","2017/08/28 18:58:56","新北市五股區中興路一段118巷6弄4號","121.466273333333","25.0742133333333","6501500","五股區"
"248018","225-UY","2017/08/28 18:58:53","新北市五股區民義路一段328巷12號","121.422543333333","25.0978433333333","6501500","五股區"
"248012","247-BX","2017/08/28 18:58:49","新北市五股區工商路38號","121.43941","25.0837316666667","6501500","五股區"
"248014","261-SL","2017/08/28 18:58:54","新北市五股區民義路一段107巷23號","121.432191666667","25.0844733333333","6501500","五股區"
"248010","272-BY","2017/08/28 18:58:58","新北市五股區水碓一路23號","121.430581666667","25.0713066666667","6501500","五股區"
"248004","677-BX","2017/08/28 18:58:54","新北市五股區民義路一段218號","121.429466666667","25.0901733333333","6501500","五股區"
"248002","678-BX","2017/08/28 18:58:50","新北市五股區天乙路3-1號","121.448236666667","25.1028383333333","6501500","五股區"
"234023","9380-KE","2017/08/28 18:59:02","新北市永和區竹林路75巷47號","121.520893333333","25.0144283333333","6500400","永和區"
"234077","969-R7","2017/08/28 18:58:47","新北市永和區民治街82號","121.51745","24.9983533333333","6500400","永和區"
"234074","AAC-211","2017/08/28 18:59:05","新北市永和區環河東路二段98號","121.524126666667","25.0103483333333","6500400","永和區"
"234067","AAC-212","2017/08/28 18:58:55","新北市永和區中和路625號","121.512956666667","25.004905","6500400","永和區"
"234003","AAC-295","2017/08/28 18:58:57","新北市永和區和平街28號","121.513346666667","25.0099333333333","6500400","永和區"
"232011","375-UM","2017/08/28 18:58:58","新北市坪林區坪林街10號","121.711786666667","24.9359583333333","6502000","坪林區"
"244019","403-UM","2017/08/28 18:59:00","新北市林口區麗園二街36巷1號","121.38043","25.0691266666667","6501700","林口區"
"244009","410-SL","2017/08/28 18:58:51","新北市林口區竹林路358巷17號","121.392638333333","25.0840516666667","6501700","林口區"
"244017","656-BX","2017/08/28 18:58:49","新北市林口區文化二路一段68巷24-5號","121.36707","25.0687566666667","6501700","林口區"
"244023","657-BX","2017/08/28 18:59:00","新北市林口區文化北路二段8-1號","121.37014","25.0812733333333","6501700","林口區"
"244013","658-BX","2017/08/28 18:58:54","新北市林口區麗園一街6巷2-3號","121.376503333333","25.069925","6501700","林口區"
"244011","701-TV","2017/08/28 18:58:48","新北市林口區中正路276號","121.389145","25.07775","6501700","林口區"
"244025","837-TS","2017/08/28 18:58:59","新北市林口區文化北路一段542巷55弄27號","121.369146666667","25.0793433333333","6501700","林口區"
"243013","AAD-798","2017/08/28 18:59:02","新北市泰山區明志路三段206巷13號","121.423113333333","25.037645","6501600","泰山區"
"243009","297-R6","2017/08/28 18:59:09","新北市泰山區泰林路二段370號","121.428476666667","25.0637466666667","6501600","泰山區"
"243015","380-SR","2017/08/28 18:58:59","新北市泰山區泰林路二段256號","121.431956666667","25.0622566666667","6501600","泰山區"
"243014","421-VK","2017/08/28 18:58:54","新北市泰山區黎明路3號","121.42122","25.0633616666667","6501600","泰山區"
"243010","548-UM","2017/08/28 18:58:55","新北市泰山區辭修路24號","121.429018333333","25.0581733333333","6501600","泰山區"
"243011","549-UM","2017/08/28 18:58:55","新北市泰山區明志路二段246-1號","121.427035","25.0481183333333","6501600","泰山區"
"243012","646-TV","2017/08/28 18:59:07","新北市泰山區仁德路106號","121.432606666667","25.05688","6501600","泰山區"
"243016","680-BX","2017/08/28 18:58:58","新北市泰山區明志路二段135號","121.427686666667","25.0507583333333","6501600","泰山區"
"222003","436-BY","2017/08/28 18:59:05","新北市深坑區深南路51-1號","121.62131","25.0101566666667","6501800","深坑區"
"222001","628-TS","2017/08/28 18:59:03","新北市深坑區北深路一段240號","121.62989","25.0087933333333","6501800","深坑區"
"222002","659-BX","2017/08/28 18:59:05","新北市深坑區文山路一段35號","121.627948333333","25.0026383333333","6501800","深坑區"
"231059","001-UM","2017/08/28 18:59:00","新北市新店區安康路一段355號","121.51979","24.9628883333333","6500600","新店區"
"231041","002-UM","2017/08/28 18:59:03","新北市新店區環河路62號","121.53711","24.96267","6500600","新店區"
"231060","106-UY","2017/08/28 18:58:58","新北市新店區安豐路22巷18-1號","121.502006666667","24.9544566666667","6500600","新店區"
"231051","107-UY","2017/08/28 18:59:03","新北市新店區中正路373號","121.534868333333","24.9765883333333","6500600","新店區"
"231047","108-UY","2017/08/28 18:58:54","新北市新店區德正街27巷29弄21號","121.545758333333","24.97196","6500600","新店區"
"231052","187-VK","2017/08/28 18:59:04","新北市新店區屈尺路6號","121.54941","24.9232033333333","6500600","新店區"
"231046","278-BY","2017/08/28 18:59:03","新北市新店區直潭八街23號","121.533466666667","24.9394583333333","6500600","新店區"
"231050","AAD-862","2017/08/28 18:58:54","新北市新店區北宜路一段189號","121.547158333333","24.9523666666667","6500600","新店區"
"231061","355-BY","2017/08/28 18:58:58","新北市新店區安康路一段355-4號","121.517471666667","24.9638566666667","6500600","新店區"
"231058","3712-VJ","2017/08/28 18:58:53","新北市新店區中興路一段208號","121.543708333333","24.965585","6500600","新店區"
"231055","3713-VJ","2017/08/28 18:59:00","新北市新店區新生街13巷20號","121.539098333333","24.9661483333333","6500600","新店區"
"231056","4716-K9","2017/08/28 18:59:05","新北市新店區大同街8巷2號","121.539735","24.9801433333333","6500600","新店區"
"231067","4772-VM","2017/08/28 18:58:57","新北市新店區安康路一段263巷38號","121.523925","24.9617966666667","6500600","新店區"
"231065","512-UM","2017/08/28 18:58:46","新北市新店區安祥路147巷10號","121.47537","24.9557716666667","6500600","新店區"
"231054","513-UM","2017/08/28 18:58:55","新北市新店區新店路13號","121.540285","24.9529183333333","6500600","新店區"
"231064","515-UM","2017/08/28 18:59:02","新北市新店區安華路8號","121.519878333333","24.96265","6500600","新店區"
"231042","616-UM","2017/08/28 18:59:03","新北市新店區中興路一段285-2號","121.545473333333","24.968675","6500600","新店區"
"231040","619-UM","2017/08/28 18:58:55","新北市新店區中正路402號","121.534565","24.9774083333333","6500600","新店區"
"231063","645-TV","2017/08/28 18:58:55","新北市新店區車子路109號","121.505228333333","24.95215","6500600","新店區"
"231049","719-UM","2017/08/28 18:58:59","新北市新店區中正路454-5號","121.534525","24.9790433333333","6500600","新店區"
"231062","720-UM","2017/08/28 18:58:48","新北市新店區柴埕路52巷1-1號","121.511921666667","24.9643583333333","6500600","新店區"
"231044","897-TW","2017/08/28 18:58:49","新北市新店區寶中路72號","121.547836666667","24.9805783333333","6500600","新店區"
"231045","898-TW","2017/08/28 18:58:45","新北市新店區光明街51號","121.538535","24.9602166666667","6500600","新店區"
"231043","899-TW","2017/08/28 18:59:00","新北市新店區北新路二段18號","121.542773333333","24.9712516666667","6500600","新店區"
"231066","AKT-0513","2017/08/28 18:58:53","新北市新店區安祥路78號","121.489391666667","24.9586916666667","6500600","新店區"
"241035","462-BY","2017/08/28 18:59:06","新北市三重區重新路四段121號","121.48497","25.0519616666667","6500200","三重區"
"235066","003-UY","2017/08/28 18:59:04","新北市中和區中山路二段131巷5弄5號","121.502896666667","25.0028983333333","6500300","中和區"
"235063","006-UY","2017/08/28 18:58:57","新北市中和區錦和路216號","121.490346666667","24.99425","6500300","中和區"
"235064","031-BX","2017/08/28 18:58:56","新北市中和區連城路109巷38號","121.497176666667","24.9980016666667","6500300","中和區"
"235056","096-UM","2017/08/28 18:59:03","新北市中和區新民街12-3號","121.481911666667","25.0074016666667","6500300","中和區"
"235039","097-UM","2017/08/28 18:59:00","新北市中和區宜安路52巷21號","121.5126","24.9974533333333","6500300","中和區"
"235040","150-BY","2017/08/28 18:59:06","新北市中和區安樂路83號","121.512675","24.9944866666667","6500300","中和區"
"235058","151-BY","2017/08/28 18:58:46","新北市中和區連城路532號","121.475633333333","24.991645","6500300","中和區"
"235055","183-VK","2017/08/28 03:52:41","新北市中和區員山路36巷16-3號","121.485125","24.9913816666667","6500300","中和區"
"235038","185-VK","2017/08/28 18:59:00","新北市中和區大勇街43巷11號","121.5171","24.9945616666667","6500300","中和區"
"235049","186-VK","2017/08/28 18:58:49","新北市中和區景安路177巷22號","121.506358333333","24.9942666666667","6500300","中和區"
"235067","255-BX","2017/08/28 18:58:51","新北市中和區中正路849巷1號","121.484676666667","25.0028116666667","6500300","中和區"
"235044","293-VK","2017/08/28 18:58:54","新北市中和區復興路348號","121.50001","24.990455","6500300","中和區"
"235072","301-VK","2017/08/28 18:58:59","新北市中和區中山路二段31號","121.504738333333","25.0052333333333","6500300","中和區"
"235043","352-BY","2017/08/28 18:58:56","新北市中和區秀朗路三段95號","121.52667","24.9951016666667","6500300","中和區"
"235051","376-QA","2017/08/28 18:59:03","新北市中和區忠孝街11巷6號","121.509943333333","24.9831216666667","6500300","中和區"
"235068","377-QA","2017/08/28 18:59:05","新北市中和區中正路211巷13弄3號","121.497093333333","24.9930333333333","6500300","中和區"
"235061","378-QA","2017/08/28 18:58:34","新北市中和區民治街132巷1號","121.475281666667","25.0023416666667","6500300","中和區"
"235050","4979-A6","2017/08/28 18:59:05","新北市中和區華新街70-1號","121.508233333333","24.9837033333333","6500300","中和區"
"235069","4980-A6","2017/08/28 18:58:47","新北市中和區南山路52巷4號","121.501643333333","24.9974233333333","6500300","中和區"
"235042","551-UM","2017/08/28 18:59:03","新北市中和區秀朗路三段50巷8弄1號","121.524936666667","24.9952","6500300","中和區"
"235034","558-UM","2017/08/28 18:58:49","新北市中和區圓通路30號","121.501013333333","24.99795","6500300","中和區"
"235045","565-BX","2017/08/28 18:58:51","新北市中和區興南路一段12號","121.511451666667","24.9913016666667","6500300","中和區"
"235054","640-BX","2017/08/28 18:58:48","新北市中和區民享街35巷16號","121.474821666667","25.0040066666667","6500300","中和區"
"235060","647-TV","2017/08/28 18:59:08","新北市中和區中山路三段144號","121.473691666667","25.0063783333333","6500300","中和區"
"235047","732-UM","2017/08/28 18:58:59","新北市中和區興南路二段34巷25號","121.506128333333","24.9860833333333","6500300","中和區"
"235046","733-UM","2017/08/28 18:59:02","新北市中和區興南路一段107號","121.509338333333","24.98818","6500300","中和區"
"235062","800-TS","2017/08/28 18:58:51","新北市中和區中山路二段312巷20號","121.495235","25.0039583333333","6500300","中和區"
"235057","801-TS","2017/08/28 18:59:05","新北市中和區民利街14巷5弄20號","121.47979","24.999315","6500300","中和區"
"235041","802-TS","2017/08/28 18:59:00","新北市中和區中安街218號","121.511918333333","24.9989233333333","6500300","中和區"
"235052","805-TS","2017/08/28 18:59:04","新北市中和區興南路二段399巷38號","121.499235","24.9788916666667","6500300","中和區"
"235048","896-TW","2017/08/28 18:58:48","新北市中和區華新街93號","121.508721666667","24.9832133333333","6500300","中和區"
"235053","900-TW","2017/08/28 18:58:48","新北市中和區民德路298巷13號","121.466348333333","24.995535","6500300","中和區"
"235064","911-UM","2017/08/28 18:58:55","新北市中和區中山路二段2巷45弄7號","121.502183333333","25.0067833333333","6500300","中和區"
"235037","AAC-213","2017/08/28 18:59:07","新北市中和區自立路99巷32號","121.523776666667","24.9945933333333","6500300","中和區"
"235059","AAC-215","2017/08/28 18:58:54","新北市中和區圓通路367巷20弄23號","121.491475","24.9883516666667","6500300","中和區"
"220068","013-TV","2017/08/28 18:58:57","新北市板橋區中山路二段465巷46號","121.481233333333","25.0216283333333","6500100","板橋區"
"220065","072-UY","2017/08/28 18:58:53","新北市板橋區民族路247巷9弄8號","121.471211666667","25.0081766666667","6500100","板橋區"
"220086","073-UY","2017/08/28 18:59:03","新北市板橋區大智街36號","121.455171666667","25.0150566666667","6500100","板橋區"
"220106","075-UY","2017/08/28 18:58:46","新北市板橋區文化路二段80號","121.469391666667","25.0253433333333","6500100","板橋區"
"220069","AAD-861","2017/08/28 18:59:01","新北市板橋區大華街72號","121.459193333333","25.0057","6500100","板橋區"
"220102","120-SR","2017/08/28 18:58:59","新北市板橋區雙十路一段44巷36號","121.47714","25.02477","6500100","板橋區"
"226001","312-R5","2017/08/28 18:59:02","新北市平溪區平溪里平溪街46號","121.738098333333","25.0268833333333","6502400","平溪區"
"228003","097-TW","2017/08/28 18:59:07","新北市貢寮區和美里龍洞街56-3號","121.912408333333","25.1141783333333","6502600","貢寮區"
"228002","585-TW","2017/08/28 18:58:52","新北市貢寮區福隆里東興街106巷21弄2號","121.945943333333","25.017725","6502600","貢寮區"
"228001","670-TC","2017/08/28 18:59:03","新北市貢寮區仁理村研海街12-1號","121.923776666667","25.0517316666667","6502600","貢寮區"
"224006","676-BX","2017/08/28 18:58:57","新北市瑞芳區民權街6巷27號","121.806903333333","25.106725","6501200","瑞芳區"
"224009","285-BY","2017/08/28 18:58:55","新北市瑞芳區祈堂路53-1號","121.859645","25.110745","6501200","瑞芳區"
"224008","275-VK","2017/08/28 18:59:04","新北市瑞芳區逢甲路347-2號","121.79774","25.1137366666667","6501200","瑞芳區"
"224007","273-VK","2017/08/28 18:59:01","新北市瑞芳區中央路48巷124號","121.757915","25.1039466666667","6501200","瑞芳區"
"224005","271-BY","2017/08/28 18:58:55","新北市瑞芳區海濱路87-2號","121.830605","25.12255","6501200","瑞芳區"
"227001","642-TC","2017/08/28 18:58:53","新北市雙溪區平林里康福家園11號","121.85873","25.0374933333333","6502500","雙溪區"
"227008","400-TW","2017/08/28 18:59:06","新北市雙溪區牡丹里中正路58巷23號","121.866475","25.0416716666667","6502500","雙溪區"
"253006","032-BX","2017/08/28 18:58:49","新北市石門區下員坑30-7號","121.520013333333","25.2824366666667","6502200","石門區"
"253005","295-VK","2017/08/28 18:59:07","新北市石門區中山路35號","121.566886666667","25.291085","6502200","石門區"
"208002","742-BX","2017/08/28 18:58:48","新北市金山區信義路37號","121.63545","25.2196216666667","6502700","金山區"
"208003","665-BX","2017/08/28 18:58:54","新北市金山區中正路20號","121.635956666667","25.2222866666667","6502700","金山區"
"208001","761-BX","2017/08/28 18:59:04","新北市金山區中山路111號","121.63956","25.2195116666667","6502700","金山區"
"251009","008-UM","2017/08/28 18:58:54","新北市淡水區重建街38號","121.439941666667","25.1713166666667","6501000","淡水區"
"251013","182-VK","2017/08/28 18:58:57","新北市三芝區興華里楓子林64號","121.492563333333","25.21213","6501000","淡水區"
"251010","413-VK","2017/08/28 18:58:59","新北市淡水區中正路二段22巷43號","121.421348333333","25.182445","6501000","淡水區"
"251012","441-VK","2017/08/28 18:58:58","新北市淡水區新興街118號","121.439065","25.181055","6501000","淡水區"
"251015","442-VK","2017/08/28 18:58:49","新北市淡水區糞箕湖60號","121.485226666667","25.172325","6501000","淡水區"
"251001","559-UM","2017/08/28 18:59:02","新北市淡水區自強路58號","121.463183333333","25.1274883333333","6501000","淡水區"
"251002","672-BX","2017/08/28 18:59:01","新北市淡水區中正東路71號","121.447238333333","25.16757","6501000","淡水區"
"251003","766-UM","2017/08/28 18:58:49","新北市淡水區中山北路一段149巷31號","121.443015","25.1779383333333","6501000","淡水區"
"207003","550-UM","2017/08/28 18:59:02","新北市萬里區大鵬里頂社24號","121.657285","25.21043","6502800","萬里區"
"207004","225-TW","2017/08/28 18:58:49","新北市萬里區萬里里獅頭路23號","121.69322","25.17827","6502800","萬里區"
"252002","178-VK","2017/08/28 18:58:46","新北市三芝區中正路一段82號","121.504131666667","25.2572883333333","6502100","三芝區"
"252003","249-BX","2017/08/28 18:58:53","新北市三芝區後厝里土地公坑56號","121.462993333333","25.2483833333333","6502100","三芝區"
"252001","292-VK","2017/08/28 18:59:03","新北市三芝區中興街二段260號","121.501731666667","25.2530816666667","6502100","三芝區"
"237004","078-UY","2017/08/28 18:58:48","新北市三峽區有木130-1號","121.435853333333","24.8565916666667","6500900","三峽區"
"237007","153-BY","2017/08/28 18:59:01","新北市三峽區大埔路87號","121.366493333333","24.90736","6500900","三峽區"
"237013","252-BX","2017/08/28 18:58:57","新北市三峽區光明路69巷25號","121.376721666667","24.92923","6500900","三峽區"
"237012","275-BY","2017/08/28 18:58:57","新北市樹林區佳園路三段548號","121.38072","24.9439533333333","6500900","三峽區"
"237008","302-VK","2017/08/28 18:58:59","新北市三峽區中正路一段219號","121.372165","24.927365","6500900","三峽區"
"237014","433-BY","2017/08/28 18:59:01","新北市三峽區隆恩街243號","121.357776666667","24.9411116666667","6500900","三峽區"
"237006","5529-G3","2017/08/28 18:58:51","新北市三峽區溪東路233巷47弄2號","121.410608333333","24.9346466666667","6500900","三峽區"
"237011","572-TV","2017/08/28 18:58:53","新北市三峽區介壽路三段155號","121.4006","24.94306","6500900","三峽區"
"237015","649-BX","2017/08/28 18:58:50","新北市三峽區建安118號","121.466091666667","24.9176616666667","6500900","三峽區"
"237010","706-TV","2017/08/28 18:59:05","新北市三峽區復興路174巷4號","121.370713333333","24.9389983333333","6500900","三峽區"
"237005","AKY-6261","2017/08/28 18:58:59","新北市三峽區中山路459巷163-3號","121.348668333333","24.9329183333333","6500900","三峽區"
"236069","105-UM","2017/08/28 18:58:55","新北市土城區青雲路107-1號","121.45904","24.9853116666667","6501300","土城區"
"236042","107-UM","2017/08/28 18:59:01","新北市土城區學府路一段256巷4弄2號","121.45089","24.9848866666667","6501300","土城區"
"236078","166-UM","2017/08/28 18:58:54","新北市土城區中央路四段121號","121.416373333333","24.9574666666667","6501300","土城區"
"236030","253-BX","2017/08/28 18:59:04","新北市土城區興城路79號","121.439976666667","24.9707283333333","6501300","土城區"
"236026","269-VK","2017/08/28 18:58:56","新北市土城區中央路二段237號","121.440265","24.9720616666667","6501300","土城區"
"236014","270-VK","2017/08/28 18:58:58","新北市土城區立德路34號","121.463225","24.987365","6501300","土城區"
"236036","271-VK","2017/08/28 18:58:59","新北市土城區明德路一段196巷17號","121.461438333333","24.9785183333333","6501300","土城區"
"236020","401-BY","2017/08/28 18:58:58","新北市土城區明峰街50號","121.467768333333","24.9864816666667","6501300","土城區"
"236058","912-UM","2017/08/28 18:59:03","新北市土城區金城路二段52-1號","121.451801666667","24.9793","6501300","土城區"
"236048","913-UM","2017/08/28 18:58:59","新北市土城區青雲路315號","121.45895","24.9789333333333","6501300","土城區"
"236062","915-UM","2017/08/28 18:58:56","新北市土城區延和路41巷6弄16號","121.466678333333","24.9902666666667","6501300","土城區"
"236047","970-R7","2017/08/28 16:28:53","新北市土城區城林路6巷80號","121.438708333333","24.9796866666667","6501300","土城區"
"236053","AAC-216","2017/08/28 18:58:52","新北市土城區裕民路137-1號","121.451605","24.9864133333333","6501300","土城區"
"238023","601-UM","2017/08/28 18:58:58","新北市樹林區工興街14巷1號","121.398936666667","25.0136566666667","6500700","樹林區"
"238019","599-UM","2017/08/28 18:59:01","新北市樹林區東榮街91巷2弄15號","121.415521666667","24.9819633333333","6500700","樹林區"
"238018","571-TV","2017/08/28 18:59:05","新北市樹林區太元街2巷7號","121.417158333333","24.98091","6500700","樹林區"
"238022","312-TH","2017/08/28 18:58:54","新北市樹林區東順街57巷6號","121.411571666667","24.9771333333333","6500700","樹林區"
"238021","311-TH","2017/08/28 18:59:04","新北市樹林區西圳街二段56號","121.38702","24.959985","6500700","樹林區"
"238012","303-VK","2017/08/28 18:59:03","新北市樹林區中山路三段128號","121.392135","24.9721766666667","6500700","樹林區"
"238001","282-BY","2017/08/28 18:59:01","新北市樹林區潭興街143巷18號","121.425161666667","25.0000116666667","6500700","樹林區"
"238020","268-VK","2017/08/28 16:09:06","新北市樹林區環河路2-2號","121.425231666667","24.97727","6500700","樹林區"
"238026","172-UY","2017/08/28 18:58:58","新北市樹林區德和街26巷2號","121.39166","24.97561","6500700","樹林區"
"238016","169-UY","2017/08/28 18:59:07","新北市樹林區文化街28號","121.419301666667","24.9876666666667","6500700","樹林區"
"239007","AAC-297","2017/08/28 18:58:50","新北市鶯歌區中正一路345巷24號","121.357571666667","24.9573416666667","6500800","鶯歌區"
"239006","891-R6","2017/08/28 18:59:07","新北市鶯歌區鶯桃路296巷74號","121.336621666667","24.9616966666667","6500800","鶯歌區"
"239008","527-UM","2017/08/28 18:58:56","新北市鶯歌區國際二路38號","121.335813333333","24.9754183333333","6500800","鶯歌區"
"239005","526-UM","2017/08/28 18:58:57","新北市鶯歌區大湖路361巷22號","121.330361666667","24.9781533333333","6500800","鶯歌區"
"239001","417-VK","2017/08/28 18:58:53","新北市鶯歌區陽明街1號","121.341423333333","24.9565083333333","6500800","鶯歌區"
"239003","360-BY","2017/08/28 18:58:59","新北市鶯歌區鶯桃路417號","121.332883333333","24.9645816666667","6500800","鶯歌區"
"239004","193-VK","2017/08/28 18:58:55","新北市鶯歌區尖山路281號","121.341415","24.9438733333333","6500800","鶯歌區"
"221036","130-UY","2017/08/28 18:58:50","新北市汐止區南昌街27號","121.663165","25.0692633333333","6501100","汐止區"
"221015","131-UY","2017/08/28 18:59:03","新北市汐止區鄉長路一段55巷17號","121.66482","25.0762883333333","6501100","汐止區"
"221010","269-BY","2017/08/28 18:58:53","新北市汐止區汐萬路一段256巷3號","121.652573333333","25.074585","6501100","汐止區"
"221031","277-VK","2017/08/28 18:58:50","新北市汐止區福德一路300巷49號","121.630228333333","25.0646016666667","6501100","汐止區"
"221012","278-VK","2017/08/28 18:58:49","新北市汐止區康寧街901號","121.650873333333","25.0752516666667","6501100","汐止區"
"221023","279-VK","2017/08/28 18:59:02","新北市汐止區康寧街901號","121.650995","25.07525","6501100","汐止區"
"221032","280-BY","2017/08/28 18:58:59","新北市汐止區橫科路407巷30弄28號","121.627301666667","25.0483016666667","6501100","汐止區"
"221027","281-BY","2017/08/28 18:52:26","新北市汐止區康寧街901號","121.65091","25.075285","6501100","汐止區"
"221038","297-VK","2017/08/28 18:59:06","新北市汐止區汐萬路一段312號","121.650668333333","25.07533","6501100","汐止區"
"221029","298-VK","2017/08/28 18:59:02","新北市汐止區樟樹一路230號","121.642295","25.0667283333333","6501100","汐止區"
"221021","299-VK","2017/08/28 18:58:58","新北市汐止區康寧街901號","121.651333333333","25.0750466666667","6501100","汐止區"
"221008","358-BY","2017/08/28 18:58:57","新北市汐止區汐萬路一段329號","121.64998","25.0757116666667","6501100","汐止區"
"221035","622-UM","2017/08/28 18:58:54","新北市汐止區汐萬路一段256巷3號","121.653321666667","25.0746633333333","6501100","汐止區"
"221025","623-UM","2017/08/28 18:58:47","新北市汐止區康寧街901號","121.651428333333","25.0750416666667","6501100","汐止區"
"221033","647-BX","2017/08/28 18:59:02","新北市汐止區南勢街1巷1號","121.627","25.0374683333333","6501100","汐止區"
"221002","707-TV","2017/08/28 18:59:07","新北市汐止區大同路一段2號","121.620996666667","25.055065","6501100","汐止區"
"221018","753-BX","2017/08/28 18:58:55","新北市汐止區汐萬路一段39-3號","121.65503","25.0693366666667","6501100","汐止區"
"220079","145-BY","2017/08/28 18:58:53","新北市板橋區民權路202巷10弄1號","121.460443333333","25.0154183333333","6500100","板橋區"
"220080","200-UY","2017/08/28 18:59:06","新北市板橋區大觀路二段265巷3弄45號","121.4448","24.997855","6500100","板橋區"
"220082","610-BX","2017/08/28 18:59:05","新北市板橋區溪崑一街117號","121.429235","24.988145","6500100","板橋區"
"220101","245-BX","2017/08/28 18:58:53","新北市板橋區文化路一段360號","121.468548333333","25.0236566666667","6500100","板橋區"
"220075","256-TC","2017/08/28 18:59:02","新北市板橋區茶館街27號","121.456368333333","25.010515","6500100","板橋區"
"220056","276-BY","2017/08/28 18:59:01","新北市板橋區四川路二段14號","121.456101666667","24.996135","6500100","板橋區"
"220072","277-BY","2017/08/28 18:58:59","新北市樹林區樹新路106巷1號","121.430013333333","24.99777","6500100","板橋區"
"220094","283-UM","2017/08/28 18:58:53","新北市板橋區莒光路16巷11號","121.46953","25.0241083333333","6500100","板橋區"
"220071","283-VK","2017/08/28 18:58:47","新北市板橋區實踐路132號","121.464483333333","25.0026883333333","6500100","板橋區"
"220053","285-VK","2017/08/28 18:59:02","新北市板橋區中山路二段89巷1弄2-2號","121.473868333333","25.0164733333333","6500100","板橋區"
"220081","287-VK","2017/08/28 18:46:47","新北市板橋區大觀路一段30號","121.448573333333","25.00838","6500100","板橋區"
"220090","288-VK","2017/08/28 18:58:56","新北市板橋區四維路132號","121.465245","25.02524","6500100","板橋區"
"220061","293-UM","2017/08/28 18:59:08","新北市板橋區富山街109巷28弄8號","121.475745","25.021555","6500100","板橋區"
"220084","296-UM","2017/08/28 18:58:48","新北市板橋區大觀路二段156巷63號","121.441236666667","25.0002916666667","6500100","板橋區"
"242001","281-VK","2017/08/28 16:43:42","新北市新莊區環河路636-7號","121.437376666667","25.0112416666667","6500500","新莊區"
"220062","303-R5","2017/08/28 18:58:47","新北市板橋區三民路二段228號","121.478725","25.0112483333333","6500100","板橋區"
"220092","307-R5","2017/08/28 18:59:02","新北市板橋區板新路235號","121.4677","25.0160483333333","6500100","板橋區"
"220098","317-R6","2017/08/28 18:58:51","新北市板橋區民有街12號","121.46638","25.0247433333333","6500100","板橋區"
"220064","486-VK","2017/08/28 18:58:55","新北市板橋區中山路一段256號","121.47149","25.01465","6500100","板橋區"
"220089","487-VK","2017/08/28 18:59:03","新北市板橋區文化路二段119號","121.469835","25.026395","6500100","板橋區"
"242044","280-VK","2017/08/28 18:59:00","新北市新莊區三和路12-21號","121.442006666667","25.038305","6500500","新莊區"
"220088","491-VK","2017/08/28 18:59:03","新北市板橋區民生路二段148號","121.471196666667","25.0197016666667","6500100","板橋區"
"220035","560-BX","2017/08/28 18:59:08","新北市板橋區中正路273號","121.45555","25.0188283333333","6500100","板橋區"
"220103","561-BX","2017/08/28 18:58:58","新北市板橋區民生路二段123號","121.470665","25.0186416666667","6500100","板橋區"
"220063","609-BX","2017/08/28 18:59:00","新北市板橋區中山路二段165號","121.475898333333","25.0167366666667","6500100","板橋區"
"220083","630-UY","2017/08/28 18:59:01","新北市板橋區大觀路一段38巷156弄96號","121.443173333333","25.0069883333333","6500100","板橋區"
"220091","637-BX","2017/08/28 18:58:52","新北市板橋區萬板路165號","121.474156666667","25.0235166666667","6500100","板橋區"
"220057","686-BX","2017/08/28 18:58:50","新北市板橋區民權路45號","121.462118333333","25.0112833333333","6500100","板橋區"
"220077","687-BX","2017/08/28 18:58:48","新北市板橋區龍興街48號","121.44322","25.000925","6500100","板橋區"
"220093","689-BX","2017/08/28 18:59:05","新北市板橋區民生路三段64號","121.467035","25.0254433333333","6500100","板橋區"
"220054","741-BX","2017/08/28 18:58:48","新北市板橋區中山路一段2號","121.459768333333","25.007635","6500100","板橋區"
"220055","827-TW","2017/08/28 18:58:50","新北市板橋區中山路一段183號","121.468045","25.0130633333333","6500100","板橋區"
"220067","829-TW","2017/08/28 18:58:53","新北市板橋區三民路二段正隆巷12弄8號","121.47801","25.0131733333333","6500100","板橋區"
"220096","831-TW","2017/08/28 18:58:53","新北市板橋區莊敬路167號","121.47101","25.0239116666667","6500100","板橋區"
"220074","895-R6","2017/08/28 18:59:02","新北市板橋區林園街7-1號","121.453955","25.0091233333333","6500100","板橋區"
"220073","985-R7","2017/08/28 18:59:01","新北市板橋區中正路159巷2號","121.456583333333","25.01613","6500100","板橋區"
"220097","AAC-210","2017/08/28 18:59:02","新北市板橋區四維路133號","121.464956666667","25.0252383333333","6500100","板橋區"
"220070","AAC-253","2017/08/28 18:58:57","新北市板橋區中山路一段152號","121.464225","25.0112666666667","6500100","板橋區"
