"lineid","car","time","location","longitude","latitude","cityid","cityname"
"234064","337-UY","2017/08/28 20:49:33","新北市永和區福和路1號","121.526535","25.0100033333333","6500400","永和區"
"234061","AAD-866","2017/08/28 20:49:23","新北市永和區秀朗路一段120號","121.517013333333","25.0034583333333","6500400","永和區"
"234030","847-RS","2017/08/28 20:49:32","新北市八里區荖阡坑路34號","121.402735","25.128455","6500400","永和區"
"249004","303-UY","2017/08/28 20:49:32","新北市八里區中山路一段63號","121.41837","25.1593883333333","6502300","八里區"
"222003","436-BY","2017/08/28 20:49:23","新北市深坑區阿柔洋40號","121.610295","24.9984716666667","6501800","深坑區"
"222001","628-TS","2017/08/28 20:49:23","新北市深坑區北深路三段133號","121.604006666667","25.0025383333333","6501800","深坑區"
"222002","659-BX","2017/08/28 20:49:25","新北市深坑區北深路三段93巷37號","121.604715","25.0003733333333","6501800","深坑區"
"231059","001-UM","2017/08/28 20:49:20","新北市新店區僑信路126巷22號","121.499495","24.9457133333333","6500600","新店區"
"231041","002-UM","2017/08/28 20:49:23","新北市新店區中正路669號","121.53391","24.9897933333333","6500600","新店區"
"231060","106-UY","2017/08/28 20:49:18","新北市新店區安康路三段738號","121.47385","24.94196","6500600","新店區"
"231051","107-UY","2017/08/28 20:49:28","新北市新店區中央六街84號","121.52664","24.9765816666667","6500600","新店區"
"231047","108-UY","2017/08/28 20:49:14","新北市新店區寶元路二段1巷2號","121.550716666667","24.9840983333333","6500600","新店區"
"231057","110-UY","2017/08/28 20:49:16","新北市新店區花園二路一段9-6號","121.55633","24.9329183333333","6500600","新店區"
"231052","187-VK","2017/08/28 20:49:24","新北市新店區新烏路二段7號","121.544213333333","24.9294566666667","6500600","新店區"
"231050","AAD-862","2017/08/28 20:49:14","新北市新店區中正路263巷2號","121.538456666667","24.973465","6500600","新店區"
"231061","355-BY","2017/08/28 20:49:17","新北市新店區新和街93巷12號","121.520775","24.9867516666667","6500600","新店區"
"231056","4716-K9","2017/08/28 20:49:25","新北市新店區中央七街61巷18號","121.528923333333","24.9760883333333","6500600","新店區"
"231065","512-UM","2017/08/28 20:49:26","新北市新店區安祥路104巷6弄36號","121.483073333333","24.9630366666667","6500600","新店區"
"231054","513-UM","2017/08/28 20:49:35","新北市新店區北新路一段96巷27號","121.54313","24.9693416666667","6500600","新店區"
"231064","515-UM","2017/08/28 20:49:21","新北市新店區安和路二段232號","121.516638333333","24.9772833333333","6500600","新店區"
"231042","616-UM","2017/08/28 20:49:22","新北市新店區寶高路116號","121.554511666667","24.9761083333333","6500600","新店區"
"231040","619-UM","2017/08/28 20:49:34","新北市新店區中正路274號","121.53888","24.97361","6500600","新店區"
"231063","645-TV","2017/08/28 20:49:15","新北市新店區富貴街9巷43號","121.495203333333","24.9487333333333","6500600","新店區"
"231068","718-UY","2017/08/28 20:49:17","新北市新店區寶元路二段16巷1號","121.546091666667","24.98232","6500600","新店區"
"231049","719-UM","2017/08/28 20:49:28","新北市新店區永業路81巷1弄1號","121.52963","24.9495133333333","6500600","新店區"
"231062","720-UM","2017/08/28 20:49:28","新北市新店區和成街15巷31號","121.488835","24.9472566666667","6500600","新店區"
"231044","897-TW","2017/08/28 20:49:29","新北市新店區建國路189號","121.53801","24.9797133333333","6500600","新店區"
"231045","898-TW","2017/08/28 20:49:25","新北市新店區新坡一街111號","121.547476666667","24.963765","6500600","新店區"
"231043","899-TW","2017/08/28 20:49:20","新北市新店區建國路31號","121.540256666667","24.9741466666667","6500600","新店區"
"231066","AKT-0513","2017/08/28 20:49:32","新北市新店區安興路112號","121.514576666667","24.9776483333333","6500600","新店區"
"241011","013-R5","2017/08/28 20:49:33","新北市三重區龍濱路207號","121.502055","25.0717283333333","6500200","三重區"
"241028","022-UY","2017/08/28 20:49:20","新北市三重區中正南路41巷1號","121.49383","25.05997","6500200","三重區"
"241009","060-VK","2017/08/28 20:49:32","新北市三重區三和路四段388-2號","121.482051666667","25.07917","6500200","三重區"
"241031","061-VK","2017/08/28 20:49:13","新北市三重區重陽路一段113巷2弄2號","121.487476666667","25.059955","6500200","三重區"
"241015","062-VK","2017/08/28 20:49:25","新北市三重區自強路一段8號","121.498868333333","25.0682383333333","6500200","三重區"
"241017","063-VK","2017/08/28 20:49:23","新北市三重區民生街60號","121.491268333333","25.0665733333333","6500200","三重區"
"241024","065-VK","2017/08/28 20:49:21","新北市三重區大勇街49號","121.481323333333","25.0719566666667","6500200","三重區"
"241026","066-VK","2017/08/28 20:49:30","新北市三重區文化南路3號","121.500023333333","25.0624133333333","6500200","三重區"
"241002","090-VK","2017/08/28 20:49:24","新北市三重區仁義街157巷46號","121.498066666667","25.081665","6500200","三重區"
"241003","091-VK","2017/08/28 20:49:20","新北市三重區五華街141巷58號","121.493556666667","25.086855","6500200","三重區"
"241029","156-TC","2017/08/28 20:49:27","新北市三重區重安街24號","121.490376666667","25.0579933333333","6500200","三重區"
"241005","262-UM","2017/08/28 20:49:16","新北市三重區五華街141巷58號","121.493475","25.0867483333333","6500200","三重區"
"241016","265-UM","2017/08/28 20:49:26","新北市三重區自強路一段91號","121.495976666667","25.0664866666667","6500200","三重區"
"241023","266-UM","2017/08/28 20:49:28","新北市三重區重陽路二段18巷6號","121.486448333333","25.0620666666667","6500200","三重區"
"241022","267-UM","2017/08/28 20:49:16","新北市三重區中正北路20巷12號","121.487971666667","25.0625216666667","6500200","三重區"
"241018","268-UM","2017/08/28 20:49:28","新北市三重區正義北路326號","121.494825","25.0705566666667","6500200","三重區"
"241032","269-UM","2017/08/28 20:49:34","新北市三重區興華街111號","121.483845","25.0603016666667","6500200","三重區"
"241013","270-UM","2017/08/28 20:49:23","新北市三重區仁賢街12-1號","121.495675","25.0748833333333","6500200","三重區"
"241025","271-UM","2017/08/28 20:49:32","新北市三重區貴陽街18-1號","121.484111666667","25.0619466666667","6500200","三重區"
"241007","398-BY","2017/08/28 20:49:15","新北市三重區慈愛街8號","121.48447","25.0784183333333","6500200","三重區"
"241020","413-TH","2017/08/28 20:49:34","新北市三重區忠孝路一段101號","121.489415","25.07221","6500200","三重區"
"241035","462-BY","2017/08/28 20:49:28","新北市三重區文化北路143號","121.497673333333","25.0693733333333","6500200","三重區"
"241004","475-VK","2017/08/28 20:49:29","新北市三重區分子尾街36-1號","121.48938","25.080875","6500200","三重區"
"241019","478-VK","2017/08/28 20:49:26","新北市三重區大智街188號","121.489491666667","25.0703","6500200","三重區"
"241030","480-VK","2017/08/28 20:49:31","新北市三重區環河南路221巷8號","121.49201","25.0521883333333","6500200","三重區"
"241014","543-UM","2017/08/28 20:49:17","新北市三重區龍濱路118-3號","121.501826666667","25.0703866666667","6500200","三重區"
"241001","547-UM","2017/08/28 20:49:14","新北市三重區自強路三段76巷11號","121.486315","25.0741366666667","6500200","三重區"
"241033","887-TS","2017/08/28 20:49:15","新北市三重區光復路二段1號","121.472255","25.053495","6500200","三重區"
"241012","941-UM","2017/08/28 20:49:29","新北市三重區仁信街29號","121.50124","25.07558","6500200","三重區"
"241006","942-UM","2017/08/28 20:49:19","新北市三重區車路頭街139巷14號","121.484295","25.0762","6500200","三重區"
"235072","301-VK","2017/08/28 20:49:19","新北市中和區員山路36巷13號","121.48431","24.99066","6500300","中和區"
"235069","4980-A6","2017/08/28 20:49:27","新北市中和區新生街192號","121.483785","24.9995116666667","6500300","中和區"
"235026","800-TS","2017/08/28 20:33:27","新北市中和區員山路36巷16-3號","121.48487","24.991525","6500300","中和區"
"247020","893-R6","2017/08/28 20:49:19","新北市蘆洲區仁愛街64號","121.471461666667","25.0938816666667","6501400","蘆洲區"
"247010","546-UM","2017/08/28 20:49:27","新北市蘆洲區鷺江街93號","121.476905","25.0838433333333","6501400","蘆洲區"
"247008","339-TH","2017/08/28 20:49:17","新北市蘆洲區集賢路269巷17號","121.482118333333","25.08336","6501400","蘆洲區"
"247024","337-TH","2017/08/28 20:49:19","新北市蘆洲區長樂路118號","121.462081666667","25.0900516666667","6501400","蘆洲區"
"247002","336-TH","2017/08/28 20:49:28","新北市蘆洲區長榮路343號","121.45947","25.0875783333333","6501400","蘆洲區"
"247014","057-VK","2017/08/28 20:49:24","新北市蘆洲區三民路97號","121.473648333333","25.08514","6501400","蘆洲區"
"247004","056-VK","2017/08/28 20:49:33","新北市蘆洲區長安街97號","121.46176","25.080605","6501400","蘆洲區"
"247006","053-VK","2017/08/28 20:49:32","新北市蘆洲區九芎街126號","121.465206666667","25.0792033333333","6501400","蘆洲區"
"247012","007-UY","2017/08/28 20:49:23","新北市蘆洲區復興路318號","121.481803333333","25.0901483333333","6501400","蘆洲區"
"247022","002-UY","2017/08/28 20:49:27","新北市蘆洲區中正路185巷46弄20號","121.467016666667","25.0855116666667","6501400","蘆洲區"
"247016","001-UY","2017/08/28 20:49:19","新北市蘆洲區中山二路286號","121.468893333333","25.0778083333333","6501400","蘆洲區"
"226004","312-R5","2017/08/28 20:44:33","新北市平溪區石底里公園街18-3號","121.73379","25.0253266666667","6502400","平溪區"
"251007","179-VK","2017/08/28 20:49:27","新北市淡水區鄧公路29巷24號","121.452678333333","25.1701883333333","6501000","淡水區"
"251013","182-VK","2017/08/28 20:49:17","新北市淡水區行忠路136號","121.454961666667","25.1989716666667","6501000","淡水區"
"251010","413-VK","2017/08/28 20:49:19","新北市淡水區沙崙路126號","121.4235","25.1829583333333","6501000","淡水區"
"251012","441-VK","2017/08/28 20:49:18","新北市淡水區興仁路165號","121.451596666667","25.2201066666667","6501000","淡水區"
"251015","442-VK","2017/08/28 20:49:29","新北市淡水區淡金路四段542巷17號","121.452693333333","25.2270916666667","6501000","淡水區"
"251001","559-UM","2017/08/28 20:49:22","新北市淡水區淡金路218號","121.46052","25.1672366666667","6501000","淡水區"
"251011","650-BX","2017/08/28 20:49:26","新北市淡水區新民街一段13-1號","121.433021666667","25.1845483333333","6501000","淡水區"
"251002","672-BX","2017/08/28 20:49:22","新北市淡水區英專路26號","121.44559","25.17002","6501000","淡水區"
"251003","766-UM","2017/08/28 20:49:29","新北市淡水區中山北路一段247巷90號","121.442373333333","25.17935","6501000","淡水區"
"252002","178-VK","2017/08/28 20:49:26","新北市三芝區淡金路二段89-1號","121.504006666667","25.2608583333333","6502100","三芝區"
"236047","970-R7","2017/08/28 16:28:53","新北市土城區城林路6巷80號","121.438708333333","24.9796866666667","6501300","土城區"
"242021","AAC-296","2017/08/28 20:49:30","新北市新莊區中華路一段6號","121.451975","25.0366916666667","6500500","新莊區"
"242029","986-R7","2017/08/28 20:49:27","新北市新莊區中華路二段95號","121.452706666667","25.0495216666667","6500500","新莊區"
"242048","751-BX","2017/08/28 20:49:34","新北市新莊區中正路602號","121.426561666667","25.0302333333333","6500500","新莊區"
"242023","613-BX","2017/08/28 20:49:22","新北市新莊區思源路63號","121.459881666667","25.0404083333333","6500500","新莊區"
"242027","612-BX","2017/08/28 20:49:31","新北市新莊區化成路45號","121.465151666667","25.0446616666667","6500500","新莊區"
"242036","566-BX","2017/08/28 20:49:33","新北市新莊區建國一路69號","121.43468","25.02974","6500500","新莊區"
"242042","497-BY","2017/08/28 20:49:28","新北市新莊區天祥街1巷1號","121.417231666667","25.027115","6500500","新莊區"
"242053","442-UM","2017/08/28 20:49:32","新北市新莊區民安西路189巷10弄30號","121.4265","25.01514","6500500","新莊區"
"242046","441-UM","2017/08/28 20:49:12","新北市新莊區民安路2號","121.422533333333","25.02899","6500500","新莊區"
"242050","440-UM","2017/08/28 20:49:17","新北市新莊區民安西路62號","121.427335","25.0203316666667","6500500","新莊區"
"242002","413-TV","2017/08/28 20:49:22","新北市新莊區中港路五守新村2號","121.454966666667","25.0386483333333","6500500","新莊區"
"242039","400-BY","2017/08/28 20:49:21","新北市新莊區瓊林北路43號","121.43886","25.02138","6500500","新莊區"
"242060","362-BY","2017/08/28 20:49:27","新北市新莊區新樹路115號","121.437246666667","25.0265433333333","6500500","新莊區"
"242004","132-UY","2017/08/28 20:49:20","新北市三重區光復路二段175號","121.472223333333","25.0616083333333","6500500","新莊區"
"242034","133-UY","2017/08/28 20:49:25","新北市新莊區中正路409號","121.444935","25.0345316666667","6500500","新莊區"
"242013","175-VK","2017/08/28 20:49:15","新北市新莊區中和街175巷9號","121.44726","25.0504733333333","6500500","新莊區"
"242017","348-TH","2017/08/28 20:49:16","新北市新莊區中華路一段2號","121.452033333333","25.0362183333333","6500500","新莊區"
"242015","350-TH","2017/08/28 20:49:17","新北市新莊區中和街2號","121.448495","25.04283","6500500","新莊區"
"242009","351-TH","2017/08/28 20:49:16","新北市新莊區思源路253號","121.459896666667","25.04722","6500500","新莊區"
"238023","601-UM","2017/08/28 20:49:18","新北市樹林區中山路三段204號","121.387216666667","24.9683033333333","6500700","樹林區"
"221036","130-UY","2017/08/28 20:49:29","新北市汐止區新昌路79號","121.663855","25.0692133333333","6501100","汐止區"
"221015","131-UY","2017/08/28 20:49:23","新北市汐止區大同路二段609號","121.664056666667","25.0707816666667","6501100","汐止區"
"221031","277-VK","2017/08/28 20:49:29","新北市汐止區福德一路258號","121.633386666667","25.0645366666667","6501100","汐止區"
"221032","280-BY","2017/08/28 20:49:19","新北市汐止區汐萬路一段256巷3號","121.652486666667","25.0745116666667","6501100","汐止區"
"221027","281-BY","2017/08/28 20:49:34","新北市汐止區汐萬路一段110號","121.654011666667","25.071315","6501100","汐止區"
"221038","297-VK","2017/08/28 20:49:26","新北市汐止區新江北路5號","121.652815","25.0706616666667","6501100","汐止區"
"221029","298-VK","2017/08/28 20:49:22","新北市汐止區樟樹二路293巷12號","121.640983333333","25.0702133333333","6501100","汐止區"
"221035","622-UM","2017/08/28 20:49:14","新北市汐止區汐萬路一段165號","121.652901666667","25.07101","6501100","汐止區"
"221033","647-BX","2017/08/28 20:49:22","台北市南港區合順街8巷7弄38號","121.620228333333","25.0419716666667","6501100","汐止區"
"221002","707-TV","2017/08/28 20:49:26","新北市汐止區福德二路138號","121.630775","25.0652066666667","6501100","汐止區"
"221018","753-BX","2017/08/28 20:49:15","新北市汐止區茄苳路109號","121.667801666667","25.0713633333333","6501100","汐止區"
"242001","281-VK","2017/08/28 16:43:42","新北市新莊區環河路636-7號","121.437376666667","25.0112416666667","6500500","新莊區"
"242044","280-VK","2017/08/28 20:49:20","新北市新莊區龍安路106巷2號","121.418303333333","25.0204766666667","6500500","新莊區"
