"lineid","car","time","location","longitude","latitude","cityid","cityname"
"241024","743-BX","2017/08/28 22:56:23","新北市三重區三和市場9號","121.498408333333","25.0678883333333","6500200","三重區"
"241029","942-UM","2017/08/28 22:49:48","新北市三重區重新路四段121號","121.485026666667","25.0519116666667","6500200","三重區"
"235026","800-TS","2017/08/28 20:33:27","新北市中和區員山路36巷16-3號","121.48487","24.991525","6500300","中和區"
"247001","336-TH","2017/08/28 22:41:19","新北市五股區中興路三段163號","121.44901","25.080955","6501400","蘆洲區"
"226004","312-R5","2017/08/28 20:44:33","新北市平溪區石底里公園街18-3號","121.73379","25.0253266666667","6502400","平溪區"
"236047","970-R7","2017/08/28 16:28:53","新北市土城區城林路6巷80號","121.438708333333","24.9796866666667","6501300","土城區"
"242001","281-VK","2017/08/28 16:43:42","新北市新莊區環河路636-7號","121.437376666667","25.0112416666667","6500500","新莊區"
