"lineid","car","time","location","longitude","latitude","cityid","cityname"
"244002","658-BX","2017/10/24 10:17:27","新北市林口區粉寮69號","121.404971666667","25.090955","6501700","林口區"
"231007","189-VK","2017/10/24 11:29:43","新北市新店區安康路一段72號","121.528346666667","24.9618816666667","6500600","新店區"
"231009","192-VK","2017/10/24 11:23:51","新北市新店區成功路265號","121.52751","24.886045","6500600","新店區"
"228005","097-TW","2017/10/24 11:29:43","新北市貢寮區貢寮里朝陽街1-2號","121.912383333333","25.0212716666667","6502600","貢寮區"
"227006","282-VK","2017/10/24 11:29:52","新北市雙溪區魚行里坤溪11-6號","121.868155","25.02146","6502500","雙溪區"
"252007","AAC-283","2017/10/24 10:40:09","新北市三芝區埔坪里埔頭坑41號","121.504485","25.2644166666667","6502100","三芝區"
"237001","159-UY","2017/10/24 11:29:43","新北市三峽區中山路459巷163-1號","121.349326666667","24.93353","6500900","三峽區"
