"lineid","car","time","location","longitude","latitude","cityid","cityname"
"234044","148-BY","2017/10/24 13:09:57","新北市永和區永元路52巷43號","121.524423333333","25.0008316666667","6500400","永和區"
"234012","149-BY","2017/10/24 13:09:52","新北市永和區保福路二段50號","121.510963333333","25.0121966666667","6500400","永和區"
"234005","207-UY","2017/10/24 13:09:55","新北市永和區中山路一段237號","121.50786","25.00769","6500400","永和區"
"234078","298-R6","2017/10/24 13:09:51","新北市永和區福和路57巷14弄4號","121.522766666667","25.0071333333333","6500400","永和區"
"234036","336-UY","2017/10/24 13:09:53","新北市永和區民樂街69巷15號","121.527955","24.997755","6500400","永和區"
"234062","337-UY","2017/10/24 13:09:40","新北市永和區秀朗路二段48號","121.52158","25.0021933333333","6500400","永和區"
"234084","338-UY","2017/10/24 13:09:41","新北市永和區永貞路51號","121.519363333333","25.0044216666667","6500400","永和區"
"234068","552-UM","2017/10/24 13:09:50","新北市永和區豫溪街95巷4弄1號","121.518251666667","25.010555","6500400","永和區"
"234052","553-UM","2017/10/24 13:09:49","新北市永和區中興街133巷8號","121.518761666667","25.01272","6500400","永和區"
"234015","745-BX","2017/10/24 13:09:57","新北市永和區文化路90巷17號","121.513685","25.0161816666667","6500400","永和區"
"234028","746-BX","2017/10/24 13:09:53","新北市永和區民生路46巷56號","121.520541666667","24.9963916666667","6500400","永和區"
"234060","AAD-866","2017/10/24 13:09:53","新北市永和區自由街33號","121.514363333333","25.0063066666667","6500400","永和區"
"234040","862-TW","2017/10/24 13:09:57","新北市永和區永貞路334號","121.51114","25.0055183333333","6500400","永和區"
"234048","863-TW","2017/10/24 13:09:49","新北市永和區仁愛路104巷7弄62號","121.510901666667","25.014125","6500400","永和區"
"234025","9371-KE","2017/10/24 13:09:49","新北市永和區自強街8巷5弄2號","121.514625","25.0075066666667","6500400","永和區"
"234010","9373-KE","2017/10/24 13:09:54","新北市永和區仁愛路68號","121.513225","25.0133383333333","6500400","永和區"
"248017","225-UY","2017/10/24 13:09:56","新北市五股區成泰路三段101-1號","121.444211666667","25.0902283333333","6501500","五股區"
"234022","9380-KE","2017/10/24 13:09:50","新北市永和區中興街10巷54號","121.516161666667","25.01103","6500400","永和區"
"234076","969-R7","2017/10/24 13:09:52","新北市永和區智光街94號","121.516163333333","24.9969483333333","6500400","永和區"
"234072","AAC-211","2017/10/24 13:09:50","新北市永和區竹林路155號","121.520393333333","25.0102366666667","6500400","永和區"
"234066","AAC-212","2017/10/24 13:09:45","新北市永和區保平路9號","121.513021666667","25.007525","6500400","永和區"
"234001","AAC-295","2017/10/24 13:09:51","新北市永和區和平街4號","121.514165","25.01","6500400","永和區"
"244002","657-BX","2017/10/24 13:09:50","新北市林口區文化三路二段302號","121.377626666667","25.08404","6501700","林口區"
"244002","658-BX","2017/10/24 13:09:52","新北市林口區中山路319號","121.383593333333","25.0805116666667","6501700","林口區"
"231002","002-UM","2017/10/24 13:09:39","新北市新店區安華路28-1號","121.519836666667","24.960765","6500600","新店區"
"231028","046-UY","2017/10/24 13:09:47","新北市新店區安華路28-1號","121.519688333333","24.960735","6500600","新店區"
"231030","047-UY","2017/10/24 13:09:55","新北市新店區安華路28-1號","121.51929","24.9609783333333","6500600","新店區"
"231029","106-UY","2017/10/24 13:09:47","新北市新店區安華路28-1號","121.519658333333","24.9607416666667","6500600","新店區"
"231012","108-UY","2017/10/24 13:09:35","新北市新店區安華路28-1號","121.51958","24.9610216666667","6500600","新店區"
"231020","187-VK","2017/10/24 13:09:41","新北市新店區安華路28-1號","121.519658333333","24.9612216666667","6500600","新店區"
"231069","189-VK","2017/10/24 11:56:03","新北市新店區安華路28-1號","121.519486666667","24.9612333333333","6500600","新店區"
"231015","KEA-2219","2017/10/24 13:09:45","新北市新店區安華路28-1號","121.519913333333","24.9612083333333","6500600","新店區"
"231026","256-BX","2017/10/24 13:09:53","新北市新店區安華路28-1號","121.519678333333","24.9610833333333","6500600","新店區"
"231010","278-BY","2017/10/24 13:09:54","新北市新店區安華路28-1號","121.51974","24.9611116666667","6500600","新店區"
"231023","AAD-862","2017/10/24 13:09:48","新北市新店區安華路28-1號","121.519836666667","24.9611583333333","6500600","新店區"
"231027","3712-VJ","2017/10/24 13:09:58","新北市新店區安華路28-1號","121.519236666667","24.9606766666667","6500600","新店區"
"231024","3713-VJ","2017/10/24 13:09:58","新北市新店區安華路1-1號","121.519231666667","24.96055","6500600","新店區"
"231025","4716-K9","2017/10/24 13:09:48","新北市新店區安華路28-1號","121.5197","24.961055","6500600","新店區"
"231038","4715-K9","2017/10/24 13:09:47","新北市新店區安華路28-1號","121.519335","24.960625","6500600","新店區"
"231036","512-UM","2017/10/24 13:09:54","新北市新店區安華路28-1號","121.519348333333","24.9611433333333","6500600","新店區"
"231035","515-UM","2017/10/24 01:00:33","新北市新店區安華路28-1號","121.519636666667","24.9610116666667","6500600","新店區"
"231006","617-UM","2017/10/24 13:09:41","新北市新店區安華路28-1號","121.519443333333","24.9608733333333","6500600","新店區"
"231001","619-UM","2017/10/24 13:09:41","新北市新店區安華路28-1號","121.519676666667","24.9607033333333","6500600","新店區"
"231003","641-BX","2017/10/24 13:09:57","新北市新店區安華路1-1號","121.519623333333","24.9601166666667","6500600","新店區"
"231034","645-TV","2017/10/24 13:09:51","新北市新店區安華路1-1號","121.519288333333","24.960475","6500600","新店區"
"231013","719-UM","2017/10/24 13:09:50","新北市新店區安華路28-1號","121.519643333333","24.9613416666667","6500600","新店區"
"231018","719-UY","2017/10/24 13:09:51","新北市新店區安華路1-1號","121.519711666667","24.9602633333333","6500600","新店區"
"231032","720-UM","2017/10/24 13:09:50","新北市新店區安華路28-1號","121.519261666667","24.9612","6500600","新店區"
"231005","897-TW","2017/10/24 13:09:51","新北市新店區安華路28-1號","121.519811666667","24.9608466666667","6500600","新店區"
"231004","899-TW","2017/10/24 13:09:53","新北市新店區安華路28-1號","121.519296666667","24.96088","6500600","新店區"
"231037","AKT-0513","2017/10/24 13:09:44","新北市新店區安華路1-1號","121.5196","24.9603433333333","6500600","新店區"
"235027","006-UY","2017/10/24 13:09:50","新北市中和區員山路36巷16-3號","121.485021666667","24.99133","6500300","中和區"
"235029","098-UM","2017/10/24 13:09:38","新北市中和區連城路301號","121.489838333333","24.9963816666667","6500300","中和區"
"235004","150-BY","2017/10/24 13:09:36","新北市中和區中正路637巷60弄61號","121.48567","24.992615","6500300","中和區"
"235022","151-BY","2017/10/24 13:09:54","新北市中和區圓通路367巷33弄15號","121.495266666667","24.9851433333333","6500300","中和區"
"235002","185-VK","2017/10/24 13:09:50","新北市中和區大仁街40號","121.518051666667","24.993935","6500300","中和區"
"235031","255-BX","2017/10/24 13:09:55","新北市中和區新生街195號","121.483935","25.0002233333333","6500300","中和區"
"235036","301-VK","2017/10/24 13:09:42","新北市中和區員山路36巷13號","121.483993333333","24.9912283333333","6500300","中和區"
"235007","352-BY","2017/10/24 13:09:50","新北市中和區員山路36巷16-3號","121.484846666667","24.9917533333333","6500300","中和區"
"235015","376-QA","2017/10/24 13:09:47","新北市中和區捷運路3號","121.509575","24.98945","6500300","中和區"
"235032","377-QA","2017/10/24 13:09:44","新北市中和區員山路36巷16-3號","121.484988333333","24.991275","6500300","中和區"
"235025","378-QA","2017/10/24 13:01:20","新北市中和區員山路36巷16-3號","121.48511","24.991485","6500300","中和區"
"235035","269-TV","2017/10/24 13:09:43","新北市中和區板南路520巷15號","121.483703333333","25.0089233333333","6500300","中和區"
"235006","551-UM","2017/10/24 13:09:52","新北市中和區景平路159巷29弄3號","121.512961666667","24.9912916666667","6500300","中和區"
"235034","558-UM","2017/10/24 13:09:43","新北市中和區員山路36巷16-3號","121.484978333333","24.9918433333333","6500300","中和區"
"235018","640-BX","2017/10/24 13:09:42","新北市中和區連城路506號","121.477543333333","24.9926833333333","6500300","中和區"
"235024","647-TV","2017/10/24 13:09:51","新北市中和區員山路36巷16-3號","121.484821666667","24.991725","6500300","中和區"
"235011","732-UM","2017/10/24 13:09:55","新北市中和區連城路230號","121.48972","24.996915","6500300","中和區"
"235026","800-TS","2017/10/24 13:09:51","新北市中和區中山路二段380巷9號","121.490705","25.0040766666667","6500300","中和區"
"235021","801-TS","2017/10/24 13:09:37","新北市中和區員山路36巷16-3號","121.484865","24.9917083333333","6500300","中和區"
"235005","802-TS","2017/10/24 13:09:47","新北市中和區景平路353號","121.504811666667","24.99336","6500300","中和區"
"235016","805-TS","2017/10/24 13:09:44","新北市中和區員山路36巷16-2號","121.485116666667","24.9915533333333","6500300","中和區"
"235017","900-TW","2017/10/24 13:09:37","新北市中和區員山路36巷16-3號","121.484995","24.9917383333333","6500300","中和區"
"235001","AAC-213","2017/10/24 13:09:41","新北市中和區景平路276-1號","121.514011666667","24.9923466666667","6500300","中和區"
"228005","097-TW","2017/10/24 13:09:43","新北市貢寮區仁理村仁和路49巷4號","121.923106666667","25.0542816666667","6502600","貢寮區"
"228004","212-TW","2017/10/24 13:09:43","新北市貢寮區吉林里內寮街75號","121.891298333333","24.9723666666667","6502600","貢寮區"
"208004","AAC-292","2017/10/24 13:09:50","新北市金山區中山路192號","121.637836666667","25.2214883333333","6502700","金山區"
"207002","749-BX","2017/10/24 13:09:38","新北市萬里區崁腳里崁腳路92號","121.646816666667","25.1595216666667","6502800","萬里區"
"252005","249-BX","2017/10/24 13:09:42","新北市三芝區八賢里八連溪1-1號","121.508978333333","25.24674","6502100","三芝區"
"207001","662-BX","2017/10/24 13:09:42","新北市萬里區龜吼里美崙路31號","121.68693","25.1842266666667","6502800","萬里區"
"252007","AAC-283","2017/10/24 10:40:09","新北市三芝區埔坪里埔頭坑41號","121.504485","25.2644166666667","6502100","三芝區"
"237001","159-UY","2017/10/24 13:09:43","新北市三峽區中山路459巷90-1號","121.355051666667","24.93625","6500900","三峽區"
"236006","498-BY","2017/10/24 13:09:42","新北市土城區亞洲路13號","121.43431","24.9722083333333","6501300","土城區"
"242046","172-VK","2017/10/24 13:09:44","新北市新莊區中平路26巷41號","121.446706666667","25.0433433333333","6500500","新莊區"
"238020","308-TH","2017/10/24 13:09:46","新北市樹林區東豐街10-1號","121.417395","24.9752033333333","6500700","樹林區"
"221012","276-VK","2017/10/24 13:09:48","新北市汐止區康寧街901號","121.650781666667","25.075315","6501100","汐止區"
"221032","280-BY","2017/10/24 13:09:50","新北市汐止區大同路二段184巷4號","121.653336666667","25.0637916666667","6501100","汐止區"
"221018","753-BX","2017/10/24 13:09:52","新北市汐止區福德一路342巷1弄16號","121.628923333333","25.0634816666667","6501100","汐止區"
"220023","297-UM","2017/10/24 12:40:58","新北市板橋區華東街1-9號","121.448218333333","24.9949683333333","6500100","板橋區"
