"lineid","car","time","location","longitude","latitude","cityid","cityname"
"234044","148-BY","2017/10/24 13:29:57","新北市永和區得和路343號","121.523898333333","24.9995116666667","6500400","永和區"
"234012","149-BY","2017/10/24 13:29:52","新北市永和區永平路201號","121.509475","25.0100083333333","6500400","永和區"
"234005","207-UY","2017/10/24 13:29:55","新北市永和區中山路一段106號","121.511003333333","25.0105483333333","6500400","永和區"
"234078","298-R6","2017/10/24 13:29:52","新北市永和區國中路104巷6號","121.524693333333","25.006895","6500400","永和區"
"234036","336-UY","2017/10/24 13:29:53","新北市永和區成功路一段127號","121.527031666667","25.001885","6500400","永和區"
"234062","337-UY","2017/10/24 13:29:44","新北市永和區中正路368巷1弄86號","121.520398333333","25.000755","6500400","永和區"
"234084","338-UY","2017/10/24 13:29:41","新北市永和區林森路65號","121.524123333333","25.004125","6500400","永和區"
"234068","552-UM","2017/10/24 13:29:42","新北市永和區警光街5-1號","121.519748333333","25.0094633333333","6500400","永和區"
"234052","553-UM","2017/10/24 13:29:49","新北市永和區復興街1巷4號","121.515778333333","25.0130066666667","6500400","永和區"
"234015","745-BX","2017/10/24 13:29:38","新北市永和區永和路二段425巷5號","121.515191666667","25.0177933333333","6500400","永和區"
"234028","746-BX","2017/10/24 13:29:53","新北市永和區四維街67號","121.52563","24.9979133333333","6500400","永和區"
"234060","AAD-866","2017/10/24 13:29:53","新北市永和區永貞路145號","121.516216666667","25.00411","6500400","永和區"
"234040","862-TW","2017/10/24 13:29:38","新北市永和區水源街39巷7號","121.510493333333","25.00402","6500400","永和區"
"234048","863-TW","2017/10/24 13:29:49","新北市永和區保福路二段96號","121.510298333333","25.0134833333333","6500400","永和區"
"234025","9371-KE","2017/10/24 13:29:49","新北市永和區永和路一段212號","121.514385","25.0094416666667","6500400","永和區"
"234010","9373-KE","2017/10/24 13:29:54","新北市永和區仁愛路141巷5弄12號","121.512346666667","25.012225","6500400","永和區"
"248017","225-UY","2017/10/24 13:29:56","新北市五股區民義路二段52巷27號","121.411146666667","25.112965","6501500","五股區"
"234022","9380-KE","2017/10/24 13:29:50","新北市永和區環河東路二段90號","121.523963333333","25.0106333333333","6500400","永和區"
"234076","969-R7","2017/10/24 13:29:52","新北市永和區得和路107號","121.518326666667","25.0002316666667","6500400","永和區"
"234072","AAC-211","2017/10/24 13:29:50","新北市永和區光復街60巷20弄2號","121.517721666667","25.0175516666667","6500400","永和區"
"234066","AAC-212","2017/10/24 13:29:45","新北市永和區保平路131號","121.510418333333","25.0062933333333","6500400","永和區"
"234001","AAC-295","2017/10/24 13:29:46","新北市永和區永和路一段118號","121.51398","25.00781","6500400","永和區"
"244002","657-BX","2017/10/24 13:29:50","新北市林口區頂福里71-42號","121.35503","25.08002","6501700","林口區"
"244002","658-BX","2017/10/24 13:29:52","新北市八里區小坑14-3號","121.387948333333","25.1155016666667","6501700","林口區"
"231002","002-UM","2017/10/24 13:29:39","新北市新店區環河路66號","121.537055","24.96286","6500600","新店區"
"231028","046-UY","2017/10/24 13:29:47","新北市新店區安康路一段266巷4號","121.51986","24.9641466666667","6500600","新店區"
"231030","047-UY","2017/10/24 13:29:55","新北市新店區安康路一段351-1號","121.519501666667","24.9639366666667","6500600","新店區"
"231029","106-UY","2017/10/24 13:29:47","新北市新店區安豐路37號","121.50055","24.9562916666667","6500600","新店區"
"231012","108-UY","2017/10/24 13:29:55","新北市新店區德正街23巷12-1號","121.54462","24.97216","6500600","新店區"
"231020","187-VK","2017/10/24 13:29:41","新北市新店區北宜路一段154號","121.54034","24.9536066666667","6500600","新店區"
"231069","189-VK","2017/10/24 11:56:03","新北市新店區安華路28-1號","121.519486666667","24.9612333333333","6500600","新店區"
"231015","KEA-2219","2017/10/24 13:29:45","新北市新店區新烏路一段9-1號","121.547285","24.9513566666667","6500600","新店區"
"231026","256-BX","2017/10/24 13:29:53","新北市新店區安康路一段9-2號","121.533631666667","24.9605233333333","6500600","新店區"
"231010","278-BY","2017/10/24 13:29:54","新北市新店區中正路356號","121.535691666667","24.975655","6500600","新店區"
"231023","AAD-862","2017/10/24 13:29:48","新北市新店區新店路13號","121.540298333333","24.9529216666667","6500600","新店區"
"231027","3712-VJ","2017/10/24 13:29:38","新北市新店區新店後街50號","121.537865","24.9538666666667","6500600","新店區"
"231024","3713-VJ","2017/10/24 13:29:37","新北市新店區中正路154巷6號","121.541798333333","24.9720483333333","6500600","新店區"
"231025","4716-K9","2017/10/24 13:29:48","新北市新店區中央路175-3號","121.53469","24.9697066666667","6500600","新店區"
"231038","4715-K9","2017/10/24 13:29:47","新北市新店區安華路30巷1號","121.519616666667","24.959265","6500600","新店區"
"231036","512-UM","2017/10/24 13:29:54","新北市新店區建業路76號","121.48064","24.9543883333333","6500600","新店區"
"231035","515-UM","2017/10/24 13:29:56","新北市新店區安康路一段266巷4號","121.51979","24.9640483333333","6500600","新店區"
"231006","617-UM","2017/10/24 13:29:41","新北市新店區安康路一段107-2號","121.528836666667","24.96162","6500600","新店區"
"231001","619-UM","2017/10/24 13:29:41","新北市新店區中央路181-3號","121.53604","24.9689133333333","6500600","新店區"
"231003","641-BX","2017/10/24 13:29:37","新北市新店區中正路75巷71號","121.54309","24.9689283333333","6500600","新店區"
"231034","645-TV","2017/10/24 13:29:51","新北市新店區車子路10-4號","121.50483","24.95452","6500600","新店區"
"231013","719-UM","2017/10/24 13:29:50","新北市新店區中正路454-5號","121.53444","24.9790666666667","6500600","新店區"
"231018","719-UY","2017/10/24 13:29:51","新北市新店區中央路167-3號","121.533541666667","24.9702666666667","6500600","新店區"
"231032","720-UM","2017/10/24 13:29:50","新北市新店區安華路30巷1號","121.519406666667","24.959415","6500600","新店區"
"231004","899-TW","2017/10/24 13:29:53","新北市新店區秀山路66號","121.530841666667","24.961005","6500600","新店區"
"231037","AKT-0513","2017/10/24 13:28:44","新北市新店區薏仁坑路35號","121.49329","24.9628633333333","6500600","新店區"
"235030","003-UY","2017/10/24 13:29:54","新北市中和區中山路二段121號","121.50276","25.0035633333333","6500300","中和區"
"235028","005-UY","2017/10/24 13:29:40","新北市中和區圓通路141巷48弄23號","121.49811","24.9944016666667","6500300","中和區"
"235027","006-UY","2017/10/24 13:29:50","新北市中和區連城路347巷4弄2號","121.488211666667","24.9956616666667","6500300","中和區"
"235020","096-UM","2017/10/24 13:29:55","新北市中和區新民街6號","121.482365","25.0056266666667","6500300","中和區"
"235003","097-UM","2017/10/24 13:29:45","新北市中和區安平路31號","121.509396666667","24.9945416666667","6500300","中和區"
"235029","098-UM","2017/10/24 13:29:58","新北市中和區莊敬路57號","121.501695","25.005285","6500300","中和區"
"235004","150-BY","2017/10/24 13:29:36","新北市中和區安平路59號","121.509676666667","24.995285","6500300","中和區"
"235022","151-BY","2017/10/24 13:29:54","新北市中和區圓通路369巷156弄48號","121.489506666667","24.9820533333333","6500300","中和區"
"235019","183-VK","2017/10/24 13:29:36","新北市中和區莒光路82號","121.472218333333","25.002785","6500300","中和區"
"235002","185-VK","2017/10/24 13:29:50","新北市中和區秀朗路三段128巷17弄5號","121.524235","24.9934766666667","6500300","中和區"
"235013","186-VK","2017/10/24 13:29:50","新北市中和區景安路120巷3號","121.505206666667","24.9948816666667","6500300","中和區"
"235031","255-BX","2017/10/24 13:29:55","新北市中和區新生街220巷15弄11-2號","121.482953333333","24.9979233333333","6500300","中和區"
"235036","301-VK","2017/10/24 13:29:42","新北市中和區連城路301號","121.489886666667","24.996445","6500300","中和區"
"235007","352-BY","2017/10/24 13:29:50","新北市中和區景平路303號","121.506633333333","24.99312","6500300","中和區"
"235015","376-QA","2017/10/24 13:29:47","新北市中和區興南路二段142巷25弄8-1號","121.502898333333","24.98393","6500300","中和區"
"235032","377-QA","2017/10/24 13:29:44","新北市中和區中正路273-2號","121.495625","24.9935766666667","6500300","中和區"
"235025","378-QA","2017/10/24 13:29:49","新北市中和區民享街97巷16號","121.475291666667","24.9997916666667","6500300","中和區"
"235035","269-TV","2017/10/24 13:29:43","新北市中和區永和路464-1號","121.483235","25.012095","6500300","中和區"
"235014","4979-A6","2017/10/24 13:29:50","新北市中和區景新街410巷18弄4號","121.512163333333","24.989285","6500300","中和區"
"235033","4980-A6","2017/10/24 13:29:56","新北市中和區連城路127巷6弄1號","121.496538333333","24.998505","6500300","中和區"
"235006","551-UM","2017/10/24 13:29:52","新北市中和區自立路56巷1號","121.52344","24.9917933333333","6500300","中和區"
"235034","558-UM","2017/10/24 13:29:23","新北市中和區圓通路119號","121.499265","24.9963283333333","6500300","中和區"
"235009","565-BX","2017/10/24 13:29:47","新北市中和區復興路47號","121.504756666667","24.9900166666667","6500300","中和區"
"235018","640-BX","2017/10/24 13:29:42","新北市中和區民享街90巷2號","121.474615","25.0004916666667","6500300","中和區"
"235024","647-TV","2017/10/24 13:29:51","新北市中和區員山路100號","121.481083333333","24.99479","6500300","中和區"
"235011","732-UM","2017/10/24 13:29:55","新北市中和區南山路300號","121.50788","24.987215","6500300","中和區"
"235010","733-UM","2017/10/24 13:29:44","新北市中和區錦和路350-1號","121.490336666667","24.993565","6500300","中和區"
"235026","800-TS","2017/10/24 13:29:50","新北市中和區景平路726-1號","121.496698333333","25.0033766666667","6500300","中和區"
"235021","801-TS","2017/10/24 13:29:57","新北市中和區民安街111巷4弄3號","121.476286666667","24.9989883333333","6500300","中和區"
"235005","802-TS","2017/10/24 13:29:47","新北市中和區中和路322號","121.509773333333","25.0007416666667","6500300","中和區"
"235016","805-TS","2017/10/24 13:29:44","新北市中和區興南路二段133號","121.505215","24.9841666666667","6500300","中和區"
"235012","896-TW","2017/10/24 13:29:41","新北市中和區員山路36巷16-4號","121.485303333333","24.9918716666667","6500300","中和區"
"235017","900-TW","2017/10/24 13:29:37","新北市土城區金城路三段259-1號","121.471943333333","24.990125","6500300","中和區"
"235001","AAC-213","2017/10/24 13:29:41","新北市中和區景新街383巷50號","121.514525","24.990755","6500300","中和區"
"235023","AAC-215","2017/10/24 00:27:57","新北市中和區員山路36巷16-3號","121.485155","24.9912916666667","6500300","中和區"
"220034","073-UY","2017/10/24 13:29:57","新北市板橋區華東街1-8號","121.447966666667","24.9948633333333","6500100","板橋區"
"247009","339-TH","2017/10/24 13:29:45","新北市五股區中興路三段163號","121.449201666667","25.0807433333333","6501400","蘆洲區"
"247003","336-TH","2017/10/24 13:29:42","新北市五股區中興路三段2巷10號","121.449063333333","25.0812183333333","6501400","蘆洲區"
"228005","097-TW","2017/10/24 13:29:43","新北市貢寮區美豐里文秀坑8號","121.902611666667","25.0504816666667","6502600","貢寮區"
"228004","212-TW","2017/10/24 13:29:43","新北市貢寮區龍崗里石壁坑街17號","121.910383333333","24.9895483333333","6502600","貢寮區"
"208004","AAC-292","2017/10/24 13:29:50","新北市金山區南勢湖70-2號","121.615371666667","25.21584","6502700","金山區"
"207002","749-BX","2017/10/24 13:29:38","新北市萬里區崁腳里崁腳路166號","121.645166666667","25.15605","6502800","萬里區"
"252005","249-BX","2017/10/24 13:29:42","新北市三芝區圓山里木屐寮38-2號","121.533016666667","25.2275683333333","6502100","三芝區"
"207001","662-BX","2017/10/24 13:29:42","新北市萬里區野柳里八斗60號","121.667418333333","25.2041566666667","6502800","萬里區"
"252007","AAC-283","2017/10/24 10:40:09","新北市三芝區埔坪里埔頭坑41號","121.504485","25.2644166666667","6502100","三芝區"
"237001","159-UY","2017/10/24 13:29:43","新北市三峽區中山路459巷163-1號","121.349286666667","24.93342","6500900","三峽區"
"236006","498-BY","2017/10/24 13:29:42","新北市土城區亞洲路11巷1弄1號","121.434901666667","24.97176","6501300","土城區"
"242046","172-VK","2017/10/24 13:29:44","新北市新莊區中港路3號","121.454941666667","25.036925","6500500","新莊區"
"238020","308-TH","2017/10/24 13:29:46","新北市樹林區八德街828-10號","121.392783333333","24.9686483333333","6500700","樹林區"
"221012","276-VK","2017/10/24 13:22:50","新北市汐止區汐萬路一段256巷3號","121.653445","25.074605","6501100","汐止區"
"221032","280-BY","2017/10/24 13:29:51","新北市汐止區水源路一段56號","121.65746","25.0656166666667","6501100","汐止區"
"221018","753-BX","2017/10/24 13:29:52","新北市汐止區福德一路430巷2-1號","121.62617","25.059985","6501100","汐止區"
"220027","145-BY","2017/10/24 13:29:44","新北市板橋區華東街1-8號","121.447833333333","24.994635","6500100","板橋區"
"220043","280-UM","2017/10/24 13:29:47","新北市板橋區民生路二段161巷1號","121.47013","25.0200383333333","6500100","板橋區"
"220023","297-UM","2017/10/24 12:40:58","新北市板橋區華東街1-9號","121.448218333333","24.9949683333333","6500100","板橋區"
"220104","560-BX","2017/10/24 13:29:48","新北市板橋區南雅南路二段144巷19號","121.451041666667","24.9958366666667","6500100","板橋區"
"220025","687-BX","2017/10/24 13:29:57","新北市板橋區大觀路二段265巷7-7號","121.443535","24.9945416666667","6500100","板橋區"
"220014","829-TW","2017/10/24 13:29:41","新北市板橋區民生路二段120號","121.470345","25.0196933333333","6500100","板橋區"
"220046","AAC-210","2017/10/24 13:29:47","新北市板橋區民生路二段161巷9號","121.470241666667","25.0196683333333","6500100","板橋區"
