"lineid","car","time","location","longitude","latitude","cityid","cityname"
"234044","148-BY","2017/10/24 14:39:57","新北市中和區中和路456號","121.51201","25.0037366666667","6500400","永和區"
"234062","337-UY","2017/10/24 14:39:40","新北市永和區福和路94號","121.522415","25.0079833333333","6500400","永和區"
"234040","862-TW","2017/10/24 14:39:36","新北市永和區環河西路二段219號","121.501163333333","25.01051","6500400","永和區"
"234048","863-TW","2017/10/24 14:39:49","新北市永和區保安路292號","121.505021666667","25.0119216666667","6500400","永和區"
"234025","9371-KE","2017/10/24 14:39:49","新北市永和區雙和街7巷8號","121.509461666667","25.001515","6500400","永和區"
"248017","225-UY","2017/10/24 14:18:56","新北市五股區壟路16號","121.415311666667","25.0856233333333","6501500","五股區"
"234072","AAC-211","2017/10/24 14:39:50","新北市永和區竹林路91巷70號","121.522015","25.013575","6500400","永和區"
"244002","657-BX","2017/10/24 14:39:50","新北市林口區竹林路266號","121.389658333333","25.08074","6501700","林口區"
"244002","658-BX","2017/10/24 14:39:48","新北市林口區文化一路一段106號","121.373705","25.0713916666667","6501700","林口區"
"231002","002-UM","2017/10/24 14:39:39","新北市新店區中正路468號","121.534041666667","24.97942","6500600","新店區"
"231028","046-UY","2017/10/24 14:39:47","新北市新店區安德街76號","121.510268333333","24.9616566666667","6500600","新店區"
"231030","047-UY","2017/10/24 14:39:54","新北市新店區安民街206號","121.517305","24.9719766666667","6500600","新店區"
"231029","106-UY","2017/10/24 14:39:47","新北市新店區安康路三段265號","121.486516666667","24.9518466666667","6500600","新店區"
"231012","108-UY","2017/10/24 14:39:55","新北市新店區寶橋路103號","121.548241666667","24.9769066666667","6500600","新店區"
"231020","187-VK","2017/10/24 14:39:41","新北市新店區桂山路35號","121.559505","24.9029983333333","6500600","新店區"
"231069","189-VK","2017/10/24 11:56:03","新北市新店區安華路28-1號","121.519486666667","24.9612333333333","6500600","新店區"
"231015","KEA-2219","2017/10/24 14:39:45","新北市新店區北宜路三段83號","121.577033333333","24.9518416666667","6500600","新店區"
"231023","AAD-862","2017/10/24 14:39:48","新北市新店區檳榔路69號","121.543968333333","24.96207","6500600","新店區"
"231027","3712-VJ","2017/10/24 14:39:58","新北市新店區中正路76巷11弄13號","121.543858333333","24.9713633333333","6500600","新店區"
"231025","4716-K9","2017/10/24 14:39:48","新北市新店區民族路161號","121.537661666667","24.9767133333333","6500600","新店區"
"231038","4715-K9","2017/10/24 14:39:47","新北市新店區安康路一段110巷2號","121.527255","24.962545","6500600","新店區"
"231036","512-UM","2017/10/24 14:39:54","新北市新店區安祥路108巷3號","121.475078333333","24.9589116666667","6500600","新店區"
"231035","515-UM","2017/10/24 14:39:56","新北市新店區安德街60巷26號","121.511221666667","24.9637866666667","6500600","新店區"
"231006","617-UM","2017/10/24 14:39:41","新北市新店區北宜路二段103號","121.550205","24.9524366666667","6500600","新店區"
"231001","619-UM","2017/10/24 14:39:41","新北市新店區中正路30號","121.545083333333","24.9696933333333","6500600","新店區"
"231003","641-BX","2017/10/24 14:39:37","新北市新店區中正路2號","121.545898333333","24.969275","6500600","新店區"
"231034","645-TV","2017/10/24 14:39:50","新北市新店區黎明路11號","121.502103333333","24.95003","6500600","新店區"
"231013","719-UM","2017/10/24 14:39:50","新北市新店區北新路二段139巷12弄1號","121.542116666667","24.9760283333333","6500600","新店區"
"231018","719-UY","2017/10/24 14:39:51","新北市新店區中央二街27號","121.528318333333","24.97369","6500600","新店區"
"231005","897-TW","2017/10/24 14:39:47","新北市新店區復興路131-2號","121.531475","24.9887533333333","6500600","新店區"
"231004","899-TW","2017/10/24 14:39:53","新北市新店區中正路269號","121.537775","24.974235","6500600","新店區"
"231037","AKT-0513","2017/10/24 14:39:44","新北市新店區柴埕路60巷1-1號","121.510068333333","24.9638366666667","6500600","新店區"
"235030","003-UY","2017/10/24 14:39:54","新北市中和區南工路26號","121.505601666667","25.000875","6500300","中和區"
"235028","005-UY","2017/10/24 14:39:40","新北市中和區南山路66號","121.502395","24.9962066666667","6500300","中和區"
"235027","006-UY","2017/10/24 14:39:50","新北市中和區連城路176號","121.493155","24.9971033333333","6500300","中和區"
"235020","096-UM","2017/10/24 14:39:55","新北市中和區員山路581巷2弄20-5號","121.477756666667","25.0097433333333","6500300","中和區"
"235003","097-UM","2017/10/24 14:39:41","新北市永和區中正路74號","121.513608333333","24.995145","6500300","中和區"
"235029","098-UM","2017/10/24 14:39:57","新北市中和區福美路261號","121.498518333333","25.0050366666667","6500300","中和區"
"235004","150-BY","2017/10/24 14:39:36","新北市中和區安平路30號","121.50961","24.9948833333333","6500300","中和區"
"235022","151-BY","2017/10/24 14:39:54","新北市中和區員山路124巷6號","121.481685","24.9958633333333","6500300","中和區"
"235019","183-VK","2017/10/24 14:39:36","新北市中和區民生街55號","121.469593333333","25.0050266666667","6500300","中和區"
"235002","185-VK","2017/10/24 14:39:50","新北市中和區自立路115號","121.522015","24.9944533333333","6500300","中和區"
"235013","186-VK","2017/10/24 14:39:50","新北市中和區安平路16號","121.509241666667","24.9941716666667","6500300","中和區"
"235031","255-BX","2017/10/24 14:39:55","新北市中和區新生街186巷8號","121.483221666667","24.9996733333333","6500300","中和區"
"235008","293-VK","2017/10/24 14:39:46","新北市中和區興南路一段113號","121.509303333333","24.9880483333333","6500300","中和區"
"235036","301-VK","2017/10/24 14:39:42","新北市中和區連城路68-1號","121.4975","25.0014983333333","6500300","中和區"
"235007","352-BY","2017/10/24 14:39:50","新北市中和區南山路76號","121.502615","24.9953616666667","6500300","中和區"
"235015","376-QA","2017/10/24 14:39:47","新北市中和區復興路326號","121.50064","24.9903183333333","6500300","中和區"
"235032","377-QA","2017/10/24 14:39:44","新北市中和區永和路8巷23弄7號","121.500755","25.0039716666667","6500300","中和區"
"235025","378-QA","2017/10/24 14:39:49","新北市中和區新生街176巷32號","121.482351666667","24.9997033333333","6500300","中和區"
"235035","269-TV","2017/10/24 14:39:43","新北市中和區連城路363號","121.487591666667","24.9961916666667","6500300","中和區"
"235014","4979-A6","2017/10/24 14:39:50","新北市中和區中正路2-1號","121.503408333333","24.9937266666667","6500300","中和區"
"235033","4980-A6","2017/10/24 14:39:56","新北市中和區中正路395號","121.489366666667","24.9941316666667","6500300","中和區"
"235006","551-UM","2017/10/24 14:39:52","新北市中和區景安路29號","121.50768","24.99872","6500300","中和區"
"235034","558-UM","2017/10/24 14:39:43","新北市中和區圓通路17巷2號","121.501513333333","24.9975666666667","6500300","中和區"
"235009","565-BX","2017/10/24 14:39:47","新北市中和區景新街324號","121.511798333333","24.9911533333333","6500300","中和區"
"235018","640-BX","2017/10/24 14:39:42","新北市中和區民德路80號","121.46884","25.0012116666667","6500300","中和區"
"235024","647-TV","2017/10/24 14:39:51","新北市中和區中山路二段523巷41號","121.482193333333","25.00321","6500300","中和區"
"235011","732-UM","2017/10/24 14:39:55","新北市中和區捷運路26號","121.508516666667","24.9901766666667","6500300","中和區"
"235010","733-UM","2017/10/24 14:39:44","新北市中和區忠孝街122-2號","121.512116666667","24.9859866666667","6500300","中和區"
"235026","800-TS","2017/10/24 14:39:56","新北市中和區中山路二段518號","121.486183333333","25.0049516666667","6500300","中和區"
"235021","801-TS","2017/10/24 14:39:56","新北市中和區員山路152-3號","121.481425","24.99867","6500300","中和區"
"235005","802-TS","2017/10/24 14:39:47","新北市永和區中和路373號","121.508463333333","24.999755","6500300","中和區"
"235016","805-TS","2017/10/24 14:39:44","新北市中和區華新街206巷8號","121.506421666667","24.98232","6500300","中和區"
"235012","896-TW","2017/10/24 14:39:41","新北市中和區景新街568-1號","121.514661666667","24.986675","6500300","中和區"
"235017","900-TW","2017/10/24 14:39:37","新北市中和區民德路197號","121.468976666667","24.9982816666667","6500300","中和區"
"235001","AAC-213","2017/10/24 14:39:47","新北市中和區秀朗路三段10巷29弄3號","121.525141666667","24.9961033333333","6500300","中和區"
"235023","AAC-215","2017/10/24 14:39:58","新北市中和區圓通路305巷10號","121.494138333333","24.9896466666667","6500300","中和區"
"220013","072-UY","2017/10/24 14:39:45","新北市板橋區國泰街39巷5弄1號","121.468543333333","25.0060816666667","6500100","板橋區"
"220034","073-UY","2017/10/24 14:39:56","新北市板橋區中正路9號","121.456053333333","25.012065","6500100","板橋區"
"220105","075-UY","2017/10/24 14:39:53","新北市板橋區文化路二段550號","121.47618","25.0340483333333","6500100","板橋區"
"220017","AAD-861","2017/10/24 14:39:49","新北市板橋區貴興路82號","121.456233333333","25.002855","6500100","板橋區"
"220016","120-SR","2017/10/24 14:39:39","新北市板橋區中山路二段412巷16-1號","121.48334","25.0202633333333","6500100","板橋區"
"247011","546-UM","2017/10/24 14:39:57","新北市蘆洲區集賢路224巷66號","121.480768333333","25.0881733333333","6501400","蘆洲區"
"247009","339-TH","2017/10/24 14:39:45","新北市三重區五華街339號","121.484686666667","25.0905133333333","6501400","蘆洲區"
"247001","337-TH","2017/10/24 14:39:39","新北市蘆洲區長安街274巷6弄1號","121.457756666667","25.0870016666667","6501400","蘆洲區"
"247003","336-TH","2017/10/24 14:39:42","新北市蘆洲區環堤大道86號","121.455395","25.0847666666667","6501400","蘆洲區"
"247015","057-VK","2017/10/24 14:39:28","新北市蘆洲區光華路73巷23號","121.468536666667","25.082225","6501400","蘆洲區"
"247005","056-VK","2017/10/24 14:39:45","新北市蘆洲區中華街3號","121.463923333333","25.0818233333333","6501400","蘆洲區"
"247007","053-VK","2017/10/24 14:39:58","新北市蘆洲區信義路1號","121.473586666667","25.0791866666667","6501400","蘆洲區"
"247013","007-UY","2017/10/24 14:39:39","新北市蘆洲區中山二路79號","121.473088333333","25.0819783333333","6501400","蘆洲區"
"247023","002-UY","2017/10/24 14:39:48","新北市蘆洲區正和街63巷5號","121.469078333333","25.080845","6501400","蘆洲區"
"228005","097-TW","2017/10/24 14:39:42","新北市貢寮區美豐里雞母嶺街7號","121.902071666667","25.06428","6502600","貢寮區"
"228004","212-TW","2017/10/24 14:39:43","新北市貢寮區福隆里龜壽谷街30-1號","121.947001666667","25.0132266666667","6502600","貢寮區"
"227003","642-TC","2017/10/24 13:51:50","新北市雙溪區三貂里政光路3-1號","121.850935","25.0630616666667","6502500","雙溪區"
"208004","AAC-292","2017/10/24 14:39:54","新北市金山區兩湖里葵扇湖17-1號","121.59265","25.231245","6502700","金山區"
"207002","749-BX","2017/10/24 14:39:38","新北市萬里區崁腳里崁腳路73號","121.64757","25.1596333333333","6502800","萬里區"
"252005","249-BX","2017/10/24 14:39:42","新北市三芝區埔坪里埔頭坑92號","121.508645","25.2510233333333","6502100","三芝區"
"207001","662-BX","2017/10/24 14:38:42","新北市萬里區雙興里豐稟路21-1號","121.640301666667","25.18586","6502800","萬里區"
"252007","AAC-283","2017/10/24 10:40:09","新北市三芝區埔坪里埔頭坑41號","121.504485","25.2644166666667","6502100","三芝區"
"237001","159-UY","2017/10/24 13:53:44","新北市三峽區中山路459巷163-1號","121.349303333333","24.93341","6500900","三峽區"
"236065","105-UM","2017/10/24 14:39:56","新北市土城區永豐路326號","121.472925","24.9775516666667","6501300","土城區"
"236041","107-UM","2017/10/24 14:39:50","新北市土城區裕民路55巷15號","121.449451666667","24.988735","6501300","土城區"
"236075","166-UM","2017/10/24 14:39:54","新北市土城區頂埔街34號","121.417171666667","24.958985","6501300","土城區"
"236029","253-BX","2017/10/24 14:39:49","新北市土城區慶樂街35號","121.437786666667","24.97342","6501300","土城區"
"236025","269-VK","2017/10/24 14:39:55","新北市土城區千歲路13號","121.440953333333","24.969595","6501300","土城區"
"236013","270-VK","2017/10/24 14:39:42","新北市土城區清水路223號","121.460916666667","24.982385","6501300","土城區"
"236034","271-VK","2017/10/24 14:39:50","新北市土城區明德路一段313巷3弄13號","121.460123333333","24.9766166666667","6501300","土城區"
"236017","401-BY","2017/10/24 14:39:46","新北市土城區永豐路6號","121.465433333333","24.9847983333333","6501300","土城區"
"236057","912-UM","2017/10/24 14:39:49","新北市土城區中央路四段25-5號","121.424788333333","24.9625416666667","6501300","土城區"
"236045","913-UM","2017/10/24 14:39:43","新北市土城區金城路三段1號","121.464156666667","24.98612","6501300","土城區"
"236061","915-UM","2017/10/24 14:39:57","新北市土城區延壽路55巷9弄2號","121.469521666667","24.9916516666667","6501300","土城區"
"236047","970-R7","2017/10/24 14:39:37","新北市土城區裕民路160巷13號","121.451798333333","24.9852483333333","6501300","土城區"
"236054","AAC-216","2017/10/24 14:39:54","新北市土城區裕民路2號","121.446541666667","24.9891366666667","6501300","土城區"
"221012","276-VK","2017/10/24 13:22:50","新北市汐止區汐萬路一段256巷3號","121.653445","25.074605","6501100","汐止區"
"221018","753-BX","2017/10/24 14:39:52","新北市新店區精忠路2號","121.533155","24.959765","6501100","汐止區"
"220027","145-BY","2017/10/24 14:39:44","新北市板橋區建國街54巷10號","121.4592","25.0168766666667","6500100","板橋區"
"220028","200-UY","2017/10/24 14:39:43","新北市板橋區大觀路二段37巷302號","121.450316666667","25.0021366666667","6500100","板橋區"
"220030","610-BX","2017/10/24 14:39:55","新北市板橋區金門街208-3號","121.432336666667","24.990015","6500100","板橋區"
"220050","245-BX","2017/10/24 14:39:31","新北市板橋區縣民大道三段33巷1弄8號","121.473488333333","25.0206033333333","6500100","板橋區"
"220004","276-BY","2017/10/24 14:39:44","新北市板橋區德興街37巷24號","121.454211666667","24.993975","6500100","板橋區"
"220020","277-BY","2017/10/24 14:39:48","新北市板橋區金門街215巷6號","121.433081666667","24.9897233333333","6500100","板橋區"
"220043","280-UM","2017/10/24 14:39:58","新北市板橋區宏國路77巷2弄16號","121.469686666667","25.03243","6500100","板橋區"
"220019","283-VK","2017/10/24 14:39:54","新北市板橋區信義路279巷23號","121.465113333333","24.9904766666667","6500100","板橋區"
"220001","285-VK","2017/10/24 14:39:51","新北市板橋區中山路二段148巷9號","121.476941666667","25.01665","6500100","板橋區"
"220031","286-VK","2017/10/24 14:39:58","新北市板橋區僑中二街10巷20號","121.446203333333","25.0111466666667","6500100","板橋區"
"220029","287-VK","2017/10/24 14:39:52","新北市板橋區大觀路一段29巷131弄10號","121.45065","25.0051466666667","6500100","板橋區"
"220039","288-VK","2017/10/24 14:39:38","新北市板橋區龍泉街54巷5號","121.456831666667","25.0265616666667","6500100","板橋區"
"220009","293-UM","2017/10/24 14:39:52","新北市板橋區漢生東路117號","121.46726","25.0149416666667","6500100","板橋區"
"220032","296-UM","2017/10/24 14:39:46","新北市板橋區滿平二街10巷2弄1號","121.425456666667","24.9869416666667","6500100","板橋區"
"220023","297-UM","2017/10/24 14:39:49","新北市板橋區大勇街10巷2號","121.453876666667","25.0169966666667","6500100","板橋區"
"220010","305-R5","2017/10/24 14:39:53","新北市板橋區三民路二段29巷1號","121.481391666667","25.01808","6500100","板橋區"
"220041","307-R5","2017/10/24 14:39:49","新北市板橋區陽明街164巷17號","121.464191666667","25.02448","6500100","板橋區"
"220047","317-R6","2017/10/24 14:39:55","新北市板橋區裕民街109號","121.459685","25.0276466666667","6500100","板橋區"
"220012","486-VK","2017/10/24 14:39:48","新北市板橋區民權路33號","121.46224","25.0111233333333","6500100","板橋區"
"220038","487-VK","2017/10/24 14:39:48","新北市板橋區陽明街249號","121.462673333333","25.02503","6500100","板橋區"
"220037","491-VK","2017/10/24 14:39:43","新北市板橋區民治街23號","121.47801","25.034365","6500100","板橋區"
"220104","560-BX","2017/10/24 14:39:56","新北市板橋區新生街20巷9號","121.456336666667","25.020895","6500100","板橋區"
"220052","561-BX","2017/10/24 14:39:56","新北市板橋區陽明街23巷8弄10號","121.46564","25.0207333333333","6500100","板橋區"
"220011","609-BX","2017/10/24 14:39:55","新北市板橋區三民路一段31巷89弄2號","121.481475","25.023475","6500100","板橋區"
"220040","637-BX","2017/10/24 14:39:42","新北市板橋區懷德街139巷20弄8號","121.480166666667","25.0305433333333","6500100","板橋區"
"220005","686-BX","2017/10/24 14:39:48","新北市板橋區廣和街52-1號","121.46245","24.9944183333333","6500100","板橋區"
"220025","687-BX","2017/10/24 14:39:40","新北市板橋區僑中二街124巷2號","121.445371666667","25.0053783333333","6500100","板橋區"
"220042","689-BX","2017/10/24 14:39:44","新北市板橋區新海路438號","121.458","25.0277716666667","6500100","板橋區"
"220002","741-BX","2017/10/24 14:39:49","新北市板橋區忠孝路239巷14號","121.466676666667","25.0031533333333","6500100","板橋區"
"220003","827-TW","2017/10/24 14:39:50","新北市板橋區國慶路149巷2弄1-1號","121.461285","24.996635","6500100","板橋區"
"220014","829-TW","2017/10/24 14:39:41","新北市板橋區長安街138巷1弄85號","121.474858333333","25.011295","6500100","板橋區"
"220051","830-TW","2017/10/24 14:39:52","新北市板橋區松柏街33巷14號","121.47519","25.0305283333333","6500100","板橋區"
"220045","831-TW","2017/10/24 14:39:39","新北市板橋區民生路二段240巷48號","121.46961","25.0229216666667","6500100","板橋區"
"220022","895-R6","2017/10/24 14:39:56","新北市板橋區縣民大道一段295號","121.461045","25.01047","6500100","板橋區"
"220021","985-R7","2017/10/24 14:39:49","新北市板橋區大仁街27-2號","121.455465","25.01683","6500100","板橋區"
"220046","AAC-210","2017/10/24 14:39:51","新北市板橋區漢生西路89巷4-2號","121.462548333333","25.0196333333333","6500100","板橋區"
"220018","AAC-253","2017/10/24 14:39:52","新北市板橋區民族路173號","121.468521666667","25.0075233333333","6500100","板橋區"
