"lineid","car","time","location","longitude","latitude","cityid","cityname"
"234040","862-TW","2017/10/24 14:49:37","新北市五股區中興路三段163號","121.448843333333","25.0810566666667","6500400","永和區"
"234048","863-TW","2017/10/24 14:49:49","新北市三重區重光街124-1號","121.466366666667","25.0653483333333","6500400","永和區"
"234025","9371-KE","2017/10/24 14:49:49","新北市永和區水源街60號","121.509403333333","25.0041283333333","6500400","永和區"
"248017","225-UY","2017/10/24 14:18:56","新北市五股區壟路16號","121.415311666667","25.0856233333333","6501500","五股區"
"244002","657-BX","2017/10/24 14:49:50","新北市林口區竹林路266號","121.389663333333","25.080745","6501700","林口區"
"244002","658-BX","2017/10/24 14:49:48","新北市林口區忠孝路468號","121.369906666667","25.070935","6501700","林口區"
"231002","002-UM","2017/10/24 14:49:39","新北市新店區民權路56號","121.538831666667","24.982965","6500600","新店區"
"231028","046-UY","2017/10/24 14:49:47","新北市新店區安康路二段294號","121.507973333333","24.958545","6500600","新店區"
"231030","047-UY","2017/10/24 14:49:35","新北市新店區安民街385號","121.5162","24.9765566666667","6500600","新店區"
"231029","106-UY","2017/10/24 14:49:47","新北市新店區錦秀路11巷96弄2號","121.480006666667","24.9419616666667","6500600","新店區"
"231012","108-UY","2017/10/24 14:49:55","新北市新店區永華街55號","121.544545","24.9756933333333","6500600","新店區"
"231020","187-VK","2017/10/24 14:49:41","新北市新店區桂山路2-1號","121.555986666667","24.904275","6500600","新店區"
"231069","189-VK","2017/10/24 11:56:03","新北市新店區安華路28-1號","121.519486666667","24.9612333333333","6500600","新店區"
"231015","KEA-2219","2017/10/24 14:45:25","新北市新店區北宜路三段221號","121.59241","24.9533566666667","6500600","新店區"
"231026","256-BX","2017/10/24 14:49:46","新北市新店區安康路一段285號","121.523298333333","24.9636283333333","6500600","新店區"
"231023","AAD-862","2017/10/24 14:49:48","新北市新店區檳榔路105號","121.544608333333","24.96167","6500600","新店區"
"231027","3712-VJ","2017/10/24 14:49:38","新北市新店區中正路390號","121.53463","24.977195","6500600","新店區"
"231024","3713-VJ","2017/10/24 14:49:45","新北市新店區新生街5巷4號","121.540115","24.9658766666667","6500600","新店區"
"231025","4716-K9","2017/10/24 14:49:48","新北市新店區建國路150號","121.538811666667","24.9791916666667","6500600","新店區"
"231036","512-UM","2017/10/24 14:49:54","新北市新店區安祥路106巷66號","121.475161666667","24.9605366666667","6500600","新店區"
"231035","515-UM","2017/10/24 14:49:36","新北市新店區安利街26號","121.519228333333","24.974595","6500600","新店區"
"231006","617-UM","2017/10/24 14:49:55","新北市新店區北宜路一段170號","121.540706666667","24.9530666666667","6500600","新店區"
"231001","619-UM","2017/10/24 14:49:41","新北市新店區三民路69號","121.53624","24.971385","6500600","新店區"
"231003","641-BX","2017/10/24 14:49:37","新北市新店區中興路一段298號","121.546216666667","24.9694983333333","6500600","新店區"
"231034","645-TV","2017/10/24 14:49:51","新北市新店區玫瑰路4-1號","121.49353","24.9514866666667","6500600","新店區"
"231039","718-UY","2017/10/24 14:49:43","新北市新店區安華路28-1號","121.51942","24.9609866666667","6500600","新店區"
"231018","719-UY","2017/10/24 14:49:51","新北市新店區中央路210-1號","121.530116666667","24.9735966666667","6500600","新店區"
"231005","897-TW","2017/10/24 14:49:47","新北市新店區復興路2號","121.532393333333","24.9883133333333","6500600","新店區"
"231004","899-TW","2017/10/24 14:49:53","新北市新店區民族路100號","121.539225","24.9781866666667","6500600","新店區"
"231037","AKT-0513","2017/10/24 14:49:44","新北市新店區安民街365巷1弄10號","121.516501666667","24.9750633333333","6500600","新店區"
"235030","003-UY","2017/10/24 14:49:54","新北市中和區中山路二段11號","121.505245","25.005565","6500300","中和區"
"235028","005-UY","2017/10/24 14:49:40","新北市中和區南華路30號","121.503203333333","24.9961016666667","6500300","中和區"
"235027","006-UY","2017/10/24 14:49:50","新北市中和區連城路263巷9弄2號","121.492363333333","24.99552","6500300","中和區"
"235020","096-UM","2017/10/24 14:49:55","新北市中和區民富街88-1號","121.476526666667","25.0082766666667","6500300","中和區"
"235003","097-UM","2017/10/24 14:49:41","新北市中和區安樂路255號","121.514031666667","24.9997883333333","6500300","中和區"
"235029","098-UM","2017/10/24 14:49:38","新北市中和區福美路256巷12號","121.498068333333","25.0058566666667","6500300","中和區"
"235004","150-BY","2017/10/24 14:49:36","新北市中和區保健路10巷21弄1號","121.507728333333","24.9969033333333","6500300","中和區"
"235022","151-BY","2017/10/24 14:49:54","新北市中和區員山路167號","121.481166666667","24.9967716666667","6500300","中和區"
"235002","185-VK","2017/10/24 14:49:50","新北市中和區大智街55巷30弄58號","121.522101666667","24.9933816666667","6500300","中和區"
"235013","186-VK","2017/10/24 14:49:50","新北市中和區中正路14號","121.502856666667","24.99356","6500300","中和區"
"235031","255-BX","2017/10/24 14:49:55","新北市中和區新生街186巷1弄31號","121.483455","24.9985783333333","6500300","中和區"
"235008","293-VK","2017/10/24 14:49:46","新北市中和區南山路325號","121.505133333333","24.991195","6500300","中和區"
"235036","301-VK","2017/10/24 14:49:42","新北市中和區圓通路261號","121.495935","24.9933216666667","6500300","中和區"
"235007","352-BY","2017/10/24 14:49:50","新北市中和區安樂路49號","121.511763333333","24.9935383333333","6500300","中和區"
"235015","376-QA","2017/10/24 14:49:47","新北市中和區景安路225號","121.504386666667","24.99122","6500300","中和區"
"235032","377-QA","2017/10/24 14:49:44","新北市中和區中山路二段250巷22號","121.497425","25.0033","6500300","中和區"
"235035","269-TV","2017/10/24 14:49:43","新北市中和區建康路2-2號","121.48611","24.9999783333333","6500300","中和區"
"235014","4979-A6","2017/10/24 14:49:50","新北市中和區景平路241巷64弄7號","121.507533333333","24.992425","6500300","中和區"
"235033","4980-A6","2017/10/24 14:49:45","新北市中和區南山路29號","121.502335","24.9988966666667","6500300","中和區"
"235034","558-UM","2017/10/24 14:49:43","新北市中和區景平路565號","121.498091666667","24.9999316666667","6500300","中和區"
"235018","640-BX","2017/10/24 14:49:42","新北市中和區莒光路165號","121.472711666667","25.0001383333333","6500300","中和區"
"235024","647-TV","2017/10/24 14:49:51","新北市中和區員山路370-2號","121.480818333333","25.004005","6500300","中和區"
"235011","732-UM","2017/10/24 14:49:55","新北市中和區和平街74號","121.50776","24.9910783333333","6500300","中和區"
"235010","733-UM","2017/10/24 14:49:44","新北市中和區仁愛街49號","121.511191666667","24.98813","6500300","中和區"
"235026","800-TS","2017/10/24 14:49:51","新北市中和區建康路123號","121.490103333333","25.0002533333333","6500300","中和區"
"235005","802-TS","2017/10/24 14:49:47","新北市中和區中正路488號","121.489215","24.9942816666667","6500300","中和區"
"235016","805-TS","2017/10/24 14:49:44","新北市中和區華新街30巷14號","121.506993333333","24.98421","6500300","中和區"
"235012","896-TW","2017/10/24 14:49:41","新北市中和區忠孝街122-1號","121.512191666667","24.9858766666667","6500300","中和區"
"235017","900-TW","2017/10/24 14:49:37","新北市中和區國光街142巷1號","121.468221666667","25.0015883333333","6500300","中和區"
"235001","AAC-213","2017/10/24 14:49:41","新北市中和區秀朗路三段161號","121.524641666667","24.9920016666667","6500300","中和區"
"235023","AAC-215","2017/10/24 14:49:58","新北市中和區圓通路367巷6號","121.49167","24.9894033333333","6500300","中和區"
"220013","072-UY","2017/10/24 14:49:42","新北市板橋區海山路45號","121.466951666667","25.009995","6500100","板橋區"
"220034","073-UY","2017/10/24 14:49:37","新北市板橋區南雅西路二段7巷25號","121.451958333333","25.0095283333333","6500100","板橋區"
"220105","075-UY","2017/10/24 14:49:47","新北市板橋區民治街57巷32-1號","121.480273333333","25.0343366666667","6500100","板橋區"
"220017","AAD-861","2017/10/24 14:49:50","新北市板橋區南雅南路二段11-29號","121.453915","25.0012116666667","6500100","板橋區"
"220016","120-SR","2017/10/24 14:49:39","新北市板橋區光復街103號","121.48415","25.0192683333333","6500100","板橋區"
"247009","339-TH","2017/10/24 14:49:45","新北市五股區更洲路47-1號","121.453928333333","25.0784833333333","6501400","蘆洲區"
"247001","337-TH","2017/10/24 14:49:39","新北市蘆洲區永康街2巷8號","121.459463333333","25.0862633333333","6501400","蘆洲區"
"247015","057-VK","2017/10/24 14:49:48","新北市蘆洲區和平路190號","121.466063333333","25.081565","6501400","蘆洲區"
"247007","053-VK","2017/10/24 14:49:58","新北市蘆洲區中山一路174號","121.47441","25.0813516666667","6501400","蘆洲區"
"247023","002-UY","2017/10/24 14:49:48","新北市蘆洲區中山二路300巷1號","121.468481666667","25.076675","6501400","蘆洲區"
"228005","097-TW","2017/10/24 14:49:42","新北市貢寮區美豐里丹裡街65號","121.909466666667","25.0589783333333","6502600","貢寮區"
"228004","212-TW","2017/10/24 14:49:43","新北市貢寮區福隆里福隆街2巷31號","121.946423333333","25.015735","6502600","貢寮區"
"227003","642-TC","2017/10/24 13:51:50","新北市雙溪區三貂里政光路3-1號","121.850935","25.0630616666667","6502500","雙溪區"
"208004","AAC-292","2017/10/24 14:49:50","新北市金山區兩湖里倒照湖41號","121.589958333333","25.2356316666667","6502700","金山區"
"207002","749-BX","2017/10/24 14:49:38","新北市萬里區崁腳里崁腳路73號","121.647585","25.1596433333333","6502800","萬里區"
"252005","249-BX","2017/10/24 14:49:42","新北市三芝區埔坪里埔頭坑164-1號","121.50842","25.2485866666667","6502100","三芝區"
"207001","662-BX","2017/10/24 14:49:42","新北市萬里區雙興里二坪路11號","121.64616","25.175065","6502800","萬里區"
"252007","AAC-283","2017/10/24 10:40:09","新北市三芝區埔坪里埔頭坑41號","121.504485","25.2644166666667","6502100","三芝區"
"237001","159-UY","2017/10/24 13:53:44","新北市三峽區中山路459巷163-1號","121.349303333333","24.93341","6500900","三峽區"
"236065","105-UM","2017/10/24 14:49:56","新北市土城區金城路二段227號","121.455486666667","24.982385","6501300","土城區"
"236041","107-UM","2017/10/24 14:49:50","新北市土城區裕民路136巷4弄3號","121.450913333333","24.985615","6501300","土城區"
"236075","166-UM","2017/10/24 14:49:54","新北市土城區中央路四段69號","121.417588333333","24.957905","6501300","土城區"
"236029","253-BX","2017/10/24 14:49:49","新北市土城區忠義路26巷10號","121.439858333333","24.969875","6501300","土城區"
"236025","269-VK","2017/10/24 14:49:55","新北市土城區慶安街67號","121.440768333333","24.9727783333333","6501300","土城區"
"236013","270-VK","2017/10/24 14:49:42","新北市土城區金城路二段356號","121.461535","24.9849966666667","6501300","土城區"
"236034","271-VK","2017/10/24 14:49:40","新北市土城區明德路一段195巷3弄5號","121.464246666667","24.9785866666667","6501300","土城區"
"236017","401-BY","2017/10/24 14:49:46","新北市土城區延安街21號","121.467568333333","24.985445","6501300","土城區"
"236057","912-UM","2017/10/24 14:49:49","新北市土城區中央路三段93號","121.437568333333","24.9677616666667","6501300","土城區"
"236045","913-UM","2017/10/24 14:49:43","新北市土城區青雲路145號","121.458745","24.98431","6501300","土城區"
"236061","915-UM","2017/10/24 14:49:37","新北市土城區金城路三段239-1號","121.471311666667","24.9897183333333","6501300","土城區"
"236047","970-R7","2017/10/24 14:49:37","新北市土城區中央路二段63號","121.442548333333","24.9790266666667","6501300","土城區"
"236054","AAC-216","2017/10/24 14:49:54","新北市土城區裕民路181號","121.453388333333","24.9846083333333","6501300","土城區"
"221012","276-VK","2017/10/24 13:22:50","新北市汐止區汐萬路一段256巷3號","121.653445","25.074605","6501100","汐止區"
"221018","753-BX","2017/10/24 14:49:52","台北市南港區研究院路三段261號","121.609815","25.02917","6501100","汐止區"
"220027","145-BY","2017/10/24 14:49:44","新北市板橋區大智街70號","121.453933333333","25.0155316666667","6500100","板橋區"
"220028","200-UY","2017/10/24 14:49:44","新北市板橋區大觀路二段79巷2弄15號","121.447358333333","25.00179","6500100","板橋區"
"220030","610-BX","2017/10/24 14:49:55","新北市板橋區大觀路三段212巷36號","121.429555","24.9931516666667","6500100","板橋區"
"220050","245-BX","2017/10/24 14:49:51","新北市板橋區縣民大道三段93巷34號","121.474778333333","25.022595","6500100","板橋區"
"220004","276-BY","2017/10/24 14:49:37","新北市板橋區南雅南路二段1-1號","121.454683333333","25.0038133333333","6500100","板橋區"
"220020","277-BY","2017/10/24 14:49:48","新北市板橋區篤行路二段52號","121.431666666667","24.9925016666667","6500100","板橋區"
"220043","280-UM","2017/10/24 14:49:47","新北市板橋區長江路一段103號","121.459466666667","25.0297983333333","6500100","板橋區"
"220019","283-VK","2017/10/24 14:49:40","新北市板橋區五權街30巷24弄33號","121.463615","24.9939166666667","6500100","板橋區"
"220001","285-VK","2017/10/24 14:49:41","新北市板橋區中山路二段60巷1弄24號","121.475096666667","25.0157466666667","6500100","板橋區"
"220031","286-VK","2017/10/24 14:49:50","新北市板橋區僑中二街90巷20號","121.445331666667","25.0093866666667","6500100","板橋區"
"220029","287-VK","2017/10/24 14:49:52","新北市板橋區大觀路一段28巷108-3號","121.450186666667","25.0119883333333","6500100","板橋區"
"220039","288-VK","2017/10/24 14:49:38","新北市板橋區新海路162號","121.460578333333","25.02373","6500100","板橋區"
"220009","293-UM","2017/10/24 14:49:52","新北市板橋區板新路131號","121.470803333333","25.0154616666667","6500100","板橋區"
"220032","296-UM","2017/10/24 14:49:50","新北市板橋區溪崑二街112巷30號","121.425801666667","24.98929","6500100","板橋區"
"220023","297-UM","2017/10/24 14:49:49","新北市板橋區金華街7號","121.455678333333","25.020215","6500100","板橋區"
"220010","305-R5","2017/10/24 14:49:50","新北市板橋區光復街33巷12號","121.482008333333","25.01889","6500100","板橋區"
"220041","307-R5","2017/10/24 14:49:43","新北市板橋區互助街86號","121.460458333333","25.0263016666667","6500100","板橋區"
"220047","317-R6","2017/10/24 14:49:55","新北市板橋區英士路153號","121.459291666667","25.02383","6500100","板橋區"
"220012","486-VK","2017/10/24 14:49:49","新北市板橋區館前東路108-1號","121.46325","25.00758","6500100","板橋區"
"220038","487-VK","2017/10/24 14:49:48","新北市板橋區龍泉街114號","121.456961666667","25.02444","6500100","板橋區"
"220037","491-VK","2017/10/24 14:49:56","新北市板橋區文聖街113號","121.477916666667","25.0291983333333","6500100","板橋區"
"220104","560-BX","2017/10/24 14:49:47","新北市板橋區新生街37號","121.456796666667","25.0210883333333","6500100","板橋區"
"220052","561-BX","2017/10/24 14:49:56","新北市板橋區陽明街29巷36號","121.463568333333","25.0229","6500100","板橋區"
"220011","609-BX","2017/10/24 14:49:35","新北市板橋區萬安街27巷22號","121.483908333333","25.0228566666667","6500100","板橋區"
"220040","637-BX","2017/10/24 14:49:42","新北市板橋區民治街81巷15號","121.480343333333","25.0322666666667","6500100","板橋區"
"220005","686-BX","2017/10/24 14:49:47","新北市板橋區信義路237號","121.459983333333","24.9910716666667","6500100","板橋區"
"220025","687-BX","2017/10/24 14:49:57","新北市板橋區僑中一街124巷1弄21號","121.444825","25.0121516666667","6500100","板橋區"
"220042","689-BX","2017/10/24 14:49:44","新北市板橋區長江路二段8號","121.464696666667","25.0313483333333","6500100","板橋區"
"220002","741-BX","2017/10/24 14:49:40","新北市板橋區忠孝路忠義巷15弄2號","121.466041666667","25.0037666666667","6500100","板橋區"
"220003","827-TW","2017/10/24 14:49:50","新北市板橋區仁愛路60號","121.45983","24.99936","6500100","板橋區"
"220014","829-TW","2017/10/24 14:49:49","新北市板橋區漢生東路181號","121.469785","25.0117566666667","6500100","板橋區"
"220051","830-TW","2017/10/24 14:49:52","新北市板橋區文聖街59號","121.476691666667","25.03115","6500100","板橋區"
"220045","831-TW","2017/10/24 14:49:39","新北市板橋區文化路二段124巷34弄10號","121.47103","25.0254316666667","6500100","板橋區"
"220022","895-R6","2017/10/24 14:49:55","新北市板橋區館前西路88號","121.457486666667","25.00725","6500100","板橋區"
"220021","985-R7","2017/10/24 14:49:55","新北市板橋區大仁街120號","121.452556666667","25.01575","6500100","板橋區"
"220046","AAC-210","2017/10/24 14:49:47","新北市板橋區國光路205號","121.461985","25.0186066666667","6500100","板橋區"
"220018","AAC-253","2017/10/24 14:49:45","新北市板橋區民族路119號","121.467018333333","25.0080833333333","6500100","板橋區"
