"lineid","car","time","location","longitude","latitude","cityid","cityname"
"234048","863-TW","2017/10/24 14:59:49","新北市八里區商港路88-1號","121.393121666667","25.149745","6500400","永和區"
"234025","9371-KE","2017/10/24 14:59:49","新北市永和區永貞路267號","121.51182","25.00471","6500400","永和區"
"248017","225-UY","2017/10/24 14:59:47","新北市五股區水碓九路65號","121.429191666667","25.0734516666667","6501500","五股區"
"244002","657-BX","2017/10/24 14:59:50","新北市林口區林口路76號","121.389688333333","25.0807083333333","6501700","林口區"
"244002","658-BX","2017/10/24 14:52:40","新北市林口區公園路59號","121.367763333333","25.0686566666667","6501700","林口區"
"231002","002-UM","2017/10/24 14:59:59","新北市新店區民權路137號","121.534698333333","24.9827116666667","6500600","新店區"
"231028","046-UY","2017/10/24 14:59:47","新北市新店區安豐路49號","121.500008333333","24.954955","6500600","新店區"
"231030","047-UY","2017/10/24 14:59:55","新北市新店區安民街339號","121.516913333333","24.9748966666667","6500600","新店區"
"231029","106-UY","2017/10/24 14:59:47","新北市新店區錦秀路53號","121.479126666667","24.943405","6500600","新店區"
"231012","108-UY","2017/10/24 14:59:55","新北市新店區中興路三段205巷8弄2號","121.5432","24.98164","6500600","新店區"
"231020","187-VK","2017/10/24 14:59:41","新北市新店區新烏路二段377號","121.550773333333","24.9101066666667","6500600","新店區"
"231069","189-VK","2017/10/24 11:56:03","新北市新店區安華路28-1號","121.519486666667","24.9612333333333","6500600","新店區"
"231015","KEA-2219","2017/10/24 14:59:45","新北市新店區北宜路二段617號","121.57182","24.9569516666667","6500600","新店區"
"231026","256-BX","2017/10/24 14:59:46","新北市新店區博愛街21號","121.541296666667","24.9736566666667","6500600","新店區"
"231023","AAD-862","2017/10/24 14:59:48","新北市新店區檳榔路105號","121.544685","24.961645","6500600","新店區"
"231024","3713-VJ","2017/10/24 14:59:45","新北市新店區中華路83巷67號","121.538348333333","24.9673016666667","6500600","新店區"
"231025","4716-K9","2017/10/24 14:59:48","新北市新店區大同街18號","121.539371666667","24.98012","6500600","新店區"
"231036","512-UM","2017/10/24 14:59:54","新北市新店區安祥路102巷46弄51號","121.48623","24.9636083333333","6500600","新店區"
"231035","515-UM","2017/10/24 14:59:36","新北市新店區新和街59巷17號","121.519243333333","24.9859916666667","6500600","新店區"
"231006","617-UM","2017/10/24 14:59:41","新北市新店區新坡一街80-1號","121.54782","24.9646316666667","6500600","新店區"
"231001","619-UM","2017/10/24 14:59:41","新北市新店區中正路278號","121.538828333333","24.9738516666667","6500600","新店區"
"231003","641-BX","2017/10/24 14:59:37","新北市新店區中興路二段226號","121.547975","24.97518","6500600","新店區"
"231034","645-TV","2017/10/24 14:59:51","新北市新店區玫瑰路4-1號","121.493525","24.9514516666667","6500600","新店區"
"231039","718-UY","2017/10/24 14:59:43","新北市新店區寶中路45號","121.545256666667","24.97898","6500600","新店區"
"231018","719-UY","2017/10/24 14:59:51","新北市新店區中央六街12號","121.530018333333","24.9745133333333","6500600","新店區"
"231032","720-UM","2017/10/24 14:59:50","新北市新店區安泰路60巷26號","121.483506666667","24.9466933333333","6500600","新店區"
"231005","897-TW","2017/10/24 14:59:46","新北市新店區建國路299號","121.537286666667","24.986995","6500600","新店區"
"231004","899-TW","2017/10/24 14:59:53","新北市新店區民族路12號","121.541556666667","24.9789183333333","6500600","新店區"
"231037","AKT-0513","2017/10/24 14:59:44","新北市新店區安民街365巷1弄10號","121.516533333333","24.9750816666667","6500600","新店區"
"235030","003-UY","2017/10/24 14:59:54","新北市中和區保平路289號","121.506583333333","25.003655","6500300","中和區"
"235020","096-UM","2017/10/24 14:59:55","新北市中和區中山路三段148號","121.473608333333","25.0062783333333","6500300","中和區"
"235003","097-UM","2017/10/24 14:59:21","新北市中和區宜安路18巷9號","121.513726666667","24.9961516666667","6500300","中和區"
"235029","098-UM","2017/10/24 14:59:38","新北市中和區永和路128巷9號","121.497666666667","25.0069316666667","6500300","中和區"
"235004","150-BY","2017/10/24 14:59:56","新北市中和區保健路44巷12號","121.509081666667","24.99684","6500300","中和區"
"235022","151-BY","2017/10/24 14:59:54","新北市中和區員山路118號","121.481205","24.9958166666667","6500300","中和區"
"235002","185-VK","2017/10/24 14:59:50","新北市中和區自立路6號","121.522483333333","24.996485","6500300","中和區"
"235013","186-VK","2017/10/24 14:59:50","新北市中和區景平路572號","121.501803333333","24.9953866666667","6500300","中和區"
"235008","293-VK","2017/10/24 14:59:46","新北市中和區板南路180號","121.500728333333","24.9927966666667","6500300","中和區"
"235036","301-VK","2017/10/24 14:59:42","新北市中和區錦和路368號","121.490573333333","24.991055","6500300","中和區"
"235007","352-BY","2017/10/24 14:59:50","新北市中和區華新街151號","121.506196666667","24.9815883333333","6500300","中和區"
"235015","376-QA","2017/10/24 14:59:47","新北市中和區捷運路63號","121.508891666667","24.989795","6500300","中和區"
"235032","377-QA","2017/10/24 14:59:44","新北市中和區福祥路91號","121.498913333333","25.0059466666667","6500300","中和區"
"235035","269-TV","2017/10/24 14:59:43","新北市中和區建康路21號","121.48621","25.0004333333333","6500300","中和區"
"235014","4979-A6","2017/10/24 14:59:50","新北市中和區景平路318號","121.512316666667","24.992825","6500300","中和區"
"235033","4980-A6","2017/10/24 14:59:36","新北市中和區景新街64巷11弄9號","121.504568333333","24.9982216666667","6500300","中和區"
"235034","558-UM","2017/10/24 14:59:43","新北市中和區連城路171巷41弄1號","121.49622","24.9964416666667","6500300","中和區"
"235018","640-BX","2017/10/24 14:59:42","新北市中和區莒光路55號","121.472198333333","25.0043516666667","6500300","中和區"
"235010","733-UM","2017/10/24 14:59:44","新北市中和區興南路一段93巷58弄7號","121.510425","24.9858633333333","6500300","中和區"
"235026","800-TS","2017/10/24 14:59:50","新北市中和區興南路三段12-1號","121.498091666667","24.980205","6500300","中和區"
"235005","802-TS","2017/10/24 14:59:47","新北市三重區大有街25號","121.467341666667","25.0648066666667","6500300","中和區"
"235016","805-TS","2017/10/24 14:59:44","新北市中和區華新街170號","121.507325","24.9822033333333","6500300","中和區"
"235012","896-TW","2017/10/24 14:59:41","新北市中和區忠孝街2-8號","121.509198333333","24.9830183333333","6500300","中和區"
"235017","900-TW","2017/10/24 14:59:57","新北市中和區國光街191號","121.467258333333","25.0016916666667","6500300","中和區"
"235001","AAC-213","2017/10/24 14:59:41","新北市中和區自立路18號","121.522186666667","24.993535","6500300","中和區"
"235023","AAC-215","2017/10/24 14:59:38","新北市中和區圓通路339號","121.491603333333","24.9904616666667","6500300","中和區"
"220013","072-UY","2017/10/24 14:59:42","新北市板橋區中山路一段154巷3弄2號","121.465403333333","25.0104666666667","6500100","板橋區"
"220105","075-UY","2017/10/24 14:59:58","新北市板橋區文化路二段548巷8弄15號","121.47615","25.03308","6500100","板橋區"
"220017","AAD-861","2017/10/24 14:59:50","新北市板橋區大明街21號","121.458758333333","25.0025916666667","6500100","板橋區"
"220016","120-SR","2017/10/24 14:59:39","新北市板橋區中山路二段318巷2弄2號","121.480383333333","25.0192783333333","6500100","板橋區"
"228004","212-TW","2017/10/24 14:59:43","新北市貢寮區雙玉里田寮洋街25-4號","121.930513333333","25.01784","6502600","貢寮區"
"227003","642-TC","2017/10/24 13:51:50","新北市雙溪區三貂里政光路3-1號","121.850935","25.0630616666667","6502500","雙溪區"
"208004","AAC-292","2017/10/24 14:59:50","新北市金山區兩湖里倒照湖52號","121.596065","25.2391883333333","6502700","金山區"
"207002","749-BX","2017/10/24 14:59:58","新北市萬里區崁腳里崁腳路73號","121.647583333333","25.15964","6502800","萬里區"
"207001","662-BX","2017/10/24 14:59:42","新北市萬里區雙興里二坪路11號","121.646131666667","25.175125","6502800","萬里區"
"252007","AAC-283","2017/10/24 10:40:09","新北市三芝區埔坪里埔頭坑41號","121.504485","25.2644166666667","6502100","三芝區"
"237001","159-UY","2017/10/24 13:53:44","新北市三峽區中山路459巷163-1號","121.349303333333","24.93341","6500900","三峽區"
"236065","105-UM","2017/10/24 14:59:56","新北市土城區裕生路84巷16號","121.44663","24.985675","6501300","土城區"
"236041","107-UM","2017/10/24 14:59:50","新北市土城區裕民路177號","121.453315","24.984755","6501300","土城區"
"236075","166-UM","2017/10/24 14:59:54","新北市土城區中央路四段146號","121.417285","24.9584066666667","6501300","土城區"
"236029","253-BX","2017/10/24 14:59:49","新北市土城區中華路二段181號","121.438531666667","24.9749116666667","6501300","土城區"
"236025","269-VK","2017/10/24 14:59:55","新北市土城區中正路74巷2弄2號","121.444613333333","24.975265","6501300","土城區"
"236013","270-VK","2017/10/24 14:59:43","新北市土城區立德路105號","121.463768333333","24.98764","6501300","土城區"
"236034","271-VK","2017/10/24 14:59:44","新北市土城區清水路185號","121.459645","24.9815183333333","6501300","土城區"
"236017","401-BY","2017/10/24 14:59:46","新北市土城區延吉街217巷1弄2號","121.468603333333","24.984985","6501300","土城區"
"236057","912-UM","2017/10/24 14:59:49","新北市土城區明德路一段385-1號","121.45238","24.9798616666667","6501300","土城區"
"236045","913-UM","2017/10/24 14:59:43","新北市土城區明德路一段398-1號","121.453675","24.979095","6501300","土城區"
"236061","915-UM","2017/10/24 14:59:54","新北市土城區延和路86號","121.46639","24.9894133333333","6501300","土城區"
"236047","970-R7","2017/10/24 14:59:37","新北市樹林區柑園街一段20號","121.406303333333","24.9616516666667","6501300","土城區"
"236054","AAC-216","2017/10/24 14:59:54","新北市土城區學成路147號","121.448795","24.9895383333333","6501300","土城區"
"221012","276-VK","2017/10/24 13:22:50","新北市汐止區汐萬路一段256巷3號","121.653445","25.074605","6501100","汐止區"
"221018","753-BX","2017/10/24 14:59:52","新北市汐止區新台五路二段68號","121.661603333333","25.0655983333333","6501100","汐止區"
"220027","145-BY","2017/10/24 14:59:44","新北市板橋區南雅西路二段205號","121.45133","25.013325","6500100","板橋區"
"220028","200-UY","2017/10/24 14:59:51","新北市板橋區大觀路二段179巷33號","121.446436666667","24.99956","6500100","板橋區"
"220030","610-BX","2017/10/24 14:59:55","新北市板橋區溪北路49號","121.427661666667","24.989915","6500100","板橋區"
"220050","245-BX","2017/10/24 14:59:51","新北市板橋區莒光路180巷26號","121.473198333333","25.0229033333333","6500100","板橋區"
"220020","277-BY","2017/10/24 14:59:48","新北市板橋區篤行路一段33號","121.432011666667","24.9943016666667","6500100","板橋區"
"220043","280-UM","2017/10/24 14:59:55","新北市板橋區雨農路19號","121.461796666667","25.024525","6500100","板橋區"
"220019","283-VK","2017/10/24 14:59:40","新北市板橋區廣權路99號","121.464506666667","24.9927033333333","6500100","板橋區"
"220001","285-VK","2017/10/24 14:59:52","新北市板橋區永豐街161號","121.475503333333","25.02032","6500100","板橋區"
"220031","286-VK","2017/10/24 14:59:58","新北市板橋區僑中二街104巷48號","121.444128333333","25.0083266666667","6500100","板橋區"
"220029","287-VK","2017/10/24 14:59:52","新北市板橋區僑中一街124巷18弄7號","121.44645","25.01377","6500100","板橋區"
"220039","288-VK","2017/10/24 14:59:58","新北市板橋區新海路328號","121.460451666667","25.02403","6500100","板橋區"
"220009","293-UM","2017/10/24 14:59:52","新北市板橋區觀光街78號","121.46976","25.0167783333333","6500100","板橋區"
"220023","297-UM","2017/10/24 14:59:49","新北市板橋區金華街10巷93號","121.458566666667","25.020525","6500100","板橋區"
"220010","305-R5","2017/10/24 14:59:50","新北市板橋區中山路二段533號","121.483328333333","25.021475","6500100","板橋區"
"220041","307-R5","2017/10/24 14:59:43","新北市板橋區裕民街151號","121.458561666667","25.0269916666667","6500100","板橋區"
"220047","317-R6","2017/10/24 14:59:55","新北市板橋區新海路72巷5弄9號","121.461886666667","25.0224416666667","6500100","板橋區"
"220012","486-VK","2017/10/24 14:59:48","新北市板橋區館前東路65號","121.464143333333","25.007975","6500100","板橋區"
"220038","487-VK","2017/10/24 14:59:48","新北市板橋區新海路385巷32號","121.457548333333","25.025345","6500100","板橋區"
"220037","491-VK","2017/10/24 14:59:43","新北市板橋區仁化街131號","121.477158333333","25.03271","6500100","板橋區"
"220052","561-BX","2017/10/24 14:59:36","新北市板橋區文化路一段435巷31弄12號","121.466728333333","25.0230716666667","6500100","板橋區"
"220011","609-BX","2017/10/24 14:59:37","新北市板橋區三民路一段129號","121.479373333333","25.0210983333333","6500100","板橋區"
"220040","637-BX","2017/10/24 14:59:42","新北市板橋區文聖街89巷26號","121.478246666667","25.0301983333333","6500100","板橋區"
"220005","686-BX","2017/10/24 14:59:47","新北市板橋區四川路二段119號","121.45123","24.9943483333333","6500100","板橋區"
"220025","687-BX","2017/10/24 14:59:57","新北市板橋區僑中一街124巷62-9號","121.446778333333","25.01715","6500100","板橋區"
"220042","689-BX","2017/10/24 14:59:44","新北市板橋區長江路三段134號","121.4757","25.0345983333333","6500100","板橋區"
"220002","741-BX","2017/10/24 14:59:40","新北市板橋區忠孝路201巷98號","121.464675","25.0048233333333","6500100","板橋區"
"220003","827-TW","2017/10/24 14:59:50","新北市板橋區忠孝路48巷11弄17-2號","121.462138333333","24.9998966666667","6500100","板橋區"
"220014","829-TW","2017/10/24 14:59:42","新北市板橋區中山路一段206巷33號","121.470461666667","25.013035","6500100","板橋區"
"220051","830-TW","2017/10/24 14:59:52","新北市板橋區文聖街143號","121.478443333333","25.0282466666667","6500100","板橋區"
"220045","831-TW","2017/10/24 14:59:39","新北市板橋區莒光路79巷8號","121.471985","25.0245133333333","6500100","板橋區"
"220021","985-R7","2017/10/24 14:59:55","新北市板橋區南雅西路二段130-1號","121.452008333333","25.01277","6500100","板橋區"
"220046","AAC-210","2017/10/24 14:59:47","新北市板橋區光正街31號","121.46219","25.01705","6500100","板橋區"
"220018","AAC-253","2017/10/24 14:59:50","新北市板橋區成都街69號","121.462156666667","25.0051566666667","6500100","板橋區"
