"lineid","car","time","location","longitude","latitude","cityid","cityname"
"244002","658-BX","2017/10/24 15:44:11","新北市林口區粉寮69號","121.405015","25.09095","6501700","林口區"
"231069","189-VK","2017/10/24 11:56:03","新北市新店區安華路28-1號","121.519486666667","24.9612333333333","6500600","新店區"
"231046","278-BY","2017/10/24 16:19:41","新北市新店區灣潭路3-3號","121.538256666667","24.9508266666667","6500600","新店區"
"231018","719-UY","2017/10/24 16:19:51","新北市新店區中正路700巷82號","121.53596","24.993275","6500600","新店區"
"241011","013-R5","2017/10/24 16:19:54","新北市三重區龍濱路285號","121.501056666667","25.0734666666667","6500200","三重區"
"241028","022-UY","2017/10/24 16:19:39","新北市三重區正義南路165-1號","121.498878333333","25.0575616666667","6500200","三重區"
"241008","059-VK","2017/10/24 16:19:45","新北市三重區永福街112號","121.47897","25.0754216666667","6500200","三重區"
"241031","061-VK","2017/10/24 16:19:44","新北市三重區捷運路36號","121.482836666667","25.0552266666667","6500200","三重區"
"241017","063-VK","2017/10/24 16:19:44","新北市三重區大同北路91號","121.494728333333","25.0636583333333","6500200","三重區"
"241024","065-VK","2017/10/24 16:19:37","新北市三重區中正北路169號","121.478418333333","25.069295","6500200","三重區"
"241026","066-VK","2017/10/24 16:19:39","新北市三重區正義南路41號","121.498123333333","25.0608916666667","6500200","三重區"
"241002","090-VK","2017/10/24 16:19:39","新北市三重區仁義街101巷8號","121.498493333333","25.0796933333333","6500200","三重區"
"241003","091-VK","2017/10/24 16:19:47","新北市三重區仁義街220巷31號","121.49418","25.08359","6500200","三重區"
"241005","262-UM","2017/10/24 16:19:50","新北市三重區溪尾街300-2號","121.487333333333","25.0837","6500200","三重區"
"241015","265-UM","2017/10/24 16:19:38","新北市三重區福德北路79號","121.501885","25.0658683333333","6500200","三重區"
"241016","266-UM","2017/10/24 16:19:52","新北市三重區大仁街86號","121.492888333333","25.0654733333333","6500200","三重區"
"241022","267-UM","2017/10/24 16:19:45","新北市三重區市前街4號","121.489693333333","25.0618116666667","6500200","三重區"
"241018","268-UM","2017/10/24 16:19:36","新北市三重區重陽路三段144號","121.489441666667","25.06732","6500200","三重區"
"241013","270-UM","2017/10/24 16:19:57","新北市三重區龍門路86號","121.497166666667","25.0728333333333","6500200","三重區"
"241025","271-UM","2017/10/24 16:19:51","新北市三重區中正北路560巷100弄2號","121.472578333333","25.0682883333333","6500200","三重區"
"241007","398-BY","2017/10/24 16:19:35","新北市三重區仁美街83號","121.486141666667","25.0795316666667","6500200","三重區"
"241009","KEA-2210","2017/10/24 16:19:43","新北市三重區碧華街57號","121.484785","25.0813533333333","6500200","三重區"
"241020","413-TH","2017/10/24 16:19:48","新北市三重區三張街272號","121.483823333333","25.071175","6500200","三重區"
"241004","475-VK","2017/10/24 16:19:38","新北市三重區五華街74號","121.493506666667","25.08201","6500200","三重區"
"241019","478-VK","2017/10/24 16:19:39","新北市三重區安慶街247號","121.490581666667","25.0679133333333","6500200","三重區"
"241030","480-VK","2017/10/24 16:19:49","新北市三重區重新路四段121號","121.484821666667","25.0526033333333","6500200","三重區"
"241014","543-UM","2017/10/24 16:19:56","新北市三重區河邊北街100巷4號","121.503736666667","25.0703916666667","6500200","三重區"
"241023","545-UM","2017/10/24 16:19:42","新北市三重區忠孝路二段138號","121.482401666667","25.06834","6500200","三重區"
"241001","547-UM","2017/10/24 16:19:48","新北市三重區仁政街159號","121.491175","25.079465","6500200","三重區"
"241006","AAD-863","2017/10/24 16:19:56","新北市三重區永福街46巷10號","121.48234","25.0773183333333","6500200","三重區"
"241012","941-UM","2017/10/24 16:19:49","新北市三重區龍門路43號","121.496258333333","25.0722966666667","6500200","三重區"
"241029","942-UM","2017/10/24 16:19:45","新北市三重區環河南路220-8號","121.493368333333","25.0526866666667","6500200","三重區"
"241033","AAC-255","2017/10/24 16:19:54","新北市三重區重新路五段406-1號","121.475911666667","25.0477633333333","6500200","三重區"
"235026","800-TS","2017/10/24 16:19:50","新北市中和區建八路125巷10號","121.490225","24.9993883333333","6500300","中和區"
"228003","097-TW","2017/10/24 15:13:15","新北市貢寮區貢寮里朝陽街1-2號","121.912361666667","25.0213083333333","6502600","貢寮區"
"224006","676-BX","2017/10/24 16:19:53","新北市瑞芳區中山路67號","121.804066666667","25.10616","6501200","瑞芳區"
"224008","275-VK","2017/10/24 16:19:31","新北市瑞芳區中山路76號","121.802643333333","25.1064683333333","6501200","瑞芳區"
"224007","273-VK","2017/10/24 16:19:58","新北市瑞芳區大埔路280號","121.76015","25.1025266666667","6501200","瑞芳區"
"224005","271-BY","2017/10/24 16:19:56","新北市瑞芳區連福新城25號","121.820591666667","25.1186883333333","6501200","瑞芳區"
"227003","642-TC","2017/10/24 16:19:40","新北市雙溪區上林里內平林80號","121.828335","25.0279816666667","6502500","雙溪區"
"227009","400-TW","2017/10/24 16:19:54","新北市雙溪區三港里雙澳路78號","121.883795","25.0539","6502500","雙溪區"
"251008","181-VK","2017/10/24 16:19:38","新北市淡水區中正東路二段48巷20號","121.457168333333","25.158575","6501000","淡水區"
"251014","182-VK","2017/10/24 16:19:37","新北市淡水區中正路二段31號","121.419266666667","25.1817966666667","6501000","淡水區"
"251009","575-R6","2017/10/24 01:42:42","新北市淡水區中正路二段18號","121.419753333333","25.1810433333333","6501000","淡水區"
"237001","159-UY","2017/10/24 15:00:01","新北市三峽區中山路459巷163-1號","121.349303333333","24.9334516666667","6500900","三峽區"
"236047","970-R7","2017/10/24 16:19:57","新北市土城區和平路28號","121.44307","24.9724966666667","6501300","土城區"
"221012","276-VK","2017/10/24 13:22:50","新北市汐止區汐萬路一段256巷3號","121.653445","25.074605","6501100","汐止區"
