"lineid","car","time","location","longitude","latitude","cityid","cityname"
"249005","172-UM","2017/10/24 17:09:46","新北市八里區華富山7號","121.420956666667","25.14135","6502300","八里區"
"249001","173-UM","2017/10/24 17:09:38","新北市八里區中華路二段201號","121.40554","25.1496233333333","6502300","八里區"
"249004","303-UY","2017/10/24 17:09:41","新北市八里區忠孝路298號","121.41824","25.16143","6502300","八里區"
"249002","305-UY","2017/10/24 17:09:49","新北市八里區龍米路二段147巷2號","121.443343333333","25.1494516666667","6502300","八里區"
"249003","593-UM","2017/10/24 17:09:39","新北市八里區中山路二段417號","121.397168333333","25.1462866666667","6502300","八里區"
"244007","080-UY","2017/10/24 17:09:40","新北市林口區菁埔37-9號","121.376575","25.0972383333333","6501700","林口區"
"244019","403-UM","2017/10/24 17:09:46","新北市林口區仁愛路二段80號","121.384311666667","25.07543","6501700","林口區"
"244009","410-SL","2017/10/24 17:09:53","新北市林口區粉寮1號","121.397326666667","25.0798933333333","6501700","林口區"
"244023","483-VK","2017/10/24 17:09:39","新北市林口區粉寮路17巷1號","121.398383333333","25.080665","6501700","林口區"
"244017","485-VK","2017/10/24 17:09:56","新北市林口區粉寮69號","121.404975","25.0909183333333","6501700","林口區"
"244002","658-BX","2017/10/24 15:44:11","新北市林口區粉寮69號","121.405015","25.09095","6501700","林口區"
"244021","838-TS","2017/10/24 17:09:35","新北市林口區粉寮路二段40號","121.403401666667","25.0867916666667","6501700","林口區"
"231069","189-VK","2017/10/24 11:56:03","新北市新店區安華路28-1號","121.519486666667","24.9612333333333","6500600","新店區"
"231046","278-BY","2017/10/24 17:09:41","新北市新店區直潭路92號","121.530933333333","24.9376433333333","6500600","新店區"
"241011","013-R5","2017/10/24 17:09:54","新北市三重區龍濱路285號","121.50111","25.0734116666667","6500200","三重區"
"241028","022-UY","2017/10/24 17:09:39","新北市三重區重新路三段110號","121.492278333333","25.06037","6500200","三重區"
"241008","059-VK","2017/10/24 17:09:45","新北市三重區力行路二段136巷13號","121.481993333333","25.0757466666667","6500200","三重區"
"241031","061-VK","2017/10/24 17:09:45","新北市三重區重陽路一段113巷2弄2號","121.487263333333","25.0599466666667","6500200","三重區"
"241017","063-VK","2017/10/24 17:09:44","新北市三重區中正北路25巷2號","121.493251666667","25.062715","6500200","三重區"
"241024","065-VK","2017/10/24 17:09:56","新北市三重區中正北路207號","121.47671","25.0701383333333","6500200","三重區"
"241026","066-VK","2017/10/24 17:09:59","新北市三重區正義南路3號","121.497941666667","25.061955","6500200","三重區"
"241002","090-VK","2017/10/24 17:09:39","新北市三重區五華街35巷30號","121.495203333333","25.08138","6500200","三重區"
"241003","091-VK","2017/10/24 17:09:47","新北市三重區富福街115號","121.493616666667","25.0856916666667","6500200","三重區"
"241005","262-UM","2017/10/24 17:09:49","新北市三重區仁愛街664號","121.482403333333","25.08057","6500200","三重區"
"241015","265-UM","2017/10/24 17:09:52","新北市三重區長生街4號","121.49902","25.066345","6500200","三重區"
"241016","266-UM","2017/10/24 17:09:52","新北市三重區國隆路31號","121.492313333333","25.0644583333333","6500200","三重區"
"241022","267-UM","2017/10/24 17:09:45","新北市三重區三民街95號","121.485325","25.063275","6500200","三重區"
"241018","268-UM","2017/10/24 17:09:56","新北市三重區正義北路328號","121.494786666667","25.07056","6500200","三重區"
"241032","269-UM","2017/10/24 17:09:50","新北市三重區興華街10號","121.485978333333","25.0597266666667","6500200","三重區"
"241013","270-UM","2017/10/24 17:09:37","新北市三重區仁福街38號","121.497073333333","25.074685","6500200","三重區"
"241025","271-UM","2017/10/24 17:09:51","新北市三重區中正北路560巷9號","121.47084","25.07163","6500200","三重區"
"241007","398-BY","2017/10/24 17:09:55","新北市三重區三和路四段163巷10號","121.483596666667","25.0787616666667","6500200","三重區"
"241009","KEA-2210","2017/10/24 17:09:43","新北市三重區三和路四段211-14號","121.482173333333","25.079855","6500200","三重區"
"241020","413-TH","2017/10/24 17:09:48","新北市三重區後竹圍街157號","121.486393333333","25.072055","6500200","三重區"
"241004","475-VK","2017/10/24 17:09:58","新北市三重區五華街98巷4號","121.492246666667","25.0821066666667","6500200","三重區"
"241019","478-VK","2017/10/24 17:09:39","新北市三重區力行路一段153巷38號","121.486176666667","25.0692166666667","6500200","三重區"
"241030","480-VK","2017/10/24 17:09:48","新北市三重區集成路31號","121.488986666667","25.052485","6500200","三重區"
"241014","543-UM","2017/10/24 17:09:56","新北市三重區龍濱路120-6號","121.501823333333","25.0713533333333","6500200","三重區"
"241023","545-UM","2017/10/24 17:09:42","新北市三重區忠孝路三段84巷1號","121.4803","25.0645766666667","6500200","三重區"
"241001","547-UM","2017/10/24 17:09:48","新北市三重區仁愛街255巷87號","121.495168333333","25.0794733333333","6500200","三重區"
"241006","AAD-863","2017/10/24 17:09:55","新北市三重區三和路四段109號","121.486176666667","25.0769533333333","6500200","三重區"
"241012","941-UM","2017/10/24 17:09:49","新北市三重區仁興街23號","121.499796666667","25.0744916666667","6500200","三重區"
"241029","942-UM","2017/10/24 17:09:45","新北市三重區重新路四段116號","121.486996666667","25.0568266666667","6500200","三重區"
"241033","AAC-255","2017/10/24 17:09:54","新北市三重區中興北街275號","121.469165","25.0607283333333","6500200","三重區"
"235062","800-TS","2017/10/24 17:01:55","新北市中和區員山路36巷16-3號","121.48472","24.9915583333333","6500300","中和區"
"247022","893-R6","2017/10/24 17:09:52","新北市蘆洲區民族路504號","121.469458333333","25.0902316666667","6501400","蘆洲區"
"247012","546-UM","2017/10/24 17:09:41","新北市蘆洲區信義路292巷7號","121.478068333333","25.08772","6501400","蘆洲區"
"247020","500-BY","2017/10/24 17:09:50","新北市蘆洲區仁愛街62巷22號","121.472203333333","25.0943183333333","6501400","蘆洲區"
"247010","339-TH","2017/10/24 17:09:47","新北市蘆洲區民族路30號","121.476256666667","25.08435","6501400","蘆洲區"
"247002","337-TH","2017/10/24 17:09:47","新北市蘆洲區永樂街83號","121.455871666667","25.088745","6501400","蘆洲區"
"247004","336-TH","2017/10/24 17:09:43","新北市蘆洲區長安街207巷31號","121.459073333333","25.0816483333333","6501400","蘆洲區"
"247016","057-VK","2017/10/24 17:09:54","新北市蘆洲區光華路65巷2號","121.468403333333","25.082515","6501400","蘆洲區"
"247006","056-VK","2017/10/24 17:09:43","新北市蘆洲區長安街102巷65號","121.462636666667","25.082155","6501400","蘆洲區"
"247008","053-VK","2017/10/24 17:09:51","新北市蘆洲區信義路30巷65號","121.474831666667","25.077795","6501400","蘆洲區"
"247014","007-UY","2017/10/24 17:09:56","新北市蘆洲區中央路37巷15-19號","121.473095","25.0825533333333","6501400","蘆洲區"
"247024","002-UY","2017/10/24 17:09:56","新北市蘆洲區長興路37號","121.46335","25.083725","6501400","蘆洲區"
"247018","001-UY","2017/10/24 17:09:50","新北市蘆洲區復興路119號","121.477421666667","25.0882866666667","6501400","蘆洲區"
"228003","097-TW","2017/10/24 17:09:55","新北市貢寮區福隆里東興街10-1號","121.950805","25.0190216666667","6502600","貢寮區"
"228001","212-TW","2017/10/24 17:09:54","新北市貢寮區仁理村尖山腳街20號","121.924661666667","25.0478583333333","6502600","貢寮區"
"228002","663-BX","2017/10/24 17:09:46","新北市貢寮區龍崗里泮宮路51-1號","121.907788333333","25.01665","6502600","貢寮區"
"224010","AGQ-8101","2017/10/24 08:41:29","新北市瑞芳區明燈路二段46號","121.809503333333","25.1081316666667","6501200","瑞芳區"
"224006","676-BX","2017/10/24 17:09:56","新北市瑞芳區大寮路55號","121.781846666667","25.0981333333333","6501200","瑞芳區"
"224009","285-BY","2017/10/24 17:09:51","新北市瑞芳區街頂巷36號","121.84356","25.110595","6501200","瑞芳區"
"224008","275-VK","2017/10/24 17:09:51","新北市瑞芳區柴寮路24號","121.824663333333","25.08312","6501200","瑞芳區"
"224007","273-VK","2017/10/24 17:09:54","新北市瑞芳區粗坑口路48號","121.762138333333","25.0987266666667","6501200","瑞芳區"
"224005","271-BY","2017/10/24 17:09:36","新北市瑞芳區鼻頭路113號","121.916271666667","25.1227","6501200","瑞芳區"
"227003","642-TC","2017/10/24 17:09:39","新北市雙溪區外柑里外柑腳38號","121.808653333333","25.018095","6502500","雙溪區"
"227009","400-TW","2017/10/24 17:09:54","新北市雙溪區三貂里子崙坑1-6號","121.849908333333","25.0575133333333","6502500","雙溪區"
"251004","009-UM","2017/10/24 17:09:56","新北市淡水區中正東路34-3號","121.448788333333","25.16588","6501000","淡水區"
"251008","181-VK","2017/10/24 17:09:58","新北市淡水區樹梅坑15號","121.471058333333","25.1437066666667","6501000","淡水區"
"251014","182-VK","2017/10/24 17:09:57","新北市淡水區八里堆7-5號","121.460215","25.225305","6501000","淡水區"
"251010","413-VK","2017/10/24 17:09:39","新北市淡水區濱海路三段148巷50弄76號","121.43095","25.1910383333333","6501000","淡水區"
"251012","441-VK","2017/10/24 17:09:54","新北市淡水區新民街322巷1號","121.435225","25.1838016666667","6501000","淡水區"
"251016","442-VK","2017/10/24 17:09:42","新北市淡水區社厝坑2號","121.476275","25.1889166666667","6501000","淡水區"
"251005","443-VK","2017/10/24 17:09:46","新北市淡水區鄧公路19-1號","121.450393333333","25.1700616666667","6501000","淡水區"
"251006","561-UM","2017/10/24 17:09:49","新北市淡水區新生街68號","121.438986666667","25.1744466666667","6501000","淡水區"
"251009","575-R6","2017/10/24 17:09:47","新北市淡水區三民街21號","121.439041666667","25.1718433333333","6501000","淡水區"
"251007","577-R6","2017/10/24 17:09:40","新北市淡水區民權路39號","121.459641666667","25.140975","6501000","淡水區"
"251003","673-BX","2017/10/24 17:09:56","新北市淡水區中正路二段31號","121.419083333333","25.1820533333333","6501000","淡水區"
"252002","178-VK","2017/10/24 17:09:53","新北市三芝區忠孝街1-19號","121.505761666667","25.2534166666667","6502100","三芝區"
"252001","292-VK","2017/10/24 17:09:47","新北市三芝區埔頭里埔頭37號","121.498713333333","25.2605583333333","6502100","三芝區"
"237001","159-UY","2017/10/24 15:00:01","新北市三峽區中山路459巷163-1號","121.349303333333","24.9334516666667","6500900","三峽區"
"242032","AAC-296","2017/10/24 17:09:39","新北市新莊區新泰路357巷3弄57號","121.442215","25.0395083333333","6500500","新莊區"
"242051","751-BX","2017/10/24 17:09:51","新北市新莊區新樹路67巷5號","121.442035","25.0307316666667","6500500","新莊區"
"242025","705-TV","2017/10/24 17:09:37","新北市新莊區三和路12-12號","121.442296666667","25.0370983333333","6500500","新莊區"
"242023","613-BX","2017/10/24 17:09:39","新北市新莊區新泰路357巷3弄57號","121.442281666667","25.0392333333333","6500500","新莊區"
"242027","612-BX","2017/10/24 17:09:49","新北市新莊區新泰路357巷3弄57號","121.442176666667","25.0393016666667","6500500","新莊區"
"242039","566-BX","2017/10/24 17:09:43","新北市新莊區新泰路357巷3弄1號","121.442365","25.0415083333333","6500500","新莊區"
"242044","497-BY","2017/10/24 17:09:42","新北市新莊區建福路13號","121.42609","25.0294416666667","6500500","新莊區"
"242034","442-UM","2017/10/24 17:09:48","新北市新莊區公園一路75巷13號","121.442758333333","25.0380433333333","6500500","新莊區"
"242048","441-UM","2017/10/24 17:09:49","新北市新莊區中正路700-13號","121.418475","25.0275883333333","6500500","新莊區"
"242054","440-UM","2017/10/24 17:09:47","新北市新莊區新泰路415-1號","121.442266666667","25.0444866666667","6500500","新莊區"
"242005","413-TV","2017/10/24 17:09:42","新北市新莊區新泰路357巷3弄57號","121.442045","25.0394366666667","6500500","新莊區"
"242042","400-BY","2017/10/24 17:09:53","新北市新莊區新泰路357巷3弄57號","121.442275","25.0396033333333","6500500","新莊區"
"242061","362-BY","2017/10/24 17:09:43","新北市新莊區三和路12-21號","121.442131666667","25.0386433333333","6500500","新莊區"
"242058","353-BY","2017/10/24 17:09:57","新北市新莊區新泰路255巷83號","121.44219","25.0388316666667","6500500","新莊區"
"242007","132-UY","2017/10/24 12:47:25","新北市新莊區新泰路255巷83號","121.44205","25.03888","6500500","新莊區"
"242037","133-UY","2017/10/24 17:09:49","新北市新莊區新泰路255巷83號","121.442066666667","25.0389883333333","6500500","新莊區"
"242021","135-UY","2017/10/24 17:09:46","新北市新莊區新泰路255巷83號","121.442053333333","25.03892","6500500","新莊區"
"242046","172-VK","2017/10/24 14:34:01","新北市新莊區新泰路255巷83號","121.442071666667","25.03887","6500500","新莊區"
"242009","173-VK","2017/10/24 00:22:45","新北市新莊區三和路12-21號","121.442075","25.03871","6500500","新莊區"
"242015","175-VK","2017/10/24 17:09:50","新北市新莊區三和路12-21號","121.442056666667","25.0387866666667","6500500","新莊區"
"242002","176-VK","2017/10/24 17:09:56","新北市新莊區新泰路255巷83號","121.442095","25.0388133333333","6500500","新莊區"
"242013","346-TH","2017/10/24 17:09:41","新北市新莊區三和路12-16號","121.442023333333","25.0374333333333","6500500","新莊區"
"242017","347-TH","2017/10/24 09:06:16","新北市新莊區新泰路255巷83號","121.442183333333","25.039105","6500500","新莊區"
"242019","348-TH","2017/10/24 17:09:37","新北市新莊區新泰路357巷3弄57號","121.442018333333","25.03958","6500500","新莊區"
"242056","349-TH","2017/10/24 17:09:56","新北市新莊區三和路12-18號","121.442076666667","25.037625","6500500","新莊區"
"242011","351-TH","2017/10/24 17:09:53","新北市新莊區新泰路357巷3弄57號","121.442088333333","25.0394516666667","6500500","新莊區"
"238015","755-BX","2017/10/24 17:09:49","新北市樹林區育德街78-1號","121.388","24.9681966666667","6500700","樹林區"
"238023","601-UM","2017/10/24 17:09:49","新北市樹林區中山路三段125-10號","121.397443333333","24.97366","6500700","樹林區"
"238019","599-UM","2017/10/24 17:09:38","新北市樹林區佳園路一段153號","121.39387","24.96873","6500700","樹林區"
"238018","571-TV","2017/10/24 17:09:56","新北市樹林區八德街272號","121.411888333333","24.9703533333333","6500700","樹林區"
"238024","5061-A6","2017/10/24 17:09:48","新北市樹林區八德街286號","121.409898333333","24.969925","6500700","樹林區"
"238021","KEA-2217","2017/10/24 17:09:39","新北市樹林區佳園路二段26號","121.391705","24.9631833333333","6500700","樹林區"
"238022","KEA-2213","2017/10/24 17:09:51","新北市樹林區八德街370號","121.40808","24.969665","6500700","樹林區"
"238025","303-VK","2017/10/24 17:09:49","新北市樹林區中山路三段125-6號","121.398183333333","24.97397","6500700","樹林區"
"238017","283-BY","2017/10/24 17:09:40","新北市樹林區中山路三段125-1號","121.397371666667","24.973085","6500700","樹林區"
"238014","282-BY","2017/10/24 17:09:39","新北市樹林區八德街808號","121.394985","24.9688283333333","6500700","樹林區"
"238020","268-VK","2017/10/24 17:09:54","新北市樹林區中山路三段125-10號","121.397355","24.9735266666667","6500700","樹林區"
"238026","172-UY","2017/10/24 17:09:41","新北市樹林區八德街828號","121.394318333333","24.96871","6500700","樹林區"
"238016","169-UY","2017/10/24 17:09:47","新北市樹林區中山路三段125-6號","121.39819","24.973915","6500700","樹林區"
"239007","AAC-297","2017/10/24 17:09:42","新北市鶯歌區中正一路148號","121.35231","24.9558283333333","6500800","鶯歌區"
"239006","891-R6","2017/10/24 17:09:45","新北市鶯歌區八德路2巷3-5號","121.337601666667","24.9480166666667","6500800","鶯歌區"
"239008","527-UM","2017/10/24 17:09:43","新北市鶯歌區文化路307號","121.352483333333","24.952515","6500800","鶯歌區"
"239005","526-UM","2017/10/24 17:09:39","新北市鶯歌區鶯桃路318號","121.334011666667","24.96181","6500800","鶯歌區"
"239001","417-VK","2017/10/24 17:09:45","新北市鶯歌區尖山路103-3號","121.347868333333","24.9491683333333","6500800","鶯歌區"
"239003","360-BY","2017/10/24 17:09:53","新北市鶯歌區德昌二街70巷32弄41號","121.330595","24.958605","6500800","鶯歌區"
"239002","359-BY","2017/10/24 17:09:59","新北市鶯歌區建國路282號","121.345858333333","24.9531383333333","6500800","鶯歌區"
"239004","193-VK","2017/10/24 17:09:50","新北市鶯歌區文化路256巷20號","121.352021666667","24.9477216666667","6500800","鶯歌區"
"221012","276-VK","2017/10/24 13:22:50","新北市汐止區汐萬路一段256巷3號","121.653445","25.074605","6501100","汐止區"
