"lineid","car","time","location","longitude","latitude","cityid","cityname"
"234026","9371-KE","2017/10/24 17:39:46","新北市永和區中正路736號","121.515341666667","25.010135","6500400","永和區"
"249005","172-UM","2017/10/24 17:39:46","新北市八里區荖阡坑路34號","121.402775","25.1297833333333","6502300","八里區"
"249001","173-UM","2017/10/24 17:39:38","新北市八里區龍米路二段203-9號","121.4325","25.158335","6502300","八里區"
"249004","303-UY","2017/10/24 17:39:21","新北市八里區民治街102號","121.41331","25.1568283333333","6502300","八里區"
"249002","305-UY","2017/10/24 17:39:49","新北市八里區石壁腳10號","121.442496666667","25.1352866666667","6502300","八里區"
"249003","593-UM","2017/10/24 17:39:39","新北市八里區中山路二段191-1號","121.404455","25.14996","6502300","八里區"
"248006","077-UY","2017/10/24 02:25:11","新北市五股區中興路二段83巷26-6號","121.460008333333","25.075085","6501500","五股區"
"232011","375-UM","2017/10/24 17:39:47","新北市坪林區北宜路八段438號","121.707426666667","24.924365","6502000","坪林區"
"244013","069-UM","2017/10/24 17:39:57","新北市林口區中正路555號","121.381146666667","25.0769583333333","6501700","林口區"
"244007","080-UY","2017/10/24 17:39:40","新北市林口區湖子49號","121.383358333333","25.0922033333333","6501700","林口區"
"244019","403-UM","2017/10/24 17:39:50","新北市林口區公園路122號","121.37074","25.0713283333333","6501700","林口區"
"244025","742-UY","2017/10/24 17:39:54","新北市林口區文化三路一段394巷37號","121.36726","25.0716283333333","6501700","林口區"
"244009","410-SL","2017/10/24 17:39:53","新北市林口區中北三街176巷60號","121.3823","25.0820583333333","6501700","林口區"
"244023","483-VK","2017/10/24 17:39:39","新北市林口區東明一街110號","121.390621666667","25.0709766666667","6501700","林口區"
"244017","485-VK","2017/10/24 17:39:36","新北市林口區文化一路二段200號","121.383106666667","25.08081","6501700","林口區"
"244002","658-BX","2017/10/24 15:44:11","新北市林口區粉寮69號","121.405015","25.09095","6501700","林口區"
"244011","701-TV","2017/10/24 17:39:41","新北市林口區中正路451號","121.384571666667","25.0774733333333","6501700","林口區"
"244021","838-TS","2017/10/24 17:39:56","新北市林口區仁愛路一段217號","121.398158333333","25.0747183333333","6501700","林口區"
"231069","189-VK","2017/10/24 11:56:03","新北市新店區安華路28-1號","121.519486666667","24.9612333333333","6500600","新店區"
"231046","278-BY","2017/10/24 17:39:41","新北市新店區直潭路92號","121.530881666667","24.9376","6500600","新店區"
"241017","063-VK","2017/10/24 17:39:44","新北市三重區大同北路26號","121.49535","25.0624233333333","6500200","三重區"
"241024","065-VK","2017/10/24 17:39:56","新北市三重區力行路二段9巷10號","121.482933333333","25.07222","6500200","三重區"
"241005","262-UM","2017/10/24 17:39:49","新北市三重區碧華街246號","121.487596666667","25.0827933333333","6500200","三重區"
"241015","265-UM","2017/10/24 17:39:38","新北市三重區龍濱路285號","121.501128333333","25.073335","6500200","三重區"
"241016","266-UM","2017/10/24 17:39:52","新北市三重區重新路二段23號","121.497921666667","25.06255","6500200","三重區"
"241007","398-BY","2017/10/24 17:39:55","新北市三重區國道路一段139號","121.476026666667","25.0736116666667","6500200","三重區"
"241020","413-TH","2017/10/24 17:39:48","新北市三重區忠孝路三段84巷1號","121.48019","25.0643466666667","6500200","三重區"
"241019","478-VK","2017/10/24 17:39:39","新北市三重區六張街261號","121.486946666667","25.0681616666667","6500200","三重區"
"241014","543-UM","2017/10/24 17:39:56","新北市三重區河邊北街80號","121.504271666667","25.06888","6500200","三重區"
"241023","545-UM","2017/10/24 17:39:42","新北市三重區中華路107號","121.483681666667","25.063385","6500200","三重區"
"241012","941-UM","2017/10/24 17:39:49","新北市三重區河邊北街276號","121.501293333333","25.0767116666667","6500200","三重區"
"241033","AAC-255","2017/10/24 17:39:54","新北市三重區光復路一段97號","121.47212","25.051025","6500200","三重區"
"235061","378-QA","2017/10/24 17:22:45","新北市中和區員山路36巷16-2號","121.485283333333","24.9917333333333","6500300","中和區"
"235062","800-TS","2017/10/24 17:01:55","新北市中和區員山路36巷16-3號","121.48472","24.9915583333333","6500300","中和區"
"247022","893-R6","2017/10/24 17:39:52","新北市蘆洲區民族路550號","121.467626666667","25.0892216666667","6501400","蘆洲區"
"247012","546-UM","2017/10/24 17:39:41","新北市蘆洲區民權路11號","121.476453333333","25.0860183333333","6501400","蘆洲區"
"247020","500-BY","2017/10/24 17:39:50","新北市蘆洲區民義街107號","121.47385","25.0909766666667","6501400","蘆洲區"
"247010","339-TH","2017/10/24 17:39:47","新北市蘆洲區中山一路112號","121.477376666667","25.081495","6501400","蘆洲區"
"247002","337-TH","2017/10/24 17:39:47","新北市蘆洲區永平街62號","121.45732","25.0916533333333","6501400","蘆洲區"
"247004","336-TH","2017/10/24 17:39:43","新北市蘆洲區中原路3號","121.461458333333","25.083565","6501400","蘆洲區"
"247016","057-VK","2017/10/24 17:39:54","新北市蘆洲區光華路48號","121.468575","25.083185","6501400","蘆洲區"
"247006","056-VK","2017/10/24 17:39:40","新北市蘆洲區長安街25號","121.463926666667","25.0791083333333","6501400","蘆洲區"
"247008","053-VK","2017/10/24 17:39:51","新北市蘆洲區和平路15號","121.472558333333","25.0792666666667","6501400","蘆洲區"
"247014","007-UY","2017/10/24 17:39:56","新北市蘆洲區中正路32號","121.47124","25.0823633333333","6501400","蘆洲區"
"247024","002-UY","2017/10/24 17:39:56","新北市蘆洲區長樂路125-1號","121.46214","25.0880333333333","6501400","蘆洲區"
"247018","001-UY","2017/10/24 17:39:50","新北市蘆洲區民權路63號","121.473636666667","25.088075","6501400","蘆洲區"
"228003","097-TW","2017/10/24 17:39:55","新北市貢寮區仁理村仁和路47號","121.924026666667","25.05411","6502600","貢寮區"
"228001","212-TW","2017/10/24 17:39:54","新北市貢寮區仁理村仁愛路95-1號","121.927695","25.0554916666667","6502600","貢寮區"
"228002","663-BX","2017/10/24 17:39:46","新北市貢寮區福隆里外隆林街14-1號","121.959168333333","25.0036516666667","6502600","貢寮區"
"224010","AGQ-8101","2017/10/24 17:36:03","新北市瑞芳區逢甲路206號","121.806818333333","25.1102366666667","6501200","瑞芳區"
"224006","676-BX","2017/10/24 17:39:56","新北市瑞芳區中山路251號","121.797768333333","25.109585","6501200","瑞芳區"
"224009","285-BY","2017/10/24 17:39:51","新北市瑞芳區山尖路215-1號","121.848843333333","25.1124083333333","6501200","瑞芳區"
"224008","275-VK","2017/10/24 17:39:58","新北市瑞芳區瑞柑新村4號","121.82907","25.1063233333333","6501200","瑞芳區"
"224005","271-BY","2017/10/24 17:39:50","新北市瑞芳區籠山路22號","121.832276666667","25.123285","6501200","瑞芳區"
"227003","642-TC","2017/10/24 17:39:50","新北市雙溪區共和里東榮街42號","121.866141666667","25.0336816666667","6502500","雙溪區"
"251004","009-UM","2017/10/24 17:39:36","新北市淡水區中正東路二段88巷39號","121.459303333333","25.1427133333333","6501000","淡水區"
"251001","011-UM","2017/10/24 17:39:48","新北市淡水區民權路92巷35-1號","121.462163333333","25.12671","6501000","淡水區"
"251008","181-VK","2017/10/24 17:39:38","新北市淡水區八勢路30巷19號","121.462515","25.1537716666667","6501000","淡水區"
"251014","182-VK","2017/10/24 17:39:37","新北市淡水區公埔子16-6號","121.481011666667","25.2245683333333","6501000","淡水區"
"251010","413-VK","2017/10/24 17:39:39","新北市淡水區淡海路280巷33弄1號","121.4197","25.1901016666667","6501000","淡水區"
"251012","441-VK","2017/10/24 17:39:34","新北市淡水區北新路200巷8號","121.451771666667","25.1796916666667","6501000","淡水區"
"251016","442-VK","2017/10/24 17:39:42","新北市淡水區埤島75-1號","121.45386","25.1946816666667","6501000","淡水區"
"251005","443-VK","2017/10/24 17:39:46","新北市淡水區鄧公路33巷14號","121.451898333333","25.1709283333333","6501000","淡水區"
"251006","561-UM","2017/10/24 17:39:49","新北市淡水區大信街24巷2號","121.441936666667","25.176795","6501000","淡水區"
"251009","575-R6","2017/10/24 17:39:47","新北市淡水區中正路65號","121.441073333333","25.16957","6501000","淡水區"
"251007","577-R6","2017/10/24 17:39:40","新北市淡水區民生路124巷4弄6號","121.463596666667","25.1380233333333","6501000","淡水區"
"251011","650-BX","2017/10/24 17:39:48","新北市淡水區小坪頂20-1號","121.484653333333","25.157635","6501000","淡水區"
"251002","672-BX","2017/10/24 17:39:42","新北市淡水區重建街永興巷11號","121.43944","25.1726566666667","6501000","淡水區"
"251003","673-BX","2017/10/24 17:39:56","新北市淡水區大忠街5巷1號","121.443108333333","25.17644","6501000","淡水區"
"207003","550-UM","2017/10/24 17:39:40","新北市萬里區龜吼里漁澳路85-2號","121.688","25.196205","6502800","萬里區"
"207004","225-TW","2017/10/24 17:39:49","新北市萬里區中幅里中福路8-1號","121.685966666667","25.1647366666667","6502800","萬里區"
"252002","178-VK","2017/10/24 17:39:53","新北市三芝區中正路二段15號","121.504465","25.2553733333333","6502100","三芝區"
"252001","292-VK","2017/10/24 17:39:52","新北市三芝區淡金路一段69號","121.501585","25.2588583333333","6502100","三芝區"
"237001","159-UY","2017/10/24 15:00:01","新北市三峽區中山路459巷163-1號","121.349303333333","24.9334516666667","6500900","三峽區"
"237008","302-VK","2017/10/24 17:39:45","新北市三峽區中山路333-1號","121.360198333333","24.93794","6500900","三峽區"
"237006","5529-G3","2017/10/24 17:39:41","新北市三峽區介壽路一段552巷3號","121.38738","24.933105","6500900","三峽區"
"237011","572-TV","2017/10/24 17:39:17","新北市三峽區中山路98號","121.366455","24.935405","6500900","三峽區"
"237010","706-TV","2017/10/24 17:37:15","新北市三峽區中山路198號","121.363165","24.9371316666667","6500900","三峽區"
"236070","105-UM","2017/10/24 17:39:42","新北市土城區城林路6巷80號","121.43843","24.9798333333333","6501300","土城區"
"236043","107-UM","2017/10/24 17:39:50","新北市土城區城林路6巷80號","121.438483333333","24.979745","6501300","土城區"
"236079","166-UM","2017/10/24 17:39:46","新北市土城區城林路6巷80號","121.438463333333","24.9797766666667","6501300","土城區"
"236015","270-VK","2017/10/24 17:39:40","新北市土城區城林路6巷80號","121.438468333333","24.97963","6501300","土城區"
"236059","912-UM","2017/10/24 17:39:39","新北市土城區城林路6巷80號","121.438508333333","24.9797483333333","6501300","土城區"
"242032","AAC-296","2017/10/24 17:39:39","新北市新莊區新泰路369巷18號","121.442795","25.043275","6500500","新莊區"
"242029","986-R7","2017/10/24 17:39:44","新北市新莊區復興路二段150號","121.457706666667","25.0443266666667","6500500","新莊區"
"242051","751-BX","2017/10/24 17:39:51","新北市新莊區龍安路537號","121.427956666667","25.0175416666667","6500500","新莊區"
"242025","705-TV","2017/10/24 17:39:56","新北市新莊區思源路118號","121.460145","25.0469416666667","6500500","新莊區"
"242023","613-BX","2017/10/24 17:39:58","新北市新莊區公園路129-12號","121.457658333333","25.0410866666667","6500500","新莊區"
"242027","612-BX","2017/10/24 17:39:49","新北市新莊區福壽街107號","121.457983333333","25.0507866666667","6500500","新莊區"
"242039","566-BX","2017/10/24 17:39:43","新北市新莊區民全街7號","121.428956666667","25.0213383333333","6500500","新莊區"
"242044","497-BY","2017/10/24 17:39:42","新北市新莊區中正路871巷9弄44號","121.419888333333","25.026595","6500500","新莊區"
"242034","442-UM","2017/10/24 17:39:51","新北市新莊區新莊路524號","121.445763333333","25.0331166666667","6500500","新莊區"
"242048","441-UM","2017/10/24 17:39:49","新北市新莊區萬安街147號","121.420416666667","25.021705","6500500","新莊區"
"242054","440-UM","2017/10/24 17:39:47","新北市新莊區新樹路699巷9號","121.432578333333","25.0018766666667","6500500","新莊區"
"242005","413-TV","2017/10/24 17:39:42","新北市新莊區自立街229號","121.45672","25.045695","6500500","新莊區"
"242042","400-BY","2017/10/24 17:39:53","新北市泰山區漢口街36號","121.426151666667","25.0352666666667","6500500","新莊區"
"242061","362-BY","2017/10/24 17:39:43","新北市新莊區瓊林南路103巷8弄39號","121.435301666667","25.0111733333333","6500500","新莊區"
"242058","353-BY","2017/10/24 17:39:56","新北市新莊區中正路698號","121.418786666667","25.0278433333333","6500500","新莊區"
"242007","132-UY","2017/10/24 17:39:44","新北市新莊區福樂街118巷6號","121.457355","25.04804","6500500","新莊區"
"242037","133-UY","2017/10/24 17:39:49","新北市新莊區後港一路201號","121.434375","25.0284133333333","6500500","新莊區"
"242021","135-UY","2017/10/24 17:39:46","新北市新莊區中華路一段118號","121.452481666667","25.0405883333333","6500500","新莊區"
"242046","172-VK","2017/10/24 17:39:44","新北市新莊區中正路589號","121.434175","25.0323316666667","6500500","新莊區"
"242009","173-VK","2017/10/24 17:39:50","新北市新莊區昌明街14巷7弄1號","121.457291666667","25.0533483333333","6500500","新莊區"
"242015","175-VK","2017/10/24 17:39:50","新北市新莊區新泰路334號","121.444875","25.0420016666667","6500500","新莊區"
"242002","176-VK","2017/10/24 17:39:56","新北市新莊區新莊路292號","121.451285","25.033785","6500500","新莊區"
"242013","346-TH","2017/10/24 17:39:41","新北市新莊區中誠街120號","121.449338333333","25.0476133333333","6500500","新莊區"
"242017","347-TH","2017/10/24 09:06:16","新北市新莊區新泰路255巷83號","121.442183333333","25.039105","6500500","新莊區"
"242019","348-TH","2017/10/24 17:39:57","新北市新莊區中港路179號","121.454856666667","25.0414966666667","6500500","新莊區"
"242056","349-TH","2017/10/24 17:39:51","新北市新莊區泰豐街30巷12號","121.44878","25.0320116666667","6500500","新莊區"
"242011","351-TH","2017/10/24 17:39:54","新北市新莊區中港路618-2號","121.451091666667","25.054535","6500500","新莊區"
"238015","755-BX","2017/10/24 17:39:58","新北市樹林區啟智街25號","121.420876666667","24.9933766666667","6500700","樹林區"
"238023","601-UM","2017/10/24 17:39:49","新北市樹林區三福街114號","121.406516666667","25.0163616666667","6500700","樹林區"
"238019","599-UM","2017/10/24 17:39:58","新北市樹林區太平路70號","121.419138333333","24.9805183333333","6500700","樹林區"
"238018","571-TV","2017/10/24 17:39:56","新北市樹林區鎮前街113號","121.42427","24.9896666666667","6500700","樹林區"
"238024","5061-A6","2017/10/24 17:39:48","新北市樹林區忠孝街67巷48號","121.425353333333","24.981855","6500700","樹林區"
"238021","KEA-2217","2017/10/24 17:39:39","新北市樹林區佳園路二段28號","121.391558333333","24.9627216666667","6500700","樹林區"
"238022","KEA-2213","2017/10/24 17:39:51","新北市樹林區仁愛街2號","121.421353333333","24.9813816666667","6500700","樹林區"
"238025","303-VK","2017/10/24 17:39:49","新北市樹林區保安街二段229號","121.413206666667","25.0044216666667","6500700","樹林區"
"238017","283-BY","2017/10/24 17:39:40","新北市樹林區中正路286-2號","121.415568333333","25.009135","6500700","樹林區"
"238014","282-BY","2017/10/24 17:39:39","新北市樹林區保安街一段294巷22號","121.420286666667","24.9987266666667","6500700","樹林區"
"238020","268-VK","2017/10/24 17:39:54","新北市樹林區俊英街116巷1弄34號","121.427553333333","25.0056816666667","6500700","樹林區"
"238026","172-UY","2017/10/24 17:39:41","新北市樹林區味王街14號","121.403006666667","24.9760516666667","6500700","樹林區"
"238016","169-UY","2017/10/24 17:39:47","新北市樹林區中山路一段106號","121.422881666667","24.990875","6500700","樹林區"
"239007","AAC-297","2017/10/24 17:39:42","新北市鶯歌區永安街26號","121.33761","24.9556616666667","6500800","鶯歌區"
"239006","891-R6","2017/10/24 17:39:45","新北市鶯歌區鶯桃路524-1號","121.331558333333","24.9667283333333","6500800","鶯歌區"
"239008","527-UM","2017/10/24 17:39:43","新北市鶯歌區大湖路732巷45號","121.333451666667","24.978245","6500800","鶯歌區"
"239005","526-UM","2017/10/24 17:39:39","新北市鶯歌區鳳吉四街3號","121.326133333333","24.9725066666667","6500800","鶯歌區"
"239001","417-VK","2017/10/24 17:39:45","新北市鶯歌區中正三路176-1號","121.333366666667","24.9384833333333","6500800","鶯歌區"
"239003","360-BY","2017/10/24 17:39:53","新北市鶯歌區鶯桃路289-1號","121.334633333333","24.9600133333333","6500800","鶯歌區"
"239002","359-BY","2017/10/24 17:39:39","新北市鶯歌區育樂街84號","121.343513333333","24.9546683333333","6500800","鶯歌區"
"239004","193-VK","2017/10/24 17:39:50","新北市鶯歌區文化路224號","121.35272","24.948725","6500800","鶯歌區"
"221008","489-VK","2017/10/24 17:39:47","新北市汐止區康寧街901號","121.651418333333","25.0751166666667","6501100","汐止區"
"221015","131-UY","2017/10/24 17:39:49","新北市汐止區康寧街901號","121.65127","25.075085","6501100","汐止區"
"221010","269-BY","2017/10/24 17:39:40","新北市汐止區汐萬路一段256巷1號","121.651933333333","25.0748566666667","6501100","汐止區"
"221012","276-VK","2017/10/24 13:22:50","新北市汐止區汐萬路一段256巷3號","121.653445","25.074605","6501100","汐止區"
"221032","280-BY","2017/10/24 17:39:47","新北市汐止區樟樹二路251巷35號","121.640503333333","25.067535","6501100","汐止區"
"221021","299-VK","2017/10/24 17:39:37","新北市汐止區汐萬路一段256巷3號","121.652061666667","25.07485","6501100","汐止區"
"221025","623-UM","2017/10/24 17:39:41","新北市汐止區康寧街901號","121.650953333333","25.0752466666667","6501100","汐止區"
"221033","647-BX","2017/10/24 17:39:43","新北市汐止區大同路一段205號","121.633551666667","25.057345","6501100","汐止區"
"221018","753-BX","2017/10/24 17:39:52","新北市汐止區忠孝東路341號","121.665273333333","25.07001","6501100","汐止區"
