"lineid","car","time","location","longitude","latitude","cityid","cityname"
"234026","9371-KE","2017/10/24 17:49:46","新北市永和區中山路一段119號","121.510813333333","25.0101183333333","6500400","永和區"
"249005","172-UM","2017/10/24 17:49:46","新北市八里區荖阡里41-1號","121.402356666667","25.1340216666667","6502300","八里區"
"249001","173-UM","2017/10/24 17:49:58","新北市八里區龍米路二段125巷1號","121.446355","25.1454316666667","6502300","八里區"
"249004","303-UY","2017/10/24 17:49:41","新北市八里區中華路一段79巷9號","121.421005","25.15646","6502300","八里區"
"249002","305-UY","2017/10/24 17:49:49","新北市八里區龍形五街37巷3號","121.448558333333","25.1325183333333","6502300","八里區"
"249003","593-UM","2017/10/24 17:49:39","新北市八里區中山路二段123號","121.405456666667","25.1519016666667","6502300","八里區"
"248006","077-UY","2017/10/24 17:49:44","新北市五股區中興路二段83巷26-6號","121.459895","25.0751633333333","6501500","五股區"
"248020","225-UY","2017/10/24 17:49:47","新北市五股區中興路二段83巷26-6號","121.460021666667","25.0752216666667","6501500","五股區"
"248002","678-BX","2017/10/24 17:49:45","新北市五股區中興路二段83巷26-6號","121.46009","25.0751033333333","6501500","五股區"
"232011","375-UM","2017/10/24 17:49:47","新北市坪林區北宜路八段29號","121.703886666667","24.9358433333333","6502000","坪林區"
"244013","069-UM","2017/10/24 17:49:57","新北市林口區中正路505巷5號","121.3834","25.0773283333333","6501700","林口區"
"244007","080-UY","2017/10/24 17:49:40","新北市林口區林口路184號","121.387608333333","25.082855","6501700","林口區"
"244019","403-UM","2017/10/24 17:49:46","新北市林口區文化一路一段83巷14弄3號","121.372251666667","25.071875","6501700","林口區"
"244025","742-UY","2017/10/24 17:49:54","新北市林口區文化三路一段181號","121.362145","25.0697783333333","6501700","林口區"
"244009","410-SL","2017/10/24 17:49:53","新北市林口區文化一路二段199號","121.383876666667","25.08265","6501700","林口區"
"244023","483-VK","2017/10/24 17:49:52","新北市林口區東湖路2號","121.389266666667","25.0737666666667","6501700","林口區"
"244017","485-VK","2017/10/24 17:49:56","新北市林口區忠孝路377號","121.369381666667","25.0716416666667","6501700","林口區"
"244002","658-BX","2017/10/24 15:44:11","新北市林口區粉寮69號","121.405015","25.09095","6501700","林口區"
"244011","701-TV","2017/10/24 17:49:41","新北市林口區中正路196號","121.391276666667","25.077635","6501700","林口區"
"244021","838-TS","2017/10/24 17:49:35","新北市林口區仁愛路一段123巷15號","121.397803333333","25.0706683333333","6501700","林口區"
"243013","AAD-798","2017/10/24 17:49:56","新北市泰山區錢厝坑8號","121.408108333333","25.050015","6501600","泰山區"
"222003","436-BY","2017/10/24 17:49:46","新北市深坑區阿柔洋60-1號","121.608566666667","24.9985433333333","6501800","深坑區"
"222002","659-BX","2017/10/24 17:49:45","新北市深坑區平埔街22巷8號","121.614936666667","25.0009383333333","6501800","深坑區"
"231069","189-VK","2017/10/24 11:56:03","新北市新店區安華路28-1號","121.519486666667","24.9612333333333","6500600","新店區"
"231046","278-BY","2017/10/24 17:49:41","新北市新店區下石厝路1號","121.531201666667","24.929855","6500600","新店區"
"241024","065-VK","2017/10/24 17:49:36","新北市三重區國道路一段50號","121.482381666667","25.0729416666667","6500200","三重區"
"241005","262-UM","2017/10/24 17:49:49","新北市三重區集賢路82號","121.492115","25.088875","6500200","三重區"
"241016","266-UM","2017/10/24 17:49:52","新北市三重區新北大道一段7號","121.489728333333","25.061405","6500200","三重區"
"241020","413-TH","2017/10/24 17:49:48","新北市三重區忠孝路三段52號","121.480683333333","25.065685","6500200","三重區"
"241019","478-VK","2017/10/24 17:49:59","新北市新莊區化成路579巷1號","121.464345","25.0664216666667","6500200","三重區"
"241033","AAC-255","2017/10/24 17:49:54","新北市三重區重新路五段575號","121.4701","25.0458816666667","6500200","三重區"
"235064","005-UY","2017/10/24 17:49:49","新北市中和區員山路36巷16-3號","121.485191666667","24.99117","6500300","中和區"
"235061","378-QA","2017/10/24 17:48:27","新北市中和區員山路36巷16-2號","121.485201666667","24.99187","6500300","中和區"
"235062","800-TS","2017/10/24 17:01:55","新北市中和區員山路36巷16-3號","121.48472","24.9915583333333","6500300","中和區"
"247022","893-R6","2017/10/24 17:49:52","新北市蘆洲區中正路270巷19號","121.466026666667","25.0901966666667","6501400","蘆洲區"
"247012","546-UM","2017/10/24 17:49:41","新北市蘆洲區復興路112號","121.47606","25.0872033333333","6501400","蘆洲區"
"247020","500-BY","2017/10/24 17:49:50","新北市蘆洲區民權路188-3號","121.47145","25.0908316666667","6501400","蘆洲區"
"247010","339-TH","2017/10/24 17:49:55","新北市蘆洲區信義路204號","121.479065","25.0847983333333","6501400","蘆洲區"
"247002","337-TH","2017/10/24 17:49:47","新北市蘆洲區永平街32巷21弄35號","121.457778333333","25.0922683333333","6501400","蘆洲區"
"247004","336-TH","2017/10/24 17:49:43","新北市蘆洲區永康街61號","121.456408333333","25.0852716666667","6501400","蘆洲區"
"247016","057-VK","2017/10/24 17:49:54","新北市蘆洲區中正路185巷68弄1號","121.466521666667","25.0845333333333","6501400","蘆洲區"
"247006","056-VK","2017/10/24 17:49:40","新北市蘆洲區九芎街136號","121.465098333333","25.0790966666667","6501400","蘆洲區"
"247008","053-VK","2017/10/24 17:49:51","新北市蘆洲區中山一路186號","121.4738","25.080985","6501400","蘆洲區"
"247014","007-UY","2017/10/24 17:49:56","新北市蘆洲區保和街50-6號","121.469841666667","25.08634","6501400","蘆洲區"
"247024","002-UY","2017/10/24 17:49:56","新北市蘆洲區長樂路120巷8號","121.462368333333","25.0897033333333","6501400","蘆洲區"
"247018","001-UY","2017/10/24 17:49:50","新北市蘆洲區民權路60號","121.475241666667","25.087105","6501400","蘆洲區"
"228003","097-TW","2017/10/24 17:49:35","新北市貢寮區真理里美艷山街6-2號","121.92893","25.0607433333333","6502600","貢寮區"
"228001","212-TW","2017/10/24 17:49:54","新北市貢寮區仁理村仁愛路95-1號","121.927703333333","25.0555","6502600","貢寮區"
"228002","663-BX","2017/10/24 17:49:46","新北市貢寮區福隆里龜壽谷街13號","121.957336666667","25.0053983333333","6502600","貢寮區"
"224006","676-BX","2017/10/24 17:49:56","新北市瑞芳區傑魚坑路266號","121.788695","25.1086733333333","6501200","瑞芳區"
"224002","639-TC","2017/10/24 17:49:53","新北市瑞芳區明燈路二段46號","121.80956","25.1081633333333","6501200","瑞芳區"
"224009","285-BY","2017/10/24 17:49:51","新北市瑞芳區山尖路175號","121.852583333333","25.1124133333333","6501200","瑞芳區"
"224008","275-VK","2017/10/24 17:49:52","新北市瑞芳區明燈路一段100號","121.819211666667","25.1078483333333","6501200","瑞芳區"
"224005","271-BY","2017/10/24 17:49:41","新北市瑞芳區建基路一段62巷4-2號","121.816936666667","25.1276716666667","6501200","瑞芳區"
"253006","295-VK","2017/10/24 17:49:37","新北市石門區中山路37號","121.566893333333","25.2911366666667","6502200","石門區"
"208002","742-BX","2017/10/24 17:49:55","新北市金山區磺清路135號","121.639186666667","25.2277133333333","6502700","金山區"
"208003","665-BX","2017/10/24 17:49:49","新北市金山區磺清路135號","121.639251666667","25.2277433333333","6502700","金山區"
"208001","761-BX","2017/10/24 17:49:46","新北市金山區磺清路135號","121.63928","25.2277816666667","6502700","金山區"
"251004","009-UM","2017/10/24 17:49:16","新北市淡水區民權一街33-3號","121.459385","25.1363366666667","6501000","淡水區"
"251001","011-UM","2017/10/24 17:49:48","新北市淡水區民權路92巷35-1號","121.462198333333","25.1266883333333","6501000","淡水區"
"251008","181-VK","2017/10/24 17:49:58","新北市淡水區八勢路一段156號","121.468135","25.1564883333333","6501000","淡水區"
"251014","182-VK","2017/10/24 17:49:57","新北市淡水區公埔子16-6號","121.481008333333","25.224545","6501000","淡水區"
"251010","413-VK","2017/10/24 17:49:59","新北市淡水區中正路二段54號","121.419116666667","25.1838766666667","6501000","淡水區"
"251012","441-VK","2017/10/24 17:49:53","新北市淡水區北新路一段339號","121.466653333333","25.1823366666667","6501000","淡水區"
"251016","442-VK","2017/10/24 17:49:42","新北市淡水區埤島39-15號","121.452688333333","25.195925","6501000","淡水區"
"251005","443-VK","2017/10/24 17:49:46","新北市淡水區學府路102巷9號","121.450666666667","25.1718633333333","6501000","淡水區"
"251006","561-UM","2017/10/24 17:49:49","新北市淡水區中山北路一段45巷18號","121.440928333333","25.175905","6501000","淡水區"
"251009","575-R6","2017/10/24 17:49:57","新北市淡水區長興街36-1號","121.444126666667","25.17135","6501000","淡水區"
"251007","577-R6","2017/10/24 17:49:40","新北市淡水區民生路17號","121.460773333333","25.1379283333333","6501000","淡水區"
"251011","650-BX","2017/10/24 17:48:28","新北市淡水區吳(仔)厝7-1號","121.480431666667","25.1472483333333","6501000","淡水區"
"251002","672-BX","2017/10/24 17:49:44","新北市淡水區中山路80號","121.44302","25.1707","6501000","淡水區"
"251003","673-BX","2017/10/24 17:49:51","新北市淡水區大忠街35號","121.44421","25.1762833333333","6501000","淡水區"
"207003","550-UM","2017/10/24 17:49:40","新北市萬里區野柳里東澳路66號","121.692695","25.2009616666667","6502800","萬里區"
"207004","225-TW","2017/10/24 17:49:49","新北市萬里區萬里里瑪鋉頂街100-1號","121.687763333333","25.1804","6502800","萬里區"
"252002","178-VK","2017/10/24 17:49:53","新北市三芝區中山路一段88巷15號","121.502828333333","25.256755","6502100","三芝區"
"252001","292-VK","2017/10/24 17:49:47","新北市三芝區淡金路一段32號","121.50023","25.25927","6502100","三芝區"
"237004","078-UY","2017/10/24 17:49:39","新北市三峽區中山路121號","121.36546","24.9359216666667","6500900","三峽區"
"237001","159-UY","2017/10/24 15:00:01","新北市三峽區中山路459巷163-1號","121.349303333333","24.9334516666667","6500900","三峽區"
"237009","210-TH","2017/10/24 17:49:39","新北市三峽區大勇路3巷28號","121.367756666667","24.9368366666667","6500900","三峽區"
"237013","252-BX","2017/10/24 17:49:43","新北市三峽區愛國路22號","121.374428333333","24.93352","6500900","三峽區"
"237012","275-BY","2017/10/24 17:49:42","新北市三峽區文化路86號","121.371853333333","24.93624","6500900","三峽區"
"237008","302-VK","2017/10/24 17:49:45","新北市三峽區中園街237-1號","121.366845","24.91931","6500900","三峽區"
"237014","433-BY","2017/10/24 17:49:53","新北市三峽區文化路120巷21號","121.371005","24.9367333333333","6500900","三峽區"
"237006","5529-G3","2017/10/24 17:49:41","新北市三峽區介壽路二段58號","121.391845","24.9349433333333","6500900","三峽區"
"237011","572-TV","2017/10/24 17:39:17","新北市三峽區中山路98號","121.366455","24.935405","6500900","三峽區"
"237010","706-TV","2017/10/24 17:37:15","新北市三峽區中山路198號","121.363165","24.9371316666667","6500900","三峽區"
"237014","756-BX","2017/10/24 17:49:53","新北市三峽區中正路一段324號","121.37134","24.924985","6500900","三峽區"
"237005","AKY-6261","2017/10/24 17:49:49","新北市三峽區中山路287號","121.36181","24.93766","6500900","三峽區"
"236070","105-UM","2017/10/24 17:49:42","新北市土城區明德路二段8巷2號","121.452163333333","24.98041","6501300","土城區"
"236043","107-UM","2017/10/24 17:49:50","新北市土城區城林路6巷80號","121.438448333333","24.9797533333333","6501300","土城區"
"236079","166-UM","2017/10/24 17:49:46","新北市土城區永寧路12-2號","121.430406666667","24.9638233333333","6501300","土城區"
"236031","253-BX","2017/10/24 17:49:47","新北市土城區城林路6巷80號","121.438441666667","24.9798266666667","6501300","土城區"
"236027","269-VK","2017/10/24 17:49:39","新北市土城區中央路三段96-1號","121.435725","24.9665166666667","6501300","土城區"
"236015","270-VK","2017/10/24 17:49:40","新北市土城區城林路6巷80號","121.438476666667","24.9795983333333","6501300","土城區"
"236038","271-VK","2017/10/24 17:49:54","新北市土城區城林路6巷80號","121.438426666667","24.97975","6501300","土城區"
"236023","401-BY","2017/10/24 17:49:53","新北市土城區城林路6巷80號","121.438706666667","24.979755","6501300","土城區"
"236059","912-UM","2017/10/24 17:49:59","新北市土城區中華路二段80號","121.438678333333","24.9756783333333","6501300","土城區"
"236063","915-UM","2017/10/24 17:49:37","新北市土城區城林路6巷80號","121.438541666667","24.9796116666667","6501300","土城區"
"236055","AAC-216","2017/10/24 17:49:46","新北市土城區城林路6巷80號","121.438501666667","24.97965","6501300","土城區"
"242032","AAC-296","2017/10/24 17:49:39","新北市新莊區新泰路321巷11號","121.444093333333","25.0411983333333","6500500","新莊區"
"242029","986-R7","2017/10/24 17:49:44","新北市新莊區復興路一段145號","121.450293333333","25.043335","6500500","新莊區"
"242051","751-BX","2017/10/24 17:49:51","新北市新莊區西盛街245巷20號","121.42888","25.0159766666667","6500500","新莊區"
"242025","705-TV","2017/10/24 17:49:37","新北市三重區光復路二段168-2號","121.471643333333","25.0612966666667","6500500","新莊區"
"242023","613-BX","2017/10/24 17:49:39","新北市新莊區福樂街35號","121.457666666667","25.0469766666667","6500500","新莊區"
"242027","612-BX","2017/10/24 17:49:49","新北市新莊區福壽街139號","121.457995","25.0526433333333","6500500","新莊區"
"242039","566-BX","2017/10/24 17:49:49","新北市新莊區民安路170號","121.42507","25.0240966666667","6500500","新莊區"
"242044","497-BY","2017/10/24 17:49:42","新北市新莊區中正路857號","121.419633333333","25.02788","6500500","新莊區"
"242034","442-UM","2017/10/24 17:49:47","新北市新莊區新莊路662號","121.442435","25.0327433333333","6500500","新莊區"
"242048","441-UM","2017/10/24 17:49:49","新北市新莊區萬安街58號","121.420916666667","25.0235816666667","6500500","新莊區"
"242054","440-UM","2017/10/24 17:49:47","新北市新莊區民安西路468-1號","121.43169","25.0078766666667","6500500","新莊區"
"242005","413-TV","2017/10/24 17:49:42","新北市新莊區自立街245號","121.458618333333","25.0456016666667","6500500","新莊區"
"242042","400-BY","2017/10/24 17:49:53","新北市新莊區明志路19號","121.420075","25.0291516666667","6500500","新莊區"
"242061","362-BY","2017/10/24 17:49:43","新北市新莊區新樹路597號","121.43294","25.006385","6500500","新莊區"
"242058","353-BY","2017/10/24 17:49:36","新北市新莊區中正路726-5號","121.415713333333","25.024125","6500500","新莊區"
"242007","132-UY","2017/10/24 17:49:44","新北市新莊區福樂街124號","121.456906666667","25.04784","6500500","新莊區"
"242037","133-UY","2017/10/24 17:49:49","新北市新莊區建福路59巷30號","121.428083333333","25.0276283333333","6500500","新莊區"
"242021","135-UY","2017/10/24 17:49:46","新北市新莊區永寧街37巷1號","121.452895","25.0395616666667","6500500","新莊區"
"242046","172-VK","2017/10/24 17:49:51","新北市新莊區建國一路54號","121.4338","25.030885","6500500","新莊區"
"242009","173-VK","2017/10/24 17:49:50","新北市新莊區昌明街66號","121.455481666667","25.05217","6500500","新莊區"
"242015","175-VK","2017/10/24 17:49:50","新北市新莊區新泰路502巷40號","121.44369","25.0464433333333","6500500","新莊區"
"242002","176-VK","2017/10/24 17:49:36","新北市新莊區景德路93號","121.452","25.0347516666667","6500500","新莊區"
"242013","346-TH","2017/10/24 17:49:54","新北市新莊區中和街108巷12號","121.44818","25.0472083333333","6500500","新莊區"
"242017","347-TH","2017/10/24 09:06:16","新北市新莊區新泰路255巷83號","121.442183333333","25.039105","6500500","新莊區"
"242019","348-TH","2017/10/24 17:49:57","新北市新莊區民樂街53號","121.45796","25.041395","6500500","新莊區"
"242056","349-TH","2017/10/24 17:49:56","新北市新莊區瓊林路40巷34號","121.446571666667","25.0302483333333","6500500","新莊區"
"242011","351-TH","2017/10/24 17:49:53","新北市新莊區中港路681巷17號","121.450091666667","25.0561783333333","6500500","新莊區"
"238015","755-BX","2017/10/24 17:49:29","新北市樹林區長壽街25巷6號","121.420453333333","24.9947333333333","6500700","樹林區"
"238023","601-UM","2017/10/24 17:49:49","新北市樹林區福興街3巷11號","121.404756666667","25.0169483333333","6500700","樹林區"
"238019","599-UM","2017/10/24 17:49:58","新北市樹林區太平路106號","121.418543333333","24.978885","6500700","樹林區"
"238018","571-TV","2017/10/24 17:49:56","新北市樹林區博愛街54號","121.427288333333","24.9925733333333","6500700","樹林區"
"238024","5061-A6","2017/10/24 17:49:48","新北市樹林區八德街818號","121.394748333333","24.9688083333333","6500700","樹林區"
"238021","KEA-2217","2017/10/24 17:49:39","新北市樹林區柑園街一段253巷1號","121.395686666667","24.95631","6500700","樹林區"
"238022","KEA-2213","2017/10/24 17:49:51","新北市樹林區太元街40號","121.418226666667","24.9799516666667","6500700","樹林區"
"238025","303-VK","2017/10/24 17:49:49","新北市樹林區三俊街35號","121.412211666667","25.0157516666667","6500700","樹林區"
"238017","283-BY","2017/10/24 17:49:40","新北市樹林區三德街30巷21號","121.414688333333","25.01252","6500700","樹林區"
"238014","282-BY","2017/10/24 17:49:39","新北市樹林區保安街一段313巷28號","121.41705","24.9974366666667","6500700","樹林區"
"238020","268-VK","2017/10/24 17:49:54","新北市樹林區三俊街253號","121.42237","25.0144883333333","6500700","樹林區"
"238026","172-UY","2017/10/24 17:49:41","新北市樹林區新興街17號","121.40041","24.972875","6500700","樹林區"
"238016","169-UY","2017/10/24 17:49:47","新北市樹林區啟智街129-10號","121.417625","24.9888183333333","6500700","樹林區"
"239007","AAC-297","2017/10/24 17:49:42","新北市鶯歌區永樂街36號","121.34153","24.954015","6500800","鶯歌區"
"239006","891-R6","2017/10/24 17:49:45","新北市鶯歌區鳳鳴路105號","121.334336666667","24.9662816666667","6500800","鶯歌區"
"239008","527-UM","2017/10/24 17:49:43","新北市鶯歌區香賓街13巷2號","121.337048333333","24.9797833333333","6500800","鶯歌區"
"239005","526-UM","2017/10/24 17:49:39","新北市鶯歌區鳳吉五街3號","121.326458333333","24.9722133333333","6500800","鶯歌區"
"239001","417-VK","2017/10/24 17:49:45","新北市鶯歌區中正三路412號","121.324661666667","24.934715","6500800","鶯歌區"
"239003","360-BY","2017/10/24 17:49:53","新北市鶯歌區永吉街23號","121.335916666667","24.957715","6500800","鶯歌區"
"239002","359-BY","2017/10/24 17:49:59","新北市鶯歌區育英街5號","121.347126666667","24.9552916666667","6500800","鶯歌區"
"239004","193-VK","2017/10/24 17:49:50","新北市鶯歌區文化路324巷1-37號","121.35227","24.9459033333333","6500800","鶯歌區"
"221008","489-VK","2017/10/24 17:49:47","新北市汐止區康寧街901號","121.651386666667","25.0750766666667","6501100","汐止區"
"221036","130-UY","2017/10/24 17:49:45","新北市汐止區長江街83號","121.657486666667","25.0723616666667","6501100","汐止區"
"221015","131-UY","2017/10/24 17:49:48","新北市汐止區長江街286-2號","121.665471666667","25.0806033333333","6501100","汐止區"
"221010","269-BY","2017/10/24 17:49:40","新北市汐止區汐萬路一段418巷1弄2號","121.650725","25.0782916666667","6501100","汐止區"
"221012","276-VK","2017/10/24 13:22:50","新北市汐止區汐萬路一段256巷3號","121.653445","25.074605","6501100","汐止區"
"221012","278-VK","2017/10/24 17:49:41","新北市汐止區汐萬路一段191號","121.652488333333","25.0717066666667","6501100","汐止區"
"221023","279-VK","2017/10/24 17:49:46","新北市汐止區民族一街18號","121.634998333333","25.0711733333333","6501100","汐止區"
"221032","280-BY","2017/10/24 17:49:47","新北市汐止區大同路一段98-1號","121.629345","25.0543066666667","6501100","汐止區"
"221027","281-BY","2017/10/24 17:49:52","新北市汐止區康寧街901號","121.650766666667","25.0753216666667","6501100","汐止區"
"221029","298-VK","2017/10/24 17:49:56","新北市汐止區汐萬路一段312號","121.65043","25.075495","6501100","汐止區"
"221021","299-VK","2017/10/24 17:49:57","新北市汐止區大同路二段322號","121.656193333333","25.0669783333333","6501100","汐止區"
"221031","353-TW","2017/10/24 17:49:54","新北市汐止區樟樹二路353號","121.644186666667","25.0741766666667","6501100","汐止區"
"221035","622-UM","2017/10/24 17:49:47","新北市汐止區汐萬路一段211巷15號","121.651486666667","25.071895","6501100","汐止區"
"221025","623-UM","2017/10/24 17:49:41","新北市汐止區新台五路一段262號","121.658391666667","25.0642083333333","6501100","汐止區"
"221038","646-BX","2017/10/24 17:49:54","新北市汐止區汐萬路一段273號","121.650506666667","25.0745366666667","6501100","汐止區"
"221033","647-BX","2017/10/24 17:49:43","新北市汐止區民權街一段16號","121.620736666667","25.0523233333333","6501100","汐止區"
"221018","753-BX","2017/10/24 17:49:52","新北市汐止區忠孝東路382巷3弄1號","121.665673333333","25.0697383333333","6501100","汐止區"
