"lineid","car","time","location","longitude","latitude","cityid","cityname"
"234046","148-BY","2017/10/24 19:39:41","新北市永和區秀朗路二段181巷6號","121.526401666667","25.001345","6500400","永和區"
"234013","149-BY","2017/10/24 19:39:33","新北市永和區永平路246號","121.508541666667","25.01107","6500400","永和區"
"234007","207-UY","2017/10/24 19:39:39","新北市中和區中和路456號","121.512096666667","25.0037766666667","6500400","永和區"
"234081","298-R6","2017/10/24 19:39:42","新北市永和區林森路44巷6弄10號","121.525605","25.0050966666667","6500400","永和區"
"234038","336-UY","2017/10/24 19:39:51","新北市永和區民樂街39巷18弄42號","121.528451666667","24.9990233333333","6500400","永和區"
"234064","337-UY","2017/10/24 19:39:36","新北市永和區秀朗路一段192巷6弄14號","121.519041666667","25.0022516666667","6500400","永和區"
"234086","338-UY","2017/10/24 19:39:50","新北市永和區永亨路144號","121.52519","25.0038766666667","6500400","永和區"
"234068","552-UM","2017/10/24 19:39:51","新北市永和區永和路二段239-1號","121.51572","25.0145683333333","6500400","永和區"
"234054","553-UM","2017/10/24 19:39:52","新北市永和區竹林路39巷10號","121.518311666667","25.0144433333333","6500400","永和區"
"234017","745-BX","2017/10/24 19:39:33","新北市永和區永和路二段425巷57弄7號","121.5136","25.0171633333333","6500400","永和區"
"234030","746-BX","2017/10/24 19:39:44","新北市永和區民生路47巷46號","121.525035","24.9977783333333","6500400","永和區"
"234061","AAD-866","2017/10/24 19:39:51","新北市永和區永貞路166號","121.517036666667","25.0043966666667","6500400","永和區"
"234042","862-TW","2017/10/24 19:39:47","新北市永和區中和路431-1號","121.50946","25.0008883333333","6500400","永和區"
"234050","863-TW","2017/10/24 19:39:50","新北市永和區保安路13號","121.510393333333","25.0167966666667","6500400","永和區"
"234026","9371-KE","2017/10/24 19:39:46","新北市永和區中和路501巷5號","121.510446666667","25.002675","6500400","永和區"
"234011","9373-KE","2017/10/24 19:39:37","新北市永和區保生路55-1號","121.504508333333","25.010895","6500400","永和區"
"249002","305-UY","2017/10/24 19:39:49","新北市八里區頂寮二街33-1號","121.450283333333","25.12521","6502300","八里區"
"249003","593-UM","2017/10/24 19:39:45","新北市八里區華峰三街29號","121.399406666667","25.1459166666667","6502300","八里區"
"248014","025-BX","2017/10/24 19:39:45","新北市五股區五福路52巷3弄8號","121.433431666667","25.0901566666667","6501500","五股區"
"248016","026-BX","2017/10/24 19:39:53","新北市五股區成泰路三段482號","121.451846666667","25.1015066666667","6501500","五股區"
"248008","095-VK","2017/10/24 19:39:53","新北市五股區四維路118巷13號","121.469348333333","25.0742133333333","6501500","五股區"
"248020","225-UY","2017/10/24 19:39:42","新北市五股區中直路19-3號","121.423243333333","25.1118866666667","6501500","五股區"
"248012","247-BX","2017/10/24 19:39:50","新北市五股區成泰路二段91巷23-1號","121.437366666667","25.08455","6501500","五股區"
"248010","272-BY","2017/10/24 19:39:51","新北市五股區自強路111號","121.43229","25.0705466666667","6501500","五股區"
"248004","677-BX","2017/10/24 19:39:43","新北市五股區工商路116號","121.436918333333","25.0856766666667","6501500","五股區"
"248002","678-BX","2017/10/24 19:39:45","新北市五股區成泰路三段577巷45號","121.45078","25.1031866666667","6501500","五股區"
"234077","969-R7","2017/10/24 19:39:46","新北市永和區民權路23號","121.520268333333","24.9978366666667","6500400","永和區"
"234074","AAC-211","2017/10/24 19:39:38","新北市永和區竹林路227號","121.52096","25.0085166666667","6500400","永和區"
"234067","AAC-212","2017/10/24 19:39:53","新北市永和區中山路一段197號","121.509015","25.0087883333333","6500400","永和區"
"234003","AAC-295","2017/10/24 19:39:33","新北市永和區自由街71號","121.513415","25.005195","6500400","永和區"
"244019","403-UM","2017/10/24 19:39:46","新北市林口區麗園二街3巷6-2號","121.378895","25.06999","6501700","林口區"
"244002","658-BX","2017/10/24 15:44:11","新北市林口區粉寮69號","121.405015","25.09095","6501700","林口區"
"243013","AAD-798","2017/10/24 19:39:36","新北市泰山區應化街7號","121.423856666667","25.0437416666667","6501600","泰山區"
"243009","297-R6","2017/10/24 19:39:34","新北市泰山區美寧街76號","121.431476666667","25.0646033333333","6501600","泰山區"
"243015","380-SR","2017/10/24 19:39:32","新北市泰山區民權街13巷6號","121.428616666667","25.05102","6501600","泰山區"
"243014","421-VK","2017/10/24 19:39:42","新北市泰山區泰林路二段33-8號","121.435133333333","25.0564","6501600","泰山區"
"243010","KEA-2215","2017/10/24 19:39:50","新北市泰山區民生路33號","121.43049","25.052115","6501600","泰山區"
"243011","KEA-2216","2017/10/24 19:39:38","新北市泰山區明志路三段204巷20號","121.42188","25.038325","6501600","泰山區"
"243012","646-TV","2017/10/24 19:39:51","新北市泰山區全興路281號","121.436681666667","25.0517516666667","6501600","泰山區"
"243016","680-BX","2017/10/24 19:39:43","新北市泰山區中山路三段6號","121.421045","25.032445","6501600","泰山區"
"222003","436-BY","2017/10/24 19:32:35","新北市深坑區深南路51-1號","121.621126666667","25.0100333333333","6501800","深坑區"
"222002","659-BX","2017/10/24 19:39:45","新北市深坑區北深路一段177號","121.632463333333","25.010905","6501800","深坑區"
"231041","002-UM","2017/10/24 19:39:45","新北市新店區中正路500-1號","121.534186666667","24.981985","6500600","新店區"
"231059","046-UY","2017/10/24 19:39:50","新北市新店區安和路二段191號","121.518096666667","24.9749483333333","6500600","新店區"
"231061","047-UY","2017/10/24 19:39:53","新北市新店區安民街143號","121.516493333333","24.9696016666667","6500600","新店區"
"231060","106-UY","2017/10/24 19:39:39","新北市新店區安康路二段204號","121.510286666667","24.95954","6500600","新店區"
"231048","108-UY","2017/10/24 19:39:42","新北市新店區中興路一段288巷10號","121.546345","24.9684816666667","6500600","新店區"
"231053","187-VK","2017/10/24 19:39:54","新北市新店區廣興路116號","121.53604","24.9114366666667","6500600","新店區"
"231069","189-VK","2017/10/24 11:56:03","新北市新店區安華路28-1號","121.519486666667","24.9612333333333","6500600","新店區"
"231050","KEA-2219","2017/10/24 19:39:33","新北市新店區郵政路6號","121.556766666667","24.9513366666667","6500600","新店區"
"231057","256-BX","2017/10/24 19:39:54","新北市新店區橘園一路11號","121.54794","24.93402","6500600","新店區"
"231046","278-BY","2017/10/24 19:39:52","新北市新店區中正路329巷5弄2號","121.535283333333","24.974335","6500600","新店區"
"231054","AAD-862","2017/10/24 19:39:36","新北市新店區北宜路一段37號","121.538421666667","24.9574483333333","6500600","新店區"
"231058","3712-VJ","2017/10/24 19:39:54","新北市新店區中正路102巷8弄3號","121.543718333333","24.971275","6500600","新店區"
"231056","4716-K9","2017/10/24 19:39:51","新北市新店區溪園路381號","121.523098333333","24.9796233333333","6500600","新店區"
"231067","4772-VM","2017/10/24 19:39:43","新北市新店區秀山路53號","121.53065","24.9605866666667","6500600","新店區"
"231065","512-UM","2017/10/24 19:39:41","新北市新店區安祥路109巷2號","121.475348333333","24.9585366666667","6500600","新店區"
"231064","515-UM","2017/10/24 19:39:41","新北市新店區安和路一段52巷2號","121.517645","24.9661583333333","6500600","新店區"
"231045","617-UM","2017/10/24 19:39:47","新北市新店區北宜路二段417號","121.560016666667","24.9544966666667","6500600","新店區"
"231040","619-UM","2017/10/24 19:39:47","新北市新店區北新路一段96巷23號","121.543035","24.96885","6500600","新店區"
"231042","641-BX","2017/10/24 19:39:50","新北市新店區中興路一段216號","121.543826666667","24.9657666666667","6500600","新店區"
"231063","645-TV","2017/10/24 19:39:52","新北市新店區達觀路40號","121.503036666667","24.9387083333333","6500600","新店區"
"231049","719-UM","2017/10/24 19:39:47","新北市新店區大豐路72號","121.538988333333","24.9794316666667","6500600","新店區"
"231051","719-UY","2017/10/24 19:39:43","新北市新店區中央四街87號","121.525971666667","24.97604","6500600","新店區"
"231062","720-UM","2017/10/24 19:39:51","新北市新店區碧潭路60-1號","121.53453","24.9568416666667","6500600","新店區"
"231044","897-TW","2017/10/24 19:39:51","新北市新店區北新路三段39號","121.541788333333","24.9802383333333","6500600","新店區"
"231043","899-TW","2017/10/24 19:39:41","新北市新店區中正路127號","121.542","24.971315","6500600","新店區"
"241011","013-R5","2017/10/24 19:39:45","新北市三重區秀江街184號","121.497855","25.07162","6500200","三重區"
"241028","022-UY","2017/10/24 19:39:40","新北市三重區中正南路163號","121.493723333333","25.0559783333333","6500200","三重區"
"241008","059-VK","2017/10/24 19:39:48","新北市三重區永福街74號","121.47891","25.07677","6500200","三重區"
"241031","061-VK","2017/10/24 19:39:44","新北市三重區重新路四段250-1號","121.48599","25.0534966666667","6500200","三重區"
"241017","063-VK","2017/10/24 19:39:44","新北市三重區大同北路219號","121.491486666667","25.0660716666667","6500200","三重區"
"241026","066-VK","2017/10/24 19:39:34","新北市三重區文化南路65巷48號","121.498691666667","25.060625","6500200","三重區"
"241015","265-UM","2017/10/24 19:39:38","新北市三重區福德北路34號","121.502058333333","25.0651416666667","6500200","三重區"
"241022","267-UM","2017/10/24 19:39:53","新北市三重區中正北路111-1號","121.485511666667","25.06543","6500200","三重區"
"241032","269-UM","2017/10/24 19:39:40","新北市三重區重陽路一段60巷76號","121.484258333333","25.0581583333333","6500200","三重區"
"241013","270-UM","2017/10/24 19:39:38","新北市三重區仁愛街119號","121.49549","25.074545","6500200","三重區"
"241025","271-UM","2017/10/24 19:39:50","新北市三重區忠孝路三段99巷11號","121.480081666667","25.0646066666667","6500200","三重區"
"241007","398-BY","2017/10/24 19:39:35","新北市三重區三和路四段125巷78號","121.487375","25.0785783333333","6500200","三重區"
"241009","KEA-2210","2017/10/24 19:39:43","新北市三重區三和路四段410號","121.481015","25.0797216666667","6500200","三重區"
"241020","413-TH","2017/10/24 19:39:48","新北市三重區自強路三段44號","121.48686","25.0727366666667","6500200","三重區"
"241035","462-BY","2017/10/24 19:39:46","新北市三重區正義北路63號","121.497475","25.064565","6500200","三重區"
"241019","478-VK","2017/10/24 19:39:45","新北市三重區六張街194巷1弄2號","121.4886","25.0680716666667","6500200","三重區"
"241030","480-VK","2017/10/24 19:39:48","新北市三重區新興路7號","121.492545","25.0531966666667","6500200","三重區"
"241014","543-UM","2017/10/24 19:39:35","新北市三重區長榮路138號","121.503925","25.06948","6500200","三重區"
"241023","545-UM","2017/10/24 19:39:42","新北市三重區忠孝路三段99巷4號","121.480071666667","25.0642483333333","6500200","三重區"
"241001","547-UM","2017/10/24 19:39:43","新北市三重區仁愛街315巷15號","121.493388333333","25.0796983333333","6500200","三重區"
"241006","AAD-863","2017/10/24 19:39:52","新北市三重區永福街218號","121.483006666667","25.07446","6500200","三重區"
"241012","941-UM","2017/10/24 19:39:49","新北市三重區河邊北街256巷33號","121.500536666667","25.0759866666667","6500200","三重區"
"241029","942-UM","2017/10/24 19:39:53","新北市三重區光明路122號","121.492883333333","25.055875","6500200","三重區"
"235066","003-UY","2017/10/24 19:39:54","新北市中和區中和路194號","121.505248333333","24.9997033333333","6500300","中和區"
"235064","005-UY","2017/10/24 19:39:49","新北市中和區南山路125號","121.502468333333","24.9972633333333","6500300","中和區"
"235063","006-UY","2017/10/24 19:39:36","新北市中和區連城路219巷17號","121.495011666667","24.996105","6500300","中和區"
"235056","096-UM","2017/10/24 19:39:41","新北市中和區員山路581巷31弄5號","121.477108333333","25.0103166666667","6500300","中和區"
"235039","097-UM","2017/10/24 19:39:45","新北市中和區秀峰街119巷8弄4號","121.519415","24.9898083333333","6500300","中和區"
"235065","098-UM","2017/10/24 19:39:41","新北市中和區永和路66巷1-1號","121.498745","25.0045816666667","6500300","中和區"
"235040","150-BY","2017/10/24 19:39:48","新北市中和區保健路44巷12號","121.509105","24.9968016666667","6500300","中和區"
"235058","151-BY","2017/10/24 19:39:43","新北市中和區員山路124巷3號","121.481575","24.9959816666667","6500300","中和區"
"235055","183-VK","2017/10/24 19:39:47","新北市中和區中山路三段181巷22號","121.473043333333","25.0052583333333","6500300","中和區"
"235038","185-VK","2017/10/24 19:39:51","新北市中和區立人街53號","121.520396666667","24.9942416666667","6500300","中和區"
"235049","186-VK","2017/10/24 19:39:45","新北市中和區景新街212號","121.506986666667","24.9952566666667","6500300","中和區"
"235067","255-BX","2017/10/24 19:39:36","新北市中和區新生街231號","121.483838333333","24.9991533333333","6500300","中和區"
"235044","293-VK","2017/10/24 19:39:36","新北市中和區捷運路122號","121.505426666667","24.9914983333333","6500300","中和區"
"235072","301-VK","2017/10/24 19:39:46","新北市中和區連城路265巷8弄1號","121.491616666667","24.995515","6500300","中和區"
"235043","352-BY","2017/10/24 19:39:41","新北市中和區華新街149號","121.506235","24.981645","6500300","中和區"
"235051","376-QA","2017/10/24 19:39:45","新北市中和區南山路231號","121.503525","24.9932766666667","6500300","中和區"
"235068","377-QA","2017/10/24 19:39:49","新北市中和區廟美街11-1號","121.500525","25.0015433333333","6500300","中和區"
"235061","378-QA","2017/10/24 19:39:45","新北市中和區民安街2巷35弄16號","121.479681666667","25.0017733333333","6500300","中和區"
"235071","269-TV","2017/10/24 19:39:39","新北市中和區中正路839巷29號","121.483666666667","25.00233","6500300","中和區"
"235050","4979-A6","2017/10/24 19:39:44","新北市中和區錦和路350-1號","121.490508333333","24.99358","6500300","中和區"
"235070","558-UM","2017/10/24 19:39:45","新北市中和區景平路624號","121.50059","24.9974916666667","6500300","中和區"
"235045","565-BX","2017/10/24 19:39:46","新北市中和區景新街383巷58號","121.51459","24.9905983333333","6500300","中和區"
"235054","640-BX","2017/10/24 19:39:48","新北市中和區國光街102巷11弄5號","121.4706","25.0008916666667","6500300","中和區"
"235060","647-TV","2017/10/24 19:39:54","新北市中和區中山路二段523巷10弄2號","121.481558333333","25.0045833333333","6500300","中和區"
"235047","732-UM","2017/10/24 19:39:44","新北市中和區景平路371號","121.50425","24.9932283333333","6500300","中和區"
"235046","733-UM","2017/10/24 19:39:44","新北市中和區四維街8號","121.513363333333","24.9873316666667","6500300","中和區"
"235062","800-TS","2017/10/24 19:39:32","新北市八里區中山路三段409號","121.36854","25.1349933333333","6500300","中和區"
"235057","801-TS","2017/10/24 19:39:44","新北市中和區員山路248號","121.481383333333","25.001545","6500300","中和區"
"235041","802-TS","2017/10/24 19:39:41","新北市中和區中安街132號","121.510978333333","25.000405","6500300","中和區"
"235052","805-TS","2017/10/24 19:39:51","新北市中和區華新街206巷1號","121.506493333333","24.9820916666667","6500300","中和區"
"235048","896-TW","2017/10/24 19:39:38","新北市中和區忠孝街1巷2-1號","121.509156666667","24.98302","6500300","中和區"
"235053","900-TW","2017/10/24 19:39:51","新北市中和區民德路198號","121.46826","24.998865","6500300","中和區"
"235037","AAC-213","2017/10/24 19:39:42","新北市中和區秀朗路三段97號","121.52647","24.9949266666667","6500300","中和區"
"235059","AAC-215","2017/10/24 19:39:46","新北市中和區錦和路201號","121.490801666667","24.9903833333333","6500300","中和區"
"220065","072-UY","2017/10/24 19:39:50","新北市板橋區國泰街22號","121.46901","25.0068083333333","6500100","板橋區"
"220086","073-UY","2017/10/24 19:39:39","新北市板橋區中正路185號","121.456593333333","25.0167016666667","6500100","板橋區"
"220106","075-UY","2017/10/24 19:39:39","新北市板橋區文化路二段394號","121.47353","25.0312016666667","6500100","板橋區"
"220069","AAD-861","2017/10/24 19:39:38","新北市板橋區稚暉街18號","121.455923333333","25.0044983333333","6500100","板橋區"
"220068","120-SR","2017/10/24 19:39:38","新北市板橋區中山路二段531巷46號","121.482493333333","25.0227466666667","6500100","板橋區"
"247004","336-TH","2017/10/24 19:39:34","新北市蘆洲區中華街6巷8號","121.463143333333","25.0819183333333","6501400","蘆洲區"
"247008","053-VK","2017/10/24 19:39:38","新北市蘆洲區中山一路231號","121.473636666667","25.08075","6501400","蘆洲區"
"226004","205-ST","2017/10/24 19:39:34","新北市平溪區十分里十分街131號","121.777013333333","25.0434016666667","6502400","平溪區"
"228003","097-TW","2017/10/24 19:39:35","新北市貢寮區真理里美艷山街15-3號","121.923645","25.0681066666667","6502600","貢寮區"
"228001","212-TW","2017/10/24 19:39:34","新北市貢寮區真理里延平街49號","121.924623333333","25.0556333333333","6502600","貢寮區"
"224010","AGQ-8101","2017/10/24 19:39:43","新北市瑞芳區輕便路308號","121.843043333333","25.108415","6501200","瑞芳區"
"224002","639-TC","2017/10/24 19:39:52","新北市瑞芳區三爪子坑路13巷153號","121.815008333333","25.1063","6501200","瑞芳區"
"227003","642-TC","2017/10/24 19:39:39","新北市雙溪區雙溪里太平路50號","121.864576666667","25.035345","6502500","雙溪區"
"227009","400-TW","2017/10/24 19:39:38","新北市雙溪區新基里新基北街18號","121.867171666667","25.03866","6502500","雙溪區"
"222001","KEA-2212","2017/10/24 19:39:51","新北市深坑區深坑街146號","121.613031666667","25.0015166666667","6501800","深坑區"
"208002","742-BX","2017/10/24 19:39:35","新北市金山區三民街1號","121.63479","25.222365","6502700","金山區"
"208003","665-BX","2017/10/24 19:39:49","新北市金山區仁愛路1巷2號","121.638413333333","25.2198933333333","6502700","金山區"
"208001","761-BX","2017/10/24 19:39:46","新北市金山區重和里六股林口47號","121.602208333333","25.2195783333333","6502700","金山區"
"251001","011-UM","2017/10/24 19:39:48","新北市淡水區民權路59號","121.459688333333","25.138835","6501000","淡水區"
"251008","181-VK","2017/10/24 19:39:51","新北市淡水區中正路一段8巷1弄11號","121.427941666667","25.1757833333333","6501000","淡水區"
"251014","182-VK","2017/10/24 19:39:37","新北市淡水區桂竹圍4-3號","121.475463333333","25.2322033333333","6501000","淡水區"
"251010","413-VK","2017/10/24 19:39:39","新北市淡水區崁頂三路113號","121.43235","25.2007216666667","6501000","淡水區"
"251016","442-VK","2017/10/24 19:39:41","新北市淡水區下圭柔山119-51號","121.45083","25.2084216666667","6501000","淡水區"
"251005","443-VK","2017/10/24 19:39:46","新北市淡水區原德路116巷1號","121.443716666667","25.1741733333333","6501000","淡水區"
"251006","561-UM","2017/10/24 19:39:49","新北市淡水區中山北路一段247巷82號","121.44247","25.1793966666667","6501000","淡水區"
"251009","575-R6","2017/10/24 19:39:53","新北市淡水區中山北路一段196號","121.444765","25.1793883333333","6501000","淡水區"
"251007","577-R6","2017/10/24 19:39:50","新北市淡水區中正東路一段111巷21號","121.455201666667","25.161015","6501000","淡水區"
"251011","650-BX","2017/10/24 19:39:48","新北市淡水區八勢一街85號","121.461351666667","25.1539683333333","6501000","淡水區"
"251003","673-BX","2017/10/24 19:39:36","新北市淡水區下圭柔山90-8號","121.431218333333","25.2102733333333","6501000","淡水區"
"207003","550-UM","2017/10/24 19:39:39","新北市萬里區大鵬里下社10-1號","121.64758","25.217195","6502800","萬里區"
"207004","225-TW","2017/10/24 19:39:49","新北市萬里區萬里里瑪鋉路21號","121.687471666667","25.1754516666667","6502800","萬里區"
"252002","178-VK","2017/10/24 19:39:53","新北市三芝區中正路一段18巷56號","121.504266666667","25.2586966666667","6502100","三芝區"
"252001","292-VK","2017/10/24 19:39:47","新北市三芝區公正街66號","121.499765","25.2574683333333","6502100","三芝區"
"237004","078-UY","2017/10/24 19:39:39","新北市三峽區插角4號","121.39884","24.87337","6500900","三峽區"
"237007","153-BY","2017/10/24 19:39:34","新北市三峽區二鬮路150號","121.359748333333","24.9075083333333","6500900","三峽區"
"237001","159-UY","2017/10/24 15:00:01","新北市三峽區中山路459巷163-1號","121.349303333333","24.9334516666667","6500900","三峽區"
"237009","210-TH","2017/10/24 19:39:39","新北市三峽區中園街46號","121.368161666667","24.9261916666667","6500900","三峽區"
"237013","252-BX","2017/10/24 19:39:43","新北市三峽區介壽路二段12-1號","121.390095","24.93484","6500900","三峽區"
"237012","275-BY","2017/10/24 19:39:42","新北市三峽區中正路一段46-2號","121.375465","24.9305466666667","6500900","三峽區"
"237008","302-VK","2017/10/24 19:39:45","新北市三峽區永安街143號","121.373598333333","24.92819","6500900","三峽區"
"237014","433-BY","2017/10/24 19:39:52","新北市三峽區添福14-31號","121.373486666667","24.9002533333333","6500900","三峽區"
"237006","5529-G3","2017/10/24 19:39:40","新北市三峽區中正路一段336巷15弄2號","121.369938333333","24.9249616666667","6500900","三峽區"
"237014","756-BX","2017/10/24 19:39:52","新北市三峽區溪東路307號","121.409646666667","24.93092","6500900","三峽區"
"237005","AKY-6261","2017/10/24 19:39:49","新北市三峽區中山路169巷9號","121.364341666667","24.9359733333333","6500900","三峽區"
"236070","105-UM","2017/10/24 19:39:42","新北市土城區金城路二段151-1號","121.45379","24.98115","6501300","土城區"
"236043","107-UM","2017/10/24 19:39:50","新北市土城區學士路12巷2號","121.453708333333","24.9830016666667","6501300","土城區"
"236079","166-UM","2017/10/24 19:39:46","新北市土城區中州路26-4號","121.414288333333","24.95768","6501300","土城區"
"236031","253-BX","2017/10/24 19:39:47","新北市土城區福祥街56號","121.441483333333","24.981335","6501300","土城區"
"236027","269-VK","2017/10/24 19:39:39","新北市土城區中央路二段61巷22號","121.44322","24.9787133333333","6501300","土城區"
"236038","271-VK","2017/10/24 19:39:35","新北市土城區清水路98巷3弄34號","121.458541666667","24.98078","6501300","土城區"
"236023","401-BY","2017/10/24 19:39:33","新北市土城區峰廷街3號","121.469186666667","24.9873766666667","6501300","土城區"
"236059","912-UM","2017/10/24 19:39:38","新北市土城區中央路二段63號","121.442625","24.9789716666667","6501300","土城區"
"236049","913-UM","2017/10/24 19:39:45","新北市土城區明德路一段42號","121.46528","24.9844183333333","6501300","土城區"
"236063","915-UM","2017/10/24 19:39:42","新北市土城區延和路41巷6弄9號","121.466331666667","24.9902316666667","6501300","土城區"
"236055","AAC-216","2017/10/24 19:39:47","新北市土城區學府路一段147號","121.45353","24.98616","6501300","土城區"
"242032","AAC-296","2017/10/24 19:39:43","新北市新莊區新泰路213巷31號","121.444841666667","25.03841","6500500","新莊區"
"242034","442-UM","2017/10/24 19:39:47","新北市新莊區仁愛街4號","121.444266666667","25.0348383333333","6500500","新莊區"
"242005","413-TV","2017/10/24 19:39:42","新北市新莊區化成路31號","121.465081666667","25.0439916666667","6500500","新莊區"
"242058","353-BY","2017/10/24 19:39:52","新北市新莊區中正路487號","121.441053333333","25.03352","6500500","新莊區"
"242009","173-VK","2017/10/24 19:39:50","新北市新莊區三和路18-25號","121.441023333333","25.0391283333333","6500500","新莊區"
"242013","346-TH","2017/10/24 19:39:53","新北市新莊區中誠街119號","121.449413333333","25.047495","6500500","新莊區"
"242019","348-TH","2017/10/24 19:39:46","新北市新莊區三和路12-10號","121.442065","25.0367566666667","6500500","新莊區"
"238015","755-BX","2017/10/24 19:39:52","新北市樹林區日新街91號","121.421545","24.99023","6500700","樹林區"
"238023","601-UM","2017/10/24 19:39:49","新北市樹林區三福街114號","121.406425","25.0163066666667","6500700","樹林區"
"238018","571-TV","2017/10/24 19:39:35","新北市樹林區八德街495-3號","121.401871666667","24.9693","6500700","樹林區"
"238024","5061-A6","2017/10/24 19:39:48","新北市樹林區佳園路一段72巷12號","121.392288333333","24.969755","6500700","樹林區"
"238021","KEA-2217","2017/10/24 19:39:37","新北市樹林區大有路58號","121.383845","24.94806","6500700","樹林區"
"238022","KEA-2213","2017/10/24 19:39:51","新北市樹林區名園街51巷6弄10號","121.420621666667","24.9781516666667","6500700","樹林區"
"238025","303-VK","2017/10/24 19:39:49","新北市樹林區中山路一段183-1號","121.421363333333","24.9879183333333","6500700","樹林區"
"238017","283-BY","2017/10/24 19:39:40","新北市樹林區保安街二段45巷15號","121.415335","24.999995","6500700","樹林區"
"238014","282-BY","2017/10/24 19:39:47","新北市樹林區千歲街39號","121.425293333333","24.9960366666667","6500700","樹林區"
"238020","268-VK","2017/10/24 19:39:34","新北市樹林區樹新路233號","121.43004","24.998415","6500700","樹林區"
"238026","172-UY","2017/10/24 19:39:41","新北市樹林區佳園路三段63號","121.387691666667","24.952905","6500700","樹林區"
"239006","891-R6","2017/10/24 19:39:45","新北市鶯歌區中正一路碧龍巷6號","121.36744","24.9571583333333","6500800","鶯歌區"
"221008","489-VK","2017/10/24 19:39:39","新北市汐止區康寧街61巷22弄9號","121.619913333333","25.0668533333333","6501100","汐止區"
"221036","130-UY","2017/10/24 19:39:45","新北市汐止區汐萬路一段256巷1號","121.651768333333","25.0748966666667","6501100","汐止區"
"221010","269-BY","2017/10/24 19:39:40","新北市汐止區汐萬路二段62巷2號","121.649441666667","25.0820816666667","6501100","汐止區"
"221012","276-VK","2017/10/24 13:22:50","新北市汐止區汐萬路一段256巷3號","121.653445","25.074605","6501100","汐止區"
"221021","277-VK","2017/10/24 19:39:40","新北市汐止區南興路6巷4號","121.651723333333","25.06322","6501100","汐止區"
"221012","278-VK","2017/10/24 19:39:43","新北市汐止區汐平路一段9號","121.68095","25.0712933333333","6501100","汐止區"
"221023","279-VK","2017/10/24 19:39:46","新北市汐止區民族六街10巷2號","121.630113333333","25.06952","6501100","汐止區"
"221032","280-BY","2017/10/24 19:39:47","新北市汐止區大同路二段267號","121.652165","25.0664866666667","6501100","汐止區"
"221027","281-BY","2017/10/24 19:39:52","新北市汐止區忠孝東路9號","121.658285","25.0659033333333","6501100","汐止區"
"221029","298-VK","2017/10/24 19:39:36","新北市汐止區汐萬路一段256巷1號","121.65169","25.0748616666667","6501100","汐止區"
"221031","353-TW","2017/10/24 19:39:34","新北市汐止區福德三路129巷2號","121.633556666667","25.0674533333333","6501100","汐止區"
"221002","358-BY","2017/10/24 19:39:37","新北市汐止區大同路一段211號","121.633606666667","25.0576733333333","6501100","汐止區"
"221025","623-UM","2017/10/24 19:39:41","新北市汐止區福安街20巷2號","121.662548333333","25.0650433333333","6501100","汐止區"
"221038","646-BX","2017/10/24 19:39:37","新北市汐止區忠孝東路210號","121.662036666667","25.0664733333333","6501100","汐止區"
"221033","647-BX","2017/10/24 19:39:43","台北市南港區舊莊街二段17號","121.625693333333","25.0374566666667","6501100","汐止區"
"221018","753-BX","2017/10/24 19:39:51","新北市汐止區康寧街901號","121.65139","25.075005","6501100","汐止區"
"220079","145-BY","2017/10/24 19:39:43","新北市板橋區建國街97號","121.45975","25.0174","6500100","板橋區"
"220080","200-UY","2017/10/24 19:39:38","新北市板橋區大觀路二段37巷214號","121.449413333333","25.0009783333333","6500100","板橋區"
"220082","610-BX","2017/10/24 19:39:51","新北市板橋區大觀路三段240號","121.429358333333","24.9929133333333","6500100","板橋區"
"220101","245-BX","2017/10/24 19:39:56","新北市板橋區莊敬路257號","121.473643333333","25.0216066666667","6500100","板橋區"
"220056","276-BY","2017/10/24 19:39:53","新北市板橋區四川路二段47巷3弄4號","121.454308333333","24.9946533333333","6500100","板橋區"
"220072","277-BY","2017/10/24 19:39:36","新北市板橋區金門街253巷17弄1號","121.43319","24.9887133333333","6500100","板橋區"
"220094","280-UM","2017/10/24 19:39:47","新北市板橋區銘傳街78號","121.469103333333","25.0313483333333","6500100","板橋區"
"220071","283-VK","2017/10/24 19:39:51","新北市板橋區四川路一段325巷16號","121.459053333333","25.0002766666667","6500100","板橋區"
"220053","285-VK","2017/10/24 19:39:49","新北市板橋區民享街89號","121.476945","25.0159566666667","6500100","板橋區"
"220083","286-VK","2017/10/24 19:39:37","新北市板橋區大觀路二段174巷122號","121.441343333333","25.002075","6500100","板橋區"
"220081","287-VK","2017/10/24 19:39:44","新北市板橋區大觀路一段29巷131弄2號","121.450535","25.0054116666667","6500100","板橋區"
"220090","288-VK","2017/10/24 19:39:46","新北市板橋區長江路一段48巷9號","121.4592","25.028455","6500100","板橋區"
"220061","293-UM","2017/10/24 19:39:46","新北市板橋區中山路一段279號","121.469803333333","25.0139033333333","6500100","板橋區"
"220084","296-UM","2017/10/24 19:39:45","新北市板橋區滿平二街2巷1弄24號","121.424873333333","24.986935","6500100","板橋區"
"220075","297-UM","2017/10/24 19:39:35","新北市板橋區大勇街55-4號","121.453865","25.0169566666667","6500100","板橋區"
"220062","305-R5","2017/10/24 19:39:50","新北市板橋區三民路二段29巷9號","121.481701666667","25.0181033333333","6500100","板橋區"
"220092","307-R5","2017/10/24 19:39:40","新北市板橋區文化路一段387巷14號","121.466586666667","25.0222216666667","6500100","板橋區"
"220098","317-R6","2017/10/24 19:39:44","新北市板橋區四維路269巷32號","121.46187","25.0277516666667","6500100","板橋區"
"220064","486-VK","2017/10/24 19:39:34","新北市板橋區中山路一段104號","121.46285","25.0105383333333","6500100","板橋區"
"220089","487-VK","2017/10/24 19:39:40","新北市板橋區雨農路2號","121.46251","25.02505","6500100","板橋區"
"220088","491-VK","2017/10/24 19:39:14","新北市板橋區民治街7號","121.47738","25.034445","6500100","板橋區"
"220035","560-BX","2017/10/24 19:39:49","新北市板橋區金華街85巷42號","121.459155","25.021355","6500100","板橋區"
"220103","561-BX","2017/10/24 19:39:50","新北市板橋區文化路一段286巷10-2號","121.467965","25.021405","6500100","板橋區"
"220063","609-BX","2017/10/24 19:39:53","新北市板橋區中山路二段497號","121.482701666667","25.0208866666667","6500100","板橋區"
"220091","637-BX","2017/10/24 19:39:41","新北市板橋區懷德街139巷20弄1號","121.480101666667","25.0308166666667","6500100","板橋區"
"220057","686-BX","2017/10/24 19:39:48","新北市板橋區國慶路124號","121.460535","24.99587","6500100","板橋區"
"220077","687-BX","2017/10/24 19:39:50","新北市板橋區僑中二街8巷14號","121.446566666667","25.0115716666667","6500100","板橋區"
"220093","689-BX","2017/10/24 19:39:40","新北市板橋區長江路一段5號","121.457893333333","25.02875","6500100","板橋區"
"220054","741-BX","2017/10/24 19:39:51","新北市中和區德光路113號","121.468083333333","25.00322","6500100","板橋區"
"220055","827-TW","2017/10/24 19:39:45","新北市板橋區國慶路149巷13弄3號","121.460856666667","24.99712","6500100","板橋區"
"220067","829-TW","2017/10/24 19:39:51","新北市板橋區長安街138巷1弄11號","121.473235","25.00975","6500100","板橋區"
"220102","830-TW","2017/10/24 19:39:47","新北市板橋區松柏街35號","121.475368333333","25.0302166666667","6500100","板橋區"
"220096","831-TW","2017/10/24 19:39:51","新北市板橋區民生路二段226巷10弄2號","121.470581666667","25.0218133333333","6500100","板橋區"
"220074","895-R6","2017/10/24 19:39:41","新北市板橋區倉後街1-2號","121.455583333333","25.00887","6500100","板橋區"
"220073","985-R7","2017/10/24 19:39:53","新北市板橋區國光路49巷17號","121.458895","25.0187816666667","6500100","板橋區"
"220097","AAC-210","2017/10/24 19:39:50","新北市板橋區幸福路32巷2號","121.461603333333","25.0204833333333","6500100","板橋區"
"220070","AAC-253","2017/10/24 19:39:50","新北市板橋區民族路232號","121.468901666667","25.0073066666667","6500100","板橋區"
