"lineid","car","time","location","longitude","latitude","cityid","cityname"
"244002","658-BX","2017/10/24 15:44:11","新北市林口區粉寮69號","121.405015","25.09095","6501700","林口區"
"243001","297-R6","2017/10/24 21:13:00","新北市泰山區黎明路25號","121.421806666667","25.060905","6501600","泰山區"
"231059","046-UY","2017/10/24 21:19:50","新北市新店區薏仁坑路自強巷1號","121.496798333333","24.9581116666667","6500600","新店區"
"231061","047-UY","2017/10/24 21:19:33","新北市新店區安德街60巷26號","121.511196666667","24.964105","6500600","新店區"
"231048","108-UY","2017/10/24 21:19:42","新北市新店區溪園路395號","121.523526666667","24.9775316666667","6500600","新店區"
"231069","189-VK","2017/10/24 11:56:03","新北市新店區安華路28-1號","121.519486666667","24.9612333333333","6500600","新店區"
"231050","KEA-2219","2017/10/24 21:19:53","新北市新店區中華路125號","121.538395","24.9692233333333","6500600","新店區"
"231067","4772-VM","2017/10/24 21:19:42","新北市新店區薏仁坑路自強巷1號","121.496948333333","24.9581633333333","6500600","新店區"
"231065","512-UM","2017/10/24 21:19:41","新北市新店區安祥路35-1號","121.491601666667","24.9556683333333","6500600","新店區"
"231040","619-UM","2017/10/24 21:19:47","新北市新店區光明街312號","121.54056","24.965055","6500600","新店區"
"231063","645-TV","2017/10/24 21:19:52","新北市新店區玫瑰路57巷21號","121.496466666667","24.946315","6500600","新店區"
"231051","719-UY","2017/10/24 21:19:43","新北市新店區中正路700巷82號","121.53592","24.9932433333333","6500600","新店區"
"241011","013-R5","2017/10/24 21:19:36","新北市三重區龍濱路120-6號","121.50181","25.071345","6500200","三重區"
"241028","022-UY","2017/10/24 21:19:40","新北市三重區正義南路169號","121.498915","25.057515","6500200","三重區"
"241008","059-VK","2017/10/24 21:19:48","新北市三重區自強路一段62號","121.497335","25.066675","6500200","三重區"
"241031","061-VK","2017/10/24 21:19:44","新北市三重區五谷王南街46巷37號","121.475731666667","25.045535","6500200","三重區"
"241017","063-VK","2017/10/24 21:19:44","新北市三重區中正北路25巷25弄3號","121.493258333333","25.0626616666667","6500200","三重區"
"241024","065-VK","2017/10/24 21:19:56","新北市三重區中正北路115巷6號","121.484098333333","25.0677133333333","6500200","三重區"
"241026","066-VK","2017/10/24 21:19:34","新北市三重區大同南路220號","121.496741666667","25.0561916666667","6500200","三重區"
"241002","090-VK","2017/10/24 21:19:39","新北市三重區自強路五段59號","121.494596666667","25.0817983333333","6500200","三重區"
"241003","091-VK","2017/10/24 21:19:40","新北市三重區仁義街220巷1號","121.49526","25.0842733333333","6500200","三重區"
"241005","262-UM","2017/10/24 21:19:49","新北市三重區集英路50號","121.486395","25.0855966666667","6500200","三重區"
"241015","265-UM","2017/10/24 21:19:38","新北市三重區長元街79-1號","121.503425","25.0667316666667","6500200","三重區"
"241016","266-UM","2017/10/24 21:19:52","新北市三重區自強路一段226號","121.493803333333","25.06681","6500200","三重區"
"241018","268-UM","2017/10/24 21:19:45","新北市三重區忠孝路二段34號","121.485671666667","25.0709333333333","6500200","三重區"
"241032","269-UM","2017/10/24 21:19:40","新北市三重區光復路二段178-1號","121.471966666667","25.0623","6500200","三重區"
"241013","270-UM","2017/10/24 21:19:38","新北市三重區仁愛街83號","121.495915","25.0732766666667","6500200","三重區"
"241025","271-UM","2017/10/24 21:19:50","新北市三重區忠孝路三段40巷16弄10號","121.482333333333","25.0668766666667","6500200","三重區"
"241007","398-BY","2017/10/24 21:19:54","新北市三重區忠孝路一段1號","121.492391666667","25.0717216666667","6500200","三重區"
"241009","KEA-2210","2017/10/24 21:19:42","新北市三重區新北大道一段190-1號","121.482521666667","25.0616283333333","6500200","三重區"
"241004","475-VK","2017/10/24 21:19:34","新北市三重區碧華街299號","121.490615","25.08398","6500200","三重區"
"241019","478-VK","2017/10/24 21:19:45","新北市三重區重陽路三段128號","121.489028333333","25.06665","6500200","三重區"
"241030","480-VK","2017/10/24 21:19:48","新北市三重區頂崁街23號","121.47629","25.0567733333333","6500200","三重區"
"241014","543-UM","2017/10/24 21:19:35","新北市三重區萬全街18號","121.499315","25.069805","6500200","三重區"
"241023","545-UM","2017/10/24 21:19:42","新北市三重區中正北路176巷27號","121.482585","25.065955","6500200","三重區"
"241001","547-UM","2017/10/24 21:19:43","新北市三重區福隆路117號","121.492785","25.0785166666667","6500200","三重區"
"241006","AAD-863","2017/10/24 21:19:51","新北市三重區重陽路二段67號","121.487783333333","25.063825","6500200","三重區"
"241012","941-UM","2017/10/24 21:19:49","新北市三重區龍門路288號","121.502056666667","25.0742133333333","6500200","三重區"
"241033","AAC-255","2017/10/24 21:19:37","新北市三重區光復路二段86號","121.47172","25.0574716666667","6500200","三重區"
"235026","800-TS","2017/10/24 20:31:59","新北市中和區員山路36巷16-3號","121.484848333333","24.9916383333333","6500300","中和區"
"247022","893-R6","2017/10/24 21:19:35","新北市蘆洲區三民路226號","121.46864","25.0894333333333","6501400","蘆洲區"
"247012","546-UM","2017/10/24 21:19:43","新北市蘆洲區民族路236巷6號","121.480246666667","25.088535","6501400","蘆洲區"
"247020","500-BY","2017/10/24 21:19:50","新北市蘆洲區民族路422巷43號","121.47323","25.09391","6501400","蘆洲區"
"247010","339-TH","2017/10/24 21:19:36","新北市蘆洲區鷺江街16-1號","121.478916666667","25.0825633333333","6501400","蘆洲區"
"247002","337-TH","2017/10/24 21:19:47","新北市蘆洲區永樂街80號","121.456815","25.0885616666667","6501400","蘆洲區"
"247004","336-TH","2017/10/24 21:19:54","新北市蘆洲區永安南路二段324號","121.456916666667","25.082745","6501400","蘆洲區"
"247006","056-VK","2017/10/24 21:19:52","新北市蘆洲區長安街44號","121.463498333333","25.0796333333333","6501400","蘆洲區"
"247008","053-VK","2017/10/24 21:19:38","新北市蘆洲區中山一路97巷30號","121.475848333333","25.080945","6501400","蘆洲區"
"247014","007-UY","2017/10/24 21:19:36","新北市蘆洲區保和街50-6號","121.469846666667","25.08633","6501400","蘆洲區"
"247024","002-UY","2017/10/24 21:19:48","新北市蘆洲區光明路98號","121.463128333333","25.087995","6501400","蘆洲區"
"247018","001-UY","2017/10/24 21:19:40","新北市蘆洲區復興路105巷11號","121.47643","25.0884383333333","6501400","蘆洲區"
"251004","009-UM","2017/10/24 21:19:36","新北市淡水區民族路33號","121.462368333333","25.1357983333333","6501000","淡水區"
"251001","011-UM","2017/10/24 21:19:48","新北市淡水區中山北路二段185號","121.444176666667","25.185215","6501000","淡水區"
"251008","181-VK","2017/10/24 21:19:42","新北市淡水區水源街二段229號","121.460571666667","25.1763716666667","6501000","淡水區"
"251014","182-VK","2017/10/24 21:19:37","新北市淡水區溪口28號","121.455461666667","25.236175","6501000","淡水區"
"251010","413-VK","2017/10/24 21:19:39","新北市淡水區淡海路69巷26號","121.42189","25.180855","6501000","淡水區"
"251012","441-VK","2017/10/24 21:19:33","新北市淡水區石頭埔8號","121.45262","25.2345466666667","6501000","淡水區"
"251016","442-VK","2017/10/24 21:19:41","新北市淡水區淡金路四段81號","121.449535","25.2182216666667","6501000","淡水區"
"251005","443-VK","2017/10/24 21:19:46","新北市淡水區仁愛街15-4號","121.446555","25.170425","6501000","淡水區"
"251009","575-R6","2017/10/24 21:19:47","新北市淡水區民族路33號","121.462283333333","25.1357283333333","6501000","淡水區"
"251011","650-BX","2017/10/24 21:19:48","新北市淡水區新民街120巷29號","121.438893333333","25.1788766666667","6501000","淡水區"
"251002","672-BX","2017/10/24 21:19:36","新北市淡水區英專路151號","121.448346666667","25.1748516666667","6501000","淡水區"
"251003","673-BX","2017/10/24 21:19:55","新北市淡水區崁頂15-5號","121.43897","25.185925","6501000","淡水區"
"237001","159-UY","2017/10/24 15:00:01","新北市三峽區中山路459巷163-1號","121.349303333333","24.9334516666667","6500900","三峽區"
"237014","756-BX","2017/10/24 20:46:29","新北市三峽區中山路459巷163-3號","121.348946666667","24.9330816666667","6500900","三峽區"
"242048","441-UM","2017/10/24 21:19:48","新北市樹林區中山路三段210-2號","121.381833333333","24.9656866666667","6500500","新莊區"
"221012","276-VK","2017/10/24 13:22:50","新北市汐止區汐萬路一段256巷3號","121.653445","25.074605","6501100","汐止區"
"220011","833-TW","2017/10/24 21:19:48","新北市板橋區民生路二段22號","121.472828333333","25.0166","6500100","板橋區"
"220070","AAC-253","2017/10/24 21:19:35","新北市林口區太平里180號","121.366695","25.13399","6500100","板橋區"
