"lineid","car","time","location","longitude","latitude","cityid","cityname"
"232019","758-BX","2017/08/04 08:04:17","新北市坪林區坪雙路一段43號","121.711575","24.9425866666667","6502000","坪林區"
"244004","248-BX","2017/08/04 08:09:17","新北市林口區下福147-11號","121.299765","25.1166866666667","6501700","林口區"
"222005","289-BY","2017/08/04 08:09:18","新北市深坑區萬福路141號","121.610491666667","25.01635","6501800","深坑區"
"231007","189-VK","2017/08/04 08:09:20","新北市新店區華潭街1巷49號","121.526541666667","24.9468783333333","6500600","新店區"
"231009","192-VK","2017/08/04 08:09:19","新北市新店區安康路一段124號","121.52694","24.9627383333333","6500600","新店區"
"226005","5620-A6","2017/08/04 08:09:15","新北市平溪區南山里南山坪126號","121.786085","25.0460083333333","6502400","平溪區"
"226001","7418-A5","2017/08/04 08:09:07","新北市平溪區望古里灰3-1號","121.757386666667","25.0298683333333","6502400","平溪區"
"226003","AGD-0702","2017/08/04 08:09:14","新北市平溪區十分里十分街54號","121.775201666667","25.041455","6502400","平溪區"
"223006","022-BY","2017/08/04 08:09:02","新北市坪林區國中路4號","121.713406666667","24.9389866666667","6501900","石碇區"
"223003","205-TH","2017/08/04 08:04:52","新北市石碇區崩山36-1號","121.671283333333","24.95809","6501900","石碇區"
"223008","406-TH","2017/08/04 07:16:00","新北市石碇區靜安路一段337號","121.698648333333","25.0146866666667","6501900","石碇區"
"223001","437-BY","2017/08/04 08:09:10","新北市石碇區樟空子10-1號","121.667288333333","24.96308","6501900","石碇區"
"223004","660-BX","2017/08/04 08:09:19","新北市石碇區外按1號","121.65123","24.9969316666667","6501900","石碇區"
"223007","661-BX","2017/08/04 07:44:53","新北市石碇區靜安路一段337號","121.698963333333","25.0145783333333","6501900","石碇區"
"223005","677-TV","2017/08/04 08:09:04","新北市石碇區外按16-1號","121.65067","24.9975283333333","6501900","石碇區"
"228002","585-TW","2017/08/04 07:56:45","新北市貢寮區福隆里興隆街24-1號","121.943788333333","25.0174516666667","6502600","貢寮區"
"227005","282-VK","2017/08/04 08:09:09","新北市雙溪區上林里內平林50號","121.833373333333","25.030125","6502500","雙溪區"
"253001","4710-YM","2017/08/04 08:07:07","新北市石門區楓林7號","121.53779","25.2949816666667","6502200","石門區"
"252002","178-VK","2017/08/04 08:09:18","新北市三芝區埔坪里埔頭坑142-1號","121.513118333333","25.24762","6502100","三芝區"
"237001","159-UY","2017/08/04 08:09:08","新北市三峽區學成路269號","121.375718333333","24.943015","6500900","三峽區"
"236010","165-UM","2017/08/04 08:09:15","新北市土城區石門路58-2號","121.45626","24.9572233333333","6501300","土城區"
"236004","339-SR","2017/08/04 08:06:58","新北市土城區龍泉路75-2號","121.432853333333","24.9427133333333","6501300","土城區"
"236006","498-BY","2017/08/04 08:09:06","新北市土城區永平街51號","121.42784","24.9590833333333","6501300","土城區"
