"lineid","car","time","location","longitude","latitude","cityid","cityname"
"231007","189-VK","2017/08/04 10:09:20","新北市新店區新潭路三段256號","121.508201666667","24.90397","6500600","新店區"
"231009","192-VK","2017/08/04 09:47:02","新北市新店區平廣路一段256號","121.507885","24.8882383333333","6500600","新店區"
"223008","406-TH","2017/08/04 10:09:13","新北市石碇區小粗坑(潭邊里)15-8號","121.688388333333","24.9867133333333","6501900","石碇區"
"223007","661-BX","2017/08/04 10:09:05","新北市石碇區小粗坑(潭邊里)15-8號","121.688361666667","24.9865583333333","6501900","石碇區"
"228002","585-TW","2017/08/04 08:44:12","新北市貢寮區福隆里興隆街24-1號","121.943721666667","25.01746","6502600","貢寮區"
"227005","282-VK","2017/08/04 09:26:49","新北市雙溪區泰平里溪尾寮2號","121.81874","24.9654533333333","6502500","雙溪區"
"220038","487-VK","2017/08/04 10:09:16","新北市板橋區溪城路90-2號","121.429065","24.9801616666667","6500100","板橋區"
