"lineid","car","time","location","longitude","latitude","cityid","cityname"
"231007","189-VK","2017/08/04 11:09:20","新北市新店區新潭路一段160巷17號","121.529621666667","24.9318066666667","6500600","新店區"
"231009","192-VK","2017/08/04 11:09:19","新北市新店區松林路81號","121.547196666667","24.9071983333333","6500600","新店區"
"228002","585-TW","2017/08/04 08:44:12","新北市貢寮區福隆里興隆街24-1號","121.943721666667","25.01746","6502600","貢寮區"
"227005","282-VK","2017/08/04 11:09:09","新北市雙溪區泰平里泰平10號","121.84565","24.9857483333333","6502500","雙溪區"
"220038","487-VK","2017/08/04 11:09:07","新北市樹林區中華路1-2號","121.425275","24.98421","6500100","板橋區"
