"lineid","car","time","location","longitude","latitude","cityid","cityname"
"231007","189-VK","2017/08/04 11:18:59","新北市新店區新潭路一段120巷23號","121.526993333333","24.9354066666667","6500600","新店區"
"231009","192-VK","2017/08/04 11:18:38","新北市新店區成功路58-1號","121.539013333333","24.90025","6500600","新店區"
"228002","585-TW","2017/08/04 08:44:12","新北市貢寮區福隆里興隆街24-1號","121.943721666667","25.01746","6502600","貢寮區"
"227005","282-VK","2017/08/04 11:19:08","新北市雙溪區魚行里丁子蘭坑31-6號","121.84877","25.0034316666667","6502500","雙溪區"
"220038","487-VK","2017/08/04 11:19:07","新北市板橋區縣民大道二段1號","121.462245","25.0116566666667","6500100","板橋區"
