"lineid","car","time","location","longitude","latitude","cityid","cityname"
"234044","148-BY","2017/08/04 12:59:00","新北市永和區秀朗路二段186巷3號","121.526105","25.000815","6500400","永和區"
"234012","149-BY","2017/08/04 12:59:11","新北市永和區信義路10-1號","121.5145","25.0119866666667","6500400","永和區"
"234005","207-UY","2017/08/04 12:59:10","新北市永和區永和路二段70號","121.514873333333","25.011175","6500400","永和區"
"234078","298-R6","2017/08/04 12:59:05","新北市永和區永亨路70號","121.520928333333","25.00594","6500400","永和區"
"234036","336-UY","2017/08/04 12:59:08","新北市永和區民樂街92巷1號","121.527333333333","24.9971683333333","6500400","永和區"
"234062","337-UY","2017/08/04 12:59:04","新北市永和區秀朗路一段166號","121.518511666667","25.0032633333333","6500400","永和區"
"234084","338-UY","2017/08/04 12:59:14","新北市永和區永利路37號","121.518773333333","25.00552","6500400","永和區"
"234068","552-UM","2017/08/04 12:59:12","新北市永和區豫溪街95巷9號","121.518135","25.0107116666667","6500400","永和區"
"234052","553-UM","2017/08/04 12:59:18","新北市永和區竹林路66巷2號","121.5183","25.013365","6500400","永和區"
"234015","745-BX","2017/08/04 12:59:04","新北市永和區永和路二段299號","121.516","25.016195","6500400","永和區"
"234028","746-BX","2017/08/04 12:59:18","新北市永和區秀朗路二段274號","121.525981666667","24.9979783333333","6500400","永和區"
"234060","AAD-866","2017/08/04 12:59:16","新北市永和區福和路309巷1號","121.516268333333","25.00703","6500400","永和區"
"234040","862-TW","2017/08/04 12:59:00","新北市永和區永貞路271號","121.511701666667","25.0049233333333","6500400","永和區"
"234048","863-TW","2017/08/04 12:59:01","新北市永和區文化路192巷7弄8號","121.510615","25.0167183333333","6500400","永和區"
"234025","9371-KE","2017/08/04 12:59:07","新北市永和區水源街2巷14號","121.512323333333","25.0056233333333","6500400","永和區"
"234010","9373-KE","2017/08/04 12:59:09","新北市永和區文化路9巷22弄75號","121.513831666667","25.0143766666667","6500400","永和區"
"248019","225-UY","2017/08/04 12:59:18","新北市五股區中興路二段83巷26-6號","121.460073333333","25.07516","6501500","五股區"
"234022","9380-KE","2017/08/04 12:59:07","新北市永和區竹林路75巷33弄35號","121.520901666667","25.0144866666667","6500400","永和區"
"234076","969-R7","2017/08/04 12:59:08","新北市永和區民享街9號","121.51527","24.9954016666667","6500400","永和區"
"234072","AAC-211","2017/08/04 12:59:09","新北市永和區環河東路二段100號","121.524221666667","25.0103383333333","6500400","永和區"
"234066","AAC-212","2017/08/04 12:59:14","新北市永和區中和路625號","121.513006666667","25.0048783333333","6500400","永和區"
"234001","AAC-295","2017/08/04 12:59:11","新北市永和區永平路51號","121.512716666667","25.008605","6500400","永和區"
"244004","248-BX","2017/08/04 12:59:12","新北市林口區粉寮路37-1號","121.40102","25.0848683333333","6501700","林口區"
"231002","002-UM","2017/08/04 12:59:05","新北市新店區安華路28-1號","121.519948333333","24.9607233333333","6500600","新店區"
"231025","0291-UT","2017/08/04 12:59:06","新北市新店區安華路28-1號","121.519648333333","24.9605816666667","6500600","新店區"
"231028","046-UY","2017/08/04 12:59:08","新北市新店區安華路28-1號","121.519645","24.9609266666667","6500600","新店區"
"231030","047-UY","2017/08/04 12:59:08","新北市新店區安華路28-1號","121.519288333333","24.960945","6500600","新店區"
"231029","106-UY","2017/08/04 12:59:07","新北市新店區安華路28-1號","121.519875","24.9608616666667","6500600","新店區"
"231018","107-UY","2017/08/04 12:59:20","新北市新店區安華路28-1號","121.519438333333","24.96131","6500600","新店區"
"231022","187-VK","2017/08/04 12:59:14","新北市新店區安華路28-1號","121.519568333333","24.961345","6500600","新店區"
"231034","268-BY","2017/08/04 12:59:12","新北市新店區安華路28-1號","121.519411666667","24.960835","6500600","新店區"
"231010","278-BY","2017/08/04 12:42:59","新北市新店區安華路1-1號","121.519143333333","24.9604683333333","6500600","新店區"
"231016","AAD-862","2017/08/04 12:59:05","新北市新店區安華路28-1號","121.520021666667","24.96123","6500600","新店區"
"231024","3713-VJ","2017/08/04 12:59:04","新北市新店區安華路1-1號","121.519188333333","24.9605766666667","6500600","新店區"
"231038","4715-K9","2017/08/04 12:59:03","新北市新店區安華路1-1號","121.519225","24.9605516666667","6500600","新店區"
"231036","512-UM","2017/08/04 12:59:06","新北市新店區安華路28-1號","121.519288333333","24.96131","6500600","新店區"
"231023","513-UM","2017/08/04 12:59:09","新北市新店區安華路28-1號","121.519701666667","24.9612283333333","6500600","新店區"
"231035","515-UM","2017/08/04 12:56:59","新北市新店區安華路3號","121.519288333333","24.9597616666667","6500600","新店區"
"231006","617-UM","2017/08/04 12:59:10","新北市新店區安華路28-1號","121.51965","24.9605516666667","6500600","新店區"
"231001","619-UM","2017/08/04 12:59:17","新北市新店區安華路28-1號","121.519771666667","24.96116","6500600","新店區"
"231003","641-BX","2017/08/04 12:59:12","新北市新店區安華路28-1號","121.519783333333","24.9613616666667","6500600","新店區"
"231039","718-UY","2017/08/04 12:59:05","新北市新店區安華路28-1號","121.519416666667","24.961205","6500600","新店區"
"231013","719-UM","2017/08/04 12:59:15","新北市新店區安華路28-1號","121.519735","24.96136","6500600","新店區"
"231005","897-TW","2017/08/04 12:59:01","新北市新店區安華路28-1號","121.519606666667","24.9605366666667","6500600","新店區"
"231004","899-TW","2017/08/04 12:59:05","新北市新店區安華路28-1號","121.519106666667","24.960865","6500600","新店區"
"231037","AKT-0513","2017/08/04 12:59:02","新北市新店區安華路1-1號","121.519541666667","24.9604583333333","6500600","新店區"
"235028","005-UY","2017/08/04 12:59:10","新北市中和區員山路36巷16-3號","121.485188333333","24.9911766666667","6500300","中和區"
"235027","006-UY","2017/08/04 12:59:03","新北市中和區員山路36巷16-2號","121.485168333333","24.9914433333333","6500300","中和區"
"235029","098-UM","2017/08/04 12:59:10","新北市中和區錦和路95號","121.490008333333","24.9956366666667","6500300","中和區"
"235004","150-BY","2017/08/04 12:59:09","新北市中和區和城路一段271巷1號","121.485471666667","24.9917683333333","6500300","中和區"
"235022","151-BY","2017/08/04 12:59:12","新北市中和區中正路571巷2弄11號","121.486118333333","24.9935866666667","6500300","中和區"
"235019","183-VK","2017/08/04 12:59:04","新北市中和區員山路36巷16-3號","121.485068333333","24.9914783333333","6500300","中和區"
"235002","185-VK","2017/08/04 12:59:01","新北市中和區成功路50號","121.52603","24.9927","6500300","中和區"
"235031","255-BX","2017/08/04 12:59:00","新北市中和區中山路二段552號","121.483811666667","25.0051883333333","6500300","中和區"
"235036","301-VK","2017/08/04 12:59:18","新北市中和區員山路36巷13號","121.483938333333","24.991235","6500300","中和區"
"235015","376-QA","2017/08/04 05:44:20","新北市中和區員山路36巷13號","121.484155","24.990805","6500300","中和區"
"235006","551-UM","2017/08/04 12:59:08","新北市中和區和城路一段271巷1號","121.485408333333","24.9917583333333","6500300","中和區"
"235035","783-BX","2017/08/04 12:59:19","新北市中和區連城路314號","121.483621666667","24.9961783333333","6500300","中和區"
"235062","800-TS","2017/08/04 12:59:03","新北市中和區中正路589巷15號","121.48578","24.9937916666667","6500300","中和區"
"235005","802-TS","2017/08/04 12:59:15","新北市中和區圓通路215號","121.496803333333","24.9943","6500300","中和區"
"235016","805-TS","2017/08/04 12:59:10","新北市中和區員山路36巷16號","121.484498333333","24.99138","6500300","中和區"
"235017","900-TW","2017/08/04 12:58:27","新北市中和區員山路36巷16-2號","121.48513","24.9916333333333","6500300","中和區"
"228002","585-TW","2017/08/04 12:51:06","新北市貢寮區福隆里興隆街24-1號","121.943768333333","25.01746","6502600","貢寮區"
"208004","AAC-292","2017/08/04 12:59:05","新北市金山區磺港里磺港路305號","121.642438333333","25.227585","6502700","金山區"
"207002","749-BX","2017/08/04 12:57:06","新北市萬里區雙興里大坪路51號","121.622686666667","25.1728383333333","6502800","萬里區"
"207001","662-BX","2017/08/04 12:59:00","新北市萬里區萬里里瑪鋉路186號","121.68953","25.1800366666667","6502800","萬里區"
"236006","498-BY","2017/08/04 12:59:06","新北市土城區慶祥街34號","121.437148333333","24.9751983333333","6501300","土城區"
"238021","311-TH","2017/08/04 12:59:15","新北市樹林區八德街588號","121.397943333333","24.96999","6500700","樹林區"
"221032","280-BY","2017/08/04 12:59:15","新北市汐止區大同路二段557-1號","121.662551666667","25.0696866666667","6501100","汐止區"
"221002","753-BX","2017/08/04 12:58:57","新北市汐止區福德一路342巷1弄14號","121.629035","25.0634783333333","6501100","汐止區"
