"lineid","car","time","location","longitude","latitude","cityid","cityname"
"234005","207-UY","2017/08/04 14:29:10","新北市永和區安樂路218號","121.515053333333","25.0021183333333","6500400","永和區"
"234078","298-R6","2017/08/04 14:29:05","新北市永和區永貞路82號","121.520195","25.005055","6500400","永和區"
"234036","336-UY","2017/08/04 14:29:05","新北市永和區環河東路三段36號","121.52655","25.006735","6500400","永和區"
"234062","337-UY","2017/08/04 14:29:03","新北市永和區中正路417-1號","121.517083333333","25.0049483333333","6500400","永和區"
"234084","338-UY","2017/08/04 14:29:14","新北市永和區光復街21號","121.516471666667","25.0173816666667","6500400","永和區"
"234052","553-UM","2017/08/04 14:29:18","新北市永和區光復街60巷25號","121.517751666667","25.01751","6500400","永和區"
"234028","746-BX","2017/08/04 14:28:58","新北市新莊區五工一路86號","121.461553333333","25.0677683333333","6500400","永和區"
"234060","AAD-866","2017/08/04 14:29:16","新北市永和區秀朗路一段175號","121.51702","25.0037166666667","6500400","永和區"
"234040","862-TW","2017/08/04 14:29:00","新北市永和區安樂路348號","121.51443","25.00641","6500400","永和區"
"234048","863-TW","2017/08/04 14:29:00","新北市永和區保安路138號","121.508715","25.01512","6500400","永和區"
"234025","9371-KE","2017/08/04 14:29:06","新北市中和區中和路350巷12號","121.5109","25.0002833333333","6500400","永和區"
"248019","225-UY","2017/08/04 13:56:32","新北市五股區凌雲路三段57號","121.425215","25.1250416666667","6501500","五股區"
"234022","9380-KE","2017/08/04 14:29:07","新北市永和區保安路132號","121.50894","25.0152766666667","6500400","永和區"
"234076","969-R7","2017/08/04 14:29:08","新北市永和區民權路55號","121.520113333333","24.996615","6500400","永和區"
"234072","AAC-211","2017/08/04 14:29:09","新北市永和區竹林路39巷48號","121.52031","25.01537","6500400","永和區"
"234066","AAC-212","2017/08/04 14:29:14","新北市永和區保平路268巷31號","121.50777","25.0060016666667","6500400","永和區"
"234001","AAC-295","2017/08/04 14:29:11","新北市永和區永和路一段166號","121.514398333333","25.0085933333333","6500400","永和區"
"231002","002-UM","2017/08/04 14:29:05","新北市新店區中正路347號","121.535376666667","24.9758766666667","6500600","新店區"
"231025","0291-UT","2017/08/04 14:29:06","新北市新店區民族路161號","121.537648333333","24.976695","6500600","新店區"
"231028","046-UY","2017/08/04 14:29:08","新北市新店區安康路二段147號","121.511295","24.9599883333333","6500600","新店區"
"231029","106-UY","2017/08/04 14:29:07","新北市新店區安康路二段382號","121.500491666667","24.9570316666667","6500600","新店區"
"231018","107-UY","2017/08/04 14:29:00","新北市新店區中央路216-1號","121.52978","24.9733883333333","6500600","新店區"
"231012","108-UY","2017/08/04 14:29:12","新北市新店區寶橋路162號","121.549036666667","24.9772166666667","6500600","新店區"
"231022","187-VK","2017/08/04 14:19:14","新北市新店區桂山路121號","121.56837","24.894455","6500600","新店區"
"231034","268-BY","2017/08/04 14:29:14","新北市新店區黎明路9號","121.502441666667","24.950265","6500600","新店區"
"231016","AAD-862","2017/08/04 14:29:05","新北市新店區北宜路三段105號","121.580326666667","24.9503866666667","6500600","新店區"
"231027","3712-VJ","2017/08/04 14:29:00","新北市新店區北新路二段185號","121.542786666667","24.9775666666667","6500600","新店區"
"231038","4715-K9","2017/08/04 14:29:03","新北市新店區溪洲路8巷120-1號","121.53303","24.9632","6500600","新店區"
"231036","512-UM","2017/08/04 14:29:06","新北市新店區安祥路109巷8號","121.475381666667","24.9588383333333","6500600","新店區"
"231023","513-UM","2017/08/04 14:29:09","新北市新店區光明街137號","121.5395","24.961985","6500600","新店區"
"231035","515-UM","2017/08/04 14:28:59","新北市新店區安光路10-1號","121.513551666667","24.9640533333333","6500600","新店區"
"231006","617-UM","2017/08/04 14:29:10","新北市新店區北宜路二段423-1號","121.560478333333","24.95439","6500600","新店區"
"231030","618-UM","2017/08/04 14:29:14","新北市新店區安興路7-1號","121.51493","24.9685683333333","6500600","新店區"
"231001","619-UM","2017/08/04 14:29:17","新北市新店區中正路75巷71號","121.543103333333","24.9688366666667","6500600","新店區"
"231003","641-BX","2017/08/04 14:28:32","新北市新店區中興路一段269號","121.545081666667","24.9679616666667","6500600","新店區"
"231039","718-UY","2017/08/04 14:29:05","新北市新店區安華路3號","121.519438333333","24.95986","6500600","新店區"
"231013","719-UM","2017/08/04 14:29:15","新北市新店區民權路102號","121.535936666667","24.9831033333333","6500600","新店區"
"231032","719-UY","2017/08/04 14:29:06","新北市新店區溪洲路202-6號","121.528875","24.96822","6500600","新店區"
"231005","897-TW","2017/08/04 14:29:02","新北市新店區北新路三段53-1號","121.541781666667","24.98075","6500600","新店區"
"231004","899-TW","2017/08/04 14:29:05","新北市新店區中正路265巷5號","121.538258333333","24.97364","6500600","新店區"
"231037","AKT-0513","2017/08/04 14:29:02","新北市新店區安興路20號","121.515003333333","24.965985","6500600","新店區"
"235030","003-UY","2017/08/04 14:29:10","新北市中和區景新街2號","121.502623333333","24.9996883333333","6500300","中和區"
"235028","005-UY","2017/08/04 14:29:10","新北市中和區南山路81巷56號","121.503875","24.9981633333333","6500300","中和區"
"235027","006-UY","2017/08/04 14:29:03","新北市中和區連勝街122號","121.494481666667","24.9963183333333","6500300","中和區"
"235020","096-UM","2017/08/04 14:29:01","新北市中和區員山路520號","121.478696666667","25.0095366666667","6500300","中和區"
"235003","097-UM","2017/08/04 14:29:15","新北市中和區秀峰街103巷7弄4號","121.519441666667","24.9889483333333","6500300","中和區"
"235029","098-UM","2017/08/04 14:29:10","新北市中和區中山路二段178巷1號","121.500553333333","25.00279","6500300","中和區"
"235004","150-BY","2017/08/04 14:29:08","新北市中和區安樂路81號","121.512645","24.9944383333333","6500300","中和區"
"235022","151-BY","2017/08/04 14:29:11","新北市中和區連城路507號","121.482458333333","24.995375","6500300","中和區"
"235002","185-VK","2017/08/04 14:29:00","新北市中和區大智街55巷31號","121.520561666667","24.9927466666667","6500300","中和區"
"235013","186-VK","2017/08/04 14:29:03","新北市中和區景平路398-1號","121.50964","24.993255","6500300","中和區"
"235031","255-BX","2017/08/04 14:29:00","新北市中和區員山路36巷2-1號","121.482571666667","24.9904983333333","6500300","中和區"
"235008","293-VK","2017/08/04 14:29:00","新北市中和區中興街266巷2號","121.498456666667","24.9875533333333","6500300","中和區"
"235036","301-VK","2017/08/04 14:28:58","新北市中和區中山路二段3巷22弄4號","121.50625","25.0051616666667","6500300","中和區"
"235007","352-BY","2017/08/04 14:29:02","新北市中和區景平路161-1號","121.512626666667","24.9923716666667","6500300","中和區"
"235015","376-QA","2017/08/04 14:29:16","新北市中和區南山路146巷23號","121.503106666667","24.9924","6500300","中和區"
"235032","377-QA","2017/08/04 14:29:13","新北市中和區中和路143號","121.50216","24.9997733333333","6500300","中和區"
"235025","378-QA","2017/08/04 14:29:02","新北市中和區員山路226巷4號","121.481605","25.0007566666667","6500300","中和區"
"235014","4979-A6","2017/08/04 14:29:08","新北市中和區中正路589巷3號","121.485823333333","24.9942566666667","6500300","中和區"
"235006","551-UM","2017/08/04 14:29:08","新北市中和區中和路378巷14弄5號","121.511161666667","25.0015066666667","6500300","中和區"
"235034","558-UM","2017/08/04 14:28:58","新北市中和區中和路18號","121.49964","25.0019366666667","6500300","中和區"
"235009","565-BX","2017/08/04 14:29:05","新北市中和區景新街423巷33弄25號","121.513768333333","24.9899183333333","6500300","中和區"
"235018","640-BX","2017/08/04 14:29:12","新北市中和區國光街109巷29號","121.469378333333","24.9994016666667","6500300","中和區"
"235024","647-TV","2017/08/04 14:29:14","新北市中和區新生街115號","121.48356","25.00187","6500300","中和區"
"235011","732-UM","2017/08/04 14:29:15","新北市中和區景平路259巷44號","121.506565","24.9928633333333","6500300","中和區"
"235010","733-UM","2017/08/04 14:29:02","新北市中和區忠孝街37巷76號","121.510995","24.9849983333333","6500300","中和區"
"235035","783-BX","2017/08/04 14:29:19","新北市中和區中正路637巷48號","121.485493333333","24.9941216666667","6500300","中和區"
"235026","800-TS","2017/08/04 14:29:03","新北市中和區中山路二段488-1號","121.487448333333","25.0049016666667","6500300","中和區"
"235021","801-TS","2017/08/04 14:29:01","新北市中和區中山路三段37巷23號","121.479171666667","25.0048916666667","6500300","中和區"
"235005","802-TS","2017/08/04 14:29:15","新北市中和區中和路252巷8號","121.5075","24.9991683333333","6500300","中和區"
"235016","805-TS","2017/08/04 14:29:10","新北市中和區華新街143巷19號","121.506575","24.9809533333333","6500300","中和區"
"235012","896-TW","2017/08/04 14:29:03","新北市中和區忠孝街66號","121.511951666667","24.98399","6500300","中和區"
"235017","900-TW","2017/08/04 14:29:07","新北市中和區華順街2巷6號","121.467576666667","24.9989516666667","6500300","中和區"
"235001","AAC-213","2017/08/04 14:29:10","新北市中和區秀朗路三段10巷37弄14號","121.523433333333","24.9958666666667","6500300","中和區"
"235023","AAC-215","2017/08/04 14:29:06","新北市中和區圓通路266-1號","121.492725","24.9908133333333","6500300","中和區"
"220016","013-TV","2017/08/04 14:29:07","新北市板橋區中山路二段555號","121.483961666667","25.0217683333333","6500100","板橋區"
"220034","073-UY","2017/08/04 14:28:48","新北市板橋區中正路250巷83號","121.458948333333","25.0199","6500100","板橋區"
"220105","075-UY","2017/08/04 14:29:15","新北市板橋區文化路二段441巷6-1號","121.474453333333","25.0336083333333","6500100","板橋區"
"220017","AAD-861","2017/08/04 14:29:12","新北市板橋區四川路一段104號","121.459481666667","25.0046566666667","6500100","板橋區"
"220045","120-SR","2017/08/04 14:29:04","新北市板橋區大同街7號","121.476843333333","25.026855","6500100","板橋區"
"247019","893-R6","2017/08/04 14:29:03","新北市蘆洲區民權路188-5號","121.471463333333","25.090865","6501400","蘆洲區"
"247009","546-UM","2017/08/04 14:29:12","新北市蘆洲區信義路146號","121.479511666667","25.083065","6501400","蘆洲區"
"247017","500-BY","2017/08/04 14:29:09","新北市蘆洲區復興路227巷18-1號","121.47982","25.09052","6501400","蘆洲區"
"247005","341-TH","2017/08/04 14:29:14","新北市蘆洲區長安街44號","121.4634","25.0796466666667","6501400","蘆洲區"
"247007","339-TH","2017/08/04 14:29:15","新北市蘆洲區信義路89號","121.477123333333","25.0796216666667","6501400","蘆洲區"
"247023","337-TH","2017/08/04 14:29:06","新北市蘆洲區中正路201號","121.468495","25.0858983333333","6501400","蘆洲區"
"247001","336-TH","2017/08/04 14:29:03","新北市蘆洲區永樂街38巷45弄41號","121.457038333333","25.0902316666667","6501400","蘆洲區"
"247013","057-VK","2017/08/04 02:26:59","新北市五股區中興路三段2巷10號","121.44917","25.08105","6501400","蘆洲區"
"247003","056-VK","2017/08/04 14:29:16","新北市蘆洲區中原路12巷10號","121.461145","25.0837833333333","6501400","蘆洲區"
"247011","007-UY","2017/08/04 14:29:08","新北市蘆洲區集賢路224巷66號","121.480693333333","25.0881783333333","6501400","蘆洲區"
"247015","001-UY","2017/08/04 14:29:01","新北市蘆洲區中正路185巷25弄35號","121.467595","25.0833883333333","6501400","蘆洲區"
"228002","585-TW","2017/08/04 14:29:14","新北市貢寮區福隆里興隆街24-1號","121.943708333333","25.017475","6502600","貢寮區"
"208004","AAC-292","2017/08/04 14:28:05","新北市金山區兩湖里葵扇湖11-1號","121.593983333333","25.2295166666667","6502700","金山區"
"207002","749-BX","2017/08/04 14:28:06","新北市萬里區溪底里香員林路17-1號","121.635375","25.1599816666667","6502800","萬里區"
"207001","662-BX","2017/08/04 14:29:00","新北市萬里區磺潭里清水18-2號","121.638933333333","25.19876","6502800","萬里區"
"236067","105-UM","2017/08/04 14:28:59","新北市土城區永豐路255巷27弄3號","121.475976666667","24.9729033333333","6501300","土城區"
"236041","107-UM","2017/08/04 14:29:12","新北市土城區裕民路67巷18號","121.449975","24.9883016666667","6501300","土城區"
"236077","166-UM","2017/08/04 14:29:15","新北市土城區大暖路61-2號","121.42206","24.958265","6501300","土城區"
"236029","253-BX","2017/08/04 14:29:00","新北市土城區水源街71號","121.439743333333","24.97641","6501300","土城區"
"236025","269-VK","2017/08/04 14:29:02","新北市土城區承天路20號","121.439586666667","24.963385","6501300","土城區"
"236013","270-VK","2017/08/04 14:29:13","新北市土城區青雲路39巷7號","121.460321666667","24.9875216666667","6501300","土城區"
"236035","271-VK","2017/08/04 14:28:59","新北市土城區青雲路451巷11號","121.459495","24.9747416666667","6501300","土城區"
"236019","401-BY","2017/08/04 14:29:00","新北市土城區永豐路202巷14號","121.466296666667","24.9834416666667","6501300","土城區"
"236006","498-BY","2017/08/04 14:29:06","新北市土城區中華路一段94號","121.444623333333","24.98755","6501300","土城區"
"236057","912-UM","2017/08/04 14:29:20","新北市土城區中央路四段466號","121.409983333333","24.9506383333333","6501300","土城區"
"236046","913-UM","2017/08/04 14:29:04","新北市土城區明德路一段143號","121.46506","24.980085","6501300","土城區"
"236061","915-UM","2017/08/04 14:29:00","新北市土城區延壽路109巷2號","121.469095","24.99347","6501300","土城區"
"236054","AAC-216","2017/08/04 14:29:05","新北市土城區中華路二段185號","121.438521666667","24.9746666666667","6501300","土城區"
"242044","172-VK","2017/08/04 14:29:14","新北市板橋區板城路407號","121.447186666667","24.9955333333333","6500500","新莊區"
"220027","145-BY","2017/08/04 14:29:13","新北市板橋區復興街22號","121.457961666667","25.01732","6500100","板橋區"
"220028","200-UY","2017/08/04 14:29:05","新北市板橋區大觀路二段37巷164號","121.449286666667","25.001555","6500100","板橋區"
"220030","610-BX","2017/08/04 14:29:19","新北市板橋區滿平街84巷153號","121.426991666667","24.9864016666667","6500100","板橋區"
"220003","255-TC","2017/08/04 03:14:08","新北市板橋區觀光街2-2號","121.472385","25.0155283333333","6500100","板橋區"
"220004","276-BY","2017/08/04 14:29:07","新北市板橋區國慶路49巷21號","121.459348333333","24.9962583333333","6500100","板橋區"
"220020","277-BY","2017/08/04 14:29:08","新北市板橋區篤行路二段161巷20號","121.429835","24.9872633333333","6500100","板橋區"
"220043","283-UM","2017/08/04 14:29:17","新北市板橋區吳鳳路50巷73號","121.4698","25.0303283333333","6500100","板橋區"
"220050","285-UM","2017/08/04 14:29:15","新北市板橋區縣民大道三段121巷32號","121.47648","25.023415","6500100","板橋區"
"220001","285-VK","2017/08/04 14:28:57","新北市板橋區永豐街211號","121.476668333333","25.0210466666667","6500100","板橋區"
"220031","286-VK","2017/08/04 14:29:16","新北市板橋區大觀路二段174巷155號","121.441511666667","25.0027883333333","6500100","板橋區"
"220029","287-VK","2017/08/04 14:29:05","新北市板橋區南雅南路一段106號","121.454963333333","25.004395","6500100","板橋區"
"220039","288-VK","2017/08/04 14:11:36","新北市板橋區四維路269巷16號","121.462423333333","25.02827","6500100","板橋區"
"220009","293-UM","2017/08/04 14:29:17","新北市板橋區中山路一段265巷16號","121.468643333333","25.014635","6500100","板橋區"
"220013","295-UM","2017/08/04 14:29:09","新北市板橋區國泰街75巷28弄64號","121.467286666667","25.00453","6500100","板橋區"
"220032","296-UM","2017/08/04 14:29:09","新北市板橋區篤行路三段67號","121.427485","24.9856433333333","6500100","板橋區"
"220023","297-UM","2017/08/04 14:29:06","新北市板橋區中正路275巷52號","121.453601666667","25.0182133333333","6500100","板橋區"
"220010","303-R5","2017/08/04 14:29:14","新北市板橋區三民路二段109巷29號","121.4806","25.0161033333333","6500100","板橋區"
"220041","307-R5","2017/08/04 14:28:59","新北市板橋區文化路二段125巷23號","121.469751666667","25.0274783333333","6500100","板橋區"
"220047","317-R6","2017/08/04 14:29:17","新北市板橋區民生路三段263巷12號","121.463658333333","25.0292216666667","6500100","板橋區"
"220012","486-VK","2017/08/04 14:29:08","新北市板橋區縣民大道二段1號","121.462456666667","25.01172","6500100","板橋區"
"220038","487-VK","2017/08/04 14:29:01","新北市板橋區文化路一段213號","121.463543333333","25.0169083333333","6500100","板橋區"
"220037","491-VK","2017/08/04 14:29:16","新北市板橋區雙十路二段37-1號","121.476813333333","25.0259566666667","6500100","板橋區"
"220104","560-BX","2017/08/04 14:29:06","新北市板橋區金華街85巷33號","121.458848333333","25.021295","6500100","板橋區"
"220052","561-BX","2017/08/04 14:28:53","新北市板橋區文化路一段270巷2號","121.467316666667","25.0205016666667","6500100","板橋區"
"220019","568-UM","2017/08/04 14:29:14","新北市板橋區忠孝路24巷22號","121.460143333333","25.000985","6500100","板橋區"
"220011","609-BX","2017/08/04 14:29:17","新北市板橋區三民路二段37-2號","121.479331666667","25.017165","6500100","板橋區"
"220040","637-BX","2017/08/04 14:29:10","新北市板橋區文聖街149巷23弄1號","121.479301666667","25.0284466666667","6500100","板橋區"
"220005","686-BX","2017/08/04 14:29:11","新北市板橋區五權街18號","121.464303333333","24.9938083333333","6500100","板橋區"
"220025","687-BX","2017/08/04 14:29:15","新北市板橋區僑中二街86號","121.446505","25.009575","6500100","板橋區"
"220042","689-BX","2017/08/04 14:29:17","新北市板橋區新海路135巷1號","121.460703333333","25.0233766666667","6500100","板橋區"
"220002","741-BX","2017/08/04 14:29:13","新北市板橋區光明街60號","121.461025","25.0026383333333","6500100","板橋區"
"220014","829-TW","2017/08/04 14:29:13","新北市板橋區長安街138巷18號","121.472973333333","25.009045","6500100","板橋區"
"220051","830-TW","2017/08/04 14:29:07","新北市板橋區雙十路二段130巷2弄29號","121.474951666667","25.0288183333333","6500100","板橋區"
"220022","895-R6","2017/08/04 14:29:05","新北市板橋區館前西路150-5號","121.455516666667","25.0086133333333","6500100","板橋區"
"220021","985-R7","2017/08/04 14:29:10","新北市板橋區新生街21號","121.45605","25.0211983333333","6500100","板橋區"
"220046","AAC-210","2017/08/04 14:29:05","新北市板橋區幸福路60巷58號","121.459625","25.021995","6500100","板橋區"
"220018","AAC-253","2017/08/04 14:29:15","新北市板橋區忠孝路136號","121.463561666667","25.0023783333333","6500100","板橋區"
