"lineid","car","time","location","longitude","latitude","cityid","cityname"
"234078","298-R6","2017/08/04 14:39:05","新北市永和區環河西路二段247號","121.499873333333","25.009585","6500400","永和區"
"234062","337-UY","2017/08/04 14:39:03","新北市永和區環河西路二段23號","121.5075","25.0160016666667","6500400","永和區"
"234084","338-UY","2017/08/04 14:39:14","新北市永和區光復街21號","121.516405","25.01742","6500400","永和區"
"234052","553-UM","2017/08/04 14:39:18","新北市永和區環河東路一段82號","121.519608333333","25.016435","6500400","永和區"
"234028","746-BX","2017/08/04 14:37:58","新北市五股區中直路21號","121.421711666667","25.1117666666667","6500400","永和區"
"234025","9371-KE","2017/08/04 14:39:06","新北市永和區雙和街7巷2號","121.50953","25.00169","6500400","永和區"
"248019","225-UY","2017/08/04 14:39:04","新北市五股區凌雲路三段45-2號","121.42784","25.12086","6501500","五股區"
"234066","AAC-212","2017/08/04 14:39:14","新北市中和區保平路231號","121.507928333333","25.0043933333333","6500400","永和區"
"234001","AAC-295","2017/08/04 14:39:11","新北市永和區中正路618-1號","121.516946666667","25.007775","6500400","永和區"
"231002","002-UM","2017/08/04 14:39:05","新北市新店區中正路468號","121.53401","24.9794183333333","6500600","新店區"
"231025","0291-UT","2017/08/04 14:39:06","新北市新店區民族路161號","121.537656666667","24.9767566666667","6500600","新店區"
"231028","046-UY","2017/08/04 14:39:08","新北市新店區安德街60巷35號","121.511136666667","24.96356","6500600","新店區"
"231029","106-UY","2017/08/04 14:39:07","新北市新店區安康路三段242-1號","121.487873333333","24.9517983333333","6500600","新店區"
"231018","107-UY","2017/08/04 14:39:00","新北市新店區中央二街5巷8號","121.52862","24.972985","6500600","新店區"
"231012","108-UY","2017/08/04 14:39:12","新北市新店區寶橋路88號","121.54661","24.9757866666667","6500600","新店區"
"231022","187-VK","2017/08/04 14:39:14","新北市新店區桂山路69號","121.566538333333","24.9006333333333","6500600","新店區"
"231034","268-BY","2017/08/04 14:39:11","新北市新店區黎明路51巷2號","121.502086666667","24.94888","6500600","新店區"
"231016","AAD-862","2017/08/04 14:39:05","新北市新店區北宜路三段275巷8號","121.60241","24.9554233333333","6500600","新店區"
"231027","3712-VJ","2017/08/04 14:39:00","新北市新店區中正路102巷8弄6號","121.543573333333","24.9711883333333","6500600","新店區"
"231038","4715-K9","2017/08/04 14:39:03","新北市新店區溪洲路201號","121.528626666667","24.9662716666667","6500600","新店區"
"231036","512-UM","2017/08/04 14:39:06","新北市新店區安祥路106巷208號","121.474123333333","24.96046","6500600","新店區"
"231023","513-UM","2017/08/04 14:39:09","新北市新店區檳榔路84號","121.542915","24.9630816666667","6500600","新店區"
"231035","515-UM","2017/08/04 14:39:17","新北市新店區安康路二段100巷5號","121.513165","24.9636316666667","6500600","新店區"
"231006","617-UM","2017/08/04 14:39:10","新北市新店區北宜路二段103號","121.550188333333","24.9523866666667","6500600","新店區"
"231030","618-UM","2017/08/04 14:39:14","新北市新店區安民街37號","121.515835","24.965415","6500600","新店區"
"231001","619-UM","2017/08/04 14:39:17","新北市新店區中正路82號","121.543706666667","24.970355","6500600","新店區"
"231003","641-BX","2017/08/04 14:39:12","新北市新店區中興路二段100巷1號","121.547571666667","24.9716883333333","6500600","新店區"
"231013","719-UM","2017/08/04 14:39:15","新北市新店區明德路17號","121.542098333333","24.9769083333333","6500600","新店區"
"231032","719-UY","2017/08/04 14:39:06","新北市新店區安業街33號","121.517438333333","24.9771883333333","6500600","新店區"
"231005","897-TW","2017/08/04 14:39:02","新北市新店區復興路27號","121.539103333333","24.98666","6500600","新店區"
"231004","899-TW","2017/08/04 14:39:05","新北市新店區中正路263-5號","121.538188333333","24.973805","6500600","新店區"
"231037","AKT-0513","2017/08/04 14:38:42","新北市新店區柴埕路60巷32號","121.506316666667","24.9675266666667","6500600","新店區"
"235030","003-UY","2017/08/04 14:39:10","新北市中和區景新街137號","121.506066666667","24.9970633333333","6500300","中和區"
"235028","005-UY","2017/08/04 14:39:09","新北市中和區南山路127巷18弄4號","121.503381666667","24.9971483333333","6500300","中和區"
"235027","006-UY","2017/08/04 14:39:03","新北市中和區連城路144巷2號","121.495565","24.9986216666667","6500300","中和區"
"235020","096-UM","2017/08/04 14:39:01","新北市中和區員山路581巷2弄20號","121.477463333333","25.00969","6500300","中和區"
"235003","097-UM","2017/08/04 14:39:15","新北市永和區中正路26號","121.512741666667","24.99412","6500300","中和區"
"235029","098-UM","2017/08/04 14:39:19","新北市中和區福祥路77號","121.499108333333","25.00553","6500300","中和區"
"235004","150-BY","2017/08/04 14:39:08","新北市中和區安平路38號","121.509988333333","24.9949616666667","6500300","中和區"
"235022","151-BY","2017/08/04 14:39:11","新北市中和區員山路124巷3號","121.481541666667","24.9959716666667","6500300","中和區"
"235002","185-VK","2017/08/04 14:39:15","新北市中和區立人街27號","121.521215","24.9941","6500300","中和區"
"235013","186-VK","2017/08/04 14:39:03","新北市中和區安平路17號","121.509115","24.9941383333333","6500300","中和區"
"235031","255-BX","2017/08/04 14:39:00","新北市中和區連城路463號","121.484198333333","24.9961716666667","6500300","中和區"
"235008","293-VK","2017/08/04 14:39:01","新北市中和區景安路204號","121.504063333333","24.9910333333333","6500300","中和區"
"235036","301-VK","2017/08/04 14:39:18","新北市中和區光華街70號","121.505936666667","25.0034933333333","6500300","中和區"
"235007","352-BY","2017/08/04 14:39:02","新北市中和區景平路478號","121.505273333333","24.9935683333333","6500300","中和區"
"235015","376-QA","2017/08/04 14:39:15","新北市中和區中興街180巷50弄1號","121.498943333333","24.9888516666667","6500300","中和區"
"235032","377-QA","2017/08/04 14:39:13","新北市中和區永和路8巷21號","121.501088333333","25.0035883333333","6500300","中和區"
"235014","4979-A6","2017/08/04 14:39:08","新北市中和區景安路205-1號","121.504633333333","24.9922316666667","6500300","中和區"
"235006","551-UM","2017/08/04 14:39:08","新北市中和區保健路2巷12號","121.507491666667","24.9979833333333","6500300","中和區"
"235034","558-UM","2017/08/04 14:39:18","新北市中和區泰和街2號","121.500133333333","25.0012566666667","6500300","中和區"
"235009","565-BX","2017/08/04 14:39:06","新北市中和區景新街471號","121.513441666667","24.9878833333333","6500300","中和區"
"235018","640-BX","2017/08/04 14:39:12","新北市中和區國光街112巷24弄1號","121.470383333333","25.0024416666667","6500300","中和區"
"235024","647-TV","2017/08/04 14:39:14","新北市中和區中山路二段523巷14號","121.481478333333","25.0044133333333","6500300","中和區"
"235011","732-UM","2017/08/04 14:39:15","新北市中和區捷運路57號","121.509215","24.9896533333333","6500300","中和區"
"235010","733-UM","2017/08/04 14:39:02","新北市中和區忠孝街94號","121.511736666667","24.9845383333333","6500300","中和區"
"235035","783-BX","2017/08/04 14:39:19","新北市中和區連城路469-1號","121.483596666667","24.995685","6500300","中和區"
"235026","800-TS","2017/08/04 14:39:04","新北市中和區中山路二段526巷23號","121.485783333333","25.0057083333333","6500300","中和區"
"235021","801-TS","2017/08/04 14:39:16","新北市中和區員山路384號","121.480635","25.0043283333333","6500300","中和區"
"235016","805-TS","2017/08/04 14:39:10","新北市中和區華新街143巷68號","121.506365","24.97929","6500300","中和區"
"235012","896-TW","2017/08/04 14:39:03","新北市中和區四維街12號","121.513181666667","24.9872533333333","6500300","中和區"
"235017","900-TW","2017/08/04 14:39:07","新北市中和區民德路197-2號","121.468883333333","24.9987266666667","6500300","中和區"
"235001","AAC-213","2017/08/04 14:39:10","新北市中和區秀朗路三段10巷14弄13號","121.524745","24.9965383333333","6500300","中和區"
"235023","AAC-215","2017/08/04 14:39:06","新北市中和區圓通路305巷8號","121.494115","24.9897116666667","6500300","中和區"
"220016","013-TV","2017/08/04 14:39:02","新北市板橋區中山路二段416巷50弄2號","121.483028333333","25.0197233333333","6500100","板橋區"
"220034","073-UY","2017/08/04 14:39:08","新北市板橋區國光路33號","121.457156666667","25.0176283333333","6500100","板橋區"
"220105","075-UY","2017/08/04 14:39:15","新北市板橋區文化路二段410巷2號","121.47387","25.031615","6500100","板橋區"
"220017","AAD-861","2017/08/04 14:39:19","新北市板橋區貴興路47號","121.457358333333","25.003395","6500100","板橋區"
"220045","120-SR","2017/08/04 14:39:04","新北市板橋區民生路二段234巷24弄2號","121.47002","25.0225183333333","6500100","板橋區"
"247005","341-TH","2017/08/04 14:39:07","新北市蘆洲區中華街40號","121.462401666667","25.080975","6501400","蘆洲區"
"247007","339-TH","2017/08/04 14:39:15","新北市蘆洲區信義路6號","121.473506666667","25.0790616666667","6501400","蘆洲區"
"247023","337-TH","2017/08/04 14:39:06","新北市蘆洲區正和街63巷16號","121.469063333333","25.0807016666667","6501400","蘆洲區"
"247001","336-TH","2017/08/04 14:39:03","新北市蘆洲區長安街246巷23號","121.458238333333","25.0864083333333","6501400","蘆洲區"
"247013","057-VK","2017/08/04 02:26:59","新北市五股區中興路三段2巷10號","121.44917","25.08105","6501400","蘆洲區"
"247003","056-VK","2017/08/04 14:39:16","新北市蘆洲區永康街1巷10號","121.459535","25.0856016666667","6501400","蘆洲區"
"247015","001-UY","2017/08/04 14:39:01","新北市蘆洲區光華路119巷12號","121.46712","25.0818183333333","6501400","蘆洲區"
"228002","585-TW","2017/08/04 14:36:07","新北市貢寮區福隆里興隆街24-1號","121.943696666667","25.01746","6502600","貢寮區"
"208004","AAC-292","2017/08/04 14:39:05","新北市金山區半嶺41號","121.6012","25.2397583333333","6502700","金山區"
"207002","749-BX","2017/08/04 14:39:06","新北市萬里區崁腳里崁腳路73號","121.647618333333","25.1596","6502800","萬里區"
"207001","662-BX","2017/08/04 14:39:00","新北市萬里區雙興里豐稟路26號","121.641346666667","25.1877066666667","6502800","萬里區"
"236067","105-UM","2017/08/04 14:39:19","新北市土城區永豐路282號","121.47064","24.9780116666667","6501300","土城區"
"236041","107-UM","2017/08/04 14:39:12","新北市土城區裕民路55巷16號","121.44965","24.9888116666667","6501300","土城區"
"236077","166-UM","2017/08/04 14:39:15","新北市土城區頂埔街61號","121.417361666667","24.9593766666667","6501300","土城區"
"236029","253-BX","2017/08/04 14:39:00","新北市土城區中華路二段185號","121.438408333333","24.9747783333333","6501300","土城區"
"236025","269-VK","2017/08/04 14:39:02","新北市土城區忠義路49-1號","121.440483333333","24.96909","6501300","土城區"
"236013","270-VK","2017/08/04 14:39:13","新北市土城區清水路207巷21號","121.459756666667","24.9824433333333","6501300","土城區"
"236035","271-VK","2017/08/04 14:38:59","新北市土城區明德路一段313巷26號","121.459586666667","24.9761616666667","6501300","土城區"
"236019","401-BY","2017/08/04 14:39:00","新北市土城區明德路一段55號","121.465223333333","24.9846283333333","6501300","土城區"
"236057","912-UM","2017/08/04 14:39:20","新北市土城區中央路四段160號","121.417001666667","24.9582716666667","6501300","土城區"
"236046","913-UM","2017/08/04 14:39:10","新北市土城區青雲路96號","121.45936","24.9866366666667","6501300","土城區"
"236061","915-UM","2017/08/04 14:39:00","新北市土城區延壽路39號","121.470841666667","24.9913933333333","6501300","土城區"
"236054","AAC-216","2017/08/04 14:39:11","新北市土城區中華路一段139號","121.444143333333","24.9865533333333","6501300","土城區"
"220027","145-BY","2017/08/04 14:39:13","新北市板橋區建國街54巷5號","121.459121666667","25.016885","6500100","板橋區"
"220028","200-UY","2017/08/04 14:39:05","新北市板橋區大觀路二段19巷94號","121.449331666667","25.0027683333333","6500100","板橋區"
"220030","610-BX","2017/08/04 14:39:18","新北市板橋區金門街306號","121.428975","24.9854166666667","6500100","板橋區"
"220003","255-TC","2017/08/04 03:14:08","新北市板橋區觀光街2-2號","121.472385","25.0155283333333","6500100","板橋區"
"220004","276-BY","2017/08/04 14:39:07","新北市板橋區四川路二段47巷6弄4號","121.454131666667","24.9944016666667","6500100","板橋區"
"220020","277-BY","2017/08/04 14:39:08","新北市板橋區金門街253巷12號","121.432943333333","24.988335","6500100","板橋區"
"220043","283-UM","2017/08/04 14:39:17","新北市板橋區宏國路77巷2弄1-1號","121.46933","25.03249","6500100","板橋區"
"220050","285-UM","2017/08/04 14:39:15","新北市板橋區縣民大道三段33巷1弄6號","121.473551666667","25.0206","6500100","板橋區"
"220001","285-VK","2017/08/04 14:38:59","新北市板橋區中山路二段148巷30號","121.477118333333","25.0162216666667","6500100","板橋區"
"220031","286-VK","2017/08/04 14:39:16","新北市板橋區大觀路二段174巷136號","121.441581666667","25.0023833333333","6500100","板橋區"
"220029","287-VK","2017/08/04 14:39:05","新北市板橋區大觀路一段29巷131弄2號","121.450441666667","25.0054283333333","6500100","板橋區"
"220039","288-VK","2017/08/04 14:11:36","新北市板橋區四維路269巷16號","121.462423333333","25.02827","6500100","板橋區"
"220009","293-UM","2017/08/04 14:39:01","新北市板橋區縣民大道二段172號","121.468793333333","25.0163516666667","6500100","板橋區"
"220013","295-UM","2017/08/04 14:39:09","新北市板橋區民族路222巷13號","121.468658333333","25.0067983333333","6500100","板橋區"
"220032","296-UM","2017/08/04 14:39:09","新北市板橋區滿平二街2巷1弄16號","121.424921666667","24.9866283333333","6500100","板橋區"
"220023","297-UM","2017/08/04 14:39:06","新北市板橋區大仁街110巷22號","121.452661666667","25.0165433333333","6500100","板橋區"
"220010","303-R5","2017/08/04 14:39:14","新北市板橋區三民路二段29巷31弄1號","121.481335","25.0177516666667","6500100","板橋區"
"220041","307-R5","2017/08/04 14:39:19","新北市板橋區文化路二段16-2號","121.468831666667","25.0242833333333","6500100","板橋區"
"220047","317-R6","2017/08/04 14:39:17","新北市板橋區四維路269巷54號","121.461095","25.0273666666667","6500100","板橋區"
"220012","486-VK","2017/08/04 14:39:08","新北市板橋區館前東路80號","121.461601666667","25.007465","6500100","板橋區"
"220038","487-VK","2017/08/04 14:39:01","新北市板橋區國光路187號","121.461075","25.018705","6500100","板橋區"
"220037","491-VK","2017/08/04 14:39:15","新北市板橋區文化路二段426號","121.474325","25.03211","6500100","板橋區"
"220104","560-BX","2017/08/04 14:39:07","新北市板橋區新生街32號","121.45632","25.0210033333333","6500100","板橋區"
"220052","561-BX","2017/08/04 14:39:13","新北市板橋區文化路一段220號","121.466528333333","25.0204816666667","6500100","板橋區"
"220019","568-UM","2017/08/04 14:39:14","新北市板橋區信義路20號","121.456981666667","24.9953883333333","6500100","板橋區"
"220011","609-BX","2017/08/04 14:38:57","新北市板橋區三民路一段31巷87弄1號","121.481531666667","25.02336","6500100","板橋區"
"220040","637-BX","2017/08/04 14:39:10","新北市板橋區懷德街201巷1號","121.48068","25.0293133333333","6500100","板橋區"
"220005","686-BX","2017/08/04 14:39:11","新北市板橋區國慶路159號","121.461748333333","24.9961166666667","6500100","板橋區"
"220025","687-BX","2017/08/04 14:39:16","新北市板橋區僑中三街19號","121.446091666667","25.0045566666667","6500100","板橋區"
"220042","689-BX","2017/08/04 14:39:17","新北市板橋區新海路395號","121.458728333333","25.0264466666667","6500100","板橋區"
"220002","741-BX","2017/08/04 14:39:07","新北市板橋區忠孝路237號","121.4661","25.0029933333333","6500100","板橋區"
"220014","829-TW","2017/08/04 14:39:13","新北市板橋區長安街261巷1號","121.473448333333","25.0106233333333","6500100","板橋區"
"220051","830-TW","2017/08/04 14:39:15","新北市板橋區雙十路二段46巷22弄1號","121.476375","25.0283133333333","6500100","板橋區"
"220022","895-R6","2017/08/04 14:39:01","新北市板橋區府中路29-2號","121.458458333333","25.0080483333333","6500100","板橋區"
"220021","985-R7","2017/08/04 14:39:09","新北市板橋區大仁街10號","121.455961666667","25.017075","6500100","板橋區"
"220046","AAC-210","2017/08/04 14:39:05","新北市板橋區幸福路32巷2弄11號","121.46161","25.0211","6500100","板橋區"
"220018","AAC-253","2017/08/04 14:39:15","新北市板橋區四川路一段80號","121.459635","25.00517","6500100","板橋區"
