"lineid","car","time","location","longitude","latitude","cityid","cityname"
"249005","172-UM","2017/08/04 16:49:17","新北市八里區大堀湖2-3號","121.422508333333","25.1536966666667","6502300","八里區"
"249001","173-UM","2017/08/04 16:49:16","新北市八里區博物館路15號","121.415291666667","25.1639133333333","6502300","八里區"
"249004","303-UY","2017/08/04 16:49:12","新北市八里區博物館路111號","121.408813333333","25.159205","6502300","八里區"
"249002","305-UY","2017/08/04 16:49:07","新北市八里區牛寮埔31號","121.429903333333","25.145735","6502300","八里區"
"249003","593-UM","2017/08/04 16:49:11","新北市八里區博物館路181號","121.405835","25.1568816666667","6502300","八里區"
"244019","403-UM","2017/08/04 16:49:00","新北市林口區粉寮69號","121.404998333333","25.09094","6501700","林口區"
"231046","278-BY","2017/08/04 16:49:14","新北市新店區灣潭路29-5號","121.539661666667","24.93869","6500600","新店區"
"241011","013-R5","2017/08/04 16:49:05","新北市三重區公園街7號","121.499496666667","25.0726683333333","6500200","三重區"
"241028","022-UY","2017/08/04 16:49:08","新北市三重區光興街93號","121.497325","25.0599416666667","6500200","三重區"
"241008","059-VK","2017/08/04 16:49:15","新北市三重區永福街179巷30號","121.47791","25.0748466666667","6500200","三重區"
"241005","060-VK","2017/08/04 16:49:01","新北市三重區仁華街80巷27號","121.484428333333","25.0839716666667","6500200","三重區"
"241031","061-VK","2017/08/04 16:48:56","新北市三重區重陽路一段123-5號","121.487298333333","25.06103","6500200","三重區"
"241015","062-VK","2017/08/04 16:49:14","新北市三重區長元西街1號","121.498821666667","25.065575","6500200","三重區"
"241017","063-VK","2017/08/04 16:49:06","新北市三重區大同北路60巷24號","121.493573333333","25.0637066666667","6500200","三重區"
"241024","065-VK","2017/08/04 16:49:01","新北市三重區中正北路317巷28號","121.475753333333","25.0731216666667","6500200","三重區"
"241026","066-VK","2017/08/04 16:49:13","新北市三重區文化南路10巷14號","121.50069","25.0622333333333","6500200","三重區"
"241002","090-VK","2017/08/04 16:49:07","新北市三重區仁義街241巷32號","121.497056666667","25.0831","6500200","三重區"
"241003","091-VK","2017/08/04 16:49:08","新北市三重區五華街87巷37弄1號","121.49347","25.084145","6500200","三重區"
"241032","156-TC","2017/08/04 16:48:59","新北市三重區三光街47-1號","121.484225","25.0608683333333","6500200","三重區"
"241009","265-UM","2017/08/04 16:49:09","新北市三重區溪尾街206號","121.4881","25.08125","6500200","三重區"
"241016","266-UM","2017/08/04 16:48:55","新北市三重區大同北路167巷26號","121.493661666667","25.0652216666667","6500200","三重區"
"241022","267-UM","2017/08/04 16:49:02","新北市三重區貴陽街47巷2號","121.484898333333","25.0629066666667","6500200","三重區"
"241018","268-UM","2017/08/04 16:49:15","新北市三重區安慶街149巷17號","121.49423","25.0693116666667","6500200","三重區"
"241013","270-UM","2017/08/04 16:49:02","新北市三重區仁壽街28號","121.497058333333","25.073535","6500200","三重區"
"241025","271-UM","2017/08/04 16:49:05","新北市三重區中正北路530巷8號","121.472035","25.0708483333333","6500200","三重區"
"241007","398-BY","2017/08/04 16:49:15","新北市三重區三和路四段181巷124號","121.48524","25.0798533333333","6500200","三重區"
"241020","412-TH","2017/08/04 16:49:09","新北市三重區忠孝路二段35號","121.485961666667","25.071065","6500200","三重區"
"241004","475-VK","2017/08/04 16:49:14","新北市三重區仁愛街416號","121.49056","25.0813316666667","6500200","三重區"
"241019","478-VK","2017/08/04 16:49:01","新北市三重區三張街149巷10弄13號","121.485918333333","25.069725","6500200","三重區"
"241030","480-VK","2017/08/04 16:49:09","新北市三重區新興路4號","121.492673333333","25.0527283333333","6500200","三重區"
"241014","543-UM","2017/08/04 16:48:57","新北市三重區長壽街120巷11號","121.502531666667","25.06911","6500200","三重區"
"241023","545-UM","2017/08/04 16:49:05","新北市三重區新北大道一段206巷32號","121.482511666667","25.0624466666667","6500200","三重區"
"241001","547-UM","2017/08/04 16:49:04","新北市三重區仁政街56號","121.492936666667","25.076975","6500200","三重區"
"241006","AAD-863","2017/08/04 16:49:08","新北市三重區力行路二段158號","121.482675","25.0763183333333","6500200","三重區"
"241012","941-UM","2017/08/04 16:49:13","新北市三重區龍門路274巷19號","121.50156","25.0747166666667","6500200","三重區"
"241029","942-UM","2017/08/04 16:49:15","新北市三重區集美街207巷16號","121.492228333333","25.0541633333333","6500200","三重區"
"241033","AAC-255","2017/08/04 16:49:04","新北市三重區新北大道二段139巷13號","121.46648","25.0606733333333","6500200","三重區"
"235064","005-UY","2017/08/04 16:49:03","新北市中和區員山路36巷16-3號","121.484985","24.99123","6500300","中和區"
"235022","151-BY","2017/08/04 15:03:57","新北市中和區員山路36巷16-2號","121.48517","24.9916533333333","6500300","中和區"
"235067","255-BX","2017/08/04 16:41:18","新北市中和區員山路36巷13號","121.484321666667","24.9913","6500300","中和區"
"235026","800-TS","2017/08/04 16:49:04","新北市中和區建八路133號","121.489973333333","24.99868","6500300","中和區"
"247006","341-TH","2017/08/04 16:49:15","新北市五股區中興路二段78-5號","121.46176","25.0785133333333","6501400","蘆洲區"
"247002","336-TH","2017/08/04 16:49:00","新北市五股區成泰路三段595號","121.45251","25.1029833333333","6501400","蘆洲區"
"247013","057-VK","2017/08/04 16:49:01","新北市蘆洲區三民路91號","121.474171666667","25.08467","6501400","蘆洲區"
"247004","056-VK","2017/08/04 16:48:57","新北市蘆洲區長榮路106號","121.461795","25.0840066666667","6501400","蘆洲區"
"247016","001-UY","2017/08/04 16:49:09","新北市蘆洲區中正路60號","121.470378333333","25.0829216666667","6501400","蘆洲區"
"228002","663-BX","2017/08/04 16:49:07","新北市貢寮區貢寮里朝陽街130號","121.907686666667","25.0223966666667","6502600","貢寮區"
"228001","670-TC","2017/08/04 01:29:47","新北市貢寮區貢寮里朝陽街1-2號","121.912268333333","25.0213","6502600","貢寮區"
"224010","AGQ-8101","2017/08/04 08:54:23","新北市瑞芳區逢甲路17號","121.809445","25.1083416666667","6501200","瑞芳區"
"224006","676-BX","2017/08/04 16:48:57","新北市瑞芳區大寮路356-1號","121.784788333333","25.1032716666667","6501200","瑞芳區"
"224009","285-BY","2017/08/04 16:49:13","新北市瑞芳區傑魚坑路309號","121.786346666667","25.1046216666667","6501200","瑞芳區"
"224008","275-VK","2017/08/04 16:48:58","新北市瑞芳區逢甲路17號","121.809413333333","25.1084033333333","6501200","瑞芳區"
"224007","273-VK","2017/08/04 16:49:16","新北市瑞芳區中央路48巷164號","121.759168333333","25.1033883333333","6501200","瑞芳區"
"224005","271-BY","2017/08/04 16:49:11","新北市瑞芳區明里路122號","121.864365","25.122345","6501200","瑞芳區"
"227003","642-TC","2017/08/04 16:49:14","新北市雙溪區外柑里外柑腳71號","121.807091666667","25.0175783333333","6502500","雙溪區"
"227011","400-TW","2017/08/04 16:49:05","新北市雙溪區牡丹里聖南1-1號","121.860925","25.0501033333333","6502500","雙溪區"
"251013","180-VK","2017/08/04 16:49:06","新北市淡水區泉洲厝32號","121.489258333333","25.19256","6501000","淡水區"
"251008","181-VK","2017/08/04 16:49:18","新北市淡水區樹梅坑9號","121.472716666667","25.1426816666667","6501000","淡水區"
"251015","182-VK","2017/08/04 16:49:03","新北市淡水區忠愛街6號","121.460723333333","25.1715583333333","6501000","淡水區"
"251010","413-VK","2017/08/04 16:49:06","新北市淡水區中正路二段30號","121.419708333333","25.1821433333333","6501000","淡水區"
"251007","577-R6","2017/08/04 16:49:04","新北市淡水區中正路二段31號","121.419161666667","25.18168","6501000","淡水區"
"251011","650-BX","2017/08/04 16:49:10","新北市淡水區中正路二段31號","121.419296666667","25.1816316666667","6501000","淡水區"
"252002","178-VK","2017/08/04 16:49:09","新北市三芝區忠孝街133-1號","121.5064","25.25948","6502100","三芝區"
"252001","292-VK","2017/08/04 16:49:15","新北市三芝區茂長里陳厝坑2-1號","121.507843333333","25.2663766666667","6502100","三芝區"
"242021","AAC-296","2017/08/04 16:49:08","新北市新莊區新泰路357巷3弄57號","121.442115","25.0394666666667","6500500","新莊區"
"242027","612-BX","2017/08/04 14:11:54","新北市新莊區新泰路255巷83號","121.442186666667","25.0391233333333","6500500","新莊區"
"242032","415-TV","2017/08/04 16:49:00","新北市新莊區新泰路321巷39號","121.442975","25.0409833333333","6500500","新莊區"
"242039","400-BY","2017/08/04 16:49:12","新北市新莊區新泰路357巷3弄57號","121.442335","25.0396566666667","6500500","新莊區"
"242044","172-VK","2017/08/04 14:38:34","新北市新莊區三和路12-21號","121.442261666667","25.0385816666667","6500500","新莊區"
"242007","173-VK","2017/08/04 14:24:11","新北市新莊區新泰路255巷83號","121.44213","25.0388866666667","6500500","新莊區"
"242011","346-TH","2017/08/04 14:42:28","新北市新莊區三和路12-18號","121.442115","25.0376433333333","6500500","新莊區"
"242017","348-TH","2017/08/04 16:49:01","新北市新莊區新泰路357巷3弄57號","121.441958333333","25.0396466666667","6500500","新莊區"
"238018","571-TV","2017/08/04 16:49:11","新北市樹林區育德街78-1號","121.387295","24.9681183333333","6500700","樹林區"
"239007","AAC-297","2017/08/04 16:48:59","新北市鶯歌區二甲路13-16號","121.344946666667","24.9353816666667","6500800","鶯歌區"
"239008","527-UM","2017/08/04 16:49:16","新北市鶯歌區二甲路13-16號","121.345065","24.93551","6500800","鶯歌區"
"239002","359-BY","2017/08/03 20:32:36","新北市鶯歌區二甲路13號","121.34387","24.9354983333333","6500800","鶯歌區"
"221027","281-BY","2017/08/04 15:56:58","新北市汐止區汐萬路一段256巷1號","121.651733333333","25.0749","6501100","汐止區"
"220039","288-VK","2017/08/04 16:46:16","新北市板橋區民生路二段161巷9號","121.470261666667","25.0196583333333","6500100","板橋區"
"220012","486-VK","2017/08/04 15:37:28","新北市板橋區民生路二段36-1號","121.472621666667","25.01653","6500100","板橋區"
