"lineid","car","time","location","longitude","latitude","cityid","cityname"
"249005","172-UM","2017/08/04 17:18:57","新北市八里區荖阡坑路50-1號","121.412265","25.122555","6502300","八里區"
"249001","173-UM","2017/08/04 17:19:16","新北市八里區中華路二段165巷2-1號","121.407616666667","25.1508533333333","6502300","八里區"
"249004","303-UY","2017/08/04 17:19:12","新北市八里區文化街78號","121.421686666667","25.1600683333333","6502300","八里區"
"249002","305-UY","2017/08/04 17:19:07","新北市八里區龍米路二段117巷39-1號","121.443276666667","25.1418916666667","6502300","八里區"
"249003","593-UM","2017/08/04 17:19:11","新北市八里區商港路82號","121.395563333333","25.146495","6502300","八里區"
"244007","080-UY","2017/08/04 17:19:15","新北市林口區菁埔26-68號","121.376565","25.095395","6501700","林口區"
"244019","403-UM","2017/08/04 17:19:17","新北市林口區公園路233-3號","121.375665","25.075365","6501700","林口區"
"244023","483-VK","2017/08/04 17:19:02","新北市林口區仁愛路一段338號","121.390855","25.0764733333333","6501700","林口區"
"244017","485-VK","2017/08/04 17:19:12","新北市林口區粉寮69號","121.405","25.0908383333333","6501700","林口區"
"244021","838-TS","2017/08/04 17:19:02","新北市林口區粉寮路二段598-1號","121.403515","25.0999166666667","6501700","林口區"
"241011","013-R5","2017/08/04 17:19:05","新北市三重區龍濱路191號","121.50189","25.0713133333333","6500200","三重區"
"241028","022-UY","2017/08/04 17:19:08","新北市三重區仁化街56號","121.493796666667","25.0591283333333","6500200","三重區"
"241008","059-VK","2017/08/04 17:19:15","新北市三重區下竹圍街17號","121.48104","25.0757766666667","6500200","三重區"
"241005","060-VK","2017/08/04 17:19:01","新北市三重區仁華街28巷7號","121.483288333333","25.082565","6500200","三重區"
"241015","062-VK","2017/08/04 17:19:14","新北市三重區福德北路82-1號","121.50178","25.0662266666667","6500200","三重區"
"241017","063-VK","2017/08/04 17:19:06","新北市三重區大同北路52號","121.495188333333","25.0631066666667","6500200","三重區"
"241024","065-VK","2017/08/04 17:19:01","新北市三重區中正北路193巷21弄18號","121.477388333333","25.0706916666667","6500200","三重區"
"241026","066-VK","2017/08/04 17:19:13","新北市三重區文化南路31-1號","121.500071666667","25.0617316666667","6500200","三重區"
"241002","090-VK","2017/08/04 17:19:07","新北市三重區自強路五段25號","121.49327","25.0808316666667","6500200","三重區"
"241003","091-VK","2017/08/04 17:19:08","新北市三重區富福街48號","121.49161","25.08428","6500200","三重區"
"241032","156-TC","2017/08/04 17:19:19","新北市三重區名源街22號","121.481926666667","25.0603666666667","6500200","三重區"
"241009","265-UM","2017/08/04 17:19:09","新北市三重區慈愛街45號","121.48582","25.0790216666667","6500200","三重區"
"241016","266-UM","2017/08/04 17:18:35","新北市三重區大同北路54巷1號","121.494171666667","25.06354","6500200","三重區"
"241022","267-UM","2017/08/04 17:19:02","新北市三重區重陽路二段34巷4號","121.486671666667","25.0631266666667","6500200","三重區"
"241018","268-UM","2017/08/04 17:19:14","新北市三重區安慶街141號","121.494505","25.0689033333333","6500200","三重區"
"241013","270-UM","2017/08/04 17:19:02","新北市三重區三和路三段107巷6號","121.494491666667","25.0730016666667","6500200","三重區"
"241025","271-UM","2017/08/04 17:19:05","新北市三重區中正北路293號","121.47463","25.0711966666667","6500200","三重區"
"241007","398-BY","2017/08/04 17:18:55","新北市三重區慈愛街8號","121.484463333333","25.0783766666667","6500200","三重區"
"241020","412-TH","2017/08/04 17:19:09","新北市三重區忠孝路一段101號","121.489533333333","25.0721983333333","6500200","三重區"
"241004","475-VK","2017/08/04 17:19:14","新北市三重區五華街98巷25-1號","121.491423333333","25.08188","6500200","三重區"
"241019","478-VK","2017/08/04 17:19:15","新北市三重區忠孝路二段1號","121.487116666667","25.0715233333333","6500200","三重區"
"241030","480-VK","2017/08/04 17:19:09","新北市三重區成功路73巷21號","121.489683333333","25.0522966666667","6500200","三重區"
"241014","543-UM","2017/08/04 17:19:17","新北市三重區長榮路6號","121.500115","25.06854","6500200","三重區"
"241023","545-UM","2017/08/04 17:19:00","新北市三重區三民街166號","121.482138333333","25.065575","6500200","三重區"
"241006","AAD-863","2017/08/04 17:19:08","新北市三重區三和路四段218巷23號","121.48519","25.076305","6500200","三重區"
"241012","941-UM","2017/08/04 17:19:13","新北市三重區公園街49號","121.498533333333","25.0748466666667","6500200","三重區"
"241029","942-UM","2017/08/04 17:18:58","新北市三重區大同北路61號","121.495121666667","25.0633716666667","6500200","三重區"
"241033","AAC-255","2017/08/04 17:19:04","新北市三重區中興北街148號","121.468978333333","25.056475","6500200","三重區"
"235064","005-UY","2017/08/04 17:19:03","新北市中和區員山路36巷16-3號","121.485","24.9912166666667","6500300","中和區"
"235022","151-BY","2017/08/04 15:03:57","新北市中和區員山路36巷16-2號","121.48517","24.9916533333333","6500300","中和區"
"235067","255-BX","2017/08/04 16:41:18","新北市中和區員山路36巷13號","121.484321666667","24.9913","6500300","中和區"
"235061","378-QA","2017/08/04 14:47:01","新北市中和區員山路36巷13號","121.484355","24.9912433333333","6500300","中和區"
"235026","800-TS","2017/08/04 17:19:03","新北市中和區員山路36巷16-3號","121.485013333333","24.9914716666667","6500300","中和區"
"247020","893-R6","2017/08/04 17:19:13","新北市蘆洲區民族路343號","121.472721666667","25.09183","6501400","蘆洲區"
"247010","546-UM","2017/08/04 17:19:10","新北市蘆洲區中山一路122巷23號","121.47671","25.082205","6501400","蘆洲區"
"247018","500-BY","2017/08/04 17:19:11","新北市蘆洲區民權路82巷1弄2號","121.474778333333","25.0878916666667","6501400","蘆洲區"
"247006","341-TH","2017/08/04 17:19:15","新北市蘆洲區永安南路二段156號","121.46176","25.0790983333333","6501400","蘆洲區"
"247008","339-TH","2017/08/04 17:19:00","新北市蘆洲區永安北路一段72巷27號","121.476311666667","25.0769383333333","6501400","蘆洲區"
"247024","337-TH","2017/08/04 17:18:59","新北市蘆洲區長榮路466號","121.459468333333","25.08904","6501400","蘆洲區"
"247002","336-TH","2017/08/04 17:19:00","新北市蘆洲區永樂街38巷45弄19號","121.457401666667","25.0899916666667","6501400","蘆洲區"
"247014","057-VK","2017/08/04 17:19:01","新北市蘆洲區忠孝路20號","121.470683333333","25.0842816666667","6501400","蘆洲區"
"247004","056-VK","2017/08/04 17:19:16","新北市蘆洲區中原路34號","121.459891666667","25.0827366666667","6501400","蘆洲區"
"247012","007-UY","2017/08/04 17:19:00","新北市蘆洲區信義路244號","121.478551666667","25.0861516666667","6501400","蘆洲區"
"247022","002-UY","2017/08/04 17:19:12","新北市蘆洲區三民路128巷88號","121.469808333333","25.09","6501400","蘆洲區"
"247016","001-UY","2017/08/04 17:19:09","新北市蘆洲區中正路185巷26號","121.468006666667","25.0851633333333","6501400","蘆洲區"
"223005","677-TV","2017/08/04 17:18:59","新北市石碇區靜安路一段1號","121.641628333333","25.0111966666667","6501900","石碇區"
"228002","663-BX","2017/08/04 17:19:07","新北市貢寮區雙玉里下雙溪街26號","121.92399","25.0101733333333","6502600","貢寮區"
"228001","670-TC","2017/08/04 17:19:02","新北市貢寮區仁理村尖山腳街18-3號","121.925453333333","25.048345","6502600","貢寮區"
"228003","828-UM","2017/08/04 17:19:04","新北市貢寮區貢寮里朝陽街1-2號","121.912341666667","25.0212766666667","6502600","貢寮區"
"224010","AGQ-8101","2017/08/04 08:54:23","新北市瑞芳區逢甲路17號","121.809445","25.1083416666667","6501200","瑞芳區"
"224006","676-BX","2017/08/04 17:19:17","新北市瑞芳區大寮路55號","121.781771666667","25.098075","6501200","瑞芳區"
"224009","285-BY","2017/08/04 17:19:13","新北市瑞芳區汽車路145號","121.838575","25.1098416666667","6501200","瑞芳區"
"224008","275-VK","2017/08/04 17:18:58","新北市瑞芳區九芎橋路14號","121.832003333333","25.0911183333333","6501200","瑞芳區"
"224005","271-BY","2017/08/04 17:19:11","新北市瑞芳區南雅路1號","121.895261666667","25.1200333333333","6501200","瑞芳區"
"227003","642-TC","2017/08/04 17:19:14","新北市雙溪區上林里內平林90號","121.827595","25.0274633333333","6502500","雙溪區"
"227011","400-TW","2017/08/04 17:19:11","新北市雙溪區牡丹里牡丹102號","121.849896666667","25.0596216666667","6502500","雙溪區"
"251004","009-UM","2017/08/04 17:18:59","新北市淡水區中正東路二段88巷15號","121.45907","25.1504566666667","6501000","淡水區"
"251005","010-UM","2017/08/04 17:19:09","新北市淡水區鄧公路19-1號","121.450286666667","25.1699316666667","6501000","淡水區"
"251002","012-UM","2017/08/04 17:19:05","新北市淡水區中正路二段31號","121.419093333333","25.1818833333333","6501000","淡水區"
"251013","180-VK","2017/08/04 17:19:06","新北市淡水區演戲埔腳9-1號","121.472861666667","25.1963166666667","6501000","淡水區"
"251008","181-VK","2017/08/04 17:18:57","新北市淡水區大同路293號","121.467626666667","25.1422683333333","6501000","淡水區"
"251015","182-VK","2017/08/04 17:19:03","新北市淡水區樹林口8號","121.479443333333","25.1679283333333","6501000","淡水區"
"251010","413-VK","2017/08/04 17:19:06","新北市淡水區中正路二段208號","121.426253333333","25.1891433333333","6501000","淡水區"
"251012","441-VK","2017/08/04 17:19:09","新北市淡水區中山北路一段156號","121.444176666667","25.1779016666667","6501000","淡水區"
"251006","561-UM","2017/08/04 17:19:00","新北市淡水區新生街53號","121.440563333333","25.17479","6501000","淡水區"
"251009","575-R6","2017/08/04 17:19:10","新北市淡水區三民街17號","121.43895","25.1718283333333","6501000","淡水區"
"251007","577-R6","2017/08/04 17:19:04","新北市淡水區民生路47-4號","121.462071666667","25.1380333333333","6501000","淡水區"
"251011","650-BX","2017/08/04 17:19:10","新北市淡水區坪頂路128號","121.464966666667","25.16128","6501000","淡水區"
"251003","673-BX","2017/08/04 17:19:03","新北市淡水區中正路二段16號","121.420198333333","25.1809083333333","6501000","淡水區"
"207003","550-UM","2017/08/04 17:19:17","新北市萬里區萬里里瑪鋉路340號","121.688083333333","25.182555","6502800","萬里區"
"252002","178-VK","2017/08/04 17:19:09","新北市三芝區忠孝街1-14號","121.505508333333","25.253945","6502100","三芝區"
"252001","292-VK","2017/08/04 17:19:15","新北市三芝區淡金路一段3號","121.49814","25.2596366666667","6502100","三芝區"
"242021","AAC-296","2017/08/04 17:19:08","新北市新莊區中港路307號","121.452743333333","25.0447083333333","6500500","新莊區"
"242029","986-R7","2017/08/04 17:19:10","新北市新莊區幸福路914號","121.4424","25.04896","6500500","新莊區"
"242048","751-BX","2017/08/04 17:19:17","新北市新莊區中正路692-8號","121.41993","25.0281933333333","6500500","新莊區"
"242025","615-BX","2017/08/04 17:19:09","新北市新莊區中平路82巷29號","121.446218333333","25.0450116666667","6500500","新莊區"
"242023","613-BX","2017/08/04 17:19:10","新北市新莊區新泰路500號","121.442538333333","25.0459483333333","6500500","新莊區"
"242027","612-BX","2017/08/04 17:19:06","新北市新莊區中和街18號","121.448455","25.043405","6500500","新莊區"
"242037","566-BX","2017/08/04 17:19:05","新北市新莊區新樹路61號","121.440018333333","25.03181","6500500","新莊區"
"242005","442-UM","2017/08/04 17:19:02","新北市新莊區中平路82巷9號","121.445468333333","25.0450016666667","6500500","新莊區"
"242046","441-UM","2017/08/04 17:19:15","新北市新莊區新樹路67巷32號","121.440266666667","25.0302816666667","6500500","新莊區"
"242050","440-UM","2017/08/04 17:19:04","新北市新莊區瓊林南路23號","121.437105","25.0197866666667","6500500","新莊區"
"242032","415-TV","2017/08/04 17:19:00","新北市新莊區新泰路476巷12號","121.44348","25.0453566666667","6500500","新莊區"
"242002","413-TV","2017/08/04 17:19:12","新北市新莊區瓊林路59-17號","121.442231666667","25.0246516666667","6500500","新莊區"
"242039","400-BY","2017/08/04 17:19:12","新北市新莊區新樹路13號","121.440703333333","25.033025","6500500","新莊區"
"242060","362-BY","2017/08/04 17:19:01","新北市新莊區新泰路357巷3弄45號","121.441916666667","25.0402166666667","6500500","新莊區"
"242058","353-BY","2017/08/04 17:19:10","新北市泰山區磚雅厝3號","121.442023333333","25.0417316666667","6500500","新莊區"
"242041","132-UY","2017/08/04 17:19:07","新北市新莊區新樹路65-4號","121.439578333333","25.03115","6500500","新莊區"
"242034","133-UY","2017/08/04 17:19:06","新北市新莊區瓊林路19號","121.445648333333","25.0287","6500500","新莊區"
"242019","135-UY","2017/08/04 17:19:10","新北市新莊區中港路303號","121.452775","25.0445366666667","6500500","新莊區"
"242044","172-VK","2017/08/04 17:19:13","新北市新莊區富國路100號","121.42139","25.0254733333333","6500500","新莊區"
"242007","173-VK","2017/08/04 14:24:11","新北市新莊區新泰路255巷83號","121.44213","25.0388866666667","6500500","新莊區"
"242013","175-VK","2017/08/04 17:19:14","新北市泰山區磚雅厝6號","121.442315","25.04239","6500500","新莊區"
"242056","176-VK","2017/08/04 17:18:57","新北市新莊區新莊路763巷2號","121.442386666667","25.0324833333333","6500500","新莊區"
"242011","346-TH","2017/08/04 14:42:28","新北市新莊區三和路12-18號","121.442115","25.0376433333333","6500500","新莊區"
"242017","348-TH","2017/08/04 17:19:01","新北市新莊區中華路一段103號","121.452793333333","25.0439083333333","6500500","新莊區"
"242054","349-TH","2017/08/04 17:19:09","新北市新莊區瓊林路59-89號","121.442215","25.0244283333333","6500500","新莊區"
"242015","350-TH","2017/08/04 17:19:14","新北市新莊區公園一路111號","121.444968333333","25.0380683333333","6500500","新莊區"
"242009","351-TH","2017/08/04 17:19:09","新北市新莊區中平路441號","121.44316","25.055735","6500500","新莊區"
"238015","755-BX","2017/08/04 17:19:10","新北市樹林區中洲街2-2號","121.397433333333","24.9730366666667","6500700","樹林區"
"238023","601-UM","2017/08/04 17:19:06","新北市樹林區東佳路8號","121.401605","24.9763233333333","6500700","樹林區"
"238019","599-UM","2017/08/04 17:19:03","新北市樹林區八德街435-1號","121.406081666667","24.97001","6500700","樹林區"
"238018","571-TV","2017/08/04 17:19:11","新北市樹林區水源街80號","121.425795","24.9805666666667","6500700","樹林區"
"238024","5061-A6","2017/08/04 17:19:12","新北市樹林區博愛一街29巷68號","121.425875","24.99156","6500700","樹林區"
"238022","312-TH","2017/08/04 17:19:14","新北市樹林區忠孝街33號","121.423751666667","24.9821733333333","6500700","樹林區"
"238021","311-TH","2017/08/04 17:19:06","新北市樹林區西圳街165巷20弄26號","121.395485","24.9601233333333","6500700","樹林區"
"238025","303-VK","2017/08/04 17:19:07","新北市樹林區東佳路8-2號","121.402591666667","24.9775483333333","6500700","樹林區"
"238017","283-BY","2017/08/04 17:18:59","新北市樹林區中山路三段125-10號","121.397398333333","24.973305","6500700","樹林區"
"238014","282-BY","2017/08/04 17:18:59","新北市樹林區福德街3號","121.401686666667","24.9757333333333","6500700","樹林區"
"238020","268-VK","2017/08/04 17:19:08","新北市樹林區中山路二段209號","121.403053333333","24.97822","6500700","樹林區"
"238026","172-UY","2017/08/04 17:19:16","新北市樹林區東大街115-1號","121.409135","24.97559","6500700","樹林區"
"238016","169-UY","2017/08/04 17:19:06","新北市樹林區中山路二段209號","121.403768333333","24.977035","6500700","樹林區"
"239007","AAC-297","2017/08/04 17:18:59","新北市鶯歌區國慶街115巷17號","121.35107","24.954385","6500800","鶯歌區"
"239006","891-R6","2017/08/04 17:19:10","新北市鶯歌區福昌街21號","121.33293","24.9608983333333","6500800","鶯歌區"
"239008","527-UM","2017/08/04 17:19:16","新北市鶯歌區西湖街曾厝巷31號","121.339106666667","24.96162","6500800","鶯歌區"
"239005","526-UM","2017/08/04 17:19:04","新北市鶯歌區鶯桃路561號","121.330086666667","24.968235","6500800","鶯歌區"
"239001","417-VK","2017/08/04 17:19:02","新北市鶯歌區尖山路234號","121.343001666667","24.946735","6500800","鶯歌區"
"239003","360-BY","2017/08/04 17:19:19","新北市鶯歌區德昌街84號","121.332621666667","24.960105","6500800","鶯歌區"
"239002","359-BY","2017/08/04 17:19:05","新北市鶯歌區建國路154號","121.350868333333","24.9538183333333","6500800","鶯歌區"
"239004","193-VK","2017/08/04 17:19:07","新北市鶯歌區文化路501-16號","121.353646666667","24.9486483333333","6500800","鶯歌區"
"221027","281-BY","2017/08/04 15:56:58","新北市汐止區汐萬路一段256巷1號","121.651733333333","25.0749","6501100","汐止區"
"220039","288-VK","2017/08/04 16:46:16","新北市板橋區民生路二段161巷9號","121.470261666667","25.0196583333333","6500100","板橋區"
"220012","486-VK","2017/08/04 15:37:28","新北市板橋區民生路二段36-1號","121.472621666667","25.01653","6500100","板橋區"
