"lineid","car","time","location","longitude","latitude","cityid","cityname"
"249005","172-UM","2017/08/04 17:29:17","新北市八里區荖阡坑路28-1號","121.404","25.13061","6502300","八里區"
"249001","173-UM","2017/08/04 17:29:16","新北市八里區中華路一段3號","121.423055","25.1585466666667","6502300","八里區"
"249004","303-UY","2017/08/04 17:29:12","新北市八里區賢一街242號","121.414825","25.1554216666667","6502300","八里區"
"249002","305-UY","2017/08/04 17:27:47","新北市八里區龍米路一段263-2號","121.449673333333","25.13693","6502300","八里區"
"249003","593-UM","2017/08/04 17:29:11","新北市八里區中山路二段325號","121.400533333333","25.1477133333333","6502300","八里區"
"244013","069-UM","2017/08/04 17:29:03","新北市林口區粉寮69號","121.405051666667","25.0908016666667","6501700","林口區"
"244007","080-UY","2017/08/04 17:29:15","新北市林口區湖子19-9號","121.386968333333","25.0930133333333","6501700","林口區"
"244019","403-UM","2017/08/04 17:29:00","新北市林口區公園路203號","121.372508333333","25.0726766666667","6501700","林口區"
"244009","410-SL","2017/08/04 17:29:16","新北市林口區文化北路二段550巷20弄37號","121.378008333333","25.0913466666667","6501700","林口區"
"244023","483-VK","2017/08/04 17:29:02","新北市林口區育林街11巷1-1號","121.385513333333","25.075545","6501700","林口區"
"244017","485-VK","2017/08/04 17:29:12","新北市林口區粉寮路二段66-1號","121.403975","25.087655","6501700","林口區"
"244011","701-TV","2017/08/04 17:29:01","新北市林口區仁愛路一段386巷6號","121.387973333333","25.0772016666667","6501700","林口區"
"244021","838-TS","2017/08/04 17:29:02","新北市林口區粉寮路一段137號","121.399041666667","25.0811916666667","6501700","林口區"
"241011","013-R5","2017/08/04 17:29:05","新北市三重區河邊北街124巷7號","121.50341","25.071435","6500200","三重區"
"241008","059-VK","2017/08/04 17:29:15","新北市三重區車路頭街135-1號","121.484265","25.0759383333333","6500200","三重區"
"241005","060-VK","2017/08/04 17:29:01","新北市三重區仁華街2號","121.483218333333","25.081155","6500200","三重區"
"241015","062-VK","2017/08/04 17:29:14","新北市三重區長元街65巷22弄20號","121.503595","25.0659233333333","6500200","三重區"
"241017","063-VK","2017/08/04 17:29:06","新北市三重區重新路三段45-6號","121.493446666667","25.0618766666667","6500200","三重區"
"241024","065-VK","2017/08/04 17:29:01","新北市三重區大勇街82巷15弄5號","121.479941666667","25.071825","6500200","三重區"
"241026","066-VK","2017/08/04 17:29:13","新北市三重區文化南路42號","121.500393333333","25.06022","6500200","三重區"
"241002","090-VK","2017/08/04 17:29:07","新北市三重區集賢路87-1號","121.49366","25.0868483333333","6500200","三重區"
"241003","091-VK","2017/08/04 17:29:08","新北市三重區五華街141巷58號","121.493443333333","25.0866033333333","6500200","三重區"
"241032","156-TC","2017/08/04 17:28:59","新北市三重區三陽路25號","121.4856","25.0587783333333","6500200","三重區"
"241009","265-UM","2017/08/04 17:29:09","新北市三重區永福街269號","121.48172","25.0742333333333","6500200","三重區"
"241016","266-UM","2017/08/04 17:29:12","新北市三重區信義西街51號","121.49511","25.06372","6500200","三重區"
"241018","268-UM","2017/08/04 17:29:14","新北市三重區中正北路25巷14號","121.4935","25.0628633333333","6500200","三重區"
"241013","270-UM","2017/08/04 17:29:02","新北市三重區仁愛街141巷5號","121.495573333333","25.0754066666667","6500200","三重區"
"241025","271-UM","2017/08/04 17:29:05","新北市三重區中正北路378號","121.476683333333","25.0697266666667","6500200","三重區"
"241007","398-BY","2017/08/04 17:29:15","新北市三重區溪尾街148號","121.488908333333","25.0797916666667","6500200","三重區"
"241020","412-TH","2017/08/04 17:29:09","新北市三重區忠孝路二段34號","121.485996666667","25.0709716666667","6500200","三重區"
"241004","475-VK","2017/08/04 17:29:14","新北市三重區五華街98巷25-1號","121.491395","25.0818383333333","6500200","三重區"
"241019","478-VK","2017/08/04 17:29:16","新北市三重區自強路二段24號","121.48961","25.0692433333333","6500200","三重區"
"241030","480-VK","2017/08/04 17:29:09","新北市三重區中正南路261-2號","121.49293","25.0532516666667","6500200","三重區"
"241014","543-UM","2017/08/04 17:29:06","新北市三重區長壽街50號","121.500606666667","25.068245","6500200","三重區"
"241023","545-UM","2017/08/04 17:29:00","新北市三重區忠孝路三段84巷26號","121.481341666667","25.0642466666667","6500200","三重區"
"241012","941-UM","2017/08/04 17:29:14","新北市三重區河邊北街276號","121.501335","25.0766666666667","6500200","三重區"
"241033","AAC-255","2017/08/04 17:29:04","新北市三重區興德路133號","121.470061666667","25.053035","6500200","三重區"
"235064","005-UY","2017/08/04 17:29:03","新北市中和區員山路36巷16-3號","121.485046666667","24.991295","6500300","中和區"
"235022","151-BY","2017/08/04 17:20:05","新北市中和區員山路36巷16-2號","121.485135","24.991785","6500300","中和區"
"235067","255-BX","2017/08/04 16:41:18","新北市中和區員山路36巷13號","121.484321666667","24.9913","6500300","中和區"
"235061","378-QA","2017/08/04 14:47:01","新北市中和區員山路36巷13號","121.484355","24.9912433333333","6500300","中和區"
"235062","800-TS","2017/08/04 17:24:07","新北市中和區員山路36巷16-3號","121.485115","24.991385","6500300","中和區"
"247020","893-R6","2017/08/04 17:29:13","新北市蘆洲區水湳街172號","121.470366666667","25.093715","6501400","蘆洲區"
"247010","546-UM","2017/08/04 17:29:10","新北市蘆洲區集賢路430號","121.479765","25.0810633333333","6501400","蘆洲區"
"247018","500-BY","2017/08/04 17:29:11","新北市蘆洲區水湳街55號","121.471866666667","25.0873266666667","6501400","蘆洲區"
"247006","341-TH","2017/08/04 17:29:14","新北市蘆洲區九芎街90巷11-1號","121.465023333333","25.0809216666667","6501400","蘆洲區"
"247008","339-TH","2017/08/04 17:28:59","新北市蘆洲區民生街50號","121.473885","25.07873","6501400","蘆洲區"
"247024","337-TH","2017/08/04 17:28:59","新北市蘆洲區長興路292號","121.460463333333","25.0894583333333","6501400","蘆洲區"
"247002","336-TH","2017/08/04 17:29:00","新北市蘆洲區永平街54號","121.457758333333","25.0915333333333","6501400","蘆洲區"
"247014","057-VK","2017/08/04 17:29:01","新北市蘆洲區鷺江街89巷28號","121.47602","25.0834133333333","6501400","蘆洲區"
"247004","056-VK","2017/08/04 17:28:57","新北市蘆洲區長安街249巷28號","121.458151666667","25.0827833333333","6501400","蘆洲區"
"247012","007-UY","2017/08/04 17:29:00","新北市蘆洲區民權路33號","121.476003333333","25.086485","6501400","蘆洲區"
"247022","002-UY","2017/08/04 17:29:16","新北市蘆洲區中正路314號","121.464645","25.0911866666667","6501400","蘆洲區"
"247016","001-UY","2017/08/04 17:29:09","新北市蘆洲區光華路98號","121.467488333333","25.0827516666667","6501400","蘆洲區"
"223005","677-TV","2017/08/04 17:21:37","新北市石碇區楓子林30號","121.642331666667","25.0096733333333","6501900","石碇區"
"228002","663-BX","2017/08/04 17:29:07","新北市貢寮區福隆里興隆街36號","121.942015","25.016775","6502600","貢寮區"
"228001","670-TC","2017/08/04 17:29:02","新北市貢寮區仁理村仁愛路39號","121.92508","25.0533883333333","6502600","貢寮區"
"228003","828-UM","2017/08/04 17:29:04","新北市貢寮區仁理村研海街62-2號","121.925748333333","25.0444116666667","6502600","貢寮區"
"224010","AGQ-8101","2017/08/04 17:29:12","新北市瑞芳區逢甲路62-1號","121.81012","25.1089266666667","6501200","瑞芳區"
"224006","676-BX","2017/08/04 17:29:06","新北市瑞芳區傑魚坑路181-2號","121.788876666667","25.1086716666667","6501200","瑞芳區"
"224009","285-BY","2017/08/04 17:29:13","新北市瑞芳區汽車路9-7號","121.845125","25.109855","6501200","瑞芳區"
"224008","275-VK","2017/08/04 17:29:17","新北市瑞芳區九芎橋路81號","121.83395","25.0971166666667","6501200","瑞芳區"
"224005","271-BY","2017/08/04 17:29:11","新北市瑞芳區海濱路8-6號","121.831591666667","25.1261583333333","6501200","瑞芳區"
"227003","642-TC","2017/08/04 17:29:14","新北市雙溪區上林里新寮子1號","121.840145","25.0316683333333","6502500","雙溪區"
"251004","009-UM","2017/08/04 17:28:59","新北市淡水區中正東路二段88巷15號","121.459075","25.1503866666667","6501000","淡水區"
"251005","010-UM","2017/08/04 17:29:09","新北市淡水區鄧公路31巷2號","121.451255","25.1706983333333","6501000","淡水區"
"251002","012-UM","2017/08/04 17:29:05","新北市淡水區中正路368號","121.433826666667","25.1743366666667","6501000","淡水區"
"251013","180-VK","2017/08/04 17:29:06","新北市淡水區水尾子2-2號","121.46433","25.19511","6501000","淡水區"
"251008","181-VK","2017/08/04 17:28:57","新北市淡水區大同路124巷17號","121.46349","25.1397966666667","6501000","淡水區"
"251015","182-VK","2017/08/04 17:29:03","新北市淡水區三空泉16-10號","121.471791666667","25.164815","6501000","淡水區"
"251010","413-VK","2017/08/04 17:29:06","新北市淡水區中正路二段206號","121.42626","25.1891283333333","6501000","淡水區"
"251012","441-VK","2017/08/04 17:29:09","新北市淡水區北新路114號","121.4477","25.178285","6501000","淡水區"
"251001","559-UM","2017/08/04 17:29:12","新北市淡水區自強路201巷35號","121.462236666667","25.1267333333333","6501000","淡水區"
"251006","561-UM","2017/08/04 17:29:00","新北市淡水區中山北路一段8號","121.441801666667","25.1747483333333","6501000","淡水區"
"251009","575-R6","2017/08/04 17:29:10","新北市淡水區新生街90巷4號","121.439598333333","25.1744616666667","6501000","淡水區"
"251007","577-R6","2017/08/04 17:29:04","新北市淡水區民生路47-4號","121.462046666667","25.137995","6501000","淡水區"
"251011","650-BX","2017/08/04 17:29:10","新北市淡水區坪頂路712號","121.482531666667","25.1585383333333","6501000","淡水區"
"251003","673-BX","2017/08/04 17:29:03","新北市淡水區中山路158號","121.44079","25.1728833333333","6501000","淡水區"
"207003","550-UM","2017/08/04 17:28:57","新北市萬里區龜吼里美崙路96號","121.683745","25.185835","6502800","萬里區"
"207004","225-TW","2017/08/04 17:28:58","新北市萬里區萬里里景美路11-2號","121.68539","25.1730233333333","6502800","萬里區"
"252002","178-VK","2017/08/04 17:29:09","新北市三芝區忠孝街1-14號","121.505453333333","25.25395","6502100","三芝區"
"252001","292-VK","2017/08/04 17:29:15","新北市三芝區淡金路一段3號","121.498085","25.259635","6502100","三芝區"
"237011","572-TV","2017/08/04 12:42:00","新北市三峽區中山路459巷163-3號","121.349081666667","24.9332566666667","6500900","三峽區"
"242021","AAC-296","2017/08/04 17:29:08","新北市新莊區中正路134號","121.452721666667","25.03624","6500500","新莊區"
"242029","986-R7","2017/08/04 17:29:10","新北市新莊區幸福路4號","121.459415","25.0496266666667","6500500","新莊區"
"242048","751-BX","2017/08/04 17:29:17","新北市新莊區四維路210號","121.42142","25.0201066666667","6500500","新莊區"
"242025","615-BX","2017/08/04 17:29:09","新北市新莊區中港路266號","121.453253333333","25.04384","6500500","新莊區"
"242023","613-BX","2017/08/04 17:29:14","新北市新莊區公園路138號","121.452813333333","25.04006","6500500","新莊區"
"242027","612-BX","2017/08/04 17:29:07","新北市新莊區思源路55號","121.460186666667","25.0402533333333","6500500","新莊區"
"242037","566-BX","2017/08/04 17:29:05","新北市新莊區建國二路5-3號","121.434861666667","25.023685","6500500","新莊區"
"242005","442-UM","2017/08/04 17:29:04","新北市新莊區中港路280號","121.453086666667","25.0441583333333","6500500","新莊區"
"242046","441-UM","2017/08/04 17:29:15","新北市新莊區新樹路65-7號","121.43938","25.0307316666667","6500500","新莊區"
"242050","440-UM","2017/08/04 17:29:04","新北市新莊區瓊林南路73號","121.435233333333","25.0155216666667","6500500","新莊區"
"242032","415-TV","2017/08/04 17:29:00","新北市新莊區新泰路401巷4號","121.443233333333","25.0441016666667","6500500","新莊區"
"242002","413-TV","2017/08/04 17:29:12","新北市新莊區新莊路146號","121.455308333333","25.0355416666667","6500500","新莊區"
"242039","400-BY","2017/08/04 17:29:12","新北市新莊區民安路274號","121.427623333333","25.021495","6500500","新莊區"
"242060","362-BY","2017/08/04 17:29:01","新北市新莊區瓊林路198號","121.439061666667","25.020715","6500500","新莊區"
"242058","353-BY","2017/08/04 17:29:16","新北市新莊區中正路516-40號","121.432436666667","25.0320933333333","6500500","新莊區"
"242041","132-UY","2017/08/04 17:29:07","新北市新莊區新樹路115號","121.437375","25.026625","6500500","新莊區"
"242034","133-UY","2017/08/04 17:29:07","新北市新莊區新莊路400號","121.448668333333","25.033465","6500500","新莊區"
"242019","135-UY","2017/08/04 17:29:10","新北市新莊區中港路54號","121.455406666667","25.0385216666667","6500500","新莊區"
"242044","172-VK","2017/08/04 17:29:13","新北市新莊區富國路75號","121.42","25.0259433333333","6500500","新莊區"
"242007","173-VK","2017/08/04 17:28:43","新北市新莊區中華路二段48號","121.454016666667","25.0457416666667","6500500","新莊區"
"242013","175-VK","2017/08/04 17:29:14","新北市新莊區中誠街16巷2號","121.451986666667","25.0483066666667","6500500","新莊區"
"242056","176-VK","2017/08/04 17:29:16","新北市新莊區新泰路22號","121.449578333333","25.0337266666667","6500500","新莊區"
"242011","346-TH","2017/08/04 17:29:12","新北市新莊區中華路二段87號","121.452461666667","25.0491916666667","6500500","新莊區"
"242017","348-TH","2017/08/04 17:29:01","新北市新莊區中華路一段101號","121.452726666667","25.0438283333333","6500500","新莊區"
"242054","349-TH","2017/08/04 17:29:09","新北市新莊區瓊林南路305巷25號","121.435525","25.0050533333333","6500500","新莊區"
"242015","350-TH","2017/08/04 17:29:14","新北市新莊區新泰路193號","121.44722","25.0378716666667","6500500","新莊區"
"242009","351-TH","2017/08/04 17:29:09","新北市新莊區昌德街81號","121.455938333333","25.054805","6500500","新莊區"
"238015","755-BX","2017/08/04 17:29:10","新北市樹林區大安路303號","121.417973333333","24.9923666666667","6500700","樹林區"
"238023","601-UM","2017/08/04 17:29:06","新北市樹林區保安街二段35號","121.416343333333","24.9998666666667","6500700","樹林區"
"238019","599-UM","2017/08/04 17:29:03","新北市樹林區八德街89號","121.42014","24.98133","6500700","樹林區"
"238018","571-TV","2017/08/04 17:29:11","新北市樹林區樹中街59號","121.421193333333","24.9853866666667","6500700","樹林區"
"238024","5061-A6","2017/08/04 17:29:12","新北市樹林區樹新路51巷9號","121.426711666667","24.995115","6500700","樹林區"
"238022","312-TH","2017/08/04 17:29:18","新北市樹林區和平街43號","121.423215","24.9818883333333","6500700","樹林區"
"238021","311-TH","2017/08/04 17:20:46","新北市樹林區西圳街165巷20弄26號","121.395523333333","24.9601116666667","6500700","樹林區"
"238025","303-VK","2017/08/04 17:29:07","新北市樹林區保安二街123號","121.423231666667","24.9954483333333","6500700","樹林區"
"238017","283-BY","2017/08/04 17:28:59","新北市樹林區保安街一段220號","121.420608333333","24.996305","6500700","樹林區"
"238014","282-BY","2017/08/04 17:29:19","新北市樹林區啟智街2號","121.421065","24.99448","6500700","樹林區"
"238020","268-VK","2017/08/04 17:29:08","新北市樹林區千歲街107號","121.428728333333","25.0011683333333","6500700","樹林區"
"238026","172-UY","2017/08/04 17:28:56","新北市樹林區味王街14號","121.403083333333","24.9759933333333","6500700","樹林區"
"238016","169-UY","2017/08/04 17:28:06","新北市樹林區中山路一段276號","121.420803333333","24.9869933333333","6500700","樹林區"
"239007","AAC-297","2017/08/04 17:28:59","新北市鶯歌區國華路18號","121.342855","24.95613","6500800","鶯歌區"
"239006","891-R6","2017/08/04 17:29:10","新北市鶯歌區鳳鳴路45號","121.33343","24.9654583333333","6500800","鶯歌區"
"239008","527-UM","2017/08/04 17:29:16","新北市鶯歌區大湖路718號","121.33296","24.9763283333333","6500800","鶯歌區"
"239005","526-UM","2017/08/04 17:29:04","桃園市八德區桃鶯路122號","121.328311666667","24.9698416666667","6500800","鶯歌區"
"239001","417-VK","2017/08/04 17:29:02","新北市鶯歌區中正三路135號","121.337141666667","24.94044","6500800","鶯歌區"
"239003","360-BY","2017/08/04 17:29:19","新北市鶯歌區鶯桃路258號","121.335823333333","24.959685","6500800","鶯歌區"
"239002","359-BY","2017/08/04 17:29:05","新北市鶯歌區國慶街93號","121.350281666667","24.9546816666667","6500800","鶯歌區"
"239004","193-VK","2017/08/04 17:29:07","新北市鶯歌區三鶯路7號","121.356503333333","24.9411566666667","6500800","鶯歌區"
"221027","281-BY","2017/08/04 17:29:00","新北市汐止區康寧街901號","121.651725","25.074945","6501100","汐止區"
"221033","647-BX","2017/08/04 17:28:59","新北市汐止區康寧街901號","121.650903333333","25.0752133333333","6501100","汐止區"
"220039","288-VK","2017/08/04 16:46:16","新北市板橋區民生路二段161巷9號","121.470261666667","25.0196583333333","6500100","板橋區"
"220012","486-VK","2017/08/04 15:37:28","新北市板橋區民生路二段36-1號","121.472621666667","25.01653","6500100","板橋區"
