"lineid","car","time","location","longitude","latitude","cityid","cityname"
"234026","9371-KE","2017/08/04 17:59:16","新北市永和區永和路一段37巷2號","121.512813333333","25.006085","6500400","永和區"
"249005","172-UM","2017/08/04 17:58:57","新北市八里區荖阡坑路24-2號","121.400098333333","25.1352183333333","6502300","八里區"
"249001","173-UM","2017/08/04 17:59:16","新北市八里區龍米路二段30號","121.448678333333","25.140045","6502300","八里區"
"249004","303-UY","2017/08/04 17:59:12","新北市八里區中山路一段10號","121.423283333333","25.1589566666667","6502300","八里區"
"249002","305-UY","2017/08/04 17:59:07","新北市八里區龍米路一段259號","121.450651666667","25.1336733333333","6502300","八里區"
"249003","593-UM","2017/08/04 17:59:11","新北市八里區中山路二段66號","121.4087","25.1562516666667","6502300","八里區"
"248014","025-BX","2017/08/04 17:59:02","新北市五股區中興路二段163號","121.457666666667","25.077705","6501500","五股區"
"248006","077-UY","2017/08/04 17:59:03","新北市五股區中興路二段37巷28號","121.460251666667","25.0750666666667","6501500","五股區"
"248007","095-VK","2017/08/04 17:58:56","新北市五股區中興路二段150號","121.458616666667","25.0785616666667","6501500","五股區"
"248018","225-UY","2017/08/04 17:59:08","新北市五股區中興路二段83巷26-6號","121.45987","25.0752616666667","6501500","五股區"
"248004","677-BX","2017/08/03 20:34:32","新北市五股區中興路二段37巷28號","121.460148333333","25.0749983333333","6501500","五股區"
"248002","678-BX","2017/08/04 17:59:16","新北市五股區中興路二段37巷28號","121.460226666667","25.0748833333333","6501500","五股區"
"232011","375-UM","2017/08/04 17:59:01","新北市坪林區北宜路八段216號","121.708543333333","24.9347783333333","6502000","坪林區"
"244013","069-UM","2017/08/04 17:59:10","新北市林口區中山路185-1號","121.388131666667","25.0789433333333","6501700","林口區"
"244007","080-UY","2017/08/04 17:59:15","新北市林口區林口路78號","121.38928","25.0806566666667","6501700","林口區"
"244019","403-UM","2017/08/04 17:59:00","新北市林口區忠孝路554號","121.374075","25.0679133333333","6501700","林口區"
"244009","410-SL","2017/08/04 17:59:16","新北市林口區文化一路二段181號","121.383361666667","25.0815933333333","6501700","林口區"
"244023","483-VK","2017/08/04 17:59:02","新北市林口區東湖路41巷11號","121.38628","25.0732433333333","6501700","林口區"
"244017","485-VK","2017/08/04 17:59:12","新北市林口區文化二路一段230巷17號","121.370721666667","25.0722633333333","6501700","林口區"
"244011","701-TV","2017/08/04 17:59:01","新北市林口區中正路100號","121.39385","25.0772566666667","6501700","林口區"
"244025","837-TS","2017/08/04 17:59:10","新北市林口區文化三路一段39巷126號","121.359641666667","25.0682766666667","6501700","林口區"
"244021","838-TS","2017/08/04 17:59:02","新北市林口區仁愛路一段2-1號","121.397695","25.06736","6501700","林口區"
"222003","436-BY","2017/08/04 17:59:06","新北市深坑區炮子崙23號","121.607135","24.9908866666667","6501800","深坑區"
"222002","659-BX","2017/08/04 17:59:15","新北市深坑區文化街116號","121.61575","25.0018416666667","6501800","深坑區"
"222001","696-SL","2017/08/04 17:59:04","新北市深坑區文山路三段110號","121.608641666667","24.9994516666667","6501800","深坑區"
"231046","278-BY","2017/08/04 17:59:05","新北市新店區康雅崙路3號","121.539745","24.9255533333333","6500600","新店區"
"241024","065-VK","2017/08/04 17:59:01","新北市三重區後竹圍街205巷61號","121.484623333333","25.0731983333333","6500200","三重區"
"241032","156-TC","2017/08/04 17:58:59","新北市三重區重新路四段121號","121.484913333333","25.05198","6500200","三重區"
"241009","265-UM","2017/08/04 17:30:01","新北市三重區永福街170號","121.480886666667","25.074405","6500200","三重區"
"241016","266-UM","2017/08/04 17:59:15","新北市三重區大同北路91號","121.494653333333","25.0636733333333","6500200","三重區"
"241033","AAC-255","2017/08/04 17:59:04","新北市三重區重新路五段602號","121.46899","25.0450333333333","6500200","三重區"
"235064","005-UY","2017/08/04 17:59:03","新北市中和區員山路36巷16-3號","121.484966666667","24.991315","6500300","中和區"
"235063","006-UY","2017/08/04 17:59:18","新北市中和區員山路36巷16-3號","121.485041666667","24.9912733333333","6500300","中和區"
"235040","150-BY","2017/08/04 17:59:01","新北市中和區和城路一段271巷1號","121.485535","24.9918483333333","6500300","中和區"
"235058","151-BY","2017/08/04 17:58:58","新北市中和區中正路545巷1號","121.48741","24.9934916666667","6500300","中和區"
"235038","185-VK","2017/08/04 17:59:02","新北市中和區中正路517號","121.488003333333","24.99433","6500300","中和區"
"235067","255-BX","2017/08/04 17:59:05","新北市中和區和城路一段271巷1號","121.48546","24.9919116666667","6500300","中和區"
"235061","378-QA","2017/08/04 14:47:01","新北市中和區員山路36巷13號","121.484355","24.9912433333333","6500300","中和區"
"235069","4980-A6","2017/08/04 17:59:14","新北市中和區中正路637巷60弄61號","121.485593333333","24.993135","6500300","中和區"
"235062","800-TS","2017/08/04 17:59:10","新北市中和區員山路36巷16-3號","121.485096666667","24.991395","6500300","中和區"
"247020","893-R6","2017/08/04 17:59:13","新北市蘆洲區民權路121巷15弄2號","121.47136","25.089185","6501400","蘆洲區"
"247018","500-BY","2017/08/04 17:59:11","新北市蘆洲區復興路162號","121.477445","25.08815","6501400","蘆洲區"
"247006","341-TH","2017/08/04 17:59:14","新北市蘆洲區長榮路98號","121.462083333333","25.083975","6501400","蘆洲區"
"247024","337-TH","2017/08/04 17:58:59","新北市蘆洲區中原路6號","121.46145","25.0836083333333","6501400","蘆洲區"
"247002","336-TH","2017/08/04 17:59:00","新北市蘆洲區永平街32巷69弄15號","121.45941","25.0934633333333","6501400","蘆洲區"
"247022","002-UY","2017/08/04 17:59:16","新北市蘆洲區環堤大道365號","121.456065","25.097445","6501400","蘆洲區"
"223005","677-TV","2017/08/04 17:41:15","新北市石碇區小粗坑(潭邊里)9-2號","121.678606666667","24.9859966666667","6501900","石碇區"
"228002","663-BX","2017/08/04 17:59:07","新北市貢寮區福連里香蘭街2-1號","121.969133333333","25.0235266666667","6502600","貢寮區"
"228001","670-TC","2017/08/04 17:59:04","新北市貢寮區真理里新港街26巷53號","121.928008333333","25.0535583333333","6502600","貢寮區"
"228003","828-UM","2017/08/04 17:59:04","新北市貢寮區真理里美艷山街6-2號","121.92891","25.0607066666667","6502600","貢寮區"
"224006","676-BX","2017/08/04 17:58:57","新北市瑞芳區瑞興新村12巷1號","121.788415","25.1082916666667","6501200","瑞芳區"
"224002","639-TC","2017/08/04 17:59:14","新北市瑞芳區三爪子坑路133號","121.81035","25.106665","6501200","瑞芳區"
"224009","285-BY","2017/08/04 17:59:13","新北市瑞芳區山尖路191號","121.851643333333","25.1113616666667","6501200","瑞芳區"
"224008","275-VK","2017/08/04 17:58:57","新北市瑞芳區明燈路一段201巷105號","121.818961666667","25.1062633333333","6501200","瑞芳區"
"224005","271-BY","2017/08/04 17:58:52","新北市瑞芳區深澳路205號","121.819518333333","25.133215","6501200","瑞芳區"
"253006","032-BX","2017/08/04 17:59:13","新北市石門區大丘田45-3號","121.549511666667","25.2769833333333","6502200","石門區"
"253005","295-VK","2017/08/04 17:58:57","新北市石門區中山路62-11號","121.567573333333","25.289645","6502200","石門區"
"208002","742-BX","2017/08/04 17:59:13","新北市金山區三界壇路37號","121.627415","25.2279266666667","6502700","金山區"
"208003","665-BX","2017/08/04 17:59:12","新北市金山區磺港里磺港路192-1號","121.646105","25.2275733333333","6502700","金山區"
"208001","761-BX","2017/08/04 17:59:15","新北市金山區磺港里磺港路160號","121.644803333333","25.2257283333333","6502700","金山區"
"251004","009-UM","2017/08/04 17:58:59","新北市淡水區民權路189號","121.459766666667","25.1334266666667","6501000","淡水區"
"251005","010-UM","2017/08/04 17:59:09","新北市淡水區英專路125-6號","121.446155","25.1726716666667","6501000","淡水區"
"251002","012-UM","2017/08/04 17:59:11","新北市淡水區中正東路6號","121.447191666667","25.1672116666667","6501000","淡水區"
"251013","180-VK","2017/08/04 17:59:06","新北市淡水區泉洲厝31號","121.479635","25.191005","6501000","淡水區"
"251008","181-VK","2017/08/04 17:58:57","新北市淡水區八勢一街67號","121.461876666667","25.1552766666667","6501000","淡水區"
"251015","182-VK","2017/08/04 17:59:03","新北市淡水區興福寮88巷1號","121.48562","25.1650983333333","6501000","淡水區"
"251010","413-VK","2017/08/04 17:59:06","新北市淡水區淡海路46號","121.423166666667","25.1801266666667","6501000","淡水區"
"251012","441-VK","2017/08/04 17:59:09","新北市淡水區北新路三段21號","121.483548333333","25.18617","6501000","淡水區"
"251001","559-UM","2017/08/04 17:59:12","新北市淡水區民權路94巷1號","121.46319","25.1248833333333","6501000","淡水區"
"251006","561-UM","2017/08/04 17:59:00","新北市淡水區真理街2號","121.438861666667","25.1730916666667","6501000","淡水區"
"251009","575-R6","2017/08/04 17:59:10","新北市淡水區大智街27號","121.442358333333","25.1745616666667","6501000","淡水區"
"251011","650-BX","2017/08/04 17:59:10","新北市淡水區三空泉5-1號","121.477971666667","25.1620216666667","6501000","淡水區"
"251003","673-BX","2017/08/04 17:59:03","新北市淡水區大忠街79-6號","121.445846666667","25.177125","6501000","淡水區"
"207003","550-UM","2017/08/04 17:59:17","新北市萬里區港東路野柳風景區攤販68號","121.691305","25.20583","6502800","萬里區"
"207004","225-TW","2017/08/04 17:58:58","新北市萬里區中幅里中福路48號","121.683458333333","25.1741683333333","6502800","萬里區"
"252002","178-VK","2017/08/04 17:59:09","新北市三芝區中山路二段19號","121.502688333333","25.2554966666667","6502100","三芝區"
"252001","292-VK","2017/08/04 17:59:15","新北市三芝區中興街一段37號","121.497635","25.2578116666667","6502100","三芝區"
"237004","078-UY","2017/08/04 17:59:08","新北市三峽區中正路二段81號","121.36658","24.91818","6500900","三峽區"
"237007","153-BY","2017/08/04 17:59:09","新北市三峽區中正路二段46-1號","121.366811666667","24.9190483333333","6500900","三峽區"
"237009","210-TH","2017/08/04 17:59:03","新北市三峽區文化路201號","121.366458333333","24.935665","6500900","三峽區"
"237013","252-BX","2017/08/04 17:59:02","新北市三峽區介壽路一段109號","121.375886666667","24.9321416666667","6500900","三峽區"
"237012","275-BY","2017/08/04 17:59:15","新北市三峽區民生街27巷1號","121.376041666667","24.9362166666667","6500900","三峽區"
"237008","302-VK","2017/08/04 17:59:06","新北市三峽區正義街138號","121.36848","24.9164566666667","6500900","三峽區"
"237014","433-BY","2017/08/04 17:59:12","新北市三峽區復興路101巷1弄28號","121.371031666667","24.9377666666667","6500900","三峽區"
"237006","5529-G3","2017/08/04 17:59:03","新北市三峽區介壽路二段138巷1弄5-1號","121.396141666667","24.934205","6500900","三峽區"
"237011","572-TV","2017/08/04 17:55:47","新北市三峽區中正路一段45號","121.375613333333","24.9305216666667","6500900","三峽區"
"237015","649-BX","2017/08/04 17:59:00","新北市三峽區白雞91號","121.403545","24.90826","6500900","三峽區"
"237010","706-TV","2017/08/04 17:59:02","新北市三峽區民權街173號","121.367981666667","24.93008","6500900","三峽區"
"237005","AKY-6261","2017/08/04 17:59:14","新北市三峽區復興路237巷38號","121.369103333333","24.9378216666667","6500900","三峽區"
"236072","105-UM","2017/08/04 17:59:09","新北市土城區城林路6巷80號","121.438473333333","24.9797516666667","6501300","土城區"
"236043","107-UM","2017/08/04 17:59:10","新北市土城區中央路一段264-2號","121.443775","24.983735","6501300","土城區"
"236079","166-UM","2017/08/04 17:59:05","新北市土城區永寧路32巷4號","121.429143333333","24.96067","6501300","土城區"
"236031","253-BX","2017/08/04 17:59:00","新北市土城區城林路6巷80號","121.438521666667","24.97959","6501300","土城區"
"236027","269-VK","2017/08/04 17:59:11","新北市土城區承天路18號","121.439478333333","24.963405","6501300","土城區"
"236015","270-VK","2017/08/04 17:59:07","新北市土城區城林路6巷80號","121.438568333333","24.979505","6501300","土城區"
"236039","271-VK","2017/08/04 17:59:06","新北市土城區員福街34號","121.441116666667","24.978845","6501300","土城區"
"236022","401-BY","2017/08/04 17:59:12","新北市土城區城林路6巷80號","121.43848","24.979755","6501300","土城區"
"236059","912-UM","2017/08/04 17:58:55","新北市土城區中華路二段196號","121.437608333333","24.970215","6501300","土城區"
"236050","913-UM","2017/08/04 17:59:02","新北市土城區中華路二段2號","121.438833333333","24.9798416666667","6501300","土城區"
"236063","915-UM","2017/08/04 17:58:59","新北市土城區中央路二段280號","121.440833333333","24.974095","6501300","土城區"
"236055","AAC-216","2017/08/04 17:58:55","新北市土城區城林路6巷80號","121.438245","24.9798866666667","6501300","土城區"
"242021","AAC-296","2017/08/04 17:59:08","新北市新莊區中正路213號","121.451351666667","25.0359133333333","6500500","新莊區"
"242029","986-R7","2017/08/04 17:59:10","新北市新莊區中平路37號","121.444695","25.043945","6500500","新莊區"
"242048","751-BX","2017/08/04 17:58:57","新北市新莊區萬安街47巷9號","121.422351666667","25.0244683333333","6500500","新莊區"
"242025","615-BX","2017/08/04 17:59:09","新北市新莊區五工路80號","121.45749","25.0638683333333","6500500","新莊區"
"242023","613-BX","2017/08/04 17:59:09","新北市新莊區福壽街61號","121.45821","25.0491733333333","6500500","新莊區"
"242027","612-BX","2017/08/04 17:59:06","新北市新莊區思源路336號","121.459995","25.0509883333333","6500500","新莊區"
"242037","566-BX","2017/08/04 17:59:05","新北市新莊區建福路46號","121.426613333333","25.027715","6500500","新莊區"
"242005","442-UM","2017/08/04 17:59:06","新北市新莊區福樂街71巷25號","121.456863333333","25.047075","6500500","新莊區"
"242046","441-UM","2017/08/04 17:59:15","新北市新莊區福營路191號","121.431255","25.0307116666667","6500500","新莊區"
"242050","440-UM","2017/08/04 17:59:04","新北市新莊區龍安路535號","121.427945","25.017565","6500500","新莊區"
"242032","415-TV","2017/08/04 17:59:00","新北市新莊區新泰路300號","121.445418333333","25.040995","6500500","新莊區"
"242002","413-TV","2017/08/04 17:59:12","新北市新莊區中正路145-20號","121.458138333333","25.0375233333333","6500500","新莊區"
"242039","400-BY","2017/08/04 17:59:11","新北市新莊區民安西路24巷15號","121.426348333333","25.020885","6500500","新莊區"
"242060","362-BY","2017/08/04 17:59:07","新北市新莊區新樹路266-1號","121.432638333333","25.0140683333333","6500500","新莊區"
"242058","353-BY","2017/08/04 17:59:16","新北市新莊區天祥街120巷3弄9號","121.413833333333","25.0303666666667","6500500","新莊區"
"242041","132-UY","2017/08/04 17:59:07","新北市新莊區明志路19號","121.420051666667","25.0291866666667","6500500","新莊區"
"242034","133-UY","2017/08/04 17:59:06","新北市新莊區福海街22號","121.445301666667","25.0340066666667","6500500","新莊區"
"242019","135-UY","2017/08/04 17:59:10","新北市新莊區明中街47巷15號","121.456945","25.0386716666667","6500500","新莊區"
"242044","172-VK","2017/08/04 17:59:15","新北市新莊區雙鳳路119號","121.413465","25.0279983333333","6500500","新莊區"
"242007","173-VK","2017/08/04 17:59:03","新北市新莊區自信街61號","121.455245","25.0483483333333","6500500","新莊區"
"242013","175-VK","2017/08/04 17:59:14","新北市新莊區中和街123號","121.447361666667","25.0485566666667","6500500","新莊區"
"242056","176-VK","2017/08/04 17:59:18","新北市新莊區豐年街124巷10號","121.445781666667","25.0298266666667","6500500","新莊區"
"242011","346-TH","2017/08/04 17:59:12","新北市新莊區中港路中慶巷37號","121.449276666667","25.0537066666667","6500500","新莊區"
"242017","348-TH","2017/08/04 17:59:01","新北市新莊區中港路339巷2號","121.451958333333","25.0454233333333","6500500","新莊區"
"242054","349-TH","2017/08/04 17:59:09","新北市新莊區民安西路412-2號","121.429113333333","25.00992","6500500","新莊區"
"242015","350-TH","2017/08/04 17:59:14","新北市新莊區中平路127號","121.444611666667","25.0468766666667","6500500","新莊區"
"242009","351-TH","2017/08/04 17:59:09","新北市新莊區昌平街59巷11弄23號","121.453916666667","25.0525866666667","6500500","新莊區"
"238015","755-BX","2017/08/04 17:59:10","新北市樹林區樹德街113號","121.419338333333","24.9921633333333","6500700","樹林區"
"238023","601-UM","2017/08/04 17:59:06","桃園市龜山區萬壽路一段369巷7弄2號","121.401476666667","25.015855","6500700","樹林區"
"238019","599-UM","2017/08/04 17:59:03","新北市樹林區太平路255-1號","121.418748333333","24.97445","6500700","樹林區"
"238018","571-TV","2017/08/04 17:59:11","新北市樹林區博愛街130號","121.426488333333","24.9913533333333","6500700","樹林區"
"238024","5061-A6","2017/08/04 17:59:12","新北市樹林區中山路三段182號","121.388061666667","24.9694616666667","6500700","樹林區"
"238022","312-TH","2017/08/04 17:59:14","新北市樹林區太順街86巷26號","121.416568333333","24.9787683333333","6500700","樹林區"
"238021","311-TH","2017/08/04 17:20:46","新北市樹林區西圳街165巷20弄26號","121.395523333333","24.9601116666667","6500700","樹林區"
"238025","303-VK","2017/08/04 17:59:11","新北市樹林區俊興街232號","121.417836666667","25.0153683333333","6500700","樹林區"
"238017","283-BY","2017/08/04 17:59:02","新北市樹林區俊德街58號","121.415235","25.0132383333333","6500700","樹林區"
"238014","282-BY","2017/08/04 17:59:13","新北市樹林區大安路161號","121.421451666667","24.9966866666667","6500700","樹林區"
"238020","268-VK","2017/08/04 17:57:48","新北市樹林區三俊街252巷11弄13號","121.422061666667","25.0140716666667","6500700","樹林區"
"238026","172-UY","2017/08/04 17:58:56","新北市樹林區中洲街18號","121.397281666667","24.9722066666667","6500700","樹林區"
"238016","169-UY","2017/08/04 17:53:46","新北市樹林區復興路308巷2弄6號","121.416971666667","24.98735","6500700","樹林區"
"239007","AAC-297","2017/08/04 17:58:59","新北市鶯歌區尖山埔路165巷3弄1號","121.346285","24.9502933333333","6500800","鶯歌區"
"239006","891-R6","2017/08/04 17:59:10","新北市鶯歌區鶯桃路381巷2弄11號","121.333003333333","24.96376","6500800","鶯歌區"
"239008","527-UM","2017/08/04 17:59:16","新北市鶯歌區國際一路112巷2號","121.33566","24.9766583333333","6500800","鶯歌區"
"239005","526-UM","2017/08/04 17:59:04","新北市鶯歌區大湖路361巷81-1號","121.333008333333","24.9739383333333","6500800","鶯歌區"
"239001","417-VK","2017/08/04 17:59:02","新北市鶯歌區中正三路187號","121.335845","24.9395383333333","6500800","鶯歌區"
"239003","360-BY","2017/08/04 17:58:59","新北市鶯歌區鶯桃路334號","121.333966666667","24.9621416666667","6500800","鶯歌區"
"239002","359-BY","2017/08/04 17:59:05","新北市鶯歌區中山路249巷28號","121.347648333333","24.9564616666667","6500800","鶯歌區"
"239004","193-VK","2017/08/04 17:59:07","新北市鶯歌區尖山路137巷1號","121.347001666667","24.9484866666667","6500800","鶯歌區"
"221008","489-VK","2017/08/04 17:59:12","新北市汐止區明峰街16-1號","121.634733333333","25.0714766666667","6501100","汐止區"
"221036","130-UY","2017/08/04 17:59:09","新北市汐止區大同路三段34號","121.667091666667","25.076555","6501100","汐止區"
"221015","131-UY","2017/08/04 17:59:12","新北市汐止區長江街347號","121.667341666667","25.0821083333333","6501100","汐止區"
"221010","269-BY","2017/08/04 17:59:04","新北市汐止區汐萬路二段247號","121.646453333333","25.0882666666667","6501100","汐止區"
"221012","278-VK","2017/08/04 01:02:32","新北市汐止區汐萬路一段256巷1號","121.651958333333","25.0749583333333","6501100","汐止區"
"221023","279-VK","2017/08/04 02:12:06","新北市汐止區康寧街901號","121.651778333333","25.07496","6501100","汐止區"
"221032","280-BY","2017/08/04 17:59:14","新北市汐止區橫科路25號","121.618046666667","25.0511466666667","6501100","汐止區"
"221027","281-BY","2017/08/04 17:59:00","新北市汐止區大同路二段370號","121.657683333333","25.0671533333333","6501100","汐止區"
"221038","297-VK","2017/08/04 17:59:12","新北市汐止區連興街128巷5號","121.653425","25.061615","6501100","汐止區"
"221029","298-VK","2017/08/04 17:59:13","新北市汐止區樟樹二路332號","121.641463333333","25.0703483333333","6501100","汐止區"
"221021","299-VK","2017/08/04 14:52:01","新北市新店區安忠路57巷13號","121.513525","24.9570333333333","6501100","汐止區"
"221031","353-TW","2017/08/04 17:59:16","新北市汐止區中興路96巷1-3號","121.635251666667","25.062515","6501100","汐止區"
"221035","622-UM","2017/08/04 17:58:55","新北市汐止區新江北路1號","121.652756666667","25.07087","6501100","汐止區"
"221025","623-UM","2017/08/04 17:59:05","新北市汐止區仁愛路12號","121.659488333333","25.0633766666667","6501100","汐止區"
"221033","647-BX","2017/08/04 17:58:59","新北市汐止區合順街18巷17號","121.620188333333","25.04294","6501100","汐止區"
"221002","707-TV","2017/08/04 17:59:11","新北市汐止區工建路212號","121.636183333333","25.062085","6501100","汐止區"
"221018","753-BX","2017/08/04 17:59:10","新北市汐止區招商街1號","121.666276666667","25.0694333333333","6501100","汐止區"
"220039","288-VK","2017/08/04 16:46:16","新北市板橋區民生路二段161巷9號","121.470261666667","25.0196583333333","6500100","板橋區"
"220012","486-VK","2017/08/04 15:37:28","新北市板橋區民生路二段36-1號","121.472621666667","25.01653","6500100","板橋區"
