"lineid","car","time","location","longitude","latitude","cityid","cityname"
"234007","207-UY","2017/08/04 18:29:08","新北市永和區環河西路二段229巷1號","121.501323333333","25.00997","6500400","永和區"
"234081","298-R6","2017/08/04 18:28:59","新北市永和區林森路10巷1號","121.526485","25.0055566666667","6500400","永和區"
"234086","338-UY","2017/08/04 18:29:04","新北市永和區豫溪街217巷23號","121.524363333333","25.01003","6500400","永和區"
"234042","862-TW","2017/08/04 18:29:10","新北市永和區福和路1號","121.526588333333","25.0097033333333","6500400","永和區"
"234050","863-TW","2017/08/04 18:29:07","新北市永和區福和路1號","121.526555","25.0099516666667","6500400","永和區"
"234026","9371-KE","2017/08/04 18:29:16","新北市永和區中山路一段36號","121.513368333333","25.01058","6500400","永和區"
"234011","9373-KE","2017/08/04 18:29:09","新北市永和區保福路二段165號","121.509083333333","25.014975","6500400","永和區"
"249005","172-UM","2017/08/04 18:29:17","新北市八里區中華路三段98-1號","121.392556666667","25.13758","6502300","八里區"
"249001","173-UM","2017/08/04 18:29:16","新北市八里區龍米路一段136號","121.452965","25.1254683333333","6502300","八里區"
"249004","303-UY","2017/08/04 18:29:12","新北市八里區忠四街43號","121.425011666667","25.161015","6502300","八里區"
"249002","305-UY","2017/08/04 18:29:07","新北市八里區龍形三街26號","121.447953333333","25.1316733333333","6502300","八里區"
"248014","025-BX","2017/08/04 18:29:03","新北市五股區自強路90巷74號","121.431393333333","25.0713633333333","6501500","五股區"
"248016","026-BX","2017/08/04 18:28:57","新北市五股區凌雲路一段83巷7弄2號","121.449853333333","25.10073","6501500","五股區"
"248006","077-UY","2017/08/04 18:29:03","新北市五股區四維路73號","121.467251666667","25.07212","6501500","五股區"
"248007","095-VK","2017/08/04 18:29:16","新北市五股區四維路185巷42弄1號","121.46364","25.0768466666667","6501500","五股區"
"248018","225-UY","2017/08/04 18:29:08","新北市五股區御史路269號","121.421785","25.10612","6501500","五股區"
"248012","247-BX","2017/08/04 18:29:12","新北市五股區御成路145號","121.440811666667","25.0944033333333","6501500","五股區"
"248010","272-BY","2017/08/04 18:29:06","新北市五股區水碓路16巷33號","121.434046666667","25.073035","6501500","五股區"
"248004","677-BX","2017/08/04 18:29:10","新北市五股區工商路126號","121.436328333333","25.0858716666667","6501500","五股區"
"248002","678-BX","2017/08/04 18:28:57","新北市五股區西雲路116-5號","121.444573333333","25.0936016666667","6501500","五股區"
"234023","9380-KE","2017/08/04 18:29:08","新北市永和區福和路76巷5弄14號","121.522293333333","25.0083633333333","6500400","永和區"
"234077","969-R7","2017/08/04 18:28:59","新北市永和區福和路1號","121.52555","25.0095166666667","6500400","永和區"
"234074","AAC-211","2017/08/04 18:28:59","新北市永和區福和路1號","121.526588333333","25.009825","6500400","永和區"
"232011","375-UM","2017/08/04 18:16:37","新北市坪林區坪雙路一段31號","121.71171","24.9424133333333","6502000","坪林區"
"244013","069-UM","2017/08/04 18:29:03","新北市林口區中山路151號","121.386775","25.0793166666667","6501700","林口區"
"244007","080-UY","2017/08/04 18:28:54","新北市林口區湖子22-1號","121.385901666667","25.092685","6501700","林口區"
"244019","403-UM","2017/08/04 18:29:00","新北市林口區忠孝路555號","121.372533333333","25.0686766666667","6501700","林口區"
"244009","410-SL","2017/08/04 18:29:16","新北市林口區福林路33號","121.379356666667","25.08857","6501700","林口區"
"244023","483-VK","2017/08/04 18:29:02","新北市林口區四維路251號","121.381415","25.074825","6501700","林口區"
"244017","485-VK","2017/08/04 18:29:12","新北市林口區公園路19號","121.366731666667","25.0675566666667","6501700","林口區"
"244011","701-TV","2017/08/04 18:29:01","新北市林口區興林路17巷5弄6號","121.390611666667","25.0771433333333","6501700","林口區"
"244025","837-TS","2017/08/04 18:29:10","新北市林口區南勢四街328號","121.357366666667","25.0761816666667","6501700","林口區"
"244021","838-TS","2017/08/04 18:29:02","新北市林口區自強二街38號","121.398506666667","25.0776383333333","6501700","林口區"
"243013","AAD-798","2017/08/04 18:29:11","新北市泰山區明志路三段206巷1號","121.42331","25.0378866666667","6501600","泰山區"
"243012","646-TV","2017/08/04 18:28:46","新北市泰山區忠孝街10號","121.427611666667","25.0646783333333","6501600","泰山區"
"222003","436-BY","2017/08/04 18:29:06","新北市深坑區旺耽路39巷13號","121.628216666667","25.0036266666667","6501800","深坑區"
"222002","659-BX","2017/08/04 18:29:15","新北市深坑區雲鄉路178號","121.62231","24.9982283333333","6501800","深坑區"
"222001","696-SL","2017/08/04 18:29:04","新北市深坑區北深路一段199號","121.6304","25.0090016666667","6501800","深坑區"
"231041","001-UM","2017/08/04 18:28:55","新北市新店區安華路28-1號","121.519575","24.960815","6500600","新店區"
"231056","0291-UT","2017/08/04 18:29:06","新北市新店區中正路418巷24號","121.534856666667","24.978485","6500600","新店區"
"231059","046-UY","2017/08/04 18:29:01","新北市新店區安華路28-1號","121.5198","24.9607566666667","6500600","新店區"
"231061","047-UY","2017/08/04 18:29:04","新北市新店區安華路28-1號","121.519313333333","24.9609733333333","6500600","新店區"
"231060","106-UY","2017/08/04 18:28:55","新北市新店區安華路28-1號","121.519718333333","24.960765","6500600","新店區"
"231051","107-UY","2017/08/04 18:29:03","新北市新店區安華路28-1號","121.51945","24.961295","6500600","新店區"
"231048","108-UY","2017/08/04 18:28:57","新北市新店區安康路一段230-3號","121.522398333333","24.96385","6500600","新店區"
"231053","187-VK","2017/08/04 18:29:01","新北市新店區北宜路一段286號","121.546685","24.952605","6500600","新店區"
"231057","256-BX","2017/08/04 18:28:58","新北市新店區光明街17號","121.538193333333","24.9594633333333","6500600","新店區"
"231063","268-BY","2017/08/04 18:29:13","新北市新店區安華路28-1號","121.519446666667","24.9605383333333","6500600","新店區"
"231046","278-BY","2017/08/04 18:29:05","新北市新店區直潭七街60號","121.532288333333","24.9398616666667","6500600","新店區"
"231050","AAD-862","2017/08/04 18:29:07","新北市新店區安華路28-1號","121.519966666667","24.9611533333333","6500600","新店區"
"231058","3712-VJ","2017/08/04 18:29:14","新北市新店區新店後街65號","121.537523333333","24.955005","6500600","新店區"
"231055","3713-VJ","2017/08/04 18:29:00","新北市新店區中正路134號","121.541966666667","24.9714016666667","6500600","新店區"
"231067","4772-VM","2017/08/04 18:29:05","新北市新店區安華路28-1號","121.519291666667","24.96057","6500600","新店區"
"231065","512-UM","2017/08/04 18:29:01","新北市新店區安華路28-1號","121.51921","24.96123","6500600","新店區"
"231054","513-UM","2017/08/04 18:29:09","新北市新店區安華路28-1號","121.519651666667","24.9610933333333","6500600","新店區"
"231064","515-UM","2017/08/04 18:29:03","新北市新店區安華路28-1號","121.519938333333","24.9611083333333","6500600","新店區"
"231045","617-UM","2017/08/04 18:29:11","新北市新店區安華路28-1號","121.519461666667","24.96086","6500600","新店區"
"231040","619-UM","2017/08/04 18:29:06","新北市新店區安華路28-1號","121.519668333333","24.9608416666667","6500600","新店區"
"231042","641-BX","2017/08/04 18:28:59","新北市新店區安康路一段17號","121.533041666667","24.9603433333333","6500600","新店區"
"231068","718-UY","2017/08/04 18:29:05","新北市新店區安華路28-1號","121.519563333333","24.9609833333333","6500600","新店區"
"231049","719-UM","2017/08/04 18:29:11","新北市新店區安華路28-1號","121.519651666667","24.9611283333333","6500600","新店區"
"231062","719-UY","2017/08/04 18:29:08","新北市新店區安華路28-1號","121.519253333333","24.9611916666667","6500600","新店區"
"231044","897-TW","2017/08/04 18:29:01","新北市新店區安華路28-1號","121.519783333333","24.9608066666667","6500600","新店區"
"231043","899-TW","2017/08/04 18:29:04","新北市新店區安華路28-1號","121.51929","24.96084","6500600","新店區"
"231066","AKT-0513","2017/08/04 18:29:13","新北市新店區安忠路57巷11弄14號","121.515073333333","24.957895","6500600","新店區"
"241032","156-TC","2017/08/04 18:28:59","新北市三重區重新路四段121號","121.484915","25.052025","6500200","三重區"
"235066","003-UY","2017/08/04 18:29:13","新北市中和區中山路二段120號","121.502823333333","25.0037833333333","6500300","中和區"
"235064","005-UY","2017/08/04 18:29:03","新北市中和區圓通路181號","121.497803333333","24.9946433333333","6500300","中和區"
"235063","006-UY","2017/08/04 18:28:58","新北市中和區連城路347巷16弄14號","121.48776","24.9950866666667","6500300","中和區"
"235056","096-UM","2017/08/04 18:29:13","新北市中和區員山路611巷5弄1號","121.477873333333","25.011055","6500300","中和區"
"235039","097-UM","2017/08/04 18:29:09","新北市中和區宜安路66號","121.511395","24.997075","6500300","中和區"
"235065","098-UM","2017/08/04 18:29:15","新北市中和區莊敬路49巷18號","121.501613333333","25.0061183333333","6500300","中和區"
"235040","150-BY","2017/08/04 18:29:01","新北市中和區安平路38號","121.509838333333","24.994975","6500300","中和區"
"235058","151-BY","2017/08/04 18:28:58","新北市中和區圓通路369巷30弄52號","121.488551666667","24.9845866666667","6500300","中和區"
"235055","183-VK","2017/08/04 18:28:58","新北市土城區延壽路55巷1號","121.469783333333","24.99219","6500300","中和區"
"235038","185-VK","2017/08/04 18:29:02","新北市中和區秀朗路三段128巷13號","121.524438333333","24.9933566666667","6500300","中和區"
"235049","186-VK","2017/08/04 18:29:01","新北市中和區景安路142號","121.504993333333","24.99406","6500300","中和區"
"235067","255-BX","2017/08/04 18:29:04","新北市中和區和城路一段271巷1號","121.485506666667","24.99181","6500300","中和區"
"235044","293-VK","2017/08/04 18:29:03","新北市中和區中正路271號","121.495868333333","24.9937516666667","6500300","中和區"
"235072","301-VK","2017/08/04 18:29:04","新北市中和區連城路195號","121.494828333333","24.9981116666667","6500300","中和區"
"235043","352-BY","2017/08/04 18:29:00","新北市中和區景平路311號","121.50647","24.993215","6500300","中和區"
"235051","376-QA","2017/08/04 18:29:16","新北市中和區興南路二段142巷35弄1號","121.502545","24.9844933333333","6500300","中和區"
"235068","377-QA","2017/08/04 18:29:14","新北市中和區錦和路350-1號","121.490546666667","24.9935133333333","6500300","中和區"
"235061","378-QA","2017/08/04 18:29:03","新北市中和區民享街116巷6-1號","121.47417","24.9988716666667","6500300","中和區"
"235050","4979-A6","2017/08/04 18:28:58","新北市中和區景新街410巷18弄4號","121.51216","24.9893383333333","6500300","中和區"
"235069","4980-A6","2017/08/04 18:29:14","新北市中和區連城路99巷71號","121.497371666667","24.99831","6500300","中和區"
"235042","551-UM","2017/08/04 18:29:06","新北市中和區自立路56巷21號","121.522441666667","24.991595","6500300","中和區"
"235070","558-UM","2017/08/04 18:29:11","新北市中和區圓通路162-1號","121.497511666667","24.9952966666667","6500300","中和區"
"235045","565-BX","2017/08/04 18:29:04","新北市中和區復興路16號","121.505595","24.98988","6500300","中和區"
"235054","640-BX","2017/08/04 18:28:58","新北市中和區民享街119巷2號","121.474366666667","24.9986866666667","6500300","中和區"
"235060","647-TV","2017/08/04 18:29:11","新北市中和區員山路339號","121.481206666667","25.00155","6500300","中和區"
"235047","732-UM","2017/08/04 18:29:00","新北市中和區南山路282號","121.507936666667","24.98771","6500300","中和區"
"235046","733-UM","2017/08/04 18:29:04","新北市中和區中正路521號","121.48825","24.99351","6500300","中和區"
"235071","783-BX","2017/08/04 18:28:57","新北市中和區員山路36巷16-3號","121.485196666667","24.991215","6500300","中和區"
"235062","800-TS","2017/08/04 18:29:10","新北市中和區景平路750號","121.496486666667","25.00441","6500300","中和區"
"235057","801-TS","2017/08/04 18:29:01","新北市中和區民享街97巷11號","121.47532","24.99954","6500300","中和區"
"235041","802-TS","2017/08/04 18:28:57","新北市中和區圓通路141巷48弄15號","121.49823","24.993915","6500300","中和區"
"235052","805-TS","2017/08/04 18:29:07","新北市中和區興南路二段133號","121.505241666667","24.98419","6500300","中和區"
"235048","896-TW","2017/08/04 18:28:55","新北市中和區中正路171號","121.497808333333","24.993545","6500300","中和區"
"235053","900-TW","2017/08/04 18:28:55","新北市土城區延壽路46號","121.470766666667","24.9916733333333","6500300","中和區"
"235037","AAC-213","2017/08/04 18:29:13","新北市中和區景德街67號","121.51693","24.9914583333333","6500300","中和區"
"235059","AAC-215","2017/08/04 18:29:12","新北市中和區員山路36巷16-3號","121.485093333333","24.9913466666667","6500300","中和區"
"220086","073-UY","2017/08/04 18:29:05","新北市板橋區南雅南路二段120-2號","121.452356666667","24.9999166666667","6500100","板橋區"
"247006","341-TH","2017/08/04 18:29:14","新北市八里區中山路三段106號","121.390815","25.1420583333333","6501400","蘆洲區"
"226004","205-ST","2017/08/04 18:29:05","新北市平溪區靜安路二段278號","121.728393333333","25.0229066666667","6502400","平溪區"
"223005","677-TV","2017/08/04 17:41:15","新北市石碇區小粗坑(潭邊里)9-2號","121.678606666667","24.9859966666667","6501900","石碇區"
"228002","663-BX","2017/08/04 18:29:07","新北市貢寮區福連里福連街1號","121.988338333333","25.0165083333333","6502600","貢寮區"
"228001","670-TC","2017/08/04 18:29:01","新北市貢寮區仁理村仁義街6號","121.923718333333","25.0520633333333","6502600","貢寮區"
"228003","828-UM","2017/08/04 18:29:04","新北市貢寮區和美里和美街40號","121.912526666667","25.0897583333333","6502600","貢寮區"
"224006","676-BX","2017/08/04 18:29:17","新北市瑞芳區明燈路二段79號","121.810501666667","25.1082283333333","6501200","瑞芳區"
"224002","639-TC","2017/08/04 18:29:14","新北市瑞芳區三爪子坑路25號","121.81344","25.1075516666667","6501200","瑞芳區"
"224009","285-BY","2017/08/04 18:29:14","新北市瑞芳區五號路124號","121.854915","25.11087","6501200","瑞芳區"
"224008","275-VK","2017/08/04 18:13:57","新北市瑞芳區逢甲路72號","121.810628333333","25.108245","6501200","瑞芳區"
"224007","273-VK","2017/08/04 18:28:56","新北市瑞芳區大埔路國宅新村40號","121.764205","25.099735","6501200","瑞芳區"
"224005","271-BY","2017/08/04 18:29:11","新北市瑞芳區台電新村31號","121.812618333333","25.1276033333333","6501200","瑞芳區"
"227003","642-TC","2017/08/04 18:28:59","新北市雙溪區魚行里坤溪21-1號","121.871075","25.0270966666667","6502500","雙溪區"
"227011","400-TW","2017/08/04 18:29:05","新北市雙溪區牡丹里牡丹159-1號","121.850923333333","25.0591083333333","6502500","雙溪區"
"253006","032-BX","2017/08/04 18:29:13","新北市石門區公地15號","121.545716666667","25.2901883333333","6502200","石門區"
"253005","295-VK","2017/08/04 18:28:57","新北市石門區老崩山6-2號","121.552438333333","25.291115","6502200","石門區"
"253001","4710-YM","2017/08/04 18:28:55","新北市石門區老梅路47號","121.545341666667","25.2892933333333","6502200","石門區"
"208002","742-BX","2017/08/04 18:29:12","新北市金山區磺港里磺港路169號","121.643475","25.22487","6502700","金山區"
"208003","665-BX","2017/08/04 18:29:12","新北市金山區中山路245號","121.63718","25.2220133333333","6502700","金山區"
"208001","761-BX","2017/08/04 18:28:54","新北市金山區金包里街152號","121.637711666667","25.2228033333333","6502700","金山區"
"251004","009-UM","2017/08/04 18:28:59","新北市淡水區民族路31巷39號","121.462041666667","25.1366816666667","6501000","淡水區"
"251005","010-UM","2017/08/04 18:29:09","新北市淡水區中正東路3號","121.4454","25.1685883333333","6501000","淡水區"
"251002","012-UM","2017/08/04 18:29:04","新北市淡水區竿蓁二街21號","121.453231666667","25.16298","6501000","淡水區"
"251013","180-VK","2017/08/04 18:29:06","新北市淡水區椿子林19-1號","121.480375","25.2039533333333","6501000","淡水區"
"251008","181-VK","2017/08/04 18:29:18","新北市淡水區北投子94號","121.466751666667","25.177205","6501000","淡水區"
"251015","182-VK","2017/08/04 18:29:03","新北市淡水區興福寮88巷216號","121.48599","25.1665883333333","6501000","淡水區"
"251010","413-VK","2017/08/04 18:29:06","新北市淡水區沙崙路181巷1號","121.424093333333","25.1841933333333","6501000","淡水區"
"251012","441-VK","2017/08/04 18:29:09","新北市淡水區北新路一段156-1號","121.460205","25.1824683333333","6501000","淡水區"
"251001","559-UM","2017/08/04 18:29:12","新北市淡水區自強路357號","121.464081666667","25.1329216666667","6501000","淡水區"
"251006","561-UM","2017/08/04 18:29:00","新北市淡水區大義街5號","121.443458333333","25.17817","6501000","淡水區"
"251011","650-BX","2017/08/04 18:29:10","新北市淡水區中正東路21號","121.448128333333","25.166415","6501000","淡水區"
"251003","673-BX","2017/08/04 18:29:03","新北市淡水區北投子1-1號","121.447393333333","25.1807216666667","6501000","淡水區"
"207003","550-UM","2017/08/04 18:28:59","新北市萬里區野柳里港東路155號","121.689736666667","25.2052366666667","6502800","萬里區"
"207004","225-TW","2017/08/04 18:29:15","新北市萬里區萬里里瑪鋉頂街40號","121.689153333333","25.1785666666667","6502800","萬里區"
"252002","178-VK","2017/08/04 18:29:09","新北市三芝區中山路二段39號","121.50293","25.2550966666667","6502100","三芝區"
"252003","249-BX","2017/08/04 18:29:15","新北市三芝區後厝里北勢子43號","121.471846666667","25.2524933333333","6502100","三芝區"
"252001","292-VK","2017/08/04 18:29:15","新北市三芝區中興街二段2號","121.498383333333","25.2566666666667","6502100","三芝區"
"237004","078-UY","2017/08/04 18:29:08","新北市三峽區插角1-1號","121.397641666667","24.8736516666667","6500900","三峽區"
"237007","153-BY","2017/08/04 18:29:09","新北市三峽區中正路三段164號","121.352828333333","24.9035616666667","6500900","三峽區"
"237009","210-TH","2017/08/04 18:29:03","新北市三峽區民族街182-2號","121.368158333333","24.927855","6500900","三峽區"
"237013","252-BX","2017/08/04 18:29:02","新北市三峽區光明路69巷25號","121.376705","24.929305","6500900","三峽區"
"237012","275-BY","2017/08/04 18:29:15","新北市三峽區三樹路110號","121.378323333333","24.939235","6500900","三峽區"
"237008","302-VK","2017/08/04 18:29:06","新北市三峽區白雞68-117號","121.391496666667","24.9084033333333","6500900","三峽區"
"237014","433-BY","2017/08/04 18:29:12","新北市三峽區文化路59號","121.372315","24.936035","6500900","三峽區"
"237006","5529-G3","2017/08/04 18:29:03","新北市三峽區溪東路371巷2弄1號","121.412028333333","24.92967","6500900","三峽區"
"237011","572-TV","2017/08/04 18:06:44","新北市三峽區橫溪路3號","121.396085","24.936145","6500900","三峽區"
"237015","649-BX","2017/08/04 18:29:00","新北市三峽區紫微南路17號","121.425305","24.9195333333333","6500900","三峽區"
"237010","706-TV","2017/08/04 18:29:02","新北市三峽區復興路337號","121.364358333333","24.9387183333333","6500900","三峽區"
"237005","AKY-6261","2017/08/04 18:29:13","新北市三峽區民族街5巷20號","121.36976","24.93177","6500900","三峽區"
"236072","105-UM","2017/08/04 18:29:10","新北市土城區永豐路255巷27弄41號","121.476916666667","24.97368","6501300","土城區"
"236043","107-UM","2017/08/04 18:29:10","新北市土城區裕民路67巷13號","121.449885","24.9882866666667","6501300","土城區"
"236079","166-UM","2017/08/04 18:29:12","新北市土城區大暖路20巷2號","121.423586666667","24.9599366666667","6501300","土城區"
"236031","253-BX","2017/08/04 18:29:00","新北市土城區福仁街30巷10號","121.439443333333","24.9759183333333","6501300","土城區"
"236027","269-VK","2017/08/04 18:29:11","新北市土城區南天母路135巷33號","121.448601666667","24.9541866666667","6501300","土城區"
"236015","270-VK","2017/08/04 18:29:08","新北市土城區立清街69號","121.460323333333","24.987335","6501300","土城區"
"236039","271-VK","2017/08/04 18:29:06","新北市土城區青雲路451巷6號","121.459578333333","24.974705","6501300","土城區"
"236022","401-BY","2017/08/04 18:29:12","新北市土城區永豐路202巷7-1號","121.46623","24.9831866666667","6501300","土城區"
"236059","912-UM","2017/08/04 18:28:55","新北市土城區中央路四段464號","121.409925","24.95058","6501300","土城區"
"236050","913-UM","2017/08/04 18:29:05","新北市土城區明德路一段220號","121.460908333333","24.97755","6501300","土城區"
"236063","915-UM","2017/08/04 18:29:04","新北市土城區延壽路111巷16號","121.468645","24.993665","6501300","土城區"
"236055","AAC-216","2017/08/04 18:28:55","新北市土城區中華路二段165號","121.438755","24.97554","6501300","土城區"
"242046","441-UM","2017/08/04 18:29:15","新北市新莊區中正路803巷51號","121.422318333333","25.0278383333333","6500500","新莊區"
"242032","415-TV","2017/08/04 18:29:00","新北市新莊區新泰路357巷1弄39號","121.442753333333","25.0400783333333","6500500","新莊區"
"242060","362-BY","2017/08/04 18:29:01","新北市新莊區富國路176巷1號","121.424256666667","25.0243433333333","6500500","新莊區"
"242058","353-BY","2017/08/04 18:29:14","新北市新莊區中正路889-8號","121.415141666667","25.0236133333333","6500500","新莊區"
"242041","132-UY","2017/08/04 18:29:15","新北市新莊區中正路694巷132號","121.416095","25.0300733333333","6500500","新莊區"
"242044","172-VK","2017/08/04 18:29:13","新北市新莊區中正路新旺巷4號","121.41555","25.023475","6500500","新莊區"
"242054","349-TH","2017/08/04 18:29:09","新北市新莊區新樹路308-1號","121.432655","25.00592","6500500","新莊區"
"238015","755-BX","2017/08/04 18:29:10","新北市樹林區啟智街187巷2號","121.415106666667","24.9871683333333","6500700","樹林區"
"238023","601-UM","2017/08/04 18:29:06","新北市樹林區忠信街15號","121.407763333333","25.0152266666667","6500700","樹林區"
"238019","599-UM","2017/08/04 18:27:13","新北市樹林區中華路190-16號","121.411805","24.9806083333333","6500700","樹林區"
"238018","571-TV","2017/08/04 18:29:11","新北市樹林區保安街一段1號","121.427276666667","24.9933683333333","6500700","樹林區"
"238024","5061-A6","2017/08/04 18:29:12","新北市樹林區後站街6巷3號","121.423975","24.9912966666667","6500700","樹林區"
"238021","311-TH","2017/08/04 17:20:46","新北市樹林區西圳街165巷20弄26號","121.395523333333","24.9601116666667","6500700","樹林區"
"238025","303-VK","2017/08/04 18:28:46","新北市樹林區大安路592號","121.411531666667","24.9831733333333","6500700","樹林區"
"238017","283-BY","2017/08/04 18:29:02","新北市樹林區保安街二段337巷15號","121.411316666667","25.0080033333333","6500700","樹林區"
"238014","282-BY","2017/08/04 18:28:59","新北市樹林區樹德街8號","121.422996666667","24.9914433333333","6500700","樹林區"
"238020","268-VK","2017/08/04 18:29:08","新北市樹林區中正路604號","121.410411666667","25.0156016666667","6500700","樹林區"
"238026","172-UY","2017/08/04 18:28:56","新北市樹林區八德街630號","121.396963333333","24.9695616666667","6500700","樹林區"
"238016","169-UY","2017/08/04 18:29:06","新北市樹林區文化街23號","121.41927","24.987655","6500700","樹林區"
"239007","AAC-297","2017/08/04 18:29:12","新北市鶯歌區中正一路建德巷26號","121.364631666667","24.9573483333333","6500800","鶯歌區"
"239006","891-R6","2017/08/04 18:29:10","新北市鶯歌區鶯桃路296巷46-3號","121.33579","24.961315","6500800","鶯歌區"
"239008","527-UM","2017/08/04 18:28:56","新北市鶯歌區國際一路14號","121.336226666667","24.976555","6500800","鶯歌區"
"239005","526-UM","2017/08/04 18:29:04","新北市鶯歌區鳳吉二街146號","121.328588333333","24.9748816666667","6500800","鶯歌區"
"239001","417-VK","2017/08/04 18:29:02","新北市鶯歌區國中街191號","121.33844","24.9392433333333","6500800","鶯歌區"
"239003","360-BY","2017/08/04 18:28:59","新北市鶯歌區福安街58號","121.335596666667","24.9652383333333","6500800","鶯歌區"
"239002","359-BY","2017/08/04 18:29:05","新北市鶯歌區中正一路184號","121.352843333333","24.956445","6500800","鶯歌區"
"239004","193-VK","2017/08/04 18:29:07","新北市鶯歌區國中街68號","121.342053333333","24.942925","6500800","鶯歌區"
"221008","489-VK","2017/08/04 18:29:12","新北市汐止區康寧街901號","121.651401666667","25.07501","6501100","汐止區"
"221036","130-UY","2017/08/04 18:29:09","新北市汐止區大同路三段21號","121.666353333333","25.07601","6501100","汐止區"
"221015","131-UY","2017/08/04 18:29:12","新北市汐止區吉祥街27巷2號","121.667751666667","25.08158","6501100","汐止區"
"221010","269-BY","2017/08/04 18:29:09","新北市汐止區汐萬路三段252巷3號","121.644113333333","25.1046216666667","6501100","汐止區"
"221012","278-VK","2017/08/04 01:02:32","新北市汐止區汐萬路一段256巷1號","121.651958333333","25.0749583333333","6501100","汐止區"
"221023","279-VK","2017/08/04 02:12:06","新北市汐止區康寧街901號","121.651778333333","25.07496","6501100","汐止區"
"221032","280-BY","2017/08/04 18:29:12","新北市汐止區福山街56巷19號","121.618013333333","25.0456516666667","6501100","汐止區"
"221027","281-BY","2017/08/04 18:29:00","新北市汐止區和平街62號","121.661991666667","25.070885","6501100","汐止區"
"221038","297-VK","2017/08/04 18:29:12","新北市汐止區秀峰路9號","121.659246666667","25.066235","6501100","汐止區"
"221029","298-VK","2017/08/04 18:29:13","新北市汐止區樟樹二路330巷72-1號","121.642925","25.06999","6501100","汐止區"
"221021","299-VK","2017/08/04 14:52:01","新北市新店區安忠路57巷13號","121.513525","24.9570333333333","6501100","汐止區"
"221031","353-TW","2017/08/04 18:28:57","新北市汐止區光復街12-1號","121.639195","25.0586116666667","6501100","汐止區"
"221035","622-UM","2017/08/04 18:28:55","新北市汐止區新台五路一段79-7號","121.646001666667","25.0623216666667","6501100","汐止區"
"221025","623-UM","2017/08/04 18:29:05","新北市汐止區仁愛路120號","121.662856666667","25.0637733333333","6501100","汐止區"
"221033","647-BX","2017/08/04 18:28:59","新北市汐止區宜興街1號","121.620743333333","25.041185","6501100","汐止區"
"221002","707-TV","2017/08/04 18:29:10","新北市汐止區福德一路151號","121.636635","25.0666016666667","6501100","汐止區"
"221018","753-BX","2017/08/04 18:29:10","新北市汐止區茄苳路225巷2號","121.67107","25.0686866666667","6501100","汐止區"
"220056","276-BY","2017/08/04 18:29:14","新北市板橋區中山路一段214號","121.469993333333","25.0139633333333","6500100","板橋區"
"220094","283-UM","2017/08/04 18:29:15","新北市板橋區民生路二段120號","121.470481666667","25.0200016666667","6500100","板橋區"
"220053","285-VK","2017/08/04 16:23:06","新北市板橋區民生路二段17號","121.472598333333","25.0164816666667","6500100","板橋區"
"220039","288-VK","2017/08/04 16:46:16","新北市板橋區民生路二段161巷9號","121.470261666667","25.0196583333333","6500100","板橋區"
"220012","486-VK","2017/08/04 15:37:28","新北市板橋區民生路二段36-1號","121.472621666667","25.01653","6500100","板橋區"
"220035","560-BX","2017/08/04 18:29:02","新北市板橋區四川路二段130巷25弄10號","121.44884","24.9946666666667","6500100","板橋區"
"220071","568-UM","2017/08/04 18:29:09","新北市板橋區中山路二段89巷5弄12號","121.472705","25.016775","6500100","板橋區"
