"lineid","car","time","location","longitude","latitude","cityid","cityname"
"234046","148-BY","2017/08/04 19:08:59","新北市永和區永元路52巷18號","121.523046666667","25.0009633333333","6500400","永和區"
"234013","149-BY","2017/08/04 19:09:11","新北市永和區保福路二段14-1號","121.510943333333","25.0114066666667","6500400","永和區"
"234007","207-UY","2017/08/04 19:09:08","新北市永和區中山路一段331號","121.50613","25.0062166666667","6500400","永和區"
"234081","298-R6","2017/08/04 19:08:59","新北市永和區永亨路83號","121.522091666667","25.005755","6500400","永和區"
"234038","336-UY","2017/08/04 19:09:10","新北市永和區民樂街59巷9號","121.528106666667","24.9982883333333","6500400","永和區"
"234064","337-UY","2017/08/04 19:09:16","新北市永和區秀朗路二段33號","121.521258333333","25.002425","6500400","永和區"
"234086","338-UY","2017/08/04 19:09:03","新北市永和區永貞路138號","121.518251666667","25.0045116666667","6500400","永和區"
"234070","552-UM","2017/08/04 19:09:13","新北市永和區豫溪街81號","121.51796","25.0099833333333","6500400","永和區"
"234054","553-UM","2017/08/04 19:08:59","新北市永和區竹林路78號","121.519298333333","25.0128283333333","6500400","永和區"
"234017","745-BX","2017/08/04 19:09:09","新北市永和區忠孝街11-1號","121.514736666667","25.0156333333333","6500400","永和區"
"234030","746-BX","2017/08/04 19:09:00","新北市永和區民生路21號","121.52283","24.99887","6500400","永和區"
"234061","AAD-866","2017/08/04 19:09:05","新北市永和區安樂路304巷22號","121.515005","25.0053933333333","6500400","永和區"
"234042","862-TW","2017/08/04 19:09:10","新北市永和區永貞路289號","121.511083333333","25.00548","6500400","永和區"
"234050","863-TW","2017/08/04 19:09:07","新北市永和區文化路135巷26弄1號","121.510595","25.01444","6500400","永和區"
"234026","9371-KE","2017/08/04 19:08:56","新北市永和區安樂路272巷9弄7號","121.5151","25.0045983333333","6500400","永和區"
"234011","9373-KE","2017/08/04 19:09:09","新北市永和區保福路二段44巷2弄10號","121.511646666667","25.0118783333333","6500400","永和區"
"249005","172-UM","2017/08/04 19:08:57","新北市八里區中華路三段101號","121.393285","25.1387233333333","6502300","八里區"
"249001","173-UM","2017/08/04 19:08:56","新北市八里區龍米路二段203-1號","121.432783333333","25.1583466666667","6502300","八里區"
"248016","026-BX","2017/08/04 19:09:15","新北市五股區成泰路三段577巷45號","121.450788333333","25.1029783333333","6501500","五股區"
"248006","077-UY","2017/08/04 19:09:03","新北市五股區四維路117號","121.467511666667","25.073645","6501500","五股區"
"248018","225-UY","2017/08/04 19:09:08","新北市五股區民義路一段220巷23號","121.429101666667","25.0945316666667","6501500","五股區"
"248012","247-BX","2017/08/04 19:09:12","新北市五股區中興路四段48巷16號","121.438585","25.0834566666667","6501500","五股區"
"248010","272-BY","2017/08/04 19:09:06","新北市五股區自強路90巷72號","121.430785","25.0711783333333","6501500","五股區"
"248004","677-BX","2017/08/04 19:09:09","新北市五股區六合街3號","121.431823333333","25.0884716666667","6501500","五股區"
"248002","678-BX","2017/08/04 19:08:57","新北市五股區凌雲路一段158巷6號","121.448163333333","25.1027583333333","6501500","五股區"
"234023","9380-KE","2017/08/04 19:09:08","新北市永和區中興街31號","121.516111666667","25.0119016666667","6500400","永和區"
"234077","969-R7","2017/08/04 19:09:05","新北市永和區民權路34號","121.52017","24.9989416666667","6500400","永和區"
"234074","AAC-211","2017/08/04 19:09:00","新北市永和區竹林路241號","121.520868333333","25.0080516666667","6500400","永和區"
"234067","AAC-212","2017/08/04 19:09:14","新北市永和區永和路一段45號","121.5129","25.0063933333333","6500400","永和區"
"234003","AAC-295","2017/08/04 19:09:06","新北市永和區保福路一段57號","121.512588333333","25.009525","6500400","永和區"
"244013","069-UM","2017/08/04 19:09:03","新北市林口區麗園二街1巷3-1號","121.377071666667","25.07028","6501700","林口區"
"244019","403-UM","2017/08/04 19:09:00","新北市林口區麗園二街47巷47號","121.382571666667","25.069555","6501700","林口區"
"244009","410-SL","2017/08/04 19:09:13","新北市林口區竹林路440號","121.388448333333","25.0852616666667","6501700","林口區"
"244023","483-VK","2017/08/04 19:09:02","新北市林口區文化三路一段617巷185號","121.371308333333","25.0779683333333","6501700","林口區"
"244017","485-VK","2017/08/04 19:09:12","新北市林口區公園路92號","121.369536666667","25.0705416666667","6501700","林口區"
"244011","701-TV","2017/08/04 19:09:01","新北市林口區中正路296巷9號","121.388128333333","25.0781666666667","6501700","林口區"
"243013","AAD-798","2017/08/04 19:09:11","新北市泰山區明志路三段277號","121.423118333333","25.036795","6501600","泰山區"
"243009","297-R6","2017/08/04 19:09:12","新北市泰山區楓樹街15巷5號","121.434786666667","25.0630533333333","6501600","泰山區"
"243015","380-SR","2017/08/04 19:09:06","新北市泰山區明志路一段431號","121.430775","25.0565283333333","6501600","泰山區"
"243014","421-VK","2017/08/04 19:08:57","新北市泰山區泰林路二段437號","121.426073333333","25.0640533333333","6501600","泰山區"
"243010","548-UM","2017/08/04 19:09:08","新北市泰山區明志路一段481號","121.431001666667","25.055355","6501600","泰山區"
"243011","549-UM","2017/08/04 19:09:05","新北市泰山區明志路二段358號","121.425445","25.0453116666667","6501600","泰山區"
"243012","646-TV","2017/08/04 19:09:06","新北市泰山區辭修路36巷8弄5號","121.427931666667","25.058655","6501600","泰山區"
"243016","680-BX","2017/08/04 19:09:06","新北市泰山區明志路二段371號","121.425258333333","25.0440016666667","6501600","泰山區"
"222003","436-BY","2017/08/04 19:09:06","新北市深坑區深南路142號","121.622966666667","25.0140966666667","6501800","深坑區"
"222002","659-BX","2017/08/04 19:08:55","新北市深坑區烏月路1號","121.633415","25.00826","6501800","深坑區"
"222001","696-SL","2017/08/04 19:09:04","新北市深坑區北深路一段300號","121.624215","25.0057816666667","6501800","深坑區"
"231041","001-UM","2017/08/04 19:09:15","新北市新店區溪園路379號","121.523325","24.9797416666667","6500600","新店區"
"231056","0291-UT","2017/08/04 19:09:06","新北市新店區二十張路46巷37弄21-3號","121.535636666667","24.9813116666667","6500600","新店區"
"231059","046-UY","2017/08/04 19:09:01","新北市新店區安和路二段142號","121.519615","24.9726633333333","6500600","新店區"
"231061","047-UY","2017/08/04 19:09:04","新北市新店區安康路一段107-2號","121.528675","24.96163","6500600","新店區"
"231060","106-UY","2017/08/04 19:09:15","新北市新店區安康路二段207號","121.50903","24.9589416666667","6500600","新店區"
"231051","107-UY","2017/08/04 19:09:03","新北市新店區中正路382巷5號","121.535103333333","24.9775283333333","6500600","新店區"
"231048","108-UY","2017/08/04 19:09:03","新北市新店區中正路54巷32號","121.545258333333","24.97093","6500600","新店區"
"231053","187-VK","2017/08/04 19:09:16","新北市新店區自強路23巷1號","121.546113333333","24.9266116666667","6500600","新店區"
"231063","268-BY","2017/08/04 19:09:13","新北市新店區車子路144號","121.505251666667","24.947615","6500600","新店區"
"231046","278-BY","2017/08/04 19:09:05","新北市新店區新潭路一段61號","121.526283333333","24.942435","6500600","新店區"
"231050","AAD-862","2017/08/04 19:09:07","新北市新店區竹林路2巷31號","121.550446666667","24.9501633333333","6500600","新店區"
"231058","3712-VJ","2017/08/04 19:09:14","新北市新店區中興路一段103巷2號","121.54115","24.962415","6500600","新店區"
"231067","4772-VM","2017/08/04 19:09:05","新北市新店區安康路一段171-5號","121.526803333333","24.96212","6500600","新店區"
"231065","512-UM","2017/08/04 19:09:09","新北市新店區安祥路135號","121.474643333333","24.95608","6500600","新店區"
"231054","513-UM","2017/08/04 19:09:09","新北市新店區新店路207號","121.537128333333","24.956785","6500600","新店區"
"231064","515-UM","2017/08/04 19:09:00","新北市新店區安忠路102巷2號","121.510826666667","24.9563816666667","6500600","新店區"
"231045","617-UM","2017/08/04 19:09:11","新北市新店區北宜路一段154號","121.54038","24.9535783333333","6500600","新店區"
"231040","619-UM","2017/08/04 19:09:06","新北市新店區三民路98-3號","121.533993333333","24.9734366666667","6500600","新店區"
"231042","641-BX","2017/08/04 19:09:03","新北市新店區中興路一段123號","121.54164","24.9632483333333","6500600","新店區"
"231049","719-UM","2017/08/04 19:09:11","新北市新店區二十張路25巷18弄16號","121.53923","24.9816383333333","6500600","新店區"
"231062","719-UY","2017/08/04 19:09:08","新北市新店區安平路7-1號","121.524211666667","24.9649183333333","6500600","新店區"
"231044","897-TW","2017/08/04 19:09:01","新北市新店區中興路三段134號","121.544763333333","24.979745","6500600","新店區"
"231043","899-TW","2017/08/04 19:09:04","新北市新店區中興路二段252號","121.547513333333","24.97591","6500600","新店區"
"231066","AKT-0513","2017/08/04 19:09:16","新北市新店區安康路三段359巷12弄2號","121.484486666667","24.9501416666667","6500600","新店區"
"241026","066-VK","2017/08/04 19:09:12","新北市三重區泉州街74號","121.49471","25.0546566666667","6500200","三重區"
"241032","156-TC","2017/08/04 19:08:38","新北市三重區名源街50號","121.482555","25.0593866666667","6500200","三重區"
"241020","412-TH","2017/08/04 19:09:13","新北市三重區忠孝路二段51號","121.48559","25.0710516666667","6500200","三重區"
"241035","462-BY","2017/08/04 19:09:10","新北市三重區重新路四段146號","121.486323333333","25.0563616666667","6500200","三重區"
"241029","942-UM","2017/08/04 19:09:12","新北市三重區集美街263號","121.492495","25.0557616666667","6500200","三重區"
"235066","003-UY","2017/08/04 19:09:13","新北市中和區廣福路12號","121.50559","25.0028433333333","6500300","中和區"
"235064","005-UY","2017/08/04 19:09:03","新北市中和區泰和街3號","121.49981","25.0007183333333","6500300","中和區"
"235063","006-UY","2017/08/04 19:08:58","新北市中和區連城路268-6號","121.486438333333","24.9963","6500300","中和區"
"235056","096-UM","2017/08/04 19:09:13","新北市中和區員山路546號","121.478763333333","25.0101933333333","6500300","中和區"
"235039","097-UM","2017/08/04 19:09:09","新北市中和區自強路60號","121.520066666667","24.994525","6500300","中和區"
"235065","098-UM","2017/08/04 19:08:55","新北市中和區福祥路135號","121.498436666667","25.0074166666667","6500300","中和區"
"235040","150-BY","2017/08/04 19:09:06","新北市中和區保健路48巷2號","121.509868333333","24.9969783333333","6500300","中和區"
"235058","151-BY","2017/08/04 19:08:58","新北市中和區連城路376-1號","121.481031666667","24.9953683333333","6500300","中和區"
"235055","183-VK","2017/08/04 19:08:58","新北市中和區德光路79號","121.469323333333","25.0037","6500300","中和區"
"235038","185-VK","2017/08/04 19:09:02","新北市中和區立人街8-4號","121.519585","24.9942233333333","6500300","中和區"
"235049","186-VK","2017/08/04 19:09:01","新北市中和區明禮街14號","121.504921666667","24.99589","6500300","中和區"
"235067","255-BX","2017/08/04 19:09:05","新北市中和區新生街217號","121.48383","24.9995083333333","6500300","中和區"
"235044","293-VK","2017/08/04 19:09:03","新北市中和區中興街161巷1弄2號","121.500321666667","24.9909016666667","6500300","中和區"
"235072","301-VK","2017/08/04 19:09:04","新北市中和區福祥路30號","121.499455","25.0036383333333","6500300","中和區"
"235043","352-BY","2017/08/04 19:09:00","新北市中和區景平路114號","121.519653333333","24.9916433333333","6500300","中和區"
"235051","376-QA","2017/08/04 19:09:13","新北市中和區興南路一段93巷58弄1號","121.510695","24.9859216666667","6500300","中和區"
"235068","377-QA","2017/08/04 19:09:14","新北市中和區圓通路162巷1號","121.497203333333","24.9953316666667","6500300","中和區"
"235061","378-QA","2017/08/04 19:09:03","新北市中和區中山路三段63巷13弄41號","121.476686666667","25.0035366666667","6500300","中和區"
"235050","4979-A6","2017/08/04 19:08:58","新北市中和區復興路274巷12號","121.502801666667","24.9908633333333","6500300","中和區"
"235069","4980-A6","2017/08/04 19:09:14","新北市中和區莊敬路33巷2-2號","121.500568333333","25.00497","6500300","中和區"
"235042","551-UM","2017/08/04 19:09:06","新北市中和區自立路117巷2弄2號","121.522331666667","24.99447","6500300","中和區"
"235070","558-UM","2017/08/04 19:09:11","新北市中和區安和路163號","121.505996666667","24.9975016666667","6500300","中和區"
"235045","565-BX","2017/08/04 19:09:04","新北市中和區景新街467巷20弄21號","121.515126666667","24.9873733333333","6500300","中和區"
"235054","640-BX","2017/08/04 19:08:58","新北市中和區國光街2巷1號","121.472315","25.000255","6500300","中和區"
"235060","647-TV","2017/08/04 19:09:04","新北市中和區民享街82號","121.474303333333","25.001395","6500300","中和區"
"235047","732-UM","2017/08/04 19:08:59","新北市中和區興南路二段40號","121.50689","24.9851966666667","6500300","中和區"
"235046","733-UM","2017/08/04 19:09:04","新北市中和區忠孝街1巷84號","121.5082","24.9849583333333","6500300","中和區"
"235071","783-BX","2017/08/04 19:09:17","新北市中和區員山路111號","121.480876666667","24.994745","6500300","中和區"
"235062","800-TS","2017/08/04 19:09:10","新北市中和區中山路二段526巷37號","121.485788333333","25.0061333333333","6500300","中和區"
"235057","801-TS","2017/08/04 19:09:01","新北市中和區民利街58巷5弄11號","121.478085","24.999105","6500300","中和區"
"235041","802-TS","2017/08/04 19:08:57","新北市中和區宜安路133-1號","121.509565","24.9982383333333","6500300","中和區"
"235052","805-TS","2017/08/04 19:09:07","新北市中和區興南路二段142巷17弄16號","121.502955","24.9833316666667","6500300","中和區"
"235048","896-TW","2017/08/04 19:09:15","新北市中和區工專路131號","121.508303333333","24.97922","6500300","中和區"
"235053","900-TW","2017/08/04 19:09:15","新北市板橋區和平路153號","121.46338","24.995575","6500300","中和區"
"235037","AAC-213","2017/08/04 19:09:13","新北市中和區秀朗路三段10巷14弄43號","121.524053333333","24.9964616666667","6500300","中和區"
"235059","AAC-215","2017/08/04 19:09:12","新北市中和區圓通路294巷13號","121.48882","24.9900066666667","6500300","中和區"
"220068","013-TV","2017/08/04 19:09:12","新北市板橋區三民路一段33號","121.47945","25.02308","6500100","板橋區"
"220086","073-UY","2017/08/04 19:09:06","新北市板橋區中正路250巷122號","121.460123333333","25.0200516666667","6500100","板橋區"
"220106","075-UY","2017/08/04 19:08:59","新北市板橋區文化路二段315號","121.472088333333","25.0297133333333","6500100","板橋區"
"220069","AAD-861","2017/08/04 19:09:15","新北市板橋區華興街83號","121.456836666667","25.0051716666667","6500100","板橋區"
"220096","120-SR","2017/08/04 19:09:11","新北市板橋區雙十路二段33巷1-1號","121.476681666667","25.02573","6500100","板橋區"
"247006","341-TH","2017/08/04 18:53:55","新北市五股區中興路三段163號","121.449288333333","25.0807733333333","6501400","蘆洲區"
"226004","205-ST","2017/08/04 19:09:05","新北市平溪區靜安路三段98號","121.770998333333","25.0360166666667","6502400","平溪區"
"223005","677-TV","2017/08/04 17:41:15","新北市石碇區小粗坑(潭邊里)9-2號","121.678606666667","24.9859966666667","6501900","石碇區"
"228002","663-BX","2017/08/04 19:09:07","新北市貢寮區龍門里復興街29-3號","121.927563333333","25.028045","6502600","貢寮區"
"228001","670-TC","2017/08/04 19:09:01","新北市貢寮區真理里新港街10號","121.92551","25.054365","6502600","貢寮區"
"228003","828-UM","2017/08/04 19:09:04","新北市貢寮區和美里和美街32-7號","121.913061666667","25.0844466666667","6502600","貢寮區"
"224010","AGQ-8101","2017/08/04 19:09:12","新北市瑞芳區汽車路10號","121.846365","25.1105333333333","6501200","瑞芳區"
"224006","676-BX","2017/08/04 19:08:57","新北市瑞芳區三爪子坑路118-2號","121.806485","25.10532","6501200","瑞芳區"
"224009","285-BY","2017/08/04 19:09:13","新北市瑞芳區長仁路50-1號","121.866268333333","25.1186616666667","6501200","瑞芳區"
"224008","275-VK","2017/08/04 18:13:57","新北市瑞芳區逢甲路72號","121.810628333333","25.108245","6501200","瑞芳區"
"224005","271-BY","2017/08/04 19:09:11","新北市瑞芳區三爪子坑路67號","121.812585","25.10734","6501200","瑞芳區"
"227003","642-TC","2017/08/04 19:08:59","新北市雙溪區平林里外平林9-4號","121.859173333333","25.0380066666667","6502500","雙溪區"
"227011","400-TW","2017/08/04 19:09:05","新北市雙溪區牡丹里中正路38號","121.864726666667","25.03842","6502500","雙溪區"
"253006","032-BX","2017/08/04 19:09:13","新北市石門區海灣新城40號","121.527325","25.2848583333333","6502200","石門區"
"253005","295-VK","2017/08/04 19:09:17","新北市石門區阿里荖33-1號","121.606561666667","25.2807533333333","6502200","石門區"
"253001","4710-YM","2017/08/04 19:08:55","新北市石門區小坑9號","121.594261666667","25.28866","6502200","石門區"
"208002","742-BX","2017/08/04 19:09:12","新北市金山區中正路71巷5號","121.633731666667","25.22145","6502700","金山區"
"208003","665-BX","2017/08/04 19:09:12","新北市金山區中正路131號","121.632513333333","25.221525","6502700","金山區"
"208001","761-BX","2017/08/04 19:09:15","新北市金山區福德街18號","121.639131666667","25.2216","6502700","金山區"
"251005","010-UM","2017/08/04 19:09:08","新北市淡水區新民街103號","121.435771666667","25.181095","6501000","淡水區"
"251002","012-UM","2017/08/04 19:09:04","新北市淡水區中山路77號","121.442675","25.1703333333333","6501000","淡水區"
"251013","180-VK","2017/08/04 19:09:06","新北市淡水區安子內12號","121.481541666667","25.2191","6501000","淡水區"
"251015","182-VK","2017/08/04 19:09:03","新北市淡水區南勢埔34號","121.484165","25.1796833333333","6501000","淡水區"
"251010","413-VK","2017/08/04 19:09:06","新北市淡水區中正路一段156巷1號","121.421168333333","25.1799483333333","6501000","淡水區"
"251012","441-VK","2017/08/04 19:09:09","新北市淡水區中山北路三段164號","121.445673333333","25.1966166666667","6501000","淡水區"
"251001","559-UM","2017/08/04 19:09:12","新北市淡水區自強路201巷39號","121.46214","25.1268366666667","6501000","淡水區"
"251009","575-R6","2017/08/04 19:09:10","新北市淡水區中山路129巷20號","121.441591666667","25.1704433333333","6501000","淡水區"
"251011","650-BX","2017/08/04 19:09:08","新北市淡水區中正東路二段143巷2弄1號","121.460738333333","25.1473433333333","6501000","淡水區"
"251003","673-BX","2017/08/04 19:09:03","新北市淡水區中山北路一段84號","121.442388333333","25.1761433333333","6501000","淡水區"
"207003","550-UM","2017/08/04 19:08:57","新北市萬里區大鵬里萬里加投24-2號","121.649136666667","25.20732","6502800","萬里區"
"207004","225-TW","2017/08/04 19:09:13","新北市萬里區萬里里瑪鋉下街46-1號","121.691516666667","25.1793283333333","6502800","萬里區"
"252002","178-VK","2017/08/04 19:09:09","新北市三芝區中正路一段3號","121.502685","25.25902","6502100","三芝區"
"252003","249-BX","2017/08/04 19:09:12","新北市三芝區錫板里南勢崗5-5號","121.480971666667","25.2630516666667","6502100","三芝區"
"252001","292-VK","2017/08/04 19:08:55","新北市三芝區長勤街45巷2號","121.500355","25.25518","6502100","三芝區"
"237004","078-UY","2017/08/04 19:09:08","新北市三峽區有木205-1號","121.438988333333","24.851495","6500900","三峽區"
"237007","153-BY","2017/08/04 19:09:09","新北市三峽區麻園10號","121.362043333333","24.9170966666667","6500900","三峽區"
"237013","252-BX","2017/08/04 19:09:02","新北市三峽區光明路69巷25號","121.376643333333","24.9292016666667","6500900","三峽區"
"237012","275-BY","2017/08/04 19:08:55","新北市三峽區三樹路222巷228弄9號","121.391505","24.9424883333333","6500900","三峽區"
"237008","302-VK","2017/08/04 19:09:06","新北市三峽區大同路127號","121.374035","24.9267583333333","6500900","三峽區"
"237014","433-BY","2017/08/04 19:09:11","新北市三峽區中山路279巷20號","121.361493333333","24.9366616666667","6500900","三峽區"
"237006","5529-G3","2017/08/04 19:09:03","新北市三峽區橫溪路124號","121.398681666667","24.9353833333333","6500900","三峽區"
"237011","572-TV","2017/08/04 18:06:44","新北市三峽區橫溪路3號","121.396085","24.936145","6500900","三峽區"
"237015","649-BX","2017/08/04 19:09:00","新北市三峽區建安73-2號","121.448226666667","24.9264383333333","6500900","三峽區"
"237010","706-TV","2017/08/04 19:09:02","新北市三峽區復興路167號","121.37024","24.9384283333333","6500900","三峽區"
"237005","AKY-6261","2017/08/04 19:09:13","新北市三峽區中山路459巷163-3號","121.34866","24.93288","6500900","三峽區"
"236072","105-UM","2017/08/04 19:09:09","新北市土城區明德路二段108號","121.44511","24.9841633333333","6501300","土城區"
"236079","166-UM","2017/08/04 19:09:05","新北市土城區龍泉路18號","121.409846666667","24.948625","6501300","土城區"
"236027","269-VK","2017/08/04 19:09:10","新北市土城區中正路56巷2號","121.443868333333","24.9752583333333","6501300","土城區"
"236015","270-VK","2017/08/04 19:09:07","新北市土城區學府路一段77號","121.456918333333","24.9882266666667","6501300","土城區"
"236039","271-VK","2017/08/04 19:09:06","新北市土城區清水路137號","121.458258333333","24.98157","6501300","土城區"
"236022","401-BY","2017/08/04 19:09:12","新北市土城區延峰街34巷2號","121.46954","24.9849116666667","6501300","土城區"
"236059","912-UM","2017/08/04 19:09:15","新北市土城區金城路二段204號","121.455055","24.9819966666667","6501300","土城區"
"236050","913-UM","2017/08/04 19:09:02","新北市土城區明德路一段398-1號","121.45364","24.9790383333333","6501300","土城區"
"236063","915-UM","2017/08/04 19:08:59","新北市土城區金城路三段93巷25號","121.466676666667","24.9886166666667","6501300","土城區"
"236055","AAC-216","2017/08/04 19:09:15","新北市土城區學成路10號","121.45337","24.9865816666667","6501300","土城區"
"242032","415-TV","2017/08/04 19:09:03","新北市新莊區新泰路357巷3弄57號","121.442105","25.0393616666667","6500500","新莊區"
"238015","755-BX","2017/08/04 19:08:52","新北市樹林區備內街158巷56號","121.408355","24.989915","6500700","樹林區"
"238023","601-UM","2017/08/04 19:09:06","新北市樹林區大慶街156號","121.397045","25.0133433333333","6500700","樹林區"
"238019","599-UM","2017/08/04 19:09:05","新北市樹林區東華街69號","121.415393333333","24.9812283333333","6500700","樹林區"
"238018","571-TV","2017/08/04 19:09:11","新北市樹林區中華路211號","121.419703333333","24.9814283333333","6500700","樹林區"
"238022","312-TH","2017/08/04 19:08:54","新北市樹林區中山路二段151巷12號","121.40683","24.9782866666667","6500700","樹林區"
"238021","311-TH","2017/08/04 17:20:46","新北市樹林區西圳街165巷20弄26號","121.395523333333","24.9601116666667","6500700","樹林區"
"238025","303-VK","2017/08/04 19:09:07","新北市樹林區中山路三段169號","121.394823333333","24.9725083333333","6500700","樹林區"
"238017","283-BY","2017/08/04 19:08:59","新北市樹林區光興街50號","121.409858333333","25.0027116666667","6500700","樹林區"
"238014","282-BY","2017/08/04 19:08:59","新北市樹林區千歲街134巷7號","121.427591666667","24.9985516666667","6500700","樹林區"
"238020","268-VK","2017/08/04 19:09:08","新北市樹林區俊英街83巷1號","121.425815","25.0080033333333","6500700","樹林區"
"238026","172-UY","2017/08/04 19:08:56","新北市樹林區佳園路一段41巷18號","121.393851666667","24.97101","6500700","樹林區"
"238016","169-UY","2017/08/04 19:09:06","新北市樹林區復興路335巷6弄9號","121.417973333333","24.9871966666667","6500700","樹林區"
"239007","AAC-297","2017/08/04 19:08:59","新北市鶯歌區大湖路326巷8號","121.346126666667","24.9702916666667","6500800","鶯歌區"
"239006","891-R6","2017/08/04 19:09:10","新北市鶯歌區鶯桃路67巷5號","121.3409","24.9524033333333","6500800","鶯歌區"
"239008","527-UM","2017/08/04 19:09:15","新北市鶯歌區國際二路4巷18號","121.339256666667","24.9735333333333","6500800","鶯歌區"
"239005","526-UM","2017/08/04 19:09:04","新北市鶯歌區東湖路15-1號","121.354988333333","24.971885","6500800","鶯歌區"
"239001","417-VK","2017/08/04 19:09:02","新北市鶯歌區鶯桃路129巷12弄8號","121.337221666667","24.9543283333333","6500800","鶯歌區"
"239003","360-BY","2017/08/04 19:08:59","新北市鶯歌區八德路37號","121.33439","24.953455","6500800","鶯歌區"
"239002","359-BY","2017/08/04 19:09:05","新北市鶯歌區湖山路63巷2號","121.339643333333","24.9759116666667","6500800","鶯歌區"
"239004","193-VK","2017/08/04 19:09:14","新北市鶯歌區二甲路33-21號","121.339825","24.938505","6500800","鶯歌區"
"221008","489-VK","2017/08/04 19:09:12","新北市汐止區康寧街428巷2號","121.630771666667","25.06796","6501100","汐止區"
"221036","130-UY","2017/08/04 19:09:09","新北市汐止區大同路二段341-1號","121.65621","25.0671416666667","6501100","汐止區"
"221015","131-UY","2017/08/04 19:09:12","新北市汐止區康寧街901號","121.65156","25.07492","6501100","汐止區"
"221010","269-BY","2017/08/04 19:09:03","新北市汐止區康寧街901號","121.651408333333","25.0750266666667","6501100","汐止區"
"221012","278-VK","2017/08/04 01:02:32","新北市汐止區汐萬路一段256巷1號","121.651958333333","25.0749583333333","6501100","汐止區"
"221023","279-VK","2017/08/04 02:12:06","新北市汐止區康寧街901號","121.651778333333","25.07496","6501100","汐止區"
"221027","281-BY","2017/08/04 19:08:59","新北市汐止區康寧街901號","121.650846666667","25.07526","6501100","汐止區"
"221038","297-VK","2017/08/04 19:09:12","新北市汐止區康寧街901號","121.650713333333","25.0753183333333","6501100","汐止區"
"221029","298-VK","2017/08/04 19:09:13","新北市汐止區汐萬路一段312號","121.650255","25.0755216666667","6501100","汐止區"
"221021","299-VK","2017/08/04 14:52:01","新北市新店區安忠路57巷13號","121.513525","24.9570333333333","6501100","汐止區"
"221031","353-TW","2017/08/04 19:09:16","新北市汐止區中興路181巷1號","121.630156666667","25.0668266666667","6501100","汐止區"
"221025","623-UM","2017/08/04 19:09:05","新北市汐止區康寧街901號","121.651476666667","25.0749616666667","6501100","汐止區"
"221033","647-BX","2017/08/04 19:08:59","新北市汐止區南勢街1巷1號","121.627001666667","25.037435","6501100","汐止區"
"221002","707-TV","2017/08/04 19:09:10","新北市汐止區大同路一段89-1號","121.624133333333","25.0546866666667","6501100","汐止區"
"221018","753-BX","2017/08/04 19:09:10","新北市汐止區汐萬路一段256巷1號","121.65168","25.0748266666667","6501100","汐止區"
"220079","145-BY","2017/08/04 19:09:15","新北市板橋區民權路302巷2號","121.457275","25.0163766666667","6500100","板橋區"
"220080","200-UY","2017/08/04 19:09:03","新北市板橋區大觀路二段7巷106號","121.450303333333","25.0029233333333","6500100","板橋區"
"220082","610-BX","2017/08/04 19:09:00","新北市板橋區滿平街65號","121.427523333333","24.989225","6500100","板橋區"
"220055","255-TC","2017/08/04 03:14:08","新北市板橋區觀光街2-2號","121.472385","25.0155283333333","6500100","板橋區"
"220056","276-BY","2017/08/04 19:09:14","新北市板橋區信義路74巷8號","121.456656666667","24.9928033333333","6500100","板橋區"
"220072","277-BY","2017/08/04 19:09:14","新北市板橋區金門街353號","121.428811666667","24.9851233333333","6500100","板橋區"
"220094","283-UM","2017/08/04 19:09:01","新北市板橋區光武街94號","121.46603","25.02871","6500100","板橋區"
"220101","285-UM","2017/08/04 19:09:14","新北市板橋區萬板路15號","121.470581666667","25.02106","6500100","板橋區"
"220053","285-VK","2017/08/04 19:09:12","新北市板橋區懷仁街10巷1號","121.475093333333","25.0195933333333","6500100","板橋區"
"220083","286-VK","2017/08/04 19:08:55","新北市板橋區大觀路一段38巷158號","121.44228","25.0045433333333","6500100","板橋區"
"220081","287-VK","2017/08/04 19:09:11","新北市板橋區光華街36號","121.453825","25.0127316666667","6500100","板橋區"
"220090","288-VK","2017/08/04 19:09:15","新北市板橋區裕民街58號","121.461378333333","25.0286366666667","6500100","板橋區"
"220061","293-UM","2017/08/04 19:09:18","新北市板橋區懷仁街87號","121.477443333333","25.0182683333333","6500100","板橋區"
"220065","295-UM","2017/08/04 19:09:01","新北市板橋區民族路219巷10號","121.469746666667","25.0077416666667","6500100","板橋區"
"220084","296-UM","2017/08/04 19:09:09","新北市板橋區大觀路三段235號","121.430678333333","24.992095","6500100","板橋區"
"220075","297-UM","2017/08/04 19:08:59","新北市板橋區南雅南路一段1巷27號","121.457311666667","25.0066316666667","6500100","板橋區"
"220062","303-R5","2017/08/04 19:09:00","新北市板橋區三民路二段245巷4弄8號","121.480925","25.01193","6500100","板橋區"
"220092","307-R5","2017/08/04 19:09:02","新北市板橋區文化路一段479巷42號","121.467993333333","25.02307","6500100","板橋區"
"220098","317-R6","2017/08/04 19:09:11","新北市板橋區四維路103巷28號","121.464591666667","25.0240633333333","6500100","板橋區"
"220064","486-VK","2017/08/04 19:09:08","新北市板橋區板新路101號","121.472663333333","25.0143283333333","6500100","板橋區"
"220089","487-VK","2017/08/04 19:09:00","新北市板橋區文化路二段503號","121.476008333333","25.0345083333333","6500100","板橋區"
"220088","491-VK","2017/08/04 19:09:06","新北市板橋區文化路二段182巷5弄13-2號","121.471933333333","25.0274833333333","6500100","板橋區"
"220035","560-BX","2017/08/04 19:09:10","新北市板橋區中正路330號","121.45477","25.0218166666667","6500100","板橋區"
"220103","561-BX","2017/08/04 19:08:57","新北市板橋區文化路一段188巷7弄45號","121.46839","25.0195383333333","6500100","板橋區"
"220071","568-UM","2017/08/04 19:09:16","新北市板橋區重慶路235號","121.46306","25.0009366666667","6500100","板橋區"
"220063","609-BX","2017/08/04 19:08:55","新北市板橋區中山路二段268號","121.47904","25.0185516666667","6500100","板橋區"
"220091","637-BX","2017/08/04 19:09:14","新北市板橋區萬板路478號","121.480025","25.0260283333333","6500100","板橋區"
"220057","686-BX","2017/08/04 19:09:14","新北市板橋區館前東路51號","121.46125","25.0074066666667","6500100","板橋區"
"220077","687-BX","2017/08/04 19:09:03","新北市板橋區大觀路二段123號","121.445895","25.0013616666667","6500100","板橋區"
"220093","689-BX","2017/08/04 19:08:57","新北市板橋區民生路三段275號","121.464183333333","25.0299266666667","6500100","板橋區"
"220054","741-BX","2017/08/04 19:08:59","新北市板橋區重慶路93巷47號","121.463385","25.0059983333333","6500100","板橋區"
"220067","829-TW","2017/08/04 19:09:11","新北市板橋區長安街236號","121.475235","25.012515","6500100","板橋區"
"220102","830-TW","2017/08/04 19:09:13","新北市板橋區田單街2巷32-3號","121.482146666667","25.0278766666667","6500100","板橋區"
"220074","895-R6","2017/08/04 19:09:08","新北市板橋區文昌街11號","121.45585","25.0102833333333","6500100","板橋區"
"220073","985-R7","2017/08/04 19:09:07","新北市板橋區中正路166號","121.456491666667","25.0169116666667","6500100","板橋區"
"220097","AAC-210","2017/08/04 19:09:14","新北市板橋區新生街89巷4號","121.458205","25.0222583333333","6500100","板橋區"
"220070","AAC-253","2017/08/04 19:09:14","新北市板橋區四川路一段140號","121.45993","25.0037883333333","6500100","板橋區"
