"lineid","car","time","location","longitude","latitude","cityid","cityname"
"234046","148-BY","2017/08/04 19:18:59","新北市永和區秀朗路二段148巷1號","121.525466666667","25.0013233333333","6500400","永和區"
"234013","149-BY","2017/08/04 19:19:11","新北市永和區信義路60號","121.51284","25.012695","6500400","永和區"
"234007","207-UY","2017/08/04 19:19:08","新北市永和區中山路一段240號","121.507545","25.0079633333333","6500400","永和區"
"234081","298-R6","2017/08/04 19:19:04","新北市永和區福和路41-1號","121.523403333333","25.00806","6500400","永和區"
"234038","336-UY","2017/08/04 19:19:10","新北市永和區民樂街41巷1號","121.52746","25.0001416666667","6500400","永和區"
"234064","337-UY","2017/08/04 19:18:55","新北市永和區永元路17巷15號","121.521286666667","25.0007783333333","6500400","永和區"
"234086","338-UY","2017/08/04 19:19:03","新北市永和區永利路38號","121.518666666667","25.0055333333333","6500400","永和區"
"234070","552-UM","2017/08/04 19:19:12","新北市永和區中正路666巷59號","121.519165","25.0091583333333","6500400","永和區"
"234054","553-UM","2017/08/04 19:18:59","新北市永和區中興街27號","121.516068333333","25.011885","6500400","永和區"
"234017","745-BX","2017/08/04 19:19:10","新北市永和區文化路90巷54號","121.512688333333","25.0167333333333","6500400","永和區"
"234030","746-BX","2017/08/04 19:19:00","新北市永和區四維街78號","121.523375","24.9983333333333","6500400","永和區"
"234061","AAD-866","2017/08/04 19:19:05","新北市永和區秀朗路一段175號","121.517015","25.0037516666667","6500400","永和區"
"234042","862-TW","2017/08/04 19:19:10","新北市永和區保平路203巷33號","121.50972","25.0050183333333","6500400","永和區"
"234050","863-TW","2017/08/04 19:19:07","新北市永和區信義路91巷2號","121.512105","25.013745","6500400","永和區"
"234026","9371-KE","2017/08/04 19:19:16","新北市永和區安樂路58巷2號","121.515023333333","24.9979583333333","6500400","永和區"
"234011","9373-KE","2017/08/04 19:19:09","新北市永和區保福路二段23巷19號","121.510105","25.011155","6500400","永和區"
"249005","172-UM","2017/08/04 19:19:16","新北市八里區中華路三段170-1號","121.392223333333","25.1303733333333","6502300","八里區"
"249001","173-UM","2017/08/04 19:18:56","新北市八里區中華路二段61-1號","121.410585","25.1526983333333","6502300","八里區"
"249003","593-UM","2017/08/04 19:19:00","新北市八里區中山路二段462號","121.399028333333","25.147195","6502300","八里區"
"248008","095-VK","2017/08/04 19:19:16","新北市五股區中興路二段83巷26-6號","121.460028333333","25.075145","6501500","五股區"
"248018","225-UY","2017/08/04 19:19:08","新北市五股區壟路5-19號","121.417623333333","25.0927166666667","6501500","五股區"
"248012","247-BX","2017/08/04 19:19:12","新北市五股區中興路四段48巷16號","121.438575","25.0834383333333","6501500","五股區"
"248010","272-BY","2017/08/04 19:19:06","新北市五股區自強路90巷66號","121.431153333333","25.071465","6501500","五股區"
"248004","677-BX","2017/08/04 19:19:09","新北市五股區五福路47號","121.433156666667","25.0897133333333","6501500","五股區"
"248002","678-BX","2017/08/04 19:19:17","新北市五股區凌雲路一段158巷14-1號","121.447908333333","25.1034883333333","6501500","五股區"
"234023","9380-KE","2017/08/04 19:19:08","新北市永和區竹林路109巷8號","121.520266666667","25.0119266666667","6500400","永和區"
"234077","969-R7","2017/08/04 19:18:59","新北市永和區民族街35-1號","121.518715","24.99908","6500400","永和區"
"234074","AAC-211","2017/08/04 19:18:59","新北市永和區竹林路104號","121.519673333333","25.011915","6500400","永和區"
"234067","AAC-212","2017/08/04 19:19:14","新北市永和區保平路50巷8弄12號","121.511521666667","25.00775","6500400","永和區"
"234003","AAC-295","2017/08/04 19:19:06","新北市永和區中山路一段110號","121.510873333333","25.010435","6500400","永和區"
"244013","069-UM","2017/08/04 19:19:03","新北市林口區麗園一街9巷1號","121.376543333333","25.0713283333333","6501700","林口區"
"244019","403-UM","2017/08/04 19:19:00","新北市林口區麗園二街81-1號","121.382078333333","25.0679566666667","6501700","林口區"
"244009","410-SL","2017/08/04 19:18:56","新北市林口區竹林路548號","121.387585","25.0845166666667","6501700","林口區"
"244023","483-VK","2017/08/04 19:19:02","新北市林口區民有街30號","121.372101666667","25.0766466666667","6501700","林口區"
"244011","701-TV","2017/08/04 19:19:01","新北市林口區文化一路二段202號","121.38311","25.080825","6501700","林口區"
"243013","AAD-798","2017/08/04 19:19:11","新北市泰山區明志路三段145巷2弄6號","121.425221666667","25.0397816666667","6501600","泰山區"
"243009","297-R6","2017/08/04 19:19:12","新北市泰山區和平街13巷11號","121.434348333333","25.0651383333333","6501600","泰山區"
"243015","380-SR","2017/08/04 19:19:06","新北市泰山區公園路44號","121.42881","25.0544266666667","6501600","泰山區"
"243014","421-VK","2017/08/04 19:19:00","新北市泰山區泰林路二段161號","121.433801666667","25.0605","6501600","泰山區"
"243010","548-UM","2017/08/04 19:19:08","新北市泰山區明志路二段32巷2-1號","121.42938","25.0535066666667","6501600","泰山區"
"243011","549-UM","2017/08/04 19:19:05","新北市泰山區貴子路15巷6弄2號","121.426698333333","25.0423716666667","6501600","泰山區"
"243012","646-TV","2017/08/04 19:19:06","新北市泰山區仁愛路94號","121.433241666667","25.0553916666667","6501600","泰山區"
"243016","680-BX","2017/08/04 19:19:06","新北市泰山區明志路三段163巷2號","121.424813333333","25.039315","6501600","泰山區"
"222003","436-BY","2017/08/04 19:19:06","新北市深坑區深南路204號","121.626633333333","25.016","6501800","深坑區"
"222002","659-BX","2017/08/04 19:19:15","新北市深坑區北深路一段210號","121.63306","25.0110083333333","6501800","深坑區"
"222001","696-SL","2017/08/04 19:19:04","新北市深坑區北深路二段48號","121.619455","25.004295","6501800","深坑區"
"231041","001-UM","2017/08/04 19:18:55","新北市新店區溪園路245-6號","121.525418333333","24.983345","6500600","新店區"
"231059","046-UY","2017/08/04 19:19:01","新北市新店區安和路三段4號","121.517916666667","24.98091","6500600","新店區"
"231061","047-UY","2017/08/04 19:19:04","新北市新店區安康路一段222號","121.523781666667","24.9635983333333","6500600","新店區"
"231060","106-UY","2017/08/04 19:19:15","新北市新店區安康路二段113號","121.512578333333","24.9617883333333","6500600","新店區"
"231051","107-UY","2017/08/04 19:19:03","新北市新店區中央路116號","121.531061666667","24.9750966666667","6500600","新店區"
"231048","108-UY","2017/08/04 19:18:56","新北市新店區中興路一段280號","121.54556","24.9684283333333","6500600","新店區"
"231053","187-VK","2017/08/04 19:19:01","新北市新店區自強路211號","121.546743333333","24.91982","6500600","新店區"
"231063","268-BY","2017/08/04 19:19:13","新北市新店區達觀路12號","121.505536666667","24.9404883333333","6500600","新店區"
"231046","278-BY","2017/08/04 19:19:05","新北市新店區華城路6號","121.530203333333","24.9603783333333","6500600","新店區"
"231050","AAD-862","2017/08/04 19:18:47","新北市新店區竹林路158-1號","121.557336666667","24.948525","6500600","新店區"
"231058","3712-VJ","2017/08/04 19:19:14","新北市新店區光明街286巷11號","121.540611666667","24.9644283333333","6500600","新店區"
"231067","4772-VM","2017/08/04 19:19:05","新北市新店區安康路二段414巷2號","121.495865","24.9577733333333","6500600","新店區"
"231065","512-UM","2017/08/04 19:18:56","新北市新店區安祥路109巷3弄104號","121.47922","24.9605066666667","6500600","新店區"
"231054","513-UM","2017/08/04 19:19:10","新北市新店區文中路31號","121.53887","24.9570166666667","6500600","新店區"
"231064","515-UM","2017/08/04 19:19:00","新北市新店區安忠路65巷7號","121.511803333333","24.9577833333333","6500600","新店區"
"231045","617-UM","2017/08/04 19:19:10","新北市新店區北宜路一段260號","121.545678333333","24.952755","6500600","新店區"
"231040","619-UM","2017/08/04 19:19:06","新北市新店區三民路43號","121.537146666667","24.9708716666667","6500600","新店區"
"231042","641-BX","2017/08/04 19:18:59","新北市新店區北宜路一段3號","121.538446666667","24.95845","6500600","新店區"
"231049","719-UM","2017/08/04 19:19:11","新北市新店區明德路62號","121.54162","24.9793533333333","6500600","新店區"
"231062","719-UY","2017/08/04 19:19:07","新北市新店區莒光路67號","121.523718333333","24.9566","6500600","新店區"
"231044","897-TW","2017/08/04 19:19:01","新北市新店區中興路三段330號","121.542006666667","24.9864216666667","6500600","新店區"
"231043","899-TW","2017/08/04 19:19:04","新北市新店區北新路二段137號","121.542901666667","24.97557","6500600","新店區"
"231066","AKT-0513","2017/08/04 19:18:56","新北市新店區安康路三段450號","121.484575","24.95133","6500600","新店區"
"241031","061-VK","2017/08/04 19:19:16","新北市三重區成功路187號","121.485633333333","25.0529933333333","6500200","三重區"
"241017","063-VK","2017/08/04 19:19:06","新北市三重區大同北路217號","121.491565","25.0660066666667","6500200","三重區"
"241026","066-VK","2017/08/04 19:19:12","新北市三重區泉州街84巷20號","121.49583","25.054565","6500200","三重區"
"241032","156-TC","2017/08/04 19:18:59","新北市三重區新生街78號","121.484181666667","25.0593116666667","6500200","三重區"
"241009","265-UM","2017/08/04 19:18:56","新北市三重區溪尾街230巷42-3號","121.486055","25.0810683333333","6500200","三重區"
"241022","267-UM","2017/08/04 19:18:55","新北市三重區中正北路66號","121.486596666667","25.0645716666667","6500200","三重區"
"241025","271-UM","2017/08/04 19:19:06","新北市三重區中正北路406號","121.47533","25.0703766666667","6500200","三重區"
"241020","412-TH","2017/08/04 19:19:13","新北市三重區永德街21號","121.489096666667","25.0727683333333","6500200","三重區"
"241035","462-BY","2017/08/04 19:19:10","新北市三重區新北大道一段7號","121.489831666667","25.0613933333333","6500200","三重區"
"241029","942-UM","2017/08/04 19:19:12","新北市三重區重安街27號","121.490988333333","25.0570716666667","6500200","三重區"
"235066","003-UY","2017/08/04 19:19:13","新北市中和區中和路125號","121.50168","25.0000533333333","6500300","中和區"
"235064","005-UY","2017/08/04 19:19:03","新北市中和區泰和街30巷4號","121.499325","25.0006466666667","6500300","中和區"
"235063","006-UY","2017/08/04 19:18:58","新北市中和區連城路249巷21弄2號","121.494081666667","24.995995","6500300","中和區"
"235056","096-UM","2017/08/04 19:19:13","新北市中和區員山路503號","121.479853333333","25.0063366666667","6500300","中和區"
"235039","097-UM","2017/08/04 19:19:09","新北市中和區自立路193號","121.524316666667","24.99125","6500300","中和區"
"235065","098-UM","2017/08/04 19:19:15","新北市中和區中山路二段136巷6弄8號","121.5022","25.0040633333333","6500300","中和區"
"235040","150-BY","2017/08/04 19:19:01","新北市中和區宜安路120號","121.51018","24.9980816666667","6500300","中和區"
"235058","151-BY","2017/08/04 19:19:18","新北市中和區連城路477巷6弄4號","121.482935","24.99509","6500300","中和區"
"235055","183-VK","2017/08/04 19:19:01","新北市中和區德光路85號","121.469166666667","25.0036116666667","6500300","中和區"
"235038","185-VK","2017/08/04 19:19:02","新北市中和區大仁街20巷22號","121.518663333333","24.9931916666667","6500300","中和區"
"235049","186-VK","2017/08/04 19:19:01","新北市中和區景新街239號","121.508165","24.9944783333333","6500300","中和區"
"235067","255-BX","2017/08/04 19:19:04","新北市中和區新生街177巷14號","121.48421","25.0001983333333","6500300","中和區"
"235044","293-VK","2017/08/04 19:19:03","新北市中和區中興街235巷2號","121.50071","24.9894833333333","6500300","中和區"
"235072","301-VK","2017/08/04 19:19:04","新北市中和區連城路199號","121.49464","24.9980183333333","6500300","中和區"
"235043","352-BY","2017/08/04 19:19:00","新北市中和區景平路404號","121.509046666667","24.9930216666667","6500300","中和區"
"235051","376-QA","2017/08/04 19:19:13","新北市中和區和平街24巷4號","121.509993333333","24.9905","6500300","中和區"
"235068","377-QA","2017/08/04 19:19:14","新北市中和區連勝街38巷16號","121.497796666667","24.997915","6500300","中和區"
"235061","378-QA","2017/08/04 19:19:03","新北市中和區員山路160號","121.481448333333","24.9995766666667","6500300","中和區"
"235069","4980-A6","2017/08/04 19:19:14","新北市中和區橋和路150號","121.493705","25.0062633333333","6500300","中和區"
"235042","551-UM","2017/08/04 19:19:06","新北市中和區大勇街60巷14弄2號","121.51863","24.9945366666667","6500300","中和區"
"235070","558-UM","2017/08/04 19:19:11","新北市中和區中和路127號","121.501665","24.9999116666667","6500300","中和區"
"235045","565-BX","2017/08/04 19:19:04","新北市中和區景新街437巷8號","121.513823333333","24.98914","6500300","中和區"
"235054","640-BX","2017/08/04 19:18:58","新北市中和區民德路141號","121.468731666667","25.0005516666667","6500300","中和區"
"235060","647-TV","2017/08/04 19:19:04","新北市中和區員山路469巷1號","121.480283333333","25.004455","6500300","中和區"
"235047","732-UM","2017/08/04 19:18:59","新北市中和區和平街42號","121.509023333333","24.9906066666667","6500300","中和區"
"235046","733-UM","2017/08/04 19:19:04","新北市中和區忠孝街2巷2-7號","121.510181666667","24.9822283333333","6500300","中和區"
"235071","783-BX","2017/08/04 19:18:57","新北市中和區連城路469巷79弄22號","121.483985","24.9936766666667","6500300","中和區"
"235057","801-TS","2017/08/04 19:19:01","新北市中和區民利街29號","121.480053333333","24.9990283333333","6500300","中和區"
"235041","802-TS","2017/08/04 19:18:57","新北市中和區景安路10號","121.507635","24.999105","6500300","中和區"
"235052","805-TS","2017/08/04 19:19:07","新北市中和區興南路二段128巷4號","121.504048333333","24.983655","6500300","中和區"
"235048","896-TW","2017/08/04 19:19:15","新北市中和區忠孝街64號","121.511881666667","24.9839383333333","6500300","中和區"
"235053","900-TW","2017/08/04 19:19:15","新北市中和區華福街71巷7-2號","121.467193333333","24.9969416666667","6500300","中和區"
"235037","AAC-213","2017/08/04 19:19:13","新北市中和區秀朗路三段60巷9號","121.525768333333","24.9950533333333","6500300","中和區"
"235059","AAC-215","2017/08/04 19:19:12","新北市中和區錦和路195巷14號","121.491376666667","24.9909483333333","6500300","中和區"
"220068","013-TV","2017/08/04 19:19:12","新北市板橋區三民路一段1巷58號","121.480826666667","25.02472","6500100","板橋區"
"220086","073-UY","2017/08/04 19:19:05","新北市板橋區中正路216巷70號","121.457861666667","25.0189083333333","6500100","板橋區"
"220106","075-UY","2017/08/04 19:19:16","新北市板橋區雙十路三段60號","121.470778333333","25.03164","6500100","板橋區"
"220069","AAD-861","2017/08/04 19:19:15","新北市板橋區華興街3號","121.459225","25.0046383333333","6500100","板橋區"
"220096","120-SR","2017/08/04 19:19:11","新北市板橋區大同街26巷1號","121.478071666667","25.0272016666667","6500100","板橋區"
"247006","341-TH","2017/08/04 18:53:55","新北市五股區中興路三段163號","121.449288333333","25.0807733333333","6501400","蘆洲區"
"226004","205-ST","2017/08/04 19:19:05","新北市平溪區十分里十分街150號","121.777725","25.043315","6502400","平溪區"
"223005","677-TV","2017/08/04 17:41:15","新北市石碇區小粗坑(潭邊里)9-2號","121.678606666667","24.9859966666667","6501900","石碇區"
"228002","663-BX","2017/08/04 19:19:07","新北市貢寮區龍門里復興街29-3號","121.927551666667","25.0280516666667","6502600","貢寮區"
"228001","670-TC","2017/08/04 19:19:01","新北市貢寮區真理里新港街10號","121.925533333333","25.05437","6502600","貢寮區"
"228003","828-UM","2017/08/04 19:19:04","新北市貢寮區和美里和美街22-1號","121.91281","25.0826516666667","6502600","貢寮區"
"224010","AGQ-8101","2017/08/04 19:18:32","新北市瑞芳區汽車路9-7號","121.845121666667","25.1098633333333","6501200","瑞芳區"
"224006","676-BX","2017/08/04 19:14:57","新北市瑞芳區中山路153-1號","121.802398333333","25.1064633333333","6501200","瑞芳區"
"224009","285-BY","2017/08/04 19:19:13","新北市瑞芳區洞頂路155-7號","121.861576666667","25.12186","6501200","瑞芳區"
"224008","275-VK","2017/08/04 18:13:57","新北市瑞芳區逢甲路72號","121.810628333333","25.108245","6501200","瑞芳區"
"227003","642-TC","2017/08/04 19:18:59","新北市雙溪區平林里梅竹蹊43號","121.86011","25.0357966666667","6502500","雙溪區"
"227011","400-TW","2017/08/04 19:19:12","新北市雙溪區新基里新基北街33號","121.869115","25.038335","6502500","雙溪區"
"253006","032-BX","2017/08/04 19:19:13","新北市石門區崁子腳26號","121.535236666667","25.2910833333333","6502200","石門區"
"253005","295-VK","2017/08/04 19:19:17","新北市石門區阿里荖4-7號","121.611653333333","25.2792983333333","6502200","石門區"
"253001","4710-YM","2017/08/04 19:19:15","新北市石門區中山路64-1號","121.567463333333","25.29041","6502200","石門區"
"208002","742-BX","2017/08/04 19:19:12","新北市金山區環金路376巷1號","121.631956666667","25.22219","6502700","金山區"
"208003","665-BX","2017/08/04 19:19:12","新北市金山區中山路117號","121.639473333333","25.2196166666667","6502700","金山區"
"208001","761-BX","2017/08/04 19:19:14","新北市金山區民生路69號","121.640171666667","25.2196483333333","6502700","金山區"
"251005","010-UM","2017/08/04 19:19:09","新北市淡水區原德路25號","121.442206666667","25.1715816666667","6501000","淡水區"
"251002","012-UM","2017/08/04 19:19:05","新北市淡水區中正路28巷1號","121.433126666667","25.1745933333333","6501000","淡水區"
"251013","180-VK","2017/08/04 19:18:46","新北市淡水區安子內12號","121.481546666667","25.219085","6501000","淡水區"
"251015","182-VK","2017/08/04 19:19:03","新北市淡水區山子邊16巷5號","121.485873333333","25.1826166666667","6501000","淡水區"
"251010","413-VK","2017/08/04 19:19:06","新北市淡水區沙崙路28號","121.421498333333","25.1813733333333","6501000","淡水區"
"251012","441-VK","2017/08/04 19:19:09","新北市淡水區中山北路三段164號","121.445673333333","25.1966066666667","6501000","淡水區"
"251001","559-UM","2017/08/04 19:19:12","新北市淡水區自強路201巷39號","121.462156666667","25.1268116666667","6501000","淡水區"
"251009","575-R6","2017/08/04 19:19:10","新北市淡水區大仁街69號","121.442955","25.1763383333333","6501000","淡水區"
"251011","650-BX","2017/08/04 19:19:08","新北市淡水區中正東路二段143巷2弄1號","121.460731666667","25.1473483333333","6501000","淡水區"
"251003","673-BX","2017/08/04 19:19:03","新北市淡水區中山路164號","121.441143333333","25.1738266666667","6501000","淡水區"
"207003","550-UM","2017/08/04 19:19:17","新北市萬里區大鵬里萬里加投79-3號","121.647376666667","25.21234","6502800","萬里區"
"207004","225-TW","2017/08/04 19:19:05","新北市萬里區萬里里成功新村44號","121.687731666667","25.174615","6502800","萬里區"
"252002","178-VK","2017/08/04 19:19:09","新北市三芝區中正路一段1號","121.502631666667","25.259105","6502100","三芝區"
"252003","249-BX","2017/08/04 19:19:15","新北市三芝區埔坪里埔頭坑41號","121.504448333333","25.2644966666667","6502100","三芝區"
"252001","292-VK","2017/08/04 19:19:15","新北市三芝區長勤街9巷9弄2號","121.50177","25.2549633333333","6502100","三芝區"
"237004","078-UY","2017/08/04 19:19:08","新北市三峽區有木206號","121.43919","24.8515016666667","6500900","三峽區"
"237007","153-BY","2017/08/04 19:19:09","新北市三峽區二鬮路178號","121.359091666667","24.9068666666667","6500900","三峽區"
"237009","210-TH","2017/08/04 19:19:03","新北市三峽區民生街219號","121.371455","24.93485","6500900","三峽區"
"237013","252-BX","2017/08/04 19:19:13","新北市三峽區光明路75巷31號","121.377698333333","24.9283833333333","6500900","三峽區"
"237012","275-BY","2017/08/04 19:19:15","新北市三峽區三樹路222巷236弄8-3號","121.3914","24.9429616666667","6500900","三峽區"
"237008","302-VK","2017/08/04 19:19:06","新北市三峽區光明路106巷51號","121.375345","24.9268183333333","6500900","三峽區"
"237014","433-BY","2017/08/04 19:19:11","新北市三峽區中山路63巷8號","121.366905","24.9343316666667","6500900","三峽區"
"237006","5529-G3","2017/08/04 19:19:03","新北市三峽區大同路39號","121.376543333333","24.928135","6500900","三峽區"
"237011","572-TV","2017/08/04 19:16:14","新北市三峽區中正路一段104號","121.37423","24.9295533333333","6500900","三峽區"
"237015","649-BX","2017/08/04 19:19:00","新北市三峽區成福路280號","121.42834","24.9233233333333","6500900","三峽區"
"237005","AKY-6261","2017/08/04 19:19:13","新北市三峽區中山路459巷36號","121.357195","24.9375366666667","6500900","三峽區"
"236072","105-UM","2017/08/04 19:19:09","新北市土城區學成路151號","121.448403333333","24.989335","6501300","土城區"
"236079","166-UM","2017/08/04 19:19:05","新北市土城區中央路四段311號","121.411056666667","24.951255","6501300","土城區"
"236027","269-VK","2017/08/04 19:19:12","新北市土城區中央路二段149巷16號","121.442916666667","24.976595","6501300","土城區"
"236015","270-VK","2017/08/04 19:19:07","新北市土城區學府路一段35號","121.457946666667","24.9883766666667","6501300","土城區"
"236022","401-BY","2017/08/04 19:19:11","新北市土城區峰廷街10號","121.468698333333","24.9877166666667","6501300","土城區"
"236059","912-UM","2017/08/04 19:19:15","新北市土城區金城路一段131號","121.444805","24.973685","6501300","土城區"
"236050","913-UM","2017/08/04 19:19:02","新北市土城區明德路一段398-1號","121.45366","24.979055","6501300","土城區"
"242032","415-TV","2017/08/04 19:19:03","新北市新莊區三和路18-25號","121.441808333333","25.038985","6500500","新莊區"
"238015","755-BX","2017/08/04 19:19:12","新北市樹林區備內街1巷39-12號","121.411808333333","24.98558","6500700","樹林區"
"238023","601-UM","2017/08/04 19:19:06","新北市樹林區三興路41號","121.395948333333","25.01452","6500700","樹林區"
"238019","599-UM","2017/08/04 19:19:03","新北市樹林區東榮街54號","121.416951666667","24.9832766666667","6500700","樹林區"
"238018","571-TV","2017/08/04 19:19:11","新北市樹林區太平路48號","121.418991666667","24.9825516666667","6500700","樹林區"
"238024","5061-A6","2017/08/04 19:19:12","新北市樹林區福德街7號","121.401023333333","24.975665","6500700","樹林區"
"238022","312-TH","2017/08/04 19:18:54","新北市樹林區中山路二段151巷6弄3號","121.406495","24.9783166666667","6500700","樹林區"
"238021","311-TH","2017/08/04 17:20:46","新北市樹林區西圳街165巷20弄26號","121.395523333333","24.9601116666667","6500700","樹林區"
"238025","303-VK","2017/08/04 19:19:06","新北市樹林區中華路190-6號","121.410011666667","24.9804966666667","6500700","樹林區"
"238017","283-BY","2017/08/04 19:18:39","新北市樹林區光興街376巷1號","121.406268333333","25.0056816666667","6500700","樹林區"
"238014","282-BY","2017/08/04 19:18:59","新北市樹林區中正路19號","121.427663333333","24.999355","6500700","樹林區"
"238020","268-VK","2017/08/04 19:19:08","新北市樹林區俊英街83巷1號","121.42579","25.0079766666667","6500700","樹林區"
"238026","172-UY","2017/08/04 19:18:56","新北市樹林區佳園路二段26號","121.39163","24.9631233333333","6500700","樹林區"
"238016","169-UY","2017/08/04 19:18:45","新北市樹林區復興路385號","121.416406666667","24.9866383333333","6500700","樹林區"
"239007","AAC-297","2017/08/04 19:18:59","新北市鶯歌區大湖路326巷31號","121.346356666667","24.9700983333333","6500800","鶯歌區"
"239006","891-R6","2017/08/04 19:18:50","新北市鶯歌區永昌街77號","121.340955","24.949875","6500800","鶯歌區"
"239008","527-UM","2017/08/04 19:18:55","新北市鶯歌區大湖路333號","121.341631666667","24.9725733333333","6500800","鶯歌區"
"239005","526-UM","2017/08/04 19:19:04","新北市鶯歌區中湖街305巷1號","121.347551666667","24.9776583333333","6500800","鶯歌區"
"239001","417-VK","2017/08/04 19:19:02","新北市鶯歌區鶯桃路永新巷36號","121.338961666667","24.9518366666667","6500800","鶯歌區"
"239003","360-BY","2017/08/04 19:18:59","新北市鶯歌區建國路240號","121.348078333333","24.953475","6500800","鶯歌區"
"239002","359-BY","2017/08/04 19:19:05","新北市鶯歌區大湖路283號","121.345006666667","24.973365","6500800","鶯歌區"
"239004","193-VK","2017/08/04 19:19:07","新北市鶯歌區二甲路佳美巷13號","121.337345","24.9341183333333","6500800","鶯歌區"
"221008","489-VK","2017/08/04 19:19:12","新北市汐止區康寧街302-1號","121.626068333333","25.0669766666667","6501100","汐止區"
"221036","130-UY","2017/08/04 19:19:09","新北市汐止區汐萬路一段256巷1號","121.651775","25.07481","6501100","汐止區"
"221015","131-UY","2017/08/04 19:19:12","新北市汐止區康寧街901號","121.651551666667","25.0749316666667","6501100","汐止區"
"221010","269-BY","2017/08/04 19:19:03","新北市汐止區康寧街901號","121.651421666667","25.0750183333333","6501100","汐止區"
"221012","278-VK","2017/08/04 01:02:32","新北市汐止區汐萬路一段256巷1號","121.651958333333","25.0749583333333","6501100","汐止區"
"221023","279-VK","2017/08/04 02:12:06","新北市汐止區康寧街901號","121.651778333333","25.07496","6501100","汐止區"
"221027","281-BY","2017/08/04 19:18:59","新北市汐止區康寧街901號","121.650795","25.0752583333333","6501100","汐止區"
"221038","297-VK","2017/08/04 19:19:12","新北市汐止區康寧街901號","121.65071","25.0752783333333","6501100","汐止區"
"221029","298-VK","2017/08/04 19:19:13","新北市汐止區康寧街901號","121.651583333333","25.07497","6501100","汐止區"
"221021","299-VK","2017/08/04 14:52:01","新北市新店區安忠路57巷13號","121.513525","24.9570333333333","6501100","汐止區"
"221031","353-TW","2017/08/04 19:18:57","新北市汐止區汐萬路一段256巷3號","121.65256","25.0745233333333","6501100","汐止區"
"221025","623-UM","2017/08/04 19:19:05","新北市汐止區康寧街901號","121.651326666667","25.0750833333333","6501100","汐止區"
"221033","647-BX","2017/08/04 19:18:59","新北市汐止區南勢街1巷1號","121.62696","25.0373683333333","6501100","汐止區"
"221002","707-TV","2017/08/04 19:19:11","新北市汐止區大同路一段390號","121.639625","25.0597766666667","6501100","汐止區"
"221018","753-BX","2017/08/04 19:19:10","新北市汐止區汐萬路一段256巷1號","121.651688333333","25.0748183333333","6501100","汐止區"
"220079","145-BY","2017/08/04 19:19:15","新北市板橋區民權路202巷32號","121.460686666667","25.0173666666667","6500100","板橋區"
"220080","200-UY","2017/08/04 19:19:00","新北市板橋區大觀路二段7巷109-4號","121.450566666667","25.0028","6500100","板橋區"
"220082","610-BX","2017/08/04 19:19:00","新北市板橋區溪崑二街85號","121.427371666667","24.9896616666667","6500100","板橋區"
"220055","255-TC","2017/08/04 03:14:08","新北市板橋區觀光街2-2號","121.472385","25.0155283333333","6500100","板橋區"
"220056","276-BY","2017/08/04 19:19:14","新北市板橋區信義路182號","121.459421666667","24.9914133333333","6500100","板橋區"
"220072","277-BY","2017/08/04 19:19:14","新北市板橋區金門街260巷23號","121.429441666667","24.9866283333333","6500100","板橋區"
"220094","283-UM","2017/08/04 19:19:15","新北市板橋區吳鳳路82號","121.46697","25.0312383333333","6500100","板橋區"
"220101","285-UM","2017/08/04 19:19:04","新北市板橋區莒光路165巷10號","121.474081666667","25.0241783333333","6500100","板橋區"
"220053","285-VK","2017/08/04 19:19:12","新北市板橋區永豐街146號","121.478113333333","25.021265","6500100","板橋區"
"220083","286-VK","2017/08/04 19:19:15","新北市板橋區大觀路二段174巷173弄12號","121.441358333333","25.0038716666667","6500100","板橋區"
"220081","287-VK","2017/08/04 19:19:11","新北市板橋區南雅西路二段90號","121.452468333333","25.0111066666667","6500100","板橋區"
"220090","288-VK","2017/08/04 19:19:15","新北市板橋區長江路一段106巷13弄28號","121.461115","25.0295483333333","6500100","板橋區"
"220061","293-UM","2017/08/04 19:19:11","新北市板橋區三民路二段21巷30號","121.480395","25.018215","6500100","板橋區"
"220065","295-UM","2017/08/04 19:19:01","新北市板橋區民族路129巷10號","121.467648333333","25.008445","6500100","板橋區"
"220084","296-UM","2017/08/04 19:19:09","新北市板橋區溪崑二街66巷34號","121.427153333333","24.9910483333333","6500100","板橋區"
"220075","297-UM","2017/08/04 19:18:59","新北市板橋區南雅西路一段116號","121.452471666667","25.0064466666667","6500100","板橋區"
"220062","303-R5","2017/08/04 19:19:03","新北市板橋區三民路二段居仁巷1弄36號","121.480418333333","25.01359","6500100","板橋區"
"220092","307-R5","2017/08/04 19:19:02","新北市板橋區光武街48巷16號","121.467748333333","25.0267966666667","6500100","板橋區"
"220098","317-R6","2017/08/04 19:19:11","新北市板橋區民有街75號","121.465073333333","25.0271083333333","6500100","板橋區"
"220064","486-VK","2017/08/04 19:19:08","新北市板橋區板新路128號","121.470925","25.015505","6500100","板橋區"
"220089","487-VK","2017/08/04 19:19:02","新北市板橋區文化路二段59號","121.469161666667","25.0251816666667","6500100","板橋區"
"220088","491-VK","2017/08/04 19:19:16","新北市板橋區雙十路二段143號","121.474885","25.0279883333333","6500100","板橋區"
"220035","560-BX","2017/08/04 19:19:02","新北市板橋區中正路433巷27號","121.453236666667","25.0236216666667","6500100","板橋區"
"220103","561-BX","2017/08/04 19:18:57","新北市板橋區介壽街22-1號","121.467671666667","25.0200416666667","6500100","板橋區"
"220071","568-UM","2017/08/04 19:19:19","新北市板橋區和平路233號","121.465281666667","24.9983516666667","6500100","板橋區"
"220063","609-BX","2017/08/04 19:19:08","新北市板橋區三民路二段201號","121.479131666667","25.0137883333333","6500100","板橋區"
"220091","637-BX","2017/08/04 19:19:14","新北市板橋區萬板路456號","121.47936","25.0257166666667","6500100","板橋區"
"220057","686-BX","2017/08/04 19:19:14","新北市板橋區重慶路293號","121.463323333333","24.9993666666667","6500100","板橋區"
"220077","687-BX","2017/08/04 19:19:03","新北市板橋區大觀路一段28巷88號","121.449768333333","25.0109883333333","6500100","板橋區"
"220093","689-BX","2017/08/04 19:19:16","新北市板橋區文化路一段339號","121.466506666667","25.0206466666667","6500100","板橋區"
"220054","741-BX","2017/08/04 19:18:59","新北市板橋區重慶路64號","121.461663333333","25.0067733333333","6500100","板橋區"
"220067","829-TW","2017/08/04 19:19:11","新北市板橋區長安街138巷7弄10號","121.47344","25.00844","6500100","板橋區"
"220102","830-TW","2017/08/04 19:18:45","新北市板橋區田單街25號","121.482233333333","25.0289883333333","6500100","板橋區"
"220074","895-R6","2017/08/04 19:19:16","新北市板橋區中正路自強新村45-1號","121.454746666667","25.01391","6500100","板橋區"
"220073","985-R7","2017/08/04 19:19:07","新北市板橋區新生街92號","121.45819","25.0217916666667","6500100","板橋區"
"220097","AAC-210","2017/08/04 19:19:14","新北市板橋區幸福路49號","121.461248333333","25.01985","6500100","板橋區"
"220070","AAC-253","2017/08/04 19:19:08","新北市板橋區四川路一段367號","121.458301666667","24.999685","6500100","板橋區"
