"lineid","car","time","location","longitude","latitude","cityid","cityname"
"234046","148-BY","2017/08/04 20:08:59","新北市永和區成功路一段20號","121.527033333333","25.0050033333333","6500400","永和區"
"234013","149-BY","2017/08/04 20:09:11","新北市永和區永貞路415號","121.507361666667","25.0093583333333","6500400","永和區"
"234007","207-UY","2017/08/04 20:09:08","新北市永和區保順路37巷8號","121.503015","25.0106083333333","6500400","永和區"
"234081","298-R6","2017/08/04 20:08:59","新北市永和區國中路86巷1號","121.524645","25.0061316666667","6500400","永和區"
"234038","336-UY","2017/08/04 20:09:10","新北市永和區成功路一段93巷21弄2號","121.52833","25.0026466666667","6500400","永和區"
"234064","337-UY","2017/08/04 20:08:55","新北市永和區永利路138號","121.521956666667","25.0028983333333","6500400","永和區"
"234086","338-UY","2017/08/04 20:09:04","新北市永和區福和路46號","121.523615","25.008265","6500400","永和區"
"234070","552-UM","2017/08/04 20:09:12","新北市永和區永利路21號","121.518013333333","25.0062166666667","6500400","永和區"
"234054","553-UM","2017/08/04 20:08:59","新北市永和區永和路二段310號","121.51619","25.016085","6500400","永和區"
"234017","745-BX","2017/08/04 20:09:09","新北市永和區永和路二段243號","121.515756666667","25.0148933333333","6500400","永和區"
"234030","746-BX","2017/08/04 20:09:00","新北市中和區立人街14巷33號","121.51938","24.9954616666667","6500400","永和區"
"234061","AAD-866","2017/08/04 20:09:05","新北市永和區中正路151巷14號","121.515556666667","24.9988233333333","6500400","永和區"
"234042","862-TW","2017/08/04 20:09:10","新北市永和區雙和街60號","121.50897","25.0033383333333","6500400","永和區"
"234050","863-TW","2017/08/04 20:09:07","新北市永和區環河西路二段39號","121.507381666667","25.0155516666667","6500400","永和區"
"234011","9373-KE","2017/08/04 20:09:09","新北市永和區仁愛路352巷122弄11號","121.500618333333","25.0088366666667","6500400","永和區"
"249005","172-UM","2017/08/04 20:08:57","新北市八里區下罟子61-1號","121.387181666667","25.1364","6502300","八里區"
"249001","173-UM","2017/08/04 20:09:08","新北市八里區中華路二段249-1號","121.403926666667","25.1482983333333","6502300","八里區"
"249004","303-UY","2017/08/04 20:09:11","新北市八里區中山路一段189巷5號","121.412011666667","25.1580616666667","6502300","八里區"
"249002","305-UY","2017/08/04 20:09:07","新北市八里區龍米路一段3-6號","121.457136666667","25.11763","6502300","八里區"
"249003","593-UM","2017/08/04 20:09:00","新北市八里區中山路二段540巷28號","121.397065","25.146975","6502300","八里區"
"248014","025-BX","2017/08/04 20:09:11","新北市五股區成泰路二段147巷22號","121.438628333333","25.0867616666667","6501500","五股區"
"248016","026-BX","2017/08/04 20:09:04","新北市五股區成泰路三段577巷80弄72號","121.448956666667","25.1048166666667","6501500","五股區"
"248008","095-VK","2017/08/04 20:09:16","新北市五股區中興路一段1巷12弄1號","121.469296666667","25.0713483333333","6501500","五股區"
"248018","225-UY","2017/08/04 20:09:08","新北市五股區自強路137號","121.432195","25.0697016666667","6501500","五股區"
"248012","247-BX","2017/08/04 20:09:12","新北市五股區民義路一段212號","121.430505","25.08949","6501500","五股區"
"248010","272-BY","2017/08/04 20:09:06","新北市五股區成泰路一段7巷38-3號","121.432476666667","25.0674916666667","6501500","五股區"
"248004","677-BX","2017/08/04 20:09:09","新北市五股區成泰路一段106-1號","121.435735","25.07182","6501500","五股區"
"248002","678-BX","2017/08/04 20:09:04","新北市五股區成泰路三段323-1號","121.448078333333","25.0950283333333","6501500","五股區"
"234023","9380-KE","2017/08/04 20:09:08","新北市永和區復興街16巷5號","121.515773333333","25.012495","6500400","永和區"
"234077","969-R7","2017/08/04 20:08:59","新北市永和區智光街107巷15號","121.515888333333","24.9958983333333","6500400","永和區"
"234074","AAC-211","2017/08/04 20:08:59","新北市永和區豫溪街185號","121.522478333333","25.01037","6500400","永和區"
"234067","AAC-212","2017/08/04 20:09:14","新北市永和區永貞路358號","121.510226666667","25.0065433333333","6500400","永和區"
"234003","AAC-295","2017/08/04 20:09:07","新北市永和區中正路620號","121.517053333333","25.0078683333333","6500400","永和區"
"243013","AAD-798","2017/08/04 20:09:10","新北市泰山區明志路三段74巷21號","121.424143333333","25.041675","6501600","泰山區"
"243009","297-R6","2017/08/04 20:09:12","新北市泰山區泰林路二段138號","121.434255","25.0598383333333","6501600","泰山區"
"243015","380-SR","2017/08/04 20:09:06","新北市泰山區明志路一段303號","121.431556666667","25.0592566666667","6501600","泰山區"
"243014","421-VK","2017/08/04 20:09:06","新北市泰山區明志路一段94號","121.43346","25.0640333333333","6501600","泰山區"
"243010","548-UM","2017/08/04 20:09:08","新北市泰山區明志路二段214巷18弄35號","121.426575","25.0501416666667","6501600","泰山區"
"243011","549-UM","2017/08/04 20:09:05","新北市泰山區德安街2號","121.419186666667","25.032025","6501600","泰山區"
"243012","646-TV","2017/08/04 20:09:06","新北市泰山區楓江路46巷12號","121.435343333333","25.062025","6501600","泰山區"
"243016","680-BX","2017/08/04 20:09:12","新北市泰山區明志路三段472號","121.420961666667","25.0318233333333","6501600","泰山區"
"222003","436-BY","2017/08/04 20:09:00","新北市深坑區埔新街62號","121.62011","25.0024166666667","6501800","深坑區"
"222002","659-BX","2017/08/04 20:09:15","新北市深坑區北深路三段192巷9號","121.601956666667","25.0041916666667","6501800","深坑區"
"222001","696-SL","2017/08/04 20:09:04","新北市深坑區北深路三段187號","121.601333333333","25.0036066666667","6501800","深坑區"
"231041","001-UM","2017/08/04 20:09:15","新北市新店區中正路468號","121.534035","24.97941","6500600","新店區"
"231056","0291-UT","2017/08/04 20:09:05","新北市新店區北新路二段71號","121.542838333333","24.97357","6500600","新店區"
"231059","046-UY","2017/08/04 20:09:01","新北市新店區安德街38號","121.511496666667","24.96259","6500600","新店區"
"231061","047-UY","2017/08/04 20:09:04","新北市新店區安興路32號","121.515683333333","24.9703416666667","6500600","新店區"
"231060","106-UY","2017/08/04 20:09:15","新北市新店區安康路三段206號","121.488795","24.9517716666667","6500600","新店區"
"231051","107-UY","2017/08/04 20:09:03","新北市新店區中央六街3號","121.530406666667","24.9744416666667","6500600","新店區"
"231048","108-UY","2017/08/04 20:08:56","新北市新店區寶橋路61號","121.545371666667","24.9748166666667","6500600","新店區"
"231053","187-VK","2017/08/04 20:09:01","新北市新店區新烏路三段寶島巷2弄3號","121.552003333333","24.898645","6500600","新店區"
"231057","256-BX","2017/08/04 20:08:58","新北市新店區花園一路一段2號","121.553153333333","24.93239","6500600","新店區"
"231063","268-BY","2017/08/04 20:09:13","新北市新店區黎明路53巷1號","121.502313333333","24.9486966666667","6500600","新店區"
"231055","3713-VJ","2017/08/04 20:09:03","新北市新店區中華路42巷11號","121.540465","24.9686466666667","6500600","新店區"
"231067","4772-VM","2017/08/04 20:09:05","新北市新店區秀山路51號","121.530788333333","24.96076","6500600","新店區"
"231065","512-UM","2017/08/04 20:08:56","新北市新店區安祥路106巷195號","121.474228333333","24.9601366666667","6500600","新店區"
"231054","513-UM","2017/08/04 20:09:09","新北市新店區檳榔路40號","121.54154","24.9637566666667","6500600","新店區"
"231064","515-UM","2017/08/04 20:09:00","新北市新店區安光路10-1號","121.513715","24.9642083333333","6500600","新店區"
"231045","617-UM","2017/08/04 20:09:11","新北市新店區北宜路一段178號","121.540755","24.952975","6500600","新店區"
"231040","619-UM","2017/08/04 20:09:06","新北市新店區中正路104號","121.543165","24.9704683333333","6500600","新店區"
"231042","641-BX","2017/08/04 20:08:59","新北市新店區中興路二段224號","121.548033333333","24.9751316666667","6500600","新店區"
"231068","718-UY","2017/08/04 20:09:09","新北市新店區北新路一段98號","121.542086666667","24.96918","6500600","新店區"
"231049","719-UM","2017/08/04 20:09:11","新北市新店區北新路二段139巷9-1號","121.542175","24.9755566666667","6500600","新店區"
"231062","719-UY","2017/08/04 20:09:07","新北市新店區安康路一段148號","121.526391666667","24.9629083333333","6500600","新店區"
"231044","897-TW","2017/08/04 20:09:01","新北市新店區寶元路一段15巷11號","121.542031666667","24.9870683333333","6500600","新店區"
"231043","899-TW","2017/08/04 20:09:04","新北市新店區中正路309號","121.53663","24.9749466666667","6500600","新店區"
"231066","AKT-0513","2017/08/04 20:09:16","新北市新店區安民街263號","121.517445","24.9727283333333","6500600","新店區"
"241011","013-R5","2017/08/04 20:09:15","新北市三重區龍門路174號","121.499068333333","25.0732016666667","6500200","三重區"
"241028","022-UY","2017/08/04 20:09:04","新北市三重區仁化街109號","121.494516666667","25.05789","6500200","三重區"
"241008","059-VK","2017/08/04 20:09:10","新北市三重區永福街197巷35號","121.478255","25.074235","6500200","三重區"
"241005","060-VK","2017/08/04 20:09:01","新北市三重區五華街180巷21號","121.488248333333","25.0856483333333","6500200","三重區"
"241031","061-VK","2017/08/04 20:09:16","新北市三重區過圳街9-1號","121.488811666667","25.0599933333333","6500200","三重區"
"241015","062-VK","2017/08/04 20:09:10","新北市三重區福德北路43號","121.50231","25.0649183333333","6500200","三重區"
"241017","063-VK","2017/08/04 20:09:06","新北市三重區中正北路105號","121.489445","25.0633316666667","6500200","三重區"
"241024","065-VK","2017/08/04 20:09:01","新北市三重區後竹圍街285號","121.479096666667","25.0699783333333","6500200","三重區"
"241026","066-VK","2017/08/04 20:09:12","新北市三重區福德南路69號","121.502231666667","25.0602766666667","6500200","三重區"
"241002","090-VK","2017/08/04 20:09:07","新北市三重區仁忠街31號","121.495855","25.082","6500200","三重區"
"241003","091-VK","2017/08/04 20:09:12","新北市三重區仁愛街423-1號","121.490508333333","25.08155","6500200","三重區"
"241032","156-TC","2017/08/04 20:08:59","新北市三重區捷運路61號","121.483463333333","25.0556583333333","6500200","三重區"
"241009","265-UM","2017/08/04 20:09:16","新北市三重區永福街125巷15-1號","121.47784","25.07743","6500200","三重區"
"241016","266-UM","2017/08/04 20:09:03","新北市三重區中正北路23號","121.492165","25.061395","6500200","三重區"
"241022","267-UM","2017/08/04 20:08:55","新北市三重區新北大道一段17號","121.487971666667","25.061215","6500200","三重區"
"241013","270-UM","2017/08/04 20:09:02","新北市三重區三和路三段139巷40號","121.494128333333","25.07417","6500200","三重區"
"241025","271-UM","2017/08/04 20:09:05","新北市三重區中正北路237號","121.475666666667","25.0706483333333","6500200","三重區"
"241007","398-BY","2017/08/04 20:09:15","新北市三重區三和路四段111-32號","121.486293333333","25.0773083333333","6500200","三重區"
"241020","412-TH","2017/08/04 20:09:13","新北市三重區三和路三段162號","121.492781666667","25.0731066666667","6500200","三重區"
"241035","462-BY","2017/08/04 20:09:10","新北市三重區平安街34號","121.498201666667","25.0641816666667","6500200","三重區"
"241004","475-VK","2017/08/04 20:08:54","新北市三重區自強路四段107號","121.491571666667","25.0799166666667","6500200","三重區"
"241019","478-VK","2017/08/04 20:09:01","新北市三重區自強路二段33巷39號","121.490566666667","25.0698133333333","6500200","三重區"
"241030","480-VK","2017/08/04 20:09:09","新北市三重區成功路145巷33號","121.487738333333","25.053155","6500200","三重區"
"241014","543-UM","2017/08/04 20:09:07","新北市三重區長樂街88號","121.501256666667","25.0695116666667","6500200","三重區"
"241023","545-UM","2017/08/04 20:09:01","新北市三重區頂崁街220巷2號","121.476995","25.0681016666667","6500200","三重區"
"241001","547-UM","2017/08/04 20:09:14","新北市三重區三和路四段89巷24號","121.49009","25.0760516666667","6500200","三重區"
"241006","AAD-863","2017/08/04 20:09:07","新北市三重區力行路二段90號","121.482033333333","25.0744033333333","6500200","三重區"
"241012","941-UM","2017/08/04 20:09:05","新北市三重區仁福街64巷30號","121.497556666667","25.0755866666667","6500200","三重區"
"241029","942-UM","2017/08/04 20:09:12","新北市三重區光明路32巷14號","121.491726666667","25.05869","6500200","三重區"
"241033","AAC-255","2017/08/04 20:09:07","新北市三重區光復路一段68巷2號","121.471895","25.049265","6500200","三重區"
"235066","003-UY","2017/08/04 20:09:13","新北市中和區水源路115號","121.508066666667","25.00345","6500300","中和區"
"235039","097-UM","2017/08/04 20:09:09","新北市中和區景平路278巷16弄24號","121.51446","24.9937283333333","6500300","中和區"
"235065","098-UM","2017/08/04 20:09:15","新北市中和區永和路90巷5號","121.49743","25.0060483333333","6500300","中和區"
"235040","150-BY","2017/08/04 20:09:01","新北市中和區保健路10巷23弄16號","121.508583333333","24.997105","6500300","中和區"
"235055","183-VK","2017/08/04 20:08:58","新北市中和區莒光路4號","121.471898333333","25.0047533333333","6500300","中和區"
"235038","185-VK","2017/08/04 20:09:02","新北市中和區更生街1號","121.521383333333","24.9961566666667","6500300","中和區"
"235044","293-VK","2017/08/04 20:09:03","新北市中和區中正路91號","121.500355","24.9935","6500300","中和區"
"235072","301-VK","2017/08/04 20:09:04","新北市五股區凌雲路三段24巷10號","121.435586666667","25.107065","6500300","中和區"
"235051","376-QA","2017/08/04 20:09:13","新北市中和區景安路220巷2弄1號","121.503528333333","24.9907783333333","6500300","中和區"
"235068","377-QA","2017/08/04 20:09:14","新北市中和區永和路39巷10號","121.497606666667","25.0049733333333","6500300","中和區"
"235050","4979-A6","2017/08/04 20:08:58","新北市中和區安樂路37號","121.511921666667","24.9930833333333","6500300","中和區"
"235069","4980-A6","2017/08/04 20:09:14","新北市中和區南山路127巷27弄9號","121.503303333333","24.9977833333333","6500300","中和區"
"235070","558-UM","2017/08/04 20:09:11","新北市中和區圓通路111號","121.499385","24.99654","6500300","中和區"
"235054","640-BX","2017/08/04 20:08:58","新北市中和區莒光路72號","121.472305","25.003085","6500300","中和區"
"235046","733-UM","2017/08/04 20:09:04","新北市中和區忠孝街31巷4號","121.510353333333","24.98349","6500300","中和區"
"235041","802-TS","2017/08/04 20:08:57","新北市中和區中安街132號","121.510943333333","25.000315","6500300","中和區"
"235048","896-TW","2017/08/04 20:09:15","新北市中和區景新街357號","121.512065","24.9908633333333","6500300","中和區"
"235037","AAC-213","2017/08/04 20:09:13","新北市中和區自立路153號","121.522606666667","24.9928433333333","6500300","中和區"
"235059","AAC-215","2017/08/04 20:09:12","新北市中和區圓通路335巷33弄11號","121.493158333333","24.9892316666667","6500300","中和區"
"220106","075-UY","2017/08/04 20:08:59","新北市板橋區文聖街13號","121.475558333333","25.032335","6500100","板橋區"
"220069","AAD-861","2017/08/04 20:08:55","新北市板橋區大明街15巷11號","121.458488333333","25.002185","6500100","板橋區"
"220096","120-SR","2017/08/04 20:09:11","新北市板橋區莒光路79巷4號","121.471933333333","25.02439","6500100","板橋區"
"247020","893-R6","2017/08/04 20:09:07","新北市蘆洲區民義街68巷10號","121.473345","25.0896933333333","6501400","蘆洲區"
"247010","546-UM","2017/08/04 20:09:16","新北市蘆洲區集賢路406號","121.480055","25.08181","6501400","蘆洲區"
"247018","500-BY","2017/08/04 20:09:06","新北市蘆洲區民族路352號","121.47637","25.0908216666667","6501400","蘆洲區"
"247006","341-TH","2017/08/04 20:09:12","新北市蘆洲區九芎街2-4號","121.468663333333","25.07858","6501400","蘆洲區"
"247008","339-TH","2017/08/04 20:09:06","新北市蘆洲區集賢路300號","121.481596666667","25.0850316666667","6501400","蘆洲區"
"247024","337-TH","2017/08/04 20:09:13","新北市蘆洲區光榮路120巷8弄35號","121.464826666667","25.087985","6501400","蘆洲區"
"247002","336-TH","2017/08/04 20:08:58","新北市蘆洲區長安街313巷24號","121.456085","25.086135","6501400","蘆洲區"
"247014","057-VK","2017/08/04 20:09:12","新北市蘆洲區中山二路263號","121.469886666667","25.0796316666667","6501400","蘆洲區"
"247004","056-VK","2017/08/04 20:09:00","新北市蘆洲區永安南路二段346號","121.456295","25.08314","6501400","蘆洲區"
"247012","007-UY","2017/08/04 20:09:04","新北市蘆洲區中興街15巷30號","121.480028333333","25.088025","6501400","蘆洲區"
"247022","002-UY","2017/08/04 20:09:04","新北市蘆洲區三民路171巷5號","121.4709","25.086995","6501400","蘆洲區"
"247016","001-UY","2017/08/04 20:09:17","新北市蘆洲區中正路185巷86弄2號","121.465645","25.0840116666667","6501400","蘆洲區"
"223005","677-TV","2017/08/04 17:41:15","新北市石碇區小粗坑(潭邊里)9-2號","121.678606666667","24.9859966666667","6501900","石碇區"
"228001","670-TC","2017/08/04 20:09:01","新北市貢寮區仁理村研海街20號","121.928225","25.0380266666667","6502600","貢寮區"
"224010","AGQ-8101","2017/08/04 20:09:12","新北市瑞芳區汽車路61號","121.844263333333","25.1091766666667","6501200","瑞芳區"
"224008","275-VK","2017/08/04 18:13:57","新北市瑞芳區逢甲路72號","121.810628333333","25.108245","6501200","瑞芳區"
"208002","742-BX","2017/08/04 20:09:12","新北市金山區環金路466號","121.630001666667","25.2248283333333","6502700","金山區"
"208003","665-BX","2017/08/04 20:09:11","新北市金山區海興路1-3號","121.634068333333","25.2454783333333","6502700","金山區"
"251004","009-UM","2017/08/04 20:09:12","新北市淡水區民族路31巷21-1號","121.461965","25.1364916666667","6501000","淡水區"
"251005","010-UM","2017/08/04 20:09:08","新北市淡水區學府路136巷20號","121.45128","25.1727","6501000","淡水區"
"251002","012-UM","2017/08/04 20:09:05","新北市淡水區中正路334號","121.435748333333","25.1730916666667","6501000","淡水區"
"251013","180-VK","2017/08/04 20:09:06","新北市淡水區奎柔山路460號","121.46375","25.2046133333333","6501000","淡水區"
"251008","181-VK","2017/08/04 20:09:17","新北市淡水區沙崙路141號","121.423175","25.1829983333333","6501000","淡水區"
"251015","182-VK","2017/08/04 20:09:03","新北市淡水區埤島80-2號","121.449068333333","25.1893333333333","6501000","淡水區"
"251010","413-VK","2017/08/04 20:09:06","新北市淡水區新市二路二段8號","121.42458","25.19659","6501000","淡水區"
"251012","441-VK","2017/08/04 20:09:09","新北市淡水區下圭柔山56-11號","121.447356666667","25.2045883333333","6501000","淡水區"
"251001","559-UM","2017/08/04 20:09:12","新北市淡水區新市二路四段265號","121.44576","25.192455","6501000","淡水區"
"251006","561-UM","2017/08/04 20:09:00","新北市淡水區北新路141巷29號","121.448108333333","25.179595","6501000","淡水區"
"251009","575-R6","2017/08/04 20:09:10","新北市淡水區英專路42-1號","121.445606666667","25.170365","6501000","淡水區"
"251007","577-R6","2017/08/04 20:09:04","新北市淡水區下圭柔山91-3號","121.431165","25.2102683333333","6501000","淡水區"
"251011","650-BX","2017/08/04 20:08:28","新北市淡水區崁頂78-5號","121.429308333333","25.2073116666667","6501000","淡水區"
"251003","673-BX","2017/08/04 20:09:03","新北市淡水區中山北路二段189巷15弄29號","121.443373333333","25.1841533333333","6501000","淡水區"
"207003","550-UM","2017/08/04 20:08:57","新北市萬里區大鵬里萬里加投186號","121.64281","25.215635","6502800","萬里區"
"207004","225-TW","2017/08/04 20:08:58","新北市萬里區北基里愛三街11號","121.681736666667","25.1766483333333","6502800","萬里區"
"252002","178-VK","2017/08/04 20:09:09","新北市三芝區忠孝街116-3號","121.50549","25.2576133333333","6502100","三芝區"
"252001","292-VK","2017/08/04 20:09:15","新北市三芝區公正街66號","121.499795","25.2574383333333","6502100","三芝區"
"237007","153-BY","2017/08/04 20:09:09","新北市三峽區麻園15-1號","121.363093333333","24.9135083333333","6500900","三峽區"
"237012","275-BY","2017/08/04 20:08:55","新北市三峽區中華路76-1號","121.370988333333","24.9288183333333","6500900","三峽區"
"237008","302-VK","2017/08/04 20:09:06","新北市三峽區中華路74-5號","121.371498333333","24.9292516666667","6500900","三峽區"
"237006","5529-G3","2017/08/04 20:09:03","新北市三峽區嘉添159-2號","121.369088333333","24.9117466666667","6500900","三峽區"
"237015","649-BX","2017/08/04 20:09:00","新北市三峽區介壽路二段167號","121.3947","24.9358716666667","6500900","三峽區"
"237005","AKY-6261","2017/08/04 20:09:13","新北市三峽區三樹路44巷16號","121.378413333333","24.937535","6500900","三峽區"
"236072","105-UM","2017/08/04 20:09:09","新北市土城區中央路三段128-2號","121.434911666667","24.9659083333333","6501300","土城區"
"236043","107-UM","2017/08/04 20:09:10","新北市土城區學府路一段144巷2號","121.455103333333","24.9873183333333","6501300","土城區"
"236079","166-UM","2017/08/04 20:09:05","新北市土城區中山路41號","121.420046666667","24.9627416666667","6501300","土城區"
"236031","253-BX","2017/08/04 20:09:09","新北市土城區中央路一段156巷4號","121.44581","24.9874433333333","6501300","土城區"
"236027","269-VK","2017/08/04 20:09:11","新北市土城區裕生路102巷20號","121.446328333333","24.9848116666667","6501300","土城區"
"236015","270-VK","2017/08/04 20:09:07","新北市土城區廣興街39號","121.45508","24.9915516666667","6501300","土城區"
"236039","271-VK","2017/08/04 20:09:06","新北市土城區延吉街296巷5號","121.464326666667","24.9846866666667","6501300","土城區"
"236022","401-BY","2017/08/04 20:09:12","新北市土城區延吉街63巷2號","121.472353333333","24.9873816666667","6501300","土城區"
"236059","912-UM","2017/08/04 20:08:55","新北市土城區中央路一段289-1號","121.44431","24.9840716666667","6501300","土城區"
"236050","913-UM","2017/08/04 20:09:02","新北市土城區金城路二段271號","121.464028333333","24.9858783333333","6501300","土城區"
"236063","915-UM","2017/08/04 20:08:59","新北市土城區立德路135巷12號","121.464951666667","24.986905","6501300","土城區"
"236055","AAC-216","2017/08/04 20:09:15","新北市土城區學府路一段124-4號","121.455311666667","24.987405","6501300","土城區"
"242021","AAC-296","2017/08/04 20:09:05","新北市新莊區建中街48巷6弄1號","121.448385","25.0377883333333","6500500","新莊區"
"242048","751-BX","2017/08/04 20:08:57","新北市新莊區四維路152巷30號","121.421993333333","25.02251","6500500","新莊區"
"242025","615-BX","2017/08/04 20:09:11","新北市新莊區五權一路12巷25弄22號","121.45847","25.0645516666667","6500500","新莊區"
"242023","613-BX","2017/08/04 20:08:58","新北市新莊區化成路540-2號","121.466325","25.0533983333333","6500500","新莊區"
"242027","612-BX","2017/08/04 20:08:54","新北市新莊區幸福路829號","121.44497","25.0489866666667","6500500","新莊區"
"242037","566-BX","2017/08/04 20:09:05","新北市新莊區建安街25巷16號","121.429816666667","25.0262016666667","6500500","新莊區"
"242005","442-UM","2017/08/04 20:09:09","新北市新莊區化成路219號","121.465926666667","25.0524883333333","6500500","新莊區"
"242050","440-UM","2017/08/04 20:09:06","新北市新莊區民安西路170號","121.426001666667","25.0159666666667","6500500","新莊區"
"242032","415-TV","2017/08/04 20:09:03","新北市新莊區中正路362號","121.443428333333","25.03424","6500500","新莊區"
"242002","413-TV","2017/08/04 20:09:12","新北市新莊區中正路55-4號","121.461811666667","25.0397316666667","6500500","新莊區"
"242039","400-BY","2017/08/04 20:09:07","新北市新莊區龍安路481號","121.425571666667","25.0180616666667","6500500","新莊區"
"242060","362-BY","2017/08/04 20:08:59","新北市新莊區瓊林路瓊英巷1弄1號","121.443848333333","25.027225","6500500","新莊區"
"242058","353-BY","2017/08/04 20:09:13","新北市新莊區八德街166號","121.423465","25.0195683333333","6500500","新莊區"
"242041","132-UY","2017/08/04 20:08:57","新北市新莊區壽山路61號","121.410538333333","25.03269","6500500","新莊區"
"242034","133-UY","2017/08/04 20:09:15","新北市新莊區中正路318巷13號","121.446243333333","25.035735","6500500","新莊區"
"242019","135-UY","2017/08/04 20:09:07","新北市新莊區民樂街66號","121.45804","25.042325","6500500","新莊區"
"242044","172-VK","2017/08/04 20:09:13","新北市新莊區萬壽路一段21巷25號","121.410786666667","25.01994","6500500","新莊區"
"242007","173-VK","2017/08/04 20:09:03","新北市新莊區思源路419巷1弄1號","121.459373333333","25.0524216666667","6500500","新莊區"
"242013","175-VK","2017/08/04 20:09:05","新北市新莊區幸福路678巷3弄1號","121.450241666667","25.0495833333333","6500500","新莊區"
"242056","176-VK","2017/08/04 20:08:56","新北市新莊區新莊路649巷13弄14號","121.445605","25.0318616666667","6500500","新莊區"
"242011","346-TH","2017/08/04 20:09:16","新北市新莊區中信街52號","121.44926","25.050885","6500500","新莊區"
"242017","348-TH","2017/08/04 20:09:16","新北市新莊區中港路350號","121.45194","25.046305","6500500","新莊區"
"242054","349-TH","2017/08/04 20:09:08","新北市新莊區西盛街387巷15號","121.428586666667","25.013","6500500","新莊區"
"242015","350-TH","2017/08/04 20:09:14","新北市新莊區中平路26巷41號","121.446836666667","25.0433866666667","6500500","新莊區"
"242009","351-TH","2017/08/04 20:08:57","新北市新莊區昌平街59巷2號","121.454576666667","25.0531983333333","6500500","新莊區"
"238023","601-UM","2017/08/04 20:09:06","新北市樹林區東興街3號","121.4093","24.980375","6500700","樹林區"
"238021","311-TH","2017/08/04 20:00:11","新北市樹林區佳園路三段111號","121.387061666667","24.9511933333333","6500700","樹林區"
"239003","360-BY","2017/08/04 20:08:58","新北市鶯歌區二甲路12-2號","121.345638333333","24.9348066666667","6500800","鶯歌區"
"221008","489-VK","2017/08/04 20:09:12","台北市內湖區康樂街145號","121.619321666667","25.0716833333333","6501100","汐止區"
"221036","130-UY","2017/08/04 20:09:09","新北市汐止區新台五路二段15號","121.662373333333","25.06618","6501100","汐止區"
"221015","131-UY","2017/08/04 20:09:12","新北市汐止區建成路19號","121.664386666667","25.0725516666667","6501100","汐止區"
"221010","269-BY","2017/08/04 20:09:13","新北市汐止區八連路一段203號","121.641056666667","25.08094","6501100","汐止區"
"221012","278-VK","2017/08/04 01:02:32","新北市汐止區汐萬路一段256巷1號","121.651958333333","25.0749583333333","6501100","汐止區"
"221023","279-VK","2017/08/04 02:12:06","新北市汐止區康寧街901號","121.651778333333","25.07496","6501100","汐止區"
"221032","280-BY","2017/08/04 20:09:12","新北市汐止區弘道街25號","121.61744","25.0487166666667","6501100","汐止區"
"221027","281-BY","2017/08/04 20:08:59","新北市汐止區中正路115號","121.66048","25.0693766666667","6501100","汐止區"
"221038","297-VK","2017/08/04 20:09:12","新北市汐止區大同路三段42號","121.66726","25.076745","6501100","汐止區"
"221029","298-VK","2017/08/04 20:09:13","新北市汐止區樟樹一路123巷19號","121.641283333333","25.0645083333333","6501100","汐止區"
"221021","299-VK","2017/08/04 14:52:01","新北市新店區安忠路57巷13號","121.513525","24.9570333333333","6501100","汐止區"
"221031","353-TW","2017/08/04 20:08:57","新北市汐止區中興路214巷7弄2號","121.631466666667","25.0665933333333","6501100","汐止區"
"221035","622-UM","2017/08/04 20:09:14","新北市汐止區長江街67巷2弄3號","121.65669","25.0723683333333","6501100","汐止區"
"221025","623-UM","2017/08/04 20:09:05","新北市汐止區連興街130號","121.653898333333","25.0617583333333","6501100","汐止區"
"221033","647-BX","2017/08/04 20:08:59","新北市汐止區東勢街201巷104號","121.63351","25.0430766666667","6501100","汐止區"
"221002","707-TV","2017/08/04 20:09:10","新北市汐止區工建路366號","121.633361666667","25.0595733333333","6501100","汐止區"
"221018","753-BX","2017/08/04 20:09:10","新北市汐止區茄福街35巷37號","121.673441666667","25.066215","6501100","汐止區"
"220079","145-BY","2017/08/04 20:09:15","新北市五股區凌雲路二段66號","121.439148333333","25.106285","6500100","板橋區"
"220080","200-UY","2017/08/04 20:09:18","新北市板橋區大觀路二段179巷16號","121.445535","24.9997833333333","6500100","板橋區"
"220082","610-BX","2017/08/04 20:09:00","新北市板橋區篤行路二段131巷1-2號","121.43145","24.9904066666667","6500100","板橋區"
"220055","255-TC","2017/08/04 03:14:08","新北市板橋區觀光街2-2號","121.472385","25.0155283333333","6500100","板橋區"
"220072","277-BY","2017/08/04 20:09:14","新北市板橋區金門街109巷27-2號","121.433918333333","24.99168","6500100","板橋區"
"220101","285-UM","2017/08/04 20:09:04","新北市板橋區莒光路171巷1弄16號","121.474453333333","25.0246316666667","6500100","板橋區"
"220053","285-VK","2017/08/04 20:09:12","新北市板橋區懷仁街90-2號","121.477505","25.018135","6500100","板橋區"
"220083","286-VK","2017/08/04 20:08:56","新北市板橋區僑中二街12巷4號","121.446648333333","25.01067","6500100","板橋區"
"220081","287-VK","2017/08/04 20:09:11","新北市板橋區僑中一街124巷18弄22號","121.446985","25.0136216666667","6500100","板橋區"
"220061","293-UM","2017/08/04 20:08:58","新北市板橋區觀光街4巷2弄2-3號","121.472321666667","25.0158016666667","6500100","板橋區"
"220065","295-UM","2017/08/04 20:09:01","新北市板橋區中山路一段143號","121.4645","25.0117566666667","6500100","板橋區"
"220084","296-UM","2017/08/04 20:09:10","新北市樹林區博愛街179號","121.424905","24.9891033333333","6500100","板橋區"
"220092","307-R5","2017/08/04 20:09:02","新北市板橋區文化路一段81巷7號","121.4605","25.0142666666667","6500100","板橋區"
"220098","317-R6","2017/08/04 20:09:12","新北市板橋區新海路72巷13號","121.46244","25.0221033333333","6500100","板橋區"
"220064","486-VK","2017/08/04 20:09:08","新北市板橋區長安街331巷86號","121.472276666667","25.0128983333333","6500100","板橋區"
"220089","487-VK","2017/08/04 20:09:11","新北市板橋區互助街77巷1號","121.46014","25.0260983333333","6500100","板橋區"
"220088","491-VK","2017/08/04 20:09:00","新北市板橋區民治街57巷2號","121.479476666667","25.0333283333333","6500100","板橋區"
"220103","561-BX","2017/08/04 20:09:17","新北市板橋區自由路26巷4號","121.465861666667","25.0226733333333","6500100","板橋區"
"220071","568-UM","2017/08/04 20:09:09","新北市板橋區和平路174巷34號","121.464861666667","24.99423","6500100","板橋區"
"220057","686-BX","2017/08/04 20:09:14","新北市板橋區四川路二段132號","121.450018333333","24.9937466666667","6500100","板橋區"
"220093","689-BX","2017/08/04 20:08:57","新北市板橋區長江路二段139號","121.465436666667","25.0316766666667","6500100","板橋區"
"220054","741-BX","2017/08/04 20:09:12","新北市板橋區實踐路93巷19號","121.464988333333","25.0056183333333","6500100","板橋區"
"220067","829-TW","2017/08/04 20:09:11","新北市三重區重新路5段221巷6弄11-1號","121.479128333333","25.050815","6500100","板橋區"
"220102","830-TW","2017/08/04 20:09:05","新北市板橋區民治街132號","121.47768","25.03086","6500100","板橋區"
"220074","895-R6","2017/08/04 20:08:57","新北市板橋區文化路一段46巷19號","121.46029","25.0115016666667","6500100","板橋區"
"220097","AAC-210","2017/08/04 20:09:14","新北市板橋區光正街23巷7號","121.462161666667","25.0169433333333","6500100","板橋區"
"220070","AAC-253","2017/08/04 20:09:05","新北市板橋區四川路二段2號","121.456646666667","24.99652","6500100","板橋區"
