"lineid","car","time","location","longitude","latitude","cityid","cityname"
"234064","337-UY","2017/08/04 20:49:16","新北市永和區福和路1號","121.526208333333","25.0097333333333","6500400","永和區"
"234011","9373-KE","2017/08/04 20:46:25","新北市永和區福和路1號","121.526321666667","25.0097533333333","6500400","永和區"
"249004","303-UY","2017/08/04 20:49:11","新北市八里區中山路一段63號","121.418293333333","25.1593916666667","6502300","八里區"
"234074","AAC-211","2017/08/04 20:48:59","新北市永和區竹林路75巷4弄34號","121.521528333333","25.0141866666667","6500400","永和區"
"234067","AAC-212","2017/08/04 20:49:14","新北市中和區光環路二段27號","121.488446666667","25.011845","6500400","永和區"
"243009","297-R6","2017/08/04 20:49:12","新北市泰山區泰林路三段745巷145號","121.405951666667","25.067535","6501600","泰山區"
"243011","549-UM","2017/08/04 20:49:05","新北市泰山區泰林路三段745巷145號","121.405503333333","25.067755","6501600","泰山區"
"243016","680-BX","2017/08/04 20:48:46","新北市泰山區明志路二段187號","121.427541666667","25.0495116666667","6501600","泰山區"
"222003","436-BY","2017/08/04 20:49:00","新北市深坑區文山路三段48-1號","121.609823333333","24.9984933333333","6501800","深坑區"
"222002","659-BX","2017/08/04 20:48:55","新北市深坑區北深路三段93巷13號","121.605226666667","25.0008516666667","6501800","深坑區"
"222001","696-SL","2017/08/04 20:49:04","新北市深坑區北深路三段133號","121.604021666667","25.00247","6501800","深坑區"
"231041","001-UM","2017/08/04 20:49:15","新北市新店區中正路700巷1號","121.533931666667","24.9911466666667","6500600","新店區"
"231056","0291-UT","2017/08/04 20:49:06","新北市新店區中央四街85號","121.526153333333","24.9761266666667","6500600","新店區"
"231059","046-UY","2017/08/04 20:49:04","新北市新店區僑信路126巷22號","121.499601666667","24.9456116666667","6500600","新店區"
"231061","047-UY","2017/08/04 20:49:03","新北市新店區新和街93巷10號","121.520756666667","24.986665","6500600","新店區"
"231060","106-UY","2017/08/04 20:48:55","新北市新店區安康路三段740號","121.473788333333","24.9419883333333","6500600","新店區"
"231051","107-UY","2017/08/04 20:49:03","新北市新店區中央路22-1號","121.533301666667","24.9783966666667","6500600","新店區"
"231048","108-UY","2017/08/04 20:48:56","新北市新店區寶元路一段109號","121.54575","24.98317","6500600","新店區"
"231057","256-BX","2017/08/04 20:48:58","新北市新店區花園二路一段9-7號","121.556023333333","24.9328366666667","6500600","新店區"
"231063","268-BY","2017/08/04 20:49:13","新北市新店區如意街11-1號","121.495","24.9483383333333","6500600","新店區"
"231050","AAD-862","2017/08/04 20:49:07","新北市新店區中正路263巷2號","121.538381666667","24.9735333333333","6500600","新店區"
"231058","3712-VJ","2017/08/04 20:49:15","新北市新店區平等街29號","121.536673333333","24.9735883333333","6500600","新店區"
"231065","512-UM","2017/08/04 20:49:16","新北市新店區安祥路69巷17號","121.481931666667","24.961315","6500600","新店區"
"231054","513-UM","2017/08/04 20:49:09","新北市新店區北新路一段126巷27號","121.543125","24.9695016666667","6500600","新店區"
"231064","515-UM","2017/08/04 20:49:00","新北市新店區安和路三段35-2號","121.516938333333","24.980445","6500600","新店區"
"231040","619-UM","2017/08/04 20:49:06","新北市新店區中正路276號","121.538883333333","24.973685","6500600","新店區"
"231042","641-BX","2017/08/04 20:48:59","新北市新店區寶高路120巷1-1號","121.554608333333","24.9759566666667","6500600","新店區"
"231068","718-UY","2017/08/04 20:49:12","新北市新店區中興路三段220巷19號","121.544971666667","24.9833016666667","6500600","新店區"
"231049","719-UM","2017/08/04 20:49:11","新北市新店區華潭街52號","121.528411666667","24.9546183333333","6500600","新店區"
"231062","719-UY","2017/08/04 20:49:07","新北市新店區和成街12巷7號","121.488716666667","24.947785","6500600","新店區"
"231044","897-TW","2017/08/04 20:49:01","新北市新店區建國路140號","121.538823333333","24.9790033333333","6500600","新店區"
"231043","899-TW","2017/08/04 20:49:04","新北市新店區博愛街13巷24號","121.540231666667","24.97401","6500600","新店區"
"231066","AKT-0513","2017/08/04 20:49:16","新北市新店區安興路112號","121.514761666667","24.9776016666667","6500600","新店區"
"241011","013-R5","2017/08/04 20:49:01","新北市三重區秀江街117號","121.499738333333","25.0721483333333","6500200","三重區"
"241028","022-UY","2017/08/04 20:49:04","新北市三重區中正南路42號","121.493935","25.0601116666667","6500200","三重區"
"241008","059-VK","2017/08/04 20:49:10","新北市三重區永福街72巷11號","121.479438333333","25.0767916666667","6500200","三重區"
"241005","060-VK","2017/08/04 20:49:16","新北市三重區五華街141巷51號","121.493123333333","25.086205","6500200","三重區"
"241031","061-VK","2017/08/04 20:49:16","新北市三重區重陽路一段113巷2弄2號","121.487516666667","25.0598416666667","6500200","三重區"
"241015","062-VK","2017/08/04 20:49:10","新北市三重區三和路二段172號","121.499008333333","25.06858","6500200","三重區"
"241017","063-VK","2017/08/04 20:49:06","新北市三重區民生街60號","121.491346666667","25.066515","6500200","三重區"
"241024","065-VK","2017/08/04 20:49:01","新北市三重區國道路一段58巷20號","121.4813","25.0720533333333","6500200","三重區"
"241026","066-VK","2017/08/04 20:49:12","新北市三重區文化南路7號","121.50003","25.06236","6500200","三重區"
"241002","090-VK","2017/08/04 20:49:07","新北市三重區仁義街167巷38弄2號","121.498698333333","25.0827666666667","6500200","三重區"
"241003","091-VK","2017/08/04 20:49:12","新北市三重區五華街141巷58號","121.49356","25.0867466666667","6500200","三重區"
"241032","156-TC","2017/08/04 20:48:59","新北市三重區重陽路一段120巷46號","121.485081666667","25.06011","6500200","三重區"
"241009","265-UM","2017/08/04 20:49:16","新北市三重區三和路四段388-2號","121.482125","25.0791216666667","6500200","三重區"
"241016","266-UM","2017/08/04 20:49:03","新北市三重區自強路一段79號","121.496206666667","25.06637","6500200","三重區"
"241022","267-UM","2017/08/04 20:49:15","新北市三重區過圳街27-5號","121.487998333333","25.0623566666667","6500200","三重區"
"241018","268-UM","2017/08/04 20:48:54","新北市三重區正義北路263號","121.495461666667","25.06982","6500200","三重區"
"241013","270-UM","2017/08/04 20:49:02","新北市三重區仁賢街4號","121.495628333333","25.0748066666667","6500200","三重區"
"241025","271-UM","2017/08/04 20:49:05","新北市三重區貴陽街21號","121.484243333333","25.0618916666667","6500200","三重區"
"241007","398-BY","2017/08/04 20:48:55","新北市三重區三和路四段143-1號","121.484471666667","25.0783466666667","6500200","三重區"
"241020","412-TH","2017/08/04 20:49:13","新北市三重區忠孝路一段101號","121.489511666667","25.0721066666667","6500200","三重區"
"241035","462-BY","2017/08/04 20:49:09","新北市三重區文化北路248號","121.497326666667","25.07001","6500200","三重區"
"241004","475-VK","2017/08/04 20:49:14","新北市三重區分子尾街15-1號","121.489523333333","25.080895","6500200","三重區"
"241019","478-VK","2017/08/04 20:49:01","新北市三重區三張街43號","121.491436666667","25.0711466666667","6500200","三重區"
"241030","480-VK","2017/08/04 20:49:09","新北市三重區環河南路221巷10號","121.491891666667","25.0522866666667","6500200","三重區"
"241014","543-UM","2017/08/04 20:49:07","新北市三重區龍濱路116號","121.501938333333","25.0703466666667","6500200","三重區"
"241023","545-UM","2017/08/04 20:49:01","新北市三重區新北大道一段7號","121.489628333333","25.06123","6500200","三重區"
"241001","547-UM","2017/08/04 20:49:14","新北市三重區自強路三段95號","121.4876","25.0750983333333","6500200","三重區"
"241006","AAD-863","2017/08/04 20:49:07","新北市三重區車路頭街135-1號","121.484286666667","25.0761483333333","6500200","三重區"
"241012","941-UM","2017/08/04 20:49:04","新北市三重區龍門路274巷45號","121.501201666667","25.0754966666667","6500200","三重區"
"241029","942-UM","2017/08/04 20:49:12","新北市三重區重安街22號","121.490376666667","25.0580833333333","6500200","三重區"
"241033","AAC-255","2017/08/04 20:49:07","新北市三重區光復路二段1號","121.472236666667","25.0532583333333","6500200","三重區"
"235044","293-VK","2017/08/04 20:49:03","新北市八里區商港路120號","121.39283","25.1500616666667","6500300","中和區"
"235072","301-VK","2017/08/04 20:49:04","新北市中和區員山路568號","121.478925","25.010875","6500300","中和區"
"235069","4980-A6","2017/08/04 20:49:14","新北市中和區中正路637巷18弄20號","121.484316666667","24.995075","6500300","中和區"
"235026","800-TS","2017/08/04 20:28:12","新北市中和區員山路36巷16-3號","121.484961666667","24.991635","6500300","中和區"
"247020","893-R6","2017/08/04 20:49:07","新北市蘆洲區仁愛街75號","121.471391666667","25.0938266666667","6501400","蘆洲區"
"247018","500-BY","2017/08/04 20:49:06","新北市蘆洲區民權路70號","121.47495","25.0873233333333","6501400","蘆洲區"
"247006","341-TH","2017/08/04 20:49:12","新北市蘆洲區永安南路二段76號","121.464461666667","25.0782116666667","6501400","蘆洲區"
"247008","339-TH","2017/08/04 20:49:06","新北市三重區三和路四段420號","121.480663333333","25.0801466666667","6501400","蘆洲區"
"247024","337-TH","2017/08/04 20:49:13","新北市蘆洲區長樂路136號","121.462213333333","25.0900933333333","6501400","蘆洲區"
"247002","336-TH","2017/08/04 20:48:57","新北市蘆洲區長榮路253號","121.459875","25.0861066666667","6501400","蘆洲區"
"247014","057-VK","2017/08/04 20:49:12","新北市蘆洲區三民路33號","121.475391666667","25.0831","6501400","蘆洲區"
"247004","056-VK","2017/08/04 20:49:00","新北市蘆洲區長安街101號","121.461621666667","25.0807966666667","6501400","蘆洲區"
"247012","007-UY","2017/08/04 20:49:04","新北市蘆洲區民權路5號","121.476655","25.0857383333333","6501400","蘆洲區"
"247022","002-UY","2017/08/04 20:49:00","新北市蘆洲區水湳街52號","121.471216666667","25.0898983333333","6501400","蘆洲區"
"247016","001-UY","2017/08/04 20:48:57","新北市蘆洲區正和街10號","121.470245","25.0827833333333","6501400","蘆洲區"
"223005","677-TV","2017/08/04 17:41:15","新北市石碇區小粗坑(潭邊里)9-2號","121.678606666667","24.9859966666667","6501900","石碇區"
"251002","012-UM","2017/08/04 20:49:05","新北市淡水區英專路26號","121.445585","25.1699733333333","6501000","淡水區"
"251013","180-VK","2017/08/04 20:49:06","新北市淡水區行忠路161號","121.457185","25.2003533333333","6501000","淡水區"
"251015","182-VK","2017/08/04 20:49:03","新北市淡水區淡金路四段542巷17號","121.452653333333","25.2270733333333","6501000","淡水區"
"251010","413-VK","2017/08/04 20:49:06","新北市淡水區沙崙路126號","121.423575","25.1829783333333","6501000","淡水區"
"251012","441-VK","2017/08/04 20:49:08","新北市淡水區淡金路552-1號","121.451835","25.2273066666667","6501000","淡水區"
"251001","559-UM","2017/08/04 20:49:12","新北市淡水區淡金路218號","121.46052","25.16717","6501000","淡水區"
"251007","577-R6","2017/08/04 20:49:04","新北市淡水區鄧公路29巷24號","121.452708333333","25.170095","6501000","淡水區"
"251011","650-BX","2017/08/04 20:49:07","新北市淡水區新民街一段25號","121.432856666667","25.1860333333333","6501000","淡水區"
"251003","673-BX","2017/08/04 20:49:03","新北市淡水區中山北路一段247巷100號","121.442118333333","25.1794583333333","6501000","淡水區"
"252002","178-VK","2017/08/04 20:49:09","新北市三芝區淡金路二段89-1號","121.50398","25.2608383333333","6502100","三芝區"
"242021","AAC-296","2017/08/04 20:49:05","新北市新莊區中華路一段6號","121.452008333333","25.0366866666667","6500500","新莊區"
"242048","751-BX","2017/08/04 20:49:17","新北市新莊區中正路617號","121.432008333333","25.0318116666667","6500500","新莊區"
"242023","613-BX","2017/08/04 20:48:58","新北市新莊區思源路63號","121.459915","25.0403933333333","6500500","新莊區"
"242027","612-BX","2017/08/04 20:49:14","新北市新莊區化成路1008號","121.4658","25.065595","6500500","新莊區"
"242037","566-BX","2017/08/04 20:49:05","新北市新莊區建國一路99號","121.434943333333","25.028465","6500500","新莊區"
"242046","441-UM","2017/08/04 20:48:55","新北市新莊區中正路867-8號","121.41821","25.02715","6500500","新莊區"
"242050","440-UM","2017/08/04 20:49:00","新北市新莊區民安東路150號","121.431555","25.02054","6500500","新莊區"
"242002","413-TV","2017/08/04 20:49:12","新北市新莊區中港路2號","121.455038333333","25.0367816666667","6500500","新莊區"
"242060","362-BY","2017/08/04 20:49:10","新北市新莊區新樹路209號","121.435731666667","25.0235533333333","6500500","新莊區"
"242041","132-UY","2017/08/04 20:48:57","新北市新莊區雙鳳路73巷1號","121.414926666667","25.027565","6500500","新莊區"
"242034","133-UY","2017/08/04 20:49:06","新北市新莊區中正路317號","121.447965","25.0351333333333","6500500","新莊區"
"242017","348-TH","2017/08/04 20:49:00","新北市新莊區中華路一段2號","121.452045","25.0364633333333","6500500","新莊區"
"242054","349-TH","2017/08/04 20:49:08","新北市新莊區民安西路189巷10弄24號","121.426476666667","25.0150666666667","6500500","新莊區"
"238023","601-UM","2017/08/04 20:49:06","新北市樹林區中山路三段204號","121.38721","24.9683933333333","6500700","樹林區"
"221036","130-UY","2017/08/04 20:49:09","新北市汐止區仁愛路329號","121.66411","25.067925","6501100","汐止區"
"221015","131-UY","2017/08/04 20:49:12","新北市汐止區大同路二段605號","121.664033333333","25.07071","6501100","汐止區"
"221010","269-BY","2017/08/04 20:49:03","新北市汐止區汐萬路一段312號","121.650685","25.07535","6501100","汐止區"
"221027","281-BY","2017/08/04 20:48:59","新北市汐止區汐萬路一段273號","121.650528333333","25.0745133333333","6501100","汐止區"
"221038","297-VK","2017/08/04 20:49:12","新北市汐止區汐萬路一段172號","121.652435","25.071795","6501100","汐止區"
"221029","298-VK","2017/08/04 20:49:13","新北市汐止區樟樹二路345號","121.641998333333","25.07336","6501100","汐止區"
"221031","353-TW","2017/08/04 20:49:16","新北市汐止區福德一路86巷1號","121.637958333333","25.068345","6501100","汐止區"
"221035","622-UM","2017/08/04 20:49:14","新北市汐止區汐萬路一段144-1號","121.653085","25.071125","6501100","汐止區"
"221033","647-BX","2017/08/04 20:48:59","新北市汐止區合順街18巷8弄5號","121.620351666667","25.0419066666667","6501100","汐止區"
"221002","707-TV","2017/08/04 20:49:10","新北市汐止區福德二路二段170號","121.629506666667","25.064935","6501100","汐止區"
"221018","753-BX","2017/08/04 20:49:10","新北市汐止區茄苳路123號","121.667455","25.0704783333333","6501100","汐止區"
"220083","286-VK","2017/08/04 20:48:54","新北市板橋區僑中二街114巷1號","121.445626666667","25.00669","6500100","板橋區"
"220088","491-VK","2017/08/04 20:48:56","新北市林口區太平里180號","121.36815","25.1346766666667","6500100","板橋區"
"220070","AAC-253","2017/08/04 20:49:05","新北市五股區凌雲路三段24巷21-9號","121.433801666667","25.107625","6500100","板橋區"
