"lineid","car","time","location","longitude","latitude","cityid","cityname"
"234011","9373-KE","2017/08/04 20:46:25","新北市永和區福和路1號","121.526321666667","25.0097533333333","6500400","永和區"
"243011","549-UM","2017/08/04 21:05:05","新北市泰山區泰林路三段17巷3號","121.420776666667","25.0641466666667","6501600","泰山區"
"231059","046-UY","2017/08/04 21:05:01","新北市新店區僑信路27號","121.499326666667","24.9506316666667","6500600","新店區"
"231061","047-UY","2017/08/04 21:05:06","新北市新店區永平街58號","121.516188333333","24.9846916666667","6500600","新店區"
"231060","106-UY","2017/08/04 21:05:15","新北市新店區安康路三段515號","121.482133333333","24.9489283333333","6500600","新店區"
"231051","107-UY","2017/08/04 21:05:03","新北市新店區復興路102號","121.531668333333","24.9889816666667","6500600","新店區"
"231048","108-UY","2017/08/04 21:04:56","新北市新店區文化路38號","121.544078333333","24.9801866666667","6500600","新店區"
"231063","268-BY","2017/08/04 21:05:13","新北市新店區玫瑰路28號","121.495216666667","24.9501","6500600","新店區"
"231050","AAD-862","2017/08/04 21:05:07","新北市新店區三民路75巷1弄2號","121.535816666667","24.9712133333333","6500600","新店區"
"231067","4772-VM","2017/08/04 21:05:05","新北市新店區安德街148巷11弄2號","121.50774","24.9601566666667","6500600","新店區"
"231065","512-UM","2017/08/04 21:05:11","新北市新店區安祥路69巷41弄25號","121.482221666667","24.9612933333333","6500600","新店區"
"231054","513-UM","2017/08/04 21:05:12","新北市新店區五峰路37號","121.544303333333","24.9690283333333","6500600","新店區"
"231064","515-UM","2017/08/04 21:04:40","新北市新店區安民街251巷2號","121.517063333333","24.972455","6500600","新店區"
"231040","619-UM","2017/08/04 21:05:06","新北市新店區北新路一段353號","121.541976666667","24.96951","6500600","新店區"
"231042","641-BX","2017/08/04 21:04:59","新北市新店區寶興路60巷6號","121.549781666667","24.9718283333333","6500600","新店區"
"231068","718-UY","2017/08/04 21:04:09","新北市新店區寶興路45巷2弄70號","121.55157","24.973105","6500600","新店區"
"231062","719-UY","2017/08/04 21:05:07","新北市新店區雙城路80號","121.492373333333","24.9489416666667","6500600","新店區"
"241011","013-R5","2017/08/04 21:05:01","新北市三重區秀江街117號","121.499726666667","25.0721816666667","6500200","三重區"
"241028","022-UY","2017/08/04 21:05:04","新北市三重區重新路二段72號","121.49752","25.0620166666667","6500200","三重區"
"241008","059-VK","2017/08/04 21:05:10","新北市三重區自強路三段101號","121.48789","25.0754733333333","6500200","三重區"
"241005","060-VK","2017/08/04 21:05:01","新北市三重區三信路182號","121.488001666667","25.0861633333333","6500200","三重區"
"241031","061-VK","2017/08/04 21:04:56","新北市三重區重新路四段116號","121.486986666667","25.0568083333333","6500200","三重區"
"241015","062-VK","2017/08/04 21:05:10","新北市三重區福德北路46號","121.50206","25.0654266666667","6500200","三重區"
"241017","063-VK","2017/08/04 21:05:06","新北市三重區國隆路31號","121.492246666667","25.0645483333333","6500200","三重區"
"241024","065-VK","2017/08/04 21:05:01","新北市三重區國道路一段58巷15號","121.481336666667","25.072065","6500200","三重區"
"241026","066-VK","2017/08/04 21:05:12","新北市三重區文化南路36號","121.5003","25.0613466666667","6500200","三重區"
"241002","090-VK","2017/08/04 21:05:07","新北市三重區五華街14號","121.494898333333","25.080245","6500200","三重區"
"241003","091-VK","2017/08/04 21:05:12","新北市三重區進安街198號","121.49385","25.085995","6500200","三重區"
"241032","156-TC","2017/08/04 21:04:58","新北市三重區新北大道一段133巷5號","121.482815","25.0609416666667","6500200","三重區"
"241009","265-UM","2017/08/04 21:05:16","新北市三重區忠孝路二段90號","121.483631666667","25.0694866666667","6500200","三重區"
"241016","266-UM","2017/08/04 21:05:03","新北市三重區信義西街138號","121.495551666667","25.0642483333333","6500200","三重區"
"241022","267-UM","2017/08/04 21:05:15","新北市三重區中正北路64巷24號","121.486118333333","25.0637266666667","6500200","三重區"
"241018","268-UM","2017/08/04 21:04:54","新北市三重區自強路一段236號","121.493213333333","25.0670516666667","6500200","三重區"
"241013","270-UM","2017/08/04 21:05:02","新北市三重區仁賢街6號","121.495623333333","25.0748433333333","6500200","三重區"
"241025","271-UM","2017/08/04 21:05:05","新北市三重區新北大道一段7號","121.48961","25.0614533333333","6500200","三重區"
"241007","398-BY","2017/08/04 21:05:15","新北市三重區三和路四段145巷85號","121.486431666667","25.0786783333333","6500200","三重區"
"241020","412-TH","2017/08/04 21:05:13","新北市三重區忠孝路二段35號","121.485951666667","25.0710483333333","6500200","三重區"
"241004","475-VK","2017/08/04 21:05:14","新北市三重區仁愛街420號","121.490373333333","25.0814316666667","6500200","三重區"
"241019","478-VK","2017/08/04 21:05:01","新北市三重區自強路二段74巷21號","121.487948333333","25.0698666666667","6500200","三重區"
"241030","480-VK","2017/08/04 21:05:09","新北市三重區重新路四段121號","121.483708333333","25.0513866666667","6500200","三重區"
"241014","543-UM","2017/08/04 21:05:07","新北市三重區長榮路75號","121.502571666667","25.0690116666667","6500200","三重區"
"241023","545-UM","2017/08/04 21:05:01","新北市三重區忠孝路三段50巷41弄66號","121.482266666667","25.063725","6500200","三重區"
"241001","547-UM","2017/08/04 21:04:54","新北市三重區自強路四段1號","121.488376666667","25.0759616666667","6500200","三重區"
"241006","AAD-863","2017/08/04 21:05:07","新北市三重區力行路一段76號","121.484043333333","25.0694933333333","6500200","三重區"
"241012","941-UM","2017/08/04 21:05:04","新北市三重區仁信街29號","121.501241666667","25.0755566666667","6500200","三重區"
"241029","942-UM","2017/08/04 21:05:12","新北市三重區正義南路107號","121.498225","25.0585316666667","6500200","三重區"
"241033","AAC-255","2017/08/04 21:05:07","新北市三重區中興北街283號","121.469278333333","25.0617366666667","6500200","三重區"
"235044","293-VK","2017/08/04 21:03:43","新北市八里區中山路三段409號","121.36867","25.1348466666667","6500300","中和區"
"235072","301-VK","2017/08/04 21:05:09","新北市中和區員山路36巷12號","121.483866666667","24.99106","6500300","中和區"
"235026","800-TS","2017/08/04 21:05:15","新北市中和區員山路36巷16-3號","121.484875","24.9915266666667","6500300","中和區"
"247020","893-R6","2017/08/04 21:05:07","新北市蘆洲區民族路484號","121.471066666667","25.091405","6501400","蘆洲區"
"247010","546-UM","2017/08/04 21:05:07","新北市蘆洲區鷺江街83號","121.477033333333","25.08343","6501400","蘆洲區"
"247018","500-BY","2017/08/04 21:05:06","新北市蘆洲區民族路384巷3號","121.475526666667","25.0915683333333","6501400","蘆洲區"
"247006","341-TH","2017/08/04 21:05:12","新北市蘆洲區永安南路二段16巷18號","121.467995","25.077785","6501400","蘆洲區"
"247008","339-TH","2017/08/04 21:05:06","新北市蘆洲區民生街123號","121.472831666667","25.0790066666667","6501400","蘆洲區"
"247024","337-TH","2017/08/04 21:05:13","新北市蘆洲區長興路213號","121.461208333333","25.086355","6501400","蘆洲區"
"247002","336-TH","2017/08/04 21:04:57","新北市蘆洲區永平街24號","121.458953333333","25.0906583333333","6501400","蘆洲區"
"247014","057-VK","2017/08/04 21:05:12","新北市蘆洲區中央路155號","121.472491666667","25.0847266666667","6501400","蘆洲區"
"247004","056-VK","2017/08/04 21:05:00","新北市蘆洲區永安南路二段268號","121.458643333333","25.08072","6501400","蘆洲區"
"247012","007-UY","2017/08/04 21:05:04","新北市蘆洲區民權路5號","121.476645","25.08573","6501400","蘆洲區"
"247022","002-UY","2017/08/04 21:05:00","新北市蘆洲區中正路263巷2號","121.467341666667","25.0874016666667","6501400","蘆洲區"
"247016","001-UY","2017/08/04 21:04:57","新北市蘆洲區正和街104號","121.468041666667","25.0807433333333","6501400","蘆洲區"
"223005","677-TV","2017/08/04 17:41:15","新北市石碇區小粗坑(潭邊里)9-2號","121.678606666667","24.9859966666667","6501900","石碇區"
"251005","010-UM","2017/08/04 21:05:08","新北市淡水區學府路51巷1弄4號","121.447581666667","25.16941","6501000","淡水區"
"251002","012-UM","2017/08/04 21:05:05","新北市淡水區水源街一段152號","121.448291666667","25.1716416666667","6501000","淡水區"
"251013","180-VK","2017/08/04 21:05:06","新北市淡水區行忠路523號","121.4675","25.1991416666667","6501000","淡水區"
"251015","182-VK","2017/08/04 21:05:03","新北市淡水區淡金路四段542巷17號","121.45265","25.2270616666667","6501000","淡水區"
"251010","413-VK","2017/08/04 21:05:06","新北市淡水區中正路一段116-3號","121.42393","25.1787216666667","6501000","淡水區"
"251012","441-VK","2017/08/04 21:05:08","新北市淡水區六塊厝11-6號","121.452831666667","25.24099","6501000","淡水區"
"251001","559-UM","2017/08/04 21:05:12","新北市淡水區新市一路三段103號","121.446311666667","25.1830066666667","6501000","淡水區"
"251007","577-R6","2017/08/04 21:05:04","新北市淡水區水源街二段62號","121.451035","25.17408","6501000","淡水區"
"251011","650-BX","2017/08/04 21:05:10","新北市淡水區新民街222巷16弄1號","121.4374","25.1804483333333","6501000","淡水區"
"251003","673-BX","2017/08/04 21:05:03","新北市淡水區新春街103-39號","121.440533333333","25.1827466666667","6501000","淡水區"
"242048","751-BX","2017/08/04 21:04:57","新北市新莊區中環路三段2-1號","121.442413333333","25.0556233333333","6500500","新莊區"
"221018","753-BX","2017/08/04 21:05:10","新北市汐止區汐萬路一段256巷3號","121.653011666667","25.07438","6501100","汐止區"
"220088","491-VK","2017/08/04 21:05:16","新北市五股區凌雲路二段18巷62-2號","121.44278","25.10648","6500100","板橋區"
"220070","AAC-253","2017/08/04 21:04:45","新北市林口區太平里180號","121.366476666667","25.1343116666667","6500100","板橋區"
