"lineid","car","time","location","longitude","latitude","cityid","cityname"
"231009","719-UY","2017/06/20 10:02:41","新北市新店區平廣路一段256號","121.506931666667","24.8875616666667","6500600","新店區"
"247002","402-BY","2017/06/20 10:18:48","新北市五股區工商路8號","121.440668333333","25.08262","6501400","蘆洲區"
"227006","282-VK","2017/06/20 10:18:42","新北市雙溪區長源里柑腳18號","121.80469","25.0141433333333","6502500","雙溪區"
"227012","030-BX","2017/06/20 10:18:57","新北市雙溪區泰平里料角坑40號","121.793085","24.9596033333333","6502500","雙溪區"
"252004","702-TV","2017/06/20 10:18:47","新北市三芝區埔坪里埔頭坑41號","121.504495","25.2644583333333","6502100","三芝區"
"237001","361-BY","2017/06/20 09:53:09","新北市三峽區中山路459巷137號","121.34938","24.9335533333333","6500900","三峽區"
"237011","572-TV","2017/06/20 09:55:57","新北市三峽區中山路459巷163-3號","121.348768333333","24.9328533333333","6500900","三峽區"
"237001","682-BX","2017/06/20 09:26:05","新北市三峽區中山路459巷163-3號","121.348628333333","24.932665","6500900","三峽區"
