"lineid","car","time","location","longitude","latitude","cityid","cityname"
"231009","719-UY","2017/06/20 10:49:21","新北市新店區小坑一路21-1號","121.530715","24.9112383333333","6500600","新店區"
"247002","402-BY","2017/06/20 10:28:27","新北市五股區中興路三段3-6號","121.449723333333","25.07886","6501400","蘆洲區"
"227006","282-VK","2017/06/20 10:49:42","新北市雙溪區新基里新基東街15-2號","121.872453333333","25.0420733333333","6502500","雙溪區"
"252007","AAC-283","2017/06/20 00:10:09","新北市三芝區埔坪里埔頭坑41號","121.5045","25.2644116666667","6502100","三芝區"
"237001","361-BY","2017/06/20 09:53:09","新北市三峽區中山路459巷137號","121.34938","24.9335533333333","6500900","三峽區"
"237011","572-TV","2017/06/20 09:55:57","新北市三峽區中山路459巷163-3號","121.348768333333","24.9328533333333","6500900","三峽區"
"237001","682-BX","2017/06/20 09:26:05","新北市三峽區中山路459巷163-3號","121.348628333333","24.932665","6500900","三峽區"
