"lineid","car","time","location","longitude","latitude","cityid","cityname"
"231009","719-UY","2017/06/20 11:19:41","新北市新店區新烏路二段300號","121.548421666667","24.91296","6500600","新店區"
"247002","402-BY","2017/06/20 10:28:27","新北市五股區中興路三段3-6號","121.449723333333","25.07886","6501400","蘆洲區"
"227006","282-VK","2017/06/20 11:19:42","新北市雙溪區魚行里坤溪8號","121.866311666667","25.0213116666667","6502500","雙溪區"
"252007","AAC-283","2017/06/20 00:10:09","新北市三芝區埔坪里埔頭坑41號","121.5045","25.2644116666667","6502100","三芝區"
"237001","361-BY","2017/06/20 09:53:09","新北市三峽區中山路459巷137號","121.34938","24.9335533333333","6500900","三峽區"
"237011","572-TV","2017/06/20 09:55:57","新北市三峽區中山路459巷163-3號","121.348768333333","24.9328533333333","6500900","三峽區"
"237001","682-BX","2017/06/20 11:19:35","新北市三峽區中山路459巷163-3號","121.348558333333","24.9326266666667","6500900","三峽區"
