"lineid","car","time","location","longitude","latitude","cityid","cityname"
"234044","148-BY","2017/06/20 13:28:32","新北市永和區秀朗路二段257號","121.52635","24.999255","6500400","永和區"
"234012","149-BY","2017/06/20 13:28:20","新北市永和區永平路208號","121.509576666667","25.010085","6500400","永和區"
"234005","207-UY","2017/06/20 13:28:27","新北市永和區中山路一段238號","121.507396666667","25.00762","6500400","永和區"
"234078","298-R6","2017/06/20 13:28:22","新北市永和區福和路7巷5弄7號","121.525521666667","25.0082916666667","6500400","永和區"
"234036","336-UY","2017/06/20 13:28:24","新北市永和區環河東路四段22號","121.528608333333","24.9996016666667","6500400","永和區"
"234062","337-UY","2017/06/20 13:28:26","新北市永和區中正路368巷1弄88號","121.520521666667","25.00078","6500400","永和區"
"234084","338-UY","2017/06/20 13:28:32","新北市永和區林森路52號","121.524518333333","25.004445","6500400","永和區"
"234068","552-UM","2017/06/20 13:28:26","新北市永和區中興街11號","121.515693333333","25.012015","6500400","永和區"
"234052","553-UM","2017/06/20 13:28:21","新北市永和區永和路二段243號","121.515793333333","25.0147566666667","6500400","永和區"
"234015","745-BX","2017/06/20 13:28:36","新北市永和區永和路二段425巷37弄16號","121.513973333333","25.01731","6500400","永和區"
"234028","746-BX","2017/06/20 13:28:33","新北市永和區民權路1巷16號","121.521126666667","24.9980866666667","6500400","永和區"
"234060","AAD-866","2017/06/20 13:28:28","新北市永和區中正路524號","121.517286666667","25.004945","6500400","永和區"
"234040","862-TW","2017/06/20 13:28:25","新北市永和區水源街30巷2號","121.511383333333","25.004615","6500400","永和區"
"234048","863-TW","2017/06/20 13:28:32","新北市永和區仁愛路143號","121.511485","25.0129783333333","6500400","永和區"
"234025","9371-KE","2017/06/20 13:28:16","新北市永和區和平街30號","121.513316666667","25.0101433333333","6500400","永和區"
"234010","9373-KE","2017/06/20 13:28:34","新北市永和區仁愛路141巷23號","121.512426666667","25.01142","6500400","永和區"
"248017","225-UY","2017/06/20 13:28:34","新北市五股區民義路二段52巷22號","121.415733333333","25.1111783333333","6501500","五股區"
"234022","9380-KE","2017/06/20 13:25:33","新北市永和區竹林路91巷51弄2號","121.521695","25.013325","6500400","永和區"
"234076","969-R7","2017/06/20 13:28:35","新北市永和區得和路104巷9號","121.518068333333","24.9993566666667","6500400","永和區"
"234072","AAC-211","2017/06/20 13:28:18","新北市永和區永和路二段298號","121.516106666667","25.0158233333333","6500400","永和區"
"234066","AAC-212","2017/06/20 13:28:33","新北市永和區永貞路361巷2號","121.508935","25.0077916666667","6500400","永和區"
"234001","AAC-295","2017/06/20 13:27:00","新北市永和區永和路一段107號","121.5138","25.0079416666667","6500400","永和區"
"244002","248-BX","2017/06/20 13:28:23","新北市林口區頂福9號","121.358145","25.080545","6501700","林口區"
"243011","549-UM","2017/06/20 13:28:36","新北市泰山區中港南路350-32號","121.437651666667","25.05625","6501600","泰山區"
"231002","002-UM","2017/06/20 13:28:29","新北市新店區環河路64號","121.537123333333","24.9627016666667","6500600","新店區"
"231025","0291-UT","2017/06/20 13:28:37","新北市新店區中央五街39號","121.528421666667","24.9751116666667","6500600","新店區"
"231028","046-UY","2017/06/20 13:28:30","新北市新店區安康路一段355號","121.519835","24.96339","6500600","新店區"
"231030","047-UY","2017/06/20 13:28:27","新北市新店區安康路一段361號","121.518166666667","24.9639983333333","6500600","新店區"
"231029","106-UY","2017/06/20 13:28:23","新北市新店區安忠路57巷11弄14號","121.51488","24.95787","6500600","新店區"
"231018","107-UY","2017/06/20 13:28:17","新北市新店區環河路111-10號","121.530651666667","24.9705766666667","6500600","新店區"
"231012","108-UY","2017/06/20 13:28:31","新北市新店區德正街11號","121.54352","24.9732016666667","6500600","新店區"
"231020","187-VK","2017/06/20 13:28:39","新北市新店區新烏路一段100-2號","121.54495","24.9367466666667","6500600","新店區"
"231069","189-VK","2017/06/20 12:03:24","新北市新店區安華路28-1號","121.519668333333","24.96113","6500600","新店區"
"231026","256-BX","2017/06/20 13:28:36","新北市新店區安康路一段48號","121.530331666667","24.961145","6500600","新店區"
"231034","268-BY","2017/06/20 13:28:13","新北市新店區安忠路57巷13號","121.513551666667","24.9574366666667","6500600","新店區"
"231010","278-BY","2017/06/20 13:28:31","新北市新店區自由街7號","121.53551","24.975125","6500600","新店區"
"231015","AAD-862","2017/06/20 13:28:29","新北市新店區新烏路一段11巷7號","121.547298333333","24.9513116666667","6500600","新店區"
"231027","3712-VJ","2017/06/20 13:28:38","新北市新店區國校路10號","121.537818333333","24.955885","6500600","新店區"
"231024","3713-VJ","2017/06/20 13:28:31","新北市新店區中正路128巷12號","121.542485","24.9719416666667","6500600","新店區"
"231038","4715-K9","2017/06/20 13:28:31","新北市新店區安華路28-1號","121.519376666667","24.9605966666667","6500600","新店區"
"231036","512-UM","2017/06/20 13:28:31","新北市新店區建業路90號","121.479686666667","24.9553533333333","6500600","新店區"
"231023","513-UM","2017/06/20 13:28:27","新北市新店區北宜路一段152-1號","121.540238333333","24.9537916666667","6500600","新店區"
"231035","515-UM","2017/06/20 13:28:25","新北市新店區安華路28-1號","121.51955","24.96114","6500600","新店區"
"231003","616-UM","2017/06/20 13:28:28","新北市新店區北新路一段193號","121.540333333333","24.96477","6500600","新店區"
"231006","617-UM","2017/06/20 13:28:34","新北市新店區安華路28-1號","121.519416666667","24.9609233333333","6500600","新店區"
"231001","619-UM","2017/06/20 13:28:32","新北市新店區環河路100號","121.537008333333","24.963975","6500600","新店區"
"231068","718-UY","2017/06/20 13:28:34","新北市新店區國校路2巷1號","121.537943333333","24.9565283333333","6500600","新店區"
"231013","719-UM","2017/06/20 13:28:34","新北市新店區中正路454-5號","121.534465","24.9790466666667","6500600","新店區"
"231032","720-UM","2017/06/20 13:28:35","新北市新店區僑信路2巷16號","121.498905","24.95337","6500600","新店區"
"231005","897-TW","2017/06/20 13:28:20","新北市新店區光明街290號","121.540463333333","24.9647033333333","6500600","新店區"
"231004","899-TW","2017/06/20 13:28:37","新北市新店區安康路一段166號","121.52585","24.9630933333333","6500600","新店區"
"231037","AKT-0513","2017/06/20 13:27:51","新北市新店區薏仁坑路57號","121.490908333333","24.9639516666667","6500600","新店區"
"235030","003-UY","2017/06/20 13:28:32","新北市中和區中山路二段118號","121.502563333333","25.0038466666667","6500300","中和區"
"235028","005-UY","2017/06/20 13:28:26","新北市中和區圓通路141巷17號","121.498996666667","24.9953483333333","6500300","中和區"
"235027","006-UY","2017/06/20 13:28:35","新北市中和區中正路567號","121.486726666667","24.9942916666667","6500300","中和區"
"235018","031-BX","2017/06/20 13:28:26","新北市中和區民享街107號","121.474825","24.99959","6500300","中和區"
"235020","096-UM","2017/06/20 13:28:35","新北市中和區新民街91號","121.481166666667","25.008285","6500300","中和區"
"235003","097-UM","2017/06/20 13:28:25","新北市中和區景平路160號","121.517431666667","24.9921316666667","6500300","中和區"
"235029","098-UM","2017/06/20 13:28:25","新北市中和區莊敬路49巷20弄12號","121.502271666667","25.0059383333333","6500300","中和區"
"235004","150-BY","2017/06/20 13:28:30","新北市中和區保健路50巷66號","121.50929","24.99517","6500300","中和區"
"235022","151-BY","2017/06/20 13:28:29","新北市中和區圓通路369巷53-1號","121.49067","24.98451","6500300","中和區"
"235019","183-VK","2017/06/20 13:28:29","新北市中和區民享街494號","121.469728333333","24.9921766666667","6500300","中和區"
"235002","185-VK","2017/06/20 13:28:27","新北市中和區秀朗路三段128巷17弄6號","121.524221666667","24.9935016666667","6500300","中和區"
"235013","186-VK","2017/06/20 13:28:33","新北市中和區景平路480號","121.505151666667","24.9937216666667","6500300","中和區"
"235031","255-BX","2017/06/20 13:28:22","新北市中和區新生街242巷11弄8號","121.482876666667","24.99748","6500300","中和區"
"235036","301-VK","2017/06/20 13:28:36","新北市中和區中正路432巷30號","121.490818333333","24.9957366666667","6500300","中和區"
"235007","352-BY","2017/06/20 13:28:26","新北市中和區景平路377號","121.50414","24.9934566666667","6500300","中和區"
"235015","376-QA","2017/06/20 13:28:20","新北市中和區華新街137號","121.50661","24.9817883333333","6500300","中和區"
"235025","378-QA","2017/06/20 13:28:21","新北市中和區民享街116巷8號","121.474148333333","24.9989266666667","6500300","中和區"
"235014","4979-A6","2017/06/20 13:28:29","新北市中和區景新街410巷18弄19號","121.511835","24.9897533333333","6500300","中和區"
"235033","4980-A6","2017/06/20 13:28:17","新北市中和區連城路96號","121.4965","25.0000566666667","6500300","中和區"
"235006","551-UM","2017/06/20 13:28:23","新北市中和區自立路58巷25弄8號","121.52318","24.9910616666667","6500300","中和區"
"235034","558-UM","2017/06/20 13:28:37","新北市中和區景平路479號","121.500368333333","24.997345","6500300","中和區"
"235009","565-BX","2017/06/20 13:28:21","新北市中和區景安路214號","121.503933333333","24.9906333333333","6500300","中和區"
"235024","647-TV","2017/06/20 13:28:26","新北市中和區員山路107號","121.480845","24.9945583333333","6500300","中和區"
"235011","732-UM","2017/06/20 13:28:36","新北市中和區復興路53號","121.504511666667","24.9900416666667","6500300","中和區"
"235010","733-UM","2017/06/20 13:28:23","新北市中和區中正路637巷52弄1號","121.485465","24.9935033333333","6500300","中和區"
"235035","783-BX","2017/06/20 13:28:19","新北市中和區環中路136號","121.482033333333","25.0129733333333","6500300","中和區"
"235021","801-TS","2017/06/20 13:28:34","新北市中和區民安街67號","121.478531666667","24.999765","6500300","中和區"
"235016","805-TS","2017/06/20 13:28:24","新北市中和區興南路二段133號","121.505253333333","24.9841816666667","6500300","中和區"
"235012","896-TW","2017/06/20 13:28:24","新北市中和區和城路一段271巷1號","121.485461666667","24.9920433333333","6500300","中和區"
"235017","900-TW","2017/06/20 13:28:26","新北市中和區中正路637巷52弄1號","121.485396666667","24.993475","6500300","中和區"
"235026","911-UM","2017/06/20 13:28:26","新北市中和區景平路989巷31號","121.495125","25.004915","6500300","中和區"
"235005","157-BY","2017/06/20 13:28:25","新北市中和區中和路324巷3弄2號","121.509971666667","25.0007983333333","6500300","中和區"
"235001","AAC-213","2017/06/20 13:28:33","新北市中和區景平路73-1號","121.518801666667","24.99154","6500300","中和區"
"235023","AAC-215","2017/06/20 13:28:19","新北市中和區員山路36巷16-3號","121.485055","24.9912533333333","6500300","中和區"
"220013","072-UY","2017/06/20 13:28:39","新北市板橋區民生路二段36-1號","121.472596666667","25.0165883333333","6500100","板橋區"
"220034","073-UY","2017/06/20 13:28:31","新北市板橋區華東街1-10號","121.448266666667","24.995055","6500100","板橋區"
"247002","402-BY","2017/06/20 13:28:28","新北市蘆洲區民權路5號","121.476518333333","25.085755","6501400","蘆洲區"
"247007","339-TH","2017/06/20 13:28:27","新北市五股區中興路三段2巷10號","121.448718333333","25.0816216666667","6501400","蘆洲區"
"247013","057-VK","2017/06/20 13:28:36","新北市五股區中興路三段2巷10號","121.449298333333","25.0810333333333","6501400","蘆洲區"
"247015","001-UY","2017/06/20 13:28:28","新北市五股區中興路三段2巷10號","121.448755","25.0815283333333","6501400","蘆洲區"
"228004","212-TW","2017/06/20 13:28:33","新北市貢寮區龍崗里石壁坑街17號","121.910351666667","24.9895383333333","6502600","貢寮區"
"228005","828-UM","2017/06/20 13:27:40","新北市貢寮區美豐里文秀坑8號","121.901973333333","25.0504533333333","6502600","貢寮區"
"208004","AAC-292","2017/06/20 13:28:30","新北市金山區南勢湖82號","121.611863333333","25.212135","6502700","金山區"
"207002","749-BX","2017/06/20 13:28:36","新北市萬里區崁腳里崁腳路166號","121.64522","25.1560716666667","6502800","萬里區"
"207001","463-BY","2017/06/20 13:28:27","新北市萬里區野柳里八斗60號","121.670778333333","25.2018616666667","6502800","萬里區"
"252005","AAC-283","2017/06/20 00:10:09","新北市三芝區埔坪里埔頭坑41號","121.5045","25.2644116666667","6502100","三芝區"
"237001","361-BY","2017/06/20 13:28:23","新北市三峽區中山路459巷137號","121.34936","24.9335616666667","6500900","三峽區"
"237009","210-TH","2017/06/20 13:28:21","新北市三峽區中山路459巷52-1號","121.356778333333","24.9361483333333","6500900","三峽區"
"237001","682-BX","2017/06/20 12:29:40","新北市三峽區中山路459巷163-3號","121.348566666667","24.9326916666667","6500900","三峽區"
"236006","498-BY","2017/06/20 13:28:37","新北市土城區亞洲路11巷3弄2號","121.435018333333","24.9713233333333","6501300","土城區"
"242044","172-VK","2017/06/20 13:28:20","新北市新莊區裕民街2號","121.419338333333","25.0260383333333","6500500","新莊區"
"221010","276-VK","2017/06/20 13:25:46","新北市汐止區汐萬路一段256巷3號","121.65346","25.0746233333333","6501100","汐止區"
"221032","280-BY","2017/06/20 13:28:29","新北市汐止區水源路一段56號","121.657441666667","25.0655416666667","6501100","汐止區"
"221027","281-BY","2017/06/20 13:28:31","新北市汐止區汐平路一段74號","121.684356666667","25.0697166666667","6501100","汐止區"
"221018","753-BX","2017/06/20 13:28:27","新北市汐止區福德一路462巷3號","121.624826666667","25.059125","6501100","汐止區"
"220027","145-BY","2017/06/20 13:28:39","新北市板橋區南雅西路二段145巷6號","121.451583333333","25.011865","6500100","板橋區"
"220030","610-BX","2017/06/20 13:28:30","新北市板橋區華東街1-10號","121.448261666667","24.9949516666667","6500100","板橋區"
"220004","276-BY","2017/06/20 13:28:22","新北市板橋區中山路一段176號","121.467603333333","25.0127","6500100","板橋區"
"220020","277-BY","2017/06/20 13:28:34","新北市板橋區華東街1-10號","121.448275","24.9950783333333","6500100","板橋區"
"220032","296-UM","2017/06/20 13:28:29","新北市板橋區華東街1-9號","121.448163333333","24.9949566666667","6500100","板橋區"
"220011","609-BX","2017/06/20 13:28:30","新北市板橋區民生路二段36-1號","121.472428333333","25.0165583333333","6500100","板橋區"
"220002","741-BX","2017/06/20 13:28:24","新北市板橋區民生路二段16號","121.472871666667","25.0164916666667","6500100","板橋區"
"220022","895-R6","2017/06/20 13:28:24","新北市板橋區南雅南路二段126號","121.45223","24.9968633333333","6500100","板橋區"
