"lineid","car","time","location","longitude","latitude","cityid","cityname"
"234044","148-BY","2017/06/20 13:49:52","新北市永和區永利路141號","121.524153333333","25.0035566666667","6500400","永和區"
"234012","149-BY","2017/06/20 13:49:40","新北市永和區保生路55號","121.50473","25.0106033333333","6500400","永和區"
"234005","207-UY","2017/06/20 13:49:44","新北市永和區永和路一段12號","121.512956666667","25.004645","6500400","永和區"
"234078","298-R6","2017/06/20 13:49:43","新北市永和區林森路99號","121.523511666667","25.00364","6500400","永和區"
"234036","336-UY","2017/06/20 13:49:44","新北市永和區成功路二段100號","121.52659","24.9982116666667","6500400","永和區"
"234062","337-UY","2017/06/20 13:49:46","新北市永和區中正路368巷26號","121.518751666667","25.0006566666667","6500400","永和區"
"234084","338-UY","2017/06/20 13:49:52","新北市永和區永利路3號","121.517445","25.0060216666667","6500400","永和區"
"234068","552-UM","2017/06/20 13:49:46","新北市永和區福和路224號","121.519078333333","25.0079333333333","6500400","永和區"
"234052","553-UM","2017/06/20 13:49:41","新北市永和區竹林路75巷25弄3號","121.520213333333","25.01406","6500400","永和區"
"234015","745-BX","2017/06/20 13:49:36","新北市永和區文化路109號","121.512891666667","25.0152333333333","6500400","永和區"
"234028","746-BX","2017/06/20 13:49:53","新北市永和區民生路47巷58號","121.525713333333","24.9977566666667","6500400","永和區"
"234060","AAD-866","2017/06/20 13:49:54","新北市永和區中正路382號","121.517606666667","25.0012766666667","6500400","永和區"
"234040","862-TW","2017/06/20 13:49:45","新北市永和區中和路335巷14號","121.507473333333","25.0002733333333","6500400","永和區"
"234048","863-TW","2017/06/20 13:49:50","新北市永和區保安路81號","121.508565","25.0147866666667","6500400","永和區"
"234025","9371-KE","2017/06/20 13:49:36","新北市永和區自由街56號","121.51369","25.0059383333333","6500400","永和區"
"234010","9373-KE","2017/06/20 13:49:34","新北市永和區新生路273巷1-1號","121.5048","25.012765","6500400","永和區"
"248017","225-UY","2017/06/20 13:49:34","新北市五股區民義路二段22巷24號","121.423906666667","25.09824","6501500","五股區"
"234022","9380-KE","2017/06/20 13:49:53","新北市永和區永和路二段243號","121.515766666667","25.0147516666667","6500400","永和區"
"234076","969-R7","2017/06/20 13:49:35","新北市永和區民治街51號","121.518908333333","24.99773","6500400","永和區"
"234072","AAC-211","2017/06/20 13:49:38","新北市永和區豫溪街215巷11號","121.523835","25.00993","6500400","永和區"
"234066","AAC-212","2017/06/20 13:49:53","新北市永和區永平路173巷14弄4號","121.510176666667","25.0085216666667","6500400","永和區"
"234001","AAC-295","2017/06/20 13:48:20","新北市永和區永和路一段118號","121.513995","25.007845","6500400","永和區"
"243011","549-UM","2017/06/20 13:49:36","新北市泰山區中港南路350號","121.438721666667","25.0571583333333","6501600","泰山區"
"231002","002-UM","2017/06/20 13:49:49","新北市新店區溪園路245-6號","121.525223333333","24.9831133333333","6500600","新店區"
"231025","0291-UT","2017/06/20 13:49:37","新北市新店區中央五街39號","121.52842","24.97506","6500600","新店區"
"231028","046-UY","2017/06/20 13:49:51","新北市新店區安和路三段7號","121.51807","24.9806233333333","6500600","新店區"
"231030","047-UY","2017/06/20 13:49:47","新北市新店區安和路一段6-6號","121.517288333333","24.9653583333333","6500600","新店區"
"231029","106-UY","2017/06/20 13:49:44","新北市新店區安康路二段125-1號","121.512441666667","24.96089","6500600","新店區"
"231018","107-UY","2017/06/20 13:49:38","新北市新店區中正路400巷26號","121.535401666667","24.97847","6500600","新店區"
"231012","108-UY","2017/06/20 13:49:51","新北市新店區中興路二段67巷10號","121.5462","24.9710433333333","6500600","新店區"
"231020","187-VK","2017/06/20 13:49:39","新北市新店區新烏路二段50巷28號","121.54726","24.9268933333333","6500600","新店區"
"231069","189-VK","2017/06/20 12:03:24","新北市新店區安華路28-1號","121.519668333333","24.96113","6500600","新店區"
"231026","256-BX","2017/06/20 13:49:36","新北市新店區自由街45號","121.534813333333","24.973655","6500600","新店區"
"231034","268-BY","2017/06/20 13:49:33","新北市新店區達觀路16號","121.503123333333","24.94085","6500600","新店區"
"231010","278-BY","2017/06/20 13:49:50","新北市新店區平等街48巷8號","121.535846666667","24.973105","6500600","新店區"
"231015","AAD-862","2017/06/20 13:49:49","新北市新店區竹林路94號","121.553926666667","24.9501983333333","6500600","新店區"
"231027","3712-VJ","2017/06/20 13:49:38","新北市新店區中興路一段24號","121.538638333333","24.9582833333333","6500600","新店區"
"231024","3713-VJ","2017/06/20 13:49:51","新北市新店區新生街20巷2號","121.539841666667","24.966505","6500600","新店區"
"231038","4715-K9","2017/06/20 13:49:51","新北市新店區安華路30巷1號","121.51958","24.959275","6500600","新店區"
"231036","512-UM","2017/06/20 13:49:51","新北市新店區安祥路110巷30弄1號","121.47382","24.9564816666667","6500600","新店區"
"231023","513-UM","2017/06/20 13:49:47","新北市新店區國校路6號","121.537886666667","24.9563083333333","6500600","新店區"
"231035","515-UM","2017/06/20 13:49:44","新北市新店區安忠路57巷9弄1號","121.513443333333","24.958345","6500600","新店區"
"231003","616-UM","2017/06/20 13:49:48","新北市新店區中興路一段115號","121.541495","24.9627933333333","6500600","新店區"
"231006","617-UM","2017/06/20 13:49:54","新北市新店區北宜路一段260號","121.545715","24.9527683333333","6500600","新店區"
"231001","619-UM","2017/06/20 13:49:39","新北市新店區三民路80號","121.53468","24.9724816666667","6500600","新店區"
"231013","719-UM","2017/06/20 13:49:48","新北市新店區二十張路25巷18弄16號","121.539205","24.981545","6500600","新店區"
"231032","720-UM","2017/06/20 13:49:35","新北市新店區莒光路44巷21弄11-6號","121.518506666667","24.95223","6500600","新店區"
"231005","897-TW","2017/06/20 13:49:41","新北市新店區寶中路120號","121.55013","24.9788266666667","6500600","新店區"
"231004","899-TW","2017/06/20 13:49:37","新北市新店區中興路三段1-20號","121.546641666667","24.9760166666667","6500600","新店區"
"231037","AKT-0513","2017/06/20 13:49:51","新北市新店區安康路二段406號","121.496851666667","24.9553133333333","6500600","新店區"
"235030","003-UY","2017/06/20 13:49:51","新北市中和區水源路7巷4號","121.503958333333","25.0035883333333","6500300","中和區"
"235028","005-UY","2017/06/20 13:49:46","新北市中和區連城路89巷5號","121.49704","24.99952","6500300","中和區"
"235027","006-UY","2017/06/20 13:49:35","新北市中和區錦和路101號","121.490118333333","24.995445","6500300","中和區"
"235018","031-BX","2017/06/20 13:49:46","新北市中和區民享街54巷12號","121.473348333333","25.0023833333333","6500300","中和區"
"235020","096-UM","2017/06/20 13:49:52","新北市中和區中正路1206巷1號","121.480193333333","25.0108016666667","6500300","中和區"
"235003","097-UM","2017/06/20 13:49:45","新北市中和區大勇街29巷23弄1號","121.515416666667","24.99457","6500300","中和區"
"235029","098-UM","2017/06/20 13:49:45","新北市中和區中山路二段2巷41號","121.502618333333","25.0069833333333","6500300","中和區"
"235004","150-BY","2017/06/20 13:49:50","新北市中和區保健路61巷1號","121.509593333333","24.9973316666667","6500300","中和區"
"235022","151-BY","2017/06/20 13:49:49","新北市中和區連城路456巷1號","121.478958333333","24.99455","6500300","中和區"
"235019","183-VK","2017/06/20 13:49:49","新北市中和區德光路77巷5號","121.469738333333","25.0034683333333","6500300","中和區"
"235002","185-VK","2017/06/20 13:49:47","新北市中和區自強路60號","121.519796666667","24.9945216666667","6500300","中和區"
"235013","186-VK","2017/06/20 13:49:33","新北市中和區景安路179號","121.50516","24.99411","6500300","中和區"
"235031","255-BX","2017/06/20 13:49:42","新北市中和區新生街242巷1弄9號","121.483373333333","24.99749","6500300","中和區"
"235008","293-VK","2017/06/20 13:49:42","新北市中和區復興路274巷12號","121.502978333333","24.9907933333333","6500300","中和區"
"235036","301-VK","2017/06/20 13:49:36","新北市中和區中山路二段31號","121.504905","25.00513","6500300","中和區"
"235007","352-BY","2017/06/20 13:49:46","新北市中和區景平路59號","121.521408333333","24.9907116666667","6500300","中和區"
"235015","376-QA","2017/06/20 13:49:39","新北市中和區華新街109巷11弄3-10號","121.508846666667","24.9796266666667","6500300","中和區"
"235032","377-QA","2017/06/20 13:49:44","新北市中和區中正路167巷15號","121.498383333333","24.9928583333333","6500300","中和區"
"235025","378-QA","2017/06/20 13:49:41","新北市中和區民治街128巷12號","121.47463","25.0029083333333","6500300","中和區"
"235014","4979-A6","2017/06/20 13:49:49","新北市中和區忠孝街50號","121.511406666667","24.983395","6500300","中和區"
"235033","4980-A6","2017/06/20 13:49:45","新北市中和區南山路109號","121.502128333333","24.9974766666667","6500300","中和區"
"235006","551-UM","2017/06/20 13:49:43","新北市中和區秀朗路三段70巷32號","121.52569","24.9944533333333","6500300","中和區"
"235034","558-UM","2017/06/20 13:49:37","新北市中和區南山路75號","121.502006666667","24.9980483333333","6500300","中和區"
"235009","565-BX","2017/06/20 13:49:54","新北市中和區南山路234號","121.506608333333","24.989955","6500300","中和區"
"235024","647-TV","2017/06/20 13:49:47","新北市中和區中山路三段112號","121.476128333333","25.005885","6500300","中和區"
"235011","732-UM","2017/06/20 13:49:36","新北市中和區興南路二段34巷57弄1號","121.504931666667","24.9859083333333","6500300","中和區"
"235010","733-UM","2017/06/20 13:49:43","新北市中和區仁愛街36巷44號","121.511333333333","24.986325","6500300","中和區"
"235035","783-BX","2017/06/20 13:49:39","新北市中和區立德街26巷5弄28號","121.489588333333","25.0080783333333","6500300","中和區"
"235021","801-TS","2017/06/20 13:49:34","新北市中和區民安街4號","121.4809","25.0010366666667","6500300","中和區"
"235016","805-TS","2017/06/20 13:49:44","新北市中和區興南路三段35號","121.496848333333","24.9781816666667","6500300","中和區"
"235012","896-TW","2017/06/20 13:49:44","新北市中和區南山路415號","121.507101666667","24.9896783333333","6500300","中和區"
"235017","900-TW","2017/06/20 13:49:52","新北市中和區華順街103巷10號","121.465731666667","24.9972933333333","6500300","中和區"
"235026","911-UM","2017/06/20 13:49:46","新北市中和區景平路703巷2弄2號","121.496176666667","25.0036083333333","6500300","中和區"
"235005","157-BY","2017/06/20 13:49:45","新北市中和區中和路472號","121.512363333333","25.0040833333333","6500300","中和區"
"235001","AAC-213","2017/06/20 13:49:36","新北市中和區景平路111巷67號","121.515135","24.99034","6500300","中和區"
"235023","AAC-215","2017/06/20 13:49:39","新北市中和區圓通路385號","121.490175","24.9892733333333","6500300","中和區"
"220013","072-UY","2017/06/20 13:49:39","新北市板橋區民生路二段36-1號","121.47239","25.0166883333333","6500100","板橋區"
"220034","073-UY","2017/06/20 13:49:51","新北市板橋區大智街71巷5弄1號","121.453306666667","25.0149383333333","6500100","板橋區"
"220105","075-UY","2017/06/20 13:49:55","新北市板橋區民生路二段120號","121.470365","25.0196566666667","6500100","板橋區"
"220017","AAD-861","2017/06/20 13:49:34","新北市板橋區觀光街1巷1號","121.472206666667","25.0154433333333","6500100","板橋區"
"247017","500-BY","2017/06/20 13:49:43","新北市蘆洲區民族路253號","121.476638333333","25.090325","6501400","蘆洲區"
"247002","402-BY","2017/06/20 13:49:49","新北市蘆洲區民權路5號","121.476538333333","25.0858066666667","6501400","蘆洲區"
"247005","341-TH","2017/06/20 13:49:38","新北市蘆洲區和平路77號","121.46929","25.0790183333333","6501400","蘆洲區"
"247007","339-TH","2017/06/20 13:49:48","新北市蘆洲區重陽街72號","121.481946666667","25.0841766666667","6501400","蘆洲區"
"247001","336-TH","2017/06/20 13:49:43","新北市五股區凌雲路一段25號","121.452325","25.10019","6501400","蘆洲區"
"247013","057-VK","2017/06/20 13:49:36","新北市蘆洲區中正路102號","121.469663333333","25.0844316666667","6501400","蘆洲區"
"247003","056-VK","2017/06/20 13:49:52","新北市蘆洲區中原路19號","121.46056","25.0828366666667","6501400","蘆洲區"
"247015","001-UY","2017/06/20 13:49:48","新北市蘆洲區光華路29號","121.469176666667","25.0831633333333","6501400","蘆洲區"
"223008","406-TH","2017/06/20 09:56:18","新北市石碇區小粗坑(潭邊里)9-2號","121.678801666667","24.9856433333333","6501900","石碇區"
"228004","212-TW","2017/06/20 13:39:13","新北市貢寮區龍崗里嵩陽街17號","121.907633333333","25.0099083333333","6502600","貢寮區"
"228005","828-UM","2017/06/20 13:48:40","新北市貢寮區美豐里土地公嶺10號","121.889698333333","25.0574183333333","6502600","貢寮區"
"227008","400-TW","2017/06/20 13:44:27","新北市雙溪區三貂里政光路3-1號","121.850901666667","25.06303","6502500","雙溪區"
"208004","AAC-292","2017/06/20 13:49:40","新北市金山區重和里三重橋27號","121.587121666667","25.1896733333333","6502700","金山區"
"207002","749-BX","2017/06/20 13:49:36","新北市萬里區崁腳里崁腳路173-1號","121.646616666667","25.1549616666667","6502800","萬里區"
"207001","463-BY","2017/06/20 13:49:47","新北市萬里區磺潭里清水1號","121.640456666667","25.2021733333333","6502800","萬里區"
"252005","AAC-283","2017/06/20 00:10:09","新北市三芝區埔坪里埔頭坑41號","121.5045","25.2644116666667","6502100","三芝區"
"237001","361-BY","2017/06/20 13:49:43","新北市三峽區中山路459巷163-1號","121.349361666667","24.9335383333333","6500900","三峽區"
"237009","210-TH","2017/06/20 13:49:41","新北市三峽區信義街2號","121.370768333333","24.9361583333333","6500900","三峽區"
"237001","682-BX","2017/06/20 12:29:40","新北市三峽區中山路459巷163-3號","121.348566666667","24.9326916666667","6500900","三峽區"
"236065","105-UM","2017/06/20 13:49:50","新北市土城區城林路6巷80號","121.438715","24.9797083333333","6501300","土城區"
"236041","107-UM","2017/06/20 13:47:26","新北市土城區中央路二段280號","121.440776666667","24.9742466666667","6501300","土城區"
"236075","166-UM","2017/06/20 13:49:39","新北市土城區中央路三段140號","121.433108333333","24.9655433333333","6501300","土城區"
"236029","253-BX","2017/06/20 13:49:52","新北市土城區城林路6巷80號","121.438551666667","24.97972","6501300","土城區"
"236025","269-VK","2017/06/20 13:49:46","新北市土城區中華路二段198號","121.43753","24.9701533333333","6501300","土城區"
"236013","270-VK","2017/06/20 13:49:48","新北市土城區城林路6巷80號","121.43833","24.97977","6501300","土城區"
"236034","271-VK","2017/06/20 13:49:47","新北市土城區城林路6巷80號","121.438583333333","24.97977","6501300","土城區"
"236017","401-BY","2017/06/20 13:49:47","新北市土城區城林路6巷80號","121.43861","24.979765","6501300","土城區"
"236006","498-BY","2017/06/20 13:49:50","新北市土城區學府路二段156-1號","121.445813333333","24.978605","6501300","土城區"
"236057","912-UM","2017/06/20 13:49:43","新北市土城區城林路6巷80號","121.438355","24.9797833333333","6501300","土城區"
"236045","913-UM","2017/06/19 21:16:36","新北市土城區城林路6巷80號","121.438355","24.979825","6501300","土城區"
"236061","915-UM","2017/06/20 13:49:44","新北市土城區城林路6巷80號","121.43844","24.9798733333333","6501300","土城區"
"236054","AAC-216","2017/06/20 13:49:35","新北市土城區城林路6巷80號","121.438333333333","24.9797366666667","6501300","土城區"
"242044","172-VK","2017/06/20 13:49:39","新北市新莊區四維路119巷6號","121.423438333333","25.0229483333333","6500500","新莊區"
"221010","276-VK","2017/06/20 13:25:46","新北市汐止區汐萬路一段256巷3號","121.65346","25.0746233333333","6501100","汐止區"
"221027","281-BY","2017/06/20 13:49:51","新北市汐止區大安街52巷2號","121.678238333333","25.07285","6501100","汐止區"
"221025","567-BX","2017/06/20 13:36:36","新北市汐止區忠三街26巷26號","121.629731666667","25.0771083333333","6501100","汐止區"
"221018","753-BX","2017/06/20 13:49:47","新北市汐止區大同路一段203號","121.633451666667","25.0571816666667","6501100","汐止區"
"220027","145-BY","2017/06/20 13:49:51","新北市板橋區板城路319號","121.451763333333","25.0011583333333","6500100","板橋區"
"220042","146-RM","2017/06/20 13:49:37","新北市板橋區民生路二段120號","121.470323333333","25.0197466666667","6500100","板橋區"
"220028","200-UY","2017/06/20 13:49:50","新北市板橋區大觀路二段265巷76弄2號","121.442508333333","24.996685","6500100","板橋區"
"220030","610-BX","2017/06/20 13:49:50","新北市板橋區篤行路二段127-2號","121.43127","24.9906483333333","6500100","板橋區"
"220050","245-BX","2017/06/19 21:28:41","新北市板橋區民生路二段120號","121.470776666667","25.0199983333333","6500100","板橋區"
"220004","276-BY","2017/06/20 13:49:42","新北市土城區四川路11號","121.45546","24.9959716666667","6500100","板橋區"
"220020","277-BY","2017/06/20 13:49:54","新北市板橋區金門街25巷8號","121.433901666667","24.99429","6500100","板橋區"
"220012","280-UM","2017/06/20 13:49:55","新北市板橋區觀光街8號","121.472361666667","25.0164983333333","6500100","板橋區"
"220043","283-UM","2017/06/20 13:49:34","新北市板橋區民生路二段188號","121.47013","25.0203333333333","6500100","板橋區"
"220019","283-VK","2017/06/20 13:49:37","新北市板橋區觀光街2-1號","121.472345","25.01541","6500100","板橋區"
"220038","285-UM","2017/06/20 13:49:39","新北市板橋區民生路二段120號","121.470525","25.0197183333333","6500100","板橋區"
"220001","285-VK","2017/06/20 13:49:54","新北市板橋區民生路二段66號","121.471971666667","25.0179433333333","6500100","板橋區"
"220031","286-VK","2017/06/20 13:49:51","新北市板橋區大觀路二段22巷26號","121.445348333333","25.0036066666667","6500100","板橋區"
"220029","287-VK","2017/06/20 13:49:51","新北市板橋區南雅西路二段145巷3號","121.451665","25.0114916666667","6500100","板橋區"
"220039","288-VK","2017/06/20 13:49:44","新北市板橋區民生路二段161巷9號","121.470311666667","25.0196216666667","6500100","板橋區"
"220009","293-UM","2017/06/20 13:49:51","新北市板橋區民生路二段46號","121.472366666667","25.01754","6500100","板橋區"
"220032","296-UM","2017/06/20 13:49:49","新北市板橋區大觀路二段150巷77號","121.441408333333","25.00115","6500100","板橋區"
"220023","297-UM","2017/06/20 13:49:44","新北市板橋區華東街328號","121.452866666667","25.0034183333333","6500100","板橋區"
"220010","305-R5","2017/06/20 13:49:48","新北市板橋區民生路二段15號","121.472526666667","25.015995","6500100","板橋區"
"220041","307-R5","2017/06/20 13:49:46","新北市板橋區民生路二段120號","121.470635","25.0196116666667","6500100","板橋區"
"220047","317-R6","2017/06/20 13:49:40","新北市板橋區民生路二段120號","121.470303333333","25.0198883333333","6500100","板橋區"
"220037","491-VK","2017/06/20 13:48:28","新北市板橋區民生路二段120號","121.470378333333","25.0196483333333","6500100","板橋區"
"220104","560-BX","2017/06/20 13:49:45","新北市板橋區中正路325巷3弄3-1號","121.453718333333","25.0190666666667","6500100","板橋區"
"220052","561-BX","2017/06/20 13:49:47","新北市板橋區民生路二段120號","121.470455","25.01951","6500100","板橋區"
"220010","568-UM","2017/06/20 13:49:39","新北市板橋區民生路二段36號","121.472575","25.017335","6500100","板橋區"
"220011","609-BX","2017/06/20 13:49:51","新北市板橋區民生路二段36-1號","121.472383333333","25.016855","6500100","板橋區"
"220040","637-BX","2017/06/20 13:49:49","新北市板橋區民生路二段188號","121.470426666667","25.0202733333333","6500100","板橋區"
"220005","686-BX","2017/06/20 13:49:43","新北市板橋區民生路二段36-1號","121.472473333333","25.01681","6500100","板橋區"
"220025","687-BX","2017/06/20 13:49:55","新北市板橋區金門街88-2號","121.43312","24.9926816666667","6500100","板橋區"
"220002","741-BX","2017/06/20 13:49:44","新北市板橋區觀光街2-3號","121.472261666667","25.0154616666667","6500100","板橋區"
"220003","827-TW","2017/06/20 13:49:42","新北市板橋區民生路二段15-1號","121.472703333333","25.016455","6500100","板橋區"
"220014","829-TW","2017/06/20 13:49:51","新北市板橋區民生路二段15號","121.47266","25.0161633333333","6500100","板橋區"
"220051","830-TW","2017/06/19 21:52:56","新北市板橋區民生路二段120號","121.470591666667","25.0199783333333","6500100","板橋區"
"220045","831-TW","2017/06/20 01:26:14","新北市板橋區民生路二段168號","121.471558333333","25.020335","6500100","板橋區"
"220022","895-R6","2017/06/20 13:49:44","新北市板橋區南雅南路一段42號","121.455765","25.006085","6500100","板橋區"
"220021","985-R7","2017/06/20 13:49:44","新北市板橋區南門街44號","121.456945","25.008175","6500100","板橋區"
"220046","AAC-210","2017/06/20 13:49:54","新北市板橋區民生路二段120號","121.470525","25.0196616666667","6500100","板橋區"
"220018","AAC-253","2017/06/20 13:49:34","新北市板橋區民生路二段36-1號","121.472321666667","25.0168716666667","6500100","板橋區"
