"lineid","car","time","location","longitude","latitude","cityid","cityname"
"234062","337-UY","2017/06/20 14:39:26","新北市永和區環河西路二段167號","121.505143333333","25.0137583333333","6500400","永和區"
"234028","746-BX","2017/06/20 14:37:53","新北市三重區後埔街61號","121.479635","25.0485916666667","6500400","永和區"
"234040","862-TW","2017/06/20 14:39:25","新北市永和區環河西路二段185號","121.502328333333","25.0114033333333","6500400","永和區"
"234025","9371-KE","2017/06/20 14:39:16","新北市永和區雙和街7巷7-1號","121.50951","25.00145","6500400","永和區"
"248017","225-UY","2017/06/20 14:25:34","新北市五股區外寮路6-1號","121.425171666667","25.0751566666667","6501500","五股區"
"234066","AAC-212","2017/06/20 14:39:12","新北市中和區保平路231號","121.50798","25.00444","6500400","永和區"
"234001","AAC-295","2017/06/20 14:37:40","新北市永和區中正路620號","121.517051666667","25.0078366666667","6500400","永和區"
"244002","248-BX","2017/06/20 14:39:23","新北市林口區林口路76號","121.38965","25.0806966666667","6501700","林口區"
"243011","549-UM","2017/06/20 14:39:16","新北市泰山區新五路一段26號","121.44078","25.0607516666667","6501600","泰山區"
"231002","002-UM","2017/06/20 14:39:28","新北市新店區中正路468號","121.534035","24.9794266666667","6500600","新店區"
"231025","0291-UT","2017/06/20 14:39:17","新北市新店區民族路163號","121.537613333333","24.97667","6500600","新店區"
"231028","046-UY","2017/06/20 14:39:23","新北市新店區安德街52-2號","121.510893333333","24.96281","6500600","新店區"
"231030","047-UY","2017/06/20 14:39:27","新北市新店區安民街281號","121.517561666667","24.973225","6500600","新店區"
"231029","106-UY","2017/06/20 14:39:23","新北市新店區安康路三段265號","121.48652","24.9518466666667","6500600","新店區"
"231018","107-UY","2017/06/20 14:39:17","新北市新店區中央路208號","121.530281666667","24.9739333333333","6500600","新店區"
"231012","108-UY","2017/06/20 14:39:11","新北市新店區寶橋路160號","121.549041666667","24.9771166666667","6500600","新店區"
"231020","187-VK","2017/06/20 14:39:19","新北市新店區櫻花街55巷18號","121.548946666667","24.9251383333333","6500600","新店區"
"231069","189-VK","2017/06/20 12:03:24","新北市新店區安華路28-1號","121.519668333333","24.96113","6500600","新店區"
"231034","268-BY","2017/06/20 14:39:13","新北市新店區黎明路52巷9號","121.502035","24.9487683333333","6500600","新店區"
"231015","AAD-862","2017/06/20 14:39:20","新北市新店區北宜路三段140號","121.584923333333","24.95003","6500600","新店區"
"231027","3712-VJ","2017/06/20 14:39:18","新北市新店區中正路102巷8弄6號","121.543578333333","24.9711416666667","6500600","新店區"
"231038","4715-K9","2017/06/20 14:39:11","新北市新店區安康路一段85號","121.529315","24.9614683333333","6500600","新店區"
"231036","512-UM","2017/06/20 14:39:11","新北市新店區安祥路106巷343號","121.4728","24.95935","6500600","新店區"
"231023","513-UM","2017/06/20 14:39:27","新北市新店區檳榔路41巷2號","121.542815","24.9632466666667","6500600","新店區"
"231035","515-UM","2017/06/20 14:39:25","新北市新店區安康路二段118-9號","121.512896666667","24.9635283333333","6500600","新店區"
"231003","616-UM","2017/06/20 14:39:08","新北市新店區中興路一段285號","121.545423333333","24.968525","6500600","新店區"
"231006","617-UM","2017/06/20 14:39:20","新北市新店區北宜路二段66號","121.551413333333","24.952995","6500600","新店區"
"231001","619-UM","2017/06/20 14:39:12","新北市新店區中正路74號","121.543905","24.9702433333333","6500600","新店區"
"231013","719-UM","2017/06/20 14:39:14","新北市新店區明德路15號","121.542158333333","24.976895","6500600","新店區"
"231005","897-TW","2017/06/20 14:39:20","新北市新店區復興路86號","121.533626666667","24.9882066666667","6500600","新店區"
"231004","899-TW","2017/06/20 14:39:17","新北市新店區中正路263-2號","121.538421666667","24.9738083333333","6500600","新店區"
"231037","AKT-0513","2017/06/20 14:39:11","新北市新店區車子路10號","121.50458","24.95497","6500600","新店區"
"235030","003-UY","2017/06/20 14:39:11","新北市中和區景新街164號","121.505826666667","24.9970783333333","6500300","中和區"
"235028","005-UY","2017/06/20 14:39:26","新北市中和區南山路127巷30弄2號","121.503773333333","24.9975333333333","6500300","中和區"
"235027","006-UY","2017/06/20 14:39:20","新北市中和區連城路174巷8-1號","121.492741666667","24.9977866666667","6500300","中和區"
"235018","031-BX","2017/06/20 14:39:26","新北市中和區國光街112巷14弄8號","121.470611666667","25.0012566666667","6500300","中和區"
"235020","096-UM","2017/06/20 14:39:12","新北市中和區員山路581巷2弄1號","121.477961666667","25.0095183333333","6500300","中和區"
"235003","097-UM","2017/06/20 14:39:25","新北市中和區景平路266號","121.514543333333","24.9926116666667","6500300","中和區"
"235029","098-UM","2017/06/20 14:39:25","新北市中和區莊敬路31巷17號","121.49999","25.0052666666667","6500300","中和區"
"235004","150-BY","2017/06/20 14:39:10","新北市中和區保健路50巷66號","121.50936","24.9951466666667","6500300","中和區"
"235022","151-BY","2017/06/20 14:39:09","新北市中和區員山路124巷2號","121.481545","24.9959416666667","6500300","中和區"
"235019","183-VK","2017/06/20 14:39:09","新北市中和區德光路38號","121.470336666667","25.0049116666667","6500300","中和區"
"235002","185-VK","2017/06/20 14:39:27","新北市中和區立人街19號","121.5214","24.9941066666667","6500300","中和區"
"235013","186-VK","2017/06/20 14:39:13","新北市中和區安平路17號","121.509158333333","24.9941283333333","6500300","中和區"
"235031","255-BX","2017/06/20 14:39:22","新北市中和區新生街220巷15弄4號","121.482903333333","24.9979766666667","6500300","中和區"
"235008","293-VK","2017/06/20 14:39:22","新北市中和區復興路259號","121.503023333333","24.99034","6500300","中和區"
"235036","301-VK","2017/06/20 14:39:16","新北市中和區保平路326巷35號","121.506178333333","25.00484","6500300","中和區"
"235007","352-BY","2017/06/20 14:39:26","新北市中和區景平路460號","121.505801666667","24.9934783333333","6500300","中和區"
"235015","376-QA","2017/06/20 14:39:20","新北市中和區中興街180巷52弄3號","121.498485","24.9882716666667","6500300","中和區"
"235032","377-QA","2017/06/20 14:39:24","新北市中和區永和路8巷21號","121.501106666667","25.0035383333333","6500300","中和區"
"235025","378-QA","2017/06/20 14:39:21","新北市中和區新生街166巷20號","121.48261","25.0002133333333","6500300","中和區"
"235014","4979-A6","2017/06/20 14:39:09","新北市中和區和平街164巷4號","121.505941666667","24.99237","6500300","中和區"
"235006","551-UM","2017/06/20 14:39:23","新北市中和區保健路2巷10號","121.507523333333","24.9980033333333","6500300","中和區"
"235034","558-UM","2017/06/20 14:39:17","新北市中和區景平路601號","121.496945","25.0008783333333","6500300","中和區"
"235009","565-BX","2017/06/20 14:39:21","新北市中和區景新街368號","121.512191666667","24.990475","6500300","中和區"
"235024","647-TV","2017/06/20 14:39:26","新北市中和區中山路二段523巷27號","121.482143333333","25.0034683333333","6500300","中和區"
"235011","732-UM","2017/06/20 14:39:16","新北市中和區南山路329號","121.505426666667","24.99099","6500300","中和區"
"235010","733-UM","2017/06/20 14:39:23","新北市中和區忠孝街94號","121.511688333333","24.9844983333333","6500300","中和區"
"235035","783-BX","2017/06/20 14:39:20","新北市中和區建一路251號","121.48818","24.9967566666667","6500300","中和區"
"235021","801-TS","2017/06/20 14:39:14","新北市中和區中山路三段35號","121.47894","25.0055366666667","6500300","中和區"
"235016","805-TS","2017/06/20 14:39:24","新北市中和區華新街143巷69弄29號","121.507648333333","24.9790116666667","6500300","中和區"
"235012","896-TW","2017/06/20 14:39:24","新北市中和區四維街8號","121.513295","24.987325","6500300","中和區"
"235017","900-TW","2017/06/20 14:39:26","新北市中和區民德路197-2號","121.468841666667","24.9987916666667","6500300","中和區"
"235026","911-UM","2017/06/20 14:39:26","新北市中和區中山路二段532號","121.48564","25.0049366666667","6500300","中和區"
"235005","157-BY","2017/06/20 14:39:24","新北市中和區中和路252巷3號","121.507676666667","24.999205","6500300","中和區"
"235001","AAC-213","2017/06/20 14:39:16","新北市中和區秀朗路三段50巷29弄1號","121.524058333333","24.99516","6500300","中和區"
"235023","AAC-215","2017/06/20 14:39:19","新北市中和區圓通路305巷6號","121.49411","24.989775","6500300","中和區"
"220013","072-UY","2017/06/20 14:39:19","新北市板橋區國泰街38巷4弄45號","121.468038333333","25.0066466666667","6500100","板橋區"
"220034","073-UY","2017/06/20 14:39:31","新北市板橋區中正路216巷150弄14號","121.460798333333","25.0189116666667","6500100","板橋區"
"220105","075-UY","2017/06/20 14:39:15","新北市板橋區文化路二段394號","121.473508333333","25.031185","6500100","板橋區"
"220017","AAD-861","2017/06/20 14:39:24","新北市板橋區縣民大道一段64巷7號","121.455535","25.003685","6500100","板橋區"
"247002","402-BY","2017/06/20 14:38:04","新北市蘆洲區復興路58號","121.473703333333","25.08615","6501400","蘆洲區"
"247005","341-TH","2017/06/20 14:39:18","新北市蘆洲區中華街6號","121.4635","25.0817066666667","6501400","蘆洲區"
"247007","339-TH","2017/06/20 14:39:08","新北市蘆洲區信義路2號","121.473443333333","25.0790866666667","6501400","蘆洲區"
"247023","337-TH","2017/06/20 14:39:27","新北市蘆洲區中山二路222巷19號","121.469165","25.08025","6501400","蘆洲區"
"247001","336-TH","2017/06/20 14:39:23","新北市蘆洲區長安街276號","121.457293333333","25.0870583333333","6501400","蘆洲區"
"247013","057-VK","2017/06/20 14:39:16","新北市蘆洲區中央路2-1號","121.47334","25.0823883333333","6501400","蘆洲區"
"247003","056-VK","2017/06/20 14:39:12","新北市蘆洲區長安街297號","121.45809","25.0849016666667","6501400","蘆洲區"
"247011","007-UY","2017/06/20 14:39:20","新北市蘆洲區集賢路224巷15號","121.481833333333","25.0868316666667","6501400","蘆洲區"
"247015","001-UY","2017/06/20 14:39:28","新北市蘆洲區正和街96巷37號","121.467525","25.0815133333333","6501400","蘆洲區"
"223008","406-TH","2017/06/20 09:56:18","新北市石碇區小粗坑(潭邊里)9-2號","121.678801666667","24.9856433333333","6501900","石碇區"
"228004","212-TW","2017/06/20 14:39:13","新北市貢寮區福隆里龜壽谷街40號","121.946676666667","25.0143866666667","6502600","貢寮區"
"228005","828-UM","2017/06/20 14:38:20","新北市貢寮區美豐里雞母嶺街6-6號","121.902063333333","25.06421","6502600","貢寮區"
"227008","400-TW","2017/06/20 13:44:27","新北市雙溪區三貂里政光路3-1號","121.850901666667","25.06303","6502500","雙溪區"
"208004","AAC-292","2017/06/20 14:39:20","新北市金山區兩湖里倒照湖22號","121.589168333333","25.2343783333333","6502700","金山區"
"207002","749-BX","2017/06/20 14:39:16","新北市萬里區崁腳里崁腳路73號","121.647601666667","25.15957","6502800","萬里區"
"207001","463-BY","2017/06/20 14:39:27","新北市萬里區雙興里豐稟路26號","121.641426666667","25.1877183333333","6502800","萬里區"
"252005","AAC-283","2017/06/20 00:10:09","新北市三芝區埔坪里埔頭坑41號","121.5045","25.2644116666667","6502100","三芝區"
"237001","361-BY","2017/06/20 14:39:23","新北市三峽區中山路459巷163-3號","121.349153333333","24.9333333333333","6500900","三峽區"
"237001","682-BX","2017/06/20 12:29:40","新北市三峽區中山路459巷163-3號","121.348566666667","24.9326916666667","6500900","三峽區"
"236065","105-UM","2017/06/20 14:39:16","新北市土城區永豐路211-2號","121.474658333333","24.9758116666667","6501300","土城區"
"236041","107-UM","2017/06/20 14:39:14","新北市土城區學成路94巷9弄18號","121.450236666667","24.9897366666667","6501300","土城區"
"236075","166-UM","2017/06/20 14:39:19","新北市土城區中央路四段107號","121.416581666667","24.9578433333333","6501300","土城區"
"236029","253-BX","2017/06/20 14:39:12","新北市土城區中華路二段185號","121.438418333333","24.9747633333333","6501300","土城區"
"236025","269-VK","2017/06/20 14:39:26","新北市土城區忠義路47號","121.440693333333","24.969505","6501300","土城區"
"236013","270-VK","2017/06/20 14:39:08","新北市土城區清水路190號","121.460258333333","24.9817683333333","6501300","土城區"
"236034","271-VK","2017/06/20 14:39:07","新北市土城區明德路一段313巷3弄1號","121.45971","24.9764133333333","6501300","土城區"
"236017","401-BY","2017/06/20 14:39:27","新北市土城區延吉街309巷6號","121.46606","24.9843833333333","6501300","土城區"
"236057","912-UM","2017/06/20 14:39:23","新北市土城區中央路四段35-3號","121.422928333333","24.9619083333333","6501300","土城區"
"236045","913-UM","2017/06/20 14:39:19","新北市土城區金城路三段1號","121.464181666667","24.9860216666667","6501300","土城區"
"236061","915-UM","2017/06/20 14:39:24","新北市土城區延壽路13巷4號","121.470935","24.990485","6501300","土城區"
"236054","AAC-216","2017/06/20 14:39:26","新北市土城區中華路一段145號","121.444095","24.9863433333333","6501300","土城區"
"242044","172-VK","2017/06/20 14:39:20","新北市樹林區育德街121巷7號","121.388948333333","24.9681783333333","6500500","新莊區"
"221010","276-VK","2017/06/20 13:25:46","新北市汐止區汐萬路一段256巷3號","121.65346","25.0746233333333","6501100","汐止區"
"221025","567-BX","2017/06/20 14:39:16","新北市汐止區汐萬路一段244-2號","121.651635","25.0732533333333","6501100","汐止區"
"221018","753-BX","2017/06/20 14:39:27","台北市文山區老泉街45巷8-8號","121.57029","24.9761083333333","6501100","汐止區"
"220027","145-BY","2017/06/20 14:39:31","新北市板橋區民權路302巷27號","121.458223333333","25.016385","6500100","板橋區"
"220042","146-RM","2017/06/20 14:39:26","新北市板橋區長江路一段143號","121.460755","25.0303116666667","6500100","板橋區"
"220028","200-UY","2017/06/20 14:39:14","新北市板橋區大觀路二段37巷69號","121.44986","25.0024866666667","6500100","板橋區"
"220030","610-BX","2017/06/20 14:39:30","新北市板橋區金門街128號","121.432888333333","24.9912133333333","6500100","板橋區"
"220050","245-BX","2017/06/20 14:39:12","新北市板橋區縣民大道三段33巷1弄13號","121.473478333333","25.0204816666667","6500100","板橋區"
"220004","276-BY","2017/06/20 14:39:22","新北市板橋區四川路二段47巷3弄2號","121.454198333333","24.9946333333333","6500100","板橋區"
"220020","277-BY","2017/06/20 14:39:18","新北市板橋區金門街235巷8號","121.432605","24.98919","6500100","板橋區"
"220012","280-UM","2017/06/20 14:39:15","新北市板橋區公園街36-1號","121.462321666667","25.0083383333333","6500100","板橋區"
"220043","283-UM","2017/06/20 14:39:18","新北市板橋區宏國路96號","121.47014","25.032075","6500100","板橋區"
"220019","283-VK","2017/06/20 14:39:17","新北市板橋區信義路18號","121.457048333333","24.9954166666667","6500100","板橋區"
"220038","285-UM","2017/06/20 14:39:19","新北市板橋區英士路34號","121.461601666667","25.02506","6500100","板橋區"
"220001","285-VK","2017/06/20 14:39:14","新北市板橋區中山路二段148巷38號","121.476953333333","25.015985","6500100","板橋區"
"220031","286-VK","2017/06/20 14:39:14","新北市板橋區龍興街65巷48號","121.442611666667","25.0018166666667","6500100","板橋區"
"220029","287-VK","2017/06/20 14:39:12","新北市板橋區大觀路一段29巷91號","121.450485","25.0064833333333","6500100","板橋區"
"220039","288-VK","2017/06/20 14:39:24","新北市板橋區新海路431巷20號","121.457778333333","25.0268683333333","6500100","板橋區"
"220009","293-UM","2017/06/20 14:39:11","新北市板橋區板新路200巷16號","121.468816666667","25.016365","6500100","板橋區"
"220032","296-UM","2017/06/20 14:39:29","新北市板橋區滿平二街2巷1弄12號","121.425093333333","24.986535","6500100","板橋區"
"220023","297-UM","2017/06/20 14:39:23","新北市板橋區中正路289巷23號","121.454723333333","25.0190233333333","6500100","板橋區"
"220010","305-R5","2017/06/20 14:39:08","新北市板橋區三民路二段29巷31弄3號","121.481438333333","25.0176983333333","6500100","板橋區"
"220041","307-R5","2017/06/20 14:39:26","新北市板橋區文化路一段387巷15號","121.466291666667","25.022105","6500100","板橋區"
"220047","317-R6","2017/06/20 14:39:20","新北市板橋區裕民街109號","121.4597","25.0276016666667","6500100","板橋區"
"220037","491-VK","2017/06/20 14:38:27","新北市板橋區文化路二段444號","121.474463333333","25.0321766666667","6500100","板橋區"
"220104","560-BX","2017/06/20 14:39:19","新北市板橋區金華街124號","121.459245","25.0208583333333","6500100","板橋區"
"220052","561-BX","2017/06/20 14:39:07","新北市板橋區文化路一段288號","121.46741","25.0214333333333","6500100","板橋區"
"220016","568-UM","2017/06/20 14:39:19","新北市板橋區中山路二段416巷37號","121.48318","25.01966","6500100","板橋區"
"220011","609-BX","2017/06/20 14:39:11","新北市板橋區三民路一段1巷40號","121.480271666667","25.02436","6500100","板橋區"
"220040","637-BX","2017/06/20 14:39:09","新北市板橋區懷德街139巷20弄10號","121.48018","25.0306116666667","6500100","板橋區"
"220005","686-BX","2017/06/20 14:39:23","新北市板橋區和平路23號","121.459481666667","24.9951933333333","6500100","板橋區"
"220025","687-BX","2017/06/20 14:39:14","新北市板橋區僑中三街40號","121.445265","25.0050933333333","6500100","板橋區"
"220002","741-BX","2017/06/20 14:39:24","新北市板橋區忠孝路237號","121.466165","25.0030133333333","6500100","板橋區"
"220003","827-TW","2017/06/20 14:39:22","新北市板橋區國慶路147號","121.461395","24.9961233333333","6500100","板橋區"
"220014","829-TW","2017/06/20 14:39:21","新北市板橋區長安街210號","121.474471666667","25.0120466666667","6500100","板橋區"
"220051","830-TW","2017/06/20 14:39:20","新北市板橋區松柏街57-4號","121.47569","25.0302966666667","6500100","板橋區"
"220045","831-TW","2017/06/20 14:39:17","新北市板橋區文化路二段2號","121.468883333333","25.023795","6500100","板橋區"
"220022","895-R6","2017/06/20 14:39:24","新北市板橋區府中路23號","121.459175","25.008845","6500100","板橋區"
"220021","985-R7","2017/06/20 14:39:24","新北市板橋區大仁街39號","121.455096666667","25.0166733333333","6500100","板橋區"
"220046","AAC-210","2017/06/20 14:39:27","新北市板橋區漢生西路89巷2弄6號","121.461855","25.0194466666667","6500100","板橋區"
"220018","AAC-253","2017/06/20 14:39:14","新北市板橋區民族路61號","121.465008333333","25.008685","6500100","板橋區"
