"lineid","car","time","location","longitude","latitude","cityid","cityname"
"234025","9371-KE","2017/06/20 15:09:16","新北市永和區保生路55-8號","121.503956666667","25.0108383333333","6500400","永和區"
"248017","225-UY","2017/06/20 15:09:13","新北市五股區登林路103號","121.40939","25.078495","6501500","五股區"
"244002","248-BX","2017/06/20 15:09:23","新北市林口區林口路76號","121.389703333333","25.0807","6501700","林口區"
"231002","002-UM","2017/06/20 15:09:08","新北市新店區中正路658號","121.533988333333","24.9895066666667","6500600","新店區"
"231025","0291-UT","2017/06/20 15:09:17","新北市新店區二十張路46巷37弄20號","121.536095","24.981605","6500600","新店區"
"231028","046-UY","2017/06/20 15:09:10","新北市新店區僑信路105號","121.500431666667","24.946565","6500600","新店區"
"231030","047-UY","2017/06/20 15:09:07","新北市新店區安民街339號","121.51686","24.9748166666667","6500600","新店區"
"231029","106-UY","2017/06/20 15:09:03","新北市新店區安康路三段738號","121.473795","24.942035","6500600","新店區"
"231018","107-UY","2017/06/20 15:09:17","新北市新店區中央六街63號","121.527583333333","24.9760816666667","6500600","新店區"
"231012","108-UY","2017/06/20 15:09:11","新北市新店區寶元路一段65號","121.542175","24.985805","6500600","新店區"
"231020","187-VK","2017/06/20 15:09:19","新北市新店區湖興路128-3號","121.56747","24.932135","6500600","新店區"
"231069","189-VK","2017/06/20 12:03:24","新北市新店區安華路28-1號","121.519668333333","24.96113","6500600","新店區"
"231026","256-BX","2017/06/20 15:09:07","新北市新店區建興街9巷1號","121.539928333333","24.976325","6500600","新店區"
"231034","268-BY","2017/06/20 15:09:13","新北市新店區玫瑰路4-1號","121.493581666667","24.9513716666667","6500600","新店區"
"231015","AAD-862","2017/06/20 15:05:09","新北市新店區明山路45號","121.56393","24.9558333333333","6500600","新店區"
"231027","3712-VJ","2017/06/20 15:09:17","新北市新店區薏仁坑路自強巷6號","121.496318333333","24.957965","6500600","新店區"
"231024","3713-VJ","2017/06/20 15:09:20","新北市新店區中華路42巷16號","121.540545","24.96866","6500600","新店區"
"231036","512-UM","2017/06/20 15:09:11","新北市新店區安祥路104巷29號","121.481966666667","24.9633033333333","6500600","新店區"
"231023","513-UM","2017/06/20 15:09:06","新北市新店區中興路一段138號","121.542346666667","24.9635483333333","6500600","新店區"
"231035","515-UM","2017/06/20 15:09:19","新北市新店區安和路三段157號","121.516515","24.9857816666667","6500600","新店區"
"231003","616-UM","2017/06/20 15:09:11","新北市新店區寶橋路158-1號","121.548853333333","24.9771683333333","6500600","新店區"
"231006","617-UM","2017/06/20 15:09:14","新北市新店區新坡一街85號","121.548923333333","24.9645233333333","6500600","新店區"
"231001","619-UM","2017/06/20 15:09:12","新北市新店區中正路264號","121.539103333333","24.973525","6500600","新店區"
"231039","718-UY","2017/06/20 15:09:17","新北市新店區民權路6號","121.542661666667","24.9829533333333","6500600","新店區"
"231032","720-UM","2017/06/20 15:08:55","新北市新店區安泰路177號","121.490925","24.9321166666667","6500600","新店區"
"231005","897-TW","2017/06/20 15:09:20","新北市新店區北新路三段198號","121.541393333333","24.98345","6500600","新店區"
"231004","899-TW","2017/06/20 15:09:17","新北市新店區建國路43號","121.540653333333","24.9751433333333","6500600","新店區"
"231037","AKT-0513","2017/06/20 15:09:11","新北市新店區安康路二段320巷15弄2號","121.504036666667","24.9593083333333","6500600","新店區"
"235030","003-UY","2017/06/20 15:09:11","新北市中和區水源路111號","121.507726666667","25.0031866666667","6500300","中和區"
"235018","031-BX","2017/06/20 15:09:06","新北市中和區民享街41號","121.47407","25.0029683333333","6500300","中和區"
"235003","097-UM","2017/06/20 15:09:05","新北市中和區宜安路52巷14號","121.512396666667","24.997195","6500300","中和區"
"235029","098-UM","2017/06/20 15:09:04","新北市中和區永和路69號","121.496505","25.0055916666667","6500300","中和區"
"235004","150-BY","2017/06/20 15:09:19","新北市中和區保健路26巷5號","121.508546666667","24.9976583333333","6500300","中和區"
"235022","151-BY","2017/06/20 15:09:09","新北市中和區中正路808-1號","121.485078333333","25.002535","6500300","中和區"
"235008","293-VK","2017/06/20 15:09:22","新北市中和區南山路231號","121.503488333333","24.9933666666667","6500300","中和區"
"235036","301-VK","2017/06/20 15:09:16","新北市中和區中正路368-6號","121.493393333333","24.9946633333333","6500300","中和區"
"235007","352-BY","2017/06/20 15:09:06","新北市中和區興南路二段159巷25號","121.505401666667","24.9828516666667","6500300","中和區"
"235032","377-QA","2017/06/20 15:09:03","新北市中和區福祥路7號","121.499473333333","25.003135","6500300","中和區"
"235014","4979-A6","2017/06/20 15:08:49","新北市中和區景平路221巷10號","121.51009","24.9922583333333","6500300","中和區"
"235033","4980-A6","2017/06/20 15:09:17","新北市中和區圓通路159號","121.498078333333","24.99562","6500300","中和區"
"235034","558-UM","2017/06/20 15:09:17","新北市中和區中正路226號","121.496115","24.9938233333333","6500300","中和區"
"235010","733-UM","2017/06/20 15:09:03","新北市中和區忠孝街39-12號","121.51207","24.9843366666667","6500300","中和區"
"235035","783-BX","2017/06/20 15:09:19","新北市中和區永和路363巷15號","121.482246666667","25.0116883333333","6500300","中和區"
"235016","805-TS","2017/06/20 15:09:04","新北市中和區忠孝街79號","121.512191666667","24.9852383333333","6500300","中和區"
"235012","896-TW","2017/06/20 15:09:04","新北市中和區興南路二段49號","121.507363333333","24.985335","6500300","中和區"
"235005","157-BY","2017/06/20 15:09:05","新北市中和區安平路38號","121.510075","24.9949633333333","6500300","中和區"
"235001","AAC-213","2017/06/20 15:09:16","新北市中和區秀朗路三段36巷18號","121.52569","24.9958766666667","6500300","中和區"
"235023","AAC-215","2017/06/20 15:09:19","新北市中和區圓通路367巷13弄29-6號","121.49307","24.988315","6500300","中和區"
"220013","072-UY","2017/06/20 15:09:19","新北市板橋區中山路一段156號","121.46478","25.01155","6500100","板橋區"
"220017","AAD-861","2017/06/20 15:09:20","新北市板橋區大明街18-9號","121.458676666667","25.0027766666667","6500100","板橋區"
"247002","402-BY","2017/06/20 15:09:05","新北市蘆洲區復興路58號","121.473768333333","25.0861566666667","6501400","蘆洲區"
"223008","406-TH","2017/06/20 09:56:18","新北市石碇區小粗坑(潭邊里)9-2號","121.678801666667","24.9856433333333","6501900","石碇區"
"228004","212-TW","2017/06/20 15:09:13","新北市貢寮區雙玉里田寮洋街16-2號","121.921818333333","25.0252016666667","6502600","貢寮區"
"208004","AAC-292","2017/06/20 15:09:00","新北市金山區六股里下六股19號","121.624755","25.2239283333333","6502700","金山區"
"207002","749-BX","2017/06/20 15:09:16","新北市萬里區崁腳里內中福路24號","121.66024","25.1653233333333","6502800","萬里區"
"207001","463-BY","2017/06/20 15:09:07","新北市萬里區磺潭里員潭路16-3號","121.646186666667","25.1960716666667","6502800","萬里區"
"237001","361-BY","2017/06/20 14:49:14","新北市三峽區中山路459巷163-1號","121.349318333333","24.93344","6500900","三峽區"
"237001","682-BX","2017/06/20 12:29:40","新北市三峽區中山路459巷163-3號","121.348566666667","24.9326916666667","6500900","三峽區"
"236065","105-UM","2017/06/20 15:09:09","新北市土城區裕生路25號","121.448176666667","24.98723","6501300","土城區"
"236041","107-UM","2017/06/20 15:09:14","新北市土城區學士路31號","121.452986666667","24.9822733333333","6501300","土城區"
"236075","166-UM","2017/06/20 15:09:19","新北市土城區中州路27巷87號","121.41262","24.9562716666667","6501300","土城區"
"236029","253-BX","2017/06/20 15:09:14","新北市土城區福祥街16號","121.440828333333","24.97986","6501300","土城區"
"236025","269-VK","2017/06/20 15:09:06","新北市土城區中正路1號","121.44205","24.975055","6501300","土城區"
"236013","270-VK","2017/06/20 15:09:08","新北市土城區學府路一段101號","121.456145","24.987815","6501300","土城區"
"236034","271-VK","2017/06/20 15:09:07","新北市土城區青仁路27號","121.460568333333","24.9788683333333","6501300","土城區"
"236017","401-BY","2017/06/20 15:09:13","新北市土城區延峰街24巷1號","121.468966666667","24.9858733333333","6501300","土城區"
"236057","912-UM","2017/06/20 15:09:03","新北市土城區金城路二段232號","121.456598333333","24.98292","6501300","土城區"
"236045","913-UM","2017/06/20 15:09:20","新北市土城區清水路137號","121.458285","24.981555","6501300","土城區"
"236054","AAC-216","2017/06/20 15:09:06","新北市土城區學府路一段276號","121.449986666667","24.9830633333333","6501300","土城區"
"221010","276-VK","2017/06/20 13:25:46","新北市汐止區汐萬路一段256巷3號","121.65346","25.0746233333333","6501100","汐止區"
"221025","567-BX","2017/06/20 14:43:41","新北市汐止區汐萬路一段256巷3號","121.652596666667","25.0743733333333","6501100","汐止區"
"220027","145-BY","2017/06/20 15:09:16","新北市板橋區南雅西路二段175巷7號","121.451625","25.0121866666667","6500100","板橋區"
"220042","146-RM","2017/06/20 15:09:17","新北市板橋區長江路一段160號","121.461305","25.0303316666667","6500100","板橋區"
"220030","610-BX","2017/06/20 15:09:10","新北市板橋區大觀路三段104號","121.432565","24.9943566666667","6500100","板橋區"
"220050","245-BX","2017/06/20 15:09:11","新北市板橋區莒光路165巷36號","121.474433333333","25.0248816666667","6500100","板橋區"
"220043","283-UM","2017/06/20 15:09:14","新北市板橋區陽明街18號","121.466483333333","25.0217166666667","6500100","板橋區"
"220038","285-UM","2017/06/20 15:09:19","新北市板橋區互助街58號","121.461311666667","25.026875","6500100","板橋區"
"220031","286-VK","2017/06/20 15:09:13","新北市板橋區僑中二街90巷12號","121.44572","25.0092483333333","6500100","板橋區"
"220029","287-VK","2017/06/20 15:09:09","新北市板橋區僑中一街80巷1弄14號","121.44692","25.0120416666667","6500100","板橋區"
"220009","293-UM","2017/06/20 15:09:16","新北市板橋區四川路一段274巷4號","121.458181666667","25.00138","6500100","板橋區"
"220023","297-UM","2017/06/20 15:09:11","新北市板橋區金華街10巷31號","121.457043333333","25.0202133333333","6500100","板橋區"
"220041","307-R5","2017/06/20 15:09:06","新北市板橋區漢生西路89巷4弄6號","121.460983333333","25.01897","6500100","板橋區"
"220047","317-R6","2017/06/20 15:09:17","新北市板橋區新海路72巷77號","121.461461666667","25.0232016666667","6500100","板橋區"
"220037","491-VK","2017/06/20 15:08:08","新北市板橋區民治街84號","121.479425","25.0320983333333","6500100","板橋區"
"220052","561-BX","2017/06/20 15:09:07","新北市板橋區英士路58巷5號","121.460671666667","25.02507","6500100","板橋區"
"220011","609-BX","2017/06/20 15:09:12","新北市板橋區三民路一段218號","121.479193333333","25.01876","6500100","板橋區"
"220025","687-BX","2017/06/20 15:09:14","新北市板橋區大觀路二段7巷109-3號","121.45207","25.0025983333333","6500100","板橋區"
"220003","827-TW","2017/06/20 15:09:02","新北市板橋區仁愛路25號","121.458976666667","24.999465","6500100","板橋區"
"220014","829-TW","2017/06/20 15:09:11","新北市板橋區大觀路三段59巷17弄6-1號","121.435326666667","24.9955683333333","6500100","板橋區"
"220051","830-TW","2017/06/20 15:09:20","新北市板橋區縣民大道三段33巷1弄25號","121.473178333333","25.0202866666667","6500100","板橋區"
"220046","AAC-210","2017/06/20 15:09:18","新北市板橋區公館街31號","121.461401666667","25.0155033333333","6500100","板橋區"
"220018","AAC-253","2017/06/20 15:09:14","新北市板橋區四川路二段2號","121.456666666667","24.9965366666667","6500100","板橋區"
