"lineid","car","time","location","longitude","latitude","cityid","cityname"
"234026","9371-KE","2017/06/20 17:59:40","新北市永和區水源街2巷17號","121.511978333333","25.0056066666667","6500400","永和區"
"249005","172-UM","2017/06/20 17:59:09","新北市八里區荖阡坑路20-5號","121.397331666667","25.13668","6502300","八里區"
"249001","173-UM","2017/06/20 17:59:47","新北市八里區龍米路二段35號","121.44839","25.1400083333333","6502300","八里區"
"249004","303-UY","2017/06/20 17:59:36","新北市八里區大崁腳48-51號","121.425318333333","25.1592533333333","6502300","八里區"
"249002","305-UY","2017/06/20 17:59:35","新北市八里區龍米路一段428巷1號","121.451173333333","25.1338316666667","6502300","八里區"
"248006","077-UY","2017/06/20 17:59:43","新北市五股區中興路二段83巷26-6號","121.459971666667","25.0750316666667","6501500","五股區"
"248008","095-VK","2017/06/20 17:59:52","新北市五股區更洲路18號","121.458165","25.0790066666667","6501500","五股區"
"248020","225-UY","2017/06/20 17:59:40","新北市五股區中興路二段83巷26-6號","121.459871666667","25.0752983333333","6501500","五股區"
"248014","261-SL","2017/06/20 17:59:53","新北市五股區中興路三段5號","121.449618333333","25.080495","6501500","五股區"
"248012","655-BX","2017/06/20 17:59:36","新北市五股區中興路二段83巷26-3號","121.460053333333","25.075385","6501500","五股區"
"248004","677-BX","2017/06/20 17:59:53","新北市五股區中興路二段182巷3號","121.457528333333","25.078355","6501500","五股區"
"248002","678-BX","2017/06/20 17:59:37","新北市五股區中興路二段83巷26-6號","121.459945","25.0753483333333","6501500","五股區"
"232011","375-UM","2017/06/20 17:59:57","新北市坪林區北宜路八段301號","121.711023333333","24.9338033333333","6502000","坪林區"
"244013","069-UM","2017/06/20 17:59:35","新北市林口區中山路164號","121.390306666667","25.0787866666667","6501700","林口區"
"244007","080-UY","2017/06/20 17:59:44","新北市林口區林口路90號","121.388981666667","25.081","6501700","林口區"
"244019","403-UM","2017/06/20 17:59:47","新北市林口區文化一路一段89-5號","121.371733333333","25.0704966666667","6501700","林口區"
"244023","483-VK","2017/06/20 17:59:53","新北市林口區育林街30號","121.385846666667","25.0737283333333","6501700","林口區"
"244017","485-VK","2017/06/20 17:59:47","新北市林口區文化二路一段230巷15號","121.370661666667","25.0722383333333","6501700","林口區"
"244009","656-BX","2017/06/20 17:59:52","新北市林口區寶林路35號","121.385945","25.0840783333333","6501700","林口區"
"244021","657-BX","2017/06/20 17:59:42","新北市林口區新寮27-6號","121.396271666667","25.066235","6501700","林口區"
"244011","701-TV","2017/06/20 17:59:57","新北市林口區中正路180號","121.391905","25.077465","6501700","林口區"
"244025","837-TS","2017/06/20 17:59:37","新北市林口區忠孝三路69號","121.359683333333","25.0690033333333","6501700","林口區"
"243012","267-VK","2017/06/20 17:53:57","新北市泰山區犁頭窠3-1號","121.421941666667","25.0605766666667","6501600","泰山區"
"243013","AAD-798","2017/06/20 17:59:54","新北市泰山區黎明路25號","121.422065","25.06081","6501600","泰山區"
"222003","436-BY","2017/06/20 17:59:38","新北市深坑區炮子崙23號","121.607143333333","24.990875","6501800","深坑區"
"222002","659-BX","2017/06/20 17:59:37","新北市深坑區深坑街35號","121.615855","25.0018766666667","6501800","深坑區"
"231069","189-VK","2017/06/20 12:03:24","新北市新店區安華路28-1號","121.519668333333","24.96113","6500600","新店區"
"231046","278-BY","2017/06/20 17:59:50","新北市新店區康雅崙路1號","121.540376666667","24.9260033333333","6500600","新店區"
"241024","065-VK","2017/06/20 17:59:50","新北市三重區忠孝路二段35號","121.48591","25.0710466666667","6500200","三重區"
"241016","266-UM","2017/06/20 17:59:42","新北市五股區中興路三段1-7號","121.452153333333","25.075495","6500200","三重區"
"241033","AAC-255","2017/06/20 17:59:49","新北市三重區重新路五段535號","121.470993333333","25.0460466666667","6500200","三重區"
"235064","005-UY","2017/06/20 17:59:40","新北市中和區員山路36巷16-3號","121.485101666667","24.991335","6500300","中和區"
"235063","006-UY","2017/06/20 17:59:37","新北市中和區員山路36巷16-3號","121.48503","24.991285","6500300","中和區"
"235065","098-UM","2017/06/20 17:59:41","新北市中和區連城路314號","121.48356","24.99625","6500300","中和區"
"235040","150-BY","2017/06/20 17:59:54","新北市中和區和城路一段271巷1號","121.485383333333","24.99172","6500300","中和區"
"235058","151-BY","2017/06/20 17:59:53","新北市中和區中正路589巷15號","121.485728333333","24.9935983333333","6500300","中和區"
"235038","185-VK","2017/06/20 17:59:51","新北市中和區中正路501號","121.488798333333","24.9941083333333","6500300","中和區"
"235061","378-QA","2017/06/20 17:39:24","新北市中和區員山路36巷16-2號","121.485346666667","24.99176","6500300","中和區"
"235042","551-UM","2017/06/20 17:59:47","新北市中和區和城路一段271巷1號","121.485443333333","24.99178","6500300","中和區"
"235071","783-BX","2017/06/20 17:59:45","新北市中和區員山路36巷16-3號","121.485266666667","24.99115","6500300","中和區"
"235062","911-UM","2017/06/20 17:59:36","新北市中和區員山路36巷16-3號","121.485093333333","24.9913816666667","6500300","中和區"
"247020","893-R6","2017/06/20 17:59:35","新北市蘆洲區民義街35巷7號","121.47153","25.089525","6501400","蘆洲區"
"247006","341-TH","2017/06/20 17:59:43","新北市蘆洲區長榮路20號","121.463931666667","25.0822416666667","6501400","蘆洲區"
"247024","337-TH","2017/06/20 17:59:48","新北市蘆洲區中原路16號","121.460993333333","25.0832466666667","6501400","蘆洲區"
"247002","336-TH","2017/06/20 17:59:46","新北市蘆洲區永平街32巷57弄2號","121.45978","25.0929283333333","6501400","蘆洲區"
"247022","002-UY","2017/06/20 17:59:41","新北市五股區中興路二段182巷50號","121.454321666667","25.0809533333333","6501400","蘆洲區"
"223008","406-TH","2017/06/20 09:56:18","新北市石碇區小粗坑(潭邊里)9-2號","121.678801666667","24.9856433333333","6501900","石碇區"
"228001","212-TW","2017/06/20 17:59:44","新北市貢寮區真理里新港街26巷53號","121.92793","25.05342","6502600","貢寮區"
"228002","663-BX","2017/06/20 17:59:46","新北市貢寮區福連里香蘭街11號","121.979206666667","25.0232883333333","6502600","貢寮區"
"228003","828-UM","2017/06/20 17:59:10","新北市貢寮區真理里美艷山街6-2號","121.92892","25.0607116666667","6502600","貢寮區"
"224006","676-BX","2017/06/20 17:59:52","新北市瑞芳區傑魚坑路183號","121.788441666667","25.108265","6501200","瑞芳區"
"224002","639-TC","2017/06/20 17:59:55","新北市瑞芳區三爪子坑路12號","121.810301666667","25.1066883333333","6501200","瑞芳區"
"224011","420-VK","2017/06/20 17:59:49","新北市瑞芳區明燈路二段2巷14號","121.814821666667","25.1087133333333","6501200","瑞芳區"
"224009","285-BY","2017/06/20 17:59:46","新北市瑞芳區山尖路86號","121.853766666667","25.1148466666667","6501200","瑞芳區"
"224008","275-VK","2017/06/20 17:59:38","新北市瑞芳區明燈路一段45巷109號","121.82215","25.1036866666667","6501200","瑞芳區"
"224007","273-VK","2017/06/20 17:59:37","新北市瑞芳區大寮路356-1號","121.785388333333","25.103165","6501200","瑞芳區"
"224005","271-BY","2017/06/20 17:59:35","新北市瑞芳區深澳路203號","121.819531666667","25.13335","6501200","瑞芳區"
"253006","032-BX","2017/06/20 17:59:45","新北市石門區大丘田45-2號","121.549756666667","25.27484","6502200","石門區"
"253005","438-BY","2017/06/20 17:59:45","新北市石門區中山路64-1號","121.567516666667","25.290395","6502200","石門區"
"208002","742-BX","2017/06/20 17:59:45","新北市金山區磺港里磺港路248號","121.643915","25.2251183333333","6502700","金山區"
"208003","665-BX","2017/06/20 17:59:40","新北市金山區磺港里磺港路69號","121.646768333333","25.2277066666667","6502700","金山區"
"251004","009-UM","2017/06/20 17:59:51","新北市淡水區民族路110巷28號","121.461665","25.1354366666667","6501000","淡水區"
"251005","010-UM","2017/06/20 17:59:53","新北市淡水區英專路236號","121.449643333333","25.1731566666667","6501000","淡水區"
"251002","012-UM","2017/06/20 17:59:48","新北市淡水區鼻頭街18-1號","121.4468","25.1666933333333","6501000","淡水區"
"251014","180-VK","2017/06/20 17:59:51","新北市淡水區公埔子16-6號","121.481001666667","25.2245866666667","6501000","淡水區"
"251008","181-VK","2017/06/20 17:59:47","新北市淡水區八勢一街23號","121.461621666667","25.156325","6501000","淡水區"
"251010","413-VK","2017/06/20 17:59:39","新北市淡水區淡海路55號","121.423093333333","25.1806333333333","6501000","淡水區"
"251012","441-VK","2017/06/20 17:59:39","新北市淡水區北新路三段40號","121.48424","25.187175","6501000","淡水區"
"251016","442-VK","2017/06/20 17:59:55","新北市淡水區埤島30-14號","121.448186666667","25.1981366666667","6501000","淡水區"
"251001","559-UM","2017/06/20 17:59:41","新北市淡水區自立路22號","121.463765","25.1285033333333","6501000","淡水區"
"251006","561-UM","2017/06/20 17:59:55","新北市淡水區真理街3巷24-1號","121.437836666667","25.176565","6501000","淡水區"
"251009","575-R6","2017/06/20 17:59:43","新北市淡水區大仁街6巷1號","121.442438333333","25.1746583333333","6501000","淡水區"
"251007","577-R6","2017/06/20 17:59:49","新北市淡水區中正東路二段141號","121.460128333333","25.1480283333333","6501000","淡水區"
"251011","650-BX","2017/06/20 17:59:41","新北市淡水區三空泉9-2號","121.474123333333","25.16355","6501000","淡水區"
"251003","766-UM","2017/06/20 17:59:48","新北市淡水區大忠街113巷8號","121.446871666667","25.17756","6501000","淡水區"
"207003","550-UM","2017/06/20 17:59:39","新北市萬里區野柳里港東路167-1號","121.690235","25.20526","6502800","萬里區"
"207004","225-TW","2017/06/20 17:59:38","新北市萬里區中幅里中福路52-1號","121.68238","25.1734266666667","6502800","萬里區"
"252002","178-VK","2017/06/20 17:59:41","新北市三芝區中山路一段102號","121.502258333333","25.2562683333333","6502100","三芝區"
"252001","292-VK","2017/06/20 17:59:49","新北市三芝區中興街一段32號","121.497916666667","25.2575366666667","6502100","三芝區"
"208002","170-UY","2017/06/20 17:59:40","新北市金山區三界壇路31號","121.627646666667","25.227835","6502700","金山區"
"237001","361-BY","2017/06/20 14:49:14","新北市三峽區中山路459巷163-1號","121.349318333333","24.93344","6500900","三峽區"
"237004","078-UY","2017/06/20 17:59:50","新北市三峽區中正路二段198號","121.365958333333","24.9148116666667","6500900","三峽區"
"237007","153-BY","2017/06/20 17:59:43","新北市三峽區中正路二段46-2號","121.366713333333","24.9189583333333","6500900","三峽區"
"237009","210-TH","2017/06/20 17:59:52","新北市三峽區中山路106巷39號","121.365943333333","24.9367433333333","6500900","三峽區"
"237013","252-BX","2017/06/20 17:59:49","新北市三峽區介壽路一段57-1號","121.375613333333","24.9328583333333","6500900","三峽區"
"237012","275-BY","2017/06/20 17:59:57","新北市三峽區民生街19巷3號","121.376148333333","24.93622","6500900","三峽區"
"237008","302-VK","2017/06/20 17:59:44","新北市三峽區白雞33-8號","121.371793333333","24.9121733333333","6500900","三峽區"
"237014","433-BY","2017/06/20 17:59:56","新北市三峽區和平街36巷7弄4號","121.370851666667","24.9373116666667","6500900","三峽區"
"237006","5529-G3","2017/06/20 17:59:49","新北市三峽區介壽路二段136巷116-2號","121.392286666667","24.93275","6500900","三峽區"
"237011","572-TV","2017/06/20 17:59:46","新北市三峽區大同路34號","121.377498333333","24.9290816666667","6500900","三峽區"
"237016","649-BX","2017/06/20 17:59:49","新北市三峽區紫微路109號","121.408243333333","24.9113833333333","6500900","三峽區"
"237001","682-BX","2017/06/20 12:29:40","新北市三峽區中山路459巷163-3號","121.348566666667","24.9326916666667","6500900","三峽區"
"237010","706-TV","2017/06/20 17:59:40","新北市三峽區民權街134號","121.368655","24.9318916666667","6500900","三峽區"
"237005","AKY-6261","2017/06/20 17:59:51","新北市三峽區復興路183號","121.368875","24.9388266666667","6500900","三峽區"
"236070","105-UM","2017/06/20 17:59:44","新北市土城區青雲路482-2號","121.469341666667","24.9645916666667","6501300","土城區"
"236043","107-UM","2017/06/20 17:59:36","新北市土城區裕生路82巷1號","121.447366666667","24.9855866666667","6501300","土城區"
"236079","166-UM","2017/06/20 17:59:38","新北市土城區永寧路32巷10弄23號","121.428915","24.9610733333333","6501300","土城區"
"236031","253-BX","2017/06/20 17:59:42","新北市土城區城林路6巷80號","121.438491666667","24.9798116666667","6501300","土城區"
"236027","269-VK","2017/06/20 17:59:57","新北市土城區承天路67號","121.439571666667","24.9635033333333","6501300","土城區"
"236015","270-VK","2017/06/20 17:59:43","新北市土城區城林路6巷80號","121.438515","24.9795783333333","6501300","土城區"
"236038","271-VK","2017/06/20 17:59:40","新北市土城區中正路1號","121.442078333333","24.97509","6501300","土城區"
"236023","401-BY","2017/06/20 17:59:40","新北市土城區城林路6巷80號","121.438681666667","24.979645","6501300","土城區"
"236059","912-UM","2017/06/20 17:59:48","新北市土城區中央路三段134-1號","121.433403333333","24.9655616666667","6501300","土城區"
"236049","913-UM","2017/06/20 17:59:46","新北市土城區城林路6巷80號","121.43849","24.97958","6501300","土城區"
"236063","915-UM","2017/06/20 17:59:44","新北市土城區城林路6巷80號","121.438583333333","24.9797366666667","6501300","土城區"
"236055","AAC-216","2017/06/20 17:59:50","新北市土城區城林路6巷80號","121.438476666667","24.9796066666667","6501300","土城區"
"242021","AAC-296","2017/06/20 17:59:57","新北市新莊區中華路一段45巷1號","121.4519","25.03794","6500500","新莊區"
"242029","986-R7","2017/06/20 17:59:49","新北市新莊區復興路一段12號","121.445723333333","25.0415","6500500","新莊區"
"242048","751-BX","2017/06/20 17:59:55","新北市新莊區後港二路16號","121.422601666667","25.0237916666667","6500500","新莊區"
"242025","615-BX","2017/06/20 17:59:51","新北市新莊區五工路93-1號","121.458095","25.0633516666667","6500500","新莊區"
"242023","613-BX","2017/06/20 17:59:35","新北市新莊區福壽街45號","121.45817","25.0487383333333","6500500","新莊區"
"242027","612-BX","2017/06/20 17:59:51","新北市新莊區中原路51號","121.457925","25.0541433333333","6500500","新莊區"
"242037","566-BX","2017/06/20 17:59:57","新北市新莊區建福路59巷29號","121.427971666667","25.0277566666667","6500500","新莊區"
"242042","497-BY","2017/06/20 17:59:50","新北市新莊區壽山路31號","121.420228333333","25.0290933333333","6500500","新莊區"
"242005","442-UM","2017/06/20 17:59:48","新北市新莊區思源路177巷35號","121.459143333333","25.0467783333333","6500500","新莊區"
"242046","441-UM","2017/06/20 17:59:52","新北市新莊區福營路182號","121.431455","25.0310033333333","6500500","新莊區"
"242051","440-UM","2017/06/20 17:59:42","新北市新莊區西盛街153巷6號","121.428636666667","25.018075","6500500","新莊區"
"242032","415-TV","2017/06/20 17:59:42","新北市新莊區新泰路289巷46號","121.443435","25.0404266666667","6500500","新莊區"
"242002","413-TV","2017/06/20 17:59:57","新北市新莊區中正路78巷2-1號","121.458476666667","25.03805","6500500","新莊區"
"242039","400-BY","2017/06/20 17:59:51","新北市新莊區民安西路88巷2號","121.426401666667","25.020005","6500500","新莊區"
"242061","362-BY","2017/06/20 17:59:38","新北市新莊區新樹路254-1號","121.432853333333","25.016385","6500500","新莊區"
"242058","353-BY","2017/06/20 17:59:55","新北市新莊區新北大道七段556號","121.412245","25.0289166666667","6500500","新莊區"
"242011","132-UY","2017/06/20 17:59:37","新北市新莊區中港路中慶巷14號","121.450563333333","25.0538033333333","6500500","新莊區"
"242019","135-UY","2017/06/20 17:59:50","新北市新莊區明中街49巷16號","121.456543333333","25.0391183333333","6500500","新莊區"
"242044","172-VK","2017/06/20 17:59:41","新北市新莊區雙鳳路121號","121.413386666667","25.027955","6500500","新莊區"
"242007","173-VK","2017/06/20 17:59:47","新北市新莊區自信街81巷17弄1號","121.456031666667","25.0486983333333","6500500","新莊區"
"242013","175-VK","2017/06/20 17:59:48","新北市新莊區中和街83號","121.447381666667","25.0476866666667","6500500","新莊區"
"242056","176-VK","2017/06/20 17:59:37","新北市新莊區豐年街98號","121.446433333333","25.0308183333333","6500500","新莊區"
"242034","347-TH","2017/06/20 17:59:39","新北市新莊區福海街10號","121.445266666667","25.033615","6500500","新莊區"
"242017","348-TH","2017/06/20 17:59:39","新北市新莊區中港路339巷10號","121.451681666667","25.04532","6500500","新莊區"
"242054","349-TH","2017/06/20 17:59:39","新北市新莊區光華街10號","121.428778333333","25.0107766666667","6500500","新莊區"
"242015","350-TH","2017/06/20 17:59:48","新北市新莊區中平路116號","121.44482","25.0462866666667","6500500","新莊區"
"242009","351-TH","2017/06/20 17:59:44","新北市新莊區昌平街47號","121.454638333333","25.0526833333333","6500500","新莊區"
"238015","755-BX","2017/06/20 17:59:45","新北市樹林區啟智街78號","121.419758333333","24.991825","6500700","樹林區"
"238023","601-UM","2017/06/20 17:59:41","新北市樹林區龍興街29號","121.403066666667","25.01593","6500700","樹林區"
"238019","599-UM","2017/06/20 17:59:39","新北市樹林區忠孝街27號","121.423648333333","24.98228","6500700","樹林區"
"238018","571-TV","2017/06/20 17:59:53","新北市樹林區博愛街148號","121.42629","24.9911316666667","6500700","樹林區"
"238022","312-TH","2017/06/20 17:59:38","新北市樹林區太順街86巷25號","121.416398333333","24.97812","6500700","樹林區"
"238021","311-TH","2017/06/20 17:59:54","新北市樹林區柑園街一段67-1號","121.402258333333","24.960255","6500700","樹林區"
"238025","303-VK","2017/06/20 17:59:46","新北市樹林區三俊街113號","121.417278333333","25.0155016666667","6500700","樹林區"
"238017","283-BY","2017/06/20 17:59:49","新北市樹林區俊德街16號","121.414838333333","25.01474","6500700","樹林區"
"238014","282-BY","2017/06/20 17:59:54","新北市樹林區大安路43號","121.423778333333","24.9993183333333","6500700","樹林區"
"238020","268-VK","2017/06/20 17:59:45","新北市樹林區三俊街199巷22號","121.420828333333","25.0180166666667","6500700","樹林區"
"238026","172-UY","2017/06/20 17:59:56","新北市樹林區中洲街30巷6弄4號","121.397286666667","24.9713833333333","6500700","樹林區"
"238016","169-UY","2017/06/20 17:59:51","新北市樹林區復興路390巷18號","121.414666666667","24.9859766666667","6500700","樹林區"
"239007","AAC-297","2017/06/20 17:59:47","新北市鶯歌區永樂街22號","121.341918333333","24.9533283333333","6500800","鶯歌區"
"239006","891-R6","2017/06/20 17:59:44","新北市鶯歌區鶯桃路455巷6弄4號","121.33188","24.9648033333333","6500800","鶯歌區"
"239008","527-UM","2017/06/20 17:59:49","新北市鶯歌區明圓街19號","121.336158333333","24.9772166666667","6500800","鶯歌區"
"239005","526-UM","2017/06/20 17:59:51","新北市鶯歌區鶯桃路658巷135號","121.332906666667","24.97141","6500800","鶯歌區"
"239001","417-VK","2017/06/20 17:59:37","新北市鶯歌區中正二路192-4號","121.339683333333","24.9433933333333","6500800","鶯歌區"
"239003","360-BY","2017/06/20 17:59:52","新北市鶯歌區鶯桃路282號","121.335251666667","24.9601283333333","6500800","鶯歌區"
"239002","359-BY","2017/06/20 17:59:52","新北市鶯歌區中山路329巷22弄1號","121.344598333333","24.95648","6500800","鶯歌區"
"239004","193-VK","2017/06/20 17:59:42","新北市鶯歌區環河路78-2號","121.350031666667","24.9429516666667","6500800","鶯歌區"
"221036","130-UY","2017/06/20 17:59:44","新北市汐止區大同路三段34號","121.667048333333","25.07661","6501100","汐止區"
"221015","131-UY","2017/06/20 17:59:52","新北市汐止區長江街305號","121.6659","25.0813683333333","6501100","汐止區"
"221010","269-BY","2017/06/20 17:59:51","新北市汐止區汐萬路二段275巷1弄28號","121.646165","25.0881116666667","6501100","汐止區"
"221010","276-VK","2017/06/20 13:25:46","新北市汐止區汐萬路一段256巷3號","121.65346","25.0746233333333","6501100","汐止區"
"221012","278-VK","2017/06/20 17:59:48","新北市汐止區長興街二段28號","121.67308","25.0813333333333","6501100","汐止區"
"221023","279-VK","2017/06/20 15:09:38","新北市汐止區康寧街901號","121.65178","25.0749716666667","6501100","汐止區"
"221032","280-BY","2017/06/20 17:59:58","新北市汐止區橫科路52巷1號","121.619075","25.0505733333333","6501100","汐止區"
"221027","281-BY","2017/06/20 17:59:49","新北市汐止區大同路二段391號","121.657895","25.0672633333333","6501100","汐止區"
"221029","298-VK","2017/06/20 17:59:37","新北市汐止區樟樹二路329號","121.641396666667","25.0703666666667","6501100","汐止區"
"221021","299-VK","2017/06/20 17:57:22","新北市汐止區新興路17號","121.656676666667","25.06475","6501100","汐止區"
"221025","567-BX","2017/06/20 14:43:41","新北市汐止區汐萬路一段256巷3號","121.652596666667","25.0743733333333","6501100","汐止區"
"221035","622-UM","2017/06/20 17:59:50","新北市汐止區新江北路30巷15號","121.652461666667","25.0696566666667","6501100","汐止區"
"221025","623-UM","2017/06/20 17:59:38","新北市汐止區仁愛路43號","121.659711666667","25.06335","6501100","汐止區"
"221033","647-BX","2017/06/20 17:59:47","新北市汐止區合順街42號","121.620298333333","25.0431266666667","6501100","汐止區"
"221002","707-TV","2017/06/20 17:59:43","新北市汐止區中興路62號","121.635566666667","25.0616316666667","6501100","汐止區"
