"lineid","car","time","location","longitude","latitude","cityid","cityname"
"234046","148-BY","2017/06/20 19:29:36","新北市永和區秀朗路二段169-1號","121.525456666667","25.001605","6500400","永和區"
"234013","149-BY","2017/06/20 19:29:29","新北市永和區永和路二段46號","121.514818333333","25.0106816666667","6500400","永和區"
"234007","207-UY","2017/06/20 19:29:39","新北市永和區永和路一段112-1號","121.513533333333","25.0073966666667","6500400","永和區"
"234081","298-R6","2017/06/20 19:29:32","新北市永和區環河東路三段50號","121.526588333333","25.0061966666667","6500400","永和區"
"234038","336-UY","2017/06/20 19:29:34","新北市永和區民樂街21號","121.527676666667","25.0019966666667","6500400","永和區"
"234064","337-UY","2017/06/20 19:29:24","新北市永和區中正路368巷1弄88號","121.52047","25.0007533333333","6500400","永和區"
"234086","338-UY","2017/06/20 19:29:27","新北市永和區林森路92號","121.52317","25.0036083333333","6500400","永和區"
"234070","552-UM","2017/06/20 19:29:38","新北市永和區中興街11號","121.515733333333","25.01199","6500400","永和區"
"234054","553-UM","2017/06/20 19:29:26","新北市永和區復興街25號","121.516203333333","25.01312","6500400","永和區"
"234017","745-BX","2017/06/20 19:28:42","新北市永和區永和路二段425巷12號","121.515033333333","25.017785","6500400","永和區"
"234030","746-BX","2017/06/20 19:29:34","新北市永和區民生路39號","121.522831666667","24.998105","6500400","永和區"
"234061","AAD-866","2017/06/20 19:29:31","新北市永和區中正路514號","121.51733","25.00473","6500400","永和區"
"234042","862-TW","2017/06/20 19:29:22","新北市永和區中和路519巷8號","121.511051666667","25.0031316666667","6500400","永和區"
"234050","863-TW","2017/06/20 19:29:28","新北市永和區保福路二段78號","121.510541666667","25.0133733333333","6500400","永和區"
"234026","9371-KE","2017/06/20 19:29:20","新北市永和區安樂路144巷25號","121.514953333333","24.9999083333333","6500400","永和區"
"234011","9373-KE","2017/06/20 19:29:26","新北市永和區信義路43巷21號","121.512075","25.0119283333333","6500400","永和區"
"249002","305-UY","2017/06/20 19:29:35","新北市八里區頂寮二街138號","121.449336666667","25.12945","6502300","八里區"
"249003","593-UM","2017/06/20 19:29:24","新北市八里區商港六路11號","121.396813333333","25.14837","6502300","八里區"
"248016","026-BX","2017/06/20 19:29:32","新北市五股區成洲五路12號","121.452353333333","25.101545","6501500","五股區"
"248008","095-VK","2017/06/20 19:29:31","新北市五股區中興路一段95巷9號","121.466673333333","25.072415","6501500","五股區"
"248020","225-UY","2017/06/20 19:29:39","新北市五股區凌雲路三段41-2號","121.430176666667","25.117615","6501500","五股區"
"248014","261-SL","2017/06/20 19:29:38","新北市五股區民義路一段163-2號","121.432135","25.0878","6501500","五股區"
"248010","272-BY","2017/06/20 19:29:38","新北市五股區自強路90巷72號","121.430808333333","25.071235","6501500","五股區"
"248012","655-BX","2017/06/20 19:29:36","新北市五股區中興路四段38巷11號","121.438863333333","25.0833933333333","6501500","五股區"
"248004","677-BX","2017/06/20 19:29:33","新北市五股區五福路81號","121.432366666667","25.0902283333333","6501500","五股區"
"248002","678-BX","2017/06/20 19:29:37","新北市五股區凌雲路一段158巷6號","121.44785","25.10303","6501500","五股區"
"234023","9380-KE","2017/06/20 19:29:37","新北市永和區環河東路2段6-1號","121.52178","25.013315","6500400","永和區"
"234077","969-R7","2017/06/20 19:29:38","新北市永和區民權路56號","121.519911666667","24.998295","6500400","永和區"
"234074","AAC-211","2017/06/20 19:29:25","新北市永和區竹林路30號","121.517066666667","25.014715","6500400","永和區"
"234067","AAC-212","2017/06/20 19:29:40","新北市永和區永貞路360巷8號","121.510698333333","25.0068366666667","6500400","永和區"
"234003","AAC-295","2017/06/20 19:27:13","新北市永和區永和路二段5號","121.514461666667","25.0100283333333","6500400","永和區"
"244019","403-UM","2017/06/20 19:29:27","新北市林口區麗園二街1巷4-2號","121.37752","25.0700316666667","6501700","林口區"
"244023","483-VK","2017/06/20 19:29:33","新北市林口區文化三路二段63號","121.373861666667","25.0797716666667","6501700","林口區"
"244025","837-TS","2017/06/20 19:29:17","新北市林口區汕頭32號","121.36666","25.1349583333333","6501700","林口區"
"243013","AAD-798","2017/06/20 19:29:33","新北市泰山區明志路三段145巷7號","121.425445","25.0399616666667","6501600","泰山區"
"243009","297-R6","2017/06/20 19:29:27","新北市泰山區半山雅6號","121.43162","25.0673866666667","6501600","泰山區"
"243015","380-SR","2017/06/20 19:29:35","新北市泰山區明志路二段99號","121.428331666667","25.0519016666667","6501600","泰山區"
"243014","421-VK","2017/06/20 19:29:39","新北市泰山區中港西路452號","121.433426666667","25.053455","6501600","泰山區"
"243016","539-UM","2017/06/20 19:29:00","新北市泰山區明志路三段324巷2號","121.421493333333","25.0359433333333","6501600","泰山區"
"243010","548-UM","2017/06/20 19:29:23","新北市泰山區民生路17巷6號","121.42987","25.0523033333333","6501600","泰山區"
"243011","549-UM","2017/06/20 19:29:36","新北市泰山區貴子路140號","121.42888","25.0403216666667","6501600","泰山區"
"243012","646-TV","2017/06/20 19:29:19","新北市泰山區仁義路133號","121.432486666667","25.05484","6501600","泰山區"
"222003","436-BY","2017/06/20 19:29:18","新北市深坑區深南路88巷1號","121.621001666667","25.0117633333333","6501800","深坑區"
"222002","659-BX","2017/06/20 19:29:37","新北市深坑區北深路一段177號","121.63253","25.010885","6501800","深坑區"
"222001","696-SL","2017/06/20 19:29:23","新北市深坑區北深路二段116號","121.616748333333","25.0032","6501800","深坑區"
"231041","002-UM","2017/06/20 19:29:29","新北市新店區中正路678號","121.53412","24.9898916666667","6500600","新店區"
"231059","046-UY","2017/06/20 19:29:26","新北市新店區安和路三段153號","121.516603333333","24.9856883333333","6500600","新店區"
"231061","047-UY","2017/06/20 19:29:36","新北市新店區安民街15號","121.515375","24.9645866666667","6500600","新店區"
"231060","106-UY","2017/06/20 19:29:38","新北市新店區安康路二段4號","121.516425","24.96383","6500600","新店區"
"231051","107-UY","2017/06/20 19:29:23","新北市新店區中央路133巷27弄40號","121.532495","24.9743083333333","6500600","新店區"
"231048","108-UY","2017/06/20 19:29:39","新北市新店區五峰路63巷2號","121.546455","24.968255","6500600","新店區"
"231053","187-VK","2017/06/20 19:29:21","新北市新店區廣興路14號","121.546065","24.9126583333333","6500600","新店區"
"231069","189-VK","2017/06/20 12:03:24","新北市新店區安華路28-1號","121.519668333333","24.96113","6500600","新店區"
"231057","256-BX","2017/06/20 19:29:39","新北市新店區花園一路二段17號","121.550818333333","24.9332583333333","6500600","新店區"
"231063","268-BY","2017/06/20 19:29:25","新北市新店區達觀路16號","121.503103333333","24.9408283333333","6500600","新店區"
"231046","278-BY","2017/06/20 19:29:30","新北市新店區安康路一段3-1號","121.535263333333","24.9609066666667","6500600","新店區"
"231050","AAD-862","2017/06/20 19:29:16","新北市新店區秀水路50號","121.555386666667","24.9561683333333","6500600","新店區"
"231058","3712-VJ","2017/06/20 19:29:35","新北市新店區北新路二段228巷15號","121.54355","24.97719","6500600","新店區"
"231065","512-UM","2017/06/20 19:29:32","新北市新店區安祥路109巷1弄57號","121.477756666667","24.9608366666667","6500600","新店區"
"231054","513-UM","2017/06/20 19:29:30","新北市新店區文中路40號","121.539755","24.9565516666667","6500600","新店區"
"231064","515-UM","2017/06/20 19:29:21","新北市新店區安忠路25號","121.514493333333","24.9616333333333","6500600","新店區"
"231042","616-UM","2017/06/20 19:29:34","新北市新店區中興路一段110-1號","121.541256666667","24.9623983333333","6500600","新店區"
"231045","617-UM","2017/06/20 19:29:23","新北市新店區北宜路二段209號","121.553165","24.9532566666667","6500600","新店區"
"231040","619-UM","2017/06/20 19:29:31","新北市新店區中華路5號","121.540746666667","24.967405","6500600","新店區"
"231068","718-UY","2017/06/20 19:29:24","新北市新店區安華路28-1號","121.519366666667","24.9607516666667","6500600","新店區"
"231049","719-UM","2017/06/20 19:29:27","新北市新店區二十張路1巷3弄3號","121.540623333333","24.9821066666667","6500600","新店區"
"231062","720-UM","2017/06/20 19:29:30","新北市新店區秀山路72號","121.531281666667","24.9608683333333","6500600","新店區"
"231044","897-TW","2017/06/20 19:29:22","新北市新店區中興路三段186號","121.54394","24.98149","6500600","新店區"
"231043","899-TW","2017/06/20 19:29:28","新北市新店區北新路二段268號","121.542543333333","24.9787266666667","6500600","新店區"
"231066","AKT-0513","2017/06/20 19:29:23","新北市新店區安康路三段195號","121.487936666667","24.951635","6500600","新店區"
"241028","022-UY","2017/06/20 19:29:32","新北市三重區中寮街76號","121.493083333333","25.0582483333333","6500200","三重區"
"241008","059-VK","2017/06/20 19:29:38","新北市三重區永福街135巷30號","121.477523333333","25.0771083333333","6500200","三重區"
"241009","060-VK","2017/06/20 19:29:29","新北市三重區仁美街121號","121.485776666667","25.0812816666667","6500200","三重區"
"241031","061-VK","2017/06/20 19:29:33","新北市三重區集美街100號","121.488533333333","25.0541416666667","6500200","三重區"
"241017","063-VK","2017/06/20 19:29:38","新北市三重區大同北路148巷76號","121.49016","25.0646466666667","6500200","三重區"
"241024","065-VK","2017/06/20 19:29:29","新北市三重區大勇街82巷13號","121.47953","25.0717266666667","6500200","三重區"
"241026","066-VK","2017/06/20 19:29:20","新北市三重區文化南路47巷47號","121.498913333333","25.0610616666667","6500200","三重區"
"241032","269-UM","2017/06/20 19:29:40","新北市三重區三陽路113號","121.483718333333","25.05887","6500200","三重區"
"241025","271-UM","2017/06/20 19:29:30","新北市三重區頂崁街210巷28弄1號","121.475791666667","25.0676966666667","6500200","三重區"
"241007","398-BY","2017/06/20 19:29:32","新北市三重區溪尾街154號","121.488995","25.0800266666667","6500200","三重區"
"241020","413-TH","2017/06/20 19:29:27","新北市三重區三和路四段44巷19號","121.489521666667","25.074225","6500200","三重區"
"241035","462-BY","2017/06/20 19:29:31","新北市三重區信義西街1號","121.49812","25.0648283333333","6500200","三重區"
"241030","480-VK","2017/06/20 19:29:28","新北市三重區成功路41巷13號","121.490301666667","25.0515783333333","6500200","三重區"
"241023","545-UM","2017/06/20 19:29:28","新北市三重區頂崁街99號","121.478045","25.0638366666667","6500200","三重區"
"241006","AAD-863","2017/06/20 19:29:33","新北市三重區車路頭街140號","121.484133333333","25.0756666666667","6500200","三重區"
"241029","942-UM","2017/06/20 19:29:30","新北市三重區中正南路260-1號","121.493218333333","25.0529666666667","6500200","三重區"
"235066","003-UY","2017/06/20 19:29:31","新北市中和區中和路132號","121.503591666667","24.9993","6500300","中和區"
"235064","005-UY","2017/06/20 19:29:20","新北市中和區南山路24號","121.502013333333","24.9982016666667","6500300","中和區"
"235063","006-UY","2017/06/20 19:29:37","新北市中和區連勝街137號","121.494763333333","24.9959","6500300","中和區"
"235053","031-BX","2017/06/20 19:29:28","新北市中和區國光街111號","121.469971666667","25.0005583333333","6500300","中和區"
"235056","096-UM","2017/06/20 19:29:22","新北市中和區中山路三段106號","121.476871666667","25.006225","6500300","中和區"
"235039","097-UM","2017/06/20 19:29:40","新北市中和區秀峰街87號","121.52133","24.9902233333333","6500300","中和區"
"235065","098-UM","2017/06/20 19:29:21","新北市中和區中山路二段2巷3弄15號","121.50434","25.0057133333333","6500300","中和區"
"235040","150-BY","2017/06/20 19:29:34","新北市中和區保健路46巷26弄2號","121.508541666667","24.9954033333333","6500300","中和區"
"235058","151-BY","2017/06/20 19:29:33","新北市中和區連城路469-1號","121.483608333333","24.9957483333333","6500300","中和區"
"235055","183-VK","2017/06/20 19:29:26","新北市中和區莒光路84巷13號","121.47188","25.00205","6500300","中和區"
"235038","185-VK","2017/06/20 19:29:31","新北市中和區大仁街20巷21號","121.518503333333","24.9932933333333","6500300","中和區"
"235049","186-VK","2017/06/20 19:29:29","新北市中和區景新街295巷25號","121.511028333333","24.99347","6500300","中和區"
"235067","255-BX","2017/06/20 19:29:27","新北市中和區中正路721號","121.48516","24.9988383333333","6500300","中和區"
"235044","293-VK","2017/06/20 19:29:21","新北市中和區中興街264號","121.498743333333","24.9874516666667","6500300","中和區"
"235072","301-VK","2017/06/20 19:29:20","新北市中和區連城路265巷12弄2號","121.49172","24.9951983333333","6500300","中和區"
"235043","352-BY","2017/06/20 19:29:22","新北市中和區景平路438號","121.506936666667","24.993375","6500300","中和區"
"235051","376-QA","2017/06/20 19:29:38","新北市中和區和平街54巷8弄13號","121.509475","24.9915466666667","6500300","中和區"
"235068","377-QA","2017/06/20 19:29:40","新北市中和區連城路75巷13號","121.498681666667","24.9983216666667","6500300","中和區"
"235061","378-QA","2017/06/20 19:29:26","新北市中和區員山路150-30號","121.481391666667","24.998265","6500300","中和區"
"235050","4979-A6","2017/06/20 19:29:32","新北市中和區中正路571巷2弄5號","121.486333333333","24.993675","6500300","中和區"
"235042","551-UM","2017/06/20 19:29:27","新北市中和區中和路378巷16號","121.51144","25.0016166666667","6500300","中和區"
"235070","558-UM","2017/06/20 19:29:29","新北市中和區中山路二段262號","121.497288333333","25.0024583333333","6500300","中和區"
"235045","565-BX","2017/06/20 19:29:21","新北市中和區景新街423巷33弄1號","121.51387","24.9897916666667","6500300","中和區"
"235060","647-TV","2017/06/20 19:29:32","新北市中和區員山路266巷33號","121.482705","25.0017216666667","6500300","中和區"
"235047","732-UM","2017/06/20 19:29:26","新北市中和區景平路239-1號","121.509685","24.9925183333333","6500300","中和區"
"235046","733-UM","2017/06/20 19:29:22","新北市中和區忠孝街37巷44號","121.510686666667","24.984655","6500300","中和區"
"235071","783-BX","2017/06/20 19:29:25","新北市中和區中正路637巷18弄20號","121.484318333333","24.9951033333333","6500300","中和區"
"235057","801-TS","2017/06/20 19:29:32","新北市中和區員山路423巷11號","121.480503333333","25.0030533333333","6500300","中和區"
"235052","805-TS","2017/06/20 19:29:31","新北市中和區華新街143巷17號","121.506656666667","24.980955","6500300","中和區"
"235048","896-TW","2017/06/20 19:29:29","新北市中和區四維街10號","121.513255","24.9872766666667","6500300","中和區"
"235053","900-TW","2017/06/20 19:29:21","新北市中和區華安街17巷45號","121.46803","24.99842","6500300","中和區"
"235041","157-BY","2017/06/20 19:29:38","新北市永和區中和路321號","121.507095","24.9997","6500300","中和區"
"235037","AAC-213","2017/06/20 19:29:35","新北市中和區秀朗路三段70巷54號","121.524765","24.9943466666667","6500300","中和區"
"235059","AAC-215","2017/06/20 19:29:40","新北市中和區圓通路252巷29弄10號","121.492765","24.9918416666667","6500300","中和區"
"220065","072-UY","2017/06/20 19:29:26","新北市板橋區國泰街75巷23號","121.467818333333","25.0057183333333","6500100","板橋區"
"220086","073-UY","2017/06/20 19:29:36","新北市板橋區中正路216巷10號","121.456405","25.01828","6500100","板橋區"
"220106","075-UY","2017/06/20 19:29:35","新北市板橋區長江路三段62號","121.473745","25.0338766666667","6500100","板橋區"
"220069","AAD-861","2017/06/20 19:29:33","新北市板橋區貴興路39號","121.457535","25.00371","6500100","板橋區"
"247006","341-TH","2017/06/20 19:29:38","新北市五股區中興路三段163號","121.449295","25.0807083333333","6501400","蘆洲區"
"247002","336-TH","2017/06/20 19:29:35","新北市五股區新五路二段372巷20號","121.44788","25.0857733333333","6501400","蘆洲區"
"247014","057-VK","2017/06/20 19:29:35","新北市蘆洲區復興路4號","121.471763333333","25.0850833333333","6501400","蘆洲區"
"247004","056-VK","2017/06/20 19:29:39","新北市蘆洲區長安街239號","121.459258333333","25.083075","6501400","蘆洲區"
"226004","205-ST","2017/06/20 19:29:37","新北市平溪區十分里十分街66巷2號","121.775746666667","25.0421266666667","6502400","平溪區"
"223008","406-TH","2017/06/20 09:56:18","新北市石碇區小粗坑(潭邊里)9-2號","121.678801666667","24.9856433333333","6501900","石碇區"
"228001","212-TW","2017/06/20 19:29:24","新北市貢寮區真理里延平街66號","121.925405","25.0572883333333","6502600","貢寮區"
"228003","828-UM","2017/06/20 19:29:10","新北市貢寮區和美里和美街19-2號","121.912791666667","25.0826133333333","6502600","貢寮區"
"224006","676-BX","2017/06/20 19:29:33","新北市瑞芳區三爪子坑路106巷1-11號","121.807751666667","25.10511","6501200","瑞芳區"
"224011","420-VK","2017/06/20 19:29:29","新北市瑞芳區崙頂路1-6號","121.84713","25.1046783333333","6501200","瑞芳區"
"227003","642-TC","2017/06/20 19:29:38","新北市雙溪區雙溪里光復街3號","121.865271666667","25.0355433333333","6502500","雙溪區"
"227009","400-TW","2017/06/20 19:29:40","新北市雙溪區新基里新基北街43號","121.868195","25.0396983333333","6502500","雙溪區"
"253006","032-BX","2017/06/20 19:29:25","新北市石門區中央路2號","121.563646666667","25.2908116666667","6502200","石門區"
"208001","742-BX","2017/06/20 19:29:25","新北市金山區中正路145號","121.631986666667","25.2214166666667","6502700","金山區"
"208003","665-BX","2017/06/20 19:29:19","新北市金山區仁愛路66號","121.635141666667","25.2211816666667","6502700","金山區"
"251005","010-UM","2017/06/20 19:29:33","新北市淡水區水源街一段47巷41號","121.444103333333","25.173595","6501000","淡水區"
"251014","180-VK","2017/06/20 19:29:31","新北市淡水區小中寮19-7號","121.484776666667","25.2296216666667","6501000","淡水區"
"251008","181-VK","2017/06/20 19:29:27","新北市淡水區中正路一段49號","121.424593333333","25.17738","6501000","淡水區"
"251010","413-VK","2017/06/20 19:29:39","新北市淡水區中正路二段151號","121.422763333333","25.1877116666667","6501000","淡水區"
"251016","442-VK","2017/06/20 19:29:34","新北市淡水區下圭柔山119-51號","121.450796666667","25.2083966666667","6501000","淡水區"
"251001","559-UM","2017/06/20 19:29:21","新北市淡水區中正東路二段87-3號","121.459553333333","25.15288","6501000","淡水區"
"251006","561-UM","2017/06/20 19:29:39","新北市淡水區大義街32號","121.442385","25.1783266666667","6501000","淡水區"
"251009","575-R6","2017/06/20 19:29:23","新北市淡水區大忠街5巷6號","121.443305","25.176485","6501000","淡水區"
"251007","577-R6","2017/06/20 19:29:28","新北市淡水區中正東路一段127巷21號","121.455981666667","25.1603383333333","6501000","淡水區"
"251011","650-BX","2017/06/20 19:29:19","新北市淡水區中正東路二段143巷2弄1號","121.460711666667","25.14735","6501000","淡水區"
"251003","766-UM","2017/06/20 19:29:28","新北市淡水區崁頂70-2號","121.43688","25.203325","6501000","淡水區"
"207003","550-UM","2017/06/20 19:29:19","新北市萬里區大鵬里萬里加投244號","121.644676666667","25.2164233333333","6502800","萬里區"
"207004","225-TW","2017/06/20 19:29:18","新北市萬里區萬里里瑪鋉頂街41號","121.689183333333","25.1787466666667","6502800","萬里區"
"252002","178-VK","2017/06/20 19:29:21","新北市三芝區淡金路二段18-1號","121.502675","25.259505","6502100","三芝區"
"252001","292-VK","2017/06/20 19:29:29","新北市三芝區長勤街50號","121.50033","25.255475","6502100","三芝區"
"208002","170-UY","2017/06/20 19:29:37","新北市金山區仁愛路70號","121.63483","25.2212716666667","6502700","金山區"
"237001","361-BY","2017/06/20 14:49:14","新北市三峽區中山路459巷163-1號","121.349318333333","24.93344","6500900","三峽區"
"237004","078-UY","2017/06/20 19:29:30","新北市三峽區有木111-1號","121.435025","24.8587233333333","6500900","三峽區"
"237007","153-BY","2017/06/20 19:29:23","新北市三峽區二鬮路178號","121.359083333333","24.9068733333333","6500900","三峽區"
"237009","210-TH","2017/06/20 19:29:32","新北市三峽區民權街49號","121.369703333333","24.9334566666667","6500900","三峽區"
"237013","252-BX","2017/06/20 19:29:29","新北市三峽區介壽路一段318巷13號","121.381091666667","24.9295483333333","6500900","三峽區"
"237012","275-BY","2017/06/20 19:29:37","新北市三峽區三樹路98巷171號","121.384598333333","24.9397266666667","6500900","三峽區"
"237008","302-VK","2017/06/20 19:29:23","新北市三峽區大同路154號","121.373085","24.9267783333333","6500900","三峽區"
"237014","433-BY","2017/06/20 19:29:36","新北市三峽區嘉添8號","121.368236666667","24.91181","6500900","三峽區"
"237006","5529-G3","2017/06/20 19:29:28","新北市三峽區中正路一段336巷15弄2號","121.369985","24.9249516666667","6500900","三峽區"
"237016","649-BX","2017/06/20 19:29:29","新北市三峽區建安25-3號","121.445425","24.9273133333333","6500900","三峽區"
"237001","682-BX","2017/06/20 12:29:40","新北市三峽區中山路459巷163-3號","121.348566666667","24.9326916666667","6500900","三峽區"
"237005","AKY-6261","2017/06/20 19:29:31","新北市三峽區復興路367巷13號","121.363858333333","24.93761","6500900","三峽區"
"236070","105-UM","2017/06/20 19:29:24","新北市土城區學府路一段155巷2號","121.453363333333","24.9857533333333","6501300","土城區"
"236079","166-UM","2017/06/20 19:29:38","新北市土城區中州路10號","121.414825","24.9572633333333","6501300","土城區"
"236027","269-VK","2017/06/20 19:29:37","新北市土城區中央路二段61巷22號","121.443201666667","24.9787033333333","6501300","土城區"
"236038","271-VK","2017/06/20 19:29:20","新北市土城區清水路100號","121.457556666667","24.9814016666667","6501300","土城區"
"236023","401-BY","2017/06/20 19:29:20","新北市土城區峰廷街3號","121.469263333333","24.9873533333333","6501300","土城區"
"236059","912-UM","2017/06/20 19:29:28","新北市土城區中央路二段280號","121.440698333333","24.9740766666667","6501300","土城區"
"236049","913-UM","2017/06/20 19:28:26","新北市土城區青雲路220號","121.458868333333","24.9812766666667","6501300","土城區"
"238015","755-BX","2017/06/20 19:29:22","新北市樹林區復興路231-1號","121.419805","24.990635","6500700","樹林區"
"238023","601-UM","2017/06/20 19:29:21","桃園市龜山區萬壽路一段364號","121.401368333333","25.0168933333333","6500700","樹林區"
"238019","599-UM","2017/06/20 19:29:20","新北市樹林區八德街35號","121.418528333333","24.9836416666667","6500700","樹林區"
"238018","571-TV","2017/06/20 19:29:33","新北市樹林區中華路126號","121.417525","24.980485","6500700","樹林區"
"238024","5061-A6","2017/06/20 19:29:30","新北市樹林區福德街3號","121.401615","24.9759116666667","6500700","樹林區"
"238022","312-TH","2017/06/20 19:29:38","新北市樹林區國凱街82號","121.421091666667","24.97924","6500700","樹林區"
"238021","311-TH","2017/06/20 19:28:58","新北市樹林區柑園街二段303巷1號","121.371328333333","24.9504666666667","6500700","樹林區"
"238025","303-VK","2017/06/20 19:29:34","新北市樹林區中山路一段10號","121.424106666667","24.9927783333333","6500700","樹林區"
"238017","283-BY","2017/06/20 19:29:31","新北市樹林區光興街8-8號","121.41333","25.0029733333333","6500700","樹林區"
"238014","282-BY","2017/06/20 19:29:34","新北市樹林區千歲街4號","121.425065","24.9955783333333","6500700","樹林區"
"238020","268-VK","2017/06/20 19:29:25","新北市樹林區俊英街133巷25號","121.423091666667","25.01082","6500700","樹林區"
"238026","172-UY","2017/06/20 19:29:36","新北市樹林區佳園路三段23號","121.38825","24.9547116666667","6500700","樹林區"
"238016","169-UY","2017/06/20 19:29:31","新北市樹林區復興路446巷1號","121.413398333333","24.9842233333333","6500700","樹林區"
"239007","AAC-297","2017/06/20 19:29:26","新北市鶯歌區大湖路326巷8號","121.346133333333","24.97031","6500800","鶯歌區"
"239006","891-R6","2017/06/20 19:29:24","新北市鶯歌區永昌街1號","121.343123333333","24.9497783333333","6500800","鶯歌區"
"239008","527-UM","2017/06/20 19:29:29","新北市鶯歌區大湖路335號","121.34184","24.97262","6500800","鶯歌區"
"239005","526-UM","2017/06/20 19:29:37","新北市鶯歌區中湖街319號","121.348911666667","24.97551","6500800","鶯歌區"
"239001","417-VK","2017/06/20 19:29:37","新北市鶯歌區中正一路478號","121.366526666667","24.956835","6500800","鶯歌區"
"239003","360-BY","2017/06/20 19:29:32","新北市鶯歌區中正一路460號","121.364415","24.956395","6500800","鶯歌區"
"239002","359-BY","2017/06/20 19:29:20","新北市鶯歌區中正一路415號","121.360296666667","24.9569533333333","6500800","鶯歌區"
"239004","193-VK","2017/06/20 19:29:37","新北市鶯歌區鶯華新村2號","121.329893333333","24.93496","6500800","鶯歌區"
"221036","130-UY","2017/06/20 19:29:23","新北市汐止區汐萬路一段256巷1號","121.651905","25.0747833333333","6501100","汐止區"
"221015","131-UY","2017/06/20 19:29:32","新北市汐止區汐萬路一段256巷1號","121.651726666667","25.0748866666667","6501100","汐止區"
"221010","269-BY","2017/06/20 19:29:31","新北市汐止區康寧街901號","121.651333333333","25.075095","6501100","汐止區"
"221010","276-VK","2017/06/20 13:25:46","新北市汐止區汐萬路一段256巷3號","121.65346","25.0746233333333","6501100","汐止區"
"221012","278-VK","2017/06/20 19:29:28","新北市汐止區大同路三段271號","121.674093333333","25.0756383333333","6501100","汐止區"
"221023","279-VK","2017/06/20 19:26:39","新北市汐止區康寧街901號","121.651155","25.0754833333333","6501100","汐止區"
"221032","280-BY","2017/06/20 19:29:23","新北市汐止區汐萬路一段312號","121.650498333333","25.0752883333333","6501100","汐止區"
"221027","281-BY","2017/06/20 19:29:26","新北市汐止區忠孝東路9號","121.658306666667","25.0659283333333","6501100","汐止區"
"221038","297-VK","2017/06/20 19:29:31","新北市汐止區康寧街901號","121.651111666667","25.0751033333333","6501100","汐止區"
"221029","298-VK","2017/06/20 19:29:37","新北市汐止區康寧街901號","121.651551666667","25.07492","6501100","汐止區"
"221021","299-VK","2017/06/20 19:28:02","新北市汐止區康寧街901號","121.651461666667","25.075065","6501100","汐止區"
"221025","567-BX","2017/06/20 14:43:41","新北市汐止區汐萬路一段256巷3號","121.652596666667","25.0743733333333","6501100","汐止區"
"221025","623-UM","2017/06/20 19:29:38","新北市汐止區新台五路二段10號","121.660275","25.0650333333333","6501100","汐止區"
"221033","647-BX","2017/06/20 19:29:27","新北市汐止區南勢街1巷1號","121.627036666667","25.037435","6501100","汐止區"
"221002","707-TV","2017/06/20 19:29:30","新北市汐止區大同路一段337巷15弄2號","121.637538333333","25.0598133333333","6501100","汐止區"
"220079","145-BY","2017/06/20 19:29:23","新北市板橋區民權路260巷1弄40號","121.458821666667","25.0163133333333","6500100","板橋區"
"220093","146-RM","2017/06/20 19:29:18","新北市板橋區英士路49號","121.461185","25.0246683333333","6500100","板橋區"
"220080","200-UY","2017/06/20 19:29:30","新北市板橋區大觀路二段3巷39號","121.448668333333","25.0035866666667","6500100","板橋區"
"220082","610-BX","2017/06/20 19:29:38","新北市板橋區金門街263號","121.431658333333","24.9886066666667","6500100","板橋區"
"220101","245-BX","2017/06/20 19:29:31","新北市板橋區縣民大道三段121巷13號","121.476686666667","25.0232","6500100","板橋區"
"220056","276-BY","2017/06/20 19:29:36","新北市板橋區信義路1巷26弄50號","121.459578333333","24.9966866666667","6500100","板橋區"
"220072","277-BY","2017/06/20 19:29:39","新北市板橋區金門街289號","121.430901666667","24.9874583333333","6500100","板橋區"
"220064","280-UM","2017/06/20 19:29:35","新北市板橋區中山路一段24號","121.46027","25.0083416666667","6500100","板橋區"
"220094","283-UM","2017/06/20 19:29:30","新北市板橋區吳鳳路17巷26弄14號","121.46718","25.029685","6500100","板橋區"
"220071","283-VK","2017/06/20 19:29:21","新北市板橋區仁愛路73巷12號","121.461041666667","25.0004066666667","6500100","板橋區"
"220089","285-UM","2017/06/20 19:29:28","新北市板橋區文化路一段135號","121.462198333333","25.01499","6500100","板橋區"
"220053","285-VK","2017/06/20 19:29:36","新北市板橋區富山街53巷35號","121.477561666667","25.0208933333333","6500100","板橋區"
"220083","286-VK","2017/06/20 19:29:32","新北市板橋區大觀路二段174巷188號","121.4423","25.0037133333333","6500100","板橋區"
"220081","287-VK","2017/06/20 19:29:26","新北市板橋區南雅西路一段10巷7弄17號","121.454015","25.0043","6500100","板橋區"
"220090","288-VK","2017/06/20 19:29:30","新北市板橋區長江路一段106巷12弄2號","121.459885","25.0289833333333","6500100","板橋區"
"220061","293-UM","2017/06/20 19:29:32","新北市板橋區中山路二段312號","121.479926666667","25.0190016666667","6500100","板橋區"
"220084","296-UM","2017/06/20 19:29:31","新北市板橋區滿平街136巷3弄1號","121.42837","24.987735","6500100","板橋區"
"220075","297-UM","2017/06/20 19:29:31","新北市板橋區中正路253巷9號","121.455276666667","25.0180933333333","6500100","板橋區"
"220062","305-R5","2017/06/20 19:29:31","新北市板橋區三民路二段181巷1號","121.479648333333","25.01443","6500100","板橋區"
"220092","307-R5","2017/06/20 19:29:28","新北市板橋區光武街4巷14號","121.468288333333","25.0256866666667","6500100","板橋區"
"220098","317-R6","2017/06/20 19:29:28","新北市板橋區四維路266巷5弄16號","121.463633333333","25.028915","6500100","板橋區"
"220088","491-VK","2017/06/20 19:28:37","新北市板橋區雙十路二段20號","121.476323333333","25.0269583333333","6500100","板橋區"
"220035","560-BX","2017/06/20 19:29:29","新北市板橋區中正路413巷2弄26號","121.45305","25.0233733333333","6500100","板橋區"
"220103","561-BX","2017/06/20 19:29:35","新北市板橋區文化路一段268號","121.467095","25.0209866666667","6500100","板橋區"
"220068","568-UM","2017/06/20 19:29:24","新北市板橋區中山路二段505巷9號","121.482428333333","25.021355","6500100","板橋區"
"220063","609-BX","2017/06/20 19:29:19","新北市板橋區萬安街53巷38號","121.482911666667","25.0236783333333","6500100","板橋區"
"220091","637-BX","2017/06/20 19:29:27","新北市板橋區文聖街70號","121.477206666667","25.0303516666667","6500100","板橋區"
"220057","686-BX","2017/06/20 19:29:23","新北市中和區壽德街20-1號","121.466161666667","24.9947683333333","6500100","板橋區"
"220077","687-BX","2017/06/20 19:29:40","新北市板橋區僑中二街106巷1號","121.44591","25.0074083333333","6500100","板橋區"
"220054","741-BX","2017/06/20 19:29:31","新北市板橋區光明街142號","121.463956666667","25.0031","6500100","板橋區"
"220055","827-TW","2017/06/20 19:29:39","新北市板橋區重慶路278巷15號","121.46243","24.9995133333333","6500100","板橋區"
"220067","829-TW","2017/06/20 19:29:27","新北市板橋區長安街138巷26號","121.472948333333","25.0089066666667","6500100","板橋區"
"220102","830-TW","2017/06/20 19:29:39","新北市板橋區雙十路二段130巷2弄19號","121.474611666667","25.0288466666667","6500100","板橋區"
"220096","831-TW","2017/06/20 19:29:33","新北市板橋區大同街12號","121.477218333333","25.0268233333333","6500100","板橋區"
"220074","895-R6","2017/06/20 19:29:23","新北市板橋區中正路1巷18-1號","121.455208333333","25.0115516666667","6500100","板橋區"
"220073","985-R7","2017/06/20 19:29:37","新北市板橋區新生街16號","121.45547","25.0210933333333","6500100","板橋區"
"220097","AAC-210","2017/06/20 19:29:26","新北市板橋區陽明街129巷1號","121.46333","25.0235466666667","6500100","板橋區"
"220070","AAC-253","2017/06/20 19:29:27","新北市板橋區忠孝路74號","121.461335","25.002","6500100","板橋區"
