"lineid","car","time","location","longitude","latitude","cityid","cityname"
"234046","148-BY","2017/06/20 19:59:36","新北市永和區成功路一段2號","121.526935","25.005595","6500400","永和區"
"234013","149-BY","2017/06/20 19:59:29","新北市永和區保安路292號","121.505033333333","25.011785","6500400","永和區"
"234007","207-UY","2017/06/20 19:59:20","新北市永和區保生路22巷19弄2號","121.507005","25.008415","6500400","永和區"
"234081","298-R6","2017/06/20 19:59:34","新北市永和區永亨路104號","121.523406666667","25.004575","6500400","永和區"
"234038","336-UY","2017/06/20 19:59:31","新北市永和區成功路一段130號","121.526826666667","25.00217","6500400","永和區"
"234064","337-UY","2017/06/20 19:59:24","新北市永和區中正路368巷1弄45號","121.519223333333","25.0010266666667","6500400","永和區"
"234086","338-UY","2017/06/20 19:59:27","新北市永和區福和路256號","121.51844","25.0076283333333","6500400","永和區"
"234070","552-UM","2017/06/20 19:59:18","新北市永和區福和路183巷1號","121.520018333333","25.0073266666667","6500400","永和區"
"234054","553-UM","2017/06/20 19:59:24","新北市永和區竹林路39巷48號","121.520278333333","25.0153416666667","6500400","永和區"
"234017","745-BX","2017/06/20 19:59:30","新北市永和區文化路113巷2號","121.512728333333","25.0150783333333","6500400","永和區"
"234030","746-BX","2017/06/20 19:59:35","新北市永和區民權路49巷5弄25號","121.521188333333","24.9977566666667","6500400","永和區"
"234061","AAD-866","2017/06/20 19:59:24","新北市永和區中正路338號","121.517706666667","25.0000666666667","6500400","永和區"
"234042","862-TW","2017/06/20 19:59:22","新北市永和區中和路335巷14號","121.507545","25.0002866666667","6500400","永和區"
"234050","863-TW","2017/06/20 19:59:28","新北市永和區保安路258號","121.506036666667","25.0125016666667","6500400","永和區"
"234026","9371-KE","2017/06/20 19:59:20","新北市永和區水源街21巷14弄3號","121.511405","25.0037366666667","6500400","永和區"
"234011","9373-KE","2017/06/20 19:59:32","新北市永和區仁愛路352巷88號","121.501323333333","25.0077316666667","6500400","永和區"
"249005","172-UM","2017/06/20 19:59:29","新北市八里區楓林路1-12號","121.385661666667","25.1311483333333","6502300","八里區"
"249001","173-UM","2017/06/20 19:59:21","新北市八里區中華路二段310號","121.40386","25.1483583333333","6502300","八里區"
"249004","303-UY","2017/06/20 19:59:32","新北市八里區文昌路132號","121.409328333333","25.158345","6502300","八里區"
"249002","305-UY","2017/06/20 19:59:16","新北市八里區龍米路一段65巷2號","121.455515","25.1212133333333","6502300","八里區"
"249003","593-UM","2017/06/20 19:59:24","新北市八里區訊塘路8號","121.39826","25.144755","6502300","八里區"
"248016","026-BX","2017/06/20 19:59:32","新北市五股區成泰路三段577巷80弄6號","121.449485","25.1042316666667","6501500","五股區"
"248008","095-VK","2017/06/20 19:59:31","新北市五股區中興路一段17號","121.46928","25.0714583333333","6501500","五股區"
"248020","225-UY","2017/06/20 19:59:19","新北市五股區凌雲路三段26-3號","121.433728333333","25.10442","6501500","五股區"
"248014","261-SL","2017/06/20 19:59:18","新北市五股區五福路22巷8號","121.43469","25.089065","6501500","五股區"
"248012","655-BX","2017/06/20 19:59:16","新北市五股區民義路一段26號","121.437288333333","25.083625","6501500","五股區"
"248004","677-BX","2017/06/20 19:59:33","新北市五股區成泰路一段32巷45號","121.435165","25.0669283333333","6501500","五股區"
"248002","678-BX","2017/06/20 19:59:17","新北市五股區成泰路三段436號","121.450835","25.099505","6501500","五股區"
"234023","9380-KE","2017/06/20 19:59:17","新北市永和區中正路662巷12號","121.517623333333","25.0088166666667","6500400","永和區"
"234077","969-R7","2017/06/20 19:59:18","新北市永和區民有街23巷1號","121.516888333333","24.9963516666667","6500400","永和區"
"234074","AAC-211","2017/06/20 19:59:25","新北市永和區豫溪街158號","121.523128333333","25.0098016666667","6500400","永和區"
"234067","AAC-212","2017/06/20 19:59:28","新北市永和區保平路236巷20號","121.508231666667","25.0069283333333","6500400","永和區"
"234003","AAC-295","2017/06/20 19:57:33","新北市永和區中正路637號","121.515408333333","25.0100966666667","6500400","永和區"
"243013","AAD-798","2017/06/20 19:59:33","新北市泰山區應化街7號","121.423883333333","25.04372","6501600","泰山區"
"243009","297-R6","2017/06/20 19:59:27","新北市泰山區楓江路16巷23號","121.434111666667","25.0614716666667","6501600","泰山區"
"243015","380-SR","2017/06/20 19:59:20","新北市泰山區明志路二段194號","121.427441666667","25.049715","6501600","泰山區"
"243014","421-VK","2017/06/20 19:59:19","新北市泰山區泰林路二段158號","121.433936666667","25.0602966666667","6501600","泰山區"
"243016","539-UM","2017/06/20 19:58:18","新北市泰山區中山路二段841號","121.425555","25.035285","6501600","泰山區"
"243010","548-UM","2017/06/20 19:59:23","新北市泰山區中華街5號","121.427948333333","25.0524266666667","6501600","泰山區"
"243011","549-UM","2017/06/20 19:59:16","新北市泰山區工專路47號","121.422946666667","25.04014","6501600","泰山區"
"243012","646-TV","2017/06/20 19:59:19","新北市泰山區全興路87號","121.433296666667","25.0574866666667","6501600","泰山區"
"222003","436-BY","2017/06/20 19:59:31","新北市深坑區埔新街14號","121.620715","25.0039483333333","6501800","深坑區"
"222002","659-BX","2017/06/20 19:59:32","新北市深坑區北深路二段81巷17號","121.61858","25.0025533333333","6501800","深坑區"
"222001","696-SL","2017/06/20 19:59:23","新北市深坑區北深路三段165-1號","121.602178333333","25.00333","6501800","深坑區"
"231040","001-UM","2017/06/20 19:59:15","新北市新店區北新路一段96巷25號","121.542668333333","24.9693266666667","6500600","新店區"
"231041","002-UM","2017/06/20 19:59:29","新北市新店區自由街2-1號","121.535773333333","24.9755633333333","6500600","新店區"
"231056","0291-UT","2017/06/20 19:59:06","新北市新店區民權路72號","121.53807","24.9829883333333","6500600","新店區"
"231059","046-UY","2017/06/20 19:59:26","新北市新店區安康路二段192號","121.511198333333","24.960105","6500600","新店區"
"231061","047-UY","2017/06/20 19:59:16","新北市新店區安興路81號","121.515403333333","24.9754066666667","6500600","新店區"
"231060","106-UY","2017/06/20 19:59:18","新北市新店區安康路二段335號","121.498436666667","24.95598","6500600","新店區"
"231051","107-UY","2017/06/20 19:59:23","新北市新店區中央路216-1號","121.529741666667","24.973285","6500600","新店區"
"231048","108-UY","2017/06/20 19:59:20","新北市新店區寶宏路20號","121.549306666667","24.9760233333333","6500600","新店區"
"231053","187-VK","2017/06/20 19:59:21","新北市新店區新烏路三段225號","121.547318333333","24.8966383333333","6500600","新店區"
"231069","189-VK","2017/06/20 12:03:24","新北市新店區安華路28-1號","121.519668333333","24.96113","6500600","新店區"
"231057","256-BX","2017/06/20 19:59:18","新北市新店區花園二路一段11號","121.555516666667","24.9324833333333","6500600","新店區"
"231063","268-BY","2017/06/20 19:59:25","新北市新店區黎明路3號","121.50364","24.9524466666667","6500600","新店區"
"231050","AAD-862","2017/06/20 19:59:16","新北市新店區北宜路二段360-1號","121.564745","24.9523533333333","6500600","新店區"
"231055","3713-VJ","2017/06/20 19:59:22","新北市新店區中華路83巷67號","121.538348333333","24.9672383333333","6500600","新店區"
"231067","4772-VM","2017/06/20 19:59:25","新北市新店區精忠路10-1號","121.532476666667","24.95917","6500600","新店區"
"231065","512-UM","2017/06/20 19:59:32","新北市新店區安祥路108巷3號","121.475205","24.9587","6500600","新店區"
"231054","513-UM","2017/06/20 19:59:30","新北市新店區光明街22號","121.53808","24.9587416666667","6500600","新店區"
"231064","515-UM","2017/06/20 19:59:21","新北市新店區碧安街15巷2號","121.517358333333","24.9691166666667","6500600","新店區"
"231042","616-UM","2017/06/20 19:59:34","新北市新店區中興路二段100巷2號","121.547318333333","24.97128","6500600","新店區"
"231045","617-UM","2017/06/20 19:59:23","新北市新店區北宜路二段114號","121.55652","24.95374","6500600","新店區"
"231068","718-UY","2017/06/20 19:59:24","新北市新店區安華路28-1號","121.519316666667","24.961125","6500600","新店區"
"231049","719-UM","2017/06/20 19:59:27","新北市新店區明德路52號","121.541768333333","24.978635","6500600","新店區"
"231062","720-UM","2017/06/20 19:59:30","新北市新店區華城路14號","121.529226666667","24.9576633333333","6500600","新店區"
"231044","897-TW","2017/06/20 19:59:25","新北市新店區復興路38號","121.53886","24.98676","6500600","新店區"
"231043","899-TW","2017/06/20 19:59:28","新北市新店區中正路263-3號","121.538375","24.973805","6500600","新店區"
"231066","AKT-0513","2017/06/20 19:59:23","新北市新店區安德街60巷35號","121.510988333333","24.9637266666667","6500600","新店區"
"241011","013-R5","2017/06/20 19:59:18","新北市三重區三和路二段165號","121.49795","25.06955","6500200","三重區"
"241028","022-UY","2017/06/20 19:59:32","新北市三重區中正北路9號","121.492601666667","25.0612516666667","6500200","三重區"
"241008","059-VK","2017/06/20 19:59:18","新北市三重區永福街179巷11號","121.478416666667","25.0749133333333","6500200","三重區"
"241009","060-VK","2017/06/20 19:59:29","新北市三重區三和路四段388-2號","121.482075","25.079045","6500200","三重區"
"241031","061-VK","2017/06/20 19:59:33","新北市三重區重新路四段184巷16號","121.487096666667","25.0550266666667","6500200","三重區"
"241015","062-VK","2017/06/20 19:59:30","新北市三重區三和路二段8號","121.501065","25.06694","6500200","三重區"
"241017","063-VK","2017/06/20 19:59:18","新北市三重區自強路一段187號","121.491956666667","25.0680333333333","6500200","三重區"
"241024","065-VK","2017/06/20 19:59:29","新北市三重區力行路二段2號","121.481895","25.0719316666667","6500200","三重區"
"241026","066-VK","2017/06/20 19:59:20","新北市三重區中央南路7號","121.501241666667","25.0628583333333","6500200","三重區"
"241002","090-VK","2017/06/20 19:59:20","新北市三重區仁愛街269巷6號","121.49318","25.0789166666667","6500200","三重區"
"241003","091-VK","2017/06/20 19:59:25","新北市三重區仁愛街445巷32號","121.49127","25.0832966666667","6500200","三重區"
"241005","262-UM","2017/06/20 19:59:31","新北市三重區溪尾街325巷28號","121.488605","25.0836083333333","6500200","三重區"
"241004","265-UM","2017/06/20 19:59:21","新北市三重區仁愛街425巷92號","121.492243333333","25.082705","6500200","三重區"
"241016","266-UM","2017/06/20 19:59:23","新北市三重區正義北路36巷12號","121.496666666667","25.06334","6500200","三重區"
"241018","268-UM","2017/06/20 19:59:25","新北市三重區自強路一段236號","121.493295","25.06704","6500200","三重區"
"241032","269-UM","2017/06/20 19:59:20","新北市三重區捷運路65號","121.483413333333","25.0556433333333","6500200","三重區"
"241013","270-UM","2017/06/20 19:59:29","新北市三重區三和路三段125巷12號","121.493313333333","25.073575","6500200","三重區"
"241025","271-UM","2017/06/20 19:59:32","新北市三重區頂崁街210巷16號","121.476415","25.0677366666667","6500200","三重區"
"241007","398-BY","2017/06/20 19:59:32","新北市三重區溪尾街169號","121.48897","25.0801616666667","6500200","三重區"
"241020","413-TH","2017/06/20 19:59:27","新北市三重區忠孝路一段101號","121.489476666667","25.0721266666667","6500200","三重區"
"241035","462-BY","2017/06/20 19:59:31","新北市三重區大榮街13號","121.498271666667","25.0630616666667","6500200","三重區"
"241019","478-VK","2017/06/20 19:59:35","新北市三重區重陽路四段22號","121.490926666667","25.069435","6500200","三重區"
"241030","480-VK","2017/06/20 19:59:28","新北市三重區重新路四段248-1號","121.48622","25.0534516666667","6500200","三重區"
"241014","543-UM","2017/06/20 19:59:25","新北市三重區三和路二段164號","121.499246666667","25.0685966666667","6500200","三重區"
"241023","545-UM","2017/06/20 19:59:28","新北市三重區大有街1-1號","121.477688333333","25.0654966666667","6500200","三重區"
"241001","547-UM","2017/06/20 19:59:21","新北市三重區五華街9-2號","121.495203333333","25.0800733333333","6500200","三重區"
"241006","AAD-863","2017/06/20 19:59:33","新北市三重區力行路二段122號","121.482126666667","25.0749733333333","6500200","三重區"
"241012","887-TS","2017/06/20 19:59:31","新北市三重區仁厚街58號","121.500383333333","25.0766233333333","6500200","三重區"
"241029","942-UM","2017/06/20 19:59:30","新北市三重區重新路三段204號","121.49014","25.058285","6500200","三重區"
"241033","AAC-255","2017/06/20 19:59:29","新北市三重區中興北街34號","121.46969","25.048895","6500200","三重區"
"235066","003-UY","2017/06/20 19:59:31","新北市中和區中山路二段67號","121.504061666667","25.004395","6500300","中和區"
"235053","031-BX","2017/06/20 19:59:28","新北市中和區莒光路147號","121.472686666667","25.0012283333333","6500300","中和區"
"235056","096-UM","2017/06/20 19:59:25","新北市中和區中山路三段168號","121.472905","25.006415","6500300","中和區"
"235039","097-UM","2017/06/20 19:59:20","新北市中和區大勇街27巷9號","121.516966666667","24.993615","6500300","中和區"
"235065","098-UM","2017/06/20 19:59:21","新北市中和區福祥路90巷5號","121.499563333333","25.00589","6500300","中和區"
"235040","150-BY","2017/06/20 19:59:14","新北市中和區保健路10巷3號","121.507656666667","24.9975616666667","6500300","中和區"
"235058","151-BY","2017/06/20 19:59:33","新北市中和區員山路148巷4號","121.481518333333","24.9970483333333","6500300","中和區"
"235055","183-VK","2017/06/20 19:59:26","新北市中和區德光路15巷14號","121.471345","25.0036416666667","6500300","中和區"
"235038","185-VK","2017/06/20 19:59:31","新北市中和區大智街55巷30弄32號","121.521615","24.9932483333333","6500300","中和區"
"235049","186-VK","2017/06/20 19:59:29","新北市中和區中興街37號","121.500831666667","24.9944283333333","6500300","中和區"
"235067","255-BX","2017/06/20 19:59:27","新北市中和區中正路751巷3弄5號","121.484473333333","24.999475","6500300","中和區"
"235044","293-VK","2017/06/20 19:59:20","新北市中和區南山路300號","121.5079","24.9871633333333","6500300","中和區"
"235072","301-VK","2017/06/20 19:59:20","新北市五股區新五路二段372巷20號","121.447853333333","25.0849633333333","6500300","中和區"
"235043","352-BY","2017/06/20 19:59:22","新北市中和區華新街232巷2號","121.506028333333","24.9818266666667","6500300","中和區"
"235051","376-QA","2017/06/20 19:59:18","新北市中和區中興街202巷10號","121.499058333333","24.9899066666667","6500300","中和區"
"235068","377-QA","2017/06/20 19:59:20","新北市中和區福美路262號","121.49814","25.0051416666667","6500300","中和區"
"235061","378-QA","2017/06/20 19:59:26","新北市中和區員山路226巷3弄16號","121.482051666667","25.0012766666667","6500300","中和區"
"235050","4979-A6","2017/06/20 19:59:32","新北市中和區景平路153號","121.513506666667","24.9918066666667","6500300","中和區"
"235069","4980-A6","2017/06/20 19:59:15","新北市中和區中和路132號","121.503661666667","24.9993416666667","6500300","中和區"
"235070","558-UM","2017/06/20 19:59:26","新北市中和區景平路511號","121.499296666667","24.99872","6500300","中和區"
"235047","732-UM","2017/06/20 19:59:26","新北市中和區和平街74號","121.507833333333","24.991125","6500300","中和區"
"235046","733-UM","2017/06/20 19:59:21","新北市中和區興南路一段93巷51號","121.510205","24.9874216666667","6500300","中和區"
"235052","805-TS","2017/06/20 19:59:31","新北市中和區華新街47號","121.507848333333","24.984585","6500300","中和區"
"235048","896-TW","2017/06/20 19:59:29","新北市中和區興南路一段55-2號","121.51066","24.990105","6500300","中和區"
"235053","900-TW","2017/06/20 19:59:21","新北市中和區國光街171巷17號","121.467741666667","25.001245","6500300","中和區"
"235041","157-BY","2017/06/20 19:59:18","新北市中和區中和路416號","121.511711666667","25.003215","6500300","中和區"
"235037","AAC-213","2017/06/20 19:59:29","新北市中和區秀朗路三段93號","121.52654","24.9954533333333","6500300","中和區"
"235059","AAC-215","2017/06/20 19:59:32","新北市中和區圓通路335巷33弄3號","121.493331666667","24.9894333333333","6500300","中和區"
"220065","072-UY","2017/06/20 19:59:25","新北市板橋區海山路39號","121.467231666667","25.0096833333333","6500100","板橋區"
"220086","073-UY","2017/06/20 19:59:15","新北市板橋區南雅西路二段7巷25號","121.451938333333","25.0094733333333","6500100","板橋區"
"220106","075-UY","2017/06/20 19:59:16","新北市板橋區民治街71巷36號","121.480541666667","25.0327983333333","6500100","板橋區"
"220069","AAD-861","2017/06/20 19:59:33","新北市板橋區貴興路127號","121.455243333333","25.001935","6500100","板橋區"
"247020","893-R6","2017/06/20 19:59:20","新北市蘆洲區民義街70號","121.473171666667","25.089985","6501400","蘆洲區"
"247018","500-BY","2017/06/20 19:59:32","新北市蘆洲區民族路298巷4號","121.478001666667","25.0899966666667","6501400","蘆洲區"
"247006","341-TH","2017/06/20 19:59:18","新北市蘆洲區九芎街97號","121.466155","25.0794","6501400","蘆洲區"
"247008","339-TH","2017/06/20 19:59:30","新北市蘆洲區中山一路97巷32弄5號","121.475661666667","25.0811333333333","6501400","蘆洲區"
"247024","337-TH","2017/06/20 19:59:23","新北市蘆洲區光榮路120巷8弄23號","121.465033333333","25.08819","6501400","蘆洲區"
"247002","336-TH","2017/06/20 19:59:15","新北市蘆洲區長安街274巷6弄2號","121.457928333333","25.0870133333333","6501400","蘆洲區"
"247014","057-VK","2017/06/20 19:59:15","新北市蘆洲區成功路132號","121.472125","25.0826733333333","6501400","蘆洲區"
"247004","056-VK","2017/06/20 19:59:25","新北市蘆洲區永康街75號","121.455791666667","25.0851666666667","6501400","蘆洲區"
"247012","007-UY","2017/06/20 19:59:31","新北市蘆洲區中興街15巷42號","121.479841666667","25.0885116666667","6501400","蘆洲區"
"247022","002-UY","2017/06/20 19:59:26","新北市蘆洲區中正路285號","121.46691","25.0879083333333","6501400","蘆洲區"
"247016","001-UY","2017/06/20 19:59:23","新北市蘆洲區光華路108號","121.467225","25.0825966666667","6501400","蘆洲區"
"223008","406-TH","2017/06/20 09:56:18","新北市石碇區小粗坑(潭邊里)9-2號","121.678801666667","24.9856433333333","6501900","石碇區"
"228003","828-UM","2017/06/20 19:58:10","新北市貢寮區仁理村仁和路96號","121.922806666667","25.0505383333333","6502600","貢寮區"
"224011","420-VK","2017/06/20 19:59:29","新北市瑞芳區崙頂路3-1號","121.847041666667","25.1046833333333","6501200","瑞芳區"
"227003","642-TC","2017/06/20 19:59:18","新北市雙溪區雙溪里長安街16號","121.86497","25.0346533333333","6502500","雙溪區"
"227009","400-TW","2017/06/20 19:59:20","新北市雙溪區新基里新基南街25號","121.866243333333","25.0381833333333","6502500","雙溪區"
"208001","742-BX","2017/06/20 19:59:36","新北市金山區南勢85號","121.62516","25.2199566666667","6502700","金山區"
"208003","665-BX","2017/06/20 19:59:20","新北市金山區永興里濆水路13號","121.626776666667","25.268485","6502700","金山區"
"251004","009-UM","2017/06/20 19:58:50","新北市淡水區自強路122巷18號","121.46479","25.1325483333333","6501000","淡水區"
"251005","010-UM","2017/06/20 19:59:33","新北市淡水區學府路136巷39號","121.451915","25.1726966666667","6501000","淡水區"
"251014","180-VK","2017/06/20 19:59:31","新北市淡水區石頭厝3-2號","121.459195","25.235225","6501000","淡水區"
"251008","181-VK","2017/06/20 19:59:27","新北市淡水區淡海路72巷19號","121.423983333333","25.18109","6501000","淡水區"
"251010","413-VK","2017/06/20 19:59:19","新北市淡水區崁頂102號","121.434","25.2038033333333","6501000","淡水區"
"251012","441-VK","2017/06/20 19:55:59","新北市淡水區下圭柔山93號","121.436046666667","25.2089516666667","6501000","淡水區"
"251016","442-VK","2017/06/20 19:59:34","新北市淡水區番子田16-13號","121.453755","25.2315516666667","6501000","淡水區"
"251001","559-UM","2017/06/20 19:59:21","新北市淡水區新市二路四段265號","121.445745","25.19251","6501000","淡水區"
"251006","561-UM","2017/06/20 19:59:35","新北市淡水區北新路41號","121.4455","25.1779716666667","6501000","淡水區"
"251009","575-R6","2017/06/20 19:59:23","新北市淡水區英專路21巷3號","121.445313333333","25.1696683333333","6501000","淡水區"
"251011","650-BX","2017/06/20 19:59:19","新北市淡水區崁頂55-3號","121.442326666667","25.1966533333333","6501000","淡水區"
"251003","766-UM","2017/06/20 19:59:28","新北市淡水區中山北路二段189巷15弄29號","121.44343","25.1842233333333","6501000","淡水區"
"207003","550-UM","2017/06/20 19:59:19","新北市萬里區磺潭里公館崙5號","121.641883333333","25.2142416666667","6502800","萬里區"
"207004","225-TW","2017/06/20 19:59:28","新北市萬里區北基里忠二街15號","121.685115","25.17537","6502800","萬里區"
"252002","178-VK","2017/06/20 19:59:20","新北市三芝區忠孝街116-3號","121.50549","25.2574583333333","6502100","三芝區"
"252001","292-VK","2017/06/20 19:59:29","新北市三芝區公正街66號","121.499765","25.25744","6502100","三芝區"
"208002","170-UY","2017/06/20 19:59:23","新北市金山區環金路59號","121.638283333333","25.21738","6502700","金山區"
"237001","361-BY","2017/06/20 14:49:14","新北市三峽區中山路459巷163-1號","121.349318333333","24.93344","6500900","三峽區"
"237007","153-BY","2017/06/20 19:59:23","新北市三峽區二鬮路136巷20弄9號","121.356558333333","24.90986","6500900","三峽區"
"237009","210-TH","2017/06/20 19:59:32","新北市三峽區民族街28巷2-11號","121.369086666667","24.93059","6500900","三峽區"
"237012","275-BY","2017/06/20 19:59:17","新北市三峽區中華路3巷8-1號","121.374968333333","24.9311516666667","6500900","三峽區"
"237008","302-VK","2017/06/20 19:59:23","新北市三峽區安溪路345號","121.370055","24.92638","6500900","三峽區"
"237006","5529-G3","2017/06/20 19:59:28","新北市三峽區中正路二段168號","121.366008333333","24.9157133333333","6500900","三峽區"
"237016","649-BX","2017/06/20 19:59:29","新北市三峽區橫溪路99巷16弄1號","121.40008","24.93623","6500900","三峽區"
"237001","682-BX","2017/06/20 12:29:40","新北市三峽區中山路459巷163-3號","121.348566666667","24.9326916666667","6500900","三峽區"
"237005","AKY-6261","2017/06/20 19:59:31","新北市三峽區三樹路16號","121.377696666667","24.9370616666667","6500900","三峽區"
"236070","105-UM","2017/06/20 19:59:23","新北市土城區忠義路77-1號","121.442885","24.9652066666667","6501300","土城區"
"236043","107-UM","2017/06/20 19:59:28","新北市土城區裕民路185巷14號","121.454055","24.984795","6501300","土城區"
"236079","166-UM","2017/06/20 19:59:18","新北市土城區福安街68號","121.418343333333","24.964505","6501300","土城區"
"236031","253-BX","2017/06/20 19:59:22","新北市土城區中央路一段250巷2-5號","121.443843333333","24.9849266666667","6501300","土城區"
"236027","269-VK","2017/06/20 19:59:37","新北市土城區員林街1號","121.442186666667","24.97822","6501300","土城區"
"236015","270-VK","2017/06/20 19:59:23","新北市土城區廣福街128號","121.45631","24.992845","6501300","土城區"
"236038","271-VK","2017/06/20 19:59:20","新北市土城區國際路156號","121.467866666667","24.9764383333333","6501300","土城區"
"236023","401-BY","2017/06/20 19:59:20","新北市土城區延吉街137巷12弄2號","121.470773333333","24.9855766666667","6501300","土城區"
"236059","912-UM","2017/06/20 19:59:28","新北市土城區中央路一段141號","121.446638333333","24.9880766666667","6501300","土城區"
"236049","913-UM","2017/06/20 19:59:13","新北市土城區金城路三段160號","121.4672","24.9873983333333","6501300","土城區"
"236063","915-UM","2017/06/20 19:59:23","新北市土城區延和路62巷6弄1號","121.466078333333","24.9885566666667","6501300","土城區"
"236055","AAC-216","2017/06/20 19:59:30","新北市土城區金城路三段191-1號","121.469943333333","24.9889183333333","6501300","土城區"
"242021","AAC-296","2017/06/20 19:59:18","新北市新莊區建中街16巷30號","121.449098333333","25.038725","6500500","新莊區"
"242029","986-R7","2017/06/20 19:59:29","新北市新莊區中平路361號","121.444598333333","25.0518083333333","6500500","新莊區"
"242048","751-BX","2017/06/20 19:59:26","新北市新莊區富國路158號","121.423286666667","25.024715","6500500","新莊區"
"242025","615-BX","2017/06/20 19:59:23","新北市新莊區五工二路86巷33號","121.460483333333","25.06733","6500500","新莊區"
"242023","613-BX","2017/06/20 19:59:23","新北市新莊區化成路354號","121.465823333333","25.0491683333333","6500500","新莊區"
"242027","612-BX","2017/06/20 19:59:35","新北市新莊區立信一街60號","121.443086666667","25.0498016666667","6500500","新莊區"
"242037","566-BX","2017/06/20 19:59:17","新北市新莊區建安街27號","121.428963333333","25.025925","6500500","新莊區"
"242042","497-BY","2017/06/20 19:59:32","新北市新莊區青山路一段26號","121.410826666667","25.027515","6500500","新莊區"
"242005","442-UM","2017/06/20 19:59:26","新北市新莊區化成路314巷4號","121.466351666667","25.048175","6500500","新莊區"
"242051","440-UM","2017/06/20 19:59:23","新北市新莊區龍安路525號","121.427375","25.017665","6500500","新莊區"
"242032","415-TV","2017/06/20 19:59:34","新北市新莊區公園一路77號","121.443183333333","25.0370666666667","6500500","新莊區"
"242002","413-TV","2017/06/20 19:59:28","新北市新莊區中正路102號","121.45459","25.0366666666667","6500500","新莊區"
"242039","400-BY","2017/06/20 19:59:20","新北市新莊區民安路294號","121.428075","25.0217716666667","6500500","新莊區"
"242061","362-BY","2017/06/20 19:59:30","新北市新莊區瓊泰路1號","121.445043333333","25.0285183333333","6500500","新莊區"
"242058","353-BY","2017/06/20 19:59:16","新北市新莊區八德街105號","121.424203333333","25.02116","6500500","新莊區"
"242011","132-UY","2017/06/20 19:59:33","新北市新莊區中港路531巷60號","121.450181666667","25.051535","6500500","新莊區"
"242019","135-UY","2017/06/20 19:59:29","新北市新莊區民生街21號","121.456045","25.04221","6500500","新莊區"
"242044","172-VK","2017/06/20 19:59:28","新北市新莊區中正路746巷45-1號","121.411195","25.0253183333333","6500500","新莊區"
"242007","173-VK","2017/06/20 19:59:24","新北市新莊區思源路591號","121.459691666667","25.0596133333333","6500500","新莊區"
"242013","175-VK","2017/06/20 19:59:27","新北市新莊區幸福路670巷2弄1號","121.451005","25.0495016666667","6500500","新莊區"
"242056","176-VK","2017/06/20 19:59:30","新北市新莊區中正路347巷15號","121.44732","25.03439","6500500","新莊區"
"242034","347-TH","2017/06/20 19:59:19","新北市新莊區建中街104號","121.446315","25.03658","6500500","新莊區"
"242017","348-TH","2017/06/20 19:59:19","新北市新莊區中安街35號","121.452531666667","25.0459266666667","6500500","新莊區"
"242054","349-TH","2017/06/20 19:59:19","新北市新莊區西盛街423號","121.427313333333","25.0121666666667","6500500","新莊區"
"242015","350-TH","2017/06/20 19:59:21","新北市新莊區復興路一段47巷2號","121.446976666667","25.0423333333333","6500500","新莊區"
"242009","351-TH","2017/06/20 19:59:31","新北市新莊區昌盛街27號","121.45378","25.0499966666667","6500500","新莊區"
"238015","755-BX","2017/06/20 19:59:22","新北市樹林區中山路三段186號","121.387296666667","24.96901","6500700","樹林區"
"238023","601-UM","2017/06/20 19:59:21","新北市樹林區中正路163號","121.424083333333","25.002165","6500700","樹林區"
"238022","312-TH","2017/06/20 19:59:18","新北市樹林區中山路三段125-6號","121.398196666667","24.9739283333333","6500700","樹林區"
"238021","311-TH","2017/06/20 19:53:58","新北市樹林區佳園路三段141號","121.385926666667","24.9495033333333","6500700","樹林區"
"238017","283-BY","2017/06/20 19:59:29","新北市樹林區中山路二段219號","121.402748333333","24.9764516666667","6500700","樹林區"
"238020","268-VK","2017/06/20 19:59:25","新北市樹林區太平路247巷30號","121.422135","24.97467","6500700","樹林區"
"221036","130-UY","2017/06/20 19:59:23","新北市汐止區新台五路二段85巷18號","121.664263333333","25.067415","6501100","汐止區"
"221015","131-UY","2017/06/20 19:59:32","新北市汐止區橋東街15號","121.666621666667","25.0757283333333","6501100","汐止區"
"221010","269-BY","2017/06/20 19:59:31","新北市汐止區連峰街246號","121.645","25.0808","6501100","汐止區"
"221010","276-VK","2017/06/20 13:25:46","新北市汐止區汐萬路一段256巷3號","121.65346","25.0746233333333","6501100","汐止區"
"221012","278-VK","2017/06/20 19:59:28","新北市汐止區大同路三段214號","121.674995","25.073315","6501100","汐止區"
"221023","279-VK","2017/06/20 19:57:59","新北市汐止區明峰街183號","121.628395","25.06982","6501100","汐止區"
"221032","280-BY","2017/06/20 19:59:23","新北市汐止區力行街59巷9弄2號","121.617268333333","25.0496633333333","6501100","汐止區"
"221027","281-BY","2017/06/20 19:59:26","新北市汐止區中正路75號","121.661533333333","25.0695283333333","6501100","汐止區"
"221038","297-VK","2017/06/20 19:59:31","新北市汐止區忠孝東路409號","121.665831666667","25.0712233333333","6501100","汐止區"
"221029","298-VK","2017/06/20 19:59:17","新北市汐止區樟樹一路139巷23號","121.641075","25.06602","6501100","汐止區"
"221021","299-VK","2017/06/20 19:59:22","新北市汐止區新台五路一段212-2號","121.65589","25.0627916666667","6501100","汐止區"
"221025","567-BX","2017/06/20 14:43:41","新北市汐止區汐萬路一段256巷3號","121.652596666667","25.0743733333333","6501100","汐止區"
"221035","622-UM","2017/06/20 19:59:30","新北市汐止區長江街39巷6號","121.655568333333","25.0716333333333","6501100","汐止區"
"221025","623-UM","2017/06/20 19:59:18","新北市汐止區秀峰路118號","121.660018333333","25.063425","6501100","汐止區"
"221033","647-BX","2017/06/20 19:59:27","新北市汐止區東勢街190巷3號","121.633863333333","25.0416416666667","6501100","汐止區"
"221018","753-BX","2017/06/20 19:59:31","新北市汐止區忠孝東路397號","121.665771666667","25.0708033333333","6501100","汐止區"
"220079","145-BY","2017/06/20 19:59:23","新北市板橋區大智街73號","121.453556666667","25.0155316666667","6500100","板橋區"
"220093","146-RM","2017/06/20 19:59:18","新北市板橋區長江路三段111號","121.475138333333","25.0345116666667","6500100","板橋區"
"220080","200-UY","2017/06/20 19:59:30","新北市板橋區大觀路二段69巷4號","121.446865","25.0022633333333","6500100","板橋區"
"220082","610-BX","2017/06/20 19:59:18","新北市板橋區存德街17號","121.430228333333","24.9917366666667","6500100","板橋區"
"220101","245-BX","2017/06/20 19:59:31","新北市板橋區縣民大道三段65號","121.47483","25.021355","6500100","板橋區"
"220072","277-BY","2017/06/20 19:59:29","新北市板橋區金門街127巷17號","121.433705","24.9911333333333","6500100","板橋區"
"220064","280-UM","2017/06/20 19:59:16","新北市板橋區區運路8號","121.465088333333","25.009085","6500100","板橋區"
"220094","283-UM","2017/06/20 19:59:20","新北市板橋區雨農路10號","121.462231666667","25.0248133333333","6500100","板橋區"
"220071","283-VK","2017/06/20 19:59:21","新北市板橋區五權街30巷14號","121.46431","24.99329","6500100","板橋區"
"220089","285-UM","2017/06/20 19:59:24","新北市板橋區新海路385巷34弄8號","121.457253333333","25.0257316666667","6500100","板橋區"
"220053","285-VK","2017/06/20 19:59:35","新北市板橋區永豐街45-1號","121.474296666667","25.0175866666667","6500100","板橋區"
"220083","286-VK","2017/06/20 19:59:32","新北市板橋區龍興街65巷2號","121.4436","25.001385","6500100","板橋區"
"220081","287-VK","2017/06/20 19:59:26","新北市板橋區大觀路一段29巷25號","121.450208333333","25.0078033333333","6500100","板橋區"
"220090","288-VK","2017/06/20 19:59:30","新北市板橋區綠堤街29號","121.45579","25.0264383333333","6500100","板橋區"
"220061","293-UM","2017/06/20 19:59:32","新北市板橋區中山路一段283巷2弄2-3號","121.47022","25.0145","6500100","板橋區"
"220084","296-UM","2017/06/20 19:59:25","新北市板橋區溪崑二街92巷9號","121.426068333333","24.98968","6500100","板橋區"
"220075","297-UM","2017/06/20 19:59:31","新北市板橋區金華街10巷126號","121.459576666667","25.020575","6500100","板橋區"
"220062","305-R5","2017/06/20 19:59:17","新北市板橋區光復街172巷31弄5-2號","121.48618","25.0190433333333","6500100","板橋區"
"220092","307-R5","2017/06/20 19:59:28","新北市板橋區互助街98號","121.460031666667","25.02614","6500100","板橋區"
"220098","317-R6","2017/06/20 19:59:28","新北市板橋區新海路72巷64號","121.46174","25.0234966666667","6500100","板橋區"
"220088","491-VK","2017/06/20 19:58:37","新北市板橋區大同街67號","121.479318333333","25.027955","6500100","板橋區"
"220035","560-BX","2017/06/20 19:59:29","新北市板橋區新生街29巷15弄2號","121.45657","25.0221083333333","6500100","板橋區"
"220103","561-BX","2017/06/20 19:59:35","新北市板橋區陽明街29巷3號","121.46531","25.0215916666667","6500100","板橋區"
"220068","568-UM","2017/06/20 19:59:21","新北市板橋區中山路二段318巷4號","121.4801","25.01919","6500100","板橋區"
"220091","637-BX","2017/06/20 19:59:27","新北市板橋區懷德街174巷1-18號","121.47902","25.02955","6500100","板橋區"
"220057","686-BX","2017/06/20 19:59:28","新北市板橋區信義路67號","121.45708","24.99551","6500100","板橋區"
"220054","741-BX","2017/06/20 19:59:31","新北市板橋區實踐路93巷74號","121.466645","25.0048383333333","6500100","板橋區"
"220055","827-TW","2017/06/20 19:59:19","新北市板橋區仁愛路62巷17弄1號","121.460043333333","24.9981866666667","6500100","板橋區"
"220067","829-TW","2017/06/20 19:59:27","新北市板橋區中山路一段206巷101號","121.472473333333","25.0135216666667","6500100","板橋區"
"220102","830-TW","2017/06/20 19:59:28","新北市板橋區文聖街20號","121.475861666667","25.0318766666667","6500100","板橋區"
"220096","831-TW","2017/06/20 19:59:30","新北市板橋區莒光路15巷8號","121.470156666667","25.0252433333333","6500100","板橋區"
"220074","895-R6","2017/06/20 19:59:24","新北市板橋區東門街1-1號","121.458071666667","25.008825","6500100","板橋區"
"220073","985-R7","2017/06/20 19:59:35","新北市板橋區南雅西路二段212號","121.451938333333","25.015155","6500100","板橋區"
"220097","AAC-210","2017/06/20 19:59:20","新北市板橋區公館街132號","121.461268333333","25.018395","6500100","板橋區"
"220070","AAC-253","2017/06/20 19:59:21","新北市板橋區民族路83號","121.465628333333","25.0085633333333","6500100","板橋區"
