"lineid","car","time","location","longitude","latitude","cityid","cityname"
"244024","837-TS","2017/06/20 20:15:17","新北市林口區粉寮路二段160巷28號","121.405215","25.0907583333333","6501700","林口區"
"243009","297-R6","2017/06/20 20:59:07","新北市泰山區泰林路三段745巷145號","121.405631666667","25.067935","6501600","泰山區"
"222002","659-BX","2017/06/20 20:59:11","新北市深坑區北深路三段25巷14號","121.608645","25.0002133333333","6501800","深坑區"
"231040","001-UM","2017/06/20 20:59:15","新北市新店區中正路186號","121.54108","24.97232","6500600","新店區"
"231059","046-UY","2017/06/20 20:59:22","新北市新店區僑信路104號","121.50008","24.9472016666667","6500600","新店區"
"231061","047-UY","2017/06/20 20:59:16","新北市新店區永安街60號","121.518846666667","24.9868883333333","6500600","新店區"
"231060","106-UY","2017/06/20 20:59:18","新北市新店區安康路三段525巷35號","121.481695","24.9444283333333","6500600","新店區"
"231051","107-UY","2017/06/20 20:59:23","新北市新店區民生路156巷34號","121.528248333333","24.98161","6500600","新店區"
"231048","108-UY","2017/06/20 20:59:23","新北市新店區文化路71號","121.544736666667","24.98204","6500600","新店區"
"231069","189-VK","2017/06/20 12:03:24","新北市新店區安華路28-1號","121.519668333333","24.96113","6500600","新店區"
"231057","256-BX","2017/06/20 20:59:18","新北市新店區北宜路一段2號","121.537993333333","24.9587166666667","6500600","新店區"
"231063","268-BY","2017/06/20 20:59:18","新北市新店區富貴街8巷1號","121.49432","24.9498066666667","6500600","新店區"
"231050","AAD-862","2017/06/20 20:59:16","新北市新店區三民路117巷7弄1號","121.534093333333","24.9710616666667","6500600","新店區"
"231067","4772-VM","2017/06/20 20:59:05","新北市新店區溪洲路182號","121.528601666667","24.965215","6500600","新店區"
"231065","512-UM","2017/06/20 20:59:12","新北市新店區安祥路69巷96號","121.482903333333","24.95902","6500600","新店區"
"231054","513-UM","2017/06/20 20:59:10","新北市新店區中正路75巷67號","121.54319","24.9691466666667","6500600","新店區"
"231064","515-UM","2017/06/20 20:59:21","新北市新店區安民街303巷9弄2號","121.516845","24.973335","6500600","新店區"
"231042","616-UM","2017/06/20 20:59:13","新北市新店區寶興路47號","121.549146666667","24.9733733333333","6500600","新店區"
"231068","718-UY","2017/06/20 20:59:04","新北市新店區寶中路79號","121.547633333333","24.98085","6500600","新店區"
"231062","720-UM","2017/06/20 20:59:10","新北市新店區如意街36號","121.493331666667","24.948385","6500600","新店區"
"231043","899-TW","2017/06/20 20:59:17","新北市新店區民族路207號","121.536975","24.976045","6500600","新店區"
"231066","AKT-0513","2017/06/20 20:59:03","新北市新店區吉安街34號","121.515943333333","24.966025","6500600","新店區"
"241011","013-R5","2017/06/20 20:59:18","新北市三重區秀江街119號","121.499676666667","25.0722","6500200","三重區"
"241028","022-UY","2017/06/20 20:59:11","新北市三重區新北大道一段1號","121.491701666667","25.0613283333333","6500200","三重區"
"241008","059-VK","2017/06/20 20:59:18","新北市三重區力行路二段162巷22號","121.481518333333","25.0764666666667","6500200","三重區"
"241009","060-VK","2017/06/20 20:59:09","新北市三重區三和路四段386號","121.482476666667","25.0789566666667","6500200","三重區"
"241031","061-VK","2017/06/20 20:59:13","新北市三重區重陽路一段113巷2弄2號","121.487445","25.0598583333333","6500200","三重區"
"241015","062-VK","2017/06/20 20:59:10","新北市三重區福德北路57號","121.502073333333","25.06541","6500200","三重區"
"241017","063-VK","2017/06/20 20:59:18","新北市三重區大仁街23號","121.492143333333","25.0646083333333","6500200","三重區"
"241024","065-VK","2017/06/20 20:59:09","新北市三重區國道路一段58巷15號","121.481451666667","25.072065","6500200","三重區"
"241026","066-VK","2017/06/20 20:59:20","新北市三重區文化南路45號","121.50027","25.061365","6500200","三重區"
"241002","090-VK","2017/06/20 20:59:20","新北市三重區五華街1巷39號","121.49691","25.0804066666667","6500200","三重區"
"241003","091-VK","2017/06/20 20:59:04","新北市三重區五華街141巷58號","121.493523333333","25.0867183333333","6500200","三重區"
"241005","262-UM","2017/06/20 20:59:11","新北市三重區五華街213號","121.489638333333","25.085705","6500200","三重區"
"241004","265-UM","2017/06/20 20:59:20","新北市三重區仁愛街423-1號","121.490468333333","25.0814416666667","6500200","三重區"
"241016","266-UM","2017/06/20 20:59:03","新北市三重區自強路一段107號","121.495501666667","25.0664866666667","6500200","三重區"
"241018","268-UM","2017/06/20 20:59:25","新北市三重區自強路一段155-1號","121.493516666667","25.0671316666667","6500200","三重區"
"241032","269-UM","2017/06/20 20:59:19","新北市三重區三陽路112號","121.483053333333","25.058795","6500200","三重區"
"241013","270-UM","2017/06/20 20:59:09","新北市三重區仁愛街129巷2號","121.495656666667","25.0750016666667","6500200","三重區"
"241025","271-UM","2017/06/20 20:59:10","新北市三重區貴陽街14號","121.484186666667","25.0618316666667","6500200","三重區"
"241007","398-BY","2017/06/20 20:59:12","新北市三重區慈愛街6號","121.484353333333","25.0783783333333","6500200","三重區"
"241020","413-TH","2017/06/20 20:59:07","新北市三重區忠孝路二段35號","121.485926666667","25.0710666666667","6500200","三重區"
"241019","478-VK","2017/06/20 20:59:15","新北市三重區自強路二段74巷21號","121.488021666667","25.0698516666667","6500200","三重區"
"241030","480-VK","2017/06/20 20:59:08","新北市三重區中正南路293號","121.492678333333","25.05195","6500200","三重區"
"241014","543-UM","2017/06/20 20:59:25","新北市三重區長榮路75號","121.502603333333","25.0690583333333","6500200","三重區"
"241023","545-UM","2017/06/20 20:59:08","新北市三重區忠孝路三段50巷41弄70號","121.482201666667","25.0637033333333","6500200","三重區"
"241001","547-UM","2017/06/20 20:59:21","新北市三重區自強路三段87巷18號","121.488361666667","25.0750933333333","6500200","三重區"
"241006","AAD-863","2017/06/20 20:59:13","新北市三重區永福街46-2號","121.481943333333","25.0781716666667","6500200","三重區"
"241012","887-TS","2017/06/20 20:59:11","新北市三重區仁信街6號","121.50132","25.075505","6500200","三重區"
"241029","942-UM","2017/06/20 20:59:09","新北市三重區電信街106-3號","121.495028333333","25.0581533333333","6500200","三重區"
"241033","AAC-255","2017/06/20 20:59:09","新北市三重區光復路二段1號","121.472283333333","25.0533316666667","6500200","三重區"
"235072","301-VK","2017/06/20 20:59:20","新北市中和區員山路36巷12號","121.483998333333","24.9909316666667","6500300","中和區"
"235069","4980-A6","2017/06/20 20:59:15","新北市中和區中正路637巷52弄1號","121.485488333333","24.9938666666667","6500300","中和區"
"235026","911-UM","2017/06/20 20:33:23","新北市中和區員山路36巷16-3號","121.48506","24.9912966666667","6500300","中和區"
"247020","893-R6","2017/06/20 20:59:19","新北市蘆洲區民族路484號","121.470988333333","25.0913016666667","6501400","蘆洲區"
"247010","546-UM","2017/06/20 20:59:12","新北市蘆洲區鷺江街76號","121.477048333333","25.083835","6501400","蘆洲區"
"247018","500-BY","2017/06/20 20:59:09","新北市蘆洲區民權路136-2號","121.473103333333","25.0888483333333","6501400","蘆洲區"
"247006","341-TH","2017/06/20 20:59:17","新北市蘆洲區永安南路二段16巷16號","121.467975","25.0777316666667","6501400","蘆洲區"
"247008","339-TH","2017/06/20 20:59:09","新北市蘆洲區民生街76號","121.47275","25.0791783333333","6501400","蘆洲區"
"247024","337-TH","2017/06/20 20:59:23","新北市蘆洲區光明路20號","121.461153333333","25.0864316666667","6501400","蘆洲區"
"247002","336-TH","2017/06/20 20:59:14","新北市蘆洲區長安街315號","121.45745","25.0859916666667","6501400","蘆洲區"
"247014","057-VK","2017/06/20 20:59:14","新北市蘆洲區得勝街22號","121.47388","25.0839083333333","6501400","蘆洲區"
"247004","056-VK","2017/06/20 20:59:25","新北市蘆洲區永安南路二段268號","121.45862","25.0807216666667","6501400","蘆洲區"
"247012","007-UY","2017/06/20 20:59:11","新北市蘆洲區民權路8-1號","121.476706666667","25.0857716666667","6501400","蘆洲區"
"247022","002-UY","2017/06/20 20:59:06","新北市蘆洲區中正路263巷2號","121.467363333333","25.0874416666667","6501400","蘆洲區"
"247016","001-UY","2017/06/20 20:59:03","新北市蘆洲區正和街67號","121.468625","25.0809833333333","6501400","蘆洲區"
"223008","406-TH","2017/06/20 09:56:18","新北市石碇區小粗坑(潭邊里)9-2號","121.678801666667","24.9856433333333","6501900","石碇區"
"224011","420-VK","2017/06/20 20:22:25","新北市瑞芳區明燈路二段66號","121.80939","25.10757","6501200","瑞芳區"
"251005","010-UM","2017/06/20 20:59:12","新北市淡水區學府路71號","121.448315","25.1698633333333","6501000","淡水區"
"251002","012-UM","2017/06/20 20:59:07","新北市淡水區英專路86號","121.445801666667","25.171505","6501000","淡水區"
"251014","180-VK","2017/06/20 20:59:10","新北市淡水區淡金路五段72號","121.454986666667","25.233545","6501000","淡水區"
"251010","413-VK","2017/06/20 20:59:19","新北市淡水區中正路一段116-3號","121.423918333333","25.178735","6501000","淡水區"
"251012","441-VK","2017/06/20 20:59:19","新北市淡水區淡金路五段116-1號","121.456518333333","25.23694","6501000","淡水區"
"251016","442-VK","2017/06/20 20:59:14","新北市淡水區興仁路147號","121.451605","25.219035","6501000","淡水區"
"251001","559-UM","2017/06/20 20:59:21","新北市淡水區新市一路三段2號","121.444908333333","25.1829633333333","6501000","淡水區"
"251009","575-R6","2017/06/20 20:59:03","新北市淡水區民族路112巷72號","121.461633333333","25.1338533333333","6501000","淡水區"
"251007","577-R6","2017/06/20 20:59:10","新北市淡水區仁愛街2巷11號","121.446173333333","25.1706283333333","6501000","淡水區"
"251011","650-BX","2017/06/20 20:59:19","新北市淡水區新民街322巷2號","121.435341666667","25.1835883333333","6501000","淡水區"
"251003","766-UM","2017/06/20 20:59:10","新北市淡水區新春街146-8號","121.442403333333","25.1813733333333","6501000","淡水區"
"252001","292-VK","2017/06/20 20:59:09","新北市三芝區淡金路二段76-2號","121.504001666667","25.2611116666667","6502100","三芝區"
"237001","361-BY","2017/06/20 14:49:14","新北市三峽區中山路459巷163-1號","121.349318333333","24.93344","6500900","三峽區"
"237001","682-BX","2017/06/20 20:33:06","新北市三峽區中山路459巷163-3號","121.348786666667","24.93331","6500900","三峽區"
"242029","986-R7","2017/06/20 20:59:09","新北市新莊區瓊林路50-1號","121.446181666667","25.0286216666667","6500500","新莊區"
"242048","751-BX","2017/06/20 20:59:15","新北市板橋區大觀路三段36巷134號","121.435326666667","24.9994016666667","6500500","新莊區"
"242037","566-BX","2017/06/20 20:59:17","新北市新莊區中正路449號","121.443106666667","25.034095","6500500","新莊區"
"238023","601-UM","2017/06/20 20:20:41","新北市樹林區中山路三段210-2號","121.380615","24.9667783333333","6500700","樹林區"
"221010","276-VK","2017/06/20 13:25:46","新北市汐止區汐萬路一段256巷3號","121.65346","25.0746233333333","6501100","汐止區"
"221038","297-VK","2017/06/20 20:59:11","新北市汐止區汐萬路一段256巷3號","121.653421666667","25.0746966666667","6501100","汐止區"
"221029","298-VK","2017/06/20 20:59:17","新北市汐止區康寧街901號","121.651556666667","25.07491","6501100","汐止區"
"221025","567-BX","2017/06/20 14:43:41","新北市汐止區汐萬路一段256巷3號","121.652596666667","25.0743733333333","6501100","汐止區"
"221035","622-UM","2017/06/20 20:59:10","新北市汐止區汐萬路一段256巷1號","121.652023333333","25.0748583333333","6501100","汐止區"
"220081","287-VK","2017/06/20 20:59:06","新北市樹林區八德街491-8號","121.403046666667","24.9693216666667","6500100","板橋區"
"220070","AAC-253","2017/06/20 20:59:21","新北市樹林區八德街1168號","121.39039","24.9683483333333","6500100","板橋區"
