"lineid","car","time","location","longitude","latitude","cityid","cityname"
"244024","837-TS","2017/06/20 20:15:17","新北市林口區粉寮路二段160巷28號","121.405215","25.0907583333333","6501700","林口區"
"222002","659-BX","2017/06/20 21:09:11","新北市深坑區深南路88巷1號","121.621246666667","25.0117333333333","6501800","深坑區"
"231040","001-UM","2017/06/20 21:09:15","新北市新店區北新路一段351號","121.541833333333","24.9694033333333","6500600","新店區"
"231059","046-UY","2017/06/20 21:09:06","新北市新店區僑義路33號","121.500543333333","24.95041","6500600","新店區"
"231061","047-UY","2017/06/20 21:09:16","新北市新店區安和路三段50號","121.5181","24.982475","6500600","新店區"
"231060","106-UY","2017/06/20 21:09:18","新北市新店區安康路三段2-1號","121.493395","24.9534","6500600","新店區"
"231051","107-UY","2017/06/20 21:09:02","新北市新店區中正路663巷7弄13號","121.53281","24.9899933333333","6500600","新店區"
"231048","108-UY","2017/06/20 21:09:19","新北市新店區北新路三段2號","121.542576666667","24.9788983333333","6500600","新店區"
"231069","189-VK","2017/06/20 12:03:24","新北市新店區安華路28-1號","121.519668333333","24.96113","6500600","新店區"
"231063","268-BY","2017/06/20 21:09:05","新北市新店區玫瑰路58巷1號","121.495378333333","24.9465433333333","6500600","新店區"
"231050","AAD-862","2017/06/20 21:09:16","新北市新店區三民路20巷2號","121.537545","24.9706616666667","6500600","新店區"
"231067","4772-VM","2017/06/20 21:09:10","新北市新店區安德街148巷5號","121.508026666667","24.959915","6500600","新店區"
"231065","512-UM","2017/06/20 21:09:12","新北市新店區安祥路69巷52弄2號","121.482003333333","24.9599183333333","6500600","新店區"
"231054","513-UM","2017/06/20 21:09:10","新北市新店區中興路一段285號","121.545288333333","24.9686033333333","6500600","新店區"
"231042","616-UM","2017/06/20 21:09:13","新北市新店區寶興路60巷6號","121.54972","24.9717533333333","6500600","新店區"
"231066","AKT-0513","2017/06/20 21:09:03","新北市新店區安康路二段320巷15弄18號","121.50233","24.9590666666667","6500600","新店區"
"241011","013-R5","2017/06/20 21:09:18","新北市三重區龍濱路172號","121.501406666667","25.0727483333333","6500200","三重區"
"241028","022-UY","2017/06/20 21:09:12","新北市三重區正義南路60-1號","121.49831","25.0605666666667","6500200","三重區"
"241008","059-VK","2017/06/20 21:09:18","新北市三重區自強路一段34號","121.498001666667","25.0672466666667","6500200","三重區"
"241009","060-VK","2017/06/20 21:09:09","新北市三重區忠孝路二段126號","121.482938333333","25.0687833333333","6500200","三重區"
"241031","061-VK","2017/06/20 21:09:13","新北市三重區重新路五段426號","121.475273333333","25.0474516666667","6500200","三重區"
"241015","062-VK","2017/06/20 21:09:10","新北市三重區福德北路34號","121.502166666667","25.0651366666667","6500200","三重區"
"241017","063-VK","2017/06/20 21:09:18","新北市三重區大同北路132巷8號","121.492375","25.0646716666667","6500200","三重區"
"241024","065-VK","2017/06/20 21:09:09","新北市三重區國道路一段58巷15號","121.481456666667","25.072055","6500200","三重區"
"241026","066-VK","2017/06/20 21:09:20","新北市三重區文化南路42號","121.50032","25.0602166666667","6500200","三重區"
"241002","090-VK","2017/06/20 21:09:20","新北市三重區五華街14號","121.494901666667","25.0802816666667","6500200","三重區"
"241003","091-VK","2017/06/20 21:09:04","新北市三重區進安街198號","121.493908333333","25.0859783333333","6500200","三重區"
"241005","262-UM","2017/06/20 21:09:11","新北市三重區三信路182號","121.488075","25.0861","6500200","三重區"
"241004","265-UM","2017/06/20 21:09:21","新北市三重區仁愛街416號","121.490533333333","25.0812933333333","6500200","三重區"
"241016","266-UM","2017/06/20 21:09:03","新北市三重區信義西街138號","121.495643333333","25.0642983333333","6500200","三重區"
"241018","268-UM","2017/06/20 21:09:05","新北市三重區正義北路332-1號","121.49436","25.0706233333333","6500200","三重區"
"241032","269-UM","2017/06/20 21:09:19","新北市三重區頂崁街99號","121.476515","25.0615916666667","6500200","三重區"
"241013","270-UM","2017/06/20 21:09:09","新北市三重區仁愛街129巷2號","121.49567","25.0749916666667","6500200","三重區"
"241025","271-UM","2017/06/20 21:09:10","新北市三重區忠孝路三段40巷6弄11號","121.482215","25.06691","6500200","三重區"
"241007","398-BY","2017/06/20 21:09:12","新北市三重區三和路四段145巷85號","121.486411666667","25.07872","6500200","三重區"
"241020","413-TH","2017/06/20 21:09:07","新北市三重區忠孝路二段34號","121.485941666667","25.0710233333333","6500200","三重區"
"241019","478-VK","2017/06/20 21:09:15","新北市三重區三張街104號","121.487871666667","25.0699183333333","6500200","三重區"
"241030","480-VK","2017/06/20 21:09:08","新北市三重區五谷王北街20巷15弄1號","121.475083333333","25.0484866666667","6500200","三重區"
"241014","543-UM","2017/06/20 21:09:05","新北市三重區龍濱路21號","121.502986666667","25.0678933333333","6500200","三重區"
"241023","545-UM","2017/06/20 21:09:08","新北市三重區忠孝路三段50巷41弄70號","121.482173333333","25.06374","6500200","三重區"
"241001","547-UM","2017/06/20 21:09:21","新北市三重區福隆路44號","121.492365","25.0783883333333","6500200","三重區"
"241006","AAD-863","2017/06/20 21:09:13","新北市三重區重陽路三段5巷3-1號","121.49064","25.06533","6500200","三重區"
"241012","887-TS","2017/06/20 21:09:11","新北市三重區仁信街6號","121.501341666667","25.0755016666667","6500200","三重區"
"241029","942-UM","2017/06/20 21:09:09","新北市三重區正義南路107號","121.498225","25.0585466666667","6500200","三重區"
"241033","AAC-255","2017/06/20 21:09:14","新北市三重區重光街8號","121.466328333333","25.0623933333333","6500200","三重區"
"235072","301-VK","2017/06/20 21:09:20","新北市中和區員山路36巷12號","121.483966666667","24.990955","6500300","中和區"
"235026","911-UM","2017/06/20 20:33:23","新北市中和區員山路36巷16-3號","121.48506","24.9912966666667","6500300","中和區"
"247020","893-R6","2017/06/20 21:09:19","新北市蘆洲區民族路426巷19號","121.47292","25.092955","6501400","蘆洲區"
"247010","546-UM","2017/06/20 21:09:12","新北市蘆洲區鷺江街48號","121.477241666667","25.0831683333333","6501400","蘆洲區"
"247018","500-BY","2017/06/20 21:09:09","新北市蘆洲區民族路408巷10號","121.474806666667","25.09189","6501400","蘆洲區"
"247006","341-TH","2017/06/20 21:09:17","新北市蘆洲區永安南路二段16巷15號","121.467915","25.0777483333333","6501400","蘆洲區"
"247008","339-TH","2017/06/20 21:09:09","新北市蘆洲區和平路11號","121.472816666667","25.0792083333333","6501400","蘆洲區"
"247024","337-TH","2017/06/20 21:09:02","新北市蘆洲區長興路50巷1號","121.463706666667","25.0838333333333","6501400","蘆洲區"
"247002","336-TH","2017/06/20 21:09:14","新北市蘆洲區永平街20號","121.459143333333","25.0906316666667","6501400","蘆洲區"
"247014","057-VK","2017/06/20 21:09:14","新北市蘆洲區復興路46號","121.472643333333","25.085045","6501400","蘆洲區"
"247004","056-VK","2017/06/20 21:09:05","新北市蘆洲區永安南路二段320號","121.457078333333","25.08267","6501400","蘆洲區"
"247012","007-UY","2017/06/20 21:09:11","新北市蘆洲區民族路42號","121.476738333333","25.084395","6501400","蘆洲區"
"247022","002-UY","2017/06/20 21:09:06","新北市蘆洲區中正路263巷2號","121.46733","25.0874366666667","6501400","蘆洲區"
"247016","001-UY","2017/06/20 21:09:03","新北市蘆洲區和平路138號","121.466823333333","25.0807583333333","6501400","蘆洲區"
"223008","406-TH","2017/06/20 09:56:18","新北市石碇區小粗坑(潭邊里)9-2號","121.678801666667","24.9856433333333","6501900","石碇區"
"224011","420-VK","2017/06/20 20:22:25","新北市瑞芳區明燈路二段66號","121.80939","25.10757","6501200","瑞芳區"
"251004","009-UM","2017/06/20 21:09:10","新北市淡水區中正東路二段88巷37-21號","121.459495","25.1440933333333","6501000","淡水區"
"251005","010-UM","2017/06/20 21:09:12","新北市淡水區博愛街47-1號","121.446705","25.1690216666667","6501000","淡水區"
"251002","012-UM","2017/06/20 21:09:07","新北市淡水區水源街一段154號","121.448568333333","25.1714866666667","6501000","淡水區"
"251014","180-VK","2017/06/20 21:09:10","新北市淡水區溪口2號","121.44902","25.2376883333333","6501000","淡水區"
"251010","413-VK","2017/06/20 21:09:19","新北市淡水區中正路一段63巷7弄2號","121.422883333333","25.1772966666667","6501000","淡水區"
"251012","441-VK","2017/06/20 21:09:19","新北市淡水區淡金路五段172號","121.457095","25.239965","6501000","淡水區"
"251016","442-VK","2017/06/20 21:09:14","新北市淡水區牛埔子7-7號","121.44821","25.2183466666667","6501000","淡水區"
"251001","559-UM","2017/06/20 21:09:21","新北市淡水區濱海路一段53號","121.443708333333","25.1891666666667","6501000","淡水區"
"251009","575-R6","2017/06/20 21:09:03","新北市淡水區民族路112巷40號","121.462035","25.13437","6501000","淡水區"
"251007","577-R6","2017/06/20 21:09:08","新北市淡水區學府路104號","121.449891666667","25.1718633333333","6501000","淡水區"
"251011","650-BX","2017/06/20 21:09:19","新北市淡水區新民街120巷45弄40號","121.437466666667","25.17977","6501000","淡水區"
"251003","766-UM","2017/06/20 21:09:08","新北市淡水區新春街95-3號","121.439605","25.1826","6501000","淡水區"
"237001","361-BY","2017/06/20 14:49:14","新北市三峽區中山路459巷163-1號","121.349318333333","24.93344","6500900","三峽區"
"237001","682-BX","2017/06/20 20:33:06","新北市三峽區中山路459巷163-3號","121.348786666667","24.93331","6500900","三峽區"
"242029","986-R7","2017/06/20 21:09:09","新北市板橋區金門街215巷91弄7號","121.434741666667","24.9885166666667","6500500","新莊區"
"242048","751-BX","2017/06/20 21:09:15","新北市樹林區八德街802號","121.395151666667","24.9688133333333","6500500","新莊區"
"238023","601-UM","2017/06/20 20:20:41","新北市樹林區中山路三段210-2號","121.380615","24.9667783333333","6500700","樹林區"
"221010","276-VK","2017/06/20 13:25:46","新北市汐止區汐萬路一段256巷3號","121.65346","25.0746233333333","6501100","汐止區"
"221038","297-VK","2017/06/20 21:09:11","新北市汐止區汐萬路一段256巷3號","121.652136666667","25.07485","6501100","汐止區"
"221025","567-BX","2017/06/20 14:43:41","新北市汐止區汐萬路一段256巷3號","121.652596666667","25.0743733333333","6501100","汐止區"
"220081","287-VK","2017/06/20 21:09:06","新北市樹林區中山路三段210-2號","121.38123","24.9656916666667","6500100","板橋區"
"220070","AAC-253","2017/06/20 21:09:01","新北市板橋區溪城路90-2號","121.430171666667","24.9795233333333","6500100","板橋區"
