"lineid","car","time","location","longitude","latitude","cityid","cityname"
"232005","290-BY","2017/07/31 09:19:35","新北市坪林區鶯子瀨9-8號","121.708825","24.916175","6502000","坪林區"
"232017","758-BX","2017/07/31 08:14:18","新北市坪林區柑腳坑15號","121.77326","24.947435","6502000","坪林區"
"244012","069-UM","2017/07/31 09:19:37","新北市林口區文化一路二段92號","121.381623333333","25.07873","6501700","林口區"
"244006","080-UY","2017/07/31 09:19:25","新北市林口區後湖25號","121.387525","25.0992083333333","6501700","林口區"
"244018","742-UY","2017/07/31 09:19:20","新北市林口區忠孝路577號","121.375108333333","25.0682","6501700","林口區"
"244008","410-SL","2017/07/31 09:19:25","新北市林口區竹林路278巷6號","121.390516666667","25.08153","6501700","林口區"
"244022","483-VK","2017/07/31 09:19:27","新北市林口區四維路156-2號","121.381085","25.075645","6501700","林口區"
"244024","656-BX","2017/07/31 09:19:20","新北市林口區中山路278號","121.382353333333","25.0811633333333","6501700","林口區"
"244010","701-TV","2017/07/31 09:19:25","新北市林口區中興街3-1號","121.388968333333","25.0775433333333","6501700","林口區"
"222005","289-BY","2017/07/31 08:49:10","新北市深坑區土庫尖路75-1號","121.631276666667","25.0182183333333","6501800","深坑區"
"231007","189-VK","2017/07/31 09:19:29","新北市新店區新潭路三段215巷25號","121.508128333333","24.90407","6500600","新店區"
"231008","192-VK","2017/07/31 09:19:34","新北市新店區廣興路66巷6號","121.538883333333","24.9137216666667","6500600","新店區"
"247001","402-BY","2017/07/31 09:19:24","新北市蘆洲區民族路422巷114弄55號","121.471963333333","25.0951466666667","6501400","蘆洲區"
"226005","5620-A6","2017/07/31 09:19:25","新北市平溪區望古里灰3號","121.757833333333","25.0300983333333","6502400","平溪區"
"226001","7418-A5","2017/07/31 09:19:36","新北市平溪區石底里公園街18-3號","121.733263333333","25.02583","6502400","平溪區"
"223002","198-BX","2017/07/31 09:19:39","新北市深坑區昇高坑路50號","121.62863","24.9979666666667","6501900","石碇區"
"223003","205-TH","2017/07/31 09:18:06","新北市石碇區北宜路六段水底寮巷3號","121.654156666667","24.9455416666667","6501900","石碇區"
"223008","406-TH","2017/07/31 09:19:18","新北市石碇區碇南路二段松柏崎巷7號","121.673956666667","25.0189683333333","6501900","石碇區"
"223001","437-BY","2017/07/31 09:19:27","新北市石碇區北宜路五段十股寮巷12號","121.643506666667","24.9528416666667","6501900","石碇區"
"223004","660-BX","2017/07/31 09:19:21","新北市石碇區石碇東街12號","121.66181","24.9907466666667","6501900","石碇區"
"223007","661-BX","2017/07/31 09:19:19","新北市石碇區碇南路二段松柏崎巷7號","121.674105","25.0191016666667","6501900","石碇區"
"223005","677-TV","2017/07/31 09:19:17","新北市石碇區石碇東街12號","121.661581666667","24.9907433333333","6501900","石碇區"
"227005","282-VK","2017/07/31 09:05:48","新北市雙溪區泰平里料角坑9號","121.812166666667","24.974565","6502500","雙溪區"
"253003","6232-TK","2017/07/31 09:19:27","新北市石門區尖子鹿42號","121.580093333333","25.26711","6502200","石門區"
"253001","6251-TK","2017/07/31 09:19:38","新北市石門區八甲73-2號","121.530716666667","25.268255","6502200","石門區"
"253002","637-UY","2017/07/31 09:19:30","新北市石門區大溪墘3-2號","121.55153","25.2792566666667","6502200","石門區"
"253004","8270-PC","2017/07/31 09:19:36","新北市石門區小坑37-1號","121.597091666667","25.26688","6502200","石門區"
"252004","249-BX","2017/07/31 09:19:22","新北市淡水區大埤頭1號","121.492753333333","25.1946516666667","6502100","三芝區"
"236007","165-UM","2017/07/31 09:19:32","新北市土城區民安街9號","121.421096666667","24.9651066666667","6501300","土城區"
"236001","339-SR","2017/07/31 09:19:28","新北市土城區忠義路48巷1號","121.44007","24.96917","6501300","土城區"
"236005","498-BY","2017/07/31 09:19:17","新北市土城區中央路三段126巷32號","121.43444","24.9678283333333","6501300","土城區"
"242020","AAC-296","2017/07/31 09:19:37","新北市新莊區公園路12號","121.44802","25.0388433333333","6500500","新莊區"
"242028","986-R7","2017/07/31 09:19:26","新北市新莊區昌平街19號","121.454465","25.051335","6500500","新莊區"
"242047","751-BX","2017/07/31 09:19:09","新北市新莊區中正路692-8號","121.419861666667","25.0282816666667","6500500","新莊區"
"242024","615-BX","2017/07/31 09:19:23","新北市新莊區化成路990號","121.465145","25.064105","6500500","新莊區"
"242022","613-BX","2017/07/31 09:19:21","新北市新莊區復興路三段32號","121.461195","25.0444866666667","6500500","新莊區"
"242026","612-BX","2017/07/31 09:19:25","新北市新莊區思源路70號","121.45999","25.04471","6500500","新莊區"
"242035","566-BX","2017/07/31 09:19:36","新北市新莊區建安街64號","121.427071666667","25.0245416666667","6500500","新莊區"
"242003","442-UM","2017/07/31 09:19:34","新北市新莊區頭興街1-8號","121.46376","25.05354","6500500","新莊區"
"242045","441-UM","2017/07/31 09:19:24","新北市新莊區裕民街54巷27號","121.4176","25.0245933333333","6500500","新莊區"
"242049","440-UM","2017/07/31 09:19:25","新北市新莊區民安西路50號","121.427436666667","25.02071","6500500","新莊區"
"242030","415-TV","2017/07/31 09:19:28","新北市新莊區忠孝街29巷36號","121.443686666667","25.0370883333333","6500500","新莊區"
"242001","413-TV","2017/07/31 09:19:26","新北市新莊區明中街43巷29號","121.457031666667","25.03851","6500500","新莊區"
"242038","400-BY","2017/07/31 09:19:18","新北市新莊區瓊林北路13號","121.439388333333","25.0225183333333","6500500","新莊區"
"242059","362-BY","2017/07/31 09:19:20","新北市新莊區瓊林路59-38號","121.44111","25.0234133333333","6500500","新莊區"
"242057","353-BY","2017/07/31 09:19:23","新北市新莊區四維路183號","121.422225","25.0210733333333","6500500","新莊區"
"242040","132-UY","2017/07/31 09:19:35","新北市新莊區中正路700-39號","121.417446666667","25.0277233333333","6500500","新莊區"
"242033","133-UY","2017/07/31 09:19:33","新北市新莊區中正路334巷17號","121.445653333333","25.0356133333333","6500500","新莊區"
"242043","172-VK","2017/07/31 09:19:36","新北市新莊區中正路895-13號","121.412893333333","25.0211566666667","6500500","新莊區"
"242055","176-VK","2017/07/31 09:19:26","新北市新莊區新莊路751巷87號","121.442833333333","25.0307333333333","6500500","新莊區"
"242010","346-TH","2017/07/31 09:19:25","新北市新莊區中義街13號","121.451091666667","25.0511616666667","6500500","新莊區"
"242052","349-TH","2017/07/31 09:19:36","新北市新莊區西盛街323巷7號","121.428531666667","25.0147233333333","6500500","新莊區"
