"lineid","car","time","location","longitude","latitude","cityid","cityname"
"234012","149-BY","2017/07/31 12:39:20","新北市永和區保福路二段92號","121.51035","25.0135016666667","6500400","永和區"
"234078","298-R6","2017/07/31 12:39:35","新北市永和區林森路83號","121.523886666667","25.0037533333333","6500400","永和區"
"234036","336-UY","2017/07/31 12:39:22","新北市永和區福和路1號","121.526596666667","25.0102183333333","6500400","永和區"
"234062","337-UY","2017/07/31 12:39:24","新北市永和區福和路1號","121.526575","25.01017","6500400","永和區"
"234084","338-UY","2017/07/31 12:39:26","新北市中和區安平路162號","121.512665","24.9986133333333","6500400","永和區"
"234068","552-UM","2017/07/31 12:39:16","新北市永和區福和路1號","121.526315","25.0095033333333","6500400","永和區"
"234015","745-BX","2017/07/31 12:39:36","新北市永和區福和路1號","121.525961666667","25.0092","6500400","永和區"
"234028","746-BX","2017/07/31 12:39:16","新北市永和區豫溪街217巷23號","121.524376666667","25.0100416666667","6500400","永和區"
"234060","AAD-866","2017/07/31 03:42:47","新北市永和區福和路1號","121.52612","25.0096783333333","6500400","永和區"
"234040","862-TW","2017/07/31 12:39:24","新北市永和區永貞路308號","121.511931666667","25.00495","6500400","永和區"
"234048","863-TW","2017/07/31 12:39:15","新北市永和區福和路1號","121.52668","25.0102966666667","6500400","永和區"
"234025","9371-KE","2017/07/31 12:39:35","新北市永和區福和路1號","121.526411666667","25.0098116666667","6500400","永和區"
"234010","9373-KE","2017/07/31 12:39:26","新北市永和區環河東路二段36號","121.522835","25.0125383333333","6500400","永和區"
"248015","026-BX","2017/07/31 12:39:20","新北市五股區中興路二段83巷26-3號","121.460056666667","25.0753683333333","6501500","五股區"
"248005","077-UY","2017/07/31 12:39:32","新北市五股區中興路二段37巷28號","121.460208333333","25.07479","6501500","五股區"
"234022","9380-KE","2017/07/31 12:39:27","新北市永和區豫溪街191巷3弄2號","121.523506666667","25.0104616666667","6500400","永和區"
"234076","969-R7","2017/07/31 12:39:16","新北市永和區福和路1號","121.526115","25.009835","6500400","永和區"
"234072","AAC-211","2017/07/31 12:39:26","新北市永和區福和路1號","121.526486666667","25.0098833333333","6500400","永和區"
"234066","AAC-212","2017/07/31 12:39:34","新北市永和區福和路218號","121.519408333333","25.00764","6500400","永和區"
"234001","AAC-295","2017/07/31 12:39:26","新北市永和區福和路1號","121.526263333333","25.00948","6500400","永和區"
"244019","742-UY","2017/07/31 10:31:19","新北市林口區粉寮69號","121.40507","25.0908216666667","6501700","林口區"
"244025","656-BX","2017/07/31 09:37:27","新北市林口區粉寮路二段160巷28號","121.405226666667","25.0907566666667","6501700","林口區"
"231008","192-VK","2017/07/31 12:39:30","新北市新店區成功路43號","121.542753333333","24.9010233333333","6500600","新店區"
"231010","278-BY","2017/07/31 12:39:18","新北市新店區安康路一段359-27號","121.51764","24.9603933333333","6500600","新店區"
"231036","512-UM","2017/07/31 12:39:25","新北市新店區安康路一段355-3號","121.519195","24.96147","6500600","新店區"
"231001","619-UM","2017/07/31 12:39:34","新北市新店區安華路28-1號","121.519493333333","24.9611416666667","6500600","新店區"
"235028","005-UY","2017/07/31 12:39:21","新北市中和區員山路36巷16-2號","121.485246666667","24.9914433333333","6500300","中和區"
"235031","255-BX","2017/07/31 12:39:32","新北市中和區新生街42號","121.483201666667","25.00343","6500300","中和區"
"235035","783-BX","2017/07/31 12:39:31","新北市中和區員山路36巷16-3號","121.485111666667","24.99123","6500300","中和區"
"247001","402-BY","2017/07/31 11:05:40","新北市五股區中興路三段3-6號","121.449521666667","25.0788183333333","6501400","蘆洲區"
"207002","749-BX","2017/07/31 12:39:33","新北市萬里區雙興里太和路7-2號","121.65861","25.1740533333333","6502800","萬里區"
"221032","280-BY","2017/07/31 12:39:30","新北市汐止區康寧街901號","121.651341666667","25.0750316666667","6501100","汐止區"
"221002","753-BX","2017/07/31 12:39:21","新北市汐止區康寧街815巷11號","121.640768333333","25.0749116666667","6501100","汐止區"
