"lineid","car","time","location","longitude","latitude","cityid","cityname"
"234044","148-BY","2017/07/31 13:29:35","新北市永和區秀朗路二段228號","121.52626","24.999635","6500400","永和區"
"234012","149-BY","2017/07/31 13:29:20","新北市永和區中山路一段184巷10弄16號","121.509031666667","25.0096033333333","6500400","永和區"
"234005","207-UY","2017/07/31 13:29:17","新北市永和區永貞路375號","121.508271666667","25.008265","6500400","永和區"
"234078","298-R6","2017/07/31 13:29:15","新北市永和區福和路5-1號","121.524978333333","25.0087316666667","6500400","永和區"
"234036","336-UY","2017/07/31 13:29:22","新北市永和區環河東路四段20號","121.528576666667","24.9996366666667","6500400","永和區"
"234062","337-UY","2017/07/31 13:29:31","新北市永和區得和路243巷24號","121.5208","25.0010216666667","6500400","永和區"
"234084","338-UY","2017/07/31 13:29:26","新北市永和區永利路88號","121.520743333333","25.0039316666667","6500400","永和區"
"234068","552-UM","2017/07/31 13:29:36","新北市永和區永和路二段235號","121.515556666667","25.014345","6500400","永和區"
"234052","553-UM","2017/07/31 13:29:28","新北市永和區永和路二段171號","121.515348333333","25.0131516666667","6500400","永和區"
"234015","745-BX","2017/07/31 13:29:16","新北市永和區環河西路一段1號","121.515421666667","25.0180333333333","6500400","永和區"
"234028","746-BX","2017/07/31 13:29:35","新北市永和區民權路1巷38號","121.522221666667","24.998175","6500400","永和區"
"234060","AAD-866","2017/07/31 13:29:22","新北市永和區中正路445號","121.517188333333","25.0053766666667","6500400","永和區"
"234040","862-TW","2017/07/31 13:29:34","新北市永和區水源街39巷28號","121.510778333333","25.0031283333333","6500400","永和區"
"234048","863-TW","2017/07/31 13:15:36","新北市永和區保福路二段88巷20號","121.511636666667","25.01364","6500400","永和區"
"234025","9371-KE","2017/07/31 13:29:15","新北市永和區永和路一段155-3號","121.514275","25.00942","6500400","永和區"
"234010","9373-KE","2017/07/31 13:29:26","新北市永和區保福路二段44巷2弄10號","121.511651666667","25.0118633333333","6500400","永和區"
"248013","025-BX","2017/07/31 13:29:18","新北市五股區明德路9號","121.435031666667","25.0713116666667","6501500","五股區"
"248015","026-BX","2017/07/31 13:29:22","新北市五股區凌雲路一段83巷12號","121.450353333333","25.1008066666667","6501500","五股區"
"248005","077-UY","2017/07/31 13:29:32","新北市五股區四維路25號","121.467046666667","25.0706516666667","6501500","五股區"
"248007","095-VK","2017/07/31 13:29:21","新北市五股區四維路185巷42弄7號","121.463696666667","25.0768416666667","6501500","五股區"
"248011","247-BX","2017/07/31 13:27:08","新北市五股區御成路158號","121.441086666667","25.09459","6501500","五股區"
"248019","261-SL","2017/07/31 13:29:25","新北市五股區天乙路116號","121.447555","25.114345","6501500","五股區"
"248009","272-BY","2017/07/31 13:29:24","新北市五股區自強路89號","121.432595","25.071805","6501500","五股區"
"248003","677-BX","2017/07/31 13:29:16","新北市五股區民義路一段185-4號","121.431955","25.0883883333333","6501500","五股區"
"248001","678-BX","2017/07/31 13:29:25","新北市五股區西雲路160號","121.44665","25.09464","6501500","五股區"
"234022","9380-KE","2017/07/31 13:29:31","新北市永和區豫溪街57巷8弄6號","121.517593333333","25.0104066666667","6500400","永和區"
"234076","969-R7","2017/07/31 13:29:16","新北市永和區智光街27號","121.518118333333","24.9991483333333","6500400","永和區"
"234072","AAC-211","2017/07/31 13:29:26","新北市永和區光復街60巷20弄2號","121.517738333333","25.0175816666667","6500400","永和區"
"234066","AAC-212","2017/07/31 13:29:34","新北市永和區永貞路386巷1號","121.509585","25.0072333333333","6500400","永和區"
"234001","AAC-295","2017/07/31 13:29:26","新北市永和區永和路一段93號","121.51329","25.0076166666667","6500400","永和區"
"244001","248-BX","2017/07/31 13:28:32","新北市林口區寶斗厝坑39號","121.335426666667","25.1188766666667","6501700","林口區"
"244019","742-UY","2017/07/31 10:31:19","新北市林口區粉寮69號","121.40507","25.0908216666667","6501700","林口區"
"244025","656-BX","2017/07/31 09:37:27","新北市林口區粉寮路二段160巷28號","121.405226666667","25.0907566666667","6501700","林口區"
"243013","AAD-798","2017/07/31 13:29:33","新北市泰山區明志路三段206巷3號","121.42328","25.0379266666667","6501600","泰山區"
"231002","002-UM","2017/07/31 13:29:23","新北市新店區環河路29巷1號","121.53698","24.9613516666667","6500600","新店區"
"231025","0291-UT","2017/07/31 13:29:20","新北市新店區安康路一段111-1號","121.528623333333","24.961685","6500600","新店區"
"231028","046-UY","2017/07/31 13:29:30","新北市新店區安康路一段355號","121.5199","24.9637183333333","6500600","新店區"
"231030","047-UY","2017/07/31 13:29:29","新北市新店區安康路一段355-4號","121.517453333333","24.963895","6500600","新店區"
"231029","106-UY","2017/07/31 13:29:21","新北市新店區安豐路22巷20號","121.503815","24.9544833333333","6500600","新店區"
"231018","107-UY","2017/07/31 13:29:36","新北市新店區環河路111-10號","121.53067","24.9705616666667","6500600","新店區"
"231011","108-UY","2017/07/31 13:29:20","新北市新店區寶橋路6巷4號","121.543296666667","24.9735166666667","6500600","新店區"
"231019","187-VK","2017/07/31 13:29:22","新北市新店區北宜路一段107號","121.539375","24.95521","6500600","新店區"
"231008","192-VK","2017/07/31 13:29:30","新北市新店區北宜路一段316號","121.547483333333","24.95203","6500600","新店區"
"231026","256-BX","2017/07/31 13:29:34","新北市新店區秀山路68號","121.530863333333","24.9609883333333","6500600","新店區"
"231010","278-BY","2017/07/31 13:29:19","新北市新店區中央路11號","121.533363333333","24.9784866666667","6500600","新店區"
"231014","AAD-862","2017/07/31 13:29:27","新北市新店區北宜路一段156號","121.540245","24.9535516666667","6500600","新店區"
"231027","3712-VJ","2017/07/31 13:29:27","新北市新店區環河路19巷36號","121.537528333333","24.96002","6500600","新店區"
"231024","3713-VJ","2017/07/31 13:29:24","新北市新店區中正路125號","121.542031666667","24.9712866666667","6500600","新店區"
"231038","4715-K9","2017/07/31 13:29:21","新北市新店區安華路30巷1號","121.519611666667","24.9592683333333","6500600","新店區"
"231036","512-UM","2017/07/31 13:29:25","新北市新店區建業路102-1號","121.479213333333","24.9553033333333","6500600","新店區"
"231023","513-UM","2017/07/31 13:29:25","新北市新店區北宜路一段168號","121.540258333333","24.9529483333333","6500600","新店區"
"231035","515-UM","2017/07/31 13:29:21","新北市新店區安康路一段355-3號","121.519428333333","24.96177","6500600","新店區"
"231006","617-UM","2017/07/31 13:29:26","新北市新店區安康路一段267號","121.524176666667","24.9634183333333","6500600","新店區"
"231001","619-UM","2017/07/31 13:29:34","新北市新店區環河路118號","121.536753333333","24.9678316666667","6500600","新店區"
"231003","641-BX","2017/07/31 13:29:22","新北市新店區北新路一段91號","121.538863333333","24.961785","6500600","新店區"
"231034","645-TV","2017/07/31 13:29:25","新北市新店區車子路14號","121.504693333333","24.95414","6500600","新店區"
"231013","719-UM","2017/07/31 13:29:20","新北市新店區中央路22-1號","121.533343333333","24.9784966666667","6500600","新店區"
"231031","720-UM","2017/07/31 13:29:26","新北市新店區安豐路61號","121.498266666667","24.95389","6500600","新店區"
"231005","897-TW","2017/07/31 13:29:20","新北市新店區北新路一段91號","121.538928333333","24.961835","6500600","新店區"
"231004","899-TW","2017/07/31 13:29:34","新北市新店區安康路一段110巷2號","121.527198333333","24.9625833333333","6500600","新店區"
"231037","AKT-0513","2017/07/31 13:29:19","新北市新店區安豐路30-1號","121.500655","24.9569483333333","6500600","新店區"
"235030","003-UY","2017/07/31 13:29:27","新北市中和區中山路二段122號","121.50247","25.00374","6500300","中和區"
"235028","005-UY","2017/07/31 13:29:21","新北市中和區安邦街83號","121.496943333333","24.99651","6500300","中和區"
"235027","006-UY","2017/07/31 13:29:24","新北市中和區錦和路216號","121.490363333333","24.9941583333333","6500300","中和區"
"235020","096-UM","2017/07/31 13:29:25","新北市中和區中山路二段594號","121.482303333333","25.0054683333333","6500300","中和區"
"235003","097-UM","2017/07/31 13:29:23","新北市中和區景平路149號","121.513873333333","24.9923016666667","6500300","中和區"
"235029","098-UM","2017/07/31 13:29:34","新北市中和區莊敬路49巷19號","121.501473333333","25.005855","6500300","中和區"
"235004","150-BY","2017/07/31 13:29:32","新北市中和區保健路50巷68號","121.509093333333","24.9952483333333","6500300","中和區"
"235022","151-BY","2017/07/31 13:29:28","新北市中和區圓通路369巷195號","121.488886666667","24.9814033333333","6500300","中和區"
"235019","183-VK","2017/07/31 13:29:26","新北市中和區民享街287-1號","121.470136666667","24.9954566666667","6500300","中和區"
"235002","185-VK","2017/07/31 13:29:32","新北市中和區大智街106巷2號","121.524056666667","24.992525","6500300","中和區"
"235013","186-VK","2017/07/31 13:29:22","新北市中和區景安路142號","121.505003333333","24.9941066666667","6500300","中和區"
"235031","255-BX","2017/07/31 13:29:32","新北市中和區員山路148巷42號","121.482518333333","24.997095","6500300","中和區"
"235008","293-VK","2017/07/31 13:29:20","新北市中和區中正路273-1號","121.495561666667","24.9936233333333","6500300","中和區"
"235036","301-VK","2017/07/31 13:29:18","新北市中和區連城路263巷4弄8號","121.491685","24.9954783333333","6500300","中和區"
"235007","352-BY","2017/07/31 13:29:15","新北市中和區景平路323號","121.505953333333","24.9931516666667","6500300","中和區"
"235015","376-QA","2017/07/31 13:29:20","新北市中和區興南路二段142巷25弄34號","121.502448333333","24.9843066666667","6500300","中和區"
"235032","377-QA","2017/07/31 13:29:32","新北市中和區錦和路350-1號","121.490585","24.9935966666667","6500300","中和區"
"235025","378-QA","2017/07/31 13:29:23","新北市中和區民享街116巷14號","121.473885","24.9989433333333","6500300","中和區"
"235014","4979-A6","2017/07/31 13:29:32","新北市中和區景新街362巷5號","121.511938333333","24.9901033333333","6500300","中和區"
"235033","4980-A6","2017/07/31 13:29:25","新北市中和區連城路99巷13號","121.49706","24.9989816666667","6500300","中和區"
"235006","551-UM","2017/07/31 13:29:21","新北市中和區自立路56巷11號","121.522986666667","24.9917","6500300","中和區"
"235034","558-UM","2017/07/31 13:29:22","新北市中和區圓通路122號","121.498818333333","24.99594","6500300","中和區"
"235009","565-BX","2017/07/31 13:29:31","新北市中和區景安路200巷8號","121.50328","24.9918916666667","6500300","中和區"
"235018","640-BX","2017/07/31 13:29:22","新北市中和區民享街119巷1號","121.47454","24.9988733333333","6500300","中和區"
"235024","647-TV","2017/07/31 13:29:34","新北市中和區員山路168號","121.48129","24.9998283333333","6500300","中和區"
"235011","732-UM","2017/07/31 13:29:19","新北市中和區南山路300號","121.507853333333","24.9871966666667","6500300","中和區"
"235010","733-UM","2017/07/31 13:29:31","新北市中和區錦和路350-1號","121.490406666667","24.99358","6500300","中和區"
"235035","783-BX","2017/07/31 13:29:31","新北市中和區環中路138號","121.482068333333","25.0131083333333","6500300","中和區"
"235026","800-TS","2017/07/31 13:29:28","新北市中和區中山路二段312巷33弄22號","121.49495","25.0043783333333","6500300","中和區"
"235021","801-TS","2017/07/31 13:29:21","新北市中和區民享街97巷19號","121.475375","24.9995916666667","6500300","中和區"
"235005","802-TS","2017/07/31 13:29:08","新北市中和區中和路324巷3弄3號","121.510038333333","25.0009716666667","6500300","中和區"
"235016","805-TS","2017/07/31 13:29:25","新北市中和區興南路二段133號","121.505246666667","24.9842216666667","6500300","中和區"
"235012","896-TW","2017/07/31 13:29:27","新北市中和區建八路1號","121.485506666667","24.9986133333333","6500300","中和區"
"235017","900-TW","2017/07/31 13:29:34","新北市土城區金城路三段283號","121.47333","24.990855","6500300","中和區"
"235001","AAC-213","2017/07/31 13:29:34","新北市中和區景德街91號","121.516048333333","24.9913783333333","6500300","中和區"
"235023","AAC-215","2017/07/31 13:29:35","新北市中和區員山路36巷16-3號","121.485056666667","24.9913516666667","6500300","中和區"
"220016","013-TV","2017/07/31 13:29:22","新北市板橋區民生路二段22號","121.472676666667","25.0165733333333","6500100","板橋區"
"220013","072-UY","2017/07/31 13:29:22","新北市板橋區中山路二段89巷5弄12號","121.47269","25.0166816666667","6500100","板橋區"
"247001","402-BY","2017/07/31 13:29:22","新北市蘆洲區仁愛街37號","121.472216666667","25.09279","6501400","蘆洲區"
"247007","339-TH","2017/07/31 13:29:27","新北市五股區中興路三段2巷10號","121.448901666667","25.081285","6501400","蘆洲區"
"247015","001-UY","2017/07/31 13:29:18","新北市五股區中興路三段2巷10號","121.448871666667","25.0816033333333","6501400","蘆洲區"
"208004","AAC-292","2017/07/31 13:29:26","新北市金山區南勢湖70-2號","121.615411666667","25.2157516666667","6502700","金山區"
"207002","749-BX","2017/07/31 13:29:32","新北市萬里區崁腳里崁腳路166號","121.645066666667","25.155795","6502800","萬里區"
"207001","662-BX","2017/07/31 13:29:21","新北市萬里區龜吼里翡翠路17號","121.683041666667","25.1876016666667","6502800","萬里區"
"252005","AAC-283","2017/07/31 13:29:20","新北市三芝區圓山里八連溪頭7號","121.527078333333","25.2213933333333","6502100","三芝區"
"236005","498-BY","2017/07/31 13:29:21","新北市土城區亞洲路11巷1弄21號","121.43572","24.9719366666667","6501300","土城區"
"221032","280-BY","2017/07/31 13:29:30","新北市汐止區水源路一段56號","121.657433333333","25.0655566666667","6501100","汐止區"
"221002","753-BX","2017/07/31 13:29:21","新北市汐止區福德一路392巷15-6號","121.627171666667","25.0614283333333","6501100","汐止區"
"220027","145-BY","2017/07/31 13:29:17","新北市板橋區板城路433號","121.446543333333","24.9962283333333","6500100","板橋區"
"220004","276-BY","2017/07/31 13:29:16","新北市板橋區中山路一段156號","121.465205","25.0114333333333","6500100","板橋區"
"220043","283-UM","2017/07/31 13:29:23","新北市板橋區民生路二段161巷1號","121.470143333333","25.0201833333333","6500100","板橋區"
"220001","285-VK","2017/07/31 02:38:11","新北市板橋區民生路二段16號","121.473165","25.0166166666667","6500100","板橋區"
"220029","287-VK","2017/07/31 13:29:16","新北市板橋區華東街1-10號","121.44824","24.9951066666667","6500100","板橋區"
"220009","295-UM","2017/07/31 13:29:16","新北市板橋區民生路二段56-1號","121.472291666667","25.0169816666667","6500100","板橋區"
"220032","296-UM","2017/07/31 13:29:19","新北市板橋區華東街1-9號","121.448155","24.9949266666667","6500100","板橋區"
"220023","297-UM","2017/07/31 13:29:25","新北市板橋區華東街1-9號","121.448181666667","24.994945","6500100","板橋區"
"220012","486-VK","2017/07/31 02:34:00","新北市板橋區民生路二段16號","121.472958333333","25.0165533333333","6500100","板橋區"
"220104","560-BX","2017/07/31 13:29:24","新北市板橋區中正路1巷18-1號","121.455195","25.0116183333333","6500100","板橋區"
"220011","609-BX","2017/07/31 13:29:23","新北市板橋區民生路二段36-1號","121.472586666667","25.0166133333333","6500100","板橋區"
"220005","686-BX","2017/07/31 13:29:19","新北市板橋區民生路二段36-1號","121.472548333333","25.01668","6500100","板橋區"
"220025","687-BX","2017/07/31 13:29:24","新北市板橋區四川路二段橋頭1巷1號","121.446893333333","24.9940533333333","6500100","板橋區"
"220002","741-BX","2017/07/31 13:29:29","新北市板橋區民生路二段22號","121.472745","25.0166383333333","6500100","板橋區"
"220022","895-R6","2017/07/31 13:29:23","新北市板橋區南雅南路二段1-1號","121.45471","25.003785","6500100","板橋區"
"220046","AAC-210","2017/07/31 13:29:19","新北市板橋區民生路二段120號","121.47051","25.01971","6500100","板橋區"
