"lineid","car","time","location","longitude","latitude","cityid","cityname"
"234005","207-UY","2017/07/31 14:39:17","新北市永和區中正路476號","121.517381666667","25.0034133333333","6500400","永和區"
"234036","336-UY","2017/07/31 14:39:22","新北市中和區成功路133號","121.526301666667","24.990525","6500400","永和區"
"234062","337-UY","2017/07/31 14:39:24","新北市永和區安樂路250-2號","121.51462","25.00378","6500400","永和區"
"234084","338-UY","2017/07/31 14:39:26","新北市中和區橋和路281巷1號","121.495778333333","25.0078416666667","6500400","永和區"
"234068","552-UM","2017/07/31 14:39:16","新北市永和區仁愛路306巷35弄2號","121.50204","25.0085316666667","6500400","永和區"
"234052","553-UM","2017/07/31 14:39:28","新北市永和區環河東路一段82號","121.51969","25.01643","6500400","永和區"
"234028","746-BX","2017/07/31 14:39:15","新北市五股區五工一路113號","121.45592","25.0715183333333","6500400","永和區"
"234040","862-TW","2017/07/31 14:39:24","新北市永和區永和路一段115-1號","121.513958333333","25.00809","6500400","永和區"
"234025","9371-KE","2017/07/31 14:39:35","新北市中和區中和路382號","121.510758333333","25.0022716666667","6500400","永和區"
"248013","025-BX","2017/07/31 14:39:24","新北市五股區五福路42巷37號","121.434936666667","25.0901383333333","6501500","五股區"
"248015","026-BX","2017/07/31 14:39:21","新北市五股區成泰路四段24-5號","121.45359","25.1069433333333","6501500","五股區"
"248007","095-VK","2017/07/31 14:39:25","新北市五股區四維路118巷11號","121.46904","25.0742916666667","6501500","五股區"
"248011","247-BX","2017/07/31 14:29:56","新北市五股區蓬萊路6巷39號","121.435595","25.08034","6501500","五股區"
"248009","272-BY","2017/07/31 14:39:24","新北市五股區登林路74-1號","121.431115","25.06937","6501500","五股區"
"248003","677-BX","2017/07/31 14:39:36","新北市五股區成泰路二段51-1號","121.437831666667","25.0832983333333","6501500","五股區"
"248001","678-BX","2017/07/31 14:39:24","新北市五股區成泰路三段311號","121.447776666667","25.09472","6501500","五股區"
"234066","AAC-212","2017/07/31 14:39:34","新北市中和區保平路235號","121.507783333333","25.0043383333333","6500400","永和區"
"234001","AAC-295","2017/07/31 14:39:33","新北市永和區中正路553號","121.516828333333","25.008275","6500400","永和區"
"244001","248-BX","2017/07/31 14:39:31","新北市林口區瑞平里33-1號","121.34871","25.1285133333333","6501700","林口區"
"244019","742-UY","2017/07/31 10:31:19","新北市林口區粉寮69號","121.40507","25.0908216666667","6501700","林口區"
"244025","656-BX","2017/07/31 09:37:27","新北市林口區粉寮路二段160巷28號","121.405226666667","25.0907566666667","6501700","林口區"
"243002","267-VK","2017/07/31 14:39:21","新北市泰山區明志路二段136巷18弄1-1號","121.426631666667","25.0515483333333","6501600","泰山區"
"243005","AAD-798","2017/07/31 14:39:33","新北市泰山區應化街7號","121.423871666667","25.0437183333333","6501600","泰山區"
"243001","297-R6","2017/07/31 14:39:27","新北市泰山區楓江路16巷15號","121.433908333333","25.061665","6501600","泰山區"
"243007","380-SR","2017/07/31 14:39:32","新北市泰山區民權街87號","121.428613333333","25.0496416666667","6501600","泰山區"
"243006","421-VK","2017/07/31 14:39:24","新北市泰山區仁愛路122號","121.433781666667","25.055815","6501600","泰山區"
"243003","549-UM","2017/07/31 14:39:28","新北市泰山區明志路三段196巷41號","121.42156","25.0399533333333","6501600","泰山區"
"243004","646-TV","2017/07/31 14:39:17","新北市泰山區全興路109號","121.433635","25.0566683333333","6501600","泰山區"
"243008","680-BX","2017/07/31 14:39:34","新北市泰山區貴鳳街12號","121.421826666667","25.0312166666667","6501600","泰山區"
"231002","002-UM","2017/07/31 14:39:34","新北市新店區中正路351號","121.535273333333","24.9759866666667","6500600","新店區"
"231025","0291-UT","2017/07/31 14:39:20","新北市新店區民族路161號","121.53765","24.976785","6500600","新店區"
"231028","046-UY","2017/07/31 14:39:30","新北市新店區安德街55號","121.510846666667","24.96215","6500600","新店區"
"231030","047-UY","2017/07/31 14:39:29","新北市新店區安民街172號","121.516805","24.9706983333333","6500600","新店區"
"231029","106-UY","2017/07/31 14:39:20","新北市新店區安康路三段148號","121.490493333333","24.95179","6500600","新店區"
"231018","107-UY","2017/07/31 14:39:16","新北市新店區中央五街1號","121.53014","24.9740516666667","6500600","新店區"
"231011","108-UY","2017/07/31 14:39:20","新北市新店區寶宏路16號","121.549191666667","24.9761366666667","6500600","新店區"
"231019","187-VK","2017/07/31 14:39:22","新北市新店區桂山路61巷2號","121.565433333333","24.90122","6500600","新店區"
"231014","AAD-862","2017/07/31 14:39:27","新北市新店區北宜路三段221號","121.592726666667","24.9531416666667","6500600","新店區"
"231027","3712-VJ","2017/07/31 14:39:27","新北市新店區寶橋路56號","121.54606","24.9755","6500600","新店區"
"231038","4715-K9","2017/07/31 14:39:21","新北市新店區溪洲路160號","121.530256666667","24.9646233333333","6500600","新店區"
"231036","512-UM","2017/07/31 14:39:25","新北市新店區安祥路106巷337號","121.472638333333","24.9591466666667","6500600","新店區"
"231023","513-UM","2017/07/31 14:39:25","新北市新店區檳榔路55號","121.543168333333","24.9628166666667","6500600","新店區"
"231035","515-UM","2017/07/31 14:39:24","新北市新店區安光路10-1號","121.513818333333","24.9641233333333","6500600","新店區"
"231006","617-UM","2017/07/31 14:39:26","新北市新店區北宜路二段82-13號","121.554726666667","24.9535316666667","6500600","新店區"
"231001","619-UM","2017/07/31 14:39:14","新北市新店區中正路2號","121.5458","24.96938","6500600","新店區"
"231003","641-BX","2017/07/31 14:39:22","新北市新店區中興路一段292號","121.545943333333","24.9692233333333","6500600","新店區"
"231034","645-TV","2017/07/31 14:39:25","新北市新店區黎明路52巷2號","121.50192","24.948905","6500600","新店區"
"231013","719-UM","2017/07/31 14:39:20","新北市新店區明德路11號","121.54233","24.976775","6500600","新店區"
"231031","720-UM","2017/07/31 14:39:26","新北市新店區安業街8巷1號","121.515306666667","24.977495","6500600","新店區"
"231005","897-TW","2017/07/31 14:39:20","新北市新店區北新路三段125號","121.541163333333","24.9825616666667","6500600","新店區"
"231004","899-TW","2017/07/31 14:39:14","新北市新店區中正路263-4號","121.538251666667","24.9737466666667","6500600","新店區"
"231037","AKT-0513","2017/07/31 14:39:19","新北市新店區安德街60巷35號","121.511011666667","24.9637933333333","6500600","新店區"
"235030","003-UY","2017/07/31 14:39:27","新北市中和區景新街137號","121.506098333333","24.9969883333333","6500300","中和區"
"235028","005-UY","2017/07/31 14:39:21","新北市中和區南山路127巷32弄1號","121.504158333333","24.9976733333333","6500300","中和區"
"235027","006-UY","2017/07/31 14:39:24","新北市中和區連城路249巷28弄1號","121.494655","24.9948733333333","6500300","中和區"
"235020","096-UM","2017/07/31 14:39:25","新北市中和區員山路514巷4號","121.479366666667","25.0097","6500300","中和區"
"235003","097-UM","2017/07/31 14:39:23","新北市中和區秀峰街119巷8弄9號","121.518713333333","24.9895583333333","6500300","中和區"
"235029","098-UM","2017/07/31 14:39:20","新北市中和區福祥路90巷5號","121.499546666667","25.0059016666667","6500300","中和區"
"235004","150-BY","2017/07/31 14:39:32","新北市中和區宜安路13號","121.513175","24.9955183333333","6500300","中和區"
"235022","151-BY","2017/07/31 14:39:28","新北市中和區員山路124巷13號","121.481933333333","24.9959733333333","6500300","中和區"
"235019","183-VK","2017/07/31 14:39:26","新北市中和區德光路17號","121.471083333333","25.0043716666667","6500300","中和區"
"235002","185-VK","2017/07/31 14:39:32","新北市中和區立人街3號","121.52187","24.99405","6500300","中和區"
"235013","186-VK","2017/07/31 14:39:21","新北市中和區安平路15號","121.509101666667","24.9941366666667","6500300","中和區"
"235031","255-BX","2017/07/31 14:39:31","新北市中和區新生街242巷11弄4號","121.482848333333","24.9976883333333","6500300","中和區"
"235008","293-VK","2017/07/31 14:39:20","新北市中和區捷運路157號","121.506381666667","24.9911266666667","6500300","中和區"
"235036","301-VK","2017/07/31 14:39:38","新北市中和區板南路399巷2號","121.493548333333","24.9987683333333","6500300","中和區"
"235007","352-BY","2017/07/31 14:39:35","新北市中和區景安路132巷5號","121.504906666667","24.9940783333333","6500300","中和區"
"235015","376-QA","2017/07/31 14:39:20","新北市中和區中興街121號","121.49998","24.9918816666667","6500300","中和區"
"235032","377-QA","2017/07/31 14:39:31","新北市中和區廟美街6巷2號","121.500988333333","25.0014066666667","6500300","中和區"
"235025","378-QA","2017/07/31 14:39:22","新北市中和區員山路327巷1號","121.480678333333","25.0012133333333","6500300","中和區"
"235014","4979-A6","2017/07/31 14:39:32","新北市中和區中正路169號","121.498033333333","24.9936916666667","6500300","中和區"
"235006","551-UM","2017/07/31 14:39:21","新北市中和區中和路260號","121.507936666667","24.999385","6500300","中和區"
"235034","558-UM","2017/07/31 14:15:02","新北市中和區中和路265號","121.50542","24.9997","6500300","中和區"
"235009","565-BX","2017/07/31 14:39:31","新北市中和區景新街326號","121.511763333333","24.9910916666667","6500300","中和區"
"235018","640-BX","2017/07/31 14:39:22","新北市中和區國光街112巷18弄20號","121.470528333333","25.0017733333333","6500300","中和區"
"235024","647-TV","2017/07/31 14:39:34","新北市中和區員山路314巷7弄6號","121.482176666667","25.0031733333333","6500300","中和區"
"235011","732-UM","2017/07/31 14:39:19","新北市中和區南山路421巷1弄34號","121.50714","24.9905716666667","6500300","中和區"
"235010","733-UM","2017/07/31 14:39:31","新北市中和區忠孝街82號","121.511626666667","24.98406","6500300","中和區"
"235035","783-BX","2017/07/31 14:39:31","新北市中和區連城路280號","121.484436666667","24.9962416666667","6500300","中和區"
"235026","800-TS","2017/07/31 14:39:28","新北市中和區中山路二段526巷12號","121.485815","25.0054116666667","6500300","中和區"
"235021","801-TS","2017/07/31 14:39:21","新北市中和區員山路296號","121.481311666667","25.0026166666667","6500300","中和區"
"235005","802-TS","2017/07/31 14:39:28","新北市中和區宜安路119巷10號","121.509346666667","24.9983233333333","6500300","中和區"
"235016","805-TS","2017/07/31 14:39:24","新北市中和區華新街143巷68號","121.506316666667","24.9792483333333","6500300","中和區"
"235012","896-TW","2017/07/31 14:39:26","新北市中和區景新街524號","121.514423333333","24.986625","6500300","中和區"
"235017","900-TW","2017/07/31 14:39:33","新北市中和區國光街215巷47號","121.46725","25.0004666666667","6500300","中和區"
"235001","AAC-213","2017/07/31 14:39:14","新北市中和區秀朗路三段10巷14弄76號","121.523781666667","24.9965866666667","6500300","中和區"
"235023","AAC-215","2017/07/31 14:39:35","新北市中和區圓通路256號","121.493323333333","24.9910316666667","6500300","中和區"
"220016","013-TV","2017/07/31 14:39:22","新北市板橋區中山路二段416巷50弄2號","121.483011666667","25.019715","6500100","板橋區"
"220013","072-UY","2017/07/31 14:39:22","新北市板橋區國泰街111巷15號","121.46612","25.0059666666667","6500100","板橋區"
"220034","073-UY","2017/07/31 14:39:22","新北市板橋區國光路33號","121.457193333333","25.0176266666667","6500100","板橋區"
"220105","075-UY","2017/07/31 14:39:27","新北市板橋區文化路二段464號","121.474981666667","25.0327416666667","6500100","板橋區"
"220017","AAD-861","2017/07/31 14:39:19","新北市板橋區大明街20巷29弄24號","121.457618333333","25.0033066666667","6500100","板橋區"
"247019","893-R6","2017/07/31 14:39:18","新北市蘆洲區民義街68巷70號","121.474046666667","25.089815","6501400","蘆洲區"
"247009","546-UM","2017/07/31 14:39:30","新北市蘆洲區信義路222巷57號","121.481006666667","25.085485","6501400","蘆洲區"
"247017","500-BY","2017/07/31 14:39:31","新北市蘆洲區民族路291號","121.475438333333","25.0910283333333","6501400","蘆洲區"
"247001","402-BY","2017/07/31 14:39:22","新北市蘆洲區忠孝路66號","121.471723333333","25.0852783333333","6501400","蘆洲區"
"247005","341-TH","2017/07/31 14:39:24","新北市蘆洲區中華街14號","121.463103333333","25.0814433333333","6501400","蘆洲區"
"247007","339-TH","2017/07/31 14:39:27","新北市蘆洲區民生街125號","121.472695","25.0789033333333","6501400","蘆洲區"
"247023","337-TH","2017/07/31 14:39:26","新北市蘆洲區正和街62號","121.468818333333","25.0812933333333","6501400","蘆洲區"
"247001","336-TH","2017/07/31 14:39:24","新北市蘆洲區永樂街38巷57弄7號","121.457995","25.09025","6501400","蘆洲區"
"247013","057-VK","2017/07/31 14:39:20","新北市蘆洲區中山二路92號","121.472698333333","25.0819016666667","6501400","蘆洲區"
"247003","056-VK","2017/07/31 14:39:24","新北市蘆洲區永康街30號","121.45878","25.0856033333333","6501400","蘆洲區"
"247011","007-UY","2017/07/31 14:39:24","新北市蘆洲區集賢路224巷37弄10-1號","121.480595","25.0881016666667","6501400","蘆洲區"
"247021","002-UY","2017/07/31 14:39:16","新北市蘆洲區三民路292號","121.467011666667","25.0904583333333","6501400","蘆洲區"
"247015","001-UY","2017/07/31 14:39:18","新北市蘆洲區和平路205號","121.466028333333","25.0815883333333","6501400","蘆洲區"
"208004","AAC-292","2017/07/31 14:39:25","新北市金山區重和里竹子山腳1號","121.599368333333","25.224675","6502700","金山區"
"207002","749-BX","2017/07/31 14:31:32","新北市萬里區溪底里富士坪路24-2號","121.620843333333","25.1523016666667","6502800","萬里區"
"207001","662-BX","2017/07/31 14:39:28","新北市萬里區磺潭里員潭路36號","121.644273333333","25.1952633333333","6502800","萬里區"
"252005","AAC-283","2017/07/31 14:39:32","新北市三芝區埔坪里埔頭坑164-1號","121.507893333333","25.24812","6502100","三芝區"
"236064","105-UM","2017/07/31 14:39:24","新北市土城區永豐路306號","121.472081666667","24.9776166666667","6501300","土城區"
"236040","107-UM","2017/07/31 14:39:30","新北市土城區裕民路55巷15號","121.449386666667","24.9885416666667","6501300","土城區"
"236074","166-UM","2017/07/31 14:39:35","新北市土城區中央路四段68巷13號","121.418953333333","24.9603866666667","6501300","土城區"
"236028","253-BX","2017/07/31 14:39:30","新北市土城區中華路二段106號","121.438043333333","24.9741866666667","6501300","土城區"
"236024","269-VK","2017/07/31 14:39:27","新北市土城區忠義路47號","121.440536666667","24.969335","6501300","土城區"
"236012","270-VK","2017/07/31 14:39:35","新北市土城區清水路196號","121.460233333333","24.9817983333333","6501300","土城區"
"236032","271-VK","2017/07/31 14:39:23","新北市土城區明德路一段313巷5弄1號","121.459648333333","24.9761366666667","6501300","土城區"
"236016","401-BY","2017/07/31 14:39:33","新北市土城區延吉街266號","121.465925","24.9844666666667","6501300","土城區"
"236005","498-BY","2017/07/31 14:39:21","新北市土城區城林路6巷80號","121.438606666667","24.97976","6501300","土城區"
"236056","912-UM","2017/07/31 14:39:16","新北市土城區中央路四段160號","121.417003333333","24.958275","6501300","土城區"
"236044","913-UM","2017/07/31 14:39:36","新北市土城區明德路一段6號","121.464776666667","24.985695","6501300","土城區"
"236060","915-UM","2017/07/31 14:39:22","新北市土城區延壽路23號","121.471168333333","24.99086","6501300","土城區"
"236052","AAC-216","2017/07/31 14:39:20","新北市土城區中華路一段145號","121.44405","24.986405","6501300","土城區"
"221032","280-BY","2017/07/31 14:39:30","台北市南港區研究院路三段25巷7號","121.616738333333","25.0331183333333","6501100","汐止區"
"220027","145-BY","2017/07/31 14:39:37","新北市板橋區復興街89號","121.459491666667","25.0177916666667","6500100","板橋區"
"220028","200-UY","2017/07/31 14:39:35","新北市板橋區大觀路二段37巷290號","121.45009","25.001655","6500100","板橋區"
"220030","610-BX","2017/07/31 14:39:18","新北市板橋區金門街299號","121.43011","24.9865583333333","6500100","板橋區"
"220050","245-BX","2017/07/31 14:39:21","新北市板橋區莊敬路220巷7弄8號","121.472828333333","25.021025","6500100","板橋區"
"220004","276-BY","2017/07/31 14:39:16","新北市板橋區四川路二段47巷1弄2號","121.454108333333","24.9949683333333","6500100","板橋區"
"220020","277-BY","2017/07/31 14:39:28","新北市板橋區金門街235巷8號","121.43263","24.989195","6500100","板橋區"
"220043","283-UM","2017/07/31 14:39:23","新北市板橋區宏國路54-3號","121.468838333333","25.0319316666667","6500100","板橋區"
"220019","283-VK","2017/07/31 14:39:26","新北市板橋區四川路一段325巷3弄5號","121.459473333333","25.00052","6500100","板橋區"
"220001","285-VK","2017/07/31 14:39:21","新北市板橋區中山路二段265號","121.477565","25.0175833333333","6500100","板橋區"
"220031","286-VK","2017/07/31 14:39:24","新北市板橋區龍興街65巷80號","121.441853333333","25.0021483333333","6500100","板橋區"
"220029","287-VK","2017/07/31 14:39:15","新北市板橋區大觀路一段29巷137弄1號","121.450186666667","25.0054533333333","6500100","板橋區"
"220039","288-VK","2017/07/31 14:39:23","新北市板橋區新海路431巷14號","121.457913333333","25.0269733333333","6500100","板橋區"
"220009","295-UM","2017/07/31 14:39:36","新北市板橋區板新路185號","121.469153333333","25.015935","6500100","板橋區"
"220032","296-UM","2017/07/31 14:39:19","新北市板橋區滿平二街10巷2弄16號","121.42552","24.9874666666667","6500100","板橋區"
"220023","297-UM","2017/07/31 14:39:25","新北市板橋區中正路253巷42號","121.454071666667","25.017725","6500100","板橋區"
"220010","303-R5","2017/07/31 14:39:21","新北市板橋區三民路二段77號","121.47942","25.0167816666667","6500100","板橋區"
"220041","307-R5","2017/07/31 14:39:32","新北市板橋區文化路一段383號","121.467083333333","25.0218233333333","6500100","板橋區"
"220047","317-R6","2017/07/31 14:39:24","新北市板橋區裕民街111巷6號","121.45976","25.0273583333333","6500100","板橋區"
"220012","486-VK","2017/07/31 14:39:27","新北市板橋區民族路25號","121.461938333333","25.0096583333333","6500100","板橋區"
"220038","487-VK","2017/07/31 14:39:35","新北市板橋區英士路11-1號","121.461995","25.0252333333333","6500100","板橋區"
"220037","491-VK","2017/07/31 14:39:29","新北市板橋區雙十路二段4-7號","121.477018333333","25.0258966666667","6500100","板橋區"
"220104","560-BX","2017/07/31 14:39:24","新北市板橋區金華街149號","121.459826666667","25.0209283333333","6500100","板橋區"
"220052","561-BX","2017/07/31 14:39:36","新北市板橋區陽明街23巷8弄3號","121.465898333333","25.0204516666667","6500100","板橋區"
"220011","609-BX","2017/07/31 14:39:23","新北市板橋區三民路二段119號","121.4792","25.0156983333333","6500100","板橋區"
"220040","637-BX","2017/07/31 14:39:30","新北市板橋區懷德街201巷1號","121.480781666667","25.02928","6500100","板橋區"
"220005","686-BX","2017/07/31 14:39:32","新北市板橋區和平路34號","121.46047","24.99458","6500100","板橋區"
"220025","687-BX","2017/07/31 14:39:29","新北市板橋區僑中二街92巷2號","121.446271666667","25.0089633333333","6500100","板橋區"
"220042","689-BX","2017/07/31 14:39:32","新北市板橋區長江路一段9號","121.45791","25.0288266666667","6500100","板橋區"
"220002","741-BX","2017/07/31 14:39:29","新北市板橋區忠孝路239巷2號","121.466385","25.0031916666667","6500100","板橋區"
"220003","827-TW","2017/07/31 14:39:34","新北市板橋區國慶路149巷5號","121.461196666667","24.9969016666667","6500100","板橋區"
"220014","829-TW","2017/07/31 14:39:29","新北市板橋區長安街138巷1弄50號","121.473828333333","25.0100633333333","6500100","板橋區"
"220051","830-TW","2017/07/31 14:39:29","新北市板橋區雙十路二段70巷35號","121.47604","25.0286916666667","6500100","板橋區"
"220045","831-TW","2017/07/31 14:39:24","新北市板橋區民生路二段234巷2弄1號","121.469566666667","25.0225366666667","6500100","板橋區"
"220022","895-R6","2017/07/31 14:39:23","新北市板橋區民權路85號","121.46081","25.0118116666667","6500100","板橋區"
"220021","985-R7","2017/07/31 14:39:30","新北市板橋區瑞安街6號","121.45471","25.023315","6500100","板橋區"
"220046","AAC-210","2017/07/31 14:39:18","新北市板橋區幸福路32巷9號","121.461393333333","25.0207983333333","6500100","板橋區"
"220018","AAC-253","2017/07/31 14:39:29","新北市板橋區四川路一段14號","121.45939","25.0065916666667","6500100","板橋區"
