"lineid","car","time","location","longitude","latitude","cityid","cityname"
"249005","172-UM","2017/07/31 17:19:22","新北市八里區華富山8號","121.420561666667","25.1410266666667","6502300","八里區"
"249001","173-UM","2017/07/31 17:19:31","新北市八里區中華路二段165巷3號","121.407663333333","25.1508383333333","6502300","八里區"
"249004","303-UY","2017/07/31 17:19:21","新北市八里區文化街39號","121.423436666667","25.15985","6502300","八里區"
"249002","305-UY","2017/07/31 17:19:14","新北市八里區龍米路二段117巷12號","121.446415","25.14294","6502300","八里區"
"249003","593-UM","2017/07/31 17:19:26","新北市八里區商港路48號","121.395845","25.1454783333333","6502300","八里區"
"244013","069-UM","2017/07/31 17:19:17","新北市林口區粉寮69號","121.405066666667","25.0908466666667","6501700","林口區"
"244007","080-UY","2017/07/31 17:19:12","新北市林口區菁埔26-12號","121.376873333333","25.0958916666667","6501700","林口區"
"244019","742-UY","2017/07/31 17:19:31","新北市林口區文化一路一段223號","121.378235","25.0754366666667","6501700","林口區"
"244009","410-SL","2017/07/31 17:19:25","新北市林口區文化三路二段457號","121.381686666667","25.0907616666667","6501700","林口區"
"244023","483-VK","2017/07/31 17:19:22","新北市林口區仁愛路一段384號","121.387861666667","25.076775","6501700","林口區"
"244025","656-BX","2017/07/31 17:19:23","新北市林口區中山路256號","121.385223333333","25.0796866666667","6501700","林口區"
"244021","657-BX","2017/07/31 17:19:31","新北市林口區粉寮路二段160巷29號","121.405765","25.0914116666667","6501700","林口區"
"244011","701-TV","2017/07/31 17:19:25","新北市林口區粉寮路一段105號","121.39789","25.0802483333333","6501700","林口區"
"243016","680-BX","2017/07/31 15:50:35","新北市泰山區犁頭窠3-1號","121.422125","25.06061","6501600","泰山區"
"241011","013-R5","2017/07/31 17:19:16","新北市三重區龍濱路183號","121.502141666667","25.0707283333333","6500200","三重區"
"241028","022-UY","2017/07/31 17:19:19","新北市三重區仁化商場15號","121.49371","25.0592216666667","6500200","三重區"
"241009","060-VK","2017/07/31 17:19:16","新北市三重區碧華街73號","121.485065","25.0814283333333","6500200","三重區"
"241015","062-VK","2017/07/31 17:19:19","新北市三重區福德北路89號","121.501876666667","25.0662366666667","6500200","三重區"
"241017","063-VK","2017/07/31 17:19:32","新北市三重區大同北路44巷3號","121.49496","25.0629983333333","6500200","三重區"
"241024","065-VK","2017/07/31 17:19:20","新北市三重區中正北路193巷11弄36號","121.478383333333","25.0706933333333","6500200","三重區"
"241026","066-VK","2017/07/31 17:19:25","新北市三重區福德南路20號","121.502718333333","25.0632466666667","6500200","三重區"
"241002","090-VK","2017/07/31 17:19:30","新北市三重區自強路五段20號","121.492593333333","25.080615","6500200","三重區"
"241003","091-VK","2017/07/31 17:19:13","新北市三重區富福街48號","121.491556666667","25.0842733333333","6500200","三重區"
"241023","156-TC","2017/07/31 17:19:19","新北市三重區忠孝路三段50巷31號","121.481848333333","25.0651083333333","6500200","三重區"
"241005","262-UM","2017/07/31 17:19:15","新北市三重區永安北路二段13巷21號","121.483015","25.0815483333333","6500200","三重區"
"241020","265-UM","2017/07/31 17:19:21","新北市三重區永德街17號","121.48902","25.072575","6500200","三重區"
"241016","266-UM","2017/07/31 17:19:23","新北市三重區新北大道一段7號","121.489588333333","25.0614083333333","6500200","三重區"
"241022","267-UM","2017/07/31 17:19:16","新北市三重區重陽路二段43號","121.48718","25.0631583333333","6500200","三重區"
"241018","268-UM","2017/07/31 17:19:32","新北市三重區安慶街139號","121.494571666667","25.068885","6500200","三重區"
"241013","270-UM","2017/07/31 17:19:23","新北市三重區三和路三段107巷12號","121.494726666667","25.073065","6500200","三重區"
"241025","271-UM","2017/07/31 17:19:32","新北市三重區中正北路253號","121.475338333333","25.0707283333333","6500200","三重區"
"241007","398-BY","2017/07/31 17:19:20","新北市三重區慈愛街8號","121.484406666667","25.0784883333333","6500200","三重區"
"241008","412-TH","2017/07/31 17:19:28","新北市三重區下竹圍街9號","121.480998333333","25.0758516666667","6500200","三重區"
"241004","475-VK","2017/07/31 17:19:17","新北市三重區五華街110巷13號","121.491358333333","25.0824316666667","6500200","三重區"
"241019","478-VK","2017/07/31 17:19:30","新北市三重區忠孝路二段4-1號","121.486625","25.0713","6500200","三重區"
"241030","480-VK","2017/07/31 17:19:18","新北市三重區成功路73巷12號","121.489433333333","25.051915","6500200","三重區"
"241014","543-UM","2017/07/31 17:19:28","新北市三重區長榮路6號","121.500066666667","25.0685516666667","6500200","三重區"
"241032","887-TS","2017/07/31 17:19:13","新北市三重區中華路2巷27號","121.482358333333","25.06057","6500200","三重區"
"241012","941-UM","2017/07/31 17:19:23","新北市三重區河邊北街254號","121.501796666667","25.07629","6500200","三重區"
"241029","942-UM","2017/07/31 17:19:33","新北市三重區集美街213號","121.491651666667","25.0546983333333","6500200","三重區"
"241033","AAC-255","2017/07/31 17:19:31","新北市三重區中興北街191號","121.469063333333","25.0565","6500200","三重區"
"235067","255-BX","2017/07/31 16:28:22","新北市中和區員山路36巷13號","121.484321666667","24.991365","6500300","中和區"
"235062","800-TS","2017/07/31 17:19:14","新北市中和區員山路36巷16-3號","121.48504","24.9913766666667","6500300","中和區"
"247020","893-R6","2017/07/31 17:19:18","新北市蘆洲區民族路426號","121.473716666667","25.0919416666667","6501400","蘆洲區"
"247010","546-UM","2017/07/31 17:19:16","新北市蘆洲區中山一路120巷7弄34-2號","121.477191666667","25.0824383333333","6501400","蘆洲區"
"247018","500-BY","2017/07/31 17:19:15","新北市蘆洲區民權路96巷3弄2號","121.474573333333","25.0884666666667","6501400","蘆洲區"
"247006","341-TH","2017/07/31 17:19:20","新北市蘆洲區長安街44號","121.46343","25.079665","6501400","蘆洲區"
"247008","339-TH","2017/07/31 17:19:32","新北市蘆洲區永安北路一段72巷48號","121.476193333333","25.0769683333333","6501400","蘆洲區"
"247024","337-TH","2017/07/31 17:19:17","新北市蘆洲區長榮路262號","121.460361666667","25.0860366666667","6501400","蘆洲區"
"247002","336-TH","2017/07/31 17:19:13","新北市蘆洲區永樂街38巷37號","121.458283333333","25.0893983333333","6501400","蘆洲區"
"247014","057-VK","2017/07/31 17:19:29","新北市蘆洲區忠孝路28號","121.471146666667","25.084475","6501400","蘆洲區"
"247004","056-VK","2017/07/31 17:19:29","新北市蘆洲區中原路26號","121.460105","25.082895","6501400","蘆洲區"
"247012","007-UY","2017/07/31 17:19:22","新北市蘆洲區信義路323號","121.478123333333","25.08639","6501400","蘆洲區"
"247022","002-UY","2017/07/31 17:19:33","新北市蘆洲區三民路128巷86號","121.469888333333","25.0899483333333","6501400","蘆洲區"
"247016","001-UY","2017/07/31 17:19:28","新北市蘆洲區中正路185巷11號","121.46766","25.084955","6501400","蘆洲區"
"228003","097-TW","2017/07/31 17:19:14","新北市貢寮區福隆里東興街88-3號","121.947146666667","25.0171283333333","6502600","貢寮區"
"228002","585-TW","2017/07/31 17:19:15","新北市貢寮區雙玉里下雙溪街26號","121.923721666667","25.01","6502600","貢寮區"
"228001","670-TC","2017/07/31 17:19:21","新北市貢寮區仁理村尖山腳街18-3號","121.925475","25.0483116666667","6502600","貢寮區"
"224010","AGQ-8101","2017/07/31 09:12:59","新北市瑞芳區明燈路二段46號","121.809466666667","25.1082233333333","6501200","瑞芳區"
"224006","676-BX","2017/07/31 17:19:17","新北市瑞芳區大寮路45號","121.782115","25.0983933333333","6501200","瑞芳區"
"224009","285-BY","2017/07/31 17:19:28","新北市瑞芳區汽車路145號","121.838591666667","25.1098333333333","6501200","瑞芳區"
"224008","275-VK","2017/07/31 17:19:32","新北市瑞芳區侯硐路31號","121.826013333333","25.0835433333333","6501200","瑞芳區"
"224005","271-BY","2017/07/31 17:19:14","新北市瑞芳區鼻頭路107號","121.915995","25.1232083333333","6501200","瑞芳區"
"227001","400-TW","2017/07/31 17:19:24","新北市雙溪區上林里內平林61號","121.832148333333","25.0294683333333","6502500","雙溪區"
"251009","008-UM","2017/07/31 17:04:00","新北市淡水區中正路322-1號","121.436408333333","25.1728083333333","6501000","淡水區"
"251004","009-UM","2017/07/31 17:19:17","新北市淡水區中正東路二段88巷15號","121.459093333333","25.1504733333333","6501000","淡水區"
"251008","181-VK","2017/07/31 17:19:25","新北市淡水區大同路241號","121.466066666667","25.1422066666667","6501000","淡水區"
"251013","182-VK","2017/07/31 17:19:28","新北市淡水區破瓦厝子3-5號","121.472138333333","25.197575","6501000","淡水區"
"251010","413-VK","2017/07/31 17:19:29","新北市淡水區中正路二段30號","121.41976","25.181935","6501000","淡水區"
"251012","441-VK","2017/07/31 17:19:22","新北市淡水區中山北路一段156號","121.444196666667","25.1779566666667","6501000","淡水區"
"251015","442-VK","2017/07/31 17:19:15","新北市淡水區三空泉20號","121.46946","25.1656083333333","6501000","淡水區"
"251005","443-VK","2017/07/31 17:19:22","新北市淡水區鄧公路23巷1-5號","121.450256666667","25.16997","6501000","淡水區"
"251006","561-UM","2017/07/31 17:19:16","新北市淡水區中山路189號","121.441238333333","25.1744883333333","6501000","淡水區"
"251007","577-R6","2017/07/31 17:19:30","新北市淡水區民生路47-4號","121.462048333333","25.1380366666667","6501000","淡水區"
"251011","650-BX","2017/07/31 17:19:29","新北市淡水區坪頂路131號","121.464931666667","25.1614433333333","6501000","淡水區"
"251002","672-BX","2017/07/31 17:19:18","新北市淡水區中正路二段31號","121.419396666667","25.181575","6501000","淡水區"
"251003","766-UM","2017/07/31 17:19:23","新北市淡水區中正路一段87巷1號","121.42195","25.17916","6501000","淡水區"
"207003","550-UM","2017/07/31 17:19:27","新北市萬里區萬里里瑪鋉路340號","121.688036666667","25.1826266666667","6502800","萬里區"
"252002","178-VK","2017/07/31 17:19:24","新北市三芝區忠孝街1-14號","121.505501666667","25.2539566666667","6502100","三芝區"
"252001","292-VK","2017/07/31 17:19:28","新北市三芝區埔頭里埔頭15-7號","121.496156666667","25.2598266666667","6502100","三芝區"
"252005","AAC-283","2017/07/31 15:49:10","新北市三芝區埔坪里埔頭坑41號","121.504558333333","25.2644266666667","6502100","三芝區"
"242021","AAC-296","2017/07/31 17:19:27","新北市新莊區中平路82巷29號","121.44623","25.045045","6500500","新莊區"
"242029","986-R7","2017/07/31 17:19:12","新北市新莊區新泰路486號","121.442481666667","25.0457133333333","6500500","新莊區"
"242048","751-BX","2017/07/31 17:19:20","新北市新莊區富國路62號","121.419611666667","25.0259716666667","6500500","新莊區"
"242025","615-BX","2017/07/31 17:19:18","新北市新莊區中平路82巷29號","121.446121666667","25.0449333333333","6500500","新莊區"
"242023","613-BX","2017/07/31 17:19:18","新北市新莊區新泰路488號","121.442441666667","25.0458683333333","6500500","新莊區"
"242027","612-BX","2017/07/31 17:19:13","新北市新莊區中平路82巷29號","121.44615","25.0450733333333","6500500","新莊區"
"242036","566-BX","2017/07/31 17:19:23","新北市新莊區新樹路115號","121.437316666667","25.0266316666667","6500500","新莊區"
"242004","442-UM","2017/07/31 17:19:24","新北市新莊區中港一街147號","121.447755","25.0451283333333","6500500","新莊區"
"242046","441-UM","2017/07/31 17:19:23","新北市新莊區新樹路67巷32號","121.440321666667","25.0303066666667","6500500","新莊區"
"242050","440-UM","2017/07/31 17:19:13","新北市新莊區瓊林南路1號","121.438673333333","25.0207416666667","6500500","新莊區"
"242031","415-TV","2017/07/31 17:19:21","新北市新莊區新泰路440號","121.443275","25.044655","6500500","新莊區"
"242002","413-TV","2017/07/31 17:19:28","新北市新莊區中正路473-1號","121.442113333333","25.0331566666667","6500500","新莊區"
"242039","400-BY","2017/07/31 17:19:13","新北市新莊區中正路481號","121.441375","25.033745","6500500","新莊區"
"242060","362-BY","2017/07/31 17:19:27","新北市新莊區三和路12-21號","121.441973333333","25.0385833333333","6500500","新莊區"
"242058","353-BY","2017/07/31 17:19:16","新北市新莊區新泰路361巷23號","121.442296666667","25.043065","6500500","新莊區"
"242042","132-UY","2017/07/31 17:19:20","新北市新莊區新樹路71號","121.437655","25.02786","6500500","新莊區"
"242034","133-UY","2017/07/31 17:19:25","新北市新莊區瓊林路19號","121.4457","25.028635","6500500","新莊區"
"242019","135-UY","2017/07/31 17:19:25","新北市新莊區中港路301號","121.452868333333","25.0444266666667","6500500","新莊區"
"242044","172-VK","2017/07/31 17:19:20","新北市新莊區民安路29號","121.423475","25.027585","6500500","新莊區"
"242007","173-VK","2017/07/31 10:28:02","新北市新莊區三和路12-21號","121.442116666667","25.0387366666667","6500500","新莊區"
"242013","175-VK","2017/07/31 17:19:14","新北市新莊區新泰路357巷3弄57號","121.44235","25.0397283333333","6500500","新莊區"
"242056","176-VK","2017/07/31 17:19:22","新北市新莊區新莊路765號","121.442436666667","25.0325016666667","6500500","新莊區"
"242011","346-TH","2017/07/31 14:56:07","新北市新莊區三和路12-18號","121.441933333333","25.0376616666667","6500500","新莊區"
"242017","348-TH","2017/07/31 17:19:30","新北市新莊區中港路301號","121.45287","25.0444783333333","6500500","新莊區"
"242053","349-TH","2017/07/31 17:19:30","新北市新莊區瓊林路59-70號","121.442181666667","25.023935","6500500","新莊區"
"242015","350-TH","2017/07/31 17:19:20","新北市新莊區新泰路275號","121.445711666667","25.040395","6500500","新莊區"
"242009","351-TH","2017/07/31 17:19:33","新北市新莊區中平路441號","121.444173333333","25.0557","6500500","新莊區"
"238015","755-BX","2017/07/31 17:19:10","新北市樹林區中山路三段27號","121.401438333333","24.97547","6500700","樹林區"
"238023","601-UM","2017/07/31 17:19:13","新北市樹林區保安街一段241-1號","121.419946666667","24.9966233333333","6500700","樹林區"
"238019","599-UM","2017/07/31 17:19:24","新北市樹林區八德街251巷9號","121.422215","24.9786283333333","6500700","樹林區"
"238018","571-TV","2017/07/31 17:19:20","新北市板橋區篤行路三段98號","121.425883333333","24.9847816666667","6500700","樹林區"
"238024","5061-A6","2017/07/31 17:19:14","新北市樹林區樹新路19號","121.42702","24.9945583333333","6500700","樹林區"
"238022","312-TH","2017/07/31 17:19:21","新北市樹林區和平街51號","121.423863333333","24.982235","6500700","樹林區"
"238021","311-TH","2017/07/31 17:19:20","新北市樹林區西圳街一段165巷20弄12號","121.39523","24.960845","6500700","樹林區"
"238025","303-VK","2017/07/31 17:19:27","新北市樹林區千歲街60號","121.426056666667","24.9972916666667","6500700","樹林區"
"238017","283-BY","2017/07/31 17:19:24","新北市樹林區光武街7-3號","121.415755","25.00529","6500700","樹林區"
"238001","282-BY","2017/07/31 17:19:14","新北市樹林區大慶街99-1號","121.427675","24.99976","6500700","樹林區"
"238020","268-VK","2017/07/31 17:19:29","新北市樹林區中正路22-1號","121.427775","24.999535","6500700","樹林區"
"238026","172-UY","2017/07/31 17:19:22","新北市樹林區東大街146號","121.409885","24.976205","6500700","樹林區"
"238016","169-UY","2017/07/31 17:19:17","新北市樹林區八德街1號","121.417541666667","24.9849783333333","6500700","樹林區"
"239007","AAC-297","2017/07/31 17:19:17","新北市鶯歌區行政路3號","121.351008333333","24.9553633333333","6500800","鶯歌區"
"239006","891-R6","2017/07/31 17:19:26","新北市鶯歌區福昌街24號","121.332908333333","24.9609333333333","6500800","鶯歌區"
"239008","527-UM","2017/07/31 17:19:29","新北市鶯歌區西湖街90號","121.339661666667","24.9596066666667","6500800","鶯歌區"
"239005","526-UM","2017/07/31 17:19:33","新北市鶯歌區福德二街2號","121.330198333333","24.9676116666667","6500800","鶯歌區"
"239001","417-VK","2017/07/31 17:19:25","新北市鶯歌區尖山路234號","121.343011666667","24.946715","6500800","鶯歌區"
"239003","360-BY","2017/07/31 17:19:30","新北市鶯歌區德昌二街3巷1-1號","121.333206666667","24.959205","6500800","鶯歌區"
"239002","359-BY","2017/07/31 17:19:33","新北市鶯歌區南昌街17號","121.34951","24.9541183333333","6500800","鶯歌區"
"239004","193-VK","2017/07/31 17:19:21","新北市鶯歌區文化路324巷1-37號","121.352278333333","24.9458683333333","6500800","鶯歌區"
