"lineid","car","time","location","longitude","latitude","cityid","cityname"
"234081","298-R6","2017/07/31 18:19:16","新北市永和區福和路1號","121.526536666667","25.0099816666667","6500400","永和區"
"234042","862-TW","2017/07/31 18:19:09","新北市永和區福和路1號","121.526516666667","25.009685","6500400","永和區"
"234026","9371-KE","2017/07/31 18:19:25","新北市永和區豫溪街28巷22號","121.51499","25.0088816666667","6500400","永和區"
"234011","9373-KE","2017/07/31 18:19:14","新北市永和區保福路二段156號","121.50914","25.014985","6500400","永和區"
"249005","172-UM","2017/07/31 17:57:42","新北市八里區荖阡坑路20-9號","121.3983","25.1373066666667","6502300","八里區"
"249001","173-UM","2017/07/31 18:19:31","新北市八里區龍米路一段225號","121.45141","25.1322033333333","6502300","八里區"
"249004","303-UY","2017/07/31 18:19:21","新北市八里區龍米路二段203號","121.432936666667","25.1583666666667","6502300","八里區"
"249002","305-UY","2017/07/31 18:19:14","新北市八里區龍形五街13號","121.450113333333","25.133945","6502300","八里區"
"248014","025-BX","2017/07/31 18:19:24","新北市五股區自強路19巷11號","121.43465","25.0736733333333","6501500","五股區"
"248016","026-BX","2017/07/31 18:19:20","新北市五股區成泰路三段477巷9號","121.449826666667","25.0988633333333","6501500","五股區"
"248006","077-UY","2017/07/31 18:19:25","新北市五股區中興路一段152號","121.464465","25.07393","6501500","五股區"
"248008","095-VK","2017/07/31 18:19:30","新北市五股區更洲路32巷8弄14號","121.459256666667","25.07965","6501500","五股區"
"248012","247-BX","2017/07/31 18:16:52","新北市五股區御史路16號","121.442286666667","25.09089","6501500","五股區"
"248018","261-SL","2017/07/31 18:19:34","新北市五股區御史路150號","121.431428333333","25.102155","6501500","五股區"
"248010","272-BY","2017/07/31 18:19:29","新北市五股區成泰路一段139巷2弄2號","121.43514","25.073","6501500","五股區"
"248003","677-BX","2017/07/31 18:19:16","新北市五股區成泰路二段145號","121.439051666667","25.0854166666667","6501500","五股區"
"248002","678-BX","2017/07/31 18:19:29","新北市五股區西雲路66號","121.443645","25.0916116666667","6501500","五股區"
"232011","375-UM","2017/07/31 18:17:49","新北市坪林區坪雙路一段43號","121.711713333333","24.9424366666667","6502000","坪林區"
"244013","069-UM","2017/07/31 18:19:17","新北市林口區中山路140號","121.391648333333","25.0787066666667","6501700","林口區"
"244007","080-UY","2017/07/31 18:19:12","新北市林口區林口路206號","121.387075","25.0833883333333","6501700","林口區"
"244019","742-UY","2017/07/31 18:19:11","新北市林口區文化一路一段100巷10弄1號","121.373913333333","25.070715","6501700","林口區"
"244009","410-SL","2017/07/31 18:19:25","新北市林口區中山路270號","121.382936666667","25.0809133333333","6501700","林口區"
"244023","483-VK","2017/07/31 18:19:22","新北市林口區仁愛路二段13號","121.385836666667","25.0761416666667","6501700","林口區"
"244017","485-VK","2017/07/31 18:19:22","新北市林口區八德路20巷1號","121.368186666667","25.0671316666667","6501700","林口區"
"244025","656-BX","2017/07/31 18:19:23","新北市林口區南勢二街62號","121.355805","25.069445","6501700","林口區"
"244021","657-BX","2017/07/31 18:19:31","新北市林口區自強一街29號","121.398605","25.0780916666667","6501700","林口區"
"244011","701-TV","2017/07/31 18:19:25","新北市林口區仁愛路一段266-1號","121.394025","25.076145","6501700","林口區"
"243013","AAD-798","2017/07/31 18:17:52","新北市泰山區南林路103號","121.415253333333","25.0460816666667","6501600","泰山區"
"222003","436-BY","2017/07/31 18:19:23","新北市深坑區文山路二段3號","121.622961666667","25.000335","6501800","深坑區"
"222002","659-BX","2017/07/31 18:19:15","新北市深坑區雲鄉路28號","121.621516666667","24.99973","6501800","深坑區"
"222001","696-SL","2017/07/31 18:19:16","新北市深坑區北深路二段66號","121.618953333333","25.0042016666667","6501800","深坑區"
"231041","002-UM","2017/07/31 18:19:22","新北市新店區安華路28-1號","121.519601666667","24.9608383333333","6500600","新店區"
"231056","0291-UT","2017/07/31 18:19:16","新北市新店區中央路151號","121.529233333333","24.9721616666667","6500600","新店區"
"231059","046-UY","2017/07/31 18:19:26","新北市新店區安華路28-1號","121.519653333333","24.9607816666667","6500600","新店區"
"231061","047-UY","2017/07/31 18:19:11","新北市新店區安華路28-1號","121.519308333333","24.9609","6500600","新店區"
"231060","106-UY","2017/07/31 18:19:31","新北市新店區安華路28-1號","121.519781666667","24.9607166666667","6500600","新店區"
"231051","107-UY","2017/07/31 18:19:11","新北市新店區安華路28-1號","121.519458333333","24.961355","6500600","新店區"
"231047","108-UY","2017/07/31 18:19:13","新北市新店區安華路28-1號","121.519516666667","24.961215","6500600","新店區"
"231052","187-VK","2017/07/31 18:19:14","新北市新店區安康路一段355號","121.519826666667","24.96328","6500600","新店區"
"231057","256-BX","2017/07/31 18:19:23","新北市新店區安華路28-1號","121.51966","24.96106","6500600","新店區"
"231063","268-BY","2017/07/31 18:19:25","新北市新店區安華路28-1號","121.51944","24.9606466666667","6500600","新店區"
"231046","278-BY","2017/07/31 18:19:29","新北市新店區直潭路88-1號","121.531846666667","24.938145","6500600","新店區"
"231050","AAD-862","2017/07/31 18:19:27","新北市新店區安華路28-1號","121.519798333333","24.9612566666667","6500600","新店區"
"231058","3712-VJ","2017/07/31 18:19:29","新北市新店區環河路1-3號","121.538086666667","24.9613416666667","6500600","新店區"
"231055","3713-VJ","2017/07/31 18:19:25","新北市新店區安康路一段35號","121.531591666667","24.96081","6500600","新店區"
"231067","4772-VM","2017/07/31 18:19:19","新北市新店區安華路28-1號","121.519378333333","24.9606066666667","6500600","新店區"
"231065","512-UM","2017/07/31 18:19:33","新北市新店區安華路28-1號","121.519466666667","24.9613566666667","6500600","新店區"
"231054","513-UM","2017/07/31 18:19:20","新北市新店區安華路28-1號","121.519598333333","24.9610383333333","6500600","新店區"
"231045","617-UM","2017/07/31 18:19:26","新北市新店區安華路28-1號","121.519441666667","24.9609366666667","6500600","新店區"
"231040","619-UM","2017/07/31 18:19:22","新北市新店區安華路28-1號","121.519565","24.9608033333333","6500600","新店區"
"231042","641-BX","2017/07/31 18:19:15","新北市新店區安華路1-1號","121.519488333333","24.96049","6500600","新店區"
"231049","719-UM","2017/07/31 18:19:24","新北市新店區安華路28-1號","121.519595","24.9611883333333","6500600","新店區"
"231062","720-UM","2017/07/31 18:19:18","新北市新店區安華路28-1號","121.51935","24.96122","6500600","新店區"
"231044","897-TW","2017/07/31 18:19:18","新北市新店區安華路28-1號","121.519575","24.960835","6500600","新店區"
"231066","AKT-0513","2017/07/31 18:19:16","新北市新店區安華路28-1號","121.519708333333","24.961415","6500600","新店區"
"241033","AAC-255","2017/07/31 18:19:31","新北市三重區中興北街44號","121.46902","25.04956","6500200","三重區"
"235064","005-UY","2017/07/31 18:19:25","新北市中和區中正路133號","121.499615","24.99346","6500300","中和區"
"235063","006-UY","2017/07/31 18:19:25","新北市中和區中正路525號","121.48795","24.993715","6500300","中和區"
"235056","096-UM","2017/07/31 18:19:23","新北市中和區中正路832號","121.484648333333","25.00432","6500300","中和區"
"235039","097-UM","2017/07/31 18:19:17","新北市中和區中正路637巷52弄1號","121.485528333333","24.993565","6500300","中和區"
"235065","098-UM","2017/07/31 18:19:15","新北市中和區莊敬路49巷18號","121.501615","25.0061233333333","6500300","中和區"
"235040","150-BY","2017/07/31 18:19:17","新北市中和區圓通路141巷48弄9號","121.498595","24.9942516666667","6500300","中和區"
"235058","151-BY","2017/07/31 18:19:11","新北市中和區圓通路367巷59弄2號","121.492505","24.983505","6500300","中和區"
"235055","183-VK","2017/07/31 18:19:16","新北市中和區員山路36巷16-3號","121.485125","24.9914","6500300","中和區"
"235038","185-VK","2017/07/31 18:19:29","新北市中和區大智街57號","121.521163333333","24.992075","6500300","中和區"
"235049","186-VK","2017/07/31 18:19:13","新北市中和區中正路637巷52弄1號","121.485445","24.9933366666667","6500300","中和區"
"235067","255-BX","2017/07/31 18:19:34","新北市中和區和城路一段271巷1號","121.485548333333","24.99196","6500300","中和區"
"235072","301-VK","2017/07/31 18:19:13","新北市中和區錦和路107號","121.4902","24.99526","6500300","中和區"
"235043","352-BY","2017/07/31 18:19:14","新北市中和區南山路229巷8號","121.503925","24.99313","6500300","中和區"
"235051","376-QA","2017/07/31 18:19:20","新北市中和區興南路一段57號","121.51066","24.9900083333333","6500300","中和區"
"235061","378-QA","2017/07/31 18:19:25","新北市中和區民德路260號","121.46791","24.996885","6500300","中和區"
"235050","4979-A6","2017/07/31 18:18:35","新北市中和區捷運路61巷5號","121.508826666667","24.9894783333333","6500300","中和區"
"235069","4980-A6","2017/07/31 18:19:28","新北市中和區圓通路170號","121.497381666667","24.994795","6500300","中和區"
"235042","551-UM","2017/07/31 18:19:32","新北市中和區大仁街20巷25弄34號","121.519731666667","24.9936566666667","6500300","中和區"
"235070","558-UM","2017/07/31 18:19:32","新北市中和區錦和路350-1號","121.490518333333","24.9936133333333","6500300","中和區"
"235045","565-BX","2017/07/31 18:19:23","新北市中和區中正路173號","121.497725","24.9936183333333","6500300","中和區"
"235054","640-BX","2017/07/31 18:19:25","新北市土城區延壽路111巷1號","121.469095","24.9935616666667","6500300","中和區"
"235047","732-UM","2017/07/31 18:19:20","新北市中和區錦和路350-1號","121.490511666667","24.9935516666667","6500300","中和區"
"235046","733-UM","2017/07/31 18:19:22","新北市中和區錦和路95號","121.490033333333","24.995595","6500300","中和區"
"235062","800-TS","2017/07/31 18:19:22","新北市中和區景平路999巷1號","121.495473333333","25.0059766666667","6500300","中和區"
"235057","801-TS","2017/07/31 18:19:06","新北市中和區員山路36巷16-3號","121.485125","24.991435","6500300","中和區"
"235052","805-TS","2017/07/31 18:19:18","新北市中和區中正路19號","121.502881666667","24.9935266666667","6500300","中和區"
"235048","896-TW","2017/07/31 18:19:20","新北市中和區員山路36巷16-2號","121.48527","24.9916566666667","6500300","中和區"
"235053","900-TW","2017/07/31 18:19:20","新北市中和區員山路36巷11號","121.483911666667","24.99058","6500300","中和區"
"235037","AAC-213","2017/07/31 18:19:14","新北市中和區景平路147號","121.514018333333","24.9922016666667","6500300","中和區"
"220068","013-TV","2017/07/31 18:19:27","新北市板橋區民生路二段15-1號","121.47278","25.0163633333333","6500100","板橋區"
"247006","341-TH","2017/07/31 18:19:19","新北市林口區太平里180號","121.366835","25.1337216666667","6501400","蘆洲區"
"247014","057-VK","2017/07/31 18:19:29","新北市八里區中華路三段7巷5號","121.397348333333","25.1437566666667","6501400","蘆洲區"
"226004","312-R5","2017/07/31 18:19:22","新北市平溪區靜安路二段7巷8號","121.708451666667","25.0188616666667","6502400","平溪區"
"228003","097-TW","2017/07/31 18:19:14","新北市貢寮區真理里美艷山街61-3號","121.923125","25.06975","6502600","貢寮區"
"228002","585-TW","2017/07/31 18:19:15","新北市貢寮區福連里馬崗街1號","121.997776666667","25.0168183333333","6502600","貢寮區"
"228001","670-TC","2017/07/31 18:19:21","新北市貢寮區真理里新港街26巷55弄2-1號","121.927351666667","25.0528166666667","6502600","貢寮區"
"224006","676-BX","2017/07/31 18:19:17","新北市瑞芳區民權街3-2號","121.808058333333","25.1072966666667","6501200","瑞芳區"
"224002","639-TC","2017/07/31 18:19:24","新北市瑞芳區三爪子坑路149巷2號","121.810753333333","25.106365","6501200","瑞芳區"
"224011","420-VK","2017/07/31 18:19:16","新北市瑞芳區山尖路174號","121.84764","25.11194","6501200","瑞芳區"
"224009","285-BY","2017/07/31 18:19:28","新北市瑞芳區金光路95號","121.85455","25.1063433333333","6501200","瑞芳區"
"224008","275-VK","2017/07/31 18:19:24","新北市瑞芳區逢甲路80號","121.810005","25.1085966666667","6501200","瑞芳區"
"224007","273-VK","2017/07/31 18:19:13","新北市瑞芳區大埔路61號","121.764371666667","25.1019316666667","6501200","瑞芳區"
"224005","271-BY","2017/07/31 18:19:33","新北市瑞芳區建基路二段116-11號","121.811168333333","25.132595","6501200","瑞芳區"
"227008","642-TC","2017/07/31 18:19:32","新北市雙溪區牡丹里牡丹73號","121.851735","25.0593416666667","6502500","雙溪區"
"227001","400-TW","2017/07/31 18:19:28","新北市雙溪區共和里中山路2號","121.863815","25.0338116666667","6502500","雙溪區"
"253006","032-BX","2017/07/31 18:19:16","新北市石門區老梅路76號","121.546953333333","25.2891316666667","6502200","石門區"
"253005","295-VK","2017/07/31 18:19:19","新北市石門區中央路37-5號","121.569016666667","25.2962633333333","6502200","石門區"
"253001","4710-YM","2017/07/31 18:19:28","新北市石門區中央路1-13號","121.561556666667","25.2910683333333","6502200","石門區"
"208003","665-BX","2017/07/31 18:19:14","新北市金山區民生路160號","121.646896666667","25.2230216666667","6502700","金山區"
"208001","761-BX","2017/07/31 18:19:30","新北市金山區自強路11號","121.640446666667","25.2165633333333","6502700","金山區"
"251004","009-UM","2017/07/31 18:19:17","新北市淡水區民族路31巷11號","121.462321666667","25.136365","6501000","淡水區"
"251008","181-VK","2017/07/31 18:19:25","新北市淡水區淡金路162號","121.458756666667","25.1655516666667","6501000","淡水區"
"251013","182-VK","2017/07/31 18:19:18","新北市淡水區行忠路659號","121.470561666667","25.1991516666667","6501000","淡水區"
"251010","413-VK","2017/07/31 18:19:29","新北市淡水區淡海路180巷12-3號","121.420458333333","25.1844266666667","6501000","淡水區"
"251012","441-VK","2017/07/31 18:19:22","新北市淡水區北新路二段77-5號","121.480471666667","25.1856016666667","6501000","淡水區"
"251015","442-VK","2017/07/31 18:19:15","新北市淡水區興福寮88巷1號","121.485495","25.1650433333333","6501000","淡水區"
"251005","443-VK","2017/07/31 18:19:22","新北市淡水區學府路51巷6弄16號","121.447653333333","25.1701333333333","6501000","淡水區"
"251001","559-UM","2017/07/31 18:19:22","新北市淡水區自強路100-1號","121.462281666667","25.1292033333333","6501000","淡水區"
"251006","561-UM","2017/07/31 18:19:16","新北市淡水區新民街76巷36弄2號","121.439245","25.177835","6501000","淡水區"
"251011","650-BX","2017/07/31 18:19:28","新北市淡水區坪頂路55號","121.458548333333","25.1626433333333","6501000","淡水區"
"251002","672-BX","2017/07/31 18:19:19","新北市淡水區中正東路一段55號","121.4528","25.162705","6501000","淡水區"
"251003","766-UM","2017/07/31 18:19:23","新北市淡水區北新路180號","121.44939","25.1786866666667","6501000","淡水區"
"207003","550-UM","2017/07/31 18:19:27","新北市萬里區野柳里港東路62-1號","121.687451666667","25.2038033333333","6502800","萬里區"
"207004","225-TW","2017/07/31 18:19:12","新北市萬里區中幅里中福路123號","121.676413333333","25.1659016666667","6502800","萬里區"
"252002","178-VK","2017/07/31 18:19:24","新北市三芝區中山路二段39號","121.502938333333","25.255095","6502100","三芝區"
"252003","249-BX","2017/07/31 18:19:30","新北市三芝區錫板里海尾14-33號","121.478256666667","25.2604283333333","6502100","三芝區"
"252001","292-VK","2017/07/31 18:19:28","新北市三芝區中興街二段2號","121.49838","25.256665","6502100","三芝區"
"252005","AAC-283","2017/07/31 15:49:10","新北市三芝區埔坪里埔頭坑41號","121.504558333333","25.2644266666667","6502100","三芝區"
"208002","170-UY","2017/07/31 18:19:21","新北市金山區清泉里清水路60巷20號","121.634771666667","25.2340016666667","6502700","金山區"
"237004","078-UY","2017/07/31 18:19:32","新北市三峽區五寮4號","121.378008333333","24.87292","6500900","三峽區"
"237007","153-BY","2017/07/31 18:19:18","新北市三峽區中正路二段393號","121.364935","24.907835","6500900","三峽區"
"237009","210-TH","2017/07/31 18:19:30","新北市三峽區大勇路36巷3號","121.366783333333","24.9371766666667","6500900","三峽區"
"237013","252-BX","2017/07/31 18:19:32","新北市三峽區大同路2-1號","121.37838","24.9300433333333","6500900","三峽區"
"237012","275-BY","2017/07/31 18:19:21","新北市三峽區民生街19巷7弄16號","121.377003333333","24.935625","6500900","三峽區"
"237008","302-VK","2017/07/31 18:19:19","新北市三峽區白雞68-85號","121.392655","24.9086016666667","6500900","三峽區"
"237014","433-BY","2017/07/31 18:19:25","新北市三峽區復興路110巷1弄2號","121.37277","24.938165","6500900","三峽區"
"237006","5529-G3","2017/07/31 18:19:31","新北市三峽區溪東路235號","121.406516666667","24.9326316666667","6500900","三峽區"
"237011","572-TV","2017/07/31 12:49:02","新北市三峽區中山路459巷163-3號","121.349055","24.9331766666667","6500900","三峽區"
"237015","649-BX","2017/07/31 18:19:26","新北市三峽區紫新路16巷2號","121.423265","24.9206966666667","6500900","三峽區"
"237010","706-TV","2017/07/31 18:19:22","新北市三峽區民族街76號","121.36962","24.9299483333333","6500900","三峽區"
"237005","AKY-6261","2017/07/31 18:19:32","新北市三峽區秀川街26巷1號","121.371593333333","24.93436","6500900","三峽區"
"236069","105-UM","2017/07/31 18:19:25","新北市土城區明德路一段93巷6號","121.466055","24.98321","6501300","土城區"
"236042","107-UM","2017/07/31 18:19:30","新北市土城區裕生路21巷6弄27號","121.448691666667","24.9866966666667","6501300","土城區"
"236078","166-UM","2017/07/31 18:19:19","新北市土城區永平街9號","121.427936666667","24.9629516666667","6501300","土城區"
"236030","253-BX","2017/07/31 18:19:25","新北市土城區順風路31號","121.44076","24.9766966666667","6501300","土城區"
"236026","269-VK","2017/07/31 18:19:19","新北市土城區承天路67號","121.439511666667","24.9635533333333","6501300","土城區"
"236014","270-VK","2017/07/31 18:19:27","新北市土城區青雲路39巷7號","121.460281666667","24.9874183333333","6501300","土城區"
"236036","271-VK","2017/07/31 18:19:28","新北市土城區青雲路521巷5號","121.459303333333","24.97317","6501300","土城區"
"236020","401-BY","2017/07/31 18:19:14","新北市土城區中正路82-1號","121.445305","24.975715","6501300","土城區"
"236058","912-UM","2017/07/31 18:19:15","新北市土城區中央路四段201號","121.414556666667","24.9564866666667","6501300","土城區"
"236048","913-UM","2017/07/31 18:19:30","新北市土城區明德路一段325號","121.458673333333","24.977055","6501300","土城區"
"236062","915-UM","2017/07/31 18:19:22","新北市土城區延壽路46號","121.470656666667","24.99167","6501300","土城區"
"236053","AAC-216","2017/07/31 18:19:17","新北市土城區中華路二段100號","121.438141666667","24.9743916666667","6501300","土城區"
"242021","AAC-296","2017/07/31 18:19:27","新北市新莊區新興街36巷2號","121.450716666667","25.036975","6500500","新莊區"
"242029","986-R7","2017/07/31 18:19:12","新北市新莊區中平路202號","121.444788333333","25.0487766666667","6500500","新莊區"
"242025","615-BX","2017/07/31 18:19:18","新北市新莊區五權一路12巷12號","121.457303333333","25.0645566666667","6500500","新莊區"
"242023","613-BX","2017/07/31 18:19:19","新北市新莊區新泰路357巷3弄57號","121.442163333333","25.0392433333333","6500500","新莊區"
"242027","612-BX","2017/07/31 18:19:12","新北市新莊區幸福路904號","121.443033333333","25.04912","6500500","新莊區"
"242036","566-BX","2017/07/31 18:19:23","新北市新莊區後港一路49巷3弄3號","121.425585","25.026785","6500500","新莊區"
"242046","441-UM","2017/07/31 18:19:23","新北市新莊區福營路334號","121.421716666667","25.0267883333333","6500500","新莊區"
"242050","440-UM","2017/07/31 18:19:13","新北市新莊區民安東路145號","121.431823333333","25.0206116666667","6500500","新莊區"
"242031","415-TV","2017/07/31 18:19:21","新北市新莊區新泰路255巷51號","121.44403","25.0395","6500500","新莊區"
"242002","413-TV","2017/07/31 18:19:28","新北市新莊區碧江街18-3號","121.455376666667","25.0345816666667","6500500","新莊區"
"242060","362-BY","2017/07/31 18:19:26","新北市新莊區富國路115號","121.423721666667","25.0248516666667","6500500","新莊區"
"242058","353-BY","2017/07/31 18:19:16","桃園市龜山區萬壽路一段117號","121.408745","25.0190583333333","6500500","新莊區"
"242042","132-UY","2017/07/31 18:19:00","新北市新莊區天祥街69號","121.415886666667","25.0290483333333","6500500","新莊區"
"242034","133-UY","2017/07/31 18:19:25","新北市新莊區新泰路101巷21號","121.448726666667","25.0345616666667","6500500","新莊區"
"242044","172-VK","2017/07/31 18:19:20","新北市新莊區鳳山街66號","121.414005","25.0255283333333","6500500","新莊區"
"242007","173-VK","2017/07/31 18:19:30","新北市新莊區中華路二段82號","121.453788333333","25.0468483333333","6500500","新莊區"
"242056","176-VK","2017/07/31 18:19:22","新北市新莊區瓊林路48號","121.446445","25.028895","6500500","新莊區"
"242011","346-TH","2017/07/31 18:18:38","新北市新莊區中華路二段205巷10號","121.451555","25.0526933333333","6500500","新莊區"
"242053","349-TH","2017/07/31 18:19:30","新北市新莊區民安西路392-7號","121.428581666667","25.0096533333333","6500500","新莊區"
"242015","350-TH","2017/07/31 18:19:23","新北市新莊區中平路172號","121.445421666667","25.0477316666667","6500500","新莊區"
"242009","351-TH","2017/07/31 18:19:32","新北市新莊區中港一街44號","121.450681666667","25.0455283333333","6500500","新莊區"
"238015","755-BX","2017/07/31 18:19:19","新北市樹林區大安路323巷10弄11號","121.417246666667","24.9909333333333","6500700","樹林區"
"238023","601-UM","2017/07/31 18:19:18","新北市樹林區三寶街3號","121.40656","25.0158233333333","6500700","樹林區"
"238019","599-UM","2017/07/31 18:19:24","新北市樹林區中華路190號","121.412033333333","24.980595","6500700","樹林區"
"238018","571-TV","2017/07/31 18:19:20","新北市樹林區保順街85號","121.429051666667","24.9944666666667","6500700","樹林區"
"238024","5061-A6","2017/07/31 18:19:14","新北市樹林區中山路一段137巷9號","121.422978333333","24.9895","6500700","樹林區"
"238021","311-TH","2017/07/31 18:19:19","新北市樹林區柑園街一段345號","121.390578333333","24.9564433333333","6500700","樹林區"
"238025","303-VK","2017/07/31 18:19:27","新北市樹林區保安街一段338號","121.418031666667","24.99796","6500700","樹林區"
"238017","283-BY","2017/07/31 18:19:23","新北市樹林區中正路811號","121.409553333333","25.01679","6500700","樹林區"
"238014","282-BY","2017/07/31 18:19:14","新北市樹林區潭興街107巷21弄1號","121.424148333333","24.9989233333333","6500700","樹林區"
"238020","268-VK","2017/07/31 18:02:01","新北市樹林區俊興街244號","121.418341666667","25.01604","6500700","樹林區"
"238026","172-UY","2017/07/31 18:19:25","新北市樹林區佳園路一段73號","121.393561666667","24.9701066666667","6500700","樹林區"
"238016","169-UY","2017/07/31 18:19:17","新北市樹林區文化街23號","121.419348333333","24.9876266666667","6500700","樹林區"
"239007","AAC-297","2017/07/31 18:19:16","新北市鶯歌區尖山埔路10號","121.349463333333","24.9511483333333","6500800","鶯歌區"
"239006","891-R6","2017/07/31 18:19:26","新北市鶯歌區德昌街140巷10號","121.332076666667","24.960965","6500800","鶯歌區"
"239008","527-UM","2017/07/31 18:19:29","新北市鶯歌區國際一路179號","121.336215","24.9765016666667","6500800","鶯歌區"
"239005","526-UM","2017/07/31 18:19:13","新北市鶯歌區鶯桃路668巷23號","121.329016666667","24.97028","6500800","鶯歌區"
"239001","417-VK","2017/07/31 18:19:25","新北市鶯歌區國中街183號","121.338931666667","24.9396083333333","6500800","鶯歌區"
"239003","360-BY","2017/07/31 18:19:29","新北市鶯歌區福安街58號","121.335596666667","24.9651933333333","6500800","鶯歌區"
"239002","359-BY","2017/07/31 18:19:33","新北市鶯歌區文化路124號","121.351923333333","24.9518233333333","6500800","鶯歌區"
"221008","489-VK","2017/07/31 18:19:31","新北市汐止區康寧街491號","121.632493333333","25.0684783333333","6501100","汐止區"
"221036","130-UY","2017/07/31 18:19:20","新北市汐止區長安路81號","121.669246666667","25.078405","6501100","汐止區"
"221015","131-UY","2017/07/31 18:19:22","新北市汐止區鄉長路二段23巷13號","121.66768","25.0826616666667","6501100","汐止區"
"221010","269-BY","2017/07/31 18:19:20","新北市汐止區汐萬路二段275巷3弄1號","121.64524","25.0888066666667","6501100","汐止區"
"221012","278-VK","2017/07/31 15:10:27","新北市汐止區汐萬路一段256巷1號","121.651725","25.0748833333333","6501100","汐止區"
"221023","279-VK","2017/07/31 02:22:23","新北市汐止區康寧街901號","121.651836666667","25.07504","6501100","汐止區"
"221032","280-BY","2017/07/31 18:19:34","新北市汐止區民權街二段109巷11弄1號","121.619496666667","25.0467866666667","6501100","汐止區"
"221027","281-BY","2017/07/31 18:19:23","新北市汐止區和平街6巷1弄1號","121.663391666667","25.071115","6501100","汐止區"
"221038","297-VK","2017/07/31 18:19:30","新北市汐止區仁愛路318號","121.66494","25.0675066666667","6501100","汐止區"
"221029","298-VK","2017/07/31 18:19:33","新北市汐止區樟樹二路330巷72號","121.643001666667","25.06998","6501100","汐止區"
"221021","299-VK","2017/07/31 18:14:46","新北市汐止區大同路二段184巷6號","121.653116666667","25.063715","6501100","汐止區"
"221031","353-TW","2017/07/31 18:19:22","新北市汐止區中興路158-1號","121.632261666667","25.0652183333333","6501100","汐止區"
"221035","622-UM","2017/07/31 18:19:11","新北市汐止區大同路二段187巷8弄15號","121.652945","25.0656066666667","6501100","汐止區"
"221025","623-UM","2017/07/31 18:19:23","新北市汐止區勤進路12巷49號","121.659028333333","25.0628616666667","6501100","汐止區"
"221033","647-BX","2017/07/31 18:19:20","新北市汐止區宜興街40巷5弄3號","121.622255","25.0419316666667","6501100","汐止區"
"221002","707-TV","2017/07/31 18:19:15","新北市汐止區福德一路201巷32號","121.635931666667","25.0649033333333","6501100","汐止區"
"221018","753-BX","2017/07/31 18:19:21","新北市汐止區茄苳路83號","121.666956666667","25.070595","6501100","汐止區"
