"lineid","car","time","location","longitude","latitude","cityid","cityname"
"234046","148-BY","2017/07/31 18:39:26","新北市永和區林森路81號","121.523903333333","25.0039066666667","6500400","永和區"
"234012","149-BY","2017/07/31 18:39:16","新北市永和區保福路二段101號","121.510313333333","25.0132","6500400","永和區"
"234081","298-R6","2017/07/31 18:39:16","新北市永和區林森路81號","121.523878333333","25.003905","6500400","永和區"
"234038","336-UY","2017/07/31 18:39:18","新北市永和區福和路1號","121.526635","25.0101833333333","6500400","永和區"
"234086","338-UY","2017/07/31 18:39:27","新北市中和區安和路21號","121.511031666667","24.993935","6500400","永和區"
"234030","746-BX","2017/07/31 18:39:12","新北市永和區成功路一段82號","121.526788333333","25.0029833333333","6500400","永和區"
"234061","AAD-866","2017/07/31 18:39:12","新北市永和區福和路1號","121.526225","25.0098933333333","6500400","永和區"
"234042","862-TW","2017/07/31 18:39:29","新北市永和區永貞路306號","121.511856666667","25.0048266666667","6500400","永和區"
"234026","9371-KE","2017/07/31 18:39:25","新北市永和區永貞路417巷2號","121.50701","25.00923","6500400","永和區"
"234011","9373-KE","2017/07/31 18:39:14","新北市永和區仁愛路24號","121.514698333333","25.0135","6500400","永和區"
"249005","172-UM","2017/07/31 18:39:02","新北市八里區中華路三段206號","121.388418333333","25.1255283333333","6502300","八里區"
"249001","173-UM","2017/07/31 18:39:11","新北市八里區龍米路一段136號","121.452973333333","25.12548","6502300","八里區"
"249004","303-UY","2017/07/31 18:39:21","新北市八里區忠四街55號","121.425223333333","25.162015","6502300","八里區"
"249002","305-UY","2017/07/31 18:39:14","新北市八里區頂寮二街138號","121.44931","25.1294333333333","6502300","八里區"
"248014","025-BX","2017/07/31 18:39:24","新北市五股區成泰路二段51號","121.437508333333","25.0831033333333","6501500","五股區"
"248016","026-BX","2017/07/31 18:39:20","新北市五股區凌雲路一段149巷13-1號","121.448593333333","25.1008366666667","6501500","五股區"
"248008","095-VK","2017/07/31 18:39:29","新北市五股區中興路一段150巷5號","121.4646","25.0741483333333","6501500","五股區"
"248012","247-BX","2017/07/31 18:39:33","新北市五股區御史路2號","121.442306666667","25.0902433333333","6501500","五股區"
"248018","261-SL","2017/07/31 18:39:14","新北市五股區民義路二段122號","121.404978333333","25.1149466666667","6501500","五股區"
"248010","272-BY","2017/07/31 18:39:29","新北市五股區水碓三路143號","121.43171","25.0736416666667","6501500","五股區"
"248004","677-BX","2017/07/31 18:39:16","新北市五股區民義路一段310號","121.424528333333","25.09378","6501500","五股區"
"248002","678-BX","2017/07/31 18:39:30","新北市五股區西雲路227號","121.448888333333","25.0971966666667","6501500","五股區"
"234023","9380-KE","2017/07/31 18:39:27","新北市永和區福和路76巷5弄16號","121.522258333333","25.00836","6500400","永和區"
"234077","969-R7","2017/07/31 18:39:29","新北市永和區中正路279號","121.517603333333","25.0010333333333","6500400","永和區"
"234067","AAC-212","2017/07/31 18:39:23","新北市永和區福和路239號","121.51837","25.0075066666667","6500400","永和區"
"234003","AAC-295","2017/07/31 18:39:29","新北市永和區福和路1號","121.52663","25.0100066666667","6500400","永和區"
"232011","375-UM","2017/07/31 18:17:49","新北市坪林區坪雙路一段43號","121.711713333333","24.9424366666667","6502000","坪林區"
"244013","069-UM","2017/07/31 18:39:17","新北市林口區信義路58-8號","121.382348333333","25.0788166666667","6501700","林口區"
"244007","080-UY","2017/07/31 18:39:12","新北市林口區後湖15-1號","121.387865","25.0984233333333","6501700","林口區"
"244019","742-UY","2017/07/31 18:39:31","新北市林口區忠孝路616巷21號","121.377283333333","25.0674916666667","6501700","林口區"
"244009","410-SL","2017/07/31 18:39:25","新北市林口區文化三路二段291-11號","121.378068333333","25.0865783333333","6501700","林口區"
"244023","483-VK","2017/07/31 18:39:22","新北市林口區文化二路二段88巷7號","121.379393333333","25.0809333333333","6501700","林口區"
"244017","485-VK","2017/07/31 18:39:22","新北市林口區文化二路一段86號","121.36627","25.0696066666667","6501700","林口區"
"244025","656-BX","2017/07/31 18:36:03","新北市林口區南勢三街31號","121.358361666667","25.0781466666667","6501700","林口區"
"244021","657-BX","2017/07/31 18:39:27","新北市林口區工六路2號","121.397516666667","25.0793683333333","6501700","林口區"
"244011","701-TV","2017/07/31 18:39:25","新北市林口區仁愛路一段338號","121.39084","25.0764566666667","6501700","林口區"
"243010","267-VK","2017/07/31 18:39:32","新北市泰山區黎明路26號","121.421426666667","25.0606016666667","6501600","泰山區"
"243013","AAD-798","2017/07/31 18:39:12","新北市泰山區明志路三段206巷3號","121.423305","25.0379283333333","6501600","泰山區"
"243015","380-SR","2017/07/31 18:39:20","新北市泰山區黎明路31號","121.421748333333","25.0605033333333","6501600","泰山區"
"243012","646-TV","2017/07/31 18:39:13","新北市泰山區福興三街13號","121.434475","25.0576933333333","6501600","泰山區"
"222003","436-BY","2017/07/31 18:39:23","新北市深坑區翠谷街81巷8號","121.62802","25.0093583333333","6501800","深坑區"
"222002","659-BX","2017/07/31 18:39:15","新北市深坑區雲鄉路1號","121.620986666667","24.999655","6501800","深坑區"
"222001","696-SL","2017/07/31 18:39:16","新北市深坑區北深路一段82號","121.636338333333","25.0107316666667","6501800","深坑區"
"231041","002-UM","2017/07/31 18:39:22","新北市新店區安華路28-1號","121.519698333333","24.9608466666667","6500600","新店區"
"231056","0291-UT","2017/07/31 18:39:16","新北市新店區自立街80號","121.53735","24.9797483333333","6500600","新店區"
"231059","046-UY","2017/07/31 18:39:26","新北市新店區安華路28-1號","121.519648333333","24.960825","6500600","新店區"
"231061","047-UY","2017/07/31 18:39:31","新北市新店區安華路28-1號","121.519285","24.9609216666667","6500600","新店區"
"231060","106-UY","2017/07/31 18:39:31","新北市新店區安華路28-1號","121.519675","24.96076","6500600","新店區"
"231051","107-UY","2017/07/31 18:39:11","新北市新店區安康路一段355-3號","121.519823333333","24.9621483333333","6500600","新店區"
"231047","108-UY","2017/07/31 18:39:13","新北市新店區環河路29巷1號","121.536428333333","24.961195","6500600","新店區"
"231052","187-VK","2017/07/31 18:39:14","新北市新店區新烏路一段65號","121.546091666667","24.9438583333333","6500600","新店區"
"231057","256-BX","2017/07/31 18:39:23","新北市新店區新烏路一段215號","121.549255","24.93144","6500600","新店區"
"231063","268-BY","2017/07/31 18:39:25","新北市新店區安華路28-1號","121.519425","24.960585","6500600","新店區"
"231046","278-BY","2017/07/31 18:39:29","新北市新店區直潭一街8號","121.536043333333","24.9428483333333","6500600","新店區"
"231050","AAD-862","2017/07/31 18:39:27","新北市新店區安華路28-1號","121.52013","24.9611666666667","6500600","新店區"
"231058","3712-VJ","2017/07/31 18:39:23","新北市新店區新店後街1-1號","121.537805","24.9532716666667","6500600","新店區"
"231055","3713-VJ","2017/07/31 18:39:25","新北市新店區中華路47巷3號","121.539755","24.9675733333333","6500600","新店區"
"231067","4772-VM","2017/07/31 18:39:19","新北市新店區安華路28-1號","121.519293333333","24.9606233333333","6500600","新店區"
"231065","512-UM","2017/07/31 18:39:13","新北市新店區安康路一段355-3號","121.519275","24.9615316666667","6500600","新店區"
"231054","513-UM","2017/07/31 18:39:20","新北市新店區安華路28-1號","121.519653333333","24.961045","6500600","新店區"
"231064","515-UM","2017/07/31 18:39:31","新北市新店區安華路28-1號","121.51981","24.9611466666667","6500600","新店區"
"231045","617-UM","2017/07/31 18:39:26","新北市新店區安華路28-1號","121.519475","24.9608716666667","6500600","新店區"
"231040","619-UM","2017/07/31 18:39:22","新北市新店區安華路28-1號","121.519708333333","24.9609233333333","6500600","新店區"
"231042","641-BX","2017/07/31 18:39:15","新北市新店區安康路一段90號","121.527928333333","24.9620283333333","6500600","新店區"
"231049","719-UM","2017/07/31 18:39:24","新北市新店區安康路一段67號","121.530298333333","24.96108","6500600","新店區"
"231062","720-UM","2017/07/31 18:39:18","新北市新店區安華路28-1號","121.519328333333","24.9612516666667","6500600","新店區"
"231044","897-TW","2017/07/31 18:39:18","新北市新店區安康路一段203號","121.526095","24.9629566666667","6500600","新店區"
"231043","899-TW","2017/07/31 18:39:13","新北市新店區安華路28-1號","121.519311666667","24.9608383333333","6500600","新店區"
"231066","AKT-0513","2017/07/31 18:39:16","新北市新店區安豐路45號","121.500231666667","24.9551633333333","6500600","新店區"
"235066","003-UY","2017/07/31 18:39:25","新北市中和區水源路45號","121.504776666667","25.0035966666667","6500300","中和區"
"235064","005-UY","2017/07/31 18:39:25","新北市中和區連城路139巷67號","121.496965","24.997045","6500300","中和區"
"235063","006-UY","2017/07/31 18:39:25","新北市中和區連城路268-6號","121.486305","24.9963783333333","6500300","中和區"
"235056","096-UM","2017/07/31 18:39:23","新北市中和區員山路611巷1號","121.477863333333","25.0112783333333","6500300","中和區"
"235039","097-UM","2017/07/31 18:39:17","新北市中和區宜安路60號","121.511658333333","24.9969866666667","6500300","中和區"
"235065","098-UM","2017/07/31 18:39:15","新北市中和區中山路二段64巷8號","121.50358","25.0051533333333","6500300","中和區"
"235040","150-BY","2017/07/31 18:39:17","新北市中和區安平路38號","121.509891666667","24.9950783333333","6500300","中和區"
"235058","151-BY","2017/07/31 18:39:11","新北市中和區圓通路369巷30弄16號","121.489671666667","24.985315","6500300","中和區"
"235055","183-VK","2017/07/31 18:39:16","新北市中和區民生街39號","121.470141666667","25.0053483333333","6500300","中和區"
"235038","185-VK","2017/07/31 18:39:29","新北市中和區立人街14巷40弄8號","121.519056666667","24.9957766666667","6500300","中和區"
"235049","186-VK","2017/07/31 18:39:33","新北市中和區景平路353號","121.504775","24.993585","6500300","中和區"
"235067","255-BX","2017/07/31 18:39:14","新北市中和區新生街48號","121.483206666667","25.003175","6500300","中和區"
"235044","293-VK","2017/07/31 18:39:15","新北市中和區復興路301巷41號","121.502451666667","24.9896833333333","6500300","中和區"
"235072","301-VK","2017/07/31 18:39:33","新北市中和區中山路二段181號","121.500736666667","25.0027033333333","6500300","中和區"
"235043","352-BY","2017/07/31 18:39:14","新北市中和區景平路91號","121.517671666667","24.9918216666667","6500300","中和區"
"235051","376-QA","2017/07/31 18:39:20","新北市中和區興南路二段128巷7弄7號","121.503341666667","24.9840533333333","6500300","中和區"
"235068","377-QA","2017/07/31 18:39:17","新北市中和區中正路213號","121.496861666667","24.99365","6500300","中和區"
"235061","378-QA","2017/07/31 18:39:25","新北市中和區民享街88巷11號","121.474033333333","25.000495","6500300","中和區"
"235050","4979-A6","2017/07/31 18:39:15","新北市中和區忠孝街124巷2號","121.512363333333","24.9860766666667","6500300","中和區"
"235069","4980-A6","2017/07/31 18:39:28","新北市中和區連城路65巷12號","121.497935","25.0007216666667","6500300","中和區"
"235042","551-UM","2017/07/31 18:39:12","新北市中和區成功路97巷18弄5號","121.526883333333","24.991525","6500300","中和區"
"235070","558-UM","2017/07/31 18:39:32","新北市中和區景平路431巷66號","121.500576666667","24.9957","6500300","中和區"
"235045","565-BX","2017/07/31 18:39:23","新北市中和區南山路236巷24弄56號","121.504236666667","24.98875","6500300","中和區"
"235054","640-BX","2017/07/31 18:39:25","新北市中和區民享街91-12號","121.47462","25.0007416666667","6500300","中和區"
"235060","647-TV","2017/07/31 18:39:30","新北市中和區員山路465號","121.480418333333","25.0044766666667","6500300","中和區"
"235047","732-UM","2017/07/31 18:39:20","新北市中和區南山路320巷10弄21號","121.506783333333","24.98663","6500300","中和區"
"235046","733-UM","2017/07/31 18:39:22","新北市中和區圓通路162巷17號","121.496866666667","24.994905","6500300","中和區"
"235062","800-TS","2017/07/31 18:39:22","新北市中和區中山路二段312巷31號","121.495211666667","25.0038266666667","6500300","中和區"
"235057","801-TS","2017/07/31 18:39:26","新北市中和區民安街39號","121.479975","25.0003333333333","6500300","中和區"
"235041","802-TS","2017/07/31 18:39:20","新北市中和區中正路166-1號","121.498303333333","24.99393","6500300","中和區"
"235052","805-TS","2017/07/31 18:39:18","新北市中和區興南路三段26號","121.496856666667","24.9785833333333","6500300","中和區"
"235048","896-TW","2017/07/31 18:39:20","新北市中和區南山路231號","121.503606666667","24.9933183333333","6500300","中和區"
"235053","900-TW","2017/07/31 18:39:20","新北市中和區民享街462號","121.469805","24.992395","6500300","中和區"
"235037","AAC-213","2017/07/31 18:39:14","新北市中和區景德街89巷3號","121.516168333333","24.99127","6500300","中和區"
"235059","AAC-215","2017/07/31 18:39:19","新北市中和區錦和路350-1號","121.49051","24.993545","6500300","中和區"
"220068","013-TV","2017/07/31 18:39:27","新北市板橋區民生路二段36-1號","121.47254","25.0166216666667","6500100","板橋區"
"220013","072-UY","2017/07/31 18:39:26","新北市板橋區民生路二段36-1號","121.472576666667","25.0167516666667","6500100","板橋區"
"220086","073-UY","2017/07/31 18:39:16","新北市板橋區南雅西路二段194號","121.4518","25.01448","6500100","板橋區"
"247006","341-TH","2017/07/31 18:39:19","新北市五股區中興路二段182巷50號","121.455008333333","25.081175","6501400","蘆洲區"
"247008","339-TH","2017/07/31 18:39:12","新北市八里區荖阡坑路34-1號","121.400026666667","25.131955","6501400","蘆洲區"
"247024","337-TH","2017/07/31 18:39:17","新北市八里區荖阡坑路41-3號","121.399561666667","25.1328016666667","6501400","蘆洲區"
"247014","057-VK","2017/07/31 18:39:29","新北市五股區中興路三段163號","121.449275","25.0806","6501400","蘆洲區"
"226004","312-R5","2017/07/31 18:39:22","新北市平溪區石底里公園街18-3號","121.733668333333","25.02557","6502400","平溪區"
"228003","097-TW","2017/07/31 18:39:23","新北市貢寮區和美里龍洞街40-1號","121.915465","25.111655","6502600","貢寮區"
"228002","585-TW","2017/07/31 18:39:15","新北市貢寮區福隆里東興街6-11號","121.950753333333","25.0211116666667","6502600","貢寮區"
"228001","670-TC","2017/07/31 18:39:21","新北市貢寮區仁理村保健街73號","121.923721666667","25.051685","6502600","貢寮區"
"224006","676-BX","2017/07/31 18:39:17","新北市瑞芳區明燈路三段59-2號","121.805743333333","25.108235","6501200","瑞芳區"
"224002","639-TC","2017/07/31 18:39:23","新北市瑞芳區三爪子坑路114號","121.807021666667","25.1051983333333","6501200","瑞芳區"
"224011","420-VK","2017/07/31 18:39:16","新北市瑞芳區崙頂路1-6號","121.847033333333","25.1047066666667","6501200","瑞芳區"
"224009","285-BY","2017/07/31 18:39:28","新北市瑞芳區祈堂路12號","121.858588333333","25.1136233333333","6501200","瑞芳區"
"224008","275-VK","2017/07/31 18:39:15","新北市瑞芳區岳王路162號","121.807955","25.1113616666667","6501200","瑞芳區"
"224007","273-VK","2017/07/31 18:39:25","新北市瑞芳區大埔路115巷7號","121.763365","25.10091","6501200","瑞芳區"
"224005","271-BY","2017/07/31 18:39:28","新北市瑞芳區瑞濱路147-15號","121.818116666667","25.1183816666667","6501200","瑞芳區"
"227008","642-TC","2017/07/31 18:38:52","新北市雙溪區牡丹里下坑11號","121.851005","25.0561483333333","6502500","雙溪區"
"227001","400-TW","2017/07/31 18:39:28","新北市雙溪區魚行里坤溪3-5號","121.876173333333","25.0207733333333","6502500","雙溪區"
"253006","032-BX","2017/07/31 18:39:16","新北市石門區楓林26-21號","121.543318333333","25.290305","6502200","石門區"
"253005","295-VK","2017/07/31 18:39:19","新北市石門區海園路37號","121.5577","25.291135","6502200","石門區"
"253001","4710-YM","2017/07/31 18:39:28","新北市石門區崁子腳58-53號","121.530271666667","25.286605","6502200","石門區"
"208003","665-BX","2017/07/31 18:39:18","新北市金山區中山路324號","121.63393","25.2249883333333","6502700","金山區"
"208001","761-BX","2017/07/31 18:39:30","新北市金山區文化三路7號","121.635101666667","25.2250316666667","6502700","金山區"
"251004","009-UM","2017/07/31 18:39:17","新北市淡水區民權路41號","121.459998333333","25.1402233333333","6501000","淡水區"
"251008","181-VK","2017/07/31 18:39:25","新北市淡水區北投子18號","121.453936666667","25.1840833333333","6501000","淡水區"
"251013","182-VK","2017/07/31 18:39:18","新北市淡水區雲廣坑9號","121.478276666667","25.2103433333333","6501000","淡水區"
"251010","413-VK","2017/07/31 18:39:29","新北市淡水區沙崙路122號","121.423278333333","25.1827916666667","6501000","淡水區"
"251012","441-VK","2017/07/31 18:39:22","新北市淡水區北新路117號","121.448838333333","25.1786466666667","6501000","淡水區"
"251015","442-VK","2017/07/31 18:39:15","新北市淡水區興福寮66巷579號","121.484368333333","25.1633433333333","6501000","淡水區"
"251001","559-UM","2017/07/31 18:39:22","新北市淡水區自強路415巷2號","121.46549","25.13422","6501000","淡水區"
"251006","561-UM","2017/07/31 18:39:16","新北市淡水區中山北路三段77號","121.444518333333","25.19184","6501000","淡水區"
"251011","650-BX","2017/07/31 18:39:32","新北市淡水區鄧公路210巷6號","121.455071666667","25.169095","6501000","淡水區"
"251002","672-BX","2017/07/31 18:39:24","新北市淡水區中正東路81巷1號","121.447653333333","25.1672033333333","6501000","淡水區"
"251003","766-UM","2017/07/31 18:39:33","新北市淡水區北新路69巷2號","121.446183333333","25.1796233333333","6501000","淡水區"
"207003","550-UM","2017/07/31 18:39:27","新北市萬里區大鵬里頂社2-1號","121.66035","25.207215","6502800","萬里區"
"207004","225-TW","2017/07/31 18:39:12","新北市萬里區萬里里獅頭路12-4號","121.692683333333","25.1793633333333","6502800","萬里區"
"252002","178-VK","2017/07/31 18:39:24","新北市三芝區民生街54巷14號","121.503925","25.2553383333333","6502100","三芝區"
"252003","249-BX","2017/07/31 18:39:30","新北市三芝區後厝里土地公坑54-9號","121.46653","25.2497483333333","6502100","三芝區"
"252001","292-VK","2017/07/31 18:39:28","新北市三芝區中興街二段50號","121.499551666667","25.25496","6502100","三芝區"
"252005","AAC-283","2017/07/31 15:49:10","新北市三芝區埔坪里埔頭坑41號","121.504558333333","25.2644266666667","6502100","三芝區"
"208002","170-UY","2017/07/31 18:39:21","新北市金山區忠孝一路19巷17號","121.637358333333","25.2175433333333","6502700","金山區"
"237004","078-UY","2017/07/31 18:39:26","新北市三峽區插角67-6號","121.40576","24.871365","6500900","三峽區"
"237007","153-BY","2017/07/31 18:39:17","新北市三峽區中正路三段7號","121.352131666667","24.9035883333333","6500900","三峽區"
"237009","210-TH","2017/07/31 18:39:30","新北市三峽區大同路313號","121.363331666667","24.9246916666667","6500900","三峽區"
"237013","252-BX","2017/07/31 18:39:26","新北市三峽區光明路69巷25號","121.37668","24.92927","6500900","三峽區"
"237012","275-BY","2017/07/31 18:39:21","新北市三峽區三樹路332-2號","121.382366666667","24.9440016666667","6500900","三峽區"
"237008","302-VK","2017/07/31 18:39:19","新北市三峽區白雞115-16號","121.401185","24.9062116666667","6500900","三峽區"
"237014","433-BY","2017/07/31 18:39:24","新北市三峽區和平街109號","121.370385","24.9381783333333","6500900","三峽區"
"237006","5529-G3","2017/07/31 18:39:11","新北市三峽區溪東路315巷37號","121.411966666667","24.9309166666667","6500900","三峽區"
"237011","572-TV","2017/07/31 12:49:02","新北市三峽區中山路459巷163-3號","121.349055","24.9331766666667","6500900","三峽區"
"237015","649-BX","2017/07/31 18:39:26","新北市三峽區竹崙路79號","121.431748333333","24.9202866666667","6500900","三峽區"
"237010","706-TV","2017/07/31 18:39:22","新北市三峽區復興路357號","121.36382","24.9386583333333","6500900","三峽區"
"237005","AKY-6261","2017/07/31 18:39:12","新北市三峽區文化路1-1號","121.373553333333","24.93486","6500900","三峽區"
"236069","105-UM","2017/07/31 18:39:25","新北市土城區永豐路157巷29弄1號","121.468711666667","24.9813916666667","6501300","土城區"
"236042","107-UM","2017/07/31 18:39:29","新北市土城區學成路108巷9號","121.450165","24.9896233333333","6501300","土城區"
"236078","166-UM","2017/07/31 18:39:19","新北市土城區中央路四段54巷3號","121.419665","24.9606116666667","6501300","土城區"
"236030","253-BX","2017/07/31 18:39:24","新北市土城區慶利街37號","121.439086666667","24.97428","6501300","土城區"
"236026","269-VK","2017/07/31 18:39:19","新北市土城區忠義路49-1號","121.440445","24.969085","6501300","土城區"
"236014","270-VK","2017/07/31 18:39:27","新北市土城區清水路207巷17號","121.459706666667","24.9823466666667","6501300","土城區"
"236036","271-VK","2017/07/31 18:39:28","新北市土城區明德路一段313巷11弄7號","121.460181666667","24.9759133333333","6501300","土城區"
"236020","401-BY","2017/07/31 18:39:14","新北市土城區延吉街307-1號","121.46628","24.9844666666667","6501300","土城區"
"236058","912-UM","2017/07/31 18:39:15","新北市土城區中央路四段76-3號","121.41907","24.959475","6501300","土城區"
"236048","913-UM","2017/07/31 18:39:10","新北市土城區明德路一段6號","121.464755","24.9856733333333","6501300","土城區"
"236062","915-UM","2017/07/31 18:39:22","新北市土城區延和路177巷11弄11號","121.469385","24.9909216666667","6501300","土城區"
"236053","AAC-216","2017/07/31 18:39:18","新北市土城區中華路一段55號","121.44552","24.98819","6501300","土城區"
"242046","441-UM","2017/07/31 18:39:23","新北市新莊區富國路77巷23號","121.420368333333","25.02653","6500500","新莊區"
"242002","413-TV","2017/07/31 18:39:28","新北市新莊區新泰路357巷3弄57號","121.44213","25.0395566666667","6500500","新莊區"
"242060","362-BY","2017/07/31 18:39:26","新北市新莊區中正路473-1號","121.441946666667","25.032915","6500500","新莊區"
"242044","172-VK","2017/07/31 18:39:20","新北市泰山區中山路二段269號","121.434271666667","25.046185","6500500","新莊區"
"242053","349-TH","2017/07/31 18:39:10","新北市板橋區大觀路三段50巷89號","121.431308333333","24.9964716666667","6500500","新莊區"
"242009","351-TH","2017/07/31 18:36:31","新北市新莊區新泰路357巷3弄57號","121.44201","25.03941","6500500","新莊區"
"238015","755-BX","2017/07/31 18:39:10","新北市樹林區備內街79號","121.409121666667","24.989585","6500700","樹林區"
"238023","601-UM","2017/07/31 18:39:13","新北市樹林區三福街114號","121.406466666667","25.0163116666667","6500700","樹林區"
"238019","599-UM","2017/07/31 18:39:24","新北市樹林區中華路190號","121.411991666667","24.9805366666667","6500700","樹林區"
"238018","571-TV","2017/07/31 18:39:20","新北市樹林區樹新路36-4號","121.428188333333","24.9951083333333","6500700","樹林區"
"238024","5061-A6","2017/07/31 18:39:14","新北市樹林區中華路190-6號","121.410388333333","24.9807383333333","6500700","樹林區"
"238022","312-TH","2017/07/31 18:39:20","新北市樹林區中華路190-8號","121.411275","24.9804733333333","6500700","樹林區"
"238025","303-VK","2017/07/31 18:39:27","新北市樹林區中山路三段335號","121.390695","24.9713416666667","6500700","樹林區"
"238017","283-BY","2017/07/31 18:39:23","新北市樹林區光榮街3巷1號","121.413105","25.0040116666667","6500700","樹林區"
"238020","268-VK","2017/07/31 18:02:01","新北市樹林區俊興街244號","121.418341666667","25.01604","6500700","樹林區"
"238026","172-UY","2017/07/31 18:39:20","新北市樹林區育德街78-1號","121.388013333333","24.9680083333333","6500700","樹林區"
"238016","169-UY","2017/07/31 18:39:17","新北市樹林區文化街23號","121.419295","24.9876416666667","6500700","樹林區"
"239007","AAC-297","2017/07/31 18:39:16","新北市鶯歌區中正一路460號","121.364373333333","24.95655","6500800","鶯歌區"
"239008","527-UM","2017/07/31 18:39:29","新北市鶯歌區國際一路179號","121.336255","24.9765316666667","6500800","鶯歌區"
"239005","526-UM","2017/07/31 18:39:13","新北市鶯歌區鳳吉二街140號","121.328445","24.9747883333333","6500800","鶯歌區"
"239001","417-VK","2017/07/31 18:39:25","新北市鶯歌區二橋街80號","121.337068333333","24.9383483333333","6500800","鶯歌區"
"239003","360-BY","2017/07/31 18:39:29","新北市鶯歌區鶯桃路510號","121.331803333333","24.9663216666667","6500800","鶯歌區"
"221008","489-VK","2017/07/31 18:39:11","新北市汐止區康寧街901號","121.651376666667","25.0749716666667","6501100","汐止區"
"221036","130-UY","2017/07/31 18:39:20","新北市汐止區南昌街35號","121.663075","25.0689733333333","6501100","汐止區"
"221015","131-UY","2017/07/31 18:39:22","新北市汐止區吉祥街27巷2號","121.667825","25.0815816666667","6501100","汐止區"
"221010","269-BY","2017/07/31 18:39:20","新北市汐止區瑞松街18巷9號","121.64517","25.1047816666667","6501100","汐止區"
"221012","278-VK","2017/07/31 15:10:27","新北市汐止區汐萬路一段256巷1號","121.651725","25.0748833333333","6501100","汐止區"
"221023","279-VK","2017/07/31 02:22:23","新北市汐止區康寧街901號","121.651836666667","25.07504","6501100","汐止區"
"221032","280-BY","2017/07/31 18:39:14","新北市汐止區民權街二段79號","121.619161666667","25.0480383333333","6501100","汐止區"
"221027","281-BY","2017/07/31 18:39:23","新北市汐止區和平街3-1號","121.663468333333","25.0706816666667","6501100","汐止區"
"221038","297-VK","2017/07/31 18:39:29","新北市汐止區忠孝東路200-5號","121.66128","25.065895","6501100","汐止區"
"221029","298-VK","2017/07/31 18:39:13","新北市汐止區樟樹一路133巷1號","121.64206","25.06511","6501100","汐止區"
"221021","299-VK","2017/07/31 18:27:46","新北市汐止區新台五路一段91號","121.650415","25.0623383333333","6501100","汐止區"
"221031","353-TW","2017/07/31 18:39:21","新北市汐止區中興路14號","121.637205","25.0593916666667","6501100","汐止區"
"221035","622-UM","2017/07/31 18:39:23","新北市汐止區大同路二段268號","121.654563333333","25.0662716666667","6501100","汐止區"
"221025","623-UM","2017/07/31 18:39:23","新北市汐止區仁愛路119巷20號","121.662141666667","25.0643933333333","6501100","汐止區"
"221033","647-BX","2017/07/31 18:39:20","新北市汐止區東勢街20號","121.624513333333","25.0386016666667","6501100","汐止區"
"221002","707-TV","2017/07/31 18:39:15","新北市汐止區福德一路262號","121.633053333333","25.0643766666667","6501100","汐止區"
"221018","753-BX","2017/07/31 18:39:21","新北市汐止區茄苳路250巷23號","121.671878333333","25.0676583333333","6501100","汐止區"
"220079","145-BY","2017/07/31 18:39:23","新北市板橋區林園街7-1號","121.453948333333","25.0091533333333","6500100","板橋區"
"220080","200-UY","2017/07/31 18:39:28","新北市板橋區華東街1-8號","121.44778","24.9948083333333","6500100","板橋區"
"220082","610-BX","2017/07/31 18:39:25","新北市板橋區華東街1-8號","121.447655","24.9948583333333","6500100","板橋區"
"220056","276-BY","2017/07/31 18:39:27","新北市板橋區四川路二段53號","121.45373","24.995265","6500100","板橋區"
"220072","277-BY","2017/07/31 18:39:24","新北市板橋區華東街1-9號","121.448061666667","24.9949016666667","6500100","板橋區"
"220094","283-UM","2017/07/31 18:39:23","新北市板橋區民生路二段161巷1號","121.470133333333","25.020055","6500100","板橋區"
"220071","283-VK","2017/07/31 18:39:30","新北市板橋區民生路二段36-1號","121.472475","25.0168816666667","6500100","板橋區"
"220053","285-VK","2017/07/31 18:39:20","新北市板橋區觀光街69巷7號","121.469918333333","25.01645","6500100","板橋區"
"220083","286-VK","2017/07/31 18:39:31","新北市板橋區華東街1-9號","121.448276666667","24.994875","6500100","板橋區"
"220081","287-VK","2017/07/31 18:39:23","新北市板橋區華東街1-10號","121.448253333333","24.9950216666667","6500100","板橋區"
"220090","288-VK","2017/07/31 18:39:18","新北市板橋區民生路二段120號","121.470543333333","25.01989","6500100","板橋區"
"220061","295-UM","2017/07/31 18:39:15","新北市板橋區民生路二段36-1號","121.472476666667","25.0167683333333","6500100","板橋區"
"220084","296-UM","2017/07/31 18:39:27","新北市板橋區華東街1-9號","121.448138333333","24.994915","6500100","板橋區"
"220075","297-UM","2017/07/31 18:39:12","新北市板橋區華東街1-9號","121.448218333333","24.9949433333333","6500100","板橋區"
"220035","560-BX","2017/07/31 18:39:15","新北市板橋區華東街328號","121.45269","25.0032516666667","6500100","板橋區"
"220063","609-BX","2017/07/31 18:39:27","新北市板橋區民生路二段56-3號","121.472165","25.0172716666667","6500100","板橋區"
"220057","686-BX","2017/07/31 18:39:15","新北市板橋區民生路二段36-1號","121.472571666667","25.0166433333333","6500100","板橋區"
"220077","687-BX","2017/07/31 18:39:25","新北市板橋區華東街1-10號","121.448318333333","24.99495","6500100","板橋區"
"220054","741-BX","2017/07/31 18:39:17","新北市板橋區民生路二段36-1號","121.472466666667","25.0168033333333","6500100","板橋區"
"220074","895-R6","2017/07/31 18:39:14","新北市板橋區華東街1-9號","121.448226666667","24.994965","6500100","板橋區"
"220073","985-R7","2017/07/31 18:39:19","新北市板橋區華東街1-10號","121.448281666667","24.9950066666667","6500100","板橋區"
"220097","AAC-210","2017/07/31 18:39:18","新北市板橋區民生路二段120號","121.470405","25.0199816666667","6500100","板橋區"
"220070","AAC-253","2017/07/31 18:39:23","新北市板橋區民生路二段17號","121.472453333333","25.0164783333333","6500100","板橋區"
