"lineid","car","time","location","longitude","latitude","cityid","cityname"
"234046","148-BY","2017/07/31 19:59:26","新北市永和區永元路138號","121.522836666667","25.003205","6500400","永和區"
"234012","149-BY","2017/07/31 19:59:16","新北市永和區保生路55號","121.504748333333","25.0106016666667","6500400","永和區"
"234007","207-UY","2017/07/31 19:59:25","新北市永和區保生路22巷21號","121.507235","25.00812","6500400","永和區"
"234081","298-R6","2017/07/31 19:59:16","新北市永和區永亨路104號","121.52344","25.0045716666667","6500400","永和區"
"234038","336-UY","2017/07/31 19:59:18","新北市永和區成功路二段79號","121.526696666667","24.9992983333333","6500400","永和區"
"234064","337-UY","2017/07/31 19:59:13","新北市永和區中正路412巷20弄27號","121.519045","25.0013216666667","6500400","永和區"
"234086","338-UY","2017/07/31 19:59:27","新北市永和區福和路10巷2號","121.5247","25.008665","6500400","永和區"
"234070","552-UM","2017/07/31 19:59:18","新北市永和區福和路183巷2弄2號","121.519976666667","25.0072333333333","6500400","永和區"
"234054","553-UM","2017/07/31 19:59:20","新北市永和區博愛街47巷1號","121.519358333333","25.015935","6500400","永和區"
"234017","745-BX","2017/07/31 19:59:23","新北市永和區文化路121巷1號","121.51246","25.0151983333333","6500400","永和區"
"234030","746-BX","2017/07/31 19:59:32","新北市永和區民權路49巷5弄35號","121.52176","24.997885","6500400","永和區"
"234061","AAD-866","2017/07/31 19:59:12","新北市永和區中正路283巷29弄2號","121.516286666667","24.9998116666667","6500400","永和區"
"234042","862-TW","2017/07/31 19:59:29","新北市永和區中和路421巷5弄18號","121.508251666667","25.000605","6500400","永和區"
"234050","863-TW","2017/07/31 19:59:15","新北市永和區永平路247號","121.506581666667","25.0127833333333","6500400","永和區"
"234026","9371-KE","2017/07/31 19:59:25","新北市永和區水源街27巷11號","121.51132","25.0039633333333","6500400","永和區"
"234011","9373-KE","2017/07/31 19:59:14","新北市永和區仁愛路352巷92弄18號","121.501333333333","25.008295","6500400","永和區"
"249005","172-UM","2017/07/31 19:59:22","新北市八里區楓林路2-23號","121.383863333333","25.1305783333333","6502300","八里區"
"249001","173-UM","2017/07/31 19:59:30","新北市八里區中華路二段249-1號","121.403976666667","25.1482016666667","6502300","八里區"
"249004","303-UY","2017/07/31 19:59:32","新北市八里區文昌路130號","121.409653333333","25.158555","6502300","八里區"
"249002","305-UY","2017/07/31 19:59:21","新北市八里區頂寮二街2號","121.451183333333","25.1239366666667","6502300","八里區"
"249003","593-UM","2017/07/31 19:59:10","新北市八里區中華路二段538-4號","121.39873","25.1451116666667","6502300","八里區"
"248014","025-BX","2017/07/31 19:59:28","新北市五股區五福路14巷7號","121.434728333333","25.0887716666667","6501500","五股區"
"248016","026-BX","2017/07/31 19:59:22","新北市五股區成泰路三段577巷80弄24號","121.449581666667","25.10452","6501500","五股區"
"248008","095-VK","2017/07/31 19:59:29","新北市五股區四維路30巷36弄2號","121.468873333333","25.07145","6501500","五股區"
"248012","247-BX","2017/07/31 19:59:13","新北市五股區民義路一段71-2號","121.435418333333","25.085145","6501500","五股區"
"248018","261-SL","2017/07/31 19:59:14","新北市五股區登林路105-2號","121.408001666667","25.0786716666667","6501500","五股區"
"248010","272-BY","2017/07/31 19:59:29","新北市五股區登林路79-4號","121.427688333333","25.0705966666667","6501500","五股區"
"248004","677-BX","2017/07/31 19:59:16","新北市五股區成泰路一段32巷62號","121.435026666667","25.0669383333333","6501500","五股區"
"248002","678-BX","2017/07/31 19:59:29","新北市五股區成泰路三段436號","121.450875","25.09955","6501500","五股區"
"234023","9380-KE","2017/07/31 19:59:27","新北市永和區中正路662巷23號","121.517585","25.00884","6500400","永和區"
"234077","969-R7","2017/07/31 19:59:29","新北市永和區民有街23巷1號","121.516951666667","24.9963816666667","6500400","永和區"
"234074","AAC-211","2017/07/31 19:59:14","新北市永和區豫溪街215巷24號","121.523831666667","25.01012","6500400","永和區"
"234067","AAC-212","2017/07/31 19:59:23","新北市永和區永貞路335號","121.509576666667","25.00711","6500400","永和區"
"234003","AAC-295","2017/07/31 19:59:29","新北市永和區永和路二段3號","121.51439","25.00992","6500400","永和區"
"243010","267-VK","2017/07/31 19:59:32","新北市泰山區中華街14巷1號","121.427666666667","25.0523933333333","6501600","泰山區"
"243013","AAD-798","2017/07/31 19:59:12","新北市泰山區應化街7號","121.423871666667","25.0437116666667","6501600","泰山區"
"243009","297-R6","2017/07/31 19:59:18","新北市泰山區楓江路16巷23號","121.434028333333","25.06147","6501600","泰山區"
"243015","380-SR","2017/07/31 19:59:20","新北市泰山區明志路二段214巷9號","121.426756666667","25.0486933333333","6501600","泰山區"
"243014","421-VK","2017/07/31 19:59:25","新北市泰山區泰林路二段163號","121.433763333333","25.0605033333333","6501600","泰山區"
"243011","549-UM","2017/07/31 19:59:17","新北市泰山區工專路47號","121.422921666667","25.0401266666667","6501600","泰山區"
"243012","646-TV","2017/07/31 19:59:24","新北市泰山區全興路111號","121.433916666667","25.056605","6501600","泰山區"
"243016","680-BX","2017/07/31 19:59:18","新北市泰山區明志路三段513號","121.421493333333","25.0318966666667","6501600","泰山區"
"222003","436-BY","2017/07/31 19:59:23","新北市深坑區埔新街14號","121.62071","25.0039716666667","6501800","深坑區"
"222002","659-BX","2017/07/31 19:59:15","新北市深坑區北深路二段55巷12弄15號","121.61875","25.00316","6501800","深坑區"
"222001","696-SL","2017/07/31 19:59:16","新北市深坑區北深路三段143號","121.603538333333","25.0028116666667","6501800","深坑區"
"231041","002-UM","2017/07/31 19:59:23","新北市新店區中正路367號","121.534926666667","24.97642","6500600","新店區"
"231056","0291-UT","2017/07/31 19:59:16","新北市新店區中央路238號","121.529021666667","24.9720966666667","6500600","新店區"
"231059","046-UY","2017/07/31 19:59:26","新北市新店區安康路二段180號","121.511528333333","24.9602","6500600","新店區"
"231061","047-UY","2017/07/31 19:59:11","新北市新店區安民街382號","121.516253333333","24.97666","6500600","新店區"
"231060","106-UY","2017/07/31 19:59:31","新北市新店區安康路二段356號","121.50222","24.957415","6500600","新店區"
"231051","107-UY","2017/07/31 19:59:11","新北市新店區中央路218號","121.529678333333","24.9732316666667","6500600","新店區"
"231047","108-UY","2017/07/31 19:59:13","新北市新店區寶橋路162號","121.549123333333","24.9770966666667","6500600","新店區"
"231052","187-VK","2017/07/31 19:59:14","新北市新店區新烏路三段332號","121.546791666667","24.896225","6500600","新店區"
"231057","256-BX","2017/07/31 19:59:17","新北市新店區花園二路一段11號","121.5555","24.9325","6500600","新店區"
"231063","268-BY","2017/07/31 19:59:25","新北市新店區黎明路11號","121.502063333333","24.9499383333333","6500600","新店區"
"231050","AAD-862","2017/07/31 19:59:27","新北市新店區中生路61號","121.564736666667","24.952295","6500600","新店區"
"231055","3713-VJ","2017/07/31 19:59:25","新北市新店區中華路83巷67號","121.538348333333","24.9672583333333","6500600","新店區"
"231067","4772-VM","2017/07/31 19:59:19","新北市新店區秀山路11巷28號","121.531493333333","24.958635","6500600","新店區"
"231065","512-UM","2017/07/31 19:59:13","新北市新店區安祥路109巷17號","121.476056666667","24.959225","6500600","新店區"
"231054","513-UM","2017/07/31 19:59:20","新北市新店區光明街117號","121.539136666667","24.9615416666667","6500600","新店區"
"231064","515-UM","2017/07/31 19:59:11","新北市新店區碧安街3號","121.51683","24.9677833333333","6500600","新店區"
"231045","617-UM","2017/07/31 19:59:26","新北市新店區北宜路二段317號","121.55707","24.95385","6500600","新店區"
"231040","619-UM","2017/07/31 19:59:22","新北市新店區中正路106號","121.543196666667","24.970665","6500600","新店區"
"231042","641-BX","2017/07/31 19:59:15","新北市新店區中興路一段294號","121.546036666667","24.969335","6500600","新店區"
"231068","718-UY","2017/07/31 19:59:14","新北市新店區安華路28-1號","121.519168333333","24.961085","6500600","新店區"
"231049","719-UM","2017/07/31 19:59:24","新北市新店區民族路9號","121.541725","24.9786833333333","6500600","新店區"
"231062","720-UM","2017/07/31 19:59:18","新北市新店區華潭街14號","121.529438333333","24.952455","6500600","新店區"
"231044","897-TW","2017/07/31 19:59:17","新北市新店區復興路44-1號","121.538573333333","24.986715","6500600","新店區"
"231043","899-TW","2017/07/31 19:59:13","新北市新店區中正路263-2號","121.538446666667","24.97377","6500600","新店區"
"231066","AKT-0513","2017/07/31 19:59:16","新北市新店區柴埕路59號","121.51359","24.965075","6500600","新店區"
"241011","013-R5","2017/07/31 19:59:16","新北市三重區文化北路248號","121.497471666667","25.0699733333333","6500200","三重區"
"241028","022-UY","2017/07/31 19:59:30","新北市三重區中正南路14號","121.493485","25.0604733333333","6500200","三重區"
"241009","060-VK","2017/07/31 19:59:16","新北市三重區三和路四段390巷33號","121.480471666667","25.07864","6500200","三重區"
"241031","061-VK","2017/07/31 19:59:22","新北市三重區重新路四段184巷16號","121.487098333333","25.05487","6500200","三重區"
"241015","062-VK","2017/07/31 19:59:13","新北市三重區三和路二段17-1號","121.501175","25.0669233333333","6500200","三重區"
"241017","063-VK","2017/07/31 19:59:12","新北市三重區自強路一段282號","121.491796666667","25.06804","6500200","三重區"
"241024","065-VK","2017/07/31 19:59:19","新北市三重區力行路一段178巷17號","121.481388333333","25.0713783333333","6500200","三重區"
"241026","066-VK","2017/07/31 19:59:22","新北市三重區仁慈街22號","121.502073333333","25.0631183333333","6500200","三重區"
"241003","091-VK","2017/07/31 19:59:13","新北市三重區仁愛街445巷39號","121.49102","25.0828816666667","6500200","三重區"
"241023","156-TC","2017/07/31 19:59:19","新北市三重區自由街61號","121.478141666667","25.0666066666667","6500200","三重區"
"241005","262-UM","2017/07/31 19:59:15","新北市三重區溪尾街325巷25號","121.488631666667","25.0833583333333","6500200","三重區"
"241020","265-UM","2017/07/31 19:59:25","新北市三重區忠孝路一段101號","121.489435","25.07215","6500200","三重區"
"241016","266-UM","2017/07/31 19:59:23","新北市三重區正義北路32-1號","121.497436666667","25.063455","6500200","三重區"
"241022","267-UM","2017/07/31 19:59:22","新北市三重區新北大道一段9號","121.488835","25.0606483333333","6500200","三重區"
"241018","268-UM","2017/07/31 19:59:13","新北市三重區雙園街57巷9號","121.494788333333","25.0678983333333","6500200","三重區"
"241013","270-UM","2017/07/31 19:59:20","新北市三重區三和路三段125巷2號","121.493085","25.0734833333333","6500200","三重區"
"241025","271-UM","2017/07/31 19:59:28","新北市三重區頂崁街210巷33號","121.475498333333","25.06813","6500200","三重區"
"241007","398-BY","2017/07/31 19:59:30","新北市三重區慈愛街8號","121.484396666667","25.0784716666667","6500200","三重區"
"241008","412-TH","2017/07/31 19:59:14","新北市三重區永福街177巷6-1號","121.478538333333","25.074955","6500200","三重區"
"241035","462-BY","2017/07/31 19:59:29","新北市三重區大榮街9號","121.498238333333","25.0631","6500200","三重區"
"241004","475-VK","2017/07/31 19:59:14","新北市三重區五華街73號","121.492485","25.0827983333333","6500200","三重區"
"241019","478-VK","2017/07/31 19:59:10","新北市三重區重陽路四段16號","121.49067","25.06922","6500200","三重區"
"241030","480-VK","2017/07/31 19:59:33","新北市三重區成功路171號","121.486103333333","25.0526283333333","6500200","三重區"
"241014","543-UM","2017/07/31 19:59:28","新北市三重區三和路二段103號","121.499391666667","25.06857","6500200","三重區"
"241001","547-UM","2017/07/31 19:59:31","新北市三重區仁愛街283巷49號","121.494775","25.08001","6500200","三重區"
"241006","AAD-863","2017/07/31 19:59:13","新北市三重區力行路二段80號","121.481848333333","25.073855","6500200","三重區"
"241032","887-TS","2017/07/31 19:59:14","新北市三重區朝陽街26巷1弄16號","121.483065","25.0568233333333","6500200","三重區"
"241012","941-UM","2017/07/31 19:59:23","新北市三重區仁厚街56號","121.500343333333","25.0766266666667","6500200","三重區"
"241029","942-UM","2017/07/31 19:59:30","新北市三重區重新路三段157號","121.489798333333","25.0586916666667","6500200","三重區"
"241033","AAC-255","2017/07/31 19:59:30","新北市三重區中興北街77號","121.469526666667","25.04781","6500200","三重區"
"235066","003-UY","2017/07/31 19:59:25","新北市中和區中山路二段65號","121.504225","25.0045516666667","6500300","中和區"
"235056","096-UM","2017/07/31 19:59:23","新北市中和區中山路三段172號","121.472831666667","25.0063966666667","6500300","中和區"
"235039","097-UM","2017/07/31 19:59:16","新北市中和區大勇街27巷7號","121.517058333333","24.9935733333333","6500300","中和區"
"235065","098-UM","2017/07/31 19:59:15","新北市中和區福祥路90巷5號","121.499616666667","25.0057133333333","6500300","中和區"
"235040","150-BY","2017/07/31 19:59:17","新北市中和區保健路10巷21弄1號","121.507663333333","24.99696","6500300","中和區"
"235058","151-BY","2017/07/31 19:59:31","新北市中和區員山路150巷2弄5號","121.481686666667","24.998135","6500300","中和區"
"235055","183-VK","2017/07/31 19:59:15","新北市中和區德光路27巷21號","121.471093333333","25.003265","6500300","中和區"
"235038","185-VK","2017/07/31 19:59:29","新北市中和區立人街69巷7弄2號","121.520048333333","24.9935616666667","6500300","中和區"
"235049","186-VK","2017/07/31 19:59:13","新北市中和區景平路528號","121.502731666667","24.9943933333333","6500300","中和區"
"235067","255-BX","2017/07/31 19:59:14","新北市中和區中正路751巷3弄12號","121.484308333333","24.9994","6500300","中和區"
"235044","293-VK","2017/07/31 19:59:15","新北市中和區南山路162號","121.504763333333","24.9915833333333","6500300","中和區"
"235072","301-VK","2017/07/31 19:59:13","新北市八里區荖阡坑路34號","121.401775","25.12962","6500300","中和區"
"235043","352-BY","2017/07/31 19:58:54","新北市中和區興南路二段159巷12號","121.5052","24.9831216666667","6500300","中和區"
"235051","376-QA","2017/07/31 19:59:19","新北市中和區中興街202巷2號","121.49933","24.99011","6500300","中和區"
"235068","377-QA","2017/07/31 19:59:17","新北市中和區福美路301巷17號","121.497596666667","25.0041516666667","6500300","中和區"
"235061","378-QA","2017/07/31 19:59:25","新北市中和區員山路226巷7弄1號","121.481766666667","25.0005883333333","6500300","中和區"
"235050","4979-A6","2017/07/31 19:59:14","新北市中和區景平路155號","121.513365","24.9919633333333","6500300","中和區"
"235069","4980-A6","2017/07/31 19:59:28","新北市中和區南山路127巷27弄14號","121.50335","24.997955","6500300","中和區"
"235070","558-UM","2017/07/31 19:59:12","新北市中和區連勝街26巷6號","121.498218333333","24.9981166666667","6500300","中和區"
"235054","640-BX","2017/07/31 19:59:25","新北市中和區莒光路95號","121.472501666667","25.0030783333333","6500300","中和區"
"235060","647-TV","2017/07/31 19:59:10","新北市中和區新生街30巷7號","121.482853333333","25.0038316666667","6500300","中和區"
"235047","732-UM","2017/07/31 19:59:20","新北市中和區和平街74號","121.507798333333","24.9911466666667","6500300","中和區"
"235046","733-UM","2017/07/31 19:59:22","新北市中和區興南路一段91號","121.509713333333","24.9887233333333","6500300","中和區"
"235057","801-TS","2017/07/31 19:59:26","新北市中和區民樂路22號","121.482418333333","25.0012333333333","6500300","中和區"
"235041","802-TS","2017/07/31 19:59:20","新北市永和區安樂路250-2號","121.514515","25.0037516666667","6500300","中和區"
"235052","805-TS","2017/07/31 19:59:18","新北市中和區華新街144巷9號","121.507513333333","24.9831933333333","6500300","中和區"
"235048","896-TW","2017/07/31 19:59:20","新北市中和區興南路一段8號","121.511496666667","24.9914316666667","6500300","中和區"
"235053","900-TW","2017/07/31 19:59:20","新北市中和區國光街189巷12弄2號","121.467426666667","25.0015383333333","6500300","中和區"
"235037","AAC-213","2017/07/31 19:59:14","新北市中和區秀朗路三段128巷1弄1號","121.52468","24.99215","6500300","中和區"
"235059","AAC-215","2017/07/31 19:59:19","新北市中和區圓通路305巷5弄4號","121.493646666667","24.99029","6500300","中和區"
"220068","013-TV","2017/07/31 19:59:27","新北市板橋區光復街70號","121.482761666667","25.0185183333333","6500100","板橋區"
"220065","072-UY","2017/07/31 19:59:26","新北市板橋區民族路223號","121.469596666667","25.0071816666667","6500100","板橋區"
"220086","073-UY","2017/07/31 19:59:30","新北市板橋區南雅西路二段7巷25號","121.451946666667","25.0094816666667","6500100","板橋區"
"220106","075-UY","2017/07/31 19:59:24","新北市板橋區民治街71巷33號","121.480576666667","25.0332516666667","6500100","板橋區"
"220069","AAD-861","2017/07/31 19:59:29","新北市板橋區貴興路121號","121.455635","25.00229","6500100","板橋區"
"247020","893-R6","2017/07/31 19:59:26","新北市蘆洲區民義街66號","121.472973333333","25.0898","6501400","蘆洲區"
"247018","500-BY","2017/07/31 19:59:20","新北市蘆洲區民族路300號","121.477626666667","25.08993","6501400","蘆洲區"
"247006","341-TH","2017/07/31 19:59:23","新北市蘆洲區九芎街82號","121.46624","25.0794183333333","6501400","蘆洲區"
"247008","339-TH","2017/07/31 19:59:11","新北市蘆洲區中山一路97巷32弄6號","121.475531666667","25.0811033333333","6501400","蘆洲區"
"247024","337-TH","2017/07/31 19:59:28","新北市蘆洲區光榮路120巷12號","121.465275","25.088375","6501400","蘆洲區"
"247002","336-TH","2017/07/31 19:59:28","新北市蘆洲區長安街274巷6弄1號","121.457776666667","25.0869833333333","6501400","蘆洲區"
"247014","057-VK","2017/07/31 19:59:15","新北市蘆洲區中山二路107號","121.47253","25.0817883333333","6501400","蘆洲區"
"247004","056-VK","2017/07/31 19:59:24","新北市蘆洲區永安南路二段292號","121.457303333333","25.0816816666667","6501400","蘆洲區"
"247012","007-UY","2017/07/31 19:59:18","新北市蘆洲區民族路228號","121.47958","25.0881583333333","6501400","蘆洲區"
"247022","002-UY","2017/07/31 19:59:25","新北市蘆洲區中正路285號","121.466846666667","25.0879583333333","6501400","蘆洲區"
"247016","001-UY","2017/07/31 19:59:21","新北市蘆洲區光華路112號","121.467098333333","25.0825916666667","6501400","蘆洲區"
"226004","312-R5","2017/07/31 19:59:22","新北市平溪區靜安路二段540巷13號","121.746653333333","25.0264833333333","6502400","平溪區"
"228003","097-TW","2017/07/31 19:59:14","新北市貢寮區仁理村仁和路192號","121.92349","25.05265","6502600","貢寮區"
"224010","AGQ-8101","2017/07/31 19:58:30","新北市瑞芳區基山街263號","121.841246666667","25.107365","6501200","瑞芳區"
"224011","420-VK","2017/07/31 19:59:16","新北市瑞芳區崙頂路3-1號","121.847015","25.1047016666667","6501200","瑞芳區"
"227008","642-TC","2017/07/31 19:59:12","新北市雙溪區新基里新基南街24號","121.86627","25.0381783333333","6502500","雙溪區"
"227001","400-TW","2017/07/31 19:59:28","新北市雙溪區共和里東榮街18號","121.86556","25.03412","6502500","雙溪區"
"208003","665-BX","2017/07/31 19:59:13","新北市金山區永興里濆水路2號","121.624848333333","25.270295","6502700","金山區"
"251009","008-UM","2017/07/31 19:08:20","新北市淡水區中正路90-3號","121.442411666667","25.1696166666667","6501000","淡水區"
"251004","009-UM","2017/07/31 19:59:17","新北市淡水區民權路173巷15號","121.460681666667","25.1355","6501000","淡水區"
"251008","181-VK","2017/07/31 19:59:33","新北市淡水區淡海路63巷2號","121.422843333333","25.180895","6501000","淡水區"
"251013","182-VK","2017/07/31 19:59:18","新北市淡水區奎柔山路63號","121.451678333333","25.206175","6501000","淡水區"
"251010","413-VK","2017/07/31 19:59:29","新北市淡水區崁頂92號","121.429715","25.2032083333333","6501000","淡水區"
"251012","441-VK","2017/07/31 19:59:22","新北市淡水區下圭柔山61-5號","121.447733333333","25.2050916666667","6501000","淡水區"
"251015","442-VK","2017/07/31 19:59:15","新北市淡水區淡金路二段599號","121.446786666667","25.1920016666667","6501000","淡水區"
"251005","443-VK","2017/07/31 19:59:22","新北市淡水區學府路136巷1號","121.450755","25.1730183333333","6501000","淡水區"
"251001","559-UM","2017/07/31 19:59:22","新北市淡水區淡金路218-1號","121.460811666667","25.16782","6501000","淡水區"
"251006","561-UM","2017/07/31 19:59:16","新北市淡水區水碓街40巷1號","121.44445","25.1773316666667","6501000","淡水區"
"251011","650-BX","2017/07/31 19:59:08","新北市淡水區中山北路三段159號","121.445305","25.1964516666667","6501000","淡水區"
"207003","550-UM","2017/07/31 19:59:26","新北市萬里區大鵬里萬里加投61號","121.641183333333","25.2129316666667","6502800","萬里區"
"207004","225-TW","2017/07/31 19:59:12","新北市萬里區北基里忠二街35號","121.685648333333","25.1757283333333","6502800","萬里區"
"252002","178-VK","2017/07/31 19:59:24","新北市三芝區忠孝街116-3號","121.505521666667","25.2575716666667","6502100","三芝區"
"252001","292-VK","2017/07/31 19:59:28","新北市三芝區公正街9號","121.499771666667","25.25753","6502100","三芝區"
"252005","AAC-283","2017/07/31 15:49:10","新北市三芝區埔坪里埔頭坑41號","121.504558333333","25.2644266666667","6502100","三芝區"
"208002","170-UY","2017/07/31 19:59:29","新北市金山區環金路65號","121.637811666667","25.217385","6502700","金山區"
"237004","078-UY","2017/07/31 19:59:12","新北市三峽區嘉添191號","121.369461666667","24.9114883333333","6500900","三峽區"
"237007","153-BY","2017/07/31 19:59:17","新北市三峽區二鬮路136巷20弄45號","121.3574","24.90999","6500900","三峽區"
"237009","210-TH","2017/07/31 19:59:10","新北市三峽區民族街28巷7號","121.368803333333","24.9307816666667","6500900","三峽區"
"237012","275-BY","2017/07/31 19:59:21","新北市三峽區中華路3巷6-1號","121.375005","24.9311816666667","6500900","三峽區"
"237008","302-VK","2017/07/31 19:59:18","新北市三峽區安溪路345號","121.37004","24.9263983333333","6500900","三峽區"
"237014","433-BY","2017/07/31 19:59:24","新北市三峽區正義街11號","121.36993","24.9199433333333","6500900","三峽區"
"237006","5529-G3","2017/07/31 19:59:11","新北市三峽區中正路二段176巷22號","121.365345","24.91488","6500900","三峽區"
"237015","649-BX","2017/07/31 19:59:26","新北市三峽區橫溪路99巷64號","121.40052","24.9375083333333","6500900","三峽區"
"237005","AKY-6261","2017/07/31 19:59:11","新北市三峽區民生街1巷29號","121.382895","24.9334983333333","6500900","三峽區"
"236069","105-UM","2017/07/31 19:59:25","新北市土城區忠義路77-1號","121.44266","24.9654566666667","6501300","土城區"
"236042","107-UM","2017/07/31 19:59:29","新北市土城區學府路一段143巷18號","121.454083333333","24.9856216666667","6501300","土城區"
"236078","166-UM","2017/07/31 19:59:19","新北市土城區福安街108號","121.417171666667","24.964","6501300","土城區"
"236030","253-BX","2017/07/31 19:59:24","新北市土城區中央路一段250巷2-7號","121.443616666667","24.9849016666667","6501300","土城區"
"236026","269-VK","2017/07/31 19:59:19","新北市土城區員林街71巷11號","121.444961666667","24.97743","6501300","土城區"
"236014","270-VK","2017/07/31 19:59:26","新北市土城區廣福街123號","121.456233333333","24.9929033333333","6501300","土城區"
"236036","271-VK","2017/07/31 19:59:31","新北市土城區國際路116號","121.46753","24.9756183333333","6501300","土城區"
"236020","401-BY","2017/07/31 19:59:14","新北市土城區延吉街165巷5號","121.470316666667","24.9853133333333","6501300","土城區"
"236058","912-UM","2017/07/31 19:59:15","新北市土城區中央路一段102號","121.446705","24.988425","6501300","土城區"
"236048","913-UM","2017/07/31 19:59:30","新北市土城區金城路三段192號","121.46838","24.98799","6501300","土城區"
"236062","915-UM","2017/07/31 19:59:21","新北市土城區延和路62巷15號","121.466116666667","24.9885583333333","6501300","土城區"
"236053","AAC-216","2017/07/31 19:59:17","新北市土城區延和路19號","121.464215","24.98822","6501300","土城區"
"242021","AAC-296","2017/07/31 19:59:19","新北市新莊區建中街16巷22弄4號","121.4494","25.0386333333333","6500500","新莊區"
"242029","986-R7","2017/07/31 19:59:13","新北市新莊區中平路304號","121.444731666667","25.0518616666667","6500500","新莊區"
"242048","751-BX","2017/07/31 19:59:20","新北市新莊區後港二路1號","121.423243333333","25.0246666666667","6500500","新莊區"
"242025","615-BX","2017/07/31 19:59:17","新北市新莊區五工二路86巷25號","121.460308333333","25.0671033333333","6500500","新莊區"
"242023","613-BX","2017/07/31 19:59:13","新北市新莊區化成路374號","121.465875","25.0498116666667","6500500","新莊區"
"242027","612-BX","2017/07/31 19:59:25","新北市新莊區立信三街35巷5號","121.442855","25.050735","6500500","新莊區"
"242036","566-BX","2017/07/31 19:59:23","新北市新莊區建安街37號","121.428936666667","25.0255633333333","6500500","新莊區"
"242004","442-UM","2017/07/31 19:59:23","新北市新莊區化成路362號","121.465856666667","25.049525","6500500","新莊區"
"242050","440-UM","2017/07/31 19:59:28","新北市新莊區民本街43巷11號","121.428488333333","25.01835","6500500","新莊區"
"242031","415-TV","2017/07/31 19:59:27","新北市新莊區公園一路61號","121.443061666667","25.036425","6500500","新莊區"
"242002","413-TV","2017/07/31 19:59:28","新北市新莊區中正路100號","121.45468","25.0366383333333","6500500","新莊區"
"242039","400-BY","2017/07/31 19:59:24","新北市新莊區民安路270號","121.427576666667","25.0213766666667","6500500","新莊區"
"242060","362-BY","2017/07/31 19:59:10","新北市新莊區瓊泰路1號","121.445093333333","25.0285816666667","6500500","新莊區"
"242058","353-BY","2017/07/31 19:59:22","新北市新莊區八德街111號","121.4241","25.0209533333333","6500500","新莊區"
"242042","132-UY","2017/07/31 19:59:26","新北市新莊區青山路一段30號","121.410721666667","25.0277033333333","6500500","新莊區"
"242034","133-UY","2017/07/31 19:59:25","新北市新莊區建中街84號","121.44718","25.03674","6500500","新莊區"
"242019","135-UY","2017/07/31 19:59:25","新北市新莊區民生街23號","121.456126666667","25.0422583333333","6500500","新莊區"
"242044","172-VK","2017/07/31 19:59:22","新北市新莊區中正路746巷45-1號","121.411481666667","25.0253716666667","6500500","新莊區"
"242007","173-VK","2017/07/31 19:59:30","新北市新莊區思源路595號","121.45945","25.059655","6500500","新莊區"
"242013","175-VK","2017/07/31 19:59:14","新北市新莊區中港路435號","121.452436666667","25.047965","6500500","新莊區"
"242056","176-VK","2017/07/31 19:59:22","新北市新莊區中正路347巷17弄4號","121.447346666667","25.03434","6500500","新莊區"
"242011","346-TH","2017/07/31 19:59:18","新北市新莊區中港路531巷70號","121.45046","25.0516366666667","6500500","新莊區"
"242017","348-TH","2017/07/31 19:59:18","新北市新莊區中安街5巷3號","121.452698333333","25.0456316666667","6500500","新莊區"
"242015","350-TH","2017/07/31 19:59:27","新北市新莊區復興路一段47巷9號","121.44678","25.0426383333333","6500500","新莊區"
"242009","351-TH","2017/07/31 19:59:29","新北市新莊區昌盛街25號","121.453725","25.0499483333333","6500500","新莊區"
"238015","755-BX","2017/07/31 19:59:18","新北市樹林區中山路三段48號","121.394123333333","24.9723933333333","6500700","樹林區"
"238023","601-UM","2017/07/31 19:59:28","新北市樹林區三寶街12號","121.40657","25.0154966666667","6500700","樹林區"
"238021","311-TH","2017/07/31 19:59:19","新北市樹林區佳園路三段159號","121.385505","24.9488783333333","6500700","樹林區"
"238017","283-BY","2017/07/31 19:59:23","新北市樹林區保安街二段105號","121.415366666667","25.001255","6500700","樹林區"
"238020","268-VK","2017/07/31 18:02:01","新北市樹林區俊興街244號","121.418341666667","25.01604","6500700","樹林區"
"239006","891-R6","2017/07/31 19:59:25","新北市鶯歌區文化路57號","121.358631666667","24.9562766666667","6500800","鶯歌區"
"221008","489-VK","2017/07/31 19:59:31","台北市內湖區東湖路163號","121.617688333333","25.0677366666667","6501100","汐止區"
"221036","130-UY","2017/07/31 19:59:27","新北市汐止區忠孝東路258巷11弄1號","121.663798333333","25.067315","6501100","汐止區"
"221015","131-UY","2017/07/31 19:59:22","新北市汐止區橋東街7號","121.666681666667","25.0760033333333","6501100","汐止區"
"221010","269-BY","2017/07/31 19:59:19","新北市汐止區連峰街128號","121.646181666667","25.0791233333333","6501100","汐止區"
"221012","278-VK","2017/07/31 15:10:27","新北市汐止區汐萬路一段256巷1號","121.651725","25.0748833333333","6501100","汐止區"
"221023","279-VK","2017/07/31 02:22:23","新北市汐止區康寧街901號","121.651836666667","25.07504","6501100","汐止區"
"221032","280-BY","2017/07/31 19:59:13","新北市汐止區力行街59巷7號","121.617205","25.0495783333333","6501100","汐止區"
"221027","281-BY","2017/07/31 19:59:27","新北市汐止區中正路62號","121.661731666667","25.0700516666667","6501100","汐止區"
"221038","297-VK","2017/07/31 19:59:24","新北市汐止區忠孝東路428-2號","121.666006666667","25.07208","6501100","汐止區"
"221029","298-VK","2017/07/31 19:59:13","新北市汐止區樟樹一路139巷23號","121.64102","25.0660933333333","6501100","汐止區"
"221021","299-VK","2017/07/31 19:48:46","新北市汐止區莊敬街70號","121.656298333333","25.0614833333333","6501100","汐止區"
"221031","353-TW","2017/07/31 19:59:22","新北市汐止區福德一路176巷14號","121.635318333333","25.06657","6501100","汐止區"
"221035","622-UM","2017/07/31 19:59:31","新北市汐止區長江街39巷10號","121.655496666667","25.071865","6501100","汐止區"
"221025","623-UM","2017/07/31 19:59:23","新北市汐止區仁愛路77巷3號","121.660998333333","25.0634233333333","6501100","汐止區"
"221033","647-BX","2017/07/31 19:59:20","新北市汐止區東勢街190巷1號","121.633848333333","25.04165","6501100","汐止區"
"221018","753-BX","2017/07/31 19:59:21","新北市汐止區茄苳路277號","121.672391666667","25.067915","6501100","汐止區"
"220079","145-BY","2017/07/31 19:59:22","新北市板橋區僑中一街124巷72-3號","121.448415","25.0168883333333","6500100","板橋區"
"220080","200-UY","2017/07/31 19:59:28","新北市板橋區大觀路二段163巷14號","121.445958333333","25.0002216666667","6500100","板橋區"
"220082","610-BX","2017/07/31 19:59:25","新北市板橋區金門街184-3號","121.432658333333","24.9908533333333","6500100","板橋區"
"220101","245-BX","2017/07/31 19:59:26","新北市板橋區縣民大道三段33巷17-1號","121.473895","25.0212333333333","6500100","板橋區"
"220072","277-BY","2017/07/31 19:59:24","新北市板橋區金門街127巷14號","121.433566666667","24.9910866666667","6500100","板橋區"
"220094","283-UM","2017/07/31 19:59:23","新北市板橋區陽明街106號","121.464016666667","25.0233083333333","6500100","板橋區"
"220071","283-VK","2017/07/31 19:59:30","新北市板橋區五權街30巷37弄5號","121.46355","24.9925383333333","6500100","板橋區"
"220053","285-VK","2017/07/31 19:59:20","新北市板橋區永豐街53號","121.474065","25.0181133333333","6500100","板橋區"
"220083","286-VK","2017/07/31 19:59:31","新北市板橋區僑中二街8巷19號","121.44619","25.01128","6500100","板橋區"
"220081","287-VK","2017/07/31 19:59:23","新北市板橋區大觀路一段28巷101號","121.449993333333","25.0119833333333","6500100","板橋區"
"220090","288-VK","2017/07/31 19:59:17","新北市板橋區幸福路32巷2弄47號","121.460675","25.0223566666667","6500100","板橋區"
"220061","295-UM","2017/07/31 19:59:17","新北市板橋區觀光街1巷9號","121.471918333333","25.0153616666667","6500100","板橋區"
"220084","296-UM","2017/07/31 19:59:27","新北市板橋區溪崑二街92巷8號","121.426533333333","24.9893916666667","6500100","板橋區"
"220075","297-UM","2017/07/31 19:59:16","新北市板橋區金華街10巷120號","121.459371666667","25.0205166666667","6500100","板橋區"
"220062","303-R5","2017/07/31 19:59:19","新北市板橋區萬安街20巷4弄16號","121.485236666667","25.022945","6500100","板橋區"
"220092","307-R5","2017/07/31 19:59:22","新北市板橋區互助街66號","121.46109","25.026735","6500100","板橋區"
"220098","317-R6","2017/07/31 19:59:19","新北市板橋區新海路72巷48號","121.462058333333","25.0230216666667","6500100","板橋區"
"220064","486-VK","2017/07/31 19:59:31","新北市板橋區漢生東路193巷13號","121.470605","25.011925","6500100","板橋區"
"220089","487-VK","2017/07/31 19:59:21","新北市板橋區龍泉街112號","121.456941666667","25.0245316666667","6500100","板橋區"
"220088","491-VK","2017/07/31 19:59:25","新北市板橋區大同街69號","121.479358333333","25.028055","6500100","板橋區"
"220035","560-BX","2017/07/31 19:59:15","新北市板橋區新生街53巷3弄12號","121.457045","25.0217616666667","6500100","板橋區"
"220103","561-BX","2017/07/31 19:59:19","新北市板橋區陽明街29巷1弄1號","121.465011666667","25.0213933333333","6500100","板橋區"
"220063","609-BX","2017/07/31 19:59:26","新北市板橋區中山路二段133號","121.475351666667","25.0164916666667","6500100","板橋區"
"220091","637-BX","2017/07/31 19:59:25","新北市板橋區文聖街86號","121.477588333333","25.029535","6500100","板橋區"
"220057","686-BX","2017/07/31 19:59:14","新北市板橋區信義路16-7號","121.457026666667","24.9955316666667","6500100","板橋區"
"220093","689-BX","2017/07/31 19:59:26","新北市板橋區長江路二段265號","121.469461666667","25.0328633333333","6500100","板橋區"
"220054","741-BX","2017/07/31 19:59:17","新北市板橋區實踐路93巷10號","121.46447","25.0053483333333","6500100","板橋區"
"220055","827-TW","2017/07/31 19:59:15","新北市板橋區仁愛路64號","121.459846666667","24.99943","6500100","板橋區"
"220067","829-TW","2017/07/31 19:59:15","新北市板橋區長安街331巷93弄9號","121.472165","25.01239","6500100","板橋區"
"220102","830-TW","2017/07/31 19:59:15","新北市板橋區仁化街42巷7號","121.475456666667","25.031375","6500100","板橋區"
"220096","831-TW","2017/07/31 19:59:25","新北市板橋區莒光路39巷18號","121.471086666667","25.0252233333333","6500100","板橋區"
"220074","895-R6","2017/07/31 19:59:14","新北市板橋區文化路一段46巷23號","121.460368333333","25.0114633333333","6500100","板橋區"
"220073","985-R7","2017/07/31 19:59:19","新北市板橋區南雅西路二段124號","121.452095","25.0125133333333","6500100","板橋區"
"220097","AAC-210","2017/07/31 19:59:18","新北市板橋區光正街40號","121.461823333333","25.0172933333333","6500100","板橋區"
"220070","AAC-253","2017/07/31 19:59:23","新北市板橋區民族路170號","121.467591666667","25.0078683333333","6500100","板橋區"
