"lineid","car","time","location","longitude","latitude","cityid","cityname"
"231059","046-UY","2017/07/31 21:19:26","新北市新店區安豐路45號","121.50026","24.9551316666667","6500600","新店區"
"231061","047-UY","2017/07/31 21:19:11","新北市新店區安和路三段61號","121.517946666667","24.983425","6500600","新店區"
"231051","107-UY","2017/07/31 21:19:19","新北市新店區中正路700巷80號","121.53613","24.9930833333333","6500600","新店區"
"231047","108-UY","2017/07/31 21:19:13","新北市新店區溪園路365-8號","121.520815","24.9808233333333","6500600","新店區"
"231063","268-BY","2017/07/31 21:19:25","新北市新店區玫瑰路57巷5號","121.49597","24.9462633333333","6500600","新店區"
"231050","AAD-862","2017/07/31 21:19:27","新北市新店區華興街6號","121.537955","24.9699666666667","6500600","新店區"
"231067","4772-VM","2017/07/31 21:19:18","新北市新店區安德街173號","121.508655","24.9590083333333","6500600","新店區"
"231065","512-UM","2017/07/31 21:19:20","新北市新店區安祥路63號","121.484036666667","24.9603183333333","6500600","新店區"
"231040","619-UM","2017/07/31 21:19:22","新北市新店區光明街231號","121.540318333333","24.96445","6500600","新店區"
"231062","720-UM","2017/07/31 21:19:17","新北市新店區雙城路21號","121.492365","24.95","6500600","新店區"
"241011","013-R5","2017/07/31 21:19:16","新北市三重區龍濱路197號","121.501875","25.0713666666667","6500200","三重區"
"241028","022-UY","2017/07/31 21:19:30","新北市三重區正義南路169號","121.498973333333","25.0575033333333","6500200","三重區"
"241009","060-VK","2017/07/31 21:19:16","新北市三重區忠孝路三段2號","121.481971666667","25.067755","6500200","三重區"
"241031","061-VK","2017/07/31 21:19:22","新北市三重區五谷王南街46巷37號","121.475735","25.0455183333333","6500200","三重區"
"241017","063-VK","2017/07/31 21:19:12","新北市三重區中正北路25巷25弄2號","121.493236666667","25.0626483333333","6500200","三重區"
"241024","065-VK","2017/07/31 21:19:19","新北市三重區中正北路145巷8弄2號","121.484078333333","25.0677616666667","6500200","三重區"
"241026","066-VK","2017/07/31 21:19:22","新北市三重區大同南路220號","121.49681","25.056225","6500200","三重區"
"241002","090-VK","2017/07/31 21:19:18","新北市三重區五華街19-3號","121.49477","25.0805316666667","6500200","三重區"
"241003","091-VK","2017/07/31 21:19:18","新北市三重區五華街71巷118號","121.49507","25.0846116666667","6500200","三重區"
"241023","156-TC","2017/07/31 21:19:19","新北市三重區忠孝路三段40巷21號","121.482573333333","25.06595","6500200","三重區"
"241005","262-UM","2017/07/31 21:19:15","新北市三重區三信路186號","121.48803","25.0860233333333","6500200","三重區"
"241016","266-UM","2017/07/31 21:19:23","新北市三重區自強路一段95號","121.49592","25.0663416666667","6500200","三重區"
"241018","268-UM","2017/07/31 21:19:12","新北市三重區忠孝路一段129號","121.488681666667","25.072035","6500200","三重區"
"241013","270-UM","2017/07/31 21:19:20","新北市三重區仁愛街64號","121.495851666667","25.0730933333333","6500200","三重區"
"241007","398-BY","2017/07/31 21:19:27","新北市三重區忠孝路一段70號","121.489613333333","25.0720666666667","6500200","三重區"
"241008","412-TH","2017/07/31 21:19:14","新北市三重區自強路一段62號","121.49735","25.0666616666667","6500200","三重區"
"241004","475-VK","2017/07/31 21:19:14","新北市三重區仁愛街418號","121.49044","25.0814066666667","6500200","三重區"
"241019","478-VK","2017/07/31 21:19:30","新北市三重區重陽路四段2號","121.49045","25.06882","6500200","三重區"
"241030","480-VK","2017/07/31 21:19:18","新北市三重區五谷王北街42巷2號","121.475603333333","25.0485583333333","6500200","三重區"
"241014","543-UM","2017/07/31 21:19:28","新北市三重區萬全街18號","121.499315","25.06976","6500200","三重區"
"241006","AAD-863","2017/07/31 21:19:13","新北市三重區新北大道一段7號","121.489665","25.0612266666667","6500200","三重區"
"241032","887-TS","2017/07/31 21:19:14","新北市三重區光復路一段138-8號","121.470661666667","25.0527583333333","6500200","三重區"
"241012","941-UM","2017/07/31 21:19:23","新北市三重區龍門路239號","121.501976666667","25.0740316666667","6500200","三重區"
"241033","AAC-255","2017/07/31 21:19:29","新北市三重區光復路二段102巷23號","121.470383333333","25.0581333333333","6500200","三重區"
"235072","301-VK","2017/07/31 20:55:29","新北市中和區員山路36巷13號","121.483993333333","24.9912083333333","6500300","中和區"
"235026","800-TS","2017/07/31 21:19:18","新北市中和區員山路36巷16-3號","121.484885","24.99162","6500300","中和區"
"247020","893-R6","2017/07/31 21:19:26","新北市蘆洲區復興路323巷368號","121.474096666667","25.0939266666667","6501400","蘆洲區"
"247010","546-UM","2017/07/31 21:19:29","新北市蘆洲區鷺江街23號","121.478853333333","25.0824733333333","6501400","蘆洲區"
"247018","500-BY","2017/07/31 21:19:20","新北市蘆洲區復興路105巷9號","121.476391666667","25.0883183333333","6501400","蘆洲區"
"247006","341-TH","2017/07/31 21:19:23","新北市蘆洲區中華街40號","121.462351666667","25.0809","6501400","蘆洲區"
"247008","339-TH","2017/07/31 21:19:11","新北市蘆洲區民生街9號","121.475963333333","25.0791483333333","6501400","蘆洲區"
"247024","337-TH","2017/07/31 21:19:28","新北市蘆洲區光明路116號","121.463733333333","25.08832","6501400","蘆洲區"
"247002","336-TH","2017/07/31 21:19:12","新北市蘆洲區永樂街38巷40號","121.458635","25.09015","6501400","蘆洲區"
"247014","057-VK","2017/07/31 21:19:14","新北市蘆洲區保和街24號","121.47055","25.0866016666667","6501400","蘆洲區"
"247004","056-VK","2017/07/31 21:19:24","新北市蘆洲區環堤大道2-1號","121.4569","25.0825816666667","6501400","蘆洲區"
"247012","007-UY","2017/07/31 21:19:17","新北市蘆洲區中興街114號","121.482316666667","25.08883","6501400","蘆洲區"
"247022","002-UY","2017/07/31 21:19:25","新北市蘆洲區三民路241-13號","121.468713333333","25.088865","6501400","蘆洲區"
"247016","001-UY","2017/07/31 21:19:21","新北市蘆洲區中正路185巷78弄1號","121.466188333333","25.084295","6501400","蘆洲區"
"224011","420-VK","2017/07/31 20:41:52","新北市瑞芳區明燈路二段66號","121.809316666667","25.10759","6501200","瑞芳區"
"251009","008-UM","2017/07/31 21:19:23","新北市淡水區民族路35號","121.46245","25.1357483333333","6501000","淡水區"
"251004","009-UM","2017/07/31 21:19:17","新北市淡水區民族路33號","121.46229","25.1358","6501000","淡水區"
"251008","181-VK","2017/07/31 21:19:25","新北市淡水區水源街二段227號","121.460433333333","25.1764333333333","6501000","淡水區"
"251013","182-VK","2017/07/31 21:19:18","新北市淡水區行忠路328號","121.460475","25.19959","6501000","淡水區"
"251010","413-VK","2017/07/31 21:19:29","新北市淡水區中正路一段156巷12號","121.42182","25.1808116666667","6501000","淡水區"
"251012","441-VK","2017/07/31 21:19:21","新北市淡水區石頭埔10-1號","121.451926666667","25.232665","6501000","淡水區"
"251015","442-VK","2017/07/31 21:19:15","新北市淡水區牛埔子11-1號","121.450055","25.2190083333333","6501000","淡水區"
"251005","443-VK","2017/07/31 21:19:22","新北市淡水區博愛街1號","121.446073333333","25.1703966666667","6501000","淡水區"
"251001","559-UM","2017/07/31 21:19:22","新北市淡水區中山北路二段185號","121.44416","25.1851883333333","6501000","淡水區"
"251011","650-BX","2017/07/31 21:19:28","新北市淡水區新民街120巷29號","121.438833333333","25.1788233333333","6501000","淡水區"
"251002","672-BX","2017/07/31 21:16:27","新北市淡水區學府路172巷21號","121.448301666667","25.1749183333333","6501000","淡水區"
"251003","766-UM","2017/07/31 21:19:23","新北市淡水區新春街85巷25弄39號","121.438963333333","25.18479","6501000","淡水區"
"252005","AAC-283","2017/07/31 15:49:10","新北市三芝區埔坪里埔頭坑41號","121.504558333333","25.2644266666667","6502100","三芝區"
"242034","133-UY","2017/07/31 21:19:25","新北市樹林區中山路三段210-2號","121.381478333333","24.9655716666667","6500500","新莊區"
"221018","753-BX","2017/07/31 21:19:20","新北市汐止區汐萬路一段256巷1號","121.651928333333","25.07481","6501100","汐止區"
"220070","AAC-253","2017/07/31 21:19:22","新北市八里區商港路6號","121.39704","25.1442283333333","6500100","板橋區"
