"lineid","car","time","location","longitude","latitude","cityid","cityname"
"241024","065-VK","2017/07/31 22:57:19","新北市三重區重新路四段121號","121.484906666667","25.0518666666667","6500200","三重區"
"235026","800-TS","2017/07/31 21:54:02","新北市中和區員山路36巷16-3號","121.484841666667","24.9916466666667","6500300","中和區"
"251007","577-R6","2017/07/31 22:57:25","新北市淡水區下圭柔山90-8號","121.431335","25.2101983333333","6501000","淡水區"
"252005","AAC-283","2017/07/31 15:49:10","新北市三芝區埔坪里埔頭坑41號","121.504558333333","25.2644266666667","6502100","三芝區"
"242048","751-BX","2017/07/31 21:58:38","新北市新莊區新泰路357巷3弄57號","121.442133333333","25.039275","6500500","新莊區"
