"lineid","car","time","location","longitude","latitude","cityid","cityname"
"248005","653-BX","2017/12/09 08:26:03","新北市五股區明德路8號","121.433406666667","25.07164","6501500","五股區"
"222004","289-BY","2017/12/09 08:39:54","新北市深坑區大崙尾1-1號","121.615483333333","24.9753116666667","6501800","深坑區"
"231007","189-VK","2017/12/09 08:39:55","新北市新店區新潭路三段181-1號","121.509731666667","24.9075383333333","6500600","新店區"
"231008","192-VK","2017/12/09 08:39:38","新北市新店區新烏路三段165巷1號","121.553553333333","24.9014766666667","6500600","新店區"
"226005","5620-A6","2017/12/09 08:39:36","新北市平溪區十分里十分街238號","121.778048333333","25.0441633333333","6502400","平溪區"
"226002","7418-A5","2017/12/09 08:39:45","新北市平溪區東勢里芊蓁林9-1號","121.735708333333","24.9904183333333","6502400","平溪區"
"226003","AGD-0702","2017/12/09 08:39:50","新北市平溪區十分里十分街241號","121.777925","25.044205","6502400","平溪區"
"223006","022-BY","2017/12/09 08:33:31","新北市深坑區昇高坑路51-1號","121.630526666667","24.9939566666667","6501900","石碇區"
"223002","198-BX","2017/12/09 08:39:50","新北市石碇區石崁1號","121.651993333333","25.0002283333333","6501900","石碇區"
"223008","406-TH","2017/12/09 08:39:37","新北市石碇區石汐路1號","121.678595","25.03426","6501900","石碇區"
"223001","437-BY","2017/12/09 08:39:37","新北市石碇區北宜路六段十三股巷1號","121.648695","24.9480433333333","6501900","石碇區"
"223004","660-BX","2017/12/09 08:39:41","新北市石碇區崩山24-5號","121.679175","24.9695433333333","6501900","石碇區"
"223007","661-BX","2017/12/09 08:39:39","新北市石碇區碇南路二段鹿窟巷2號","121.673256666667","25.0301433333333","6501900","石碇區"
"223005","677-TV","2017/12/09 08:39:47","新北市石碇區崩山43-2號","121.680411666667","24.96677","6501900","石碇區"
"227006","282-VK","2017/12/09 08:39:55","新北市雙溪區上林里大瀨1號","121.830053333333","25.0249783333333","6502500","雙溪區"
"252004","249-BX","2017/12/09 08:39:33","新北市三芝區興華里楓子林38號","121.49061","25.2079483333333","6502100","三芝區"
"252007","AAC-283","2017/12/09 08:39:48","新北市三芝區錫板里番婆林43號","121.493611666667","25.232445","6502100","三芝區"
"237001","159-UY","2017/12/09 08:39:48","新北市三峽區大觀路337號","121.373233333333","24.9473066666667","6500900","三峽區"
"236011","165-UM","2017/12/09 08:39:42","新北市土城區金城路二段46巷1-24號","121.453646666667","24.97559","6501300","土城區"
"236002","339-SR","2017/12/09 08:39:37","新北市土城區金城路一段66號","121.44289","24.97128","6501300","土城區"
"236006","498-BY","2017/12/09 08:39:55","新北市土城區永和街51-1號","121.435588333333","24.9593666666667","6501300","土城區"
"220080","461-BY","2017/12/09 08:39:45","新北市八里區商港路48號","121.394356666667","25.144375","6500100","板橋區"
