"lineid","car","time","location","longitude","latitude","cityid","cityname"
"248005","653-BX","2017/12/09 09:39:48","新北市五股區成泰路一段130-1號","121.435116666667","25.0749983333333","6501500","五股區"
"222004","289-BY","2017/12/09 09:39:45","新北市深坑區阿柔洋62號","121.607885","24.9985866666667","6501800","深坑區"
"231007","189-VK","2017/12/09 09:39:35","新北市新店區新潭路三段215巷25號","121.508173333333","24.904045","6500600","新店區"
"231008","192-VK","2017/12/09 09:39:38","新北市新店區平廣路一段201巷1號","121.514798333333","24.889235","6500600","新店區"
"227006","282-VK","2017/12/09 09:39:35","新北市雙溪區長源里內柑腳45號","121.800455","25.0114016666667","6502500","雙溪區"
"252004","249-BX","2017/12/09 09:39:53","新北市三芝區圓山里石曹子坑44-1號","121.518323333333","25.2147233333333","6502100","三芝區"
"252007","AAC-283","2017/12/09 09:39:48","新北市三芝區新庄里新庄子95-29號","121.514076666667","25.27208","6502100","三芝區"
"237001","159-UY","2017/12/09 09:39:48","新北市三峽區中山路459巷163-1號","121.349275","24.9333966666667","6500900","三峽區"
"236002","339-SR","2017/12/09 09:39:37","新北市樹林區八德街672號","121.395813333333","24.9687983333333","6501300","土城區"
"236006","498-BY","2017/12/09 09:39:55","新北市土城區城林路6巷75號","121.438036666667","24.9791616666667","6501300","土城區"
"220080","461-BY","2017/12/09 09:16:32","新北市板橋區華東街1-9號","121.44811","24.994855","6500100","板橋區"
