"lineid","car","time","location","longitude","latitude","cityid","cityname"
"248005","653-BX","2017/12/09 09:57:48","新北市五股區中興路二段37巷24號","121.460688333333","25.0752366666667","6501500","五股區"
"231007","189-VK","2017/12/09 09:57:55","新北市新店區新潭路三段215巷25號","121.508171666667","24.90406","6500600","新店區"
"231008","192-VK","2017/12/09 09:47:58","新北市新店區平廣路一段256號","121.507713333333","24.8881633333333","6500600","新店區"
"227006","282-VK","2017/12/09 09:57:55","新北市雙溪區長源里柑腳18號","121.80469","25.0141583333333","6502500","雙溪區"
"252004","249-BX","2017/12/09 09:57:53","新北市三芝區福德里土地公埔47號","121.515905","25.2255133333333","6502100","三芝區"
"252007","AAC-283","2017/12/09 09:57:48","新北市三芝區新庄里新庄子82號","121.508376666667","25.2717666666667","6502100","三芝區"
"237001","159-UY","2017/12/09 09:57:48","新北市三峽區中山路459巷163-1號","121.349291666667","24.9334033333333","6500900","三峽區"
"220080","461-BY","2017/12/09 09:16:32","新北市板橋區華東街1-9號","121.44811","24.994855","6500100","板橋區"
