"lineid","car","time","location","longitude","latitude","cityid","cityname"
"248005","653-BX","2017/12/09 10:09:48","新北市五股區中興路二段57-6號","121.460461666667","25.0752416666667","6501500","五股區"
"231007","189-VK","2017/12/09 10:09:55","新北市新店區新潭路三段215巷25號","121.508088333333","24.904055","6500600","新店區"
"231008","192-VK","2017/12/09 10:05:38","新北市新店區平廣路一段220號","121.511156666667","24.8893316666667","6500600","新店區"
"227006","282-VK","2017/12/09 10:09:35","新北市雙溪區長源里柑腳18號","121.804688333333","25.0141766666667","6502500","雙溪區"
"252004","249-BX","2017/12/09 10:09:33","新北市三芝區福德里埔尾13-1號","121.504311666667","25.2445516666667","6502100","三芝區"
"252007","AAC-283","2017/12/09 10:09:48","新北市三芝區新庄里番社后8-9號","121.5032","25.269875","6502100","三芝區"
"237001","159-UY","2017/12/09 10:09:48","新北市三峽區中山路459巷163-1號","121.349281666667","24.9333933333333","6500900","三峽區"
"220080","461-BY","2017/12/09 09:16:32","新北市板橋區華東街1-9號","121.44811","24.994855","6500100","板橋區"
