"lineid","car","time","location","longitude","latitude","cityid","cityname"
"231008","192-VK","2017/12/09 11:49:38","新北市新店區松林路81號","121.54724","24.907275","6500600","新店區"
"235031","255-BX","2017/12/09 11:34:17","新北市中和區和城路一段271巷1號","121.485613333333","24.9916716666667","6500300","中和區"
"228003","097-TW","2017/12/09 11:49:54","新北市貢寮區貢寮里朝陽街1-2號","121.912351666667","25.0212483333333","6502600","貢寮區"
"227006","282-VK","2017/12/09 11:49:35","新北市雙溪區魚行里魚杭1號","121.883753333333","25.0266266666667","6502500","雙溪區"
"221012","276-VK","2017/12/09 11:49:37","新北市汐止區康寧街901號","121.650988333333","25.0751183333333","6501100","汐止區"
"220080","461-BY","2017/12/09 09:16:32","新北市板橋區華東街1-9號","121.44811","24.994855","6500100","板橋區"
