"lineid","car","time","location","longitude","latitude","cityid","cityname"
"234040","862-TW","2017/12/09 11:59:35","新北市永和區福和路1號","121.5265","25.0096566666667","6500400","永和區"
"231008","192-VK","2017/12/09 11:59:38","新北市新店區頂石厝路31-2號","121.537101666667","24.9170566666667","6500600","新店區"
"235031","255-BX","2017/12/09 11:34:17","新北市中和區和城路一段271巷1號","121.485613333333","24.9916716666667","6500300","中和區"
"228005","097-TW","2017/12/09 11:59:54","新北市貢寮區貢寮里朝陽街1-2號","121.912345","25.0212533333333","6502600","貢寮區"
"228004","212-TW","2017/12/09 11:59:55","新北市貢寮區貢寮里朝陽街40號","121.91102","25.0212933333333","6502600","貢寮區"
"221012","276-VK","2017/12/09 11:59:37","新北市汐止區康寧街901號","121.65103","25.07513","6501100","汐止區"
"220080","461-BY","2017/12/09 09:16:32","新北市板橋區華東街1-9號","121.44811","24.994855","6500100","板橋區"
