"lineid","car","time","location","longitude","latitude","cityid","cityname"
"234044","148-BY","2017/12/09 13:29:44","新北市永和區秀朗路二段247號","121.52632","24.9995466666667","6500400","永和區"
"234012","149-BY","2017/12/09 13:29:35","新北市永和區永和路二段55號","121.514658333333","25.0108033333333","6500400","永和區"
"234005","207-UY","2017/12/09 13:29:35","新北市永和區中山路一段193號","121.509151666667","25.0089316666667","6500400","永和區"
"234036","336-UY","2017/12/09 13:29:51","新北市永和區民樂街36號","121.527521666667","25.0007983333333","6500400","永和區"
"234062","337-UY","2017/12/09 13:29:51","新北市永和區中正路368巷1弄75號","121.52046","25.000815","6500400","永和區"
"234084","338-UY","2017/12/09 13:29:39","新北市永和區國中路2號","121.524116666667","25.0041916666667","6500400","永和區"
"234068","552-UM","2017/12/09 13:29:44","新北市永和區竹林路101號","121.51971","25.0120083333333","6500400","永和區"
"234052","553-UM","2017/12/09 13:29:32","新北市永和區復興街19巷9號","121.516098333333","25.0131333333333","6500400","永和區"
"234015","745-BX","2017/12/09 13:29:43","新北市永和區環河西路一段5號","121.515083333333","25.0180316666667","6500400","永和區"
"234028","746-BX","2017/12/09 13:29:51","新北市永和區民生路46巷50號","121.521076666667","24.9963883333333","6500400","永和區"
"234078","839-RS","2017/12/09 13:29:47","新北市永和區環河東路三段52巷7號","121.52634","25.0058733333333","6500400","永和區"
"234060","AAD-866","2017/12/09 13:29:38","新北市永和區永貞路198號","121.515821666667","25.00423","6500400","永和區"
"234040","862-TW","2017/12/09 13:29:35","新北市永和區水源街39巷22號","121.510643333333","25.0034166666667","6500400","永和區"
"234048","863-TW","2017/12/09 13:29:41","新北市永和區信義路90號","121.512448333333","25.01368","6500400","永和區"
"234025","9371-KE","2017/12/09 13:29:44","新北市永和區和平街2號","121.514261666667","25.0099783333333","6500400","永和區"
"234022","9381-KE","2017/12/09 13:29:42","新北市永和區竹林路91巷45號","121.521311666667","25.012975","6500400","永和區"
"234010","9373-KE","2017/12/09 13:29:45","新北市永和區仁愛路141巷5弄3號","121.511805","25.0122133333333","6500400","永和區"
"248017","225-UY","2017/12/09 13:29:34","新北市五股區民義路二段52巷22號","121.416091666667","25.1108333333333","6501500","五股區"
"234076","969-R7","2017/12/09 13:29:46","新北市永和區中正路286巷12號","121.517616666667","24.998545","6500400","永和區"
"234072","AAC-211","2017/12/09 13:29:43","新北市永和區永和路二段70號","121.51482","25.0112183333333","6500400","永和區"
"234066","AAC-212","2017/12/09 13:29:42","新北市永和區保平路186號","121.510561666667","25.006535","6500400","永和區"
"234001","AAC-295","2017/12/09 13:29:31","新北市永和區永和路一段136號","121.514146666667","25.0079216666667","6500400","永和區"
"244005","248-BX","2017/12/09 13:29:51","新北市林口區文化一路二段186號","121.382443333333","25.0797266666667","6501700","林口區"
"231002","001-UM","2017/12/09 13:29:31","新北市新店區安康路一段46巷4號","121.530648333333","24.9610216666667","6500600","新店區"
"231025","0293-UT","2017/12/09 13:29:41","新北市新店區中央七街61巷18號","121.52897","24.9761283333333","6500600","新店區"
"231028","046-UY","2017/12/09 13:29:34","新北市新店區安康路一段355號","121.5199","24.96385","6500600","新店區"
"231030","047-UY","2017/12/09 13:29:44","新北市新店區安康路一段351-1號","121.519548333333","24.9639166666667","6500600","新店區"
"231029","106-UY","2017/12/09 13:29:33","新北市新店區安豐路54-1號","121.499938333333","24.9539883333333","6500600","新店區"
"231018","107-UY","2017/12/09 13:29:41","新北市新店區中央路137號","121.530256666667","24.973755","6500600","新店區"
"231012","108-UY","2017/12/09 13:29:49","新北市新店區德正街17巷1號","121.543651666667","24.97286","6500600","新店區"
"231020","187-VK","2017/12/09 13:29:40","新北市新店區永興路88-1號","121.543986666667","24.9337416666667","6500600","新店區"
"231017","KEA-2219","2017/12/09 13:29:46","新北市新店區新烏路一段11巷1弄2號","121.547358333333","24.9513466666667","6500600","新店區"
"231026","256-BX","2017/12/09 13:29:38","新北市新店區北宜路一段144號","121.54009","24.95413","6500600","新店區"
"231010","278-BY","2017/12/09 13:29:44","新北市新店區自由街15號","121.535296666667","24.97485","6500600","新店區"
"231023","AAD-862","2017/12/09 13:29:34","新北市新店區新店路23號","121.540191666667","24.9527583333333","6500600","新店區"
"231027","3712-VJ","2017/12/09 13:29:38","新北市新店區新店後街100號","121.53761","24.9551866666667","6500600","新店區"
"231024","4716-K9","2017/12/09 13:29:42","新北市新店區中正路128巷11號","121.542501666667","24.9721133333333","6500600","新店區"
"231038","4715-K9","2017/12/09 13:29:37","新北市新店區安華路30巷1號","121.519601666667","24.9593483333333","6500600","新店區"
"231036","512-UM","2017/12/09 13:29:52","新北市新店區建業路47-1號","121.478706666667","24.955015","6500600","新店區"
"231035","515-UM","2017/12/09 13:29:35","新北市新店區安忠路8-1號","121.514681666667","24.963135","6500600","新店區"
"231003","616-UM","2017/12/09 13:29:47","新北市新店區光明街191號","121.539886666667","24.9634183333333","6500600","新店區"
"231006","617-UM","2017/12/09 13:29:32","新北市新店區安康路一段61號","121.530548333333","24.96104","6500600","新店區"
"231001","619-UM","2017/12/09 13:29:39","新北市新店區安康路一段35-5號","121.531901666667","24.9606833333333","6500600","新店區"
"231034","645-TV","2017/12/09 13:29:32","新北市新店區車子路22號","121.504933333333","24.9536916666667","6500600","新店區"
"231013","719-UM","2017/12/09 13:29:38","新北市新店區中正路454-5號","121.534481666667","24.9790566666667","6500600","新店區"
"231033","720-UM","2017/12/09 13:29:46","新北市新店區安忠路57巷11弄2號","121.514125","24.9574566666667","6500600","新店區"
"231005","897-TW","2017/12/09 13:29:30","新北市新店區北新路一段303號","121.541381666667","24.96733","6500600","新店區"
"231004","899-TW","2017/12/09 13:29:29","新北市新店區秀山路72號","121.531463333333","24.9608316666667","6500600","新店區"
"231037","AKT-0513","2017/12/09 13:29:48","新北市新店區薏仁坑路47號","121.491986666667","24.9639716666667","6500600","新店區"
"235030","003-UY","2017/12/09 13:29:49","新北市中和區中山路二段120號","121.502758333333","25.003655","6500300","中和區"
"235027","006-UY","2017/12/09 13:29:42","新北市中和區連城路347巷18弄2號","121.488501666667","24.994675","6500300","中和區"
"235010","031-BX","2017/12/09 13:29:32","新北市中和區中正路209號","121.497238333333","24.993635","6500300","中和區"
"235020","096-UM","2017/12/09 13:29:38","新北市中和區中山路二段594號","121.482256666667","25.0054233333333","6500300","中和區"
"235003","097-UM","2017/12/09 13:29:45","新北市中和區景平路111巷2號","121.516685","24.991865","6500300","中和區"
"235029","098-UM","2017/12/09 13:29:52","新北市中和區莊敬路49巷10弄10號","121.501878333333","25.0053933333333","6500300","中和區"
"235004","150-BY","2017/12/09 13:29:41","新北市中和區安平路59號","121.509416666667","24.9951183333333","6500300","中和區"
"235022","151-BY","2017/12/09 13:29:31","新北市中和區圓通路369巷156弄46號","121.489441666667","24.98193","6500300","中和區"
"235019","183-VK","2017/12/09 13:15:32","新北市中和區員山路36巷16-6號","121.485286666667","24.9921116666667","6500300","中和區"
"235031","255-BX","2017/12/09 13:29:37","新北市中和區連城路340巷14弄22號","121.482843333333","24.997285","6500300","中和區"
"235008","293-VK","2017/12/09 13:29:33","新北市中和區復興路299號","121.50153","24.9902416666667","6500300","中和區"
"235036","301-VK","2017/12/09 13:29:35","新北市中和區員山路36巷16-8號","121.485358333333","24.9922383333333","6500300","中和區"
"235007","352-BY","2017/12/09 13:29:52","新北市中和區景平路283號","121.507446666667","24.9930533333333","6500300","中和區"
"235032","377-QA","2017/12/09 13:29:39","新北市中和區圓通路285號","121.495363333333","24.9928016666667","6500300","中和區"
"235025","378-QA","2017/12/09 13:29:47","新北市中和區民享街116巷27弄1號","121.473585","24.9989883333333","6500300","中和區"
"235035","269-TV","2017/12/09 13:29:47","新北市中和區立德街56號","121.488333333333","25.0074316666667","6500300","中和區"
"235014","4979-A6","2017/12/09 13:29:39","新北市中和區景新街410巷18弄24號","121.51186","24.99005","6500300","中和區"
"235033","4980-A6","2017/12/09 13:29:37","新北市中和區連城路127巷33號","121.497303333333","24.9973066666667","6500300","中和區"
"235006","551-UM","2017/12/09 13:29:42","新北市中和區員山路36巷16-4號","121.485198333333","24.9920083333333","6500300","中和區"
"235034","558-UM","2017/12/09 13:29:47","新北市中和區圓通路74號","121.500113333333","24.99722","6500300","中和區"
"235018","640-BX","2017/12/09 13:29:36","新北市中和區民享街110號","121.474613333333","24.9992933333333","6500300","中和區"
"235011","732-UM","2017/12/09 13:16:01","新北市中和區員山路36巷16-8號","121.485406666667","24.9924166666667","6500300","中和區"
"235026","800-TS","2017/12/09 13:29:40","新北市中和區景平路730號","121.496611666667","25.003835","6500300","中和區"
"235021","801-TS","2017/12/09 13:29:40","新北市中和區民享街97巷14號","121.475318333333","24.9996516666667","6500300","中和區"
"235016","805-TS","2017/12/09 13:15:36","新北市中和區員山路36巷16-8號","121.48536","24.9921516666667","6500300","中和區"
"235012","896-TW","2017/12/09 13:29:42","新北市中和區連城路186號","121.492686666667","24.996795","6500300","中和區"
"235028","911-UM","2017/12/09 13:29:34","新北市中和區連城路139巷41號","121.49663","24.9976983333333","6500300","中和區"
"220013","072-UY","2017/12/09 13:29:47","新北市板橋區南雅南路二段122-10號","121.451731666667","24.99806","6500100","板橋區"
"220034","073-UY","2017/12/09 13:29:30","新北市板橋區板城路407號","121.447475","24.99513","6500100","板橋區"
"247003","336-TH","2017/12/09 13:29:48","新北市五股區中興路三段5號","121.449246666667","25.0797583333333","6501400","蘆洲區"
"228005","097-TW","2017/12/09 13:29:34","新北市貢寮區美豐里文秀坑8號","121.902605","25.05044","6502600","貢寮區"
"228004","212-TW","2017/12/09 13:29:35","新北市貢寮區龍崗里石壁坑街17號","121.910468333333","24.9898833333333","6502600","貢寮區"
"253003","6232-TK","2017/12/09 13:29:38","新北市石門區石崩山20-3號","121.567531666667","25.27495","6502200","石門區"
"253001","6251-TK","2017/12/09 13:29:45","新北市石門區下員坑30-7號","121.519006666667","25.2810366666667","6502200","石門區"
"253002","637-UY","2017/12/09 13:29:48","新北市石門區老崩山40-2號","121.562831666667","25.2671816666667","6502200","石門區"
"253004","8270-PC","2017/12/09 13:29:45","新北市石門區竹子湖3號","121.615836666667","25.26281","6502200","石門區"
"208004","AAC-292","2017/12/09 13:29:35","新北市金山區南勢湖27號","121.617955","25.21627","6502700","金山區"
"207002","749-BX","2017/12/09 13:29:37","新北市萬里區崁腳里崁腳路166號","121.645036666667","25.155835","6502800","萬里區"
"252005","073-UM","2017/12/09 13:29:50","新北市三芝區圓山里八連溪頭3號","121.524653333333","25.22275","6502100","三芝區"
"207001","662-BX","2017/12/09 13:29:41","新北市萬里區大鵬里萬里加投9號","121.652636666667","25.2088716666667","6502800","萬里區"
"236006","498-BY","2017/12/09 13:29:46","新北市土城區慶祥街62號","121.436398333333","24.9739416666667","6501300","土城區"
"221008","489-VK","2017/12/09 13:29:49","新北市汐止區伯爵街57巷1號","121.638738333333","25.0815083333333","6501100","汐止區"
"221012","276-VK","2017/12/09 13:27:45","新北市汐止區汐萬路一段256巷3號","121.653451666667","25.0746066666667","6501100","汐止區"
"220103","255-TC","2017/12/09 13:29:44","新北市板橋區縣民大道一段306號","121.461305","25.0106766666667","6500100","板橋區"
"220001","285-VK","2017/12/09 13:29:42","新北市板橋區民生路二段120號","121.470993333333","25.0199433333333","6500100","板橋區"
"220010","295-UM","2017/12/09 02:12:25","新北市板橋區民生路二段120號","121.47042","25.0196866666667","6500100","板橋區"
"220032","296-UM","2017/12/09 13:29:39","新北市板橋區華東街1-9號","121.448163333333","24.9949866666667","6500100","板橋區"
"220080","461-BY","2017/12/09 09:16:32","新北市板橋區華東街1-9號","121.44811","24.994855","6500100","板橋區"
"220012","486-VK","2017/12/09 13:29:34","新北市板橋區華東街1-10號","121.448266666667","24.9949416666667","6500100","板橋區"
"220104","560-BX","2017/12/09 13:29:40","新北市板橋區南雅南路二段140號","121.451673333333","24.9962683333333","6500100","板橋區"
"220023","568-UM","2017/12/09 13:29:35","新北市板橋區華東街1-9號","121.448191666667","24.994985","6500100","板橋區"
"220025","687-BX","2017/12/09 13:29:49","新北市板橋區大觀路三段59巷17弄6-1號","121.437005","24.9954416666667","6500100","板橋區"
"220014","829-TW","2017/12/09 13:29:39","新北市板橋區民生路二段120號","121.470513333333","25.0196733333333","6500100","板橋區"
"220022","895-R6","2017/12/09 13:29:49","新北市板橋區華東街1-10號","121.4485","24.9950116666667","6500100","板橋區"
"220021","985-R7","2017/12/09 13:29:42","新北市板橋區華東街1-10號","121.448335","24.995","6500100","板橋區"
