"lineid","car","time","location","longitude","latitude","cityid","cityname"
"234012","149-BY","2017/12/09 14:19:35","新北市永和區保生路40巷1號","121.505858333333","25.008325","6500400","永和區"
"234005","207-UY","2017/12/09 14:19:35","新北市永和區中正路640號","121.516871666667","25.0082866666667","6500400","永和區"
"234036","336-UY","2017/12/09 14:19:31","新北市永和區成功路一段108號","121.526841666667","25.0027083333333","6500400","永和區"
"234062","337-UY","2017/12/09 14:19:51","新北市永和區得和路131號","121.51903","25.0003966666667","6500400","永和區"
"234084","338-UY","2017/12/09 14:19:39","新北市永和區永和路二段81號","121.51478","25.0112866666667","6500400","永和區"
"234068","552-UM","2017/12/09 14:19:49","新北市永和區福和路261號","121.517836666667","25.0072416666667","6500400","永和區"
"234052","553-UM","2017/12/09 14:19:52","新北市永和區博愛街5號","121.516671666667","25.0158566666667","6500400","永和區"
"234028","746-BX","2017/12/09 14:19:51","新北市永和區民權路49巷14號","121.520806666667","24.997235","6500400","永和區"
"234078","839-RS","2017/12/09 14:19:47","新北市永和區福和路59號","121.522948333333","25.00793","6500400","永和區"
"234060","AAD-866","2017/12/09 14:19:38","新北市永和區安樂路194巷37號","121.51643","25.0012133333333","6500400","永和區"
"234040","862-TW","2017/12/09 14:19:37","新北市永和區中和路453號","121.510015","25.0014616666667","6500400","永和區"
"234048","863-TW","2017/12/09 14:19:41","新北市永和區新生路55號","121.508945","25.0163366666667","6500400","永和區"
"234025","9371-KE","2017/12/09 14:19:44","新北市永和區得和路42巷23號","121.51535","24.9996266666667","6500400","永和區"
"234022","9381-KE","2017/12/09 14:19:42","新北市永和區光復街2巷16弄34號","121.517955","25.0163016666667","6500400","永和區"
"234010","9373-KE","2017/12/09 14:19:35","新北市永和區保生路55-1號","121.504526666667","25.0109133333333","6500400","永和區"
"248017","225-UY","2017/12/09 14:11:34","新北市五股區壟路17-7號","121.414385","25.0852083333333","6501500","五股區"
"234076","969-R7","2017/12/09 14:19:52","新北市永和區民族街81巷58號","121.520015","24.9964783333333","6500400","永和區"
"234072","AAC-211","2017/12/09 14:19:49","新北市永和區豫溪街191巷7弄28號","121.523128333333","25.0113066666667","6500400","永和區"
"234066","AAC-212","2017/12/09 14:19:42","新北市永和區保平路292巷46弄2號","121.507461666667","25.0053583333333","6500400","永和區"
"234001","AAC-295","2017/12/09 14:19:51","新北市永和區中正路618號","121.517146666667","25.0077216666667","6500400","永和區"
"231002","001-UM","2017/12/09 14:19:51","新北市新店區中央路196號","121.530683333333","24.97446","6500600","新店區"
"231025","0293-UT","2017/12/09 14:19:41","新北市新店區二十張路131號","121.536001666667","24.9790366666667","6500600","新店區"
"231028","046-UY","2017/12/09 14:19:34","新北市新店區安康路二段3-7號","121.515533333333","24.9637133333333","6500600","新店區"
"231030","047-UY","2017/12/09 14:19:44","新北市新店區安民街42號","121.515878333333","24.965365","6500600","新店區"
"231029","106-UY","2017/12/09 14:19:52","新北市新店區安康路二段226號","121.509535","24.9592133333333","6500600","新店區"
"231018","107-UY","2017/12/09 14:19:41","新北市新店區中央四街28號","121.528695","24.9743183333333","6500600","新店區"
"231012","108-UY","2017/12/09 14:19:40","新北市新店區五峰路61巷7號","121.548858333333","24.96959","6500600","新店區"
"231020","187-VK","2017/12/09 14:19:40","新北市新店區新烏路三段49號","121.555523333333","24.9051783333333","6500600","新店區"
"231017","KEA-2219","2017/12/09 14:19:46","新北市新店區北宜路二段382號","121.564576666667","24.9532966666667","6500600","新店區"
"231023","AAD-862","2017/12/09 14:19:33","新北市新店區光明街89號","121.53903","24.9608983333333","6500600","新店區"
"231027","3712-VJ","2017/12/09 14:19:38","新北市新店區北新路一段343號","121.541958333333","24.96896","6500600","新店區"
"231038","4715-K9","2017/12/09 14:19:36","新北市新店區溪洲路6巷88號","121.533116666667","24.9639116666667","6500600","新店區"
"231036","512-UM","2017/12/09 14:19:52","新北市新店區安祥路109巷151弄12號","121.478108333333","24.9589116666667","6500600","新店區"
"231035","515-UM","2017/12/09 14:19:35","新北市新店區光華街20號","121.517086666667","24.9693633333333","6500600","新店區"
"231003","616-UM","2017/12/09 14:19:47","新北市新店區中興路一段216號","121.543978333333","24.965735","6500600","新店區"
"231006","617-UM","2017/12/09 14:19:52","新北市新店區北宜路二段599號","121.568095","24.9556433333333","6500600","新店區"
"231001","619-UM","2017/12/09 14:19:39","新北市新店區北新路一段275號","121.541135","24.96681","6500600","新店區"
"231034","645-TV","2017/12/09 14:19:32","新北市新店區黎明路3號","121.503266666667","24.9523266666667","6500600","新店區"
"231013","719-UM","2017/12/09 14:19:38","新北市新店區建國路150號","121.538778333333","24.9792383333333","6500600","新店區"
"231033","720-UM","2017/12/09 14:19:46","新北市新店區安樂街21號","121.52644","24.96884","6500600","新店區"
"231005","897-TW","2017/12/09 14:19:50","新北市新店區北新路二段268號","121.542771666667","24.97863","6500600","新店區"
"231004","899-TW","2017/12/09 14:19:48","新北市新店區中正路234號","121.53986","24.9728866666667","6500600","新店區"
"231037","AKT-0513","2017/12/09 14:19:48","新北市新店區車子路53號","121.504011666667","24.9519333333333","6500600","新店區"
"235030","003-UY","2017/12/09 14:19:49","新北市中和區中和路96號","121.501358333333","25.0004466666667","6500300","中和區"
"235027","006-UY","2017/12/09 14:19:42","新北市中和區連勝街115號","121.495053333333","24.9952183333333","6500300","中和區"
"235010","031-BX","2017/12/09 14:19:52","新北市中和區華新街113巷2弄2號","121.507385","24.9819866666667","6500300","中和區"
"235020","096-UM","2017/12/09 14:19:33","新北市中和區民富街30號","121.476796666667","25.0064616666667","6500300","中和區"
"235003","097-UM","2017/12/09 14:19:45","新北市中和區秀峰街103巷8弄12號","121.519683333333","24.9896566666667","6500300","中和區"
"235029","098-UM","2017/12/09 14:19:45","新北市中和區中山路二段2巷13弄24號","121.502645","25.0065383333333","6500300","中和區"
"235004","150-BY","2017/12/09 14:19:41","新北市中和區保健路76巷10號","121.511258333333","24.9960066666667","6500300","中和區"
"235022","151-BY","2017/12/09 14:19:51","新北市中和區連城路469巷32號","121.483408333333","24.9948616666667","6500300","中和區"
"235019","183-VK","2017/12/09 14:19:46","新北市中和區德光路119-1號","121.467941666667","25.0031366666667","6500300","中和區"
"235002","185-VK","2017/12/09 14:19:46","新北市中和區立人街34號","121.518386666667","24.9940216666667","6500300","中和區"
"235013","186-VK","2017/12/09 14:19:50","新北市中和區景新街243號","121.508273333333","24.9943316666667","6500300","中和區"
"235031","255-BX","2017/12/09 14:19:37","新北市中和區新生街168號","121.483625","25.000175","6500300","中和區"
"235008","293-VK","2017/12/09 14:19:53","新北市中和區復興路316號","121.500911666667","24.9903133333333","6500300","中和區"
"235036","301-VK","2017/12/09 14:19:35","新北市中和區中山路二段187號","121.500365","25.0026983333333","6500300","中和區"
"235007","352-BY","2017/12/09 14:19:52","新北市中和區景平路302號","121.512841666667","24.992865","6500300","中和區"
"235032","377-QA","2017/12/09 14:19:39","新北市中和區景平路493巷12弄27號","121.498426666667","24.9968516666667","6500300","中和區"
"235025","378-QA","2017/12/09 14:19:47","新北市中和區員山路238號","121.481341666667","25.00129","6500300","中和區"
"235035","269-TV","2017/12/09 14:19:47","新北市中和區立德街312號","121.482401666667","25.0104883333333","6500300","中和區"
"235014","4979-A6","2017/12/09 14:19:39","新北市中和區景安路208巷9號","121.503511666667","24.99116","6500300","中和區"
"235033","4980-A6","2017/12/09 14:19:36","新北市中和區中山路二段142號","121.501966666667","25.0031016666667","6500300","中和區"
"235006","551-UM","2017/12/09 14:19:42","新北市中和區秀朗路三段78巷1弄1號","121.525731666667","24.9939816666667","6500300","中和區"
"235034","558-UM","2017/12/09 14:19:47","新北市中和區中和路76號","121.501033333333","25.0006716666667","6500300","中和區"
"235009","565-BX","2017/12/09 14:19:46","新北市中和區景新街449號","121.513426666667","24.9886516666667","6500300","中和區"
"235018","640-BX","2017/12/09 14:19:36","新北市中和區民德路150號","121.468595","25.00022","6500300","中和區"
"235024","647-TV","2017/12/09 14:19:46","新北市中和區民治街128巷1號","121.475201666667","25.0029233333333","6500300","中和區"
"235011","732-UM","2017/12/09 14:19:35","新北市中和區興南路一段56巷26號","121.510355","24.9913466666667","6500300","中和區"
"235026","800-TS","2017/12/09 14:19:40","新北市中和區中山路二段488-1號","121.487428333333","25.0049983333333","6500300","中和區"
"235021","801-TS","2017/12/09 14:19:52","新北市中和區員山路325-5號","121.481141666667","25.0010866666667","6500300","中和區"
"235005","802-TS","2017/12/09 14:19:52","新北市中和區新興街17巷1號","121.512295","25.0025816666667","6500300","中和區"
"235016","805-TS","2017/12/09 14:19:35","新北市中和區興南路二段252號","121.503038333333","24.98186","6500300","中和區"
"235012","896-TW","2017/12/09 14:15:42","新北市中和區華新街109巷32號","121.508723333333","24.98011","6500300","中和區"
"235017","900-TW","2017/12/09 14:19:42","新北市中和區華福街73號","121.467185","24.996725","6500300","中和區"
"235028","911-UM","2017/12/09 14:19:33","新北市中和區中和路17號","121.49974","25.002185","6500300","中和區"
"235015","157-BY","2017/12/09 14:19:34","新北市中和區華新街143巷106弄10號","121.505816666667","24.9791483333333","6500300","中和區"
"235001","AAC-213","2017/12/09 14:19:50","新北市中和區自立路99巷10號","121.522501666667","24.99479","6500300","中和區"
"235023","AAC-215","2017/12/09 14:19:44","新北市中和區圓通路252巷5弄50號","121.492198333333","24.9919433333333","6500300","中和區"
"220016","013-TV","2017/12/09 14:19:38","新北市板橋區翠華街10巷1號","121.482743333333","25.0249416666667","6500100","板橋區"
"220014","015-TV","2017/12/09 14:19:45","新北市板橋區華興街31巷19號","121.458436666667","25.0037583333333","6500100","板橋區"
"220013","072-UY","2017/12/09 14:19:47","新北市板橋區國泰街76巷21號","121.467066666667","25.0071033333333","6500100","板橋區"
"220034","073-UY","2017/12/09 14:19:50","新北市板橋區中正路216巷118號","121.45946","25.0192483333333","6500100","板橋區"
"220105","075-UY","2017/12/09 14:19:47","新北市板橋區雙十路三段66巷1號","121.47057","25.03193","6500100","板橋區"
"220051","120-SR","2017/12/09 14:19:32","新北市板橋區松柏街15巷12號","121.474053333333","25.0300733333333","6500100","板橋區"
"247021","893-R6","2017/12/09 14:19:49","新北市蘆洲區仁愛街212巷28-1號","121.46409","25.0947033333333","6501400","蘆洲區"
"247011","546-UM","2017/12/09 14:19:34","新北市蘆洲區民權路8-1號","121.476596666667","25.0859533333333","6501400","蘆洲區"
"247019","500-BY","2017/12/09 14:19:39","新北市蘆洲區仁愛街41號","121.472211666667","25.09295","6501400","蘆洲區"
"247009","339-TH","2017/12/09 14:19:51","新北市蘆洲區三民路26巷69號","121.478686666667","25.0831983333333","6501400","蘆洲區"
"247001","337-TH","2017/12/09 14:19:42","新北市蘆洲區永樂街57號","121.456755","25.0885466666667","6501400","蘆洲區"
"247003","336-TH","2017/12/09 14:19:48","新北市蘆洲區中原路12巷24號","121.460741666667","25.084","6501400","蘆洲區"
"247015","057-VK","2017/12/09 14:16:20","新北市蘆洲區光華路70巷11號","121.467623333333","25.0832583333333","6501400","蘆洲區"
"247005","056-VK","2017/12/09 14:19:34","新北市蘆洲區長安街23巷22號","121.463401666667","25.0786133333333","6501400","蘆洲區"
"247007","053-VK","2017/12/09 14:19:38","新北市蘆洲區信義路34巷1號","121.474505","25.079385","6501400","蘆洲區"
"247013","007-UY","2017/12/09 14:19:37","新北市蘆洲區中山一路204號","121.473518333333","25.08079","6501400","蘆洲區"
"247023","002-UY","2017/12/09 14:19:45","新北市蘆洲區長榮路709號","121.461068333333","25.0928733333333","6501400","蘆洲區"
"247017","001-UY","2017/12/09 14:19:38","新北市蘆洲區民權路136-2號","121.473065","25.0888966666667","6501400","蘆洲區"
"228005","097-TW","2017/12/09 14:19:33","新北市貢寮區美豐里雞母嶺街6-2號","121.899528333333","25.063015","6502600","貢寮區"
"228004","212-TW","2017/12/09 14:19:35","新北市貢寮區雙玉里田寮洋街39-3號","121.925623333333","25.013945","6502600","貢寮區"
"253003","6232-TK","2017/12/09 14:19:38","新北市石門區尖子鹿29號","121.583416666667","25.2616633333333","6502200","石門區"
"253001","6251-TK","2017/12/09 14:19:45","新北市石門區八甲27-2號","121.526645","25.2768266666667","6502200","石門區"
"253002","637-UY","2017/12/09 14:19:48","新北市石門區七股14號","121.54758","25.2676733333333","6502200","石門區"
"253004","8270-PC","2017/12/09 14:19:49","新北市石門區坪林50號","121.589183333333","25.2690083333333","6502200","石門區"
"208004","AAC-292","2017/12/09 14:19:35","新北市金山區重和里茅埔頭9-1號","121.605243333333","25.2186666666667","6502700","金山區"
"207002","749-BX","2017/12/09 14:19:37","新北市萬里區溪底里瑞泉路4-1號","121.608786666667","25.1465166666667","6502800","萬里區"
"252005","073-UM","2017/12/09 14:19:50","新北市三芝區橫山里大坑85號","121.529315","25.2586316666667","6502100","三芝區"
"207001","662-BX","2017/12/09 14:19:41","新北市萬里區磺潭里清水18號","121.637955","25.1976633333333","6502800","萬里區"
"236068","105-UM","2017/12/09 14:19:43","新北市土城區明德路一段128巷8號","121.463013333333","24.9788666666667","6501300","土城區"
"236041","107-UM","2017/12/09 14:19:46","新北市土城區裕生路21巷6弄14號","121.44867","24.9867533333333","6501300","土城區"
"236075","166-UM","2017/12/09 14:19:54","新北市土城區永平街29號","121.428475","24.962335","6501300","土城區"
"236029","253-BX","2017/12/09 14:19:48","新北市土城區順風路46號","121.440115","24.9771616666667","6501300","土城區"
"236025","269-VK","2017/12/09 14:19:40","新北市土城區中央路三段92-2號","121.435941666667","24.966665","6501300","土城區"
"236013","270-VK","2017/12/09 14:19:36","新北市土城區青雲路39巷7號","121.46039","24.98759","6501300","土城區"
"236035","271-VK","2017/12/09 14:19:35","新北市土城區青雲路451巷6號","121.45955","24.9745483333333","6501300","土城區"
"236017","401-BY","2017/12/09 14:19:37","新北市土城區金城路二段200號","121.454733333333","24.981685","6501300","土城區"
"236057","912-UM","2017/12/09 14:19:43","新北市土城區中央路四段172號","121.416781666667","24.9580133333333","6501300","土城區"
"236045","913-UM","2017/12/09 14:19:38","新北市土城區明德路一段325號","121.458761666667","24.9770433333333","6501300","土城區"
"236061","915-UM","2017/12/09 14:19:34","新北市土城區延壽路44巷11號","121.471385","24.99298","6501300","土城區"
"236054","AAC-216","2017/12/09 14:19:49","新北市土城區中華路二段102號","121.438083333333","24.9743366666667","6501300","土城區"
"221008","489-VK","2017/12/09 14:19:49","新北市新店區薏仁坑路自強巷1號","121.496908333333","24.9579666666667","6501100","汐止區"
"221012","276-VK","2017/12/09 13:27:45","新北市汐止區汐萬路一段256巷3號","121.653451666667","25.0746066666667","6501100","汐止區"
"220027","145-BY","2017/12/09 14:19:41","新北市板橋區民權路202巷13弄25號","121.458481666667","25.01635","6500100","板橋區"
"220030","610-BX","2017/12/09 14:19:42","新北市板橋區篤行路三段玉平巷76弄7號","121.427421666667","24.985885","6500100","板橋區"
"220050","245-BX","2017/12/09 14:19:46","新北市板橋區莊敬路65號","121.473911666667","25.026785","6500100","板橋區"
"220103","255-TC","2017/12/09 14:19:44","新北市板橋區縣民大道一段193號","121.459186666667","25.008215","6500100","板橋區"
"220028","256-TC","2017/12/09 14:19:50","新北市板橋區大觀路二段3巷3號","121.447471666667","25.003825","6500100","板橋區"
"220040","267-BY","2017/12/09 14:19:34","新北市板橋區文聖街72-5號","121.477178333333","25.0305116666667","6500100","板橋區"
"220004","276-BY","2017/12/09 14:19:44","新北市板橋區信義路83號","121.457883333333","24.9942533333333","6500100","板橋區"
"220020","277-BY","2017/12/09 14:19:48","新北市板橋區金門街339-2號","121.429231666667","24.9856833333333","6500100","板橋區"
"220019","283-VK","2017/12/09 14:19:52","新北市板橋區忠孝路48巷9弄28號","121.462036666667","25.0001316666667","6500100","板橋區"
"220043","285-UM","2017/12/09 14:19:42","新北市板橋區吳鳳路19巷20號","121.4668","25.0307783333333","6500100","板橋區"
"220001","285-VK","2017/12/09 14:19:43","新北市板橋區富山街12號","121.478571666667","25.0217733333333","6500100","板橋區"
"220031","286-VK","2017/12/09 14:19:48","新北市板橋區龍興街73巷2號","121.444023333333","25.0021983333333","6500100","板橋區"
"220029","287-VK","2017/12/09 14:19:49","新北市板橋區南雅西路一段126號","121.452566666667","25.0068433333333","6500100","板橋區"
"220039","288-VK","2017/12/09 14:19:50","新北市板橋區長江路一段106巷13弄20號","121.460806666667","25.0294583333333","6500100","板橋區"
"220009","293-UM","2017/12/09 14:19:38","新北市板橋區中山路二段255巷7號","121.477011666667","25.0179266666667","6500100","板橋區"
"220010","295-UM","2017/12/09 14:19:46","新北市板橋區三民路二段153巷28號","121.480828333333","25.01502","6500100","板橋區"
"220032","296-UM","2017/12/09 14:19:38","新北市板橋區溪北路73巷5號","121.428333333333","24.9898283333333","6500100","板橋區"
"220041","299-UM","2017/12/09 14:19:49","新北市板橋區松江街72巷6號","121.469006666667","25.0277733333333","6500100","板橋區"
"220047","317-R6","2017/12/09 14:19:46","新北市板橋區四維路206號","121.464031666667","25.0272666666667","6500100","板橋區"
"220080","461-BY","2017/12/09 13:44:46","新北市板橋區華東街1-9號","121.448195","24.994985","6500100","板橋區"
"220012","486-VK","2017/12/09 14:19:34","新北市板橋區縣民大道二段3號","121.462565","25.0120333333333","6500100","板橋區"
"220038","487-VK","2017/12/09 14:19:49","新北市板橋區文化路一段393號","121.467268333333","25.0220066666667","6500100","板橋區"
"220037","491-VK","2017/12/09 14:19:47","新北市板橋區雙十路二段10-3號","121.476366666667","25.0268766666667","6500100","板橋區"
"220104","560-BX","2017/12/09 14:19:39","新北市板橋區中正路399巷30-8號","121.452851666667","25.022935","6500100","板橋區"
"220052","561-BX","2017/12/09 14:19:36","新北市板橋區文化路一段188巷7弄11-3號","121.467528333333","25.0197133333333","6500100","板橋區"
"220023","568-UM","2017/12/09 14:19:35","新北市板橋區館前西路165號","121.455893333333","25.00817","6500100","板橋區"
"220011","609-BX","2017/12/09 14:19:46","新北市板橋區三民路二段204號","121.478866666667","25.0122383333333","6500100","板橋區"
"220005","686-BX","2017/12/09 14:19:39","新北市板橋區重慶路321號","121.463895","24.9985666666667","6500100","板橋區"
"220025","687-BX","2017/12/09 14:19:48","新北市板橋區大觀路一段34號","121.447103333333","25.0049866666667","6500100","板橋區"
"220042","689-BX","2017/12/09 14:19:30","新北市板橋區文化路一段98號","121.46456","25.018075","6500100","板橋區"
"220002","741-BX","2017/12/09 14:19:43","新北市板橋區校前街38號","121.460991666667","25.0032233333333","6500100","板橋區"
"220003","827-TW","2017/12/09 14:19:47","新北市板橋區館前東路156巷44號","121.464496666667","25.0065783333333","6500100","板橋區"
"220014","829-TW","2017/12/09 14:19:39","新北市中和區中山路三段120-26號","121.473483333333","25.0082283333333","6500100","板橋區"
"220045","831-TW","2017/12/09 14:19:52","新北市板橋區大同街38號","121.478595","25.0274166666667","6500100","板橋區"
"220022","895-R6","2017/12/09 14:19:49","新北市板橋區民權路182號","121.459205","25.013435","6500100","板橋區"
"220021","985-R7","2017/12/09 14:19:23","新北市板橋區中正路302號","121.454775","25.0206266666667","6500100","板橋區"
"220046","AAC-210","2017/12/09 14:19:38","新北市板橋區漢生西路89巷3弄1號","121.461473333333","25.0192266666667","6500100","板橋區"
"220018","AAC-253","2017/12/09 14:19:41","新北市板橋區忠孝路95號","121.462373333333","25.0022816666667","6500100","板橋區"
