"lineid","car","time","location","longitude","latitude","cityid","cityname"
"241031","838-RS","2017/12/09 14:25:05","新北市永和區保順路27號","121.50381","25.01042","6500200","三重區"
"234025","9371-KE","2017/12/09 14:59:44","新北市永和區永貞路271號","121.511716666667","25.0047583333333","6500400","永和區"
"248017","225-UY","2017/12/09 14:59:57","新北市五股區登林路91-1號","121.421995","25.0715916666667","6501500","五股區"
"243009","KEA-2216","2017/12/09 14:59:41","新北市泰山區泰林路三段301巷51號","121.413363333333","25.0683716666667","6501600","泰山區"
"231002","001-UM","2017/12/09 14:59:51","新北市新店區中正路501-2號","121.53365","24.98374","6500600","新店區"
"231025","0293-UT","2017/12/09 14:59:41","新北市新店區大同街20號","121.539318333333","24.9801433333333","6500600","新店區"
"231028","046-UY","2017/12/09 14:59:54","新北市新店區安豐路46號","121.500028333333","24.9549366666667","6500600","新店區"
"231030","047-UY","2017/12/09 14:59:44","新北市新店區安民街339號","121.516926666667","24.9748983333333","6500600","新店區"
"231029","106-UY","2017/12/09 14:59:52","新北市新店區錦秀路48號","121.47907","24.94343","6500600","新店區"
"231018","107-UY","2017/12/09 14:59:41","新北市新店區中央五街7號","121.530108333333","24.9743","6500600","新店區"
"231012","108-UY","2017/12/09 14:59:40","新北市新店區中興路三段205巷8弄2號","121.543253333333","24.9816083333333","6500600","新店區"
"231020","187-VK","2017/12/09 14:59:40","新北市新店區永福路54號","121.558103333333","24.9286716666667","6500600","新店區"
"231017","KEA-2219","2017/12/09 14:59:46","新北市新店區銀河路57號","121.577098333333","24.95772","6500600","新店區"
"231026","256-BX","2017/12/09 14:59:45","新北市新店區博愛街1號","121.540543333333","24.97258","6500600","新店區"
"231023","AAD-862","2017/12/09 14:59:53","新北市新店區檳榔路109號","121.544486666667","24.9616983333333","6500600","新店區"
"231024","4716-K9","2017/12/09 14:59:42","新北市新店區力行路92號","121.538353333333","24.966535","6500600","新店區"
"231036","512-UM","2017/12/09 14:59:52","新北市新店區安祥路102巷42弄35號","121.48518","24.963455","6500600","新店區"
"231035","515-UM","2017/12/09 14:59:55","新北市新店區永安街74巷17號","121.519185","24.985945","6500600","新店區"
"231003","616-UM","2017/12/09 14:59:47","新北市新店區中興路二段231-2號","121.547778333333","24.9749483333333","6500600","新店區"
"231006","617-UM","2017/12/09 14:59:52","新北市新店區新坡一街72號","121.548928333333","24.9645366666667","6500600","新店區"
"231001","619-UM","2017/12/09 14:59:39","新北市新店區中正路276號","121.538876666667","24.97367","6500600","新店區"
"231034","645-TV","2017/12/09 14:59:52","新北市新店區玫瑰路4-1號","121.493585","24.9513983333333","6500600","新店區"
"231039","718-UY","2017/12/09 14:59:56","新北市新店區寶安街30號","121.542","24.9824083333333","6500600","新店區"
"231033","720-UM","2017/12/09 14:59:46","新北市新店區安泰路7巷16號","121.48563","24.9508016666667","6500600","新店區"
"231005","897-TW","2017/12/09 14:59:50","新北市新店區復興路68號","121.537681666667","24.986785","6500600","新店區"
"231004","899-TW","2017/12/09 14:59:48","新北市新店區建國路104號","121.539888333333","24.977865","6500600","新店區"
"231037","AKT-0513","2017/12/09 14:59:48","新北市新店區安民街341-1號","121.516533333333","24.9750083333333","6500600","新店區"
"235030","003-UY","2017/12/09 14:59:48","新北市中和區中山路二段62號","121.50402","25.0046666666667","6500300","中和區"
"235010","031-BX","2017/12/09 14:59:51","新北市中和區興南路一段93巷8弄1號","121.509923333333","24.9878516666667","6500300","中和區"
"235020","096-UM","2017/12/09 14:59:53","新北市板橋區漢生東路352號","121.472113333333","25.0072633333333","6500300","中和區"
"235003","097-UM","2017/12/09 14:59:55","新北市中和區宜安路7號","121.513485","24.9954833333333","6500300","中和區"
"235029","098-UM","2017/12/09 14:59:45","新北市中和區永和路128巷9號","121.497616666667","25.0069433333333","6500300","中和區"
"235004","150-BY","2017/12/09 14:59:41","新北市中和區景安路79巷39號","121.507418333333","24.99628","6500300","中和區"
"235002","185-VK","2017/12/09 14:59:46","新北市中和區大智街55巷30弄58-1號","121.522295","24.9934516666667","6500300","中和區"
"235013","186-VK","2017/12/09 14:59:50","新北市中和區南華路15號","121.502501666667","24.995685","6500300","中和區"
"235031","255-BX","2017/12/09 14:59:37","新北市中和區中正路751巷3弄14號","121.484248333333","24.9991683333333","6500300","中和區"
"235008","293-VK","2017/12/09 14:59:53","新北市中和區中正路65巷1弄2號","121.501265","24.9930233333333","6500300","中和區"
"235036","301-VK","2017/12/09 14:59:56","新北市中和區中和路86號","121.500911666667","25.0002116666667","6500300","中和區"
"235007","352-BY","2017/12/09 14:59:52","新北市中和區華新街151號","121.506178333333","24.9815216666667","6500300","中和區"
"235032","377-QA","2017/12/09 14:59:39","新北市中和區勝利路35巷22號","121.499005","25.0069883333333","6500300","中和區"
"235014","4979-A6","2017/12/09 14:59:39","新北市中和區景平路153號","121.513536666667","24.9918883333333","6500300","中和區"
"235034","558-UM","2017/12/09 14:59:26","新北市中和區連勝街39號","121.498158333333","24.9976366666667","6500300","中和區"
"235018","640-BX","2017/12/09 14:59:56","新北市中和區莒光路163號","121.472666666667","25.0002583333333","6500300","中和區"
"235024","647-TV","2017/12/09 14:59:46","新北市中和區新生街16巷8號","121.482728333333","25.004335","6500300","中和區"
"235011","732-UM","2017/12/09 14:59:35","新北市中和區和平街164-4號","121.50561","24.9921216666667","6500300","中和區"
"235026","800-TS","2017/12/09 14:59:40","新北市中和區永和路171巷3弄1號","121.49242","25.0066083333333","6500300","中和區"
"235016","805-TS","2017/12/09 14:59:55","新北市中和區華新街110號","121.508528333333","24.98282","6500300","中和區"
"235012","896-TW","2017/12/09 14:59:42","新北市中和區忠孝街5巷9號","121.509223333333","24.9831433333333","6500300","中和區"
"235017","900-TW","2017/12/09 14:59:38","新北市中和區國光街171巷17號","121.46777","25.0013166666667","6500300","中和區"
"235015","157-BY","2017/12/09 14:59:55","新北市中和區興南路一段56巷3弄6號","121.510266666667","24.9909716666667","6500300","中和區"
"235001","AAC-213","2017/12/09 14:59:50","新北市中和區成功路10號","121.526001666667","24.9936966666667","6500300","中和區"
"235023","AAC-215","2017/12/09 14:59:44","新北市中和區錦和路408號","121.491146666667","24.9896016666667","6500300","中和區"
"220016","013-TV","2017/12/09 14:59:38","新北市板橋區中山路二段491號","121.482441666667","25.0208883333333","6500100","板橋區"
"220014","015-TV","2017/12/09 14:59:46","新北市板橋區大明街18號","121.458956666667","25.002615","6500100","板橋區"
"220013","072-UY","2017/12/09 14:59:51","新北市板橋區長安街57號","121.46712","25.00882","6500100","板橋區"
"220034","073-UY","2017/12/09 14:59:50","新北市板橋區南雅西路二段7巷25號","121.451936666667","25.009475","6500100","板橋區"
"220105","075-UY","2017/12/09 14:59:47","新北市板橋區懷德街9號","121.476736666667","25.0330616666667","6500100","板橋區"
"220051","120-SR","2017/12/09 14:59:52","新北市板橋區懷德街66巷20號","121.476946666667","25.03197","6500100","板橋區"
"247007","053-VK","2017/12/09 14:57:33","新北市五股區中興路三段163號","121.449051666667","25.08064","6501400","蘆洲區"
"228005","097-TW","2017/12/09 14:59:53","新北市貢寮區仁理村仁和路19號","121.92369","25.053425","6502600","貢寮區"
"228004","212-TW","2017/12/09 14:59:35","新北市貢寮區雙玉里田寮洋街1號","121.928178333333","25.01819","6502600","貢寮區"
"253003","6232-TK","2017/12/09 14:59:37","新北市石門區小坑9號","121.593456666667","25.2867483333333","6502200","石門區"
"253001","6251-TK","2017/12/09 14:59:45","新北市石門區崁子腳31-2號","121.537388333333","25.284985","6502200","石門區"
"253002","637-UY","2017/12/09 14:59:48","新北市石門區老梅路2-23號","121.543611666667","25.2883733333333","6502200","石門區"
"253004","8270-PC","2017/12/09 14:59:49","新北市石門區茂林社區98號","121.591956666667","25.2704233333333","6502200","石門區"
"208004","AAC-292","2017/12/09 14:59:55","新北市金山區三界壇路6號","121.626471666667","25.22819","6502700","金山區"
"207002","749-BX","2017/12/09 14:59:57","新北市萬里區崁腳里崁腳路73號","121.647598333333","25.1596066666667","6502800","萬里區"
"207001","662-BX","2017/12/09 14:59:21","新北市萬里區雙興里豐稟路4-1號","121.648345","25.185605","6502800","萬里區"
"236068","105-UM","2017/12/09 14:59:57","新北市土城區明德路二段209號","121.446385","24.9837266666667","6501300","土城區"
"236041","107-UM","2017/12/09 14:59:46","新北市土城區學府路一段229巷13號","121.451758333333","24.9837633333333","6501300","土城區"
"236075","166-UM","2017/12/09 14:59:53","新北市土城區大暖坑11-2號","121.418715","24.9537333333333","6501300","土城區"
"236029","253-BX","2017/12/09 14:59:55","新北市土城區中央路二段99號","121.442081666667","24.9778366666667","6501300","土城區"
"236025","269-VK","2017/12/09 14:59:40","新北市土城區中正路59號","121.444353333333","24.97556","6501300","土城區"
"236013","270-VK","2017/12/09 14:59:36","新北市土城區立德路29巷4號","121.461981666667","24.988465","6501300","土城區"
"236035","271-VK","2017/12/09 14:59:55","新北市土城區仁愛路2號","121.459726666667","24.9812316666667","6501300","土城區"
"236017","401-BY","2017/12/09 14:59:56","新北市土城區延吉街168巷3號","121.46823","24.9855733333333","6501300","土城區"
"236057","912-UM","2017/12/09 14:59:43","新北市土城區明德路一段385-1號","121.452288333333","24.9796833333333","6501300","土城區"
"236045","913-UM","2017/12/09 14:59:38","新北市土城區明德路一段398-1號","121.453636666667","24.9791083333333","6501300","土城區"
"236061","915-UM","2017/12/09 14:59:54","新北市土城區金城路三段93巷25號","121.466725","24.9885666666667","6501300","土城區"
"236054","AAC-216","2017/12/09 14:59:49","新北市土城區學成路80號","121.450843333333","24.9885616666667","6501300","土城區"
"221008","489-VK","2017/12/09 14:59:49","新北市汐止區汐萬路一段256巷3號","121.652545","25.0745583333333","6501100","汐止區"
"221012","276-VK","2017/12/09 13:27:45","新北市汐止區汐萬路一段256巷3號","121.653451666667","25.0746066666667","6501100","汐止區"
"221002","707-TV","2017/12/09 14:59:41","新北市汐止區新興路116號","121.6579","25.06114","6501100","汐止區"
"220027","145-BY","2017/12/09 14:59:41","新北市板橋區僑中一街124巷80號","121.447933333333","25.0178066666667","6500100","板橋區"
"220030","610-BX","2017/12/09 14:59:48","新北市板橋區存德街81號","121.431898333333","24.991145","6500100","板橋區"
"220050","245-BX","2017/12/09 14:59:50","新北市板橋區萬板路118號","121.474976666667","25.0233783333333","6500100","板橋區"
"220103","255-TC","2017/12/09 14:29:20","新北市板橋區民權路168號","121.459805","25.0130933333333","6500100","板橋區"
"220028","256-TC","2017/12/09 14:59:44","新北市板橋區大觀路二段153巷44弄1號","121.446223333333","24.9992933333333","6500100","板橋區"
"220040","267-BY","2017/12/09 14:59:54","新北市板橋區文聖街89巷1號","121.477735","25.0302016666667","6500100","板橋區"
"220020","277-BY","2017/12/09 14:59:48","新北市板橋區金門街281號","121.431268333333","24.9881666666667","6500100","板橋區"
"220019","283-VK","2017/12/09 14:59:51","新北市板橋區廣權路119號","121.465246666667","24.9931116666667","6500100","板橋區"
"220043","285-UM","2017/12/09 14:59:56","新北市板橋區陽明街78號","121.464558333333","25.0227116666667","6500100","板橋區"
"220001","285-VK","2017/12/09 14:59:44","新北市板橋區永豐街121號","121.474478333333","25.01964","6500100","板橋區"
"220031","286-VK","2017/12/09 14:59:48","新北市板橋區大觀路一段38巷156弄183號","121.44426","25.009705","6500100","板橋區"
"220029","287-VK","2017/12/09 14:59:51","新北市板橋區僑中一街124巷18弄45號","121.448198333333","25.01365","6500100","板橋區"
"220039","288-VK","2017/12/09 14:59:53","新北市板橋區幸福路32巷71號","121.460533333333","25.0223666666667","6500100","板橋區"
"220009","293-UM","2017/12/09 14:59:38","新北市板橋區中山路二段17號","121.472203333333","25.015025","6500100","板橋區"
"220010","295-UM","2017/12/09 14:59:46","新北市板橋區萬安街20巷2弄13號","121.485305","25.0227033333333","6500100","板橋區"
"220032","296-UM","2017/12/09 14:59:47","新北市樹林區博愛街201號","121.42457","24.9885533333333","6500100","板橋區"
"220041","299-UM","2017/12/09 14:59:37","新北市板橋區英士路153號","121.45961","25.023695","6500100","板橋區"
"220047","317-R6","2017/12/09 14:59:36","新北市板橋區漢生西路165巷34號","121.462251666667","25.0234683333333","6500100","板橋區"
"220080","461-BY","2017/12/09 13:44:46","新北市板橋區華東街1-9號","121.448195","24.994985","6500100","板橋區"
"220012","486-VK","2017/12/09 14:59:54","新北市板橋區民族路129巷26號","121.468005","25.0088916666667","6500100","板橋區"
"220038","487-VK","2017/12/09 14:59:50","新北市板橋區英士路199號","121.458601666667","25.023595","6500100","板橋區"
"220037","491-VK","2017/12/09 14:59:47","新北市板橋區仁化街141號","121.477505","25.0330066666667","6500100","板橋區"
"220052","561-BX","2017/12/09 14:59:56","新北市板橋區自由路43號","121.465596666667","25.0232483333333","6500100","板橋區"
"220023","568-UM","2017/12/09 14:59:55","新北市板橋區金華街10巷48弄41號","121.45848","25.0200916666667","6500100","板橋區"
"220011","609-BX","2017/12/09 14:59:51","新北市板橋區中山路二段503號","121.48277","25.0210266666667","6500100","板橋區"
"220005","686-BX","2017/12/09 14:59:46","新北市板橋區四川路二段88號","121.451958333333","24.9946633333333","6500100","板橋區"
"220025","687-BX","2017/12/09 14:59:48","新北市板橋區僑中一街124巷70-5號","121.449453333333","25.0149516666667","6500100","板橋區"
"220042","689-BX","2017/12/09 14:59:50","新北市板橋區長江路二段245號","121.46909","25.03274","6500100","板橋區"
"220002","741-BX","2017/12/09 14:59:43","新北市板橋區實踐路93巷19號","121.46494","25.0056483333333","6500100","板橋區"
"220003","827-TW","2017/12/09 14:59:46","新北市板橋區重慶路293號","121.463236666667","24.9992983333333","6500100","板橋區"
"220014","829-TW","2017/12/09 14:59:39","新北市板橋區中山路一段206巷43號","121.470756666667","25.0128216666667","6500100","板橋區"
"220045","831-TW","2017/12/09 14:59:51","新北市板橋區莒光路133巷18號","121.472826666667","25.0245216666667","6500100","板橋區"
"220022","895-R6","2017/12/09 14:59:54","新北市板橋區館前西路88號","121.457461666667","25.0071566666667","6500100","板橋區"
"220046","AAC-210","2017/12/09 14:59:50","新北市板橋區光正街16巷7號","121.463123333333","25.0174883333333","6500100","板橋區"
"220018","AAC-253","2017/12/09 14:59:42","新北市板橋區成都街89號","121.46302","25.005255","6500100","板橋區"
