"lineid","car","time","location","longitude","latitude","cityid","cityname"
"241031","838-RS","2017/12/09 14:25:05","新北市永和區保順路27號","121.50381","25.01042","6500200","三重區"
"231030","047-UY","2017/12/09 15:49:44","新北市新店區永安街22-1號","121.517411666667","24.9864766666667","6500600","新店區"
"231018","107-UY","2017/12/09 15:49:41","新北市新店區中正路663巷7弄15號","121.532938333333","24.9901116666667","6500600","新店區"
"231012","108-UY","2017/12/09 15:49:40","新北市新店區文化路22-1號","121.543553333333","24.9797666666667","6500600","新店區"
"231020","187-VK","2017/12/09 15:49:40","新北市新店區新烏路一段85巷6-6號","121.549741666667","24.9426516666667","6500600","新店區"
"231017","KEA-2219","2017/12/09 15:49:36","新北市新店區中華路83巷4弄10號","121.538591666667","24.9684566666667","6500600","新店區"
"231026","256-BX","2017/12/09 15:49:45","新北市新店區中正路429-1號","121.534053333333","24.9782816666667","6500600","新店區"
"231046","278-BY","2017/12/09 15:49:45","新北市新店區安華路28-1號","121.519796666667","24.9611133333333","6500600","新店區"
"231023","AAD-862","2017/12/09 15:49:53","新北市新店區大新街9巷22號","121.54418","24.9671516666667","6500600","新店區"
"231038","4715-K9","2017/12/09 15:49:36","新北市新店區安康路二段180號","121.511496666667","24.9601933333333","6500600","新店區"
"231035","515-UM","2017/12/09 15:49:55","新北市新店區安民街381號","121.51629","24.9763733333333","6500600","新店區"
"231003","616-UM","2017/12/09 15:49:47","新北市新店區寶興路60巷3號","121.549918333333","24.9717866666667","6500600","新店區"
"231034","645-TV","2017/12/09 15:49:52","新北市新店區玫瑰路57巷5號","121.49597","24.94634","6500600","新店區"
"231013","719-UM","2017/12/09 15:49:50","新北市新店區永業路81巷11弄9號","121.53152","24.9505666666667","6500600","新店區"
"231033","720-UM","2017/12/09 15:49:46","新北市新店區雙城路45巷20號","121.49304","24.94838","6500600","新店區"
"231005","897-TW","2017/12/09 15:49:50","新北市新店區北新路一段147號","121.539673333333","24.9634416666667","6500600","新店區"
"231037","AKT-0513","2017/12/09 15:49:48","新北市新店區安興路112號","121.514636666667","24.977635","6500600","新店區"
"241011","013-R5","2017/12/09 15:49:50","新北市三重區文化北路141號","121.497663333333","25.069295","6500200","三重區"
"241028","022-UY","2017/12/09 15:49:52","新北市三重區中正南路41巷1號","121.493803333333","25.05999","6500200","三重區"
"241015","062-VK","2017/12/09 15:49:42","新北市三重區重新路四段121號","121.485145","25.05202","6500200","三重區"
"241017","063-VK","2017/12/09 15:49:47","新北市三重區大仁街38號","121.491545","25.0643216666667","6500200","三重區"
"241024","065-VK","2017/12/09 15:49:53","新北市三重區重新路四段121號","121.484445","25.0521183333333","6500200","三重區"
"241026","066-VK","2017/12/09 15:49:40","新北市三重區重新路四段121號","121.484816666667","25.052245","6500200","三重區"
"241003","091-VK","2017/12/09 15:49:51","新北市三重區環河南路35號","121.503173333333","25.0611333333333","6500200","三重區"
"241005","262-UM","2017/12/09 15:49:38","新北市三重區河邊北街379號","121.502203333333","25.0766566666667","6500200","三重區"
"241022","267-UM","2017/12/09 15:49:50","新北市三重區重新路四段121號","121.484628333333","25.0515666666667","6500200","三重區"
"241018","268-UM","2017/12/09 15:49:45","新北市三重區重新路三段102號","121.492603333333","25.0605333333333","6500200","三重區"
"241013","270-UM","2017/12/09 15:49:53","新北市三重區六張街15號","121.49541","25.070685","6500200","三重區"
"241007","398-BY","2017/12/09 15:49:40","新北市三重區重新路四段121號","121.484713333333","25.05144","6500200","三重區"
"241014","543-UM","2017/12/09 15:49:33","新北市三重區重新路四段121號","121.485101666667","25.0520766666667","6500200","三重區"
"241023","545-UM","2017/12/09 15:49:44","新北市三重區新北大道一段250號","121.479795","25.0611283333333","6500200","三重區"
"241012","941-UM","2017/12/09 15:49:50","新北市三重區文化北路87巷3號","121.498346666667","25.06738","6500200","三重區"
"241029","942-UM","2017/12/09 15:49:51","新北市三重區大同南路159號","121.496875","25.0558466666667","6500200","三重區"
"241033","AAC-255","2017/12/09 15:49:35","新北市三重區光復路一段140號","121.471998333333","25.0526816666667","6500200","三重區"
"235033","4980-A6","2017/12/09 15:49:47","新北市中和區連城路523巷11弄34號","121.482548333333","24.993995","6500300","中和區"
"235015","157-BY","2017/12/09 15:49:34","新北市中和區捷運路73號","121.508615","24.9899566666667","6500300","中和區"
"235023","AAC-215","2017/12/09 15:49:44","新北市中和區員山路57號","121.480841666667","24.9933683333333","6500300","中和區"
"247004","336-TH","2017/12/09 15:41:07","新北市五股區中興路三段163號","121.449138333333","25.0806333333333","6501400","蘆洲區"
"247007","053-VK","2017/12/09 14:57:33","新北市五股區中興路三段163號","121.449051666667","25.08064","6501400","蘆洲區"
"224007","273-VK","2017/12/09 15:49:50","新北市瑞芳區大寮路356-1號","121.78485","25.1032283333333","6501200","瑞芳區"
"224005","271-BY","2017/12/09 15:49:39","新北市瑞芳區傑魚坑路147號","121.790401666667","25.10977","6501200","瑞芳區"
"227002","642-TC","2017/12/09 15:49:46","新北市雙溪區平林里外平林44號","121.852921666667","25.036325","6502500","雙溪區"
"227010","400-TW","2017/12/09 15:49:50","新北市雙溪區牡丹里中正路54號","121.8654","25.0402033333333","6502500","雙溪區"
"236068","105-UM","2017/12/09 15:49:37","新北市土城區福安街31號","121.419363333333","24.9648233333333","6501300","土城區"
"236075","166-UM","2017/12/09 15:49:53","新北市土城區民族街22巷4號","121.419311666667","24.9633683333333","6501300","土城區"
"236025","269-VK","2017/12/09 15:49:40","新北市土城區裕生路86巷4號","121.446921666667","24.98523","6501300","土城區"
"236013","270-VK","2017/12/09 15:49:35","新北市土城區廣明街63巷15號","121.454281666667","24.9933416666667","6501300","土城區"
"236017","401-BY","2017/12/09 15:49:36","新北市土城區延吉街111巷15號","121.471701666667","24.9861566666667","6501300","土城區"
"236057","912-UM","2017/12/09 15:49:42","新北市土城區中央路二段94號","121.442345","24.9786766666667","6501300","土城區"
"236045","913-UM","2017/12/09 15:49:38","新北市土城區清水路73號","121.455631666667","24.9814583333333","6501300","土城區"
"236054","AAC-216","2017/12/09 15:49:49","新北市土城區中華路一段236號","121.43978","24.9797833333333","6501300","土城區"
"221008","489-VK","2017/12/09 15:03:31","新北市汐止區康寧街901號","121.651473333333","25.0750833333333","6501100","汐止區"
"221012","276-VK","2017/12/09 13:27:45","新北市汐止區汐萬路一段256巷3號","121.653451666667","25.0746066666667","6501100","汐止區"
"220103","255-TC","2017/12/09 14:29:20","新北市板橋區民權路168號","121.459805","25.0130933333333","6500100","板橋區"
"220080","461-BY","2017/12/09 13:44:46","新北市板橋區華東街1-9號","121.448195","24.994985","6500100","板橋區"
