"lineid","car","time","location","longitude","latitude","cityid","cityname"
"241031","838-RS","2017/12/09 14:25:05","新北市永和區保順路27號","121.50381","25.01042","6500200","三重區"
"249005","172-UM","2017/12/09 16:59:39","新北市八里區渡船頭3-19號","121.433855","25.1516916666667","6502300","八里區"
"249001","173-UM","2017/12/09 16:59:39","新北市八里區下罟子1-12號","121.390093333333","25.14213","6502300","八里區"
"249004","303-UY","2017/12/09 16:59:38","新北市八里區挖子尾街6號","121.41575","25.1643983333333","6502300","八里區"
"249002","305-UY","2017/12/09 16:59:36","新北市八里區牛寮埔22號","121.432921666667","25.1424983333333","6502300","八里區"
"249003","759-BX","2017/12/09 16:59:53","新北市八里區中山路二段281號","121.401786666667","25.148675","6502300","八里區"
"244007","080-UY","2017/12/09 16:59:49","新北市林口區台電新村33號","121.386298333333","25.0865083333333","6501700","林口區"
"244019","403-UM","2017/12/09 16:59:56","新北市林口區中山路198號","121.388775","25.0789983333333","6501700","林口區"
"244009","410-SL","2017/12/09 16:59:37","新北市林口區粉寮69號","121.405036666667","25.0909016666667","6501700","林口區"
"244023","483-VK","2017/12/09 16:59:54","新北市林口區粉寮路二段160巷28號","121.405116666667","25.0907716666667","6501700","林口區"
"244021","838-TS","2017/12/09 16:59:44","新北市林口區粉寮69號","121.404863333333","25.0908416666667","6501700","林口區"
"231046","278-BY","2017/12/09 16:59:44","新北市新店區灣潭路12-2號","121.538183333333","24.94615","6500600","新店區"
"241011","013-R5","2017/12/09 16:59:39","新北市三重區仁愛街53巷72號","121.497935","25.0724683333333","6500200","三重區"
"241028","022-UY","2017/12/09 16:59:52","新北市三重區中正南路50號","121.493973333333","25.05992","6500200","三重區"
"241008","059-VK","2017/12/09 16:59:53","新北市三重區永福街179巷30號","121.477885","25.0747966666667","6500200","三重區"
"241009","060-VK","2017/12/09 16:59:53","新北市三重區仁美街108巷15號","121.484793333333","25.080565","6500200","三重區"
"241031","061-VK","2017/12/09 16:59:43","新北市三重區重新路三段115巷12號","121.490315","25.0603683333333","6500200","三重區"
"241015","062-VK","2017/12/09 16:59:42","新北市三重區三和路二段19號","121.501166666667","25.0669283333333","6500200","三重區"
"241017","063-VK","2017/12/09 16:59:47","新北市三重區國隆路12巷3號","121.492821666667","25.0637716666667","6500200","三重區"
"241024","065-VK","2017/12/09 16:59:52","新北市三重區大勇街82巷26弄29號","121.478423333333","25.0720633333333","6500200","三重區"
"241026","066-VK","2017/12/09 16:59:40","新北市三重區文化南路42號","121.500386666667","25.06028","6500200","三重區"
"241002","090-VK","2017/12/09 16:59:51","新北市三重區仁義街101巷2號","121.498086666667","25.079915","6500200","三重區"
"241003","091-VK","2017/12/09 16:59:51","新北市三重區五華街89號","121.492016666667","25.0832733333333","6500200","三重區"
"241005","262-UM","2017/12/09 16:59:38","新北市三重區碧華街56巷1號","121.484001666667","25.0815133333333","6500200","三重區"
"241006","265-UM","2017/12/09 16:59:49","新北市三重區車路頭街117巷34號","121.485163333333","25.075575","6500200","三重區"
"241016","266-UM","2017/12/09 16:59:55","新北市三重區大同北路71號","121.495216666667","25.0637666666667","6500200","三重區"
"241022","267-UM","2017/12/09 16:59:50","新北市三重區三民街151號","121.484311666667","25.064125","6500200","三重區"
"241018","268-UM","2017/12/09 16:59:45","新北市三重區六張街126巷2弄20號","121.49255","25.06948","6500200","三重區"
"241032","269-UM","2017/12/09 16:59:49","新北市三重區三民街18號","121.485641666667","25.0607883333333","6500200","三重區"
"241013","270-UM","2017/12/09 16:59:53","新北市三重區仁福街64巷1號","121.498051666667","25.074795","6500200","三重區"
"241025","271-UM","2017/12/09 16:59:51","新北市三重區中正北路508巷11號","121.472731666667","25.0710366666667","6500200","三重區"
"241007","398-BY","2017/12/09 16:59:40","新北市三重區溪尾街160號","121.488848333333","25.0802233333333","6500200","三重區"
"241004","KEA-2210","2017/12/09 16:59:55","新北市三重區五華街98巷9號","121.492103333333","25.082255","6500200","三重區"
"241020","413-TH","2017/12/09 16:59:46","新北市三重區自強路三段72號","121.48688","25.0733716666667","6500200","三重區"
"241019","478-VK","2017/12/09 16:59:47","新北市三重區自強路二段74巷21號","121.487988333333","25.0698666666667","6500200","三重區"
"241030","480-VK","2017/12/09 16:59:51","新北市三重區昌隆街72號","121.49094","25.0507816666667","6500200","三重區"
"241014","543-UM","2017/12/09 16:59:52","新北市三重區介壽路189號","121.501453333333","25.0707266666667","6500200","三重區"
"241023","545-UM","2017/12/09 16:59:44","新北市三重區忠孝路三段84巷1號","121.480236666667","25.0644683333333","6500200","三重區"
"241001","547-UM","2017/12/09 16:59:53","新北市三重區仁政街5號","121.493348333333","25.07623","6500200","三重區"
"241012","941-UM","2017/12/09 16:59:50","新北市三重區仁和街78號","121.499103333333","25.0745083333333","6500200","三重區"
"241029","942-UM","2017/12/09 16:59:51","新北市三重區泉州街96巷6號","121.495345","25.0540216666667","6500200","三重區"
"241033","AAC-255","2017/12/09 16:59:55","新北市三重區中興北街271號","121.469105","25.0606766666667","6500200","三重區"
"247020","500-BY","2017/12/09 16:59:39","新北市蘆洲區民族路422巷82弄10號","121.47416","25.09372","6501400","蘆洲區"
"247010","339-TH","2017/12/09 16:59:37","新北市蘆洲區信義路170號","121.479386666667","25.08387","6501400","蘆洲區"
"247002","337-TH","2017/12/09 16:59:39","新北市蘆洲區永平街20號","121.459098333333","25.0906683333333","6501400","蘆洲區"
"247004","336-TH","2017/12/09 16:59:48","新北市蘆洲區永安南路二段264號","121.459365","25.0804283333333","6501400","蘆洲區"
"247016","057-VK","2017/12/09 16:55:52","新北市蘆洲區光華路11號","121.469901666667","25.083415","6501400","蘆洲區"
"247006","056-VK","2017/12/09 16:59:40","新北市蘆洲區永安南路二段232號","121.460588333333","25.0796","6501400","蘆洲區"
"247008","053-VK","2017/12/09 16:59:48","新北市蘆洲區民生街4號","121.475751666667","25.0793766666667","6501400","蘆洲區"
"247014","007-UY","2017/12/09 16:59:53","新北市蘆洲區中山二路36巷9號","121.474201666667","25.0826333333333","6501400","蘆洲區"
"247024","002-UY","2017/12/09 16:59:38","新北市蘆洲區長興路202號","121.460555","25.0874133333333","6501400","蘆洲區"
"247018","001-UY","2017/12/09 16:59:54","新北市蘆洲區民族路302號","121.477726666667","25.09","6501400","蘆洲區"
"228003","097-TW","2017/12/09 16:59:55","新北市貢寮區福隆里興隆街21-1號","121.943418333333","25.016495","6502600","貢寮區"
"228001","212-TW","2017/12/09 16:59:52","新北市貢寮區貢寮里朝陽街2號","121.912486666667","25.021585","6502600","貢寮區"
"228002","585-TW","2017/12/09 16:59:36","新北市貢寮區貢寮里朝陽街86號","121.908978333333","25.02209","6502600","貢寮區"
"224006","676-BX","2017/12/09 16:59:39","新北市瑞芳區大寮路356-1號","121.784633333333","25.1032833333333","6501200","瑞芳區"
"224009","285-BY","2017/12/09 16:59:49","新北市瑞芳區濱二路31號","121.833026666667","25.11156","6501200","瑞芳區"
"224008","275-VK","2017/12/09 16:59:55","新北市瑞芳區九芎橋路198號","121.834466666667","25.099135","6501200","瑞芳區"
"224007","273-VK","2017/12/09 16:59:49","新北市瑞芳區瑞竹路46號","121.763581666667","25.1033833333333","6501200","瑞芳區"
"224005","271-BY","2017/12/09 16:59:36","新北市瑞芳區南雅路41-1號","121.888","25.1204216666667","6501200","瑞芳區"
"227002","642-TC","2017/12/09 16:59:46","新北市雙溪區長源里柑腳35號","121.804041666667","25.0136433333333","6502500","雙溪區"
"227010","400-TW","2017/12/09 16:59:50","新北市雙溪區牡丹里聖南21號","121.85851","25.0532733333333","6502500","雙溪區"
"251004","009-UM","2017/12/09 16:59:40","新北市淡水區中正東路一段12號","121.45227","25.162765","6501000","淡水區"
"251005","010-UM","2017/12/09 16:59:39","新北市淡水區中正路二段31號","121.419156666667","25.1819","6501000","淡水區"
"251014","180-VK","2017/12/09 16:59:44","新北市淡水區淡金路四段472巷24號","121.452896666667","25.223975","6501000","淡水區"
"251008","181-VK","2017/12/09 16:59:42","新北市淡水區樹梅坑9號","121.47272","25.142655","6501000","淡水區"
"251010","413-VK","2017/12/09 16:59:55","新北市淡水區新市五路二段75號","121.431223333333","25.1981916666667","6501000","淡水區"
"251012","441-VK","2017/12/09 16:59:40","新北市淡水區沙崙路116號","121.423035","25.1826333333333","6501000","淡水區"
"251016","442-VK","2017/12/09 16:59:37","新北市淡水區瓦坑3號","121.477575","25.18074","6501000","淡水區"
"251006","561-UM","2017/12/09 16:59:43","新北市淡水區新生街78號","121.43914","25.1749933333333","6501000","淡水區"
"251009","575-R6","2017/12/09 16:59:39","新北市淡水區中正路32巷5號","121.430636666667","25.1752566666667","6501000","淡水區"
"251007","577-R6","2017/12/09 16:59:52","新北市淡水區清水街56巷1號","121.44408","25.1702283333333","6501000","淡水區"
"251011","650-BX","2017/12/09 16:59:42","新北市淡水區中正東路一段105巷1號","121.453355","25.1603816666667","6501000","淡水區"
"251003","766-UM","2017/12/09 16:59:53","新北市淡水區中正路二段31號","121.419248333333","25.1817566666667","6501000","淡水區"
"252002","178-VK","2017/12/09 16:59:48","新北市三芝區忠孝街173號","121.505428333333","25.261365","6502100","三芝區"
"252001","292-VK","2017/12/09 16:59:41","新北市三芝區淡金路二段47-2號","121.503593333333","25.2606066666667","6502100","三芝區"
"242051","751-BX","2017/12/09 16:59:36","新北市新莊區新泰路357巷3弄57號","121.441858333333","25.0391383333333","6500500","新莊區"
"242023","613-BX","2017/12/09 16:59:40","新北市新莊區新泰路255巷83號","121.44219","25.03913","6500500","新莊區"
"242027","612-BX","2017/12/09 16:59:52","新北市新莊區新泰路255巷83號","121.442016666667","25.03897","6500500","新莊區"
"242039","566-BX","2017/12/09 16:59:40","新北市新莊區三和路18-25號","121.441751666667","25.0390916666667","6500500","新莊區"
"242044","497-BY","2017/12/09 16:59:50","新北市新莊區新泰路357巷3弄57號","121.442255","25.039305","6500500","新莊區"
"242013","442-UM","2017/12/09 04:04:47","新北市新莊區三和路12-21號","121.441843333333","25.038885","6500500","新莊區"
"242048","441-UM","2017/12/09 16:59:50","新北市新莊區三和路12-21號","121.442205","25.0383016666667","6500500","新莊區"
"242053","440-UM","2017/12/09 00:48:52","新北市新莊區新泰路357巷3弄57號","121.442121666667","25.039185","6500500","新莊區"
"242034","415-TV","2017/12/09 01:24:42","新北市新莊區新泰路357巷3弄57號","121.442215","25.0394016666667","6500500","新莊區"
"242004","413-TV","2017/12/09 16:59:35","新北市新莊區新泰路357巷3弄57號","121.442176666667","25.03955","6500500","新莊區"
"242042","400-BY","2017/12/09 16:59:52","新北市新莊區新泰路357巷3弄57號","121.442243333333","25.03963","6500500","新莊區"
"242061","362-BY","2017/12/09 16:59:35","新北市新莊區三和路12-21號","121.442098333333","25.03865","6500500","新莊區"
"242017","350-TH","2017/12/09 14:37:25","新北市新莊區新泰路255巷83號","121.442113333333","25.0390166666667","6500500","新莊區"
"242011","351-TH","2017/12/09 16:59:49","新北市新莊區新泰路357巷3弄57號","121.442041666667","25.039605","6500500","新莊區"
"238019","599-UM","2017/12/09 16:59:45","新北市樹林區育德街78-1號","121.387601666667","24.9683016666667","6500700","樹林區"
"238018","571-TV","2017/12/09 16:59:39","新北市樹林區育德街78-1號","121.388126666667","24.968085","6500700","樹林區"
"238021","KEA-2217","2017/12/09 16:59:53","新北市樹林區育德街78-1號","121.387868333333","24.96803","6500700","樹林區"
"238022","KEA-2213","2017/12/09 16:59:47","新北市樹林區八德街435號","121.40631","24.9700116666667","6500700","樹林區"
"238025","303-VK","2017/12/09 16:59:50","新北市樹林區育德街78號","121.387441666667","24.9684616666667","6500700","樹林區"
"239007","AAC-297","2017/12/09 16:59:38","新北市鶯歌區環河路85號","121.347275","24.9396166666667","6500800","鶯歌區"
"239006","891-R6","2017/12/09 16:59:43","新北市鶯歌區二甲路37-15號","121.342588333333","24.93616","6500800","鶯歌區"
"239008","527-UM","2017/12/09 16:59:41","新北市鶯歌區環河路155-1號","121.346688333333","24.938695","6500800","鶯歌區"
"239005","526-UM","2017/12/09 16:59:43","新北市鶯歌區文化路324巷42號","121.350775","24.9439","6500800","鶯歌區"
"239001","417-VK","2017/12/09 11:06:39","新北市鶯歌區二甲路13號","121.344165","24.9352433333333","6500800","鶯歌區"
"239003","360-BY","2017/12/09 16:59:49","新北市鶯歌區文化路324巷42號","121.350675","24.94362","6500800","鶯歌區"
"239002","359-BY","2017/12/09 16:59:50","新北市鶯歌區文化路324巷42號","121.350998333333","24.9439316666667","6500800","鶯歌區"
"239004","193-VK","2017/12/09 16:59:50","新北市鶯歌區二甲路9-1號","121.345523333333","24.935765","6500800","鶯歌區"
"221008","489-VK","2017/12/09 15:03:31","新北市汐止區康寧街901號","121.651473333333","25.0750833333333","6501100","汐止區"
"221012","276-VK","2017/12/09 13:27:45","新北市汐止區汐萬路一段256巷3號","121.653451666667","25.0746066666667","6501100","汐止區"
"220103","255-TC","2017/12/09 14:29:20","新北市板橋區民權路168號","121.459805","25.0130933333333","6500100","板橋區"
"220080","461-BY","2017/12/09 13:44:46","新北市板橋區華東街1-9號","121.448195","24.994985","6500100","板橋區"
"242002","280-VK","2017/12/09 16:59:46","新北市新莊區三和路12-21號","121.441995","25.0383383333333","6500500","新莊區"
