"lineid","car","time","location","longitude","latitude","cityid","cityname"
"241031","838-RS","2017/12/09 14:25:05","新北市永和區保順路27號","121.50381","25.01042","6500200","三重區"
"249005","172-UM","2017/12/09 17:09:46","新北市八里區華富山4-1號","121.417335","25.1449766666667","6502300","八里區"
"249001","173-UM","2017/12/09 17:09:45","新北市八里區中華路二段165巷2-3號","121.407251666667","25.1509133333333","6502300","八里區"
"249004","303-UY","2017/12/09 17:09:46","新北市八里區忠孝路133號","121.423885","25.1606566666667","6502300","八里區"
"249002","305-UY","2017/12/09 17:09:36","新北市八里區龍米路二段147巷6-1號","121.441416666667","25.1493183333333","6502300","八里區"
"249003","759-BX","2017/12/09 17:09:34","新北市八里區中山路二段496號","121.398405","25.1469183333333","6502300","八里區"
"244007","080-UY","2017/12/09 17:09:49","新北市林口區菁埔路39號","121.375306666667","25.0973883333333","6501700","林口區"
"244019","403-UM","2017/12/09 17:09:36","新北市林口區文化一路一段190巷7弄1-3號","121.379638333333","25.0749383333333","6501700","林口區"
"244009","410-SL","2017/12/09 17:09:37","新北市林口區粉寮路17-3號","121.398646666667","25.0808733333333","6501700","林口區"
"244023","483-VK","2017/12/09 17:09:54","新北市林口區中山路6號","121.396745","25.07828","6501700","林口區"
"244021","838-TS","2017/12/09 17:09:44","新北市林口區宏昌街15號","121.403916666667","25.085085","6501700","林口區"
"231046","278-BY","2017/12/09 17:09:44","新北市新店區直潭七街60號","121.532245","24.9399866666667","6500600","新店區"
"241011","013-R5","2017/12/09 17:09:44","新北市三重區介壽路39巷252號","121.503673333333","25.07122","6500200","三重區"
"241028","022-UY","2017/12/09 17:09:52","新北市三重區重新路三段110號","121.49234","25.0602533333333","6500200","三重區"
"241008","059-VK","2017/12/09 17:09:53","新北市三重區力行路二段136巷9號","121.482043333333","25.07569","6500200","三重區"
"241009","060-VK","2017/12/09 17:09:53","新北市三重區三和路四段215巷6號","121.482026666667","25.0798583333333","6500200","三重區"
"241031","061-VK","2017/12/09 17:09:44","新北市三重區重陽路一段113巷1號","121.487158333333","25.0598766666667","6500200","三重區"
"241015","062-VK","2017/12/09 17:09:42","新北市三重區長生街32號","121.499606666667","25.0664683333333","6500200","三重區"
"241017","063-VK","2017/12/09 17:09:46","新北市三重區中正北路25巷14號","121.493465","25.0629383333333","6500200","三重區"
"241024","065-VK","2017/12/09 17:09:52","新北市三重區中正北路193巷11弄3號","121.477448333333","25.070285","6500200","三重區"
"241026","066-VK","2017/12/09 17:09:40","新北市三重區重新路一段94號","121.501461666667","25.0634016666667","6500200","三重區"
"241002","090-VK","2017/12/09 17:09:51","新北市三重區五華街35巷60號","121.49581","25.0816833333333","6500200","三重區"
"241003","091-VK","2017/12/09 17:09:51","新北市三重區富福街109號","121.493493333333","25.0856083333333","6500200","三重區"
"241005","262-UM","2017/12/09 17:09:38","新北市三重區碧華街26號","121.482363333333","25.0806516666667","6500200","三重區"
"241006","265-UM","2017/12/09 17:09:49","新北市三重區車路頭街143巷12號","121.48438","25.0767516666667","6500200","三重區"
"241016","266-UM","2017/12/09 17:09:35","新北市三重區大同北路140號","121.492643333333","25.0650216666667","6500200","三重區"
"241022","267-UM","2017/12/09 17:09:50","新北市三重區中正北路118巷5號","121.485256666667","25.0647783333333","6500200","三重區"
"241018","268-UM","2017/12/09 17:09:45","新北市三重區六張街85號","121.49295","25.070045","6500200","三重區"
"241032","269-UM","2017/12/09 17:09:49","新北市三重區三陽路13巷1號","121.486018333333","25.0594766666667","6500200","三重區"
"241013","270-UM","2017/12/09 17:09:33","新北市三重區仁福街33號","121.49653","25.074485","6500200","三重區"
"241025","271-UM","2017/12/09 17:09:51","新北市三重區中正北路560巷89號","121.470958333333","25.0686833333333","6500200","三重區"
"241007","398-BY","2017/12/09 17:09:40","新北市三重區三和路四段163巷38號","121.485608333333","25.0792983333333","6500200","三重區"
"241004","KEA-2210","2017/12/09 17:09:35","新北市三重區五華街122巷3號","121.491585","25.0830933333333","6500200","三重區"
"241020","413-TH","2017/12/09 17:09:46","新北市三重區自強路三段41號","121.486946666667","25.0726766666667","6500200","三重區"
"241019","478-VK","2017/12/09 17:09:47","新北市三重區力行路一段153巷54號","121.486553333333","25.06925","6500200","三重區"
"241030","480-VK","2017/12/09 17:09:39","新北市三重區集美街142-1號","121.489466666667","25.0531083333333","6500200","三重區"
"241014","543-UM","2017/12/09 17:09:52","新北市三重區龍濱路120-1號","121.501968333333","25.0709733333333","6500200","三重區"
"241023","545-UM","2017/12/09 17:09:44","新北市三重區忠孝路三段84巷1號","121.480241666667","25.06449","6500200","三重區"
"241001","547-UM","2017/12/09 17:09:53","新北市三重區仁愛街255巷33號","121.494138333333","25.0788433333333","6500200","三重區"
"241012","941-UM","2017/12/09 17:09:50","新北市三重區龍門路274巷33號","121.501223333333","25.07515","6500200","三重區"
"241029","942-UM","2017/12/09 17:09:51","新北市三重區重新路三段132號","121.491661666667","25.0598766666667","6500200","三重區"
"241033","AAC-255","2017/12/09 17:09:35","新北市三重區中興北街271號","121.469098333333","25.0606633333333","6500200","三重區"
"247022","893-R6","2017/12/09 17:09:46","新北市蘆洲區民族路391號","121.469361666667","25.0901516666667","6501400","蘆洲區"
"247012","546-UM","2017/12/09 17:09:43","新北市蘆洲區信義路292巷6號","121.478053333333","25.0876833333333","6501400","蘆洲區"
"247020","500-BY","2017/12/09 17:09:39","新北市蘆洲區仁愛街62巷22號","121.472141666667","25.0942716666667","6501400","蘆洲區"
"247010","339-TH","2017/12/09 17:09:39","新北市蘆洲區三民路52號","121.475353333333","25.08357","6501400","蘆洲區"
"247002","337-TH","2017/12/09 17:09:39","新北市蘆洲區永樂街44號","121.457876666667","25.0885216666667","6501400","蘆洲區"
"247004","336-TH","2017/12/09 17:09:48","新北市蘆洲區長安街207巷46號","121.458573333333","25.0813633333333","6501400","蘆洲區"
"247016","057-VK","2017/12/09 17:09:52","新北市蘆洲區光華路71號","121.468126666667","25.0824666666667","6501400","蘆洲區"
"247006","056-VK","2017/12/09 17:09:40","新北市蘆洲區長安街108巷37號","121.462246666667","25.0825616666667","6501400","蘆洲區"
"247008","053-VK","2017/12/09 17:09:39","新北市蘆洲區信義路30巷164號","121.475518333333","25.0761066666667","6501400","蘆洲區"
"247014","007-UY","2017/12/09 17:09:53","新北市蘆洲區得勝街111號","121.472665","25.0834616666667","6501400","蘆洲區"
"247024","002-UY","2017/12/09 17:09:38","新北市蘆洲區長興路37號","121.463366666667","25.0836733333333","6501400","蘆洲區"
"247018","001-UY","2017/12/09 17:09:53","新北市蘆洲區復興路154號","121.477271666667","25.0879233333333","6501400","蘆洲區"
"228003","097-TW","2017/12/09 17:09:50","新北市貢寮區福隆里東興街31-1號","121.95265","25.0206433333333","6502600","貢寮區"
"228001","212-TW","2017/12/09 17:09:52","新北市貢寮區仁理村研海街62-2號","121.925753333333","25.043445","6502600","貢寮區"
"228002","585-TW","2017/12/09 17:09:36","新北市貢寮區龍崗里泮宮路33號","121.907848333333","25.0176616666667","6502600","貢寮區"
"224006","676-BX","2017/12/09 17:09:39","新北市瑞芳區大寮路116-1號","121.779631666667","25.0985166666667","6501200","瑞芳區"
"224009","285-BY","2017/12/09 17:09:49","新北市瑞芳區輕便路32-1號","121.844085","25.1107366666667","6501200","瑞芳區"
"224008","275-VK","2017/12/09 17:09:35","新北市瑞芳區柴寮路14號","121.824661666667","25.0828283333333","6501200","瑞芳區"
"224007","273-VK","2017/12/09 17:09:49","新北市瑞芳區粗坑口路100-1號","121.76023","25.0992666666667","6501200","瑞芳區"
"224005","271-BY","2017/12/09 17:09:36","新北市瑞芳區鼻頭路99號","121.916005","25.1239683333333","6501200","瑞芳區"
"227002","642-TC","2017/12/09 17:09:46","新北市雙溪區外柑里外柑腳38號","121.808966666667","25.0181183333333","6502500","雙溪區"
"227010","400-TW","2017/12/09 17:09:50","新北市雙溪區三貂里子崙坑1-6號","121.849896666667","25.05746","6502500","雙溪區"
"251004","009-UM","2017/12/09 17:09:40","新北市淡水區中正東路二段88巷15號","121.459148333333","25.1503383333333","6501000","淡水區"
"251005","010-UM","2017/12/09 17:09:39","新北市淡水區中正東路6號","121.447156666667","25.1672366666667","6501000","淡水區"
"251014","180-VK","2017/12/09 17:09:44","新北市淡水區八里堆7-1號","121.459698333333","25.2250083333333","6501000","淡水區"
"251008","181-VK","2017/12/09 17:09:42","新北市淡水區樹梅坑17號","121.471538333333","25.144115","6501000","淡水區"
"251010","413-VK","2017/12/09 17:09:36","新北市淡水區新市二路二段200號","121.430188333333","25.1944733333333","6501000","淡水區"
"251012","441-VK","2017/12/09 17:09:40","新北市淡水區中山北路一段158號","121.44431","25.1779066666667","6501000","淡水區"
"251016","442-VK","2017/12/09 17:09:38","新北市淡水區社厝坑3-11號","121.47525","25.1888716666667","6501000","淡水區"
"251006","561-UM","2017/12/09 17:09:43","新北市淡水區新生街78號","121.439098333333","25.1750533333333","6501000","淡水區"
"251009","575-R6","2017/12/09 17:09:39","新北市淡水區三民街20號","121.439008333333","25.1717716666667","6501000","淡水區"
"251007","577-R6","2017/12/09 17:09:52","新北市淡水區民權路103號","121.460455","25.137795","6501000","淡水區"
"251011","650-BX","2017/12/09 17:09:42","新北市淡水區坪頂路51巷2號","121.458036666667","25.1626033333333","6501000","淡水區"
"251003","766-UM","2017/12/09 17:09:33","新北市淡水區中正路二段31號","121.419256666667","25.1817683333333","6501000","淡水區"
"252002","178-VK","2017/12/09 17:09:48","新北市三芝區忠孝街1-1號","121.505803333333","25.25478","6502100","三芝區"
"252001","292-VK","2017/12/09 17:09:41","新北市三芝區埔頭里埔頭37號","121.498381666667","25.2602","6502100","三芝區"
"242031","AAC-296","2017/12/09 05:05:37","新北市新莊區新泰路357巷3弄57號","121.442228333333","25.03947","6500500","新莊區"
"242051","751-BX","2017/12/09 17:09:36","新北市新莊區三和路12-13號","121.441925","25.0371733333333","6500500","新莊區"
"242025","615-BX","2017/12/09 17:09:41","新北市新莊區三和路12-21號","121.442101666667","25.03875","6500500","新莊區"
"242023","613-BX","2017/12/09 17:09:40","新北市新莊區新泰路255巷83號","121.442268333333","25.0391916666667","6500500","新莊區"
"242027","612-BX","2017/12/09 17:09:52","新北市新莊區三和路12-21號","121.442233333333","25.0384766666667","6500500","新莊區"
"242039","566-BX","2017/12/09 17:09:40","新北市新莊區三和路12-16號","121.441933333333","25.03739","6500500","新莊區"
"242044","497-BY","2017/12/09 17:09:50","新北市新莊區中正路535-3號","121.438121666667","25.033235","6500500","新莊區"
"242013","442-UM","2017/12/09 04:04:47","新北市新莊區三和路12-21號","121.441843333333","25.038885","6500500","新莊區"
"242048","441-UM","2017/12/09 17:09:49","新北市新莊區中正路596號","121.426911666667","25.0302","6500500","新莊區"
"242053","440-UM","2017/12/09 17:09:28","新北市新莊區三和路12-21號","121.442141666667","25.0384866666667","6500500","新莊區"
"242034","415-TV","2017/12/09 01:24:42","新北市新莊區新泰路357巷3弄57號","121.442215","25.0394016666667","6500500","新莊區"
"242004","413-TV","2017/12/09 17:09:35","新北市新莊區新泰路357巷3弄57號","121.44191","25.0394","6500500","新莊區"
"242042","400-BY","2017/12/09 17:09:52","新北市新莊區新泰路357巷3弄1號","121.442393333333","25.0416416666667","6500500","新莊區"
"242061","362-BY","2017/12/09 17:09:35","新北市新莊區新泰路255巷83號","121.44228","25.0387233333333","6500500","新莊區"
"242058","353-BY","2017/12/09 17:09:42","新北市新莊區新泰路255巷83號","121.442163333333","25.038825","6500500","新莊區"
"242036","133-UY","2017/12/09 17:09:49","新北市新莊區三和路10號","121.441921666667","25.036235","6500500","新莊區"
"242021","135-UY","2017/12/09 17:09:39","新北市新莊區三和路12-21號","121.44201","25.0388416666667","6500500","新莊區"
"242046","172-VK","2017/12/09 15:40:20","新北市新莊區三和路12-21號","121.442088333333","25.038785","6500500","新莊區"
"242009","173-VK","2017/12/09 00:35:05","新北市新莊區三和路12-21號","121.441955","25.0388266666667","6500500","新莊區"
"242015","175-VK","2017/12/09 17:09:46","新北市新莊區三和路12-21號","121.441873333333","25.0387433333333","6500500","新莊區"
"242007","347-TH","2017/12/09 00:12:46","新北市新莊區三和路12-16號","121.442041666667","25.0374466666667","6500500","新莊區"
"242019","348-TH","2017/12/09 17:09:39","新北市新莊區三和路12-18號","121.442365","25.0375883333333","6500500","新莊區"
"242017","350-TH","2017/12/09 14:37:25","新北市新莊區新泰路255巷83號","121.442113333333","25.0390166666667","6500500","新莊區"
"242011","351-TH","2017/12/09 17:09:49","新北市新莊區新泰路357巷3弄57號","121.442026666667","25.0396","6500500","新莊區"
"238015","755-BX","2017/12/09 17:09:44","新北市樹林區育德街78-1號","121.388421666667","24.9680983333333","6500700","樹林區"
"238023","601-UM","2017/12/09 17:09:36","新北市樹林區中山路三段125-10號","121.39738","24.97336","6500700","樹林區"
"238019","599-UM","2017/12/09 17:09:45","新北市樹林區八德街682號","121.396195","24.96894","6500700","樹林區"
"238018","571-TV","2017/12/09 17:09:39","新北市樹林區八德街247巷24-1號","121.420463333333","24.9735833333333","6500700","樹林區"
"238024","5061-A6","2017/12/09 17:09:41","新北市樹林區八德街272號","121.411633333333","24.9702283333333","6500700","樹林區"
"238021","KEA-2217","2017/12/09 17:09:53","新北市樹林區西圳街一段165巷20弄12號","121.39517","24.9609116666667","6500700","樹林區"
"238022","KEA-2213","2017/12/09 17:09:47","新北市樹林區八德街225號","121.421711666667","24.9795366666667","6500700","樹林區"
"238025","303-VK","2017/12/09 17:09:50","新北市樹林區中山路三段125-9號","121.397728333333","24.9737183333333","6500700","樹林區"
"238017","283-BY","2017/12/09 17:09:44","新北市樹林區中山路三段125-10號","121.39739","24.9733","6500700","樹林區"
"238014","282-BY","2017/12/09 17:09:34","新北市樹林區八德街648號","121.396541666667","24.96911","6500700","樹林區"
"238020","268-VK","2017/12/09 17:09:53","新北市樹林區八德街674號","121.395885","24.9688433333333","6500700","樹林區"
"238026","172-UY","2017/12/09 17:09:40","新北市樹林區八德街500號","121.399793333333","24.9704566666667","6500700","樹林區"
"238016","169-UY","2017/12/09 17:09:44","新北市樹林區八德街682號","121.396225","24.9689883333333","6500700","樹林區"
"239007","AAC-297","2017/12/09 17:09:46","新北市鶯歌區行政路53號","121.352828333333","24.955985","6500800","鶯歌區"
"239006","891-R6","2017/12/09 17:09:43","新北市鶯歌區八德路3-7號","121.338226666667","24.9482883333333","6500800","鶯歌區"
"239008","527-UM","2017/12/09 17:09:41","新北市鶯歌區文化路311號","121.352451666667","24.95242","6500800","鶯歌區"
"239005","526-UM","2017/12/09 17:09:43","新北市鶯歌區鶯桃路559號","121.330256666667","24.9681666666667","6500800","鶯歌區"
"239001","417-VK","2017/12/09 17:09:49","新北市鶯歌區尖山路86巷26號","121.34705","24.949655","6500800","鶯歌區"
"239003","360-BY","2017/12/09 17:09:49","新北市鶯歌區八德路50號","121.330235","24.9561283333333","6500800","鶯歌區"
"239002","359-BY","2017/12/09 17:09:50","新北市鶯歌區建國路282號","121.345928333333","24.9530983333333","6500800","鶯歌區"
"239004","193-VK","2017/12/09 17:09:50","新北市鶯歌區文化路256巷15弄14號","121.352145","24.947275","6500800","鶯歌區"
"221008","489-VK","2017/12/09 15:03:31","新北市汐止區康寧街901號","121.651473333333","25.0750833333333","6501100","汐止區"
"221012","276-VK","2017/12/09 13:27:45","新北市汐止區汐萬路一段256巷3號","121.653451666667","25.0746066666667","6501100","汐止區"
"220103","255-TC","2017/12/09 14:29:20","新北市板橋區民權路168號","121.459805","25.0130933333333","6500100","板橋區"
"220080","461-BY","2017/12/09 13:44:46","新北市板橋區華東街1-9號","121.448195","24.994985","6500100","板橋區"
"242002","280-VK","2017/12/09 17:09:46","新北市新莊區三和路12-21號","121.442028333333","25.038295","6500500","新莊區"
