"lineid","car","time","location","longitude","latitude","cityid","cityname"
"241031","838-RS","2017/12/09 14:25:05","新北市永和區保順路27號","121.50381","25.01042","6500200","三重區"
"249005","172-UM","2017/12/09 17:19:39","新北市五股區民義路二段132號","121.409256666667","25.121115","6502300","八里區"
"249001","173-UM","2017/12/09 17:19:38","新北市八里區中華路二段165巷3號","121.407698333333","25.15081","6502300","八里區"
"249004","303-UY","2017/12/09 17:19:38","新北市八里區賢三街98號","121.417071666667","25.1578316666667","6502300","八里區"
"249002","305-UY","2017/12/09 17:19:36","新北市八里區龍米路二段117巷39-1號","121.443275","25.141905","6502300","八里區"
"249003","759-BX","2017/12/09 17:19:53","新北市八里區中山路二段496號","121.398416666667","25.1469133333333","6502300","八里區"
"232011","375-UM","2017/12/09 17:19:52","新北市坪林區北宜路八段558號","121.718165","24.909265","6502000","坪林區"
"244007","080-UY","2017/12/09 17:19:29","新北市林口區中華路283號","121.383346666667","25.0911333333333","6501700","林口區"
"244019","403-UM","2017/12/09 17:19:36","新北市林口區公園路223巷13號","121.373336666667","25.0747616666667","6501700","林口區"
"244009","410-SL","2017/12/09 17:19:37","新北市林口區中華路395號","121.379506666667","25.0936483333333","6501700","林口區"
"244023","483-VK","2017/12/09 17:19:34","新北市林口區仁愛路一段382號","121.388041666667","25.0767","6501700","林口區"
"244025","837-TS","2017/12/09 17:19:36","新北市林口區文化三路二段300號","121.37741","25.0839266666667","6501700","林口區"
"244021","838-TS","2017/12/09 17:19:44","新北市林口區粉寮路二段281號","121.404481666667","25.093535","6501700","林口區"
"231046","278-BY","2017/12/09 17:19:44","新北市新店區直潭路92號","121.530923333333","24.937605","6500600","新店區"
"241011","013-R5","2017/12/09 17:19:39","新北市三重區秀江街28號","121.502258333333","25.0729016666667","6500200","三重區"
"241028","022-UY","2017/12/09 17:19:32","新北市三重區中正南路71號","121.493948333333","25.0589333333333","6500200","三重區"
"241008","059-VK","2017/12/09 17:19:53","新北市三重區下竹圍街4號","121.48079","25.0761116666667","6500200","三重區"
"241009","060-VK","2017/12/09 17:19:33","新北市三重區仁愛街598號","121.484128333333","25.0808766666667","6500200","三重區"
"241015","062-VK","2017/12/09 17:19:42","新北市三重區福德北路82號","121.501783333333","25.0662683333333","6500200","三重區"
"241017","063-VK","2017/12/09 17:19:46","新北市三重區大同北路44巷11號","121.494755","25.0630133333333","6500200","三重區"
"241024","065-VK","2017/12/09 17:19:32","新北市三重區大勇街82巷15弄1號","121.479825","25.07176","6500200","三重區"
"241026","066-VK","2017/12/09 17:19:40","新北市三重區福裕街28號","121.49925","25.0615566666667","6500200","三重區"
"241002","090-VK","2017/12/09 17:19:51","新北市三重區仁愛街355號","121.491993333333","25.0801083333333","6500200","三重區"
"241003","091-VK","2017/12/09 17:19:31","新北市三重區富福街45號","121.491545","25.0841933333333","6500200","三重區"
"241005","262-UM","2017/12/09 17:19:38","新北市三重區永安北路二段25巷43號","121.483125","25.081945","6500200","三重區"
"241006","265-UM","2017/12/09 17:19:35","新北市三重區車路頭街133號","121.48463","25.0763516666667","6500200","三重區"
"241016","266-UM","2017/12/09 17:19:35","新北市三重區大同北路54巷1號","121.494121666667","25.0635716666667","6500200","三重區"
"241022","267-UM","2017/12/09 17:19:50","新北市三重區重陽路二段29號","121.48712","25.06278","6500200","三重區"
"241018","268-UM","2017/12/09 17:19:45","新北市三重區安慶街144號","121.49436","25.0687366666667","6500200","三重區"
"241032","269-UM","2017/12/09 17:19:49","新北市三重區新北大道一段133巷12號","121.48247","25.0608766666667","6500200","三重區"
"241013","270-UM","2017/12/09 17:19:33","新北市三重區仁愛街82巷12號","121.49478","25.073355","6500200","三重區"
"241025","271-UM","2017/12/09 17:19:43","新北市三重區中正北路416號","121.475301666667","25.070725","6500200","三重區"
"241007","398-BY","2017/12/09 17:19:40","新北市三重區慈愛街9號","121.485091666667","25.078675","6500200","三重區"
"241004","KEA-2210","2017/12/09 17:19:35","新北市三重區仁義街286號","121.493601666667","25.086155","6500200","三重區"
"241020","413-TH","2017/12/09 17:19:46","新北市三重區自強路三段7巷9號","121.48892","25.07245","6500200","三重區"
"241019","478-VK","2017/12/09 17:19:47","新北市三重區忠孝路二段2號","121.487171666667","25.071485","6500200","三重區"
"241030","480-VK","2017/12/09 17:19:39","新北市三重區集美街168號","121.490151666667","25.0529883333333","6500200","三重區"
"241014","543-UM","2017/12/09 17:19:33","新北市三重區長榮路3號","121.500198333333","25.0684216666667","6500200","三重區"
"241023","545-UM","2017/12/09 17:19:44","新北市三重區三民街150號","121.482393333333","25.0653933333333","6500200","三重區"
"241001","547-UM","2017/12/09 17:19:33","新北市三重區仁愛街382號","121.491128333333","25.0808183333333","6500200","三重區"
"241012","941-UM","2017/12/09 17:19:50","新北市三重區仁昌街112號","121.500301666667","25.0753283333333","6500200","三重區"
"241033","AAC-255","2017/12/09 17:19:35","新北市三重區中興北街136巷19號","121.468273333333","25.0559816666667","6500200","三重區"
"247022","893-R6","2017/12/09 17:19:46","新北市蘆洲區民族路496號","121.469736666667","25.0904633333333","6501400","蘆洲區"
"247012","546-UM","2017/12/09 17:19:43","新北市蘆洲區信義路319巷3號","121.478116666667","25.086315","6501400","蘆洲區"
"247020","500-BY","2017/12/09 17:19:39","新北市蘆洲區民族路448號","121.472575","25.092095","6501400","蘆洲區"
"247010","339-TH","2017/12/09 17:19:37","新北市蘆洲區鷺江街12號","121.479128333333","25.0825883333333","6501400","蘆洲區"
"247002","337-TH","2017/12/09 17:19:39","新北市蘆洲區永樂街38巷33弄7號","121.457781666667","25.08947","6501400","蘆洲區"
"247004","336-TH","2017/12/09 17:19:48","新北市蘆洲區中原路32號","121.459995","25.082725","6501400","蘆洲區"
"247016","057-VK","2017/12/09 17:19:52","新北市蘆洲區正和街96巷27號","121.467521666667","25.08144","6501400","蘆洲區"
"247006","056-VK","2017/12/09 17:19:40","新北市蘆洲區永安南路二段132-1號","121.462421666667","25.07858","6501400","蘆洲區"
"247008","053-VK","2017/12/09 17:19:39","新北市蘆洲區信義路34巷152號","121.475945","25.07621","6501400","蘆洲區"
"247014","007-UY","2017/12/09 17:19:33","新北市蘆洲區中正路94號","121.470321666667","25.0840066666667","6501400","蘆洲區"
"247024","002-UY","2017/12/09 17:19:38","新北市蘆洲區長榮路256號","121.460425","25.0859","6501400","蘆洲區"
"247018","001-UY","2017/12/09 17:19:33","新北市蘆洲區民權路68巷11號","121.475416666667","25.0878233333333","6501400","蘆洲區"
"228003","097-TW","2017/12/09 17:19:49","新北市貢寮區福隆里興隆街21號","121.943625","25.0165933333333","6502600","貢寮區"
"228001","212-TW","2017/12/09 17:19:32","新北市貢寮區仁理村尖山腳街18-3號","121.925508333333","25.0482983333333","6502600","貢寮區"
"228002","585-TW","2017/12/09 17:19:36","新北市貢寮區雙玉里下雙溪街24號","121.921078333333","25.0099216666667","6502600","貢寮區"
"224010","AGQ-8101","2017/12/09 09:54:03","新北市瑞芳區明燈路二段48號","121.809673333333","25.1080316666667","6501200","瑞芳區"
"224006","676-BX","2017/12/09 17:19:39","新北市瑞芳區大寮路55號","121.781815","25.0981283333333","6501200","瑞芳區"
"224009","285-BY","2017/12/09 17:19:49","新北市瑞芳區汽車路116號","121.839943333333","25.1104216666667","6501200","瑞芳區"
"224008","275-VK","2017/12/09 17:19:47","新北市瑞芳區九芎橋路4-2號","121.831926666667","25.0907816666667","6501200","瑞芳區"
"224005","271-BY","2017/12/09 17:19:36","新北市瑞芳區哩咾路1號","121.877628333333","25.122735","6501200","瑞芳區"
"227002","642-TC","2017/12/09 17:19:46","新北市雙溪區上林里內平林90號","121.82756","25.0275083333333","6502500","雙溪區"
"227010","400-TW","2017/12/09 17:19:50","新北市雙溪區三貂里十三層9-5號","121.853458333333","25.07738","6502500","雙溪區"
"251004","009-UM","2017/12/09 17:19:40","新北市淡水區中正東路二段88巷15號","121.459073333333","25.150415","6501000","淡水區"
"251005","010-UM","2017/12/09 17:19:39","新北市淡水區鄧公路19號","121.451375","25.1699916666667","6501000","淡水區"
"251014","180-VK","2017/12/09 17:19:44","新北市淡水區公埔子45號","121.463975","25.2301933333333","6501000","淡水區"
"251008","181-VK","2017/12/09 17:19:45","新北市淡水區大同路293號","121.467991666667","25.142415","6501000","淡水區"
"251010","413-VK","2017/12/09 17:19:36","新北市淡水區中正路二段206號","121.426241666667","25.1890983333333","6501000","淡水區"
"251012","441-VK","2017/12/09 17:19:40","新北市淡水區中山北路一段158號","121.444296666667","25.177955","6501000","淡水區"
"251016","442-VK","2017/12/09 17:19:37","新北市淡水區鄒厝崙13號","121.462228333333","25.190535","6501000","淡水區"
"251001","559-UM","2017/12/09 17:19:31","新北市淡水區民權路92巷35-1號","121.462131666667","25.1266566666667","6501000","淡水區"
"251006","561-UM","2017/12/09 17:19:43","新北市淡水區大智街29號","121.442263333333","25.174395","6501000","淡水區"
"251009","575-R6","2017/12/09 17:19:39","新北市淡水區三民街20號","121.43901","25.1717733333333","6501000","淡水區"
"251007","577-R6","2017/12/09 17:19:52","新北市淡水區民生路60號","121.46205","25.137935","6501000","淡水區"
"251011","650-BX","2017/12/09 17:19:42","新北市淡水區坪頂路128號","121.465015","25.1613783333333","6501000","淡水區"
"251002","672-BX","2017/12/09 17:19:45","新北市淡水區中正路二段31號","121.419383333333","25.1815933333333","6501000","淡水區"
"251003","766-UM","2017/12/09 17:19:33","新北市淡水區重建街96號","121.440083333333","25.1724316666667","6501000","淡水區"
"207003","550-UM","2017/12/09 17:19:37","新北市萬里區萬里里瑪鋉路340號","121.687835","25.182915","6502800","萬里區"
"252002","178-VK","2017/12/09 17:19:48","新北市三芝區忠孝街1-14號","121.505478333333","25.25392","6502100","三芝區"
"252001","292-VK","2017/12/09 17:19:41","新北市三芝區長安街119號","121.498001666667","25.2596783333333","6502100","三芝區"
"242031","AAC-296","2017/12/09 05:05:37","新北市新莊區新泰路357巷3弄57號","121.442228333333","25.03947","6500500","新莊區"
"242029","986-R7","2017/12/09 17:19:47","新北市新莊區新泰路528號","121.442575","25.047515","6500500","新莊區"
"242051","751-BX","2017/12/09 17:19:36","新北市新莊區瓊林南路59-8號","121.435425","25.0163466666667","6500500","新莊區"
"242025","615-BX","2017/12/09 17:19:41","新北市新莊區復興路一段89號","121.448533333333","25.0426666666667","6500500","新莊區"
"242023","613-BX","2017/12/09 17:19:40","新北市新莊區中平路82巷16號","121.445466666667","25.0448083333333","6500500","新莊區"
"242027","612-BX","2017/12/09 17:19:32","新北市新莊區復興路一段85號","121.448431666667","25.0428233333333","6500500","新莊區"
"242039","566-BX","2017/12/09 17:19:40","新北市新莊區民安路345號","121.430873333333","25.022955","6500500","新莊區"
"242044","497-BY","2017/12/09 17:19:50","新北市新莊區富國路101-1號","121.421325","25.0255566666667","6500500","新莊區"
"242013","442-UM","2017/12/09 17:19:46","新北市新莊區新泰路502巷4號","121.442738333333","25.0462266666667","6500500","新莊區"
"242048","441-UM","2017/12/09 17:19:49","新北市新莊區龍安路253號","121.419645","25.0200783333333","6500500","新莊區"
"242053","440-UM","2017/12/09 17:19:49","新北市新莊區瓊林路59-66號","121.441411666667","25.02279","6500500","新莊區"
"242034","415-TV","2017/12/09 17:19:43","新北市新莊區瓊林路21-1號","121.445993333333","25.0286383333333","6500500","新莊區"
"242004","413-TV","2017/12/09 17:19:35","新北市新莊區新泰路421-5號","121.442728333333","25.0452566666667","6500500","新莊區"
"242042","400-BY","2017/12/09 17:19:47","新北市新莊區新樹路113巷13號","121.438275","25.0267283333333","6500500","新莊區"
"242061","362-BY","2017/12/09 17:19:35","新北市新莊區三和路12-15號","121.441985","25.0373383333333","6500500","新莊區"
"242058","353-BY","2017/12/09 17:19:42","新北市新莊區三和路12-21號","121.441938333333","25.0385016666667","6500500","新莊區"
"242036","133-UY","2017/12/09 17:19:49","新北市新莊區民安路429巷3號","121.433895","25.02323","6500500","新莊區"
"242021","135-UY","2017/12/09 17:19:39","新北市新莊區中港路303號","121.45286","25.04458","6500500","新莊區"
"242046","172-VK","2017/12/09 17:19:44","新北市新莊區新樹路65-7號","121.439363333333","25.030665","6500500","新莊區"
"242009","173-VK","2017/12/09 00:35:05","新北市新莊區三和路12-21號","121.441955","25.0388266666667","6500500","新莊區"
"242015","175-VK","2017/12/09 17:19:46","新北市新莊區新泰路354號","121.444495","25.0425416666667","6500500","新莊區"
"242007","347-TH","2017/12/09 17:19:39","新北市新莊區新泰路482號","121.44273","25.045715","6500500","新莊區"
"242019","348-TH","2017/12/09 17:19:39","新北市新莊區中港路286號","121.452966666667","25.0444283333333","6500500","新莊區"
"242056","349-TH","2017/12/09 17:19:46","新北市新莊區新泰路413巷22號","121.442475","25.04444","6500500","新莊區"
"242017","350-TH","2017/12/09 17:19:43","新北市新莊區中華路一段103號","121.452693333333","25.04388","6500500","新莊區"
"242011","351-TH","2017/12/09 17:19:29","新北市新莊區中平路82巷4號","121.444966666667","25.04482","6500500","新莊區"
"238015","755-BX","2017/12/09 17:19:44","新北市樹林區東佳路16號","121.409683333333","24.981575","6500700","樹林區"
"238023","601-UM","2017/12/09 17:19:36","新北市樹林區保安街一段287號","121.419","24.99725","6500700","樹林區"
"238019","599-UM","2017/12/09 17:19:25","新北市樹林區八德街136號","121.42145","24.9789183333333","6500700","樹林區"
"238018","571-TV","2017/12/09 17:19:39","新北市樹林區水源街213號","121.424255","24.9871","6500700","樹林區"
"238024","5061-A6","2017/12/09 17:19:41","新北市樹林區博愛一街29巷64號","121.425963333333","24.9916116666667","6500700","樹林區"
"238021","KEA-2217","2017/12/09 17:19:33","新北市樹林區西圳街165巷20弄26號","121.395526666667","24.96008","6500700","樹林區"
"238022","KEA-2213","2017/12/09 17:19:47","新北市樹林區和平街77號","121.424675","24.982515","6500700","樹林區"
"238025","303-VK","2017/12/09 17:19:50","新北市樹林區中山路一段296號","121.420223333333","24.9863616666667","6500700","樹林區"
"238017","283-BY","2017/12/09 17:19:44","新北市樹林區保安街一段338號","121.417996666667","24.9979933333333","6500700","樹林區"
"238014","282-BY","2017/12/09 17:19:34","新北市樹林區大安路323巷10弄12號","121.417076666667","24.991345","6500700","樹林區"
"238020","268-VK","2017/12/09 17:19:53","新北市樹林區大安路257號","121.419285","24.9940233333333","6500700","樹林區"
"238026","172-UY","2017/12/09 17:19:43","新北市樹林區味王街36號","121.40454","24.97419","6500700","樹林區"
"238016","169-UY","2017/12/09 17:19:44","新北市樹林區八德街1號","121.417586666667","24.9849733333333","6500700","樹林區"
"239007","AAC-297","2017/12/09 17:19:38","新北市鶯歌區國慶街115巷18號","121.351213333333","24.9543","6500800","鶯歌區"
"239006","891-R6","2017/12/09 17:19:43","新北市鶯歌區福昌街27號","121.332718333333","24.9609466666667","6500800","鶯歌區"
"239008","527-UM","2017/12/09 17:19:41","新北市鶯歌區西湖街曾厝巷50號","121.33867","24.961735","6500800","鶯歌區"
"239005","526-UM","2017/12/09 17:19:43","新北市鶯歌區福德一路8號","121.330308333333","24.96712","6500800","鶯歌區"
"239001","417-VK","2017/12/09 17:19:49","新北市鶯歌區黃厝街9號","121.343203333333","24.9457383333333","6500800","鶯歌區"
"239003","360-BY","2017/12/09 17:19:49","新北市鶯歌區德昌街98-1號","121.332281666667","24.96027","6500800","鶯歌區"
"239002","359-BY","2017/12/09 17:19:31","新北市鶯歌區南雅路49號","121.348313333333","24.9541566666667","6500800","鶯歌區"
"239004","193-VK","2017/12/09 17:19:50","新北市鶯歌區文化路479號","121.353526666667","24.9489266666667","6500800","鶯歌區"
"221008","489-VK","2017/12/09 15:03:31","新北市汐止區康寧街901號","121.651473333333","25.0750833333333","6501100","汐止區"
"221012","276-VK","2017/12/09 13:27:45","新北市汐止區汐萬路一段256巷3號","121.653451666667","25.0746066666667","6501100","汐止區"
"220103","255-TC","2017/12/09 14:29:20","新北市板橋區民權路168號","121.459805","25.0130933333333","6500100","板橋區"
"220080","461-BY","2017/12/09 13:44:46","新北市板橋區華東街1-9號","121.448195","24.994985","6500100","板橋區"
"242002","280-VK","2017/12/09 17:19:46","新北市新莊區三和路12-21號","121.441931666667","25.0381733333333","6500500","新莊區"
