"lineid","car","time","location","longitude","latitude","cityid","cityname"
"234046","148-BY","2017/12/09 19:19:52","新北市永和區得和路336號","121.52343","24.9994816666667","6500400","永和區"
"234013","149-BY","2017/12/09 19:19:37","新北市永和區仁愛路122號","121.511658333333","25.01309","6500400","永和區"
"234007","207-UY","2017/12/09 19:19:40","新北市永和區中山路一段242號","121.507908333333","25.0079016666667","6500400","永和區"
"234038","336-UY","2017/12/09 19:19:49","新北市永和區民樂街70號","121.527405","24.9984566666667","6500400","永和區"
"234064","337-UY","2017/12/09 19:19:37","新北市永和區永元路17巷6弄1號","121.521368333333","25.0007383333333","6500400","永和區"
"234086","338-UY","2017/12/09 19:19:48","新北市永和區永利路72號","121.520243333333","25.0042583333333","6500400","永和區"
"234070","552-UM","2017/12/09 19:19:51","新北市永和區豫溪街33號","121.51639","25.0098666666667","6500400","永和區"
"234054","553-UM","2017/12/09 19:19:51","新北市永和區中興街47號","121.51648","25.011755","6500400","永和區"
"234017","745-BX","2017/12/09 19:19:43","新北市永和區文化路144巷31弄8號","121.512406666667","25.0167566666667","6500400","永和區"
"234030","746-BX","2017/12/09 19:19:49","新北市永和區厚德街85號","121.524193333333","24.998775","6500400","永和區"
"241031","838-RS","2017/12/09 14:25:05","新北市永和區保順路27號","121.50381","25.01042","6500200","三重區"
"234081","839-RS","2017/12/09 19:19:34","新北市永和區福和路7巷15弄4號","121.525678333333","25.0067766666667","6500400","永和區"
"234061","AAD-866","2017/12/09 19:19:44","新北市永和區永貞路131號","121.516723333333","25.0040916666667","6500400","永和區"
"234042","862-TW","2017/12/09 19:19:44","新北市永和區保平路151巷2弄7-2號","121.509676666667","25.0052283333333","6500400","永和區"
"234050","863-TW","2017/12/09 19:19:36","新北市永和區仁愛路146號","121.510813333333","25.0133116666667","6500400","永和區"
"234026","9371-KE","2017/12/09 19:19:40","新北市永和區得和路42巷23號","121.515361666667","24.999705","6500400","永和區"
"234023","9381-KE","2017/12/09 19:19:42","新北市永和區竹林路124巷14號","121.519096666667","25.0112583333333","6500400","永和區"
"234011","9373-KE","2017/12/09 19:19:40","新北市永和區保福路二段23巷19號","121.510126666667","25.0112033333333","6500400","永和區"
"249003","759-BX","2017/12/09 19:19:46","新北市八里區中山路二段448號","121.399236666667","25.1472766666667","6502300","八里區"
"248018","225-UY","2017/12/09 19:19:38","新北市五股區凌雲路三段57號","121.42526","25.1250183333333","6501500","五股區"
"248012","247-BX","2017/12/09 19:19:48","新北市五股區中興路四段48巷16號","121.438615","25.0834483333333","6501500","五股區"
"248010","272-BY","2017/12/09 19:19:50","新北市五股區自強路90巷72號","121.430833333333","25.0713533333333","6501500","五股區"
"248004","677-BX","2017/12/09 19:19:37","新北市五股區五福路47號","121.433061666667","25.0895783333333","6501500","五股區"
"248002","678-BX","2017/12/09 19:19:40","新北市五股區凌雲路一段158巷15號","121.447695","25.1035666666667","6501500","五股區"
"234077","969-R7","2017/12/09 19:19:43","新北市永和區民治街70號","121.517783333333","24.9981333333333","6500400","永和區"
"234074","AAC-211","2017/12/09 19:19:49","新北市永和區竹林路112-1號","121.519761666667","25.011825","6500400","永和區"
"234067","AAC-212","2017/12/09 19:19:42","新北市永和區保平路39號","121.511988333333","25.0072566666667","6500400","永和區"
"234003","AAC-295","2017/12/09 19:19:47","新北市永和區中山路一段139號","121.51036","25.0098033333333","6500400","永和區"
"244013","069-UM","2017/12/09 19:19:39","新北市林口區麗園一街4巷2號","121.376173333333","25.07086","6501700","林口區"
"244019","403-UM","2017/12/09 19:19:36","新北市林口區麗園二街3巷5-3號","121.377481666667","25.0699583333333","6501700","林口區"
"244023","483-VK","2017/12/09 19:19:33","新北市林口區民富街93號","121.370056666667","25.075","6501700","林口區"
"244011","701-TV","2017/12/09 19:19:33","新北市林口區中山路157號","121.386688333333","25.0793283333333","6501700","林口區"
"243012","AAD-798","2017/12/09 19:19:39","新北市泰山區仁愛路100巷11號","121.433458333333","25.0551683333333","6501600","泰山區"
"243011","297-R6","2017/12/09 19:19:45","新北市泰山區中央路36巷1號","121.426263333333","25.04274","6501600","泰山區"
"243015","380-SR","2017/12/09 19:19:47","新北市泰山區公園路71號","121.426305","25.0554283333333","6501600","泰山區"
"243014","421-VK","2017/12/09 19:19:40","新北市泰山區泰林路二段225號","121.43239","25.061955","6501600","泰山區"
"243010","KEA-2215","2017/12/09 19:19:50","新北市泰山區明志路二段32巷1號","121.429356666667","25.0534016666667","6501600","泰山區"
"243009","KEA-2216","2017/12/09 19:19:47","新北市泰山區和平街13巷13號","121.434416666667","25.0651983333333","6501600","泰山區"
"243016","680-BX","2017/12/09 19:19:52","新北市泰山區明志路三段165號","121.424585","25.0394733333333","6501600","泰山區"
"222003","436-BY","2017/12/09 19:19:47","新北市深坑區深南路204號","121.62665","25.01604","6501800","深坑區"
"222002","659-BX","2017/12/09 19:19:46","新北市深坑區北深路一段177號","121.63257","25.010865","6501800","深坑區"
"231041","001-UM","2017/12/09 19:19:46","新北市新店區溪園路245-6號","121.525406666667","24.9833583333333","6500600","新店區"
"231059","046-UY","2017/12/09 19:19:46","新北市新店區安和路三段7號","121.518211666667","24.9804683333333","6500600","新店區"
"231061","047-UY","2017/12/09 19:19:44","新北市新店區安康路一段266巷4號","121.520021666667","24.9640516666667","6500600","新店區"
"231060","106-UY","2017/12/09 19:19:41","新北市新店區安康路二段105-1號","121.512723333333","24.962345","6500600","新店區"
"231051","107-UY","2017/12/09 19:19:43","新北市新店區中央路68號","121.532465","24.97721","6500600","新店區"
"231048","108-UY","2017/12/09 19:19:49","新北市新店區中興路二段79巷1號","121.546665","24.97112","6500600","新店區"
"231052","187-VK","2017/12/09 19:19:45","新北市新店區自強路122號","121.545981666667","24.9218716666667","6500600","新店區"
"231050","KEA-2219","2017/12/09 19:19:45","新北市新店區竹林路69號","121.5533","24.951295","6500600","新店區"
"231046","278-BY","2017/12/09 19:19:44","新北市新店區華城路36號","121.528441666667","24.9554733333333","6500600","新店區"
"231054","AAD-862","2017/12/09 19:19:49","新北市新店區國校路21號","121.538013333333","24.9563333333333","6500600","新店區"
"231058","3712-VJ","2017/12/09 19:19:39","新北市新店區光明街284號","121.540556666667","24.964435","6500600","新店區"
"231056","3713-VJ","2017/12/09 19:19:31","新北市新店區溪園路401號","121.523741666667","24.97809","6500600","新店區"
"231067","4772-VM","2017/12/09 19:19:31","新北市新店區安康路二段414巷2號","121.49588","24.9577416666667","6500600","新店區"
"231065","512-UM","2017/12/09 19:19:33","新北市新店區安祥路142號","121.473958333333","24.955805","6500600","新店區"
"231064","515-UM","2017/12/09 19:19:39","新北市新店區安忠路57巷26弄3號","121.513063333333","24.9587833333333","6500600","新店區"
"231042","616-UM","2017/12/09 19:19:45","新北市新店區光明街22號","121.53838","24.9586483333333","6500600","新店區"
"231045","617-UM","2017/12/09 19:19:41","新北市新店區北宜路一段260號","121.545731666667","24.9527966666667","6500600","新店區"
"231040","619-UM","2017/12/09 19:19:49","新北市新店區中華路147號","121.538103333333","24.9704766666667","6500600","新店區"
"231063","645-TV","2017/12/09 19:19:34","新北市新店區達觀路14巷8號","121.50323","24.9432333333333","6500600","新店區"
"231049","719-UM","2017/12/09 19:19:34","新北市新店區明德路111號","121.541483333333","24.97947","6500600","新店區"
"231062","720-UM","2017/12/09 19:19:46","新北市新店區莒光路99號","121.521966666667","24.9534883333333","6500600","新店區"
"231044","897-TW","2017/12/09 19:19:33","新北市新店區寶慶街71號","121.541983333333","24.9865866666667","6500600","新店區"
"231043","899-TW","2017/12/09 19:19:46","新北市新店區北新路二段175號","121.542786666667","24.9770033333333","6500600","新店區"
"231066","AKT-0513","2017/12/09 19:19:33","新北市新店區安康路三段355巷31號","121.484995","24.949855","6500600","新店區"
"241009","060-VK","2017/12/09 19:19:33","新北市三重區溪尾街230巷52號","121.485865","25.08108","6500200","三重區"
"241031","061-VK","2017/12/09 19:19:43","新北市三重區重新路四段87號","121.486261666667","25.0557816666667","6500200","三重區"
"241017","063-VK","2017/12/09 19:19:46","新北市三重區大同北路182號","121.491668333333","25.0658333333333","6500200","三重區"
"241026","066-VK","2017/12/09 19:19:47","新北市三重區中正南路216號","121.49388","25.0551466666667","6500200","三重區"
"241006","265-UM","2017/12/09 19:19:35","新北市三重區車路頭街149-2號","121.48378","25.076765","6500200","三重區"
"241022","267-UM","2017/12/09 19:19:39","新北市三重區中正北路70號","121.486415","25.0647166666667","6500200","三重區"
"241032","269-UM","2017/12/09 19:19:41","新北市三重區新生街92號","121.483643333333","25.0593333333333","6500200","三重區"
"241007","398-BY","2017/12/09 19:19:39","新北市三重區慈愛街52號","121.48632","25.0792233333333","6500200","三重區"
"241035","462-BY","2017/12/09 19:19:41","新北市三重區大智街12號","121.495296666667","25.0645466666667","6500200","三重區"
"241030","480-VK","2017/12/09 19:19:39","新北市三重區新興路42號","121.49143","25.0533566666667","6500200","三重區"
"241029","942-UM","2017/12/09 19:19:47","新北市三重區重安街33號","121.491208333333","25.0569316666667","6500200","三重區"
"235066","003-UY","2017/12/09 19:19:42","新北市中和區廣福路106號","121.502371666667","25.0011383333333","6500300","中和區"
"235063","006-UY","2017/12/09 19:19:43","新北市中和區連城路249巷26弄8號","121.494311666667","24.9955866666667","6500300","中和區"
"235046","031-BX","2017/12/09 19:19:38","新北市中和區華新街131號","121.506795","24.981925","6500300","中和區"
"235056","096-UM","2017/12/09 19:19:35","新北市中和區員山路560號","121.478705","25.0104716666667","6500300","中和區"
"235039","097-UM","2017/12/09 19:19:39","新北市中和區自立路58巷21號","121.52317","24.9913833333333","6500300","中和區"
"235065","098-UM","2017/12/09 19:19:35","新北市中和區中山路二段136巷6弄8號","121.502143333333","25.004005","6500300","中和區"
"235040","150-BY","2017/12/09 19:19:38","新北市中和區保健路48巷41號","121.509535","24.9963116666667","6500300","中和區"
"235058","151-BY","2017/12/09 19:18:57","新北市中和區連城路523巷9弄11號","121.482196666667","24.99469","6500300","中和區"
"235055","183-VK","2017/12/09 19:19:53","新北市中和區德光路17號","121.471095","25.004375","6500300","中和區"
"235038","185-VK","2017/12/09 19:19:54","新北市中和區大智街55巷31號","121.520611666667","24.9927583333333","6500300","中和區"
"235049","186-VK","2017/12/09 19:19:34","新北市中和區景新街239號","121.508158333333","24.9944766666667","6500300","中和區"
"235067","255-BX","2017/12/09 19:19:33","新北市中和區民樂路42-1號","121.482721666667","25.0007416666667","6500300","中和區"
"235044","293-VK","2017/12/09 19:19:40","新北市中和區復興路308號","121.501171666667","24.9903183333333","6500300","中和區"
"235072","301-VK","2017/12/09 19:19:37","新北市中和區連城路176號","121.493161666667","24.9970016666667","6500300","中和區"
"235043","352-BY","2017/12/09 19:19:36","新北市中和區景平路334號","121.512013333333","24.9927783333333","6500300","中和區"
"235068","377-QA","2017/12/09 19:19:38","新北市中和區連勝街28號","121.498323333333","24.9979866666667","6500300","中和區"
"235061","378-QA","2017/12/09 19:19:13","新北市中和區民有街66號","121.476093333333","25.0044033333333","6500300","中和區"
"235071","269-TV","2017/12/09 19:19:43","新北市中和區連城路469巷69號","121.48349","24.9942266666667","6500300","中和區"
"235050","4979-A6","2017/12/09 19:19:46","新北市中和區景安路220巷4弄8號","121.503571666667","24.991","6500300","中和區"
"235069","4980-A6","2017/12/09 19:19:43","新北市中和區莊敬路33巷2-2號","121.500553333333","25.0050016666667","6500300","中和區"
"235042","551-UM","2017/12/09 19:19:44","新北市中和區大勇街60巷16號","121.51872","24.9945716666667","6500300","中和區"
"235070","558-UM","2017/12/09 19:19:47","新北市中和區中和路12號","121.49963","25.0021016666667","6500300","中和區"
"235045","565-BX","2017/12/09 19:19:49","新北市中和區景新街423巷32號","121.514538333333","24.989705","6500300","中和區"
"235054","640-BX","2017/12/09 19:19:34","新北市中和區民德路132號","121.468731666667","25.0007816666667","6500300","中和區"
"235060","647-TV","2017/12/09 19:19:32","新北市中和區民享街1號","121.473881666667","25.0057966666667","6500300","中和區"
"235047","732-UM","2017/12/09 19:19:37","新北市中和區景平路239巷53弄5號","121.508946666667","24.991835","6500300","中和區"
"235057","801-TS","2017/12/09 19:19:36","新北市中和區員山路216號","121.481321666667","25.0009333333333","6500300","中和區"
"235041","802-TS","2017/12/09 19:19:40","新北市中和區中和路254號","121.50763","24.9993566666667","6500300","中和區"
"235052","805-TS","2017/12/09 19:19:38","新北市中和區華新街143巷15號","121.506761666667","24.981055","6500300","中和區"
"235048","896-TW","2017/12/09 19:19:42","新北市中和區忠孝街79號","121.512111666667","24.985155","6500300","中和區"
"235053","900-TW","2017/12/09 19:19:34","新北市中和區華安街21巷2號","121.46738","24.997505","6500300","中和區"
"235064","911-UM","2017/12/09 19:19:43","新北市中和區中和路26巷11號","121.499408333333","25.0015233333333","6500300","中和區"
"235051","157-BY","2017/12/09 19:19:38","新北市中和區景平路239巷33弄33號","121.509655","24.9915266666667","6500300","中和區"
"235037","AAC-213","2017/12/09 19:19:48","新北市中和區秀朗路三段10巷37弄14號","121.523623333333","24.9958983333333","6500300","中和區"
"235059","AAC-215","2017/12/09 19:19:45","新北市中和區圓通路286巷10號","121.491526666667","24.9912466666667","6500300","中和區"
"220068","013-TV","2017/12/09 19:19:40","新北市板橋區翠華街6巷42號","121.481468333333","25.02468","6500100","板橋區"
"220065","072-UY","2017/12/09 19:19:47","新北市板橋區民族路129巷10號","121.467665","25.0084416666667","6500100","板橋區"
"220086","073-UY","2017/12/09 19:19:40","新北市板橋區中正路216巷70號","121.457833333333","25.0189583333333","6500100","板橋區"
"220106","075-UY","2017/12/09 19:19:43","新北市板橋區長江路二段280-8號","121.470055","25.03291","6500100","板橋區"
"220069","AAD-861","2017/12/09 19:19:40","新北市板橋區華興街31巷20號","121.458333333333","25.003795","6500100","板橋區"
"220102","120-SR","2017/12/09 19:19:33","新北市板橋區文聖街76號","121.477336666667","25.0302183333333","6500100","板橋區"
"247004","336-TH","2017/12/09 19:19:36","新北市蘆洲區永康街66號","121.458506666667","25.0855083333333","6501400","蘆洲區"
"226004","312-R5","2017/12/09 19:19:40","新北市平溪區靜安路三段52巷10號","121.763816666667","25.0335683333333","6502400","平溪區"
"228003","097-TW","2017/12/09 19:19:49","新北市貢寮區和美里和美街22-1號","121.912781666667","25.08264","6502600","貢寮區"
"228001","212-TW","2017/12/09 19:19:38","新北市貢寮區真理里新港街26巷6-3號","121.925636666667","25.05455","6502600","貢寮區"
"228002","585-TW","2017/12/09 19:19:36","新北市貢寮區雙玉里田寮洋街21號","121.926355","25.025035","6502600","貢寮區"
"224006","676-BX","2017/12/09 19:19:39","新北市瑞芳區中山路225號","121.800541666667","25.1068666666667","6501200","瑞芳區"
"224009","285-BY","2017/12/09 19:19:49","新北市瑞芳區洞頂路140號","121.860003333333","25.11864","6501200","瑞芳區"
"224008","275-VK","2017/12/09 19:19:42","新北市瑞芳區一坑路297號","121.800918333333","25.10851","6501200","瑞芳區"
"224005","271-BY","2017/12/09 19:19:36","新北市瑞芳區員山子路23號","121.821758333333","25.1029183333333","6501200","瑞芳區"
"227002","642-TC","2017/12/09 19:19:46","新北市雙溪區平林里梅竹蹊66-1號","121.860158333333","25.03582","6502500","雙溪區"
"227010","400-TW","2017/12/09 19:19:50","新北市雙溪區新基里新基北街40號","121.868478333333","25.038015","6502500","雙溪區"
"253005","032-BX","2017/12/09 19:19:35","新北市石門區阿里荖5號","121.611636666667","25.2794166666667","6502200","石門區"
"253006","741-TV","2017/12/09 19:19:40","新北市石門區楓林19號","121.536496666667","25.290895","6502200","石門區"
"222001","KEA-2212","2017/12/09 19:19:50","新北市深坑區北深路二段82號","121.617551666667","25.0034833333333","6501800","深坑區"
"208002","742-BX","2017/12/09 19:19:47","新北市金山區中華路133號","121.633138333333","25.2209366666667","6502700","金山區"
"208003","665-BX","2017/12/09 19:19:50","新北市金山區中山路141號","121.639063333333","25.220095","6502700","金山區"
"208001","761-BX","2017/12/09 19:19:51","新北市金山區中山路108號","121.639835","25.21939","6502700","金山區"
"251005","010-UM","2017/12/09 19:19:40","新北市淡水區水源街一段34巷1號","121.443285","25.1722816666667","6501000","淡水區"
"251014","180-VK","2017/12/09 19:19:43","新北市淡水區小中寮19-7號","121.48475","25.229625","6501000","淡水區"
"251010","413-VK","2017/12/09 19:19:35","新北市淡水區沙崙路23號","121.42146","25.18151","6501000","淡水區"
"251012","441-VK","2017/12/09 19:19:40","新北市淡水區中山北路三段164號","121.445686666667","25.19659","6501000","淡水區"
"251016","442-VK","2017/12/09 19:19:37","新北市淡水區下圭柔山119-51號","121.45075","25.2084183333333","6501000","淡水區"
"251001","559-UM","2017/12/09 19:19:51","新北市淡水區自強路201巷39號","121.462111666667","25.126855","6501000","淡水區"
"251006","561-UM","2017/12/09 19:19:43","新北市淡水區大信街33號","121.442001666667","25.1773516666667","6501000","淡水區"
"251009","575-R6","2017/12/09 19:19:39","新北市淡水區大忠街5巷9號","121.443353333333","25.1765733333333","6501000","淡水區"
"251007","577-R6","2017/12/09 19:19:52","新北市淡水區民生路117巷34號","121.46491","25.139635","6501000","淡水區"
"251003","766-UM","2017/12/09 19:19:53","新北市淡水區中山北路一段168號","121.444426666667","25.178735","6501000","淡水區"
"207003","550-UM","2017/12/09 19:19:37","新北市萬里區大鵬里萬里加投79-3號","121.647353333333","25.2123716666667","6502800","萬里區"
"207004","225-TW","2017/12/09 19:19:39","新北市萬里區萬里里瑪鋉路4號","121.687641666667","25.1750616666667","6502800","萬里區"
"252002","178-VK","2017/12/09 19:19:48","新北市三芝區淡金路二段18-1號","121.502673333333","25.2595183333333","6502100","三芝區"
"252003","249-BX","2017/12/09 19:19:49","新北市三芝區埔坪里埔頭坑41號","121.504418333333","25.2646166666667","6502100","三芝區"
"252001","292-VK","2017/12/09 19:19:41","新北市三芝區長勤街9巷11弄1號","121.501725","25.254725","6502100","三芝區"
"237004","078-UY","2017/12/09 19:19:37","新北市三峽區有木205-1號","121.438981666667","24.8515433333333","6500900","三峽區"
"237007","153-BY","2017/12/09 19:19:47","新北市三峽區麻園10號","121.362048333333","24.9172316666667","6500900","三峽區"
"237009","210-TH","2017/12/09 19:19:37","新北市三峽區文化路113號","121.370401666667","24.9360733333333","6500900","三峽區"
"237013","252-BX","2017/12/09 19:19:38","新北市三峽區大同路39巷22弄1號","121.377138333333","24.9274916666667","6500900","三峽區"
"237012","275-BY","2017/12/09 19:19:39","新北市三峽區三樹路222巷236弄23號","121.391373333333","24.9430366666667","6500900","三峽區"
"237008","302-VK","2017/12/09 19:19:46","新北市三峽區大同路154號","121.373133333333","24.92677","6500900","三峽區"
"237014","433-BY","2017/12/09 19:19:49","新北市三峽區中山路70號","121.36716","24.9349633333333","6500900","三峽區"
"237006","5529-G3","2017/12/09 19:19:42","新北市三峽區介壽路二段167號","121.394851666667","24.9360783333333","6500900","三峽區"
"237011","572-TV","2017/12/09 19:10:11","新北市三峽區中正路一段100號","121.374311666667","24.9296766666667","6500900","三峽區"
"237016","649-BX","2017/12/09 19:18:57","新北市三峽區成福路156號","121.4234","24.9284966666667","6500900","三峽區"
"237010","706-TV","2017/12/09 19:02:36","新北市三峽區民生街68號","121.374655","24.9359733333333","6500900","三峽區"
"237005","AKY-6261","2017/12/09 19:19:34","新北市三峽區中山路459巷42號","121.356893333333","24.937155","6500900","三峽區"
"236073","105-UM","2017/12/09 19:19:44","新北市土城區學成路122號","121.449416666667","24.9894866666667","6501300","土城區"
"236079","166-UM","2017/12/09 17:58:59","新北市土城區永寧路32巷10弄6號","121.429096666667","24.96086","6501300","土城區"
"236027","269-VK","2017/12/09 19:19:37","新北市土城區中央路二段154號","121.441916666667","24.9767766666667","6501300","土城區"
"236015","270-VK","2017/12/09 19:19:41","新北市土城區學府路一段15-2號","121.458451666667","24.9878316666667","6501300","土城區"
"236023","401-BY","2017/12/09 19:19:41","新北市土城區峰廷街3號","121.469096666667","24.9873733333333","6501300","土城區"
"236059","912-UM","2017/12/09 19:19:33","新北市土城區中央路三段73-2號","121.438848333333","24.968795","6501300","土城區"
"236049","913-UM","2017/12/09 19:19:35","新北市土城區明德路一段398-1號","121.45366","24.9790633333333","6501300","土城區"
"236063","915-UM","2017/12/09 19:19:49","新北市土城區金城路三段202-3號","121.469486666667","24.9885466666667","6501300","土城區"
"238015","755-BX","2017/12/09 19:19:48","新北市樹林區大安路530號","121.413851666667","24.98627","6500700","樹林區"
"238023","601-UM","2017/12/09 19:19:36","新北市樹林區三興路77號","121.392695","25.01456","6500700","樹林區"
"238019","599-UM","2017/12/09 19:19:45","新北市樹林區鎮前街347巷1弄23號","121.417166666667","24.9839983333333","6500700","樹林區"
"238018","571-TV","2017/12/09 19:19:39","新北市樹林區中華路353-1號","121.414815","24.9802433333333","6500700","樹林區"
"238024","5061-A6","2017/12/09 19:19:41","新北市樹林區福德街48-9號","121.398853333333","24.974845","6500700","樹林區"
"238021","KEA-2217","2017/12/09 19:19:42","新北市樹林區柑園街二段370號","121.369978333333","24.9502533333333","6500700","樹林區"
"238022","KEA-2213","2017/12/09 19:19:47","新北市樹林區中華路257號","121.418133333333","24.9806233333333","6500700","樹林區"
"238025","303-VK","2017/12/09 19:19:49","新北市樹林區中山路二段89號","121.4115","24.9829116666667","6500700","樹林區"
"238017","283-BY","2017/12/09 19:19:44","新北市樹林區光興街47號","121.411548333333","25.0030033333333","6500700","樹林區"
"238014","282-BY","2017/12/09 19:19:34","新北市樹林區保安二街40巷18號","121.425608333333","24.994645","6500700","樹林區"
"238020","268-VK","2017/12/09 19:19:33","新北市樹林區俊英街133巷18號","121.423641666667","25.0111366666667","6500700","樹林區"
"238026","172-UY","2017/12/09 19:19:40","新北市樹林區佳園路二段30號","121.391451666667","24.9625533333333","6500700","樹林區"
"238016","169-UY","2017/12/09 19:19:44","新北市樹林區中山路二段6號","121.417675","24.9854933333333","6500700","樹林區"
"239007","AAC-297","2017/12/09 19:19:50","新北市鶯歌區大湖路余厝巷11號","121.341943333333","24.9614533333333","6500800","鶯歌區"
"239006","891-R6","2017/12/09 19:19:42","新北市鶯歌區建國路512巷50號","121.339408333333","24.95122","6500800","鶯歌區"
"239008","527-UM","2017/12/09 19:19:41","新北市鶯歌區大湖路560號","121.33695","24.9732766666667","6500800","鶯歌區"
"239005","526-UM","2017/12/09 19:19:43","新北市鶯歌區中湖街285號","121.348236666667","24.97698","6500800","鶯歌區"
"239001","417-VK","2017/12/09 19:19:29","新北市鶯歌區建國路367巷1號","121.339078333333","24.9496083333333","6500800","鶯歌區"
"239003","360-BY","2017/12/09 19:19:48","新北市鶯歌區國華路56號","121.342373333333","24.95505","6500800","鶯歌區"
"239002","359-BY","2017/12/09 19:19:50","新北市鶯歌區大湖路394號","121.344511666667","24.973505","6500800","鶯歌區"
"239004","193-VK","2017/12/09 19:19:50","新北市鶯歌區國中街181號","121.33884","24.9395933333333","6500800","鶯歌區"
"221008","489-VK","2017/12/09 19:19:38","新北市汐止區康寧街273號","121.625688333333","25.0669416666667","6501100","汐止區"
"221036","130-UY","2017/12/09 19:19:37","新北市汐止區汐萬路一段256巷3號","121.652711666667","25.0744633333333","6501100","汐止區"
"221010","269-BY","2017/12/09 19:19:39","新北市汐止區康寧街901號","121.651331666667","25.0750633333333","6501100","汐止區"
"221012","276-VK","2017/12/09 13:27:45","新北市汐止區汐萬路一段256巷3號","121.653451666667","25.0746066666667","6501100","汐止區"
"221012","278-VK","2017/12/09 19:19:30","新北市汐止區長江街77號","121.657215","25.0721716666667","6501100","汐止區"
"221023","279-VK","2017/12/09 19:19:48","新北市汐止區康寧街901號","121.651","25.0752566666667","6501100","汐止區"
"221027","281-BY","2017/12/09 19:19:47","新北市汐止區汐萬路一段312號","121.650448333333","25.0753233333333","6501100","汐止區"
"221029","298-VK","2017/12/09 19:19:49","新北市汐止區康寧街901號","121.651451666667","25.07495","6501100","汐止區"
"221031","353-TW","2017/12/09 19:19:36","新北市汐止區康寧街901號","121.651626666667","25.0749333333333","6501100","汐止區"
"221015","567-BX","2017/12/09 19:19:53","新北市汐止區康寧街901號","121.651668333333","25.0749783333333","6501100","汐止區"
"221025","623-UM","2017/12/09 19:19:49","新北市汐止區汐萬路一段271號","121.650606666667","25.07436","6501100","汐止區"
"221038","646-BX","2017/12/09 19:19:42","新北市汐止區汐萬路一段312號","121.650561666667","25.07536","6501100","汐止區"
"221033","647-BX","2017/12/09 19:19:48","新北市汐止區南勢街1巷2號","121.626938333333","25.0374716666667","6501100","汐止區"
"221002","707-TV","2017/12/09 19:19:43","新北市汐止區大同路一段328號","121.63762","25.0588566666667","6501100","汐止區"
"221012","753-BX","2017/12/09 19:19:33","新北市汐止區康寧街901號","121.651658333333","25.07491","6501100","汐止區"
"220079","145-BY","2017/12/09 19:19:50","新北市板橋區民權路202巷13弄34號","121.458661666667","25.01638","6500100","板橋區"
"220082","610-BX","2017/12/09 19:19:53","新北市板橋區金門街355-1號","121.428616666667","24.9849266666667","6500100","板橋區"
"220101","245-BX","2017/12/09 19:19:32","新北市板橋區莊敬路220巷1號","121.47256","25.0213283333333","6500100","板橋區"
"220103","255-TC","2017/12/09 17:24:53","新北市板橋區民權路170巷2號","121.459775","25.013035","6500100","板橋區"
"220091","267-BY","2017/12/09 19:19:53","新北市板橋區文聖街207-1號","121.479918333333","25.0262983333333","6500100","板橋區"
"220056","276-BY","2017/12/09 19:19:52","新北市板橋區信義路127號","121.457758333333","24.99332","6500100","板橋區"
"220072","277-BY","2017/12/09 19:19:30","新北市板橋區篤行路二段161巷16-1號","121.429696666667","24.9874566666667","6500100","板橋區"
"220071","283-VK","2017/12/09 19:19:44","新北市板橋區大豐街125號","121.460925","25.00107","6500100","板橋區"
"220094","285-UM","2017/12/09 19:19:39","新北市板橋區吳鳳路66號","121.467485","25.030735","6500100","板橋區"
"220053","285-VK","2017/12/09 19:19:48","新北市板橋區永豐街146號","121.478065","25.02127","6500100","板橋區"
"220083","286-VK","2017/12/09 19:19:35","新北市板橋區大觀路二段174巷186弄8號","121.442605","25.0035366666667","6500100","板橋區"
"220081","287-VK","2017/12/09 19:19:53","新北市板橋區南雅西路一段126號","121.452581666667","25.0068333333333","6500100","板橋區"
"220090","288-VK","2017/12/09 19:19:48","新北市板橋區裕民街45巷4號","121.461506666667","25.02835","6500100","板橋區"
"220061","293-UM","2017/12/09 19:19:33","新北市板橋區中山路二段326-5號","121.48113","25.0193816666667","6500100","板橋區"
"220062","295-UM","2017/12/09 19:19:43","新北市板橋區三民路二段居仁巷26號","121.479971666667","25.013235","6500100","板橋區"
"220084","296-UM","2017/12/09 19:19:51","新北市板橋區溪崑二街75號","121.427845","24.990195","6500100","板橋區"
"220092","299-UM","2017/12/09 19:19:42","新北市板橋區光武街48巷16號","121.467751666667","25.026775","6500100","板橋區"
"220098","317-R6","2017/12/09 19:19:51","新北市板橋區自由路51巷9-3號","121.464995","25.0233683333333","6500100","板橋區"
"220080","461-BY","2017/12/09 19:19:40","新北市板橋區大觀路二段19巷84號","121.448996666667","25.002895","6500100","板橋區"
"220064","486-VK","2017/12/09 19:19:47","新北市板橋區板新路11號","121.47512","25.0126883333333","6500100","板橋區"
"220089","487-VK","2017/12/09 19:19:31","新北市板橋區文化路一段360號","121.468243333333","25.02362","6500100","板橋區"
"220088","491-VK","2017/12/09 19:19:44","新北市板橋區雙十路二段85號","121.475711666667","25.027475","6500100","板橋區"
"220035","560-BX","2017/12/09 19:19:45","新北市板橋區中正路358號","121.45462","25.0237733333333","6500100","板橋區"
"220103","561-BX","2017/12/09 19:19:49","新北市板橋區文化路一段188巷7弄16號","121.467616666667","25.0196333333333","6500100","板橋區"
"220075","568-UM","2017/12/09 19:19:33","新北市板橋區南雅西路二段323巷16號","121.450098333333","25.0163516666667","6500100","板橋區"
"220063","609-BX","2017/12/09 19:19:51","新北市板橋區三民路二段202-6號","121.47906","25.0144366666667","6500100","板橋區"
"220057","686-BX","2017/12/09 19:19:39","新北市板橋區重慶路342號","121.464338333333","24.9975316666667","6500100","板橋區"
"220077","687-BX","2017/12/09 19:19:46","新北市板橋區僑中一街70號","121.447586666667","25.01154","6500100","板橋區"
"220093","689-BX","2017/12/09 19:19:37","新北市板橋區民生路三段25號","121.4671","25.0241516666667","6500100","板橋區"
"220054","741-BX","2017/12/09 19:19:43","新北市板橋區重慶路62巷5號","121.461426666667","25.0067216666667","6500100","板橋區"
"220055","827-TW","2017/12/09 19:19:38","新北市板橋區新民街4巷15號","121.464945","25.0099266666667","6500100","板橋區"
"220067","829-TW","2017/12/09 19:19:36","新北市板橋區長安街138巷1弄48號","121.473791666667","25.00997","6500100","板橋區"
"220096","831-TW","2017/12/09 19:19:43","新北市板橋區大同街26巷29號","121.478428333333","25.0264583333333","6500100","板橋區"
"220074","895-R6","2017/12/09 19:19:49","新北市板橋區中正路自強新村91-1號","121.454813333333","25.0131533333333","6500100","板橋區"
"220073","985-R7","2017/12/09 19:19:38","新北市板橋區新生街35號","121.456635","25.0211133333333","6500100","板橋區"
"220097","AAC-210","2017/12/09 19:19:39","新北市板橋區幸福路60巷73號","121.459848333333","25.0216983333333","6500100","板橋區"
"220070","AAC-253","2017/12/09 19:19:43","新北市板橋區忠孝路58號","121.461061666667","25.0019433333333","6500100","板橋區"
