"lineid","car","time","location","longitude","latitude","cityid","cityname"
"251013","179-VK","2017/12/10 16:49:34","新北市淡水區楓樹湖6號","121.498215","25.187235","6501000","淡水區"
"251014","180-VK","2017/12/10 16:49:46","新北市淡水區淡金路四段476號","121.45195","25.2236583333333","6501000","淡水區"
"251015","182-VK","2017/12/10 16:49:38","新北市淡水區學府路24號","121.447646666667","25.1682233333333","6501000","淡水區"
"251016","442-VK","2017/12/10 16:49:52","新北市淡水區水頭42號","121.478386666667","25.1849366666667","6501000","淡水區"
"220103","255-TC","2017/12/10 15:13:32","新北市板橋區民權路170巷2號","121.459878333333","25.01303","6500100","板橋區"
