"lineid","car","time","location","longitude","latitude","cityid","cityname"
"251013","179-VK","2017/12/10 17:19:34","新北市淡水區演戲埔腳1-2號","121.475448333333","25.1940133333333","6501000","淡水區"
"251014","180-VK","2017/12/10 17:19:46","新北市淡水區公埔子30-2號","121.465126666667","25.22823","6501000","淡水區"
"251015","182-VK","2017/12/10 17:19:38","新北市淡水區樹林口168號","121.47627","25.166855","6501000","淡水區"
"251016","442-VK","2017/12/10 17:19:32","新北市淡水區鄒厝崙13號","121.462183333333","25.19052","6501000","淡水區"
"220103","255-TC","2017/12/10 17:01:53","新北市板橋區民權路170巷8號","121.460013333333","25.0131216666667","6500100","板橋區"
