"lineid","car","time","location","longitude","latitude","cityid","cityname"
"251013","179-VK","2017/12/10 17:23:34","新北市淡水區大竹圍1號","121.469988333333","25.195475","6501000","淡水區"
"251014","180-VK","2017/12/10 17:23:46","新北市淡水區公埔子5-1號","121.465126666667","25.2266783333333","6501000","淡水區"
"251015","182-VK","2017/12/10 17:23:38","新北市淡水區三空泉16-10號","121.472331666667","25.16505","6501000","淡水區"
"251016","442-VK","2017/12/10 17:23:32","新北市淡水區社厝坑8-1號","121.468916666667","25.1916116666667","6501000","淡水區"
"220103","255-TC","2017/12/10 17:01:53","新北市板橋區民權路170巷8號","121.460013333333","25.0131216666667","6500100","板橋區"
