"lineid","car","time","location","longitude","latitude","cityid","cityname"
"224011","AGQ-8101","2017/12/10 13:03:14","新北市瑞芳區明燈路二段89號","121.809765","25.1083016666667","6501200","瑞芳區"
"251013","179-VK","2017/12/10 18:09:54","新北市淡水區桂花樹4號","121.47604","25.1960616666667","6501000","淡水區"
"251014","180-VK","2017/12/10 18:09:46","新北市淡水區南平15號","121.487906666667","25.2197716666667","6501000","淡水區"
"251015","182-VK","2017/12/10 18:09:38","新北市淡水區興福寮88巷1號","121.485626666667","25.1650616666667","6501000","淡水區"
"251016","442-VK","2017/12/10 18:09:51","新北市淡水區下圭柔山17號","121.453351666667","25.2023866666667","6501000","淡水區"
"220103","255-TC","2017/12/10 17:01:53","新北市板橋區民權路170巷8號","121.460013333333","25.0131216666667","6500100","板橋區"
