"lineid","car","time","location","longitude","latitude","cityid","cityname"
"224011","AGQ-8101","2017/12/10 18:44:34","新北市瑞芳區金光路334號","121.848551666667","25.1100416666667","6501200","瑞芳區"
"251013","179-VK","2017/12/10 18:49:34","新北市淡水區安子內5-2號","121.482631666667","25.21435","6501000","淡水區"
"251014","180-VK","2017/12/10 18:49:46","新北市淡水區崙頂15-1號","121.489578333333","25.2235683333333","6501000","淡水區"
"251015","182-VK","2017/12/10 18:49:38","新北市淡水區興福寮88巷1-12號","121.487336666667","25.1674433333333","6501000","淡水區"
"251016","442-VK","2017/12/10 18:49:52","新北市淡水區下圭柔山71-3號","121.447088333333","25.20618","6501000","淡水區"
"220103","255-TC","2017/12/10 17:01:53","新北市板橋區民權路170巷8號","121.460013333333","25.0131216666667","6500100","板橋區"
