"lineid","car","time","location","longitude","latitude","cityid","cityname"
"224011","AGQ-8101","2017/12/10 19:09:34","新北市瑞芳區基山街3號","121.845298333333","25.1097816666667","6501200","瑞芳區"
"251013","179-VK","2017/12/10 19:09:34","新北市淡水區安子內5-1號","121.484658333333","25.21631","6501000","淡水區"
"251014","180-VK","2017/12/10 19:09:46","新北市淡水區小中寮36號","121.48778","25.2294","6501000","淡水區"
"251015","182-VK","2017/12/10 19:09:37","新北市淡水區南勢埔41號","121.485548333333","25.1780783333333","6501000","淡水區"
"251016","442-VK","2017/12/10 19:09:51","新北市淡水區下圭柔山119-51號","121.450788333333","25.208415","6501000","淡水區"
"220103","255-TC","2017/12/10 17:01:53","新北市板橋區民權路170巷8號","121.460013333333","25.0131216666667","6500100","板橋區"
