"lineid","car","time","location","longitude","latitude","cityid","cityname"
"224011","AGQ-8101","2017/12/10 19:11:34","新北市瑞芳區烏勢巷145號","121.847695","25.1089066666667","6501200","瑞芳區"
"251013","179-VK","2017/12/10 19:11:34","新北市淡水區安子內12號","121.481506666667","25.21907","6501000","淡水區"
"251014","180-VK","2017/12/10 19:11:46","新北市淡水區小中寮18號","121.486048333333","25.2302316666667","6501000","淡水區"
"251015","182-VK","2017/12/10 19:11:37","新北市淡水區南勢埔34號","121.48426","25.179845","6501000","淡水區"
"251016","442-VK","2017/12/10 19:11:32","新北市淡水區下圭柔山119-51號","121.450778333333","25.2084116666667","6501000","淡水區"
"220103","255-TC","2017/12/10 17:01:53","新北市板橋區民權路170巷8號","121.460013333333","25.0131216666667","6500100","板橋區"
