"lineid","car","time","location","longitude","latitude","cityid","cityname"
"251013","179-VK","2017/12/10 20:59:34","新北市淡水區行忠路146號","121.45443","25.199045","6501000","淡水區"
"251014","180-VK","2017/12/10 20:59:46","新北市淡水區淡金路五段72號","121.454766666667","25.23372","6501000","淡水區"
"251015","182-VK","2017/12/10 20:59:37","新北市淡水區淡金路四段542巷17號","121.45269","25.2270883333333","6501000","淡水區"
"251016","442-VK","2017/12/10 20:59:51","新北市淡水區牛埔子10-1號","121.449761666667","25.2184316666667","6501000","淡水區"
"220103","255-TC","2017/12/10 19:51:02","新北市板橋區民權路97-2號","121.459748333333","25.012965","6500100","板橋區"
