"lineid","car","time","location","longitude","latitude","cityid","cityname"
"248005","653-BX","2017/12/11 06:47:39","新北市五股區中興路二段83巷26-6號","121.460045","25.0751666666667","6501500","五股區"
"232001","290-BY","2017/12/11 06:46:51","新北市坪林區北宜路八段451號","121.70656","24.9234116666667","6502000","坪林區"
"232012","291-BY","2017/12/11 06:47:41","新北市坪林區九芎林14-1號","121.70782","24.9307533333333","6502000","坪林區"
"232010","375-UM","2017/12/11 06:47:37","新北市坪林區北宜路八段558號","121.718053333333","24.9092066666667","6502000","坪林區"
"232017","705-BZ","2017/12/11 02:42:12","新北市坪林區北宜路八段558號","121.71797","24.9093316666667","6502000","坪林區"
"232005","758-BX","2017/12/11 06:47:50","新北市坪林區魚堀55-1號","121.708285","24.9293316666667","6502000","坪林區"
"244001","657-BX","2017/12/11 06:47:32","新北市林口區粉寮69號","121.405085","25.09082","6501700","林口區"
"235001","186-VK","2017/12/11 06:47:42","新北市中和區和平街29-1號","121.507485","24.9911066666667","6500300","中和區"
"223006","022-BY","2017/12/11 06:47:36","新北市石碇區新興坑29號","121.646008333333","25.01546","6501900","石碇區"
"223002","198-BX","2017/12/11 06:47:42","新北市石碇區烏塗窟36號","121.655126666667","24.973795","6501900","石碇區"
"223008","406-TH","2017/12/11 06:47:49","新北市石碇區靜安路一段102號","121.648095","25.0089316666667","6501900","石碇區"
"223001","437-BY","2017/12/11 06:47:43","新北市石碇區湳窟29號","121.662821666667","24.9920766666667","6501900","石碇區"
"223004","660-BX","2017/12/11 06:47:32","新北市石碇區碇坪路一段95號","121.662776666667","24.9897716666667","6501900","石碇區"
"223007","661-BX","2017/12/11 06:47:40","新北市石碇區靜安路一段108號","121.649628333333","25.00879","6501900","石碇區"
"223005","677-TV","2017/12/11 06:47:36","新北市石碇區碇坪路一段109號","121.66405","24.9885666666667","6501900","石碇區"
"227005","282-VK","2017/12/11 06:47:48","新北市雙溪區新基里自強路7號","121.866226666667","25.039","6502500","雙溪區"
"252006","073-UM","2017/12/11 06:47:33","新北市三芝區埔坪里埔頭坑41號","121.504548333333","25.2646016666667","6502100","三芝區"
"236007","165-UM","2017/12/11 06:47:33","新北市土城區永平街51號","121.427993333333","24.959165","6501300","土城區"
"220057","282-UM","2017/12/11 06:47:51","新北市板橋區國光路67巷14號","121.459","25.0187483333333","6500100","板橋區"
