"lineid","car","time","location","longitude","latitude"
"248005","653-BX","2017/06/06 10:07:29","新北市五股區成泰路二段250號","121.440526666667","25.087085"
"248012","655-BX","2017/06/06 10:09:07","新北市五股區工商路8號","121.440766666667","25.082765"
"222004","289-BY","2017/06/06 10:09:10","台北市文山區新光路二段23巷3號","121.59756","25.00189"
"231009","110-UY","2017/06/06 09:45:00","新北市新店區平廣路一段256號","121.506935","24.8875833333333"
"227006","282-VK","2017/06/06 10:09:12","新北市雙溪區長源里柑腳24號","121.804445","25.01434"
"227012","030-BX","2017/06/06 10:07:55","新北市雙溪區泰平里料角坑43號","121.792825","24.95562"
"252004","249-BX","2017/06/06 10:09:00","新北市三芝區中正路二段22號","121.504403333333","25.2551616666667"
"252007","AAC-283","2017/06/06 00:24:02","新北市三芝區埔坪里埔頭坑41號","121.504471666667","25.26444"
"220088","145-RM","2017/06/06 10:09:14","新北市板橋區縣民大道二段68-1號","121.463546666667","25.0129683333333"
