"lineid","car","time","location","longitude","latitude"
"234046","148-BY","2017/06/06 20:39:03","新北市永和區環河東路三段65號","121.529446666667","25.00704"
"234081","298-R6","2017/06/06 20:39:04","新北市永和區永亨路70號","121.520915","25.0056966666667"
"234054","553-UM","2017/06/06 20:39:07","新北市永和區環河東路一段82號","121.519685","25.0164916666667"
"234030","746-BX","2017/06/06 20:38:49","新北市新店區安和路三段4巷3號","121.518495","24.9809983333333"
"234061","AAD-866","2017/06/06 20:39:08","新北市永和區秀安街15巷1號","121.51603","25.00359"
"234064","847-RS","2017/06/06 20:38:56","新北市永和區中正路467號","121.51702","25.0059366666667"
"234042","862-TW","2017/06/06 20:38:58","新北市永和區福和路278號","121.517936666667","25.00755"
"249001","173-UM","2017/06/06 20:39:04","新北市八里區下罟子23號","121.376765","25.13872"
"249004","303-UY","2017/06/06 20:38:48","新北市八里區中山路一段157巷30號","121.412781666667","25.1580583333333"
"249002","305-UY","2017/06/06 20:38:47","新北市八里區龍米路二段246號","121.430255","25.158755"
"234023","9380-KE","2017/06/06 20:38:49","新北市永和區文化路170號","121.511835","25.01552"
"234074","AAC-211","2017/06/06 20:39:01","新北市永和區環河東路一段122號","121.520563333333","25.0154816666667"
"234067","AAC-212","2017/06/06 20:38:54","新北市永和區保平路268巷26號","121.507606666667","25.0063366666667"
"243013","AAD-798","2017/06/06 20:39:00","新北市泰山區公園路65號","121.425578333333","25.0543333333333"
"243009","297-R6","2017/06/06 20:38:57","新北市泰山區泰林路二段542巷3弄9號","121.422988333333","25.06419"
"243015","380-SR","2017/06/06 20:39:00","新北市泰山區仁德路127號","121.432585","25.056065"
"243016","539-UM","2017/06/06 20:37:56","新北市泰山區公園路80號","121.423533333333","25.0561316666667"
"243011","549-UM","2017/06/06 20:38:54","新北市泰山區明志路二段41號","121.429546666667","25.0530766666667"
"222003","436-BY","2017/06/06 20:38:53","新北市深坑區阿柔洋8-1號","121.612828333333","24.9998466666667"
"222002","659-BX","2017/06/06 20:39:06","新北市深坑區萬福路43號","121.599361666667","25.006895"
"222001","696-SL","2017/06/06 20:39:06","新北市深坑區北深路三段223號","121.600228333333","25.00416"
"231041","002-UM","2017/06/06 20:38:51","新北市新店區中正路543-4號","121.533723333333","24.987445"
"231056","0291-UT","2017/06/06 20:39:04","新北市新店區中正路487-3號","121.532831666667","24.9819583333333"
"231059","046-UY","2017/06/06 20:39:01","新北市新店區僑信路132巷17號","121.50024","24.9455366666667"
"231061","047-UY","2017/06/06 20:38:53","新北市新店區新和街94號","121.520723333333","24.9861466666667"
"231060","106-UY","2017/06/06 20:39:07","新北市新店區安康路三段628號","121.478668333333","24.9459316666667"
"231051","107-UY","2017/06/06 20:38:55","新北市新店區中央六街1號","121.530653333333","24.9743883333333"
"231048","108-UY","2017/06/06 20:39:00","新北市新店區寶慶街5號","121.544196666667","24.9866633333333"
"231053","187-VK","2017/06/06 20:38:55","新北市新店區廣興路7-2號","121.546001666667","24.9121616666667"
"231069","189-VK","2017/06/06 11:58:29","新北市新店區安華路28-1號","121.519561666667","24.9612883333333"
"231063","268-BY","2017/06/06 20:38:53","新北市新店區玫瑰路4-1號","121.493586666667","24.9514"
"231050","AAD-862","2017/06/06 20:38:54","新北市新店區建國路51號","121.54056","24.97571"
"231058","3712-VJ","2017/06/06 20:38:49","新北市新店區自由街43-1號","121.534591666667","24.9737666666667"
"231055","3713-VJ","2017/06/06 20:38:51","新北市新店區薏仁坑路7號","121.49879","24.959155"
"231065","512-UM","2017/06/06 20:38:58","新北市新店區安祥路102巷121弄2號","121.486163333333","24.9645716666667"
"231054","513-UM","2017/06/06 20:38:58","新北市新店區行政街23號","121.543061666667","24.9663683333333"
"231064","515-UM","2017/06/06 20:39:04","新北市新店區永安街56巷6-4號","121.518356666667","24.98618"
"231045","617-UM","2017/06/06 20:38:51","新北市新店區長春路213號","121.559556666667","24.96201"
"231040","619-UM","2017/06/06 20:39:05","新北市新店區中正路310號","121.537256666667","24.974625"
"231042","641-BX","2017/06/06 20:39:07","新北市新店區寶高路25號","121.55317","24.9774"
"231068","718-UY","2017/06/06 20:39:04","新北市新店區寶慶街35巷1弄2號","121.54317","24.98635"
"231049","719-UM","2017/06/06 20:39:08","新北市新店區永業路81巷7弄1號","121.530461666667","24.94876"
"231062","720-UM","2017/06/06 20:38:52","新北市新店區安泰路11巷1號","121.48555","24.95018"
"231044","897-TW","2017/06/06 20:38:54","新北市新店區建國路297號","121.537076666667","24.9861583333333"
"231043","899-TW","2017/06/06 20:38:57","新北市新店區建國路43號","121.540673333333","24.9752166666667"
"241011","013-R5","2017/06/06 20:39:07","新北市三重區龍濱路269號","121.501298333333","25.073085"
"241028","022-UY","2017/06/06 20:39:03","新北市三重區光興街93號","121.49732","25.0600066666667"
"241008","059-VK","2017/06/06 20:38:50","新北市三重區下竹圍街91號","121.4811","25.0748716666667"
"241009","060-VK","2017/06/06 20:38:56","新北市三重區碧華街51號","121.484695","25.0812533333333"
"241031","061-VK","2017/06/06 20:39:02","新北市三重區重陽路一段43巷36-1號","121.488395","25.0586483333333"
"241015","062-VK","2017/06/06 20:38:50","新北市三重區文化北路99號","121.498006666667","25.0682133333333"
"241017","063-VK","2017/06/06 20:39:07","新北市三重區大同北路265號","121.490943333333","25.0672266666667"
"241024","065-VK","2017/06/06 20:39:02","新北市三重區忠孝路三段51號","121.480881666667","25.0666783333333"
"241002","090-VK","2017/06/06 20:39:00","新北市三重區仁義街167巷55號","121.498798333333","25.0824483333333"
"241003","091-VK","2017/06/06 20:39:08","新北市三重區五華街141巷58號","121.49358","25.0867866666667"
"241005","262-UM","2017/06/06 20:39:00","新北市三重區碧華街434號","121.492708333333","25.0855916666667"
"241019","265-UM","2017/06/06 20:38:51","新北市三重區忠孝路一段10巷13號","121.491471666667","25.0714566666667"
"241016","266-UM","2017/06/06 20:39:01","新北市三重區長壽西街99號","121.49474","25.066905"
"241022","267-UM","2017/06/06 20:39:02","新北市三重區民生街61巷6弄3號","121.48869","25.0621466666667"
"241018","268-UM","2017/06/06 20:38:52","新北市三重區重陽路四段57號","121.491995","25.0704183333333"
"241032","269-UM","2017/06/06 20:38:51","新北市三重區重陽路一段120巷35號","121.485058333333","25.0602"
"241013","270-UM","2017/06/06 20:39:01","新北市三重區三和路四段2號","121.491793333333","25.0738416666667"
"241025","271-UM","2017/06/06 20:39:04","新北市三重區大有街1-32號","121.476796666667","25.06529"
"241007","398-BY","2017/06/06 20:38:50","新北市三重區三和路四段109號","121.486296666667","25.0770183333333"
"241020","412-TH","2017/06/06 20:38:47","新北市三重區明德街33號","121.49255","25.07221"
"241035","462-BY","2017/06/06 20:39:06","新北市三重區正義北路332號","121.494576666667","25.070745"
"241004","475-VK","2017/06/06 20:39:08","新北市三重區仁愛街455號","121.489921666667","25.0817916666667"
"241030","480-VK","2017/06/06 20:39:01","新北市三重區成功路73巷13號","121.489511666667","25.0519616666667"
"241014","543-UM","2017/06/06 17:41:40","新北市三重區河邊北街80號","121.50434","25.0687083333333"
"241023","545-UM","2017/06/06 20:39:08","新北市三重區自由街36號","121.479125","25.0668016666667"
"241001","547-UM","2017/06/06 20:39:03","新北市三重區自強路三段110巷19號","121.48623","25.0745233333333"
"241006","AAD-863","2017/06/06 20:39:01","新北市三重區車路頭街135號","121.48416","25.0758166666667"
"241026","887-TS","2017/06/06 20:39:02","新北市三重區和平街44號","121.502325","25.06281"
"241012","941-UM","2017/06/06 20:39:05","新北市三重區秀江街2號","121.502765","25.0730316666667"
"241029","942-UM","2017/06/06 20:38:58","新北市三重區集美街126巷24號","121.48997","25.053905"
"241033","AAC-255","2017/06/06 20:38:50","新北市三重區光復路二段1號","121.472403333333","25.0533433333333"
"235039","097-UM","2017/06/06 20:39:05","新北市中和區大勇街27巷8號","121.517061666667","24.9938766666667"
"235065","098-UM","2017/06/06 20:39:02","新北市中和區永和路39巷20號","121.497281666667","25.0052733333333"
"235072","301-VK","2017/06/06 20:39:02","新北市新莊區化成路1008號","121.465583333333","25.06556"
"235051","376-QA","2017/06/06 20:38:52","新北市新店區光華街29號","121.515508333333","24.9697516666667"
"235050","4979-A6","2017/06/06 20:38:22","新北市中和區景平路385巷9弄14號","121.502081666667","24.994195"
"235069","4980-A6","2017/06/06 20:38:46","新北市中和區連城路300號","121.483938333333","24.9963183333333"
"235037","AAC-213","2017/06/06 20:39:07","新北市中和區自立路99巷22弄7號","121.523366666667","24.9941933333333"
"247020","893-R6","2017/06/06 20:38:50","新北市蘆洲區民族路341號","121.472673333333","25.0919766666667"
"247010","546-UM","2017/06/06 20:38:58","新北市蘆洲區集賢路226號","121.482418333333","25.08656"
"247006","341-TH","2017/06/06 20:38:55","新北市蘆洲區和平路136-2號","121.467111666667","25.08066"
"247008","339-TH","2017/06/06 20:38:49","新北市蘆洲區中山一路6號","121.480766666667","25.0806166666667"
"247024","337-TH","2017/06/06 20:38:57","新北市蘆洲區長樂路150號","121.462353333333","25.0907583333333"
"247002","336-TH","2017/06/06 20:38:55","新北市蘆洲區長安街375巷11號","121.456595","25.0878433333333"
"247014","057-VK","2017/06/06 20:38:54","新北市蘆洲區中央路22號","121.473628333333","25.0827666666667"
"247004","056-VK","2017/06/06 20:39:01","新北市蘆洲區長安街295號","121.458186666667","25.0847583333333"
"247012","007-UY","2017/06/06 20:38:54","新北市蘆洲區集賢路216號","121.4831","25.0871416666667"
"247022","002-UY","2017/06/06 20:38:58","新北市蘆洲區中正路263巷2號","121.467283333333","25.08733"
"247016","001-UY","2017/06/06 20:38:56","新北市蘆洲區中山二路286號","121.468793333333","25.0778366666667"
"251005","010-UM","2017/06/06 20:38:55","新北市淡水區崁頂78-5號","121.429768333333","25.206465"
"251001","011-UM","2017/06/06 20:39:03","新北市淡水區淡金路204號","121.460043333333","25.166805"
"251014","180-VK","2017/06/06 20:39:05","新北市淡水區公埔子25號","121.469733333333","25.231885"
"251010","413-VK","2017/06/06 20:39:03","新北市淡水區沙崙路181巷15號","121.423926666667","25.1843766666667"
"251012","441-VK","2017/06/06 20:39:10","新北市淡水區興仁路108號","121.451626666667","25.218175"
"251016","442-VK","2017/06/06 20:39:06","新北市淡水區後洲子16-1號","121.449506666667","25.22405"
"251006","561-UM","2017/06/06 20:38:58","新北市淡水區商工路186巷1號","121.45035","25.1883516666667"
"251011","650-BX","2017/06/06 20:38:48","新北市淡水區新市一路一段361號","121.436366666667","25.1862233333333"
"251002","672-BX","2017/06/06 20:38:52","新北市淡水區中正路36號","121.44376","25.1692216666667"
"251003","673-BX","2017/06/06 20:38:56","新北市淡水區新民街152巷6弄22號","121.438761666667","25.1785683333333"
"252001","292-VK","2017/06/06 20:38:50","新北市三芝區長安街49號","121.50125","25.25647"
"242021","AAC-296","2017/06/06 20:38:48","新北市新莊區公園路118號","121.451466666667","25.03984"
"242029","986-R7","2017/06/06 20:38:51","新北市新莊區昌隆街7號","121.453916666667","25.050925"
"242048","751-BX","2017/06/06 20:38:54","新北市新莊區中正路871巷1號","121.418153333333","25.0270683333333"
"242023","705-TV","2017/06/06 20:38:54","新北市新莊區復興路三段43號","121.461503333333","25.0445416666667"
"242025","615-BX","2017/06/06 20:38:55","新北市新莊區化成路579巷1號","121.464311666667","25.0660416666667"
"242027","612-BX","2017/06/06 20:39:03","新北市新莊區思源路73號","121.459958333333","25.0408566666667"
"242037","566-BX","2017/06/06 20:38:46","新北市新莊區建安街16巷2號","121.428445","25.0265633333333"
"242042","497-BY","2017/06/06 20:39:07","新北市新莊區天祥街15巷10號","121.416516666667","25.0276116666667"
"242005","442-UM","2017/06/06 20:38:53","新北市新莊區化成路405號","121.464965","25.058845"
"242046","441-UM","2017/06/06 20:39:05","新北市新莊區富國路22巷37號","121.418221666667","25.0254583333333"
"242032","415-TV","2017/06/06 20:38:58","新北市新莊區中正路516號","121.43371","25.03244"
"242002","413-TV","2017/06/06 20:39:02","新北市新莊區中港路五守新村35巷2號","121.454681666667","25.0385816666667"
"242039","400-BY","2017/06/06 20:38:57","新北市新莊區新樹路166號","121.434835","25.0224583333333"
"242061","362-BY","2017/06/06 20:38:58","新北市新莊區新樹路262號","121.432711666667","25.014745"
"242058","353-BY","2017/06/06 20:39:04","新北市新莊區四維路121號","121.423076666667","25.02314"
"242011","132-UY","2017/06/06 20:39:02","新北市新莊區中榮街122巷3號","121.446548333333","25.053145"
"242034","133-UY","2017/06/06 20:38:52","新北市新莊區中正路334巷25弄23號","121.44535","25.0358766666667"
"242019","135-UY","2017/06/06 20:39:00","新北市新莊區銘德街53號","121.457096666667","25.0436516666667"
"242044","172-VK","2017/06/06 20:39:01","新北市新莊區中正路新生巷85弄1號","121.417005","25.02158"
"242007","173-VK","2017/06/06 20:39:06","新北市新莊區福壽街116號","121.457988333333","25.0508133333333"
"242013","175-VK","2017/06/06 20:38:53","新北市新莊區中和街191巷1-1號","121.447841666667","25.0512066666667"
"242056","176-VK","2017/06/06 20:39:01","新北市新莊區瓊泰路94巷2號","121.443391666667","25.0293766666667"
"242051","346-TH","2017/06/06 20:38:55","新北市新莊區民安西路152號","121.426113333333","25.0164416666667"
"242017","348-TH","2017/06/06 20:38:59","新北市新莊區中和街62號","121.44785","25.0459633333333"
"242054","349-TH","2017/06/06 20:39:02","新北市新莊區民安西路229巷2號","121.4264","25.0142066666667"
"242015","350-TH","2017/06/06 20:38:53","新北市新莊區中港一街153號","121.447608333333","25.0450266666667"
"242009","351-TH","2017/06/06 20:39:04","新北市新莊區幸福路564巷2弄1號","121.454516666667","25.0496283333333"
"238023","601-UM","2017/06/06 20:38:54","新北市樹林區育德街78-1號","121.387655","24.9682433333333"
"221036","130-UY","2017/06/06 20:39:07","新北市汐止區新昌路33號","121.66232","25.067965"
"221015","131-UY","2017/06/06 20:39:03","新北市汐止區建成路80號","121.662523333333","25.0732166666667"
"221010","269-BY","2017/06/06 20:38:49","新北市汐止區八連路一段317號","121.639718333333","25.0868566666667"
"221012","278-VK","2017/06/06 20:39:05","新北市汐止區大同路三段241號","121.672658333333","25.0766933333333"
"221023","279-VK","2017/06/06 20:38:51","新北市汐止區伯爵街2巷23號","121.642825","25.07558"
"221002","281-BY","2017/06/06 20:39:00","新北市汐止區大同路二段429號","121.658885","25.0673766666667"
"221038","297-VK","2017/06/06 20:39:09","新北市汐止區忠孝東路231號","121.662628333333","25.067185"
"221029","298-VK","2017/06/06 20:38:56","新北市汐止區大同路一段515巷6號","121.645463333333","25.0625416666667"
"221021","299-VK","2017/06/06 20:24:52","新北市汐止區水源路一段286號","121.654231666667","25.0582033333333"
"221035","622-UM","2017/06/06 20:39:07","新北市汐止區長江街101-5號","121.658668333333","25.073195"
"221025","623-UM","2017/06/06 20:38:57","新北市汐止區水源路二段283巷1號","121.659236666667","25.0498833333333"
"221033","647-BX","2017/06/06 20:38:59","新北市汐止區合順街18巷8弄5號","121.620321666667","25.04193"
"221002","707-TV","2017/06/06 20:38:56","新北市汐止區福德二路169號","121.630813333333","25.06518"
"221018","753-BX","2017/06/06 20:39:08","新北市汐止區茄苳路59號","121.66663","25.0709133333333"
"220069","258-TC","2017/06/06 20:38:52","新北市五股區新五路二段119-10號","121.438483333333","25.07829"
"220083","286-VK","2017/06/06 20:38:51","新北市板橋區僑中二街104巷36號","121.444693333333","25.008105"
"220004","303-R5","2017/06/06 20:38:53","新北市板橋區大觀路三段59巷17弄6-1號","121.435013333333","24.9955983333333"
"220067","829-TW","2017/06/06 20:38:56","新北市林口區汕頭32號","121.36635","25.1346983333333"
"220070","AAC-253","2017/06/06 20:39:02","新北市新莊區中正路384-1號","121.442288333333","25.0356233333333"
