"lineid","car","time","location","longitude","latitude"
"243004","646-TV","2017/06/06 21:03:32","新北市泰山區黎明路25號","121.422031666667","25.0606716666667"
"231069","189-VK","2017/06/06 11:58:29","新北市新店區安華路28-1號","121.519561666667","24.9612883333333"
"241031","061-VK","2017/06/06 22:49:02","新北市三重區重新路四段121號","121.483791666667","25.0531616666667"
"241014","543-UM","2017/06/06 17:41:40","新北市三重區河邊北街80號","121.50434","25.0687083333333"
"251008","181-VK","2017/06/06 22:48:42","新北市淡水區下圭柔山90-8號","121.43221","25.21186"
"220071","283-VK","2017/06/06 21:26:54","新北市板橋區民生路二段15-1號","121.472816666667","25.0163666666667"
