"lineid","car","time","location","longitude","latitude","cityid","cityname"
"224011","AGQ-8101","2017/06/18 13:13:12","新北市瑞芳區明燈路二段89號","121.809843333333","25.10822","6501200","瑞芳區"
"251013","179-VK","2017/06/18 18:08:45","新北市淡水區竹圍子12號","121.476398333333","25.1937533333333","6501000","淡水區"
"251014","180-VK","2017/06/18 18:08:42","新北市淡水區南平14-1號","121.485653333333","25.2208183333333","6501000","淡水區"
"251015","182-VK","2017/06/18 18:08:55","新北市淡水區興福寮88巷1號","121.485665","25.1651233333333","6501000","淡水區"
"251016","442-VK","2017/06/18 18:08:53","新北市淡水區下圭柔山17號","121.453375","25.2023883333333","6501000","淡水區"
