"lineid","car","time","location","longitude","latitude","cityid","cityname"
"224011","AGQ-8101","2017/06/18 18:15:52","新北市瑞芳區金光路372號","121.849315","25.1105783333333","6501200","瑞芳區"
"251013","179-VK","2017/06/18 18:18:45","新北市淡水區行忠路750號","121.472333333333","25.1995216666667","6501000","淡水區"
"251014","180-VK","2017/06/18 18:18:42","新北市淡水區南平16號","121.48899","25.2210133333333","6501000","淡水區"
"251015","182-VK","2017/06/18 18:18:55","新北市淡水區興福寮88巷1號","121.485676666667","25.1651033333333","6501000","淡水區"
"251016","442-VK","2017/06/18 18:18:54","新北市淡水區淡金路三段228巷22-7號","121.449928333333","25.2048816666667","6501000","淡水區"
