"lineid","car","time","location","longitude","latitude","cityid","cityname"
"224011","AGQ-8101","2017/06/18 18:33:32","新北市瑞芳區街頂巷59號","121.844691666667","25.107695","6501200","瑞芳區"
"251013","179-VK","2017/06/18 18:38:45","新北市淡水區雲廣坑5號","121.472783333333","25.21294","6501000","淡水區"
"251014","180-VK","2017/06/18 18:38:42","新北市淡水區崙頂12-8號","121.495583333333","25.2172266666667","6501000","淡水區"
"251015","182-VK","2017/06/18 18:38:55","新北市淡水區興福寮66巷295號","121.485758333333","25.1618566666667","6501000","淡水區"
"251016","442-VK","2017/06/18 18:38:53","新北市淡水區下圭柔山76-13號","121.444565","25.205425","6501000","淡水區"
