"lineid","car","time","location","longitude","latitude","cityid","cityname"
"235001","783-BX","2017/06/18 19:38:48","新北市中和區連城路265巷10弄1號","121.491676666667","24.9953083333333","6500300","中和區"
"224011","AGQ-8101","2017/06/18 19:38:52","新北市瑞芳區基山街96號","121.844218333333","25.108705","6501200","瑞芳區"
"251013","179-VK","2017/06/18 19:38:45","新北市淡水區店子後9號","121.459845","25.2186366666667","6501000","淡水區"
"251014","180-VK","2017/06/18 19:38:42","新北市淡水區桂竹圍4-2號","121.474543333333","25.231775","6501000","淡水區"
"251015","182-VK","2017/06/18 19:38:55","新北市淡水區山子頂22-2號","121.492651666667","25.1887733333333","6501000","淡水區"
"251016","442-VK","2017/06/18 19:38:54","新北市淡水區下圭柔山119-51號","121.450743333333","25.208435","6501000","淡水區"
"221002","753-BX","2017/06/18 19:38:55","新北市汐止區忠孝東路9號","121.658326666667","25.065945","6501100","汐止區"
