"lineid","car","time","location","longitude","latitude","cityid","cityname"
"248005","653-BX","2017/12/28 07:59:43","新北市五股區明德路12巷8號","121.433415","25.0719233333333","6501500","五股區"
"232001","290-BY","2017/12/28 07:59:47","新北市坪林區坪雙路一段67號","121.71501","24.94341","6502000","坪林區"
"232014","291-BY","2017/12/28 07:59:50","新北市坪林區金瓜寮13-2號","121.681495","24.9152766666667","6502000","坪林區"
"232010","375-UM","2017/12/28 07:59:51","新北市坪林區磨壁潭1號","121.71832","24.9409966666667","6502000","坪林區"
"232018","705-BZ","2017/12/28 07:56:53","新北市坪林區坪雙路一段25號","121.711538333333","24.9423733333333","6502000","坪林區"
"232007","758-BX","2017/12/28 07:59:38","新北市坪林區九芎林32號","121.702616666667","24.9214916666667","6502000","坪林區"
"244003","248-BX","2017/12/28 07:59:37","新北市林口區頂福28號","121.351906666667","25.0964166666667","6501700","林口區"
"244024","402-UM","2017/12/28 07:59:53","新北市林口區粉寮路二段160巷28號","121.405213333333","25.0907916666667","6501700","林口區"
"244022","483-VK","2017/12/28 07:59:40","新北市林口區粉寮路二段221號","121.404153333333","25.090575","6501700","林口區"
"244016","485-VK","2017/12/28 07:59:44","新北市林口區粉寮路二段157號","121.40419","25.0879816666667","6501700","林口區"
"244010","656-BX","2017/12/28 07:59:40","新北市林口區粉寮路二段160巷28號","121.405135","25.0907316666667","6501700","林口區"
"244008","837-TS","2017/12/28 07:59:52","新北市林口區粉寮路二段46-1號","121.403548333333","25.0870116666667","6501700","林口區"
"244020","838-TS","2017/12/28 07:59:33","新北市林口區粉寮69號","121.404913333333","25.09082","6501700","林口區"
"222006","289-BY","2017/12/28 07:59:55","新北市深坑區文化街45號","121.616936666667","25.00177","6501800","深坑區"
"231069","189-VK","2017/12/28 07:59:33","新北市新店區安華路28-1號","121.519585","24.9611483333333","6500600","新店區"
"231008","192-VK","2017/12/28 07:59:42","新北市新店區安華路28-1號","121.51949","24.9612383333333","6500600","新店區"
"235044","293-VK","2017/12/28 07:59:34","新北市中和區和平街29-1號","121.507581666667","24.990925","6500300","中和區"
"226005","5620-A6","2017/12/28 07:59:35","新北市平溪區嶺腳里嶺腳寮74-1號","121.747678333333","25.0324933333333","6502400","平溪區"
"226002","7418-A5","2017/12/28 07:59:35","新北市平溪區十分里姜仔坑14號","121.770733333333","25.03936","6502400","平溪區"
"226003","AGD-0702","2017/12/28 07:59:46","新北市平溪區嶺腳里嶺腳寮74號","121.747651666667","25.03235","6502400","平溪區"
"223006","022-BY","2017/12/28 07:59:40","新北市石碇區八分寮31-3號","121.643478333333","25.0120883333333","6501900","石碇區"
"223002","198-BX","2017/12/28 07:59:43","新北市石碇區北宜路五段70號","121.639316666667","24.952115","6501900","石碇區"
"223008","406-TH","2017/12/28 07:59:49","新北市石碇區靜安路一段337號","121.698905","25.014555","6501900","石碇區"
"223001","437-BY","2017/12/28 07:59:28","新北市石碇區月扇湖1號","121.657533333333","24.9548716666667","6501900","石碇區"
"223004","660-BX","2017/12/28 07:59:51","新北市深坑區文山路一段1號","121.646803333333","25.0082816666667","6501900","石碇區"
"223005","677-TV","2017/12/28 07:59:49","新北市深坑區文山路一段10號","121.643181666667","25.00868","6501900","石碇區"
"227007","282-VK","2017/12/28 07:59:50","新北市雙溪區平林里梅竹蹊16號","121.862001666667","25.0359316666667","6502500","雙溪區"
"252004","249-BX","2017/12/28 07:59:47","新北市三芝區店子里菜公坑81-3號","121.511801666667","25.2019766666667","6502100","三芝區"
"252007","AAC-283","2017/12/28 07:59:37","新北市三芝區海景三街14號","121.47027","25.2482216666667","6502100","三芝區"
"237001","159-UY","2017/12/28 07:59:46","新北市三峽區三樹路110號","121.378258333333","24.9391416666667","6500900","三峽區"
"236009","165-UM","2017/12/28 07:59:43","新北市土城區清水路194巷6號","121.460508333333","24.9815183333333","6501300","土城區"
"236003","339-SR","2017/12/28 07:58:41","新北市土城區龍泉路87號","121.446006666667","24.94404","6501300","土城區"
"242030","AAC-296","2017/12/28 07:59:51","新北市新莊區新泰路401巷29-1號","121.44249","25.0438416666667","6500500","新莊區"
"242028","986-R7","2017/12/28 07:59:32","新北市新莊區思源路331號","121.45969","25.0495383333333","6500500","新莊區"
"242049","751-BX","2017/12/28 07:59:37","新北市新莊區新樹路453號","121.432711666667","25.013375","6500500","新莊區"
"242024","615-BX","2017/12/28 07:59:39","新北市新莊區中港路266號","121.453301666667","25.043905","6500500","新莊區"
"242022","613-BX","2017/12/28 07:59:54","新北市新莊區公園路150號","121.453133333333","25.0400916666667","6500500","新莊區"
"242026","612-BX","2017/12/28 07:59:44","新北市新莊區思源路38號","121.460188333333","25.0420233333333","6500500","新莊區"
"242038","566-BX","2017/12/28 07:59:48","新北市新莊區民安西路37號","121.427615","25.020985","6500500","新莊區"
"242043","442-UM","2017/12/28 07:59:53","新北市新莊區富國路28號","121.418738333333","25.0262583333333","6500500","新莊區"
"242047","441-UM","2017/12/28 07:59:53","新北市新莊區四維路212巷11號","121.42102","25.020225","6500500","新莊區"
"242052","440-UM","2017/12/28 07:59:52","新北市新莊區瓊林南路305巷1號","121.434688333333","25.005645","6500500","新莊區"
"242033","415-TV","2017/12/28 07:59:50","新北市新莊區新莊路372號","121.449315","25.0334916666667","6500500","新莊區"
"242003","413-TV","2017/12/28 07:59:50","新北市新莊區中港路288巷20號","121.453655","25.0445666666667","6500500","新莊區"
"242040","400-BY","2017/12/28 07:59:53","新北市新莊區中正路514巷59號","121.431951666667","25.0337566666667","6500500","新莊區"
"242059","362-BY","2017/12/28 07:59:47","新北市新莊區瓊林南路42巷1-1號","121.436003333333","25.017915","6500500","新莊區"
"242057","353-BY","2017/12/28 07:59:48","新北市新莊區中正路426號","121.440766666667","25.0337333333333","6500500","新莊區"
"242006","132-UY","2017/12/28 07:59:36","新北市新莊區福樂街130號","121.456708333333","25.047955","6500500","新莊區"
"242035","133-UY","2017/12/28 07:59:45","新北市新莊區建國一路173號","121.43504","25.0242566666667","6500500","新莊區"
"242020","135-UY","2017/12/28 07:59:47","新北市新莊區中華路一段18號","121.452133333333","25.037155","6500500","新莊區"
"242045","172-VK","2017/12/28 07:59:46","新北市新莊區新樹路65-5號","121.439388333333","25.0307966666667","6500500","新莊區"
"242008","173-VK","2017/12/28 07:59:47","新北市新莊區中原路193號","121.451913333333","25.0543433333333","6500500","新莊區"
"242014","175-VK","2017/12/28 07:59:37","新北市新莊區新泰路252號","121.44628","25.0396866666667","6500500","新莊區"
"242001","176-VK","2017/12/28 07:59:50","新北市新莊區利濟街18號","121.452845","25.0333583333333","6500500","新莊區"
"242012","346-TH","2017/12/28 07:59:54","新北市新莊區中誠街16巷2號","121.452046666667","25.0483133333333","6500500","新莊區"
"242018","348-TH","2017/12/28 07:59:41","新北市新莊區中港路86號","121.455456666667","25.0392833333333","6500500","新莊區"
"242016","350-TH","2017/12/28 07:59:46","新北市新莊區德豐街4號","121.451643333333","25.0439433333333","6500500","新莊區"
"242010","351-TH","2017/12/28 07:59:36","新北市新莊區中港路491號","121.452081666667","25.0501183333333","6500500","新莊區"
"220057","282-UM","2017/12/28 07:59:48","新北市板橋區南雅東路27號","121.454798333333","25.0060516666667","6500100","板橋區"
"242055","280-VK","2017/12/28 07:59:56","新北市新莊區新泰路33號","121.449628333333","25.0330333333333","6500500","新莊區"
