"lineid","car","time","location","longitude","latitude","cityid","cityname"
"248005","653-BX","2017/12/28 09:39:43","新北市五股區成泰路一段7巷13號","121.432653333333","25.0669133333333","6501500","五股區"
"244012","069-UM","2017/12/28 09:39:47","新北市林口區麗園一街4巷1號","121.376506666667","25.0713166666667","6501700","林口區"
"244003","248-BX","2017/12/28 09:39:58","新北市林口區東林街45號","121.394251666667","25.07985","6501700","林口區"
"244018","403-UM","2017/12/28 09:39:40","新北市林口區忠孝路614號","121.377175","25.068345","6501700","林口區"
"244022","483-VK","2017/12/28 09:39:40","新北市林口區文化三路二段238號","121.376243333333","25.0827466666667","6501700","林口區"
"244008","837-TS","2017/12/28 09:39:52","新北市林口區台電新村3號","121.388153333333","25.0864416666667","6501700","林口區"
"222006","289-BY","2017/12/28 09:39:55","新北市深坑區昇高坑路51-1號","121.62968","24.9949716666667","6501800","深坑區"
"231069","189-VK","2017/12/28 09:39:53","新北市新店區新潭路三段215巷25號","121.508151666667","24.90407","6500600","新店區"
"231008","192-VK","2017/12/28 09:39:50","新北市新店區平廣路一段170巷1號","121.519221666667","24.8894666666667","6500600","新店區"
"223008","406-TH","2017/12/28 09:38:09","新北市石碇區西勢坑5-3號","121.68988","24.9888266666667","6501900","石碇區"
"223001","437-BY","2017/12/28 09:39:48","新北市石碇區北宜路五段14號","121.63099","24.955895","6501900","石碇區"
"223005","677-TV","2017/12/28 09:32:31","新北市石碇區小粗坑(潭邊里)1-6號","121.672258333333","24.982755","6501900","石碇區"
"252004","249-BX","2017/12/28 09:38:27","新北市三芝區圓山里石曹子坑44號","121.519003333333","25.215855","6502100","三芝區"
"252007","AAC-283","2017/12/28 09:39:37","新北市三芝區光明街17號","121.520978333333","25.2630516666667","6502100","三芝區"
"236009","165-UM","2017/12/28 09:39:48","新北市土城區中央路四段321巷34弄5號","121.412906666667","24.9502216666667","6501300","土城區"
"236003","339-SR","2017/12/28 09:39:48","新北市土城區中央路一段260號","121.44424","24.9842083333333","6501300","土城區"
"236005","498-BY","2017/12/28 09:39:42","新北市土城區忠承路22號","121.44099","24.9673916666667","6501300","土城區"
"242030","AAC-296","2017/12/28 09:39:54","新北市新莊區三和路46號","121.437988333333","25.038135","6500500","新莊區"
"242022","613-BX","2017/12/28 09:39:54","新北市新莊區中正路461號","121.44225","25.0340066666667","6500500","新莊區"
"242038","566-BX","2017/12/28 09:39:47","新北市新莊區瓊林路59-38號","121.44124","25.0235633333333","6500500","新莊區"
"242043","442-UM","2017/12/28 09:39:51","新北市樹林區俊興街283號","121.418751666667","25.0186083333333","6500500","新莊區"
"242047","441-UM","2017/12/28 09:39:53","新北市新莊區新樹路162號","121.43507","25.022715","6500500","新莊區"
"242003","413-TV","2017/12/28 09:39:50","新北市新莊區化成路746巷3弄1號","121.466013333333","25.0577933333333","6500500","新莊區"
"242059","362-BY","2017/12/28 09:39:47","新北市新莊區新樹路357號","121.432841666667","25.0184066666667","6500500","新莊區"
"242057","353-BY","2017/12/28 09:39:42","新北市新莊區四維路129號","121.422891666667","25.0227383333333","6500500","新莊區"
"242035","133-UY","2017/12/28 09:39:53","新北市新莊區中正路481號","121.441346666667","25.0338","6500500","新莊區"
"242001","176-VK","2017/12/28 09:39:50","新北市新莊區瓊泰路85號","121.443091666667","25.0294883333333","6500500","新莊區"
"242055","280-VK","2017/12/28 09:39:36","新北市新莊區瓊泰路94巷59號","121.444851666667","25.02946","6500500","新莊區"
