"lineid","car","time","location","longitude","latitude","cityid","cityname"
"234044","148-BY","2017/12/28 12:39:47","新北市永和區永元路94號","121.522531666667","25.00165","6500400","永和區"
"234012","149-BY","2017/12/28 12:39:42","新北市永和區環河東路二段92號","121.524466666667","25.01064","6500400","永和區"
"234005","207-UY","2017/12/28 12:39:46","新北市永和區福和路1號","121.525575","25.0094816666667","6500400","永和區"
"234078","298-R6","2017/12/28 12:39:47","新北市永和區林森路81號","121.523953333333","25.0038466666667","6500400","永和區"
"234036","336-UY","2017/12/28 12:39:45","新北市永和區福和路1號","121.52665","25.0101683333333","6500400","永和區"
"234062","337-UY","2017/12/28 12:39:45","新北市永和區福和路1號","121.526451666667","25.00991","6500400","永和區"
"234084","338-UY","2017/12/28 12:39:35","新北市永和區安樂路240號","121.514766666667","25.0026666666667","6500400","永和區"
"234015","745-BX","2017/12/28 12:39:49","新北市永和區福和路1號","121.526196666667","25.009695","6500400","永和區"
"234028","746-BX","2017/12/28 12:39:49","新北市永和區成功路一段87號","121.526875","25.0029866666667","6500400","永和區"
"234060","AAD-866","2017/12/28 12:39:40","新北市永和區豫溪街217巷29號","121.524565","25.0104633333333","6500400","永和區"
"234068","847-RS","2017/12/28 12:39:42","新北市永和區福和路1號","121.525461666667","25.0095766666667","6500400","永和區"
"234040","862-TW","2017/12/28 12:39:40","新北市永和區永和路一段39號","121.512961666667","25.006165","6500400","永和區"
"234048","863-TW","2017/12/28 12:39:39","新北市永和區環河西路一段95巷4弄1號","121.51169","25.0176333333333","6500400","永和區"
"234025","9371-KE","2017/12/28 12:39:55","新北市永和區福和路1號","121.52565","25.009445","6500400","永和區"
"234010","9373-KE","2017/12/28 12:39:45","新北市永和區環河東路一段164號","121.521553333333","25.01446","6500400","永和區"
"248015","026-BX","2017/12/28 12:39:35","新北市五股區中興路二段83巷26-6號","121.46","25.075085","6501500","五股區"
"234022","9380-KE","2017/12/28 12:39:36","新北市永和區福和路1號","121.525606666667","25.0093883333333","6500400","永和區"
"234076","969-R7","2017/12/28 12:39:40","新北市中和區安樂路101-3號","121.513468333333","24.9952066666667","6500400","永和區"
"234066","AAC-212","2017/12/28 12:39:52","新北市永和區永貞路123號","121.516975","25.004315","6500400","永和區"
"234001","AAC-295","2017/12/28 12:39:38","新北市永和區福和路1號","121.526535","25.0100516666667","6500400","永和區"
"244025","402-UM","2017/12/28 10:48:47","新北市林口區粉寮路二段160巷28號","121.405145","25.090725","6501700","林口區"
"243004","AAD-798","2017/12/28 12:26:14","新北市泰山區黎明路25號","121.422015","25.0607466666667","6501600","泰山區"
"243007","380-SR","2017/12/28 03:21:53","新北市泰山區犁頭窠3-1號","121.422221666667","25.0605483333333","6501600","泰山區"
"231025","0293-UT","2017/12/28 12:39:57","新北市新店區安華路28-1號","121.51969","24.9605666666667","6500600","新店區"
"231028","046-UY","2017/12/28 12:39:48","新北市新店區安華路28-1號","121.519528333333","24.96081","6500600","新店區"
"231023","AAD-862","2017/12/28 12:39:44","新北市新店區安華路28-1號","121.519811666667","24.961055","6500600","新店區"
"231013","719-UM","2017/12/28 12:39:48","新北市新店區安華路28-1號","121.519543333333","24.9612883333333","6500600","新店區"
"235031","255-BX","2017/12/28 12:39:49","新北市中和區新生街42號","121.483203333333","25.0034016666667","6500300","中和區"
"235025","378-QA","2017/12/28 12:19:51","新北市中和區員山路36巷16-4號","121.485323333333","24.9918833333333","6500300","中和區"
"228005","097-TW","2017/12/28 12:39:43","新北市貢寮區福連里馬崗街38號","122.002993333333","25.0068483333333","6502600","貢寮區"
"228004","212-TW","2017/12/28 12:39:36","新北市貢寮區吉林里枋腳街6-2號","121.88766","25.00592","6502600","貢寮區"
"207002","749-BX","2017/12/28 12:39:48","新北市萬里區雙興里太和路7-2號","121.658606666667","25.1740966666667","6502800","萬里區"
"237001","159-UY","2017/12/28 12:39:54","新北市三峽區中山路459巷163-1號","121.349345","24.933475","6500900","三峽區"
"221012","276-VK","2017/12/28 12:39:41","新北市汐止區中正路188號","121.658943333333","25.06906","6501100","汐止區"
