"lineid","car","time","location","longitude","latitude","cityid","cityname"
"234044","148-BY","2017/12/28 12:49:43","新北市永和區秀朗路二段126巷30號","121.524666666667","25.0008366666667","6500400","永和區"
"234012","149-BY","2017/12/28 12:49:22","新北市永和區保福路二段109巷37號","121.509351666667","25.0130183333333","6500400","永和區"
"234005","207-UY","2017/12/28 12:49:46","新北市永和區文化路9巷2號","121.515298333333","25.0150366666667","6500400","永和區"
"234078","298-R6","2017/12/28 12:49:47","新北市永和區永利路83-1號","121.52134","25.0035166666667","6500400","永和區"
"234036","336-UY","2017/12/28 12:49:45","新北市永和區成功路一段66號","121.52694","25.003685","6500400","永和區"
"234062","337-UY","2017/12/28 12:49:45","新北市永和區福和路1號","121.525863333333","25.0095566666667","6500400","永和區"
"234084","338-UY","2017/12/28 12:49:55","新北市永和區中正路59號","121.514686666667","24.9963383333333","6500400","永和區"
"234015","745-BX","2017/12/28 12:49:49","新北市永和區永和路二段299號","121.516013333333","25.0160933333333","6500400","永和區"
"234028","746-BX","2017/12/28 12:49:49","新北市永和區得和路339號","121.52378","24.9995816666667","6500400","永和區"
"234060","AAD-866","2017/12/28 12:49:40","新北市永和區福和路307號","121.51628","25.0070933333333","6500400","永和區"
"234068","847-RS","2017/12/28 12:49:42","新北市永和區豫溪街189巷2號","121.522973333333","25.0103416666667","6500400","永和區"
"234040","862-TW","2017/12/28 12:49:40","新北市永和區永貞路304號","121.511913333333","25.0047833333333","6500400","永和區"
"234048","863-TW","2017/12/28 12:49:39","新北市永和區保安路2號","121.510848333333","25.0174783333333","6500400","永和區"
"234025","9371-KE","2017/12/28 12:49:34","新北市永和區永和路一段151巷2號","121.514013333333","25.0094333333333","6500400","永和區"
"234010","9373-KE","2017/12/28 12:49:45","新北市永和區保福路二段156號","121.509148333333","25.0150116666667","6500400","永和區"
"248015","026-BX","2017/12/28 12:43:13","新北市五股區中興路二段83巷26-6號","121.459951666667","25.0751733333333","6501500","五股區"
"248005","077-UY","2017/12/28 12:49:45","新北市五股區中興路二段83巷26-6號","121.460045","25.0749916666667","6501500","五股區"
"248017","225-UY","2017/12/28 12:49:50","新北市五股區中興路二段83巷26-6號","121.460095","25.0751883333333","6501500","五股區"
"248011","247-BX","2017/12/28 12:49:34","新北市五股區中興路二段37巷28號","121.46016","25.0750733333333","6501500","五股區"
"234022","9380-KE","2017/12/28 12:49:36","新北市永和區竹林路119巷45號","121.521936666667","25.0117783333333","6500400","永和區"
"234076","969-R7","2017/12/28 12:49:50","新北市永和區中正路46-1號","121.512965","24.9944083333333","6500400","永和區"
"234072","AAC-211","2017/12/28 12:49:45","新北市永和區福和路1號","121.52617","25.0095433333333","6500400","永和區"
"234066","AAC-212","2017/12/28 12:49:52","新北市永和區中和路625號","121.512883333333","25.0048133333333","6500400","永和區"
"234001","AAC-295","2017/12/28 12:49:38","新北市永和區中正路655號","121.515041666667","25.0102466666667","6500400","永和區"
"244025","402-UM","2017/12/28 10:48:47","新北市林口區粉寮路二段160巷28號","121.405145","25.090725","6501700","林口區"
"243004","AAD-798","2017/12/28 12:26:14","新北市泰山區黎明路25號","121.422015","25.0607466666667","6501600","泰山區"
"243003","297-R6","2017/12/28 12:39:16","新北市泰山區犁頭窠3-1號","121.421938333333","25.060055","6501600","泰山區"
"243007","380-SR","2017/12/28 03:21:53","新北市泰山區犁頭窠3-1號","121.422221666667","25.0605483333333","6501600","泰山區"
"231025","0293-UT","2017/12/28 12:49:37","新北市新店區安華路1-1號","121.519598333333","24.9604816666667","6500600","新店區"
"231028","046-UY","2017/12/28 12:49:48","新北市新店區安華路28-1號","121.519571666667","24.9607666666667","6500600","新店區"
"231030","047-UY","2017/12/28 12:49:36","新北市新店區安華路28-1號","121.519138333333","24.961035","6500600","新店區"
"231029","106-UY","2017/12/28 12:49:47","新北市新店區安華路28-1號","121.519728333333","24.9607616666667","6500600","新店區"
"231018","107-UY","2017/12/28 12:49:53","新北市新店區安華路28-1號","121.519441666667","24.9612216666667","6500600","新店區"
"231011","108-UY","2017/12/28 12:49:39","新北市新店區安華路28-1號","121.51927","24.9608266666667","6500600","新店區"
"231021","187-VK","2017/12/28 12:49:44","新北市新店區安華路28-1號","121.519511666667","24.9611483333333","6500600","新店區"
"231010","278-BY","2017/12/28 12:48:04","新北市新店區安華路28-1號","121.519811666667","24.9610983333333","6500600","新店區"
"231023","AAD-862","2017/12/28 12:49:44","新北市新店區安華路28-1號","121.5198","24.9611766666667","6500600","新店區"
"231025","3713-VJ","2017/12/28 12:49:43","新北市新店區安華路28-1號","121.519046666667","24.960735","6500600","新店區"
"231024","4716-K9","2017/12/28 12:49:54","新北市新店區安華路28-1號","121.519411666667","24.961175","6500600","新店區"
"231038","4715-K9","2017/12/28 12:49:38","新北市新店區安華路1-1號","121.519391666667","24.9604","6500600","新店區"
"231036","512-UM","2017/12/28 12:49:43","新北市新店區安華路28-1號","121.519276666667","24.9609","6500600","新店區"
"231035","515-UM","2017/12/28 12:49:48","新北市新店區安華路28-1號","121.51953","24.961135","6500600","新店區"
"231001","619-UM","2017/12/28 12:49:35","新北市新店區安華路28-1號","121.519516666667","24.9608733333333","6500600","新店區"
"231034","645-TV","2017/12/28 12:49:43","新北市新店區安華路28-1號","121.519341666667","24.96068","6500600","新店區"
"231013","719-UM","2017/12/28 12:49:48","新北市新店區安華路28-1號","121.519416666667","24.9612216666667","6500600","新店區"
"231031","720-UM","2017/12/28 12:49:43","新北市新店區安華路28-1號","121.519318333333","24.9613233333333","6500600","新店區"
"231004","899-TW","2017/12/28 12:49:55","新北市新店區安華路28-1號","121.519358333333","24.9608916666667","6500600","新店區"
"235027","006-UY","2017/12/28 12:49:47","新北市中和區員山路36巷16-3號","121.485038333333","24.9912816666667","6500300","中和區"
"235002","185-VK","2017/12/28 12:49:50","新北市中和區錦和路216號","121.490133333333","24.9938533333333","6500300","中和區"
"235031","255-BX","2017/12/28 12:49:49","新北市中和區中正路1155號","121.481841666667","25.008165","6500300","中和區"
"235025","378-QA","2017/12/28 12:19:51","新北市中和區員山路36巷16-4號","121.485323333333","24.9918833333333","6500300","中和區"
"228005","097-TW","2017/12/28 12:49:43","新北市貢寮區福連里福連街34-1號","121.988693333333","25.0111066666667","6502600","貢寮區"
"228004","212-TW","2017/12/28 12:49:56","新北市貢寮區吉林里內寮街20-1號","121.889835","24.994795","6502600","貢寮區"
"207002","749-BX","2017/12/28 12:49:28","新北市萬里區雙興里二坪路28-1號","121.644496666667","25.1687633333333","6502800","萬里區"
"207001","662-BX","2017/12/28 12:49:48","新北市萬里區萬里里瑪鋉路112號","121.690805","25.1788316666667","6502800","萬里區"
"237001","159-UY","2017/12/28 12:49:54","新北市三峽區中山路459巷163-1號","121.34934","24.933465","6500900","三峽區"
"236005","498-BY","2017/12/28 12:49:44","新北市土城區永寧路11號","121.430465","24.964095","6501300","土城區"
"221012","276-VK","2017/12/28 12:49:41","新北市汐止區民生街12號","121.660108333333","25.0691016666667","6501100","汐止區"
"221032","280-BY","2017/12/28 12:49:38","新北市汐止區汐萬路一段312號","121.650371666667","25.075005","6501100","汐止區"
"221021","299-VK","2017/12/28 12:49:55","新北市汐止區樟樹二路345號","121.64192","25.073045","6501100","汐止區"
