"lineid","car","time","location","longitude","latitude","cityid","cityname"
"234044","148-BY","2017/12/28 13:29:43","新北市永和區秀朗路二段230號","121.52627","24.9995016666667","6500400","永和區"
"234012","149-BY","2017/12/28 13:29:42","新北市永和區中山路一段184巷9弄17號","121.50839","25.0091833333333","6500400","永和區"
"234005","207-UY","2017/12/28 13:29:46","新北市永和區中山路一段232號","121.507873333333","25.0080966666667","6500400","永和區"
"234078","298-R6","2017/12/28 13:29:47","新北市永和區林森路10巷18弄2號","121.525851666667","25.0063816666667","6500400","永和區"
"234036","336-UY","2017/12/28 13:29:47","新北市永和區民樂街30巷1號","121.527543333333","25.0011733333333","6500400","永和區"
"234062","337-UY","2017/12/28 13:29:45","新北市永和區中正路368巷1弄88號","121.520473333333","25.0007783333333","6500400","永和區"
"234084","338-UY","2017/12/28 13:29:55","新北市永和區林森路62號","121.523973333333","25.0041866666667","6500400","永和區"
"234052","553-UM","2017/12/28 13:29:38","新北市永和區復興街21號","121.516123333333","25.0130933333333","6500400","永和區"
"234015","745-BX","2017/12/28 13:29:50","新北市永和區環河西路一段51巷1號","121.514155","25.0181983333333","6500400","永和區"
"234028","746-BX","2017/12/28 13:29:48","新北市永和區民生路69號","121.522618333333","24.9971883333333","6500400","永和區"
"234060","AAD-866","2017/12/28 13:29:40","新北市永和區中正路566號","121.517091666667","25.0061183333333","6500400","永和區"
"234068","847-RS","2017/12/28 13:29:42","新北市永和區警光街12號","121.519778333333","25.0095866666667","6500400","永和區"
"234040","862-TW","2017/12/28 13:29:40","新北市永和區中和路519巷7號","121.510675","25.0029716666667","6500400","永和區"
"234048","863-TW","2017/12/28 13:29:39","新北市永和區信義路81號","121.512425","25.0134533333333","6500400","永和區"
"234025","9371-KE","2017/12/28 13:29:54","新北市永和區永和路二段5號","121.514408333333","25.0101683333333","6500400","永和區"
"234010","9373-KE","2017/12/28 13:29:49","新北市永和區仁愛路141巷3弄4號","121.511783333333","25.0124066666667","6500400","永和區"
"248015","026-BX","2017/12/28 13:29:49","新北市五股區凌雲路一段83巷34號","121.449303333333","25.101035","6501500","五股區"
"248005","077-UY","2017/12/28 13:29:45","新北市五股區四維路77號","121.467258333333","25.072215","6501500","五股區"
"248007","095-VK","2017/12/28 13:29:41","新北市五股區四維路185巷46號","121.463365","25.0776433333333","6501500","五股區"
"248017","225-UY","2017/12/28 13:29:49","新北市五股區御史路263號","121.421675","25.1060716666667","6501500","五股區"
"248011","247-BX","2017/12/28 13:29:54","新北市五股區御史路45巷1號","121.442253333333","25.0930733333333","6501500","五股區"
"248013","261-SL","2017/12/28 13:29:51","新北市五股區蓬萊路24號","121.434163333333","25.0798066666667","6501500","五股區"
"248009","272-BY","2017/12/28 13:29:37","新北市五股區水碓路1-1號","121.433881666667","25.0720316666667","6501500","五股區"
"248003","677-BX","2017/12/28 13:29:35","新北市五股區工商路150號","121.433213333333","25.0874116666667","6501500","五股區"
"248001","678-BX","2017/12/28 13:29:33","新北市五股區西雲路167號","121.446645","25.0947566666667","6501500","五股區"
"234022","9380-KE","2017/12/28 13:29:36","新北市永和區竹林路91巷45號","121.521315","25.01288","6500400","永和區"
"234076","969-R7","2017/12/28 13:29:40","新北市永和區智光街53號","121.517176666667","24.9980083333333","6500400","永和區"
"234072","AAC-211","2017/12/28 13:29:45","新北市永和區永和路二段105號","121.514956666667","25.0117983333333","6500400","永和區"
"234066","AAC-212","2017/12/28 13:29:52","新北市永和區保平路178號","121.51078","25.0066283333333","6500400","永和區"
"234001","AAC-295","2017/12/28 13:29:38","新北市永和區永和路一段107號","121.513878333333","25.00789","6500400","永和區"
"244003","248-BX","2017/12/28 13:29:47","新北市林口區嘉寶里13鄰51號","121.3414","25.1157616666667","6501700","林口區"
"244025","402-UM","2017/12/28 10:48:47","新北市林口區粉寮路二段160巷28號","121.405145","25.090725","6501700","林口區"
"243004","AAD-798","2017/12/28 12:26:14","新北市泰山區黎明路25號","121.422015","25.0607466666667","6501600","泰山區"
"243003","297-R6","2017/12/28 12:39:16","新北市泰山區犁頭窠3-1號","121.421938333333","25.060055","6501600","泰山區"
"243007","380-SR","2017/12/28 03:21:53","新北市泰山區犁頭窠3-1號","121.422221666667","25.0605483333333","6501600","泰山區"
"243005","646-TV","2017/12/28 13:29:33","新北市泰山區明志路三段206巷3號","121.423276666667","25.037915","6501600","泰山區"
"231037","0293-UT","2017/12/28 13:29:37","新北市新店區薏仁坑路53-1號","121.49202","24.963755","6500600","新店區"
"231028","046-UY","2017/12/28 13:29:48","新北市新店區安康路一段266巷4號","121.519785","24.96404","6500600","新店區"
"231030","047-UY","2017/12/28 13:29:56","新北市新店區安康路一段351-1號","121.519446666667","24.9639316666667","6500600","新店區"
"231029","106-UY","2017/12/28 13:29:47","新北市新店區車子路18-1號","121.505818333333","24.9546233333333","6500600","新店區"
"231018","107-UY","2017/12/28 13:29:53","新北市新店區中央路175-3號","121.534911666667","24.9695466666667","6500600","新店區"
"231011","108-UY","2017/12/28 13:29:47","新北市新店區德正街22號","121.543855","24.972205","6500600","新店區"
"231021","187-VK","2017/12/28 13:29:44","新北市新店區永興路88-1號","121.543965","24.9337066666667","6500600","新店區"
"231017","KEA-2219","2017/12/28 13:29:51","新北市新店區北宜路一段192巷4-1號","121.541925","24.95287","6500600","新店區"
"231026","256-BX","2017/12/28 13:29:55","新北市新店區安康路一段3-1號","121.535181666667","24.9608966666667","6500600","新店區"
"231010","278-BY","2017/12/28 13:29:45","新北市新店區自由街14號","121.535241666667","24.9748633333333","6500600","新店區"
"231023","AAD-862","2017/12/28 13:29:43","新北市新店區新店路13號","121.540345","24.95291","6500600","新店區"
"231002","355-BY","2017/12/28 13:29:50","新北市新店區環河路64號","121.536953333333","24.9626983333333","6500600","新店區"
"231027","3712-VJ","2017/12/28 13:29:43","新北市新店區新店後街76號","121.537561666667","24.95454","6500600","新店區"
"231025","3713-VJ","2017/12/28 13:29:43","新北市新店區中央七街61巷10號","121.528625","24.9763866666667","6500600","新店區"
"231024","4716-K9","2017/12/28 13:29:54","新北市新店區北新路二段29巷3弄1號","121.542228333333","24.9729866666667","6500600","新店區"
"231038","4715-K9","2017/12/28 13:29:38","新北市新店區安華路1-1號","121.519498333333","24.9603583333333","6500600","新店區"
"231036","512-UM","2017/12/28 13:26:59","新北市新店區安康路二段362號","121.501781666667","24.9573833333333","6500600","新店區"
"231035","515-UM","2017/12/28 13:29:48","新北市新店區安忠路8-1號","121.514743333333","24.9631333333333","6500600","新店區"
"231001","619-UM","2017/12/28 13:29:35","新北市新店區安康路一段17號","121.533108333333","24.9604033333333","6500600","新店區"
"231003","641-BX","2017/12/28 13:29:42","新北市新店區中正路69號","121.543588333333","24.970025","6500600","新店區"
"231034","645-TV","2017/12/28 13:29:43","新北市新店區車子路109號","121.505226666667","24.952105","6500600","新店區"
"231013","719-UM","2017/12/28 13:29:48","新北市新店區中正路454-5號","121.534586666667","24.9789966666667","6500600","新店區"
"231031","720-UM","2017/12/28 13:29:43","新北市新店區僑信路2巷6號","121.499613333333","24.9536533333333","6500600","新店區"
"231005","897-TW","2017/12/28 13:29:48","新北市新店區中興路一段294號","121.546053333333","24.96926","6500600","新店區"
"231006","898-TW","2017/12/28 13:29:37","新北市新店區安康路一段61號","121.530513333333","24.9610166666667","6500600","新店區"
"231004","899-TW","2017/12/28 13:29:55","新北市新店區安康路一段35號","121.531626666667","24.9607716666667","6500600","新店區"
"235030","003-UY","2017/12/28 13:29:43","新北市中和區中山路二段122號","121.5026","25.0036666666667","6500300","中和區"
"235028","005-UY","2017/12/28 13:29:42","新北市中和區圓通路141巷48弄2號","121.498771666667","24.9943783333333","6500300","中和區"
"235027","006-UY","2017/12/28 13:29:47","新北市中和區連城路347巷4弄2號","121.488193333333","24.9956","6500300","中和區"
"235010","031-BX","2017/12/28 13:29:37","新北市中和區錦和路350-1號","121.490098333333","24.99357","6500300","中和區"
"235020","096-UM","2017/12/28 13:29:40","新北市中和區中正路832號","121.484675","25.004155","6500300","中和區"
"235003","097-UM","2017/12/28 13:29:40","新北市中和區景平路105號","121.516841666667","24.9921116666667","6500300","中和區"
"235004","150-BY","2017/12/28 13:11:19","新北市中和區中正路167巷32號","121.498151666667","24.991765","6500300","中和區"
"235022","151-BY","2017/12/28 13:29:50","新北市中和區圓通路369巷72號","121.490131666667","24.9822183333333","6500300","中和區"
"235019","183-VK","2017/12/28 13:29:43","新北市中和區民享街283號","121.471655","24.9961566666667","6500300","中和區"
"235002","185-VK","2017/12/28 13:29:50","新北市中和區秀朗路三段128巷17弄27號","121.523083333333","24.993425","6500300","中和區"
"235013","186-VK","2017/12/28 13:29:39","新北市中和區景安路179號","121.505225","24.9939883333333","6500300","中和區"
"235031","255-BX","2017/12/28 13:29:49","新北市中和區員山路148巷42號","121.482523333333","24.9971066666667","6500300","中和區"
"235036","301-VK","2017/12/28 13:29:44","新北市中和區連城路186號","121.492681666667","24.9968566666667","6500300","中和區"
"235007","352-BY","2017/12/28 13:29:54","新北市中和區景平路315號","121.506281666667","24.9932016666667","6500300","中和區"
"235032","377-QA","2017/12/28 13:29:52","新北市中和區中正路275-1號","121.49541","24.99359","6500300","中和區"
"235025","378-QA","2017/12/28 13:29:43","新北市中和區民享街88巷12號","121.473973333333","25.000545","6500300","中和區"
"235014","4979-A6","2017/12/28 13:29:39","新北市中和區景新街410巷18弄24號","121.511911666667","24.99009","6500300","中和區"
"235033","4980-A6","2017/12/28 13:29:47","新北市中和區連城路89巷36號","121.497381666667","24.9986616666667","6500300","中和區"
"235006","551-UM","2017/12/28 13:29:51","新北市中和區自立路56巷21號","121.522443333333","24.991595","6500300","中和區"
"235034","558-UM","2017/12/28 13:29:39","新北市中和區圓通路98號","121.499686666667","24.9968616666667","6500300","中和區"
"235009","565-BX","2017/12/28 13:29:41","新北市中和區復興路14號","121.505703333333","24.9898383333333","6500300","中和區"
"235018","640-BX","2017/12/28 13:29:50","新北市中和區民享街88巷1號","121.474561666667","25.0005333333333","6500300","中和區"
"235024","647-TV","2017/12/28 13:29:47","新北市中和區員山路287號","121.48121","24.9998383333333","6500300","中和區"
"235011","732-UM","2017/12/28 13:29:52","新北市中和區南山路300號","121.507896666667","24.987085","6500300","中和區"
"235026","800-TS","2017/12/28 13:29:47","新北市中和區中山路二段312巷33弄22號","121.494968333333","25.0043416666667","6500300","中和區"
"235021","801-TS","2017/12/28 13:29:53","新北市中和區民享街97巷17號","121.475345","24.999655","6500300","中和區"
"235005","802-TS","2017/12/28 13:29:55","新北市中和區中和路318號","121.509511666667","25.0005183333333","6500300","中和區"
"235016","805-TS","2017/12/28 13:29:42","新北市中和區興南路二段94號","121.505248333333","24.98423","6500300","中和區"
"235012","896-TW","2017/12/28 13:29:47","新北市中和區錦和路350-1號","121.490328333333","24.99357","6500300","中和區"
"235017","900-TW","2017/12/28 13:29:39","新北市中和區民享街457號","121.470388333333","24.99315","6500300","中和區"
"235029","911-UM","2017/12/28 13:29:49","新北市中和區莊敬路49巷10弄12號","121.501926666667","25.00543","6500300","中和區"
"235015","157-BY","2017/12/28 13:29:52","新北市中和區興南路二段142巷35弄1號","121.502481666667","24.9845716666667","6500300","中和區"
"235001","AAC-213","2017/12/28 13:29:53","新北市中和區景平路125巷8弄1號","121.514988333333","24.9912083333333","6500300","中和區"
"235023","AAC-215","2017/12/28 13:29:39","新北市中和區員山路36巷16-3號","121.485098333333","24.9913716666667","6500300","中和區"
"220013","072-UY","2017/12/28 13:29:37","新北市板橋區華東街1-9號","121.44811","24.9948433333333","6500100","板橋區"
"220086","073-UY","2017/12/28 13:29:39","新北市板橋區南雅南路二段120-12號","121.452145","24.9994466666667","6500100","板橋區"
"247003","336-TH","2017/12/28 13:29:52","新北市五股區中興路三段5號","121.449005","25.079665","6501400","蘆洲區"
"228005","097-TW","2017/12/28 13:29:43","新北市貢寮區美豐里文秀坑8號","121.9026","25.050445","6502600","貢寮區"
"228004","212-TW","2017/12/28 13:29:36","新北市貢寮區龍崗里石壁坑街17號","121.910393333333","24.9894966666667","6502600","貢寮區"
"253003","6232-TK","2017/12/28 13:29:50","新北市石門區內石門85號","121.56869","25.2648516666667","6502200","石門區"
"253001","6251-TK","2017/12/28 13:29:45","新北市石門區下員坑42-3號","121.517531666667","25.27766","6502200","石門區"
"253002","637-UY","2017/12/28 13:29:45","新北市石門區九芎林8號","121.564385","25.265125","6502200","石門區"
"253004","8270-PC","2017/12/28 13:29:38","新北市石門區阿里荖49號","121.609546666667","25.2762983333333","6502200","石門區"
"208004","AAC-292","2017/12/28 13:29:50","新北市金山區南勢湖84號","121.612768333333","25.2125933333333","6502700","金山區"
"207002","749-BX","2017/12/28 13:29:48","新北市萬里區崁腳里崁腳路166號","121.645055","25.1558833333333","6502800","萬里區"
"252005","073-UM","2017/12/28 13:29:53","新北市三芝區圓山里八連溪頭2-3號","121.523851666667","25.223195","6502100","三芝區"
"207001","662-BX","2017/12/28 13:29:47","新北市萬里區龜吼里新墾丁路122號","121.677606666667","25.2004966666667","6502800","萬里區"
"236005","498-BY","2017/12/28 13:29:44","新北市土城區慶祥街96巷6號","121.435616666667","24.973025","6501300","土城區"
"242045","172-VK","2017/12/28 13:29:46","新北市新莊區龍安路429號","121.423933333333","25.0187266666667","6500500","新莊區"
"238021","KEA-2217","2017/12/28 13:29:51","新北市樹林區八德街602號","121.397256666667","24.970255","6500700","樹林區"
"221012","276-VK","2017/12/28 13:29:41","新北市汐止區康寧街901號","121.651103333333","25.0751366666667","6501100","汐止區"
"221032","280-BY","2017/12/28 13:29:38","新北市汐止區新興路22號","121.656358333333","25.0644116666667","6501100","汐止區"
"221021","299-VK","2017/12/28 13:29:54","新北市汐止區中興路81號","121.632681666667","25.064165","6501100","汐止區"
"220027","145-BY","2017/12/28 13:29:44","新北市板橋區板城路421號","121.448145","24.9957166666667","6500100","板橋區"
"220028","200-UY","2017/12/28 13:29:56","新北市板橋區華東街1-10號","121.448345","24.9949183333333","6500100","板橋區"
"220030","610-BX","2017/12/28 13:29:45","新北市板橋區華東街1-10號","121.448285","24.9949183333333","6500100","板橋區"
"220019","283-VK","2017/12/28 13:29:39","新北市板橋區華東街1-9號","121.448083333333","24.994875","6500100","板橋區"
"220001","285-VK","2017/12/28 13:29:49","新北市板橋區民生路二段161巷1號","121.470191666667","25.0199733333333","6500100","板橋區"
"220029","287-VK","2017/12/28 13:29:52","新北市板橋區華東街1-10號","121.448256666667","24.9950116666667","6500100","板橋區"
"220016","293-UM","2017/12/28 13:29:37","新北市板橋區民生路二段120號","121.470411666667","25.0195633333333","6500100","板橋區"
"220032","296-UM","2017/12/28 13:29:38","新北市板橋區華東街1-9號","121.44816","24.9949083333333","6500100","板橋區"
"220012","486-VK","2017/12/28 13:29:57","新北市板橋區華東街1-10號","121.448615","24.9949733333333","6500100","板橋區"
"220104","560-BX","2017/12/28 13:29:51","新北市板橋區林園街7-1號","121.45392","25.0091533333333","6500100","板橋區"
"220011","609-BX","2017/12/28 13:29:48","新北市板橋區民生路二段171號","121.46977","25.0200833333333","6500100","板橋區"
"220025","687-BX","2017/12/28 13:29:43","新北市板橋區大觀路三段191號","121.431931666667","24.9936966666667","6500100","板橋區"
"220054","741-BX","2017/12/28 13:29:50","新北市板橋區華東街1-9號","121.448105","24.9949033333333","6500100","板橋區"
"220014","829-TW","2017/12/28 13:29:47","新北市板橋區民生路二段120號","121.4703","25.0198183333333","6500100","板橋區"
"220022","895-R6","2017/12/28 13:29:54","新北市板橋區華東街1-9號","121.44825","24.99492","6500100","板橋區"
