"lineid","car","time","location","longitude","latitude","cityid","cityname"
"234044","148-BY","2017/12/28 13:39:43","新北市永和區永利路248號","121.524191666667","25.002805","6500400","永和區"
"234012","149-BY","2017/12/28 13:39:42","新北市永和區永平路238巷1弄1號","121.50881","25.0112016666667","6500400","永和區"
"234005","207-UY","2017/12/28 13:39:46","新北市永和區中山路一段58號","121.51298","25.0107133333333","6500400","永和區"
"234078","298-R6","2017/12/28 13:39:48","新北市永和區林森路46巷1號","121.524966666667","25.0047766666667","6500400","永和區"
"234036","336-UY","2017/12/28 13:39:45","新北市永和區民樂街29號","121.527781666667","25.0015466666667","6500400","永和區"
"234062","337-UY","2017/12/28 13:39:45","新北市永和區秀朗路一段192巷6弄10號","121.519166666667","25.0023233333333","6500400","永和區"
"234084","338-UY","2017/12/28 13:39:55","新北市永和區永亨路165巷1-6號","121.525961666667","25.00398","6500400","永和區"
"234052","553-UM","2017/12/28 13:39:50","新北市永和區竹林路39巷20號","121.518768333333","25.01471","6500400","永和區"
"234015","745-BX","2017/12/28 13:39:49","新北市永和區永和路二段425巷27號","121.514603333333","25.017695","6500400","永和區"
"234028","746-BX","2017/12/28 13:39:48","新北市永和區民權路29巷3號","121.520445","24.9978566666667","6500400","永和區"
"234060","AAD-866","2017/12/28 13:39:40","新北市永和區秀朗路一段183號","121.517425","25.0035216666667","6500400","永和區"
"234068","847-RS","2017/12/28 13:39:42","新北市永和區永和路二段190號","121.515443333333","25.0134816666667","6500400","永和區"
"234040","862-TW","2017/12/28 13:39:40","新北市永和區中和路525號","121.511186666667","25.0028466666667","6500400","永和區"
"234048","863-TW","2017/12/28 13:39:48","新北市永和區保安路92號","121.509608333333","25.0160666666667","6500400","永和區"
"234025","9371-KE","2017/12/28 13:39:54","新北市永和區和平街95巷12號","121.51116","25.009425","6500400","永和區"
"234010","9373-KE","2017/12/28 13:39:45","新北市永和區保福路二段23巷19號","121.510136666667","25.0112116666667","6500400","永和區"
"248015","026-BX","2017/12/28 13:39:49","新北市五股區凌雲路一段149巷42號","121.448611666667","25.10091","6501500","五股區"
"248005","077-UY","2017/12/28 13:39:45","新北市五股區中興路一段19號","121.469176666667","25.0722683333333","6501500","五股區"
"248007","095-VK","2017/12/28 13:39:41","新北市五股區中興路一段150巷11號","121.464596666667","25.0743933333333","6501500","五股區"
"248017","225-UY","2017/12/28 13:39:49","新北市五股區民義路二段58號","121.406363333333","25.1078183333333","6501500","五股區"
"248011","247-BX","2017/12/28 13:39:54","新北市五股區成泰路三段2巷1-20號","121.441206666667","25.0866066666667","6501500","五股區"
"248013","261-SL","2017/12/28 13:39:51","新北市五股區民義路一段107巷32號","121.432178333333","25.0849166666667","6501500","五股區"
"248009","272-BY","2017/12/28 13:39:56","新北市五股區水碓一路92號","121.431751666667","25.0736583333333","6501500","五股區"
"248003","677-BX","2017/12/28 13:39:36","新北市五股區民義路一段236-6號","121.42746","25.091255","6501500","五股區"
"248001","678-BX","2017/12/28 13:39:53","新北市五股區西雲路264號","121.449093333333","25.0975166666667","6501500","五股區"
"234022","9380-KE","2017/12/28 13:39:36","新北市永和區中正路702巷18號","121.516463333333","25.0105","6500400","永和區"
"234076","969-R7","2017/12/28 13:39:57","新北市永和區得和路131號","121.519135","25.000215","6500400","永和區"
"234072","AAC-211","2017/12/28 13:39:45","新北市永和區豫溪街160巷17號","121.52334","25.00908","6500400","永和區"
"234066","AAC-212","2017/12/28 13:39:52","新北市永和區中山路一段191巷9弄12號","121.510026666667","25.0081216666667","6500400","永和區"
"234001","AAC-295","2017/12/28 13:39:38","新北市永和區永和路一段116號","121.513738333333","25.0075633333333","6500400","永和區"
"244003","248-BX","2017/12/28 13:39:27","新北市林口區瑞平里60-2號","121.337296666667","25.12395","6501700","林口區"
"244025","402-UM","2017/12/28 10:48:47","新北市林口區粉寮路二段160巷28號","121.405145","25.090725","6501700","林口區"
"243004","AAD-798","2017/12/28 13:39:46","新北市泰山區泰林路二段281號","121.430636666667","25.0627716666667","6501600","泰山區"
"243003","297-R6","2017/12/28 12:39:16","新北市泰山區犁頭窠3-1號","121.421938333333","25.060055","6501600","泰山區"
"243007","380-SR","2017/12/28 03:21:53","新北市泰山區犁頭窠3-1號","121.422221666667","25.0605483333333","6501600","泰山區"
"243001","KEA-2216","2017/12/28 13:39:55","新北市泰山區黎明路31-1號","121.421665","25.060475","6501600","泰山區"
"243005","646-TV","2017/12/28 13:39:53","新北市泰山區明志路三段206巷3號","121.423275","25.037975","6501600","泰山區"
"243008","680-BX","2017/12/28 09:37:39","新北市泰山區黎明路25號","121.421905","25.0606616666667","6501600","泰山區"
"231037","0293-UT","2017/12/28 13:39:37","新北市新店區薏仁坑路5號","121.499166666667","24.9589833333333","6500600","新店區"
"231028","046-UY","2017/12/28 13:39:48","新北市新店區安和路二段138號","121.519548333333","24.972405","6500600","新店區"
"231030","047-UY","2017/12/28 13:39:37","新北市新店區安康路一段75-1號","121.530065","24.9611366666667","6500600","新店區"
"231029","106-UY","2017/12/28 13:39:47","新北市新店區安康路二段250號","121.509135","24.9590833333333","6500600","新店區"
"231018","107-UY","2017/12/28 13:39:53","新北市新店區百忍街17巷2號","121.534326666667","24.9756233333333","6500600","新店區"
"231011","108-UY","2017/12/28 13:39:39","新北市新店區德正街27巷29弄20號","121.54579","24.9722083333333","6500600","新店區"
"231021","187-VK","2017/12/28 13:39:44","新北市新店區永興路132號","121.543961666667","24.9317233333333","6500600","新店區"
"231017","KEA-2219","2017/12/28 13:39:51","新北市新店區竹林路2巷29弄11號","121.550553333333","24.950235","6500600","新店區"
"231026","256-BX","2017/12/28 13:39:35","新北市新店區北新路一段128-3號","121.542331666667","24.9701383333333","6500600","新店區"
"231010","278-BY","2017/12/28 13:39:45","新北市新店區平等街3號","121.537005","24.974235","6500600","新店區"
"231023","AAD-862","2017/12/28 13:39:44","新北市新店區新店路157號","121.536978333333","24.9552083333333","6500600","新店區"
"231002","355-BY","2017/12/28 13:39:50","新北市新店區中央三街127號","121.524078333333","24.9768183333333","6500600","新店區"
"231027","3712-VJ","2017/12/28 13:39:43","新北市新店區北宜路一段105巷10弄3號","121.540523333333","24.9557933333333","6500600","新店區"
"231025","3713-VJ","2017/12/28 13:39:43","新北市新店區中央六街58號","121.527838333333","24.97579","6500600","新店區"
"231024","4716-K9","2017/12/28 13:39:54","新北市新店區華興街22號","121.537556666667","24.9693016666667","6500600","新店區"
"231038","4715-K9","2017/12/28 13:39:38","新北市新店區安華路30巷1號","121.51956","24.9592633333333","6500600","新店區"
"231036","512-UM","2017/12/28 13:39:33","新北市新店區建業路102-1號","121.479253333333","24.95531","6500600","新店區"
"231035","515-UM","2017/12/28 13:39:48","新北市新店區安忠路94-5號","121.511055","24.9571166666667","6500600","新店區"
"231001","619-UM","2017/12/28 13:39:55","新北市新店區中正路366號","121.535148333333","24.9762516666667","6500600","新店區"
"231003","641-BX","2017/12/28 13:39:51","新北市新店區中興路一段290號","121.545893333333","24.9691033333333","6500600","新店區"
"231034","645-TV","2017/12/28 13:39:43","新北市新店區車子路121號","121.505218333333","24.9502816666667","6500600","新店區"
"231013","719-UM","2017/12/28 13:39:48","新北市新店區中正路454-5號","121.534595","24.9789766666667","6500600","新店區"
"231031","720-UM","2017/12/28 13:39:55","新北市新店區莒光路61巷1號","121.523801666667","24.95843","6500600","新店區"
"231005","897-TW","2017/12/28 13:39:48","新北市新店區寶中路72號","121.547878333333","24.9806233333333","6500600","新店區"
"231006","898-TW","2017/12/28 13:39:37","新北市新店區北宜路一段76號","121.538561666667","24.9558683333333","6500600","新店區"
"231004","899-TW","2017/12/28 13:39:55","新北市新店區北新路二段18號","121.542781666667","24.971295","6500600","新店區"
"235030","003-UY","2017/12/28 13:39:43","新北市中和區水源路34巷2號","121.504711666667","25.0035483333333","6500300","中和區"
"235028","005-UY","2017/12/28 13:39:42","新北市中和區連城路110號","121.49631","24.9996583333333","6500300","中和區"
"235027","006-UY","2017/12/28 13:39:47","新北市中和區連城路347巷6弄38號","121.486625","24.995375","6500300","中和區"
"235010","031-BX","2017/12/28 13:39:57","新北市中和區仁愛街104號","121.511555","24.9871183333333","6500300","中和區"
"235020","096-UM","2017/12/28 13:39:40","新北市中和區員山路466巷18號","121.480913333333","25.0065116666667","6500300","中和區"
"235003","097-UM","2017/12/28 13:39:40","新北市中和區大勇街25巷15弄1號","121.515851666667","24.9937066666667","6500300","中和區"
"235004","150-BY","2017/12/28 13:11:19","新北市中和區中正路167巷32號","121.498151666667","24.991765","6500300","中和區"
"235022","151-BY","2017/12/28 13:39:50","新北市中和區員山路59號","121.480858333333","24.993315","6500300","中和區"
"235019","183-VK","2017/12/28 13:39:43","新北市中和區莒光路120巷44號","121.471596666667","25.0011716666667","6500300","中和區"
"235002","185-VK","2017/12/28 13:39:50","新北市中和區大勇街60巷30號","121.519306666667","24.9946566666667","6500300","中和區"
"235013","186-VK","2017/12/28 13:39:39","新北市中和區景平路500巷7號","121.50451","24.9936466666667","6500300","中和區"
"235031","255-BX","2017/12/28 13:39:49","新北市中和區新生街220巷1弄12號","121.483208333333","24.9978833333333","6500300","中和區"
"235008","293-VK","2017/12/28 13:39:50","新北市中和區復興路274巷12號","121.502861666667","24.990805","6500300","中和區"
"235036","301-VK","2017/12/28 13:39:44","新北市中和區連城路139巷64號","121.496566666667","24.9966733333333","6500300","中和區"
"235007","352-BY","2017/12/28 13:39:54","新北市中和區景平路165號","121.512306666667","24.99242","6500300","中和區"
"235032","377-QA","2017/12/28 13:39:52","新北市中和區中正路215號","121.496838333333","24.993625","6500300","中和區"
"235025","378-QA","2017/12/28 13:39:53","新北市中和區民享街30巷3號","121.473791666667","25.0035066666667","6500300","中和區"
"235014","4979-A6","2017/12/28 13:39:39","新北市中和區景新街496巷35弄1號","121.513525","24.9856033333333","6500300","中和區"
"235033","4980-A6","2017/12/28 13:39:47","新北市中和區泰和街38巷37號","121.498408333333","25.0013833333333","6500300","中和區"
"235006","551-UM","2017/12/28 13:39:51","新北市中和區成功路51巷1號","121.526571666667","24.99288","6500300","中和區"
"235034","558-UM","2017/12/28 13:39:39","新北市中和區南華路39號","121.503355","24.9963433333333","6500300","中和區"
"235009","565-BX","2017/12/28 13:39:41","新北市中和區南山路236巷15號","121.505706666667","24.9887633333333","6500300","中和區"
"235018","640-BX","2017/12/28 13:39:50","新北市中和區民享街86巷30弄11號","121.47306","25.00109","6500300","中和區"
"235024","647-TV","2017/12/28 13:39:39","新北市中和區中山路二段557號","121.480856666667","25.0055866666667","6500300","中和區"
"235011","732-UM","2017/12/28 13:39:52","新北市中和區興南路二段3巷1號","121.508158333333","24.9865533333333","6500300","中和區"
"235026","800-TS","2017/12/28 13:39:47","新北市中和區中山路二段296號","121.496023333333","25.002495","6500300","中和區"
"235021","801-TS","2017/12/28 13:39:47","新北市中和區員山路327巷55號","121.479003333333","25.0021233333333","6500300","中和區"
"235005","802-TS","2017/12/28 13:39:55","新北市中和區中安街80巷3號","121.511983333333","25.0020366666667","6500300","中和區"
"235016","805-TS","2017/12/28 13:39:42","新北市中和區興南路三段52巷1號","121.493525","24.9761966666667","6500300","中和區"
"235012","896-TW","2017/12/28 13:39:47","新北市中和區中正路61號","121.501495","24.993455","6500300","中和區"
"235017","900-TW","2017/12/28 13:39:39","新北市土城區延壽路109巷2號","121.4691","24.9934016666667","6500300","中和區"
"235029","911-UM","2017/12/28 13:39:49","新北市中和區中山路二段2巷45弄44號","121.501728333333","25.00626","6500300","中和區"
"235015","157-BY","2017/12/28 13:39:52","新北市中和區華新街143巷106弄28號","121.506061666667","24.9787266666667","6500300","中和區"
"235001","AAC-213","2017/12/28 13:39:53","新北市中和區景德街72號","121.516781666667","24.9915666666667","6500300","中和區"
"235023","AAC-215","2017/12/28 13:39:39","新北市中和區中正路637巷60弄61號","121.48542","24.99327","6500300","中和區"
"220013","072-UY","2017/12/28 13:39:37","新北市板橋區縣民大道二段22號","121.463755","25.013085","6500100","板橋區"
"220034","073-UY","2017/12/28 13:39:48","新北市板橋區南雅西路二段192巷1弄7號","121.452093333333","25.01462","6500100","板橋區"
"220017","AAD-861","2017/12/28 13:39:45","新北市板橋區華東街1-10號","121.44832","24.99504","6500100","板橋區"
"247003","336-TH","2017/12/28 13:39:52","新北市蘆洲區中原路30號","121.460046666667","25.0828133333333","6501400","蘆洲區"
"247005","056-VK","2017/12/28 13:39:51","新北市五股區中興路二段182巷15弄13號","121.456915","25.0817233333333","6501400","蘆洲區"
"247017","001-UY","2017/12/28 13:39:54","新北市蘆洲區民族路422巷82弄10號","121.47406","25.0936833333333","6501400","蘆洲區"
"228005","097-TW","2017/12/28 13:39:43","新北市貢寮區美豐里文秀坑1-3號","121.904698333333","25.0528616666667","6502600","貢寮區"
"228004","212-TW","2017/12/28 13:35:16","新北市貢寮區龍崗里石壁坑街24號","121.911605","24.997925","6502600","貢寮區"
"253003","6232-TK","2017/12/28 13:39:50","新北市石門區尖子鹿5號","121.571903333333","25.2816083333333","6502200","石門區"
"253001","6251-TK","2017/12/28 13:39:45","新北市石門區白沙灣別墅46號","121.50922","25.2782566666667","6502200","石門區"
"253002","637-UY","2017/12/28 13:39:45","新北市石門區內石門78-1號","121.569121666667","25.256655","6502200","石門區"
"253004","8270-PC","2017/12/28 13:39:58","新北市石門區竹子湖1號","121.613048333333","25.26853","6502200","石門區"
"208004","AAC-292","2017/12/28 13:39:50","新北市金山區重和里三重橋4號","121.594718333333","25.1964683333333","6502700","金山區"
"207002","749-BX","2017/12/28 13:39:48","新北市萬里區崁腳里崁腳路166號","121.645066666667","25.1558833333333","6502800","萬里區"
"252005","073-UM","2017/12/28 13:39:53","新北市三芝區圓山里內柑宅25號","121.538243333333","25.2184266666667","6502100","三芝區"
"207001","662-BX","2017/12/28 13:39:48","新北市萬里區大鵬里萬里加投51-1號","121.641965","25.2116516666667","6502800","萬里區"
"236040","107-UM","2017/12/28 13:39:38","新北市土城區城林路6巷80號","121.43839","24.9798333333333","6501300","土城區"
"236076","166-UM","2017/12/28 13:39:54","新北市土城區城林路6巷80號","121.438391666667","24.9797","6501300","土城區"
"236012","270-VK","2017/12/28 13:39:57","新北市土城區城林路6巷80號","121.43866","24.97967","6501300","土城區"
"236005","498-BY","2017/12/28 13:39:44","新北市土城區中華路二段92-1號","121.438001666667","24.9748283333333","6501300","土城區"
"236056","912-UM","2017/12/28 13:39:48","新北市土城區城林路6巷80號","121.438513333333","24.9797416666667","6501300","土城區"
"242045","172-VK","2017/12/28 13:39:46","新北市新莊區龍安路521號","121.42713","25.0176916666667","6500500","新莊區"
"221012","276-VK","2017/12/28 13:38:34","新北市汐止區汐萬路一段256巷3號","121.65341","25.0746066666667","6501100","汐止區"
"221032","280-BY","2017/12/28 13:39:38","新北市汐止區新台五路一段280號","121.659396666667","25.0649566666667","6501100","汐止區"
"221021","299-VK","2017/12/28 13:39:54","新北市汐止區汐萬路一段256巷3號","121.652545","25.074525","6501100","汐止區"
"220027","145-BY","2017/12/28 13:39:44","新北市板橋區國光路41號","121.457638333333","25.0177916666667","6500100","板橋區"
"220028","200-UY","2017/12/28 13:39:36","新北市板橋區大觀路二段265巷7-6號","121.443113333333","24.9947266666667","6500100","板橋區"
"220030","610-BX","2017/12/28 13:39:45","新北市板橋區大觀路三段6號","121.434935","24.9956233333333","6500100","板橋區"
"220004","276-BY","2017/12/28 13:39:51","新北市板橋區四川路二段247號","121.449955","24.993055","6500100","板橋區"
"220020","277-BY","2017/12/28 13:39:49","新北市板橋區大觀路三段59巷17弄6-1號","121.435826666667","24.9955666666667","6500100","板橋區"
"220019","283-VK","2017/12/28 13:39:39","新北市板橋區四川路二段140巷18號","121.44931","24.9933733333333","6500100","板橋區"
"220043","285-UM","2017/12/28 13:39:44","新北市板橋區民生路二段161巷3號","121.470128333333","25.01978","6500100","板橋區"
"220001","285-VK","2017/12/28 13:39:49","新北市板橋區民生路二段161巷1號","121.470265","25.0200016666667","6500100","板橋區"
"220031","286-VK","2017/12/28 13:39:56","新北市板橋區板城路421號","121.448236666667","24.995865","6500100","板橋區"
"220029","287-VK","2017/12/28 13:39:52","新北市板橋區板城路327號","121.449291666667","24.99767","6500100","板橋區"
"220016","293-UM","2017/12/28 13:39:37","新北市板橋區民生路二段120號","121.470413333333","25.019545","6500100","板橋區"
"220009","295-UM","2017/12/28 13:39:52","新北市板橋區民生路二段161巷9號","121.470318333333","25.0196483333333","6500100","板橋區"
"220032","296-UM","2017/12/28 13:39:38","新北市板橋區大觀路二段11-12號","121.448213333333","24.9967083333333","6500100","板橋區"
"220023","297-UM","2017/12/28 13:39:52","新北市板橋區南雅南路二段120-2號","121.45242","24.9998633333333","6500100","板橋區"
"220012","486-VK","2017/12/28 13:39:36","新北市板橋區南雅南路一段129號","121.455345","25.00423","6500100","板橋區"
"220104","560-BX","2017/12/28 13:39:51","新北市板橋區南雅西路二段4號","121.453641666667","25.009065","6500100","板橋區"
"220052","561-BX","2017/12/28 13:39:47","新北市板橋區民生路二段161巷9號","121.47029","25.01965","6500100","板橋區"
"220011","609-BX","2017/12/28 13:39:48","新北市板橋區民生路二段169號","121.469773333333","25.0200333333333","6500100","板橋區"
"220005","686-BX","2017/12/28 13:39:40","新北市板橋區華東街1-9號","121.448193333333","24.9949116666667","6500100","板橋區"
"220025","687-BX","2017/12/28 13:39:47","新北市板橋區沙崙街37號","121.43051","24.9944533333333","6500100","板橋區"
"220054","741-BX","2017/12/28 13:39:50","新北市板橋區華東街1-9號","121.448156666667","24.9948866666667","6500100","板橋區"
"220003","827-TW","2017/12/28 13:39:42","新北市板橋區華東街1-9號","121.448173333333","24.99489","6500100","板橋區"
"220014","829-TW","2017/12/28 13:39:47","新北市板橋區民生路二段120號","121.470308333333","25.01988","6500100","板橋區"
"220022","895-R6","2017/12/28 13:39:54","新北市板橋區南雅南路一段51號","121.455883333333","25.006145","6500100","板橋區"
"220021","985-R7","2017/12/28 13:39:49","新北市板橋區南雅南路二段72號","121.453758333333","25.0018166666667","6500100","板橋區"
"220018","AAC-253","2017/12/28 13:39:47","新北市板橋區華東街1-9號","121.447836666667","24.99547","6500100","板橋區"
