"lineid","car","time","location","longitude","latitude","cityid","cityname"
"234044","148-BY","2017/12/28 13:59:43","新北市永和區成功路一段40號","121.52702","25.00449","6500400","永和區"
"234012","149-BY","2017/12/28 13:59:42","新北市永和區保生路55號","121.504711666667","25.010585","6500400","永和區"
"234005","207-UY","2017/12/28 13:59:46","新北市中和區中和路356號","121.51019","25.001625","6500400","永和區"
"234078","298-R6","2017/12/28 13:59:47","新北市永和區國中路27號","121.524485","25.0053366666667","6500400","永和區"
"234036","336-UY","2017/12/28 13:59:45","新北市永和區成功路二段177-1號","121.526605","24.9968383333333","6500400","永和區"
"234062","337-UY","2017/12/28 13:59:52","新北市永和區中正路412巷20弄20號","121.518813333333","25.0014566666667","6500400","永和區"
"234084","338-UY","2017/12/28 13:59:49","新北市永和區福和路90號","121.522568333333","25.008015","6500400","永和區"
"234052","553-UM","2017/12/28 13:59:38","新北市永和區復興街89號","121.517731666667","25.0140366666667","6500400","永和區"
"234015","745-BX","2017/12/28 13:59:49","新北市永和區文化路121巷1號","121.512513333333","25.0151716666667","6500400","永和區"
"234028","746-BX","2017/12/28 13:59:48","新北市永和區民生路67巷56號","121.525498333333","24.997555","6500400","永和區"
"234060","AAD-866","2017/12/28 13:59:40","新北市永和區中正路151巷14號","121.51558","24.9988233333333","6500400","永和區"
"234068","847-RS","2017/12/28 13:59:42","新北市永和區國光路6號","121.51988","25.00852","6500400","永和區"
"234040","862-TW","2017/12/28 13:59:40","新北市永和區中和路421巷16弄7號","121.508743333333","25.0012166666667","6500400","永和區"
"234048","863-TW","2017/12/28 13:59:39","新北市永和區保安路246號","121.506443333333","25.0127783333333","6500400","永和區"
"234010","9373-KE","2017/12/28 13:59:45","新北市永和區仁愛路302號","121.503458333333","25.007935","6500400","永和區"
"248015","026-BX","2017/12/28 13:59:49","新北市五股區成泰路三段543巷12弄11號","121.451325","25.1024283333333","6501500","五股區"
"248007","095-VK","2017/12/28 13:59:40","新北市五股區中興路一段128巷38號","121.465821666667","25.0754133333333","6501500","五股區"
"248017","225-UY","2017/12/28 13:59:49","新北市五股區民義路二段18-1號","121.420523333333","25.0965866666667","6501500","五股區"
"248011","247-BX","2017/12/28 13:59:54","新北市五股區成泰路二段131號","121.438801666667","25.0850033333333","6501500","五股區"
"248009","272-BY","2017/12/28 13:59:37","新北市五股區水碓一路23號","121.430585","25.0712783333333","6501500","五股區"
"248003","677-BX","2017/12/28 13:59:36","新北市五股區民義路三段1號","121.402838333333","25.1141566666667","6501500","五股區"
"248001","678-BX","2017/12/28 13:59:53","新北市五股區凌雲路一段163號","121.448868333333","25.1026266666667","6501500","五股區"
"234022","9380-KE","2017/12/28 13:59:36","新北市永和區復興街1巷4號","121.51579","25.0129316666667","6500400","永和區"
"234076","969-R7","2017/12/28 13:59:40","新北市永和區民治街29號","121.519713333333","24.9977566666667","6500400","永和區"
"234072","AAC-211","2017/12/28 13:59:55","新北市永和區豫溪街169巷2-1號","121.521998333333","25.010445","6500400","永和區"
"234066","AAC-212","2017/12/28 13:59:52","新北市永和區永貞路358號","121.510221666667","25.0065316666667","6500400","永和區"
"234001","AAC-295","2017/12/28 13:59:38","新北市永和區福和路326號","121.515556666667","25.0072416666667","6500400","永和區"
"244003","248-BX","2017/12/28 13:59:47","新北市林口區瑞樹坑34-8號","121.35185","25.1298183333333","6501700","林口區"
"244025","402-UM","2017/12/28 10:48:47","新北市林口區粉寮路二段160巷28號","121.405145","25.090725","6501700","林口區"
"243004","AAD-798","2017/12/28 13:59:46","新北市泰山區仁德路112號","121.432731666667","25.0570133333333","6501600","泰山區"
"243003","297-R6","2017/12/28 13:59:38","新北市泰山區明志路二段320巷2弄7號","121.42609","25.0465816666667","6501600","泰山區"
"243007","380-SR","2017/12/28 13:59:47","新北市泰山區明志路一段216號","121.432586666667","25.0615266666667","6501600","泰山區"
"243006","421-VK","2017/12/28 13:59:43","新北市泰山區黎明路2-5號","121.420875","25.0625833333333","6501600","泰山區"
"243002","KEA-2215","2017/12/28 13:59:36","新北市泰山區辭修路30號","121.428945","25.0581333333333","6501600","泰山區"
"243001","KEA-2216","2017/12/28 13:59:35","新北市泰山區泰林路二段328號","121.430128333333","25.06307","6501600","泰山區"
"243005","646-TV","2017/12/28 13:59:43","新北市泰山區明志路三段351巷22號","121.422568333333","25.0348566666667","6501600","泰山區"
"243008","680-BX","2017/12/28 13:59:51","新北市泰山區明志路二段137號","121.427605","25.050655","6501600","泰山區"
"231037","0293-UT","2017/12/28 13:59:37","新北市新店區安康路三段456號","121.484346666667","24.9510616666667","6500600","新店區"
"231028","046-UY","2017/12/28 13:59:48","新北市新店區安和路三段126號","121.51668","24.98567","6500600","新店區"
"231030","047-UY","2017/12/28 13:59:36","新北市新店區安興路7-1號","121.515025","24.9685383333333","6500600","新店區"
"231029","106-UY","2017/12/28 13:59:47","新北市新店區安康路二段3-1號","121.51603","24.9636983333333","6500600","新店區"
"231018","107-UY","2017/12/28 13:59:53","新北市新店區中央路99號","121.531078333333","24.97508","6500600","新店區"
"231011","108-UY","2017/12/28 13:59:39","新北市新店區五峰路93號","121.546016666667","24.9673916666667","6500600","新店區"
"231021","187-VK","2017/12/28 13:59:44","新北市新店區自強路117號","121.546118333333","24.9231333333333","6500600","新店區"
"231017","KEA-2219","2017/12/28 13:59:51","新北市新店區北宜路二段82巷9弄1號","121.553596666667","24.952455","6500600","新店區"
"231026","256-BX","2017/12/28 13:59:35","新北市新店區環河路18號","121.536968333333","24.9616533333333","6500600","新店區"
"231023","AAD-862","2017/12/28 13:59:44","新北市新店區文中路51號","121.539796666667","24.9566783333333","6500600","新店區"
"231002","355-BY","2017/12/28 13:59:50","新北市新店區中正路663巷7弄15-13號","121.532415","24.9904566666667","6500600","新店區"
"231027","3712-VJ","2017/12/28 13:59:43","新北市新店區中興路一段24-2號","121.538558333333","24.9583916666667","6500600","新店區"
"231025","3713-VJ","2017/12/28 13:59:43","新北市新店區中正路275巷24號","121.53699","24.973275","6500600","新店區"
"231024","4716-K9","2017/12/28 13:59:34","新北市新店區北新路一段271巷35號","121.53958","24.966985","6500600","新店區"
"231038","4715-K9","2017/12/28 13:59:38","新北市新店區溪洲路121號","121.531271666667","24.9630066666667","6500600","新店區"
"231036","512-UM","2017/12/28 13:59:53","新北市新店區安祥路110巷30弄1號","121.47388","24.9564466666667","6500600","新店區"
"231035","515-UM","2017/12/28 13:59:48","新北市新店區安和路一段52巷2號","121.517576666667","24.9660583333333","6500600","新店區"
"231001","619-UM","2017/12/28 13:59:35","新北市新店區三民路24號","121.537126666667","24.9710383333333","6500600","新店區"
"231003","641-BX","2017/12/28 13:59:40","新北市新店區中興路一段24-2號","121.538621666667","24.9584116666667","6500600","新店區"
"231034","645-TV","2017/12/28 13:59:43","新北市新店區達觀路41號","121.502148333333","24.9386016666667","6500600","新店區"
"231013","719-UM","2017/12/28 13:59:48","新北市新店區明德路66號","121.541585","24.9795616666667","6500600","新店區"
"231031","720-UM","2017/12/28 13:59:43","新北市新店區秀山路68-1號","121.531055","24.9609783333333","6500600","新店區"
"231005","897-TW","2017/12/28 13:59:48","新北市新店區寶中路45-2號","121.544893333333","24.9794416666667","6500600","新店區"
"231006","898-TW","2017/12/28 13:59:37","新北市新店區北宜路二段213號","121.553258333333","24.95339","6500600","新店區"
"231004","899-TW","2017/12/28 13:59:55","新北市新店區北新路二段163號","121.542776666667","24.97627","6500600","新店區"
"235030","003-UY","2017/12/28 13:59:42","新北市中和區水源路6巷24號","121.503131666667","25.0030866666667","6500300","中和區"
"235028","005-UY","2017/12/28 13:59:42","新北市中和區泰和街34號","121.499375","25.000205","6500300","中和區"
"235027","006-UY","2017/12/28 13:59:47","新北市中和區中正路530號","121.487898333333","24.9945","6500300","中和區"
"235010","031-BX","2017/12/28 13:59:37","新北市中和區興南路一段117巷1弄1號","121.509343333333","24.9877783333333","6500300","中和區"
"235020","096-UM","2017/12/28 13:59:40","新北市中和區中正路1222號","121.479626666667","25.0107733333333","6500300","中和區"
"235003","097-UM","2017/12/28 13:59:40","新北市中和區景平路64巷13弄22號","121.521501666667","24.9914516666667","6500300","中和區"
"235004","150-BY","2017/12/28 13:11:19","新北市中和區中正路167巷32號","121.498151666667","24.991765","6500300","中和區"
"235022","151-BY","2017/12/28 13:59:50","新北市中和區連城路531號","121.480638333333","24.9949666666667","6500300","中和區"
"235019","183-VK","2017/12/28 13:59:43","新北市板橋區民族路276巷3弄13號","121.470038333333","25.0061583333333","6500300","中和區"
"235002","185-VK","2017/12/28 13:59:50","新北市中和區立人街24-5號","121.518861666667","24.9941733333333","6500300","中和區"
"235013","186-VK","2017/12/28 13:59:39","新北市中和區景安路167巷23號","121.506586666667","24.9948883333333","6500300","中和區"
"235031","255-BX","2017/12/28 13:59:49","新北市中和區連城路340巷14弄2號","121.483318333333","24.99739","6500300","中和區"
"235008","293-VK","2017/12/28 13:59:50","新北市中和區中興街161巷10弄1號","121.50129","24.99086","6500300","中和區"
"235036","301-VK","2017/12/28 13:59:44","新北市中和區中山路二段47號","121.504405","25.004995","6500300","中和區"
"235007","352-BY","2017/12/28 13:59:54","新北市中和區秀朗路三段103號","121.526453333333","24.9947633333333","6500300","中和區"
"235032","377-QA","2017/12/28 13:59:52","新北市中和區圓通路265巷30號","121.49579","24.992565","6500300","中和區"
"235025","378-QA","2017/12/28 13:59:43","新北市中和區中山路三段51號","121.476838333333","25.0057233333333","6500300","中和區"
"235014","4979-A6","2017/12/28 13:59:39","新北市中和區華新街50巷7號","121.5077","24.9839","6500300","中和區"
"235033","4980-A6","2017/12/28 13:59:47","新北市中和區中和路217巷16號","121.504685","25.00037","6500300","中和區"
"235006","551-UM","2017/12/28 13:59:51","新北市中和區秀朗路三段10巷37弄15號","121.52406","24.9956166666667","6500300","中和區"
"235034","558-UM","2017/12/28 13:59:39","新北市中和區南山路6號","121.502028333333","24.99864","6500300","中和區"
"235009","565-BX","2017/12/28 13:59:41","新北市中和區景新街467巷15弄2號","121.51411","24.988385","6500300","中和區"
"235018","640-BX","2017/12/28 13:59:50","新北市中和區民享街4號","121.474083333333","25.0051466666667","6500300","中和區"
"235024","647-TV","2017/12/28 13:59:38","新北市中和區中山路三段157號","121.473455","25.006165","6500300","中和區"
"235011","732-UM","2017/12/28 13:59:52","新北市中和區興南路二段74巷12號","121.505213333333","24.9849983333333","6500300","中和區"
"235026","800-TS","2017/12/28 13:59:47","新北市中和區橋安街18號","121.492658333333","25.004945","6500300","中和區"
"235021","801-TS","2017/12/28 13:59:47","新北市中和區民安街53-1號","121.479356666667","24.999905","6500300","中和區"
"235005","802-TS","2017/12/28 13:59:35","新北市中和區永貞路239巷7號","121.512721666667","25.0033433333333","6500300","中和區"
"235016","805-TS","2017/12/28 13:59:42","新北市中和區興南路二段131-7號","121.503961666667","24.9810983333333","6500300","中和區"
"235012","896-TW","2017/12/28 13:59:47","新北市中和區華新街65號","121.508058333333","24.9841283333333","6500300","中和區"
"235017","900-TW","2017/12/28 13:59:19","新北市中和區壽德街2號","121.465071666667","24.9955216666667","6500300","中和區"
"235029","911-UM","2017/12/28 13:59:49","新北市中和區勝利路33號","121.49893","25.0078183333333","6500300","中和區"
"235015","157-BY","2017/12/28 13:59:52","新北市中和區忠孝街19巷9號","121.509916666667","24.9838366666667","6500300","中和區"
"235001","AAC-213","2017/12/28 13:59:53","新北市中和區自立路17號","121.522241666667","24.996045","6500300","中和區"
"235023","AAC-215","2017/12/28 13:59:39","新北市中和區圓通路369巷33弄7號","121.491103333333","24.9880183333333","6500300","中和區"
"220013","072-UY","2017/12/28 13:59:47","新北市板橋區漢生東路337號","121.472026666667","25.0075966666667","6500100","板橋區"
"220034","073-UY","2017/12/28 13:59:39","新北市板橋區中正路170號","121.456436666667","25.0170333333333","6500100","板橋區"
"220105","075-UY","2017/12/28 13:59:36","新北市板橋區文化路二段124巷26號","121.471168333333","25.0256783333333","6500100","板橋區"
"220017","AAD-861","2017/12/28 13:59:45","新北市板橋區華興街83號","121.456816666667","25.0051633333333","6500100","板橋區"
"220045","120-SR","2017/12/28 13:59:47","新北市板橋區莒光路101號","121.472603333333","25.0240566666667","6500100","板橋區"
"247019","500-BY","2017/12/28 13:59:37","新北市蘆洲區民族路426巷40弄11號","121.473425","25.093145","6501400","蘆洲區"
"247007","341-TH","2017/12/28 13:59:31","新北市三重區永安北路一段13號","121.476161666667","25.07498","6501400","蘆洲區"
"247009","339-TH","2017/12/28 13:59:36","新北市蘆洲區集賢路224巷23號","121.481521666667","25.0869433333333","6501400","蘆洲區"
"247001","337-TH","2017/12/28 13:59:53","新北市蘆洲區永平街32巷74號","121.460511666667","25.0935983333333","6501400","蘆洲區"
"247003","336-TH","2017/12/28 13:59:52","新北市蘆洲區長安街100號","121.461825","25.0808583333333","6501400","蘆洲區"
"247015","057-VK","2017/12/28 13:59:34","新北市蘆洲區光華路42號","121.468881666667","25.0830583333333","6501400","蘆洲區"
"247005","056-VK","2017/12/28 13:59:51","新北市蘆洲區永安南路二段76號","121.464591666667","25.0781783333333","6501400","蘆洲區"
"247013","007-UY","2017/12/28 13:59:46","新北市蘆洲區中正路100號","121.469786666667","25.0843516666667","6501400","蘆洲區"
"247017","001-UY","2017/12/28 13:59:53","新北市蘆洲區民族路327巷81弄1號","121.475435","25.0894683333333","6501400","蘆洲區"
"228005","097-TW","2017/12/28 13:59:23","新北市貢寮區美豐里雞母嶺街52-1號","121.888541666667","25.0685116666667","6502600","貢寮區"
"228004","212-TW","2017/12/28 13:59:36","新北市貢寮區龍崗里嵩陽街35-1號","121.906701666667","25.017485","6502600","貢寮區"
"253003","6232-TK","2017/12/28 13:59:30","新北市石門區尖子鹿8號","121.575191666667","25.279975","6502200","石門區"
"253001","6251-TK","2017/12/28 13:59:45","新北市石門區下員坑49號","121.517758333333","25.2733866666667","6502200","石門區"
"253002","637-UY","2017/12/28 13:59:45","新北市石門區七股33-2號","121.552646666667","25.261205","6502200","石門區"
"253004","8270-PC","2017/12/28 13:58:38","新北市石門區阿里荖63-1號","121.607818333333","25.267195","6502200","石門區"
"208004","AAC-292","2017/12/28 13:59:50","新北市金山區名流路1-6號","121.595291666667","25.2016116666667","6502700","金山區"
"207002","749-BX","2017/12/28 13:58:48","新北市萬里區溪底里烏塗炭9號","121.637581666667","25.1516283333333","6502800","萬里區"
"252005","073-UM","2017/12/28 13:59:33","新北市三芝區橫山里大坑60號","121.535066666667","25.2478516666667","6502100","三芝區"
"207001","662-BX","2017/12/28 13:59:47","新北市萬里區磺潭里清水18號","121.637913333333","25.1976516666667","6502800","萬里區"
"236066","105-UM","2017/12/28 13:59:47","新北市土城區城林路6巷80號","121.43831","24.9797383333333","6501300","土城區"
"236040","107-UM","2017/12/28 13:59:38","新北市土城區城林路6巷80號","121.438375","24.9798316666667","6501300","土城區"
"236076","166-UM","2017/12/28 13:59:37","新北市土城區永寧路32巷10弄5號","121.428746666667","24.9610166666667","6501300","土城區"
"236028","253-BX","2017/12/28 13:56:03","新北市土城區中央路二段280號","121.440728333333","24.9739883333333","6501300","土城區"
"236024","269-VK","2017/12/28 13:59:50","新北市土城區城林路6巷80號","121.438561666667","24.97979","6501300","土城區"
"236012","270-VK","2017/12/28 13:59:37","新北市土城區中央路二段280號","121.440805","24.9741283333333","6501300","土城區"
"236033","271-VK","2017/12/28 13:59:45","新北市土城區城林路6巷80號","121.43836","24.9797816666667","6501300","土城區"
"236018","401-BY","2017/12/28 13:59:54","新北市土城區城林路6巷80號","121.438588333333","24.9797783333333","6501300","土城區"
"236005","498-BY","2017/12/28 13:59:44","新北市土城區中央路一段260號","121.444155","24.98413","6501300","土城區"
"236056","912-UM","2017/12/28 13:59:48","新北市土城區永寧路3號","121.430428333333","24.9646716666667","6501300","土城區"
"236047","913-UM","2017/12/28 13:59:42","新北市土城區城林路6巷80號","121.438641666667","24.9797316666667","6501300","土城區"
"236060","915-UM","2017/12/28 13:59:38","新北市土城區城林路6巷80號","121.438383333333","24.9797816666667","6501300","土城區"
"236052","AAC-216","2017/12/28 13:59:45","新北市土城區城林路6巷80號","121.438311666667","24.9797233333333","6501300","土城區"
"242045","172-VK","2017/12/28 13:59:46","新北市樹林區中山路三段210-2號","121.380563333333","24.96798","6500500","新莊區"
"221012","276-VK","2017/12/28 13:38:34","新北市汐止區汐萬路一段256巷3號","121.65341","25.0746066666667","6501100","汐止區"
"221021","299-VK","2017/12/28 13:59:34","新北市汐止區樟樹二路353號","121.644148333333","25.0740966666667","6501100","汐止區"
"220027","145-BY","2017/12/28 13:59:44","新北市板橋區民權路256號","121.458208333333","25.0149533333333","6500100","板橋區"
"220028","200-UY","2017/12/28 13:59:36","新北市板橋區大觀路二段265巷1弄14號","121.443496666667","24.9984916666667","6500100","板橋區"
"220030","610-BX","2017/12/28 13:59:45","新北市板橋區溪崑一街112號","121.429243333333","24.9887283333333","6500100","板橋區"
"220050","245-BX","2017/12/28 13:59:45","新北市板橋區文化路二段182巷5弄2號","121.471676666667","25.0269266666667","6500100","板橋區"
"220004","276-BY","2017/12/28 13:59:51","新北市板橋區信義路116號","121.458346666667","24.9925133333333","6500100","板橋區"
"220020","277-BY","2017/12/28 13:59:49","新北市板橋區篤行路一段29號","121.43199","24.9945566666667","6500100","板橋區"
"220019","283-VK","2017/12/28 13:59:46","新北市板橋區忠孝路146號","121.463881666667","25.00244","6500100","板橋區"
"220043","285-UM","2017/12/28 13:59:44","新北市板橋區文化路二段31號","121.468856666667","25.024835","6500100","板橋區"
"220001","285-VK","2017/12/28 13:59:49","新北市板橋區永豐街49巷10號","121.473721666667","25.0177483333333","6500100","板橋區"
"220031","286-VK","2017/12/28 13:59:36","新北市板橋區大觀路一段38巷162號","121.442178333333","25.0045533333333","6500100","板橋區"
"220029","287-VK","2017/12/28 13:59:52","新北市板橋區光華街19巷36號","121.453236666667","25.0120483333333","6500100","板橋區"
"220039","288-VK","2017/12/28 13:59:52","新北市板橋區四維路177巷1弄2號","121.46408","25.02624","6500100","板橋區"
"220016","293-UM","2017/12/28 13:59:43","新北市板橋區中山路二段443巷72號","121.480858333333","25.02206","6500100","板橋區"
"220009","295-UM","2017/12/28 13:59:32","新北市板橋區富山街85巷6弄2號","121.476595","25.0211066666667","6500100","板橋區"
"220032","296-UM","2017/12/28 13:59:38","新北市板橋區龍興街63巷2號","121.442985","25.0013466666667","6500100","板橋區"
"220023","297-UM","2017/12/28 13:59:52","新北市板橋區館前西路267號","121.453795","25.008735","6500100","板橋區"
"220010","303-R5","2017/12/28 13:56:58","新北市板橋區三民路二段257號","121.478985","25.0115683333333","6500100","板橋區"
"220041","307-R5","2017/12/28 13:59:56","新北市板橋區文化路一段104巷1弄3號","121.465208333333","25.017895","6500100","板橋區"
"220047","317-R6","2017/12/28 13:59:37","新北市板橋區民有街17號","121.46618","25.0249683333333","6500100","板橋區"
"220012","486-VK","2017/12/28 13:59:50","新北市板橋區板新路227號","121.467988333333","25.01578","6500100","板橋區"
"220038","487-VK","2017/12/28 13:59:39","新北市板橋區文化路二段317號","121.47217","25.029785","6500100","板橋區"
"220037","491-VK","2017/12/28 13:59:51","新北市板橋區民生路二段236號","121.468305","25.0229783333333","6500100","板橋區"
"220104","560-BX","2017/12/28 13:59:51","新北市板橋區中正路341巷10號","121.45446","25.02035","6500100","板橋區"
"220052","561-BX","2017/12/28 13:59:48","新北市板橋區介壽街118號","121.469803333333","25.0178516666667","6500100","板橋區"
"220011","609-BX","2017/12/28 13:59:48","新北市板橋區中山路二段125號","121.475095","25.01639","6500100","板橋區"
"220040","637-BX","2017/12/28 13:59:54","新北市板橋區文聖街182號","121.479363333333","25.0267383333333","6500100","板橋區"
"220005","686-BX","2017/12/28 13:59:43","新北市板橋區館前東路13號","121.459966666667","25.00735","6500100","板橋區"
"220025","687-BX","2017/12/28 13:59:48","新北市板橋區大觀路二段174巷165弄2號","121.441911666667","25.00342","6500100","板橋區"
"220042","689-BX","2017/12/28 13:59:54","新北市板橋區民生路三段64號","121.46701","25.0255333333333","6500100","板橋區"
"220002","741-BX","2017/12/28 13:59:50","新北市板橋區後埔街60號","121.460473333333","25.0055116666667","6500100","板橋區"
"220003","827-TW","2017/12/28 13:59:47","新北市板橋區中山路一段158巷4號","121.46604","25.01168","6500100","板橋區"
"220014","829-TW","2017/12/28 13:59:47","新北市板橋區三民路二段正隆巷12弄12號","121.477886666667","25.0132633333333","6500100","板橋區"
"220051","830-TW","2017/12/28 13:59:47","新北市板橋區懷德街233巷6號","121.480906666667","25.02855","6500100","板橋區"
"220022","895-R6","2017/12/28 13:59:54","新北市板橋區南雅南路一段108號","121.454801666667","25.00433","6500100","板橋區"
"220021","985-R7","2017/12/28 13:59:49","新北市板橋區林園街54號","121.45391","25.0106866666667","6500100","板橋區"
"220046","AAC-210","2017/12/28 13:59:48","新北市板橋區漢生西路197-1號","121.4633","25.0244366666667","6500100","板橋區"
"220018","AAC-253","2017/12/28 13:59:47","新北市板橋區四川路一段353號","121.458246666667","24.9998533333333","6500100","板橋區"
