"lineid","car","time","location","longitude","latitude","cityid","cityname"
"234044","148-BY","2017/12/28 14:09:43","新北市永和區得和路328號","121.523291666667","24.9995533333333","6500400","永和區"
"234012","149-BY","2017/12/28 14:09:53","新北市永和區永貞路423號","121.507175","25.0095683333333","6500400","永和區"
"234005","207-UY","2017/12/28 14:09:46","新北市中和區中和路234號","121.50686","24.9995183333333","6500400","永和區"
"234078","298-R6","2017/12/28 14:09:48","新北市永和區國中路102號","121.52423","25.0064483333333","6500400","永和區"
"234036","336-UY","2017/12/28 14:09:45","新北市永和區成功路一段112號","121.526688333333","25.002565","6500400","永和區"
"234062","337-UY","2017/12/28 14:09:45","新北市永和區永利路152號","121.522456666667","25.0027116666667","6500400","永和區"
"234084","338-UY","2017/12/28 14:09:41","新北市永和區中正路551號","121.516896666667","25.0081516666667","6500400","永和區"
"234052","553-UM","2017/12/28 14:09:38","新北市永和區環河東路一段122號","121.520678333333","25.01551","6500400","永和區"
"234015","745-BX","2017/12/28 14:09:49","新北市永和區永和路二段245號","121.515793333333","25.015","6500400","永和區"
"234028","746-BX","2017/12/28 14:09:48","新北市永和區民生路22巷26號","121.521271666667","24.9970866666667","6500400","永和區"
"234060","AAD-866","2017/12/28 14:09:40","新北市中和區安樂路247號","121.514105","24.9996333333333","6500400","永和區"
"234068","847-RS","2017/12/28 14:09:42","新北市永和區大新街69巷1號","121.517223333333","25.0082583333333","6500400","永和區"
"234040","862-TW","2017/12/28 14:09:45","新北市永和區雙和街43號","121.508848333333","25.0027483333333","6500400","永和區"
"234048","863-TW","2017/12/28 14:09:39","新北市永和區環河西路二段87號","121.50669","25.0149833333333","6500400","永和區"
"234025","9371-KE","2017/12/28 14:09:34","新北市永和區安樂路274號","121.514685","25.0042216666667","6500400","永和區"
"234010","9373-KE","2017/12/28 14:09:45","新北市永和區仁愛路352巷122弄11號","121.50065","25.008765","6500400","永和區"
"248015","026-BX","2017/12/28 14:09:49","新北市五股區成洲五路12號","121.452371666667","25.1015466666667","6501500","五股區"
"248007","095-VK","2017/12/28 14:09:40","新北市五股區中興路一段118巷8號","121.466075","25.0738666666667","6501500","五股區"
"248017","225-UY","2017/12/28 14:09:49","新北市五股區民義路一段220巷5-1號","121.428528333333","25.092445","6501500","五股區"
"248011","247-BX","2017/12/28 14:09:41","新北市五股區中興路四段48巷11號","121.438546666667","25.0835283333333","6501500","五股區"
"248009","272-BY","2017/12/28 14:09:37","新北市五股區水碓一路23號","121.430638333333","25.0712483333333","6501500","五股區"
"248003","677-BX","2017/12/28 14:09:35","新北市五股區六合街3號","121.431925","25.0886416666667","6501500","五股區"
"248001","678-BX","2017/12/28 14:09:49","新北市五股區成泰路三段577巷75號","121.449913333333","25.1036616666667","6501500","五股區"
"234022","9380-KE","2017/12/28 14:09:37","新北市永和區博愛街32巷25號","121.51883","25.0151333333333","6500400","永和區"
"234076","969-R7","2017/12/28 14:09:54","新北市永和區民族街67巷9號","121.518871666667","24.99725","6500400","永和區"
"234072","AAC-211","2017/12/28 14:09:45","新北市永和區竹林路201巷22弄23號","121.522945","25.0094383333333","6500400","永和區"
"234066","AAC-212","2017/12/28 14:09:52","新北市永和區保平路214巷1弄11號","121.50913","25.005785","6500400","永和區"
"234001","AAC-295","2017/12/28 14:09:38","新北市永和區中正路704號","121.516218333333","25.0099983333333","6500400","永和區"
"244003","248-BX","2017/12/28 14:09:47","新北市林口區汕頭18號","121.36352","25.1344566666667","6501700","林口區"
"244025","402-UM","2017/12/28 10:48:47","新北市林口區粉寮路二段160巷28號","121.405145","25.090725","6501700","林口區"
"243004","AAD-798","2017/12/28 14:09:46","新北市泰山區辭修路34巷1號","121.428788333333","25.058005","6501600","泰山區"
"243003","297-R6","2017/12/28 14:09:38","新北市泰山區明志路二段366號","121.425445","25.0450633333333","6501600","泰山區"
"243007","380-SR","2017/12/28 14:09:47","新北市泰山區明志路一段453-1號","121.430906666667","25.0563433333333","6501600","泰山區"
"243006","421-VK","2017/12/28 14:09:43","新北市泰山區泰林路二段462-1號","121.425846666667","25.0642383333333","6501600","泰山區"
"243002","KEA-2215","2017/12/28 14:09:36","新北市泰山區明志路一段483巷1弄2號","121.431225","25.055305","6501600","泰山區"
"243001","KEA-2216","2017/12/28 14:09:44","新北市泰山區文化街18號","121.434515","25.0635666666667","6501600","泰山區"
"243005","646-TV","2017/12/28 14:09:43","新北市泰山區台麗街13巷1號","121.424588333333","25.0382416666667","6501600","泰山區"
"243008","680-BX","2017/12/28 14:09:51","新北市泰山區明志路二段390號","121.425275","25.0443516666667","6501600","泰山區"
"231037","0293-UT","2017/12/28 14:09:37","新北市新店區安康路三段165巷2弄12號","121.489023333333","24.9513733333333","6500600","新店區"
"231028","046-UY","2017/12/28 14:09:48","新北市新店區安業街1號","121.515926666667","24.9787316666667","6500600","新店區"
"231030","047-UY","2017/12/28 14:09:36","新北市新店區安民街115巷28號","121.515121666667","24.96774","6500600","新店區"
"231029","106-UY","2017/12/28 14:09:47","新北市新店區安康路二段176號","121.511698333333","24.960365","6500600","新店區"
"231018","107-UY","2017/12/28 14:09:53","新北市新店區中央五街23號","121.529333333333","24.97462","6500600","新店區"
"231011","108-UY","2017/12/28 14:09:39","新北市新店區五峰路63巷8弄72號","121.547961666667","24.9685266666667","6500600","新店區"
"231021","187-VK","2017/12/28 14:09:44","新北市新店區屈尺路55號","121.546741666667","24.922635","6500600","新店區"
"231017","KEA-2219","2017/12/28 14:09:51","新北市新店區郵政路4巷1號","121.55701","24.9516016666667","6500600","新店區"
"231023","AAD-862","2017/12/28 14:09:43","新北市新店區文中路40號","121.539643333333","24.95658","6500600","新店區"
"231002","355-BY","2017/12/28 14:09:50","新北市新店區中正路541號","121.533481666667","24.986865","6500600","新店區"
"231027","3712-VJ","2017/12/28 14:09:43","新北市新店區光明街168巷12號","121.540261666667","24.9616883333333","6500600","新店區"
"231025","3713-VJ","2017/12/28 14:09:43","新北市新店區建安街45號","121.538583333333","24.9758083333333","6500600","新店區"
"231024","4716-K9","2017/12/28 14:09:34","新北市新店區中央二街81號","121.525671666667","24.975085","6500600","新店區"
"231038","4715-K9","2017/12/28 14:09:38","新北市新店區溪洲路101-1號","121.531835","24.9624383333333","6500600","新店區"
"231036","512-UM","2017/12/28 14:09:53","新北市新店區安祥路109巷3弄104號","121.47919","24.960565","6500600","新店區"
"231035","515-UM","2017/12/28 14:09:48","新北市新店區安和路二段113巷1弄2號","121.518291666667","24.970225","6500600","新店區"
"231001","619-UM","2017/12/28 14:09:35","新北市新店區中華路36號","121.539966666667","24.9680483333333","6500600","新店區"
"231003","641-BX","2017/12/28 14:09:42","新北市新店區光明街138巷22號","121.540456666667","24.9609616666667","6500600","新店區"
"231034","645-TV","2017/12/28 14:09:43","新北市新店區黎明路3號","121.503585","24.95246","6500600","新店區"
"231013","719-UM","2017/12/28 14:09:48","新北市新店區北新路三段65巷34弄1號","121.54003","24.9812916666667","6500600","新店區"
"231031","720-UM","2017/12/28 14:09:43","新北市新店區永業路46號","121.531648333333","24.953495","6500600","新店區"
"231005","897-TW","2017/12/28 14:09:48","新北市新店區中興路三段304號","121.542321666667","24.985245","6500600","新店區"
"231006","898-TW","2017/12/28 14:09:37","新北市新店區北宜路二段126號","121.55683","24.9538283333333","6500600","新店區"
"231004","899-TW","2017/12/28 14:09:55","新北市新店區北新路二段108號","121.542973333333","24.9742133333333","6500600","新店區"
"235030","003-UY","2017/12/28 14:09:42","新北市中和區廣福路36號","121.504478333333","25.0022066666667","6500300","中和區"
"235028","005-UY","2017/12/28 14:09:42","新北市中和區泰和街30巷17號","121.499013333333","25.00096","6500300","中和區"
"235027","006-UY","2017/12/28 14:09:47","新北市中和區連城路176號","121.493133333333","24.99686","6500300","中和區"
"235010","031-BX","2017/12/28 14:09:37","新北市中和區華新街89號","121.508545","24.9834466666667","6500300","中和區"
"235020","096-UM","2017/12/28 14:09:40","新北市中和區員山路516號","121.479156666667","25.009545","6500300","中和區"
"235003","097-UM","2017/12/28 14:09:40","新北市中和區景平路3號","121.523681666667","24.99029","6500300","中和區"
"235004","150-BY","2017/12/28 14:09:39","新北市中和區宜安路123號","121.50995","24.9979783333333","6500300","中和區"
"235022","151-BY","2017/12/28 14:09:50","新北市中和區連城路523巷9弄6號","121.48183","24.9945283333333","6500300","中和區"
"235019","183-VK","2017/12/28 14:09:43","新北市中和區德光路111號","121.468186666667","25.0032616666667","6500300","中和區"
"235002","185-VK","2017/12/28 14:09:50","新北市中和區大仁街20巷1號","121.517793333333","24.9933066666667","6500300","中和區"
"235013","186-VK","2017/12/28 14:09:39","新北市中和區南華路46號","121.503888333333","24.9965116666667","6500300","中和區"
"235031","255-BX","2017/12/28 14:09:49","新北市中和區新生街264號","121.483746666667","24.9972083333333","6500300","中和區"
"235008","293-VK","2017/12/28 14:09:50","新北市中和區中興街222-6號","121.500688333333","24.9896533333333","6500300","中和區"
"235036","301-VK","2017/12/28 14:09:44","新北市中和區中山路二段178巷1號","121.500665","25.0028066666667","6500300","中和區"
"235007","352-BY","2017/12/28 14:09:54","新北市中和區景平路104號","121.519966666667","24.9916516666667","6500300","中和區"
"235032","377-QA","2017/12/28 14:09:52","新北市中和區圓通路158巷1弄9號","121.49721","24.9960816666667","6500300","中和區"
"235025","378-QA","2017/12/28 14:09:43","新北市中和區連城路456巷9號","121.478573333333","24.9952366666667","6500300","中和區"
"235014","4979-A6","2017/12/28 14:09:40","新北市中和區復興路280巷20號","121.50208","24.99178","6500300","中和區"
"235033","4980-A6","2017/12/28 14:09:47","新北市中和區中山路二段178巷1號","121.500811666667","25.00293","6500300","中和區"
"235006","551-UM","2017/12/28 14:09:51","新北市中和區立人街69巷15弄16號","121.521125","24.9935166666667","6500300","中和區"
"235034","558-UM","2017/12/28 14:09:39","新北市中和區安和路215號","121.505968333333","24.9990816666667","6500300","中和區"
"235009","565-BX","2017/12/28 14:09:47","新北市中和區景新街467巷33號","121.51489","24.988835","6500300","中和區"
"235018","640-BX","2017/12/28 14:09:50","新北市中和區國光街107巷4弄30號","121.469436666667","24.99893","6500300","中和區"
"235024","647-TV","2017/12/28 14:09:38","新北市中和區民治街27巷10號","121.475533333333","25.001315","6500300","中和區"
"235011","732-UM","2017/12/28 14:09:32","新北市中和區興南路一段72號","121.510655","24.990135","6500300","中和區"
"235026","800-TS","2017/12/28 14:09:46","新北市中和區中山路二段372號","121.491906666667","25.0030333333333","6500300","中和區"
"235021","801-TS","2017/12/28 14:09:47","新北市中和區民利街58巷5弄11號","121.478145","24.9991666666667","6500300","中和區"
"235005","802-TS","2017/12/28 14:09:35","新北市中和區中安街178巷4號","121.510838333333","24.9993733333333","6500300","中和區"
"235016","805-TS","2017/12/28 14:09:42","新北市中和區興南路二段256號","121.502905","24.9817416666667","6500300","中和區"
"235012","896-TW","2017/12/28 14:09:47","新北市中和區工專路141號","121.5085","24.9789916666667","6500300","中和區"
"235017","900-TW","2017/12/28 14:09:39","新北市中和區華福街73號","121.467208333333","24.9965733333333","6500300","中和區"
"235029","911-UM","2017/12/28 14:09:49","新北市中和區中山路二段116巷5弄1號","121.5024","25.0044966666667","6500300","中和區"
"235015","157-BY","2017/12/28 14:09:52","新北市中和區興南路一段36號","121.511146666667","24.99092","6500300","中和區"
"235001","AAC-213","2017/12/28 14:09:53","新北市中和區秀朗路三段58-3號","121.525793333333","24.9951466666667","6500300","中和區"
"235023","AAC-215","2017/12/28 14:09:39","新北市中和區圓通路294巷17-5號","121.4886","24.9904333333333","6500300","中和區"
"220013","072-UY","2017/12/28 14:09:48","新北市板橋區民族路151巷28號","121.469156666667","25.0082583333333","6500100","板橋區"
"220034","073-UY","2017/12/28 14:09:54","新北市板橋區中正路236巷67號","121.458701666667","25.019595","6500100","板橋區"
"220105","075-UY","2017/12/28 14:09:36","新北市板橋區雙十路三段9號","121.471668333333","25.030325","6500100","板橋區"
"220017","AAD-861","2017/12/28 14:09:45","新北市板橋區貴興路8號","121.457645","25.0042983333333","6500100","板橋區"
"220045","120-SR","2017/12/28 14:09:47","新北市板橋區雙十路二段47巷4號","121.476196666667","25.0261616666667","6500100","板橋區"
"247021","893-R6","2017/12/28 14:09:37","新北市蘆洲區三民路205號","121.47029","25.0878133333333","6501400","蘆洲區"
"247011","546-UM","2017/12/28 14:09:46","新北市蘆洲區信義路333號","121.478011666667","25.0867966666667","6501400","蘆洲區"
"247019","500-BY","2017/12/28 14:09:37","新北市蘆洲區民族路422巷15弄23號","121.473073333333","25.0930866666667","6501400","蘆洲區"
"247007","341-TH","2017/12/28 14:09:51","新北市蘆洲區中山一路285號","121.47189","25.0795766666667","6501400","蘆洲區"
"247009","339-TH","2017/12/28 14:09:36","新北市蘆洲區民族路39號","121.478185","25.0852733333333","6501400","蘆洲區"
"247001","337-TH","2017/12/28 14:09:53","新北市蘆洲區永平街32巷11弄13號","121.45834","25.0914466666667","6501400","蘆洲區"
"247003","336-TH","2017/12/28 14:09:55","新北市蘆洲區長安街110號","121.460865","25.0814816666667","6501400","蘆洲區"
"247015","057-VK","2017/12/28 14:09:42","新北市蘆洲區光華路46巷49號","121.46741","25.0845783333333","6501400","蘆洲區"
"247005","056-VK","2017/12/28 14:09:51","新北市蘆洲區永安南路二段16巷16號","121.467973333333","25.0777633333333","6501400","蘆洲區"
"247013","007-UY","2017/12/28 14:09:46","新北市蘆洲區保和街69巷33號","121.469765","25.08522","6501400","蘆洲區"
"247023","002-UY","2017/12/28 14:09:41","新北市蘆洲區光榮路112號","121.464316666667","25.08929","6501400","蘆洲區"
"247017","001-UY","2017/12/28 14:09:53","新北市蘆洲區復興路111-8號","121.476876666667","25.088565","6501400","蘆洲區"
"228005","097-TW","2017/12/28 14:09:43","新北市貢寮區美豐里土地公嶺23號","121.888606666667","25.06099","6502600","貢寮區"
"228004","212-TW","2017/12/28 14:09:36","新北市貢寮區雙玉里下雙溪街10-1號","121.915011666667","25.0144266666667","6502600","貢寮區"
"253003","6232-TK","2017/12/28 14:09:50","新北市石門區尖子鹿51-1號","121.577815","25.274515","6502200","石門區"
"253001","6251-TK","2017/12/28 14:09:45","新北市石門區八甲75號","121.529761666667","25.263115","6502200","石門區"
"253002","637-UY","2017/12/28 14:09:45","新北市石門區大丘田45-2號","121.550026666667","25.2748983333333","6502200","石門區"
"253004","8270-PC","2017/12/28 14:09:38","新北市石門區草埔尾28-1號","121.603498333333","25.2646766666667","6502200","石門區"
"208004","AAC-292","2017/12/28 14:09:50","新北市金山區六股里頂六股9-1號","121.609528333333","25.220065","6502700","金山區"
"207002","749-BX","2017/12/28 14:09:48","新北市萬里區溪底里瑞泉路3號","121.608651666667","25.1438616666667","6502800","萬里區"
"252005","073-UM","2017/12/28 14:09:33","新北市三芝區橫山里橫山31-1號","121.544196666667","25.2579266666667","6502100","三芝區"
"207001","662-BX","2017/12/28 14:09:47","新北市萬里區磺潭里清水18號","121.637881666667","25.197725","6502800","萬里區"
"236066","105-UM","2017/12/28 14:09:47","新北市土城區金城路一段84號","121.444726666667","24.9733433333333","6501300","土城區"
"236040","107-UM","2017/12/28 14:09:38","新北市土城區城林路6巷80號","121.438386666667","24.9798333333333","6501300","土城區"
"236076","166-UM","2017/12/28 14:09:34","新北市土城區永安街18號","121.43405","24.9651733333333","6501300","土城區"
"236028","253-BX","2017/12/28 14:09:48","新北市土城區興城路79號","121.439846666667","24.9707533333333","6501300","土城區"
"236024","269-VK","2017/12/28 14:09:50","新北市土城區承天路47號","121.438991666667","24.9637166666667","6501300","土城區"
"236012","270-VK","2017/12/28 14:09:37","新北市土城區金城路二段208號","121.455225","24.982065","6501300","土城區"
"236033","271-VK","2017/12/28 14:09:45","新北市土城區明德路一段375-1號","121.454996666667","24.978125","6501300","土城區"
"236018","401-BY","2017/12/28 14:09:34","新北市土城區員福街32號","121.441166666667","24.9787733333333","6501300","土城區"
"236005","498-BY","2017/12/28 14:09:44","新北市土城區中華路一段36號","121.446266666667","24.9892333333333","6501300","土城區"
"236056","912-UM","2017/12/28 14:09:48","新北市土城區中央路四段38號","121.420771666667","24.9608083333333","6501300","土城區"
"236047","913-UM","2017/12/28 14:09:42","新北市土城區明德路一段365-1號","121.453545","24.979045","6501300","土城區"
"236060","915-UM","2017/12/28 14:09:38","新北市土城區金城路二段200號","121.454821666667","24.9817716666667","6501300","土城區"
"236052","AAC-216","2017/12/28 14:09:45","新北市土城區中華路二段2號","121.439523333333","24.9795433333333","6501300","土城區"
"221012","276-VK","2017/12/28 13:38:34","新北市汐止區汐萬路一段256巷3號","121.65341","25.0746066666667","6501100","汐止區"
"221021","299-VK","2017/12/28 14:09:34","新北市汐止區樟樹二路353-1號","121.644646666667","25.0722566666667","6501100","汐止區"
"220027","145-BY","2017/12/28 14:09:43","新北市板橋區公館街27號","121.461073333333","25.0153066666667","6500100","板橋區"
"220028","200-UY","2017/12/28 14:09:36","新北市板橋區大觀路二段7巷35號","121.448113333333","25.0034466666667","6500100","板橋區"
"220030","610-BX","2017/12/28 14:09:45","新北市板橋區溪崑二街48號","121.428171666667","24.9907233333333","6500100","板橋區"
"220050","245-BX","2017/12/28 14:09:45","新北市板橋區萬板路51號","121.471333333333","25.0214766666667","6500100","板橋區"
"220004","276-BY","2017/12/28 14:09:51","新北市板橋區信義路110巷2弄9號","121.457728333333","24.9925233333333","6500100","板橋區"
"220020","277-BY","2017/12/28 14:09:49","新北市板橋區金門街369巷58號","121.42827","24.9816983333333","6500100","板橋區"
"220019","283-VK","2017/12/28 14:09:46","新北市板橋區重慶路327巷19弄3-2號","121.464713333333","24.9988966666667","6500100","板橋區"
"220043","285-UM","2017/12/28 14:09:47","新北市板橋區光武街151號","121.46547","25.02945","6500100","板橋區"
"220001","285-VK","2017/12/28 14:09:49","新北市板橋區懷仁街24巷23號","121.4756","25.0191616666667","6500100","板橋區"
"220031","286-VK","2017/12/28 14:09:43","新北市板橋區大觀路二段174巷173弄5號","121.441596666667","25.00372","6500100","板橋區"
"220029","287-VK","2017/12/28 14:09:35","新北市板橋區南雅西路二段156巷6號","121.452266666667","25.0133333333333","6500100","板橋區"
"220039","288-VK","2017/12/28 14:09:52","新北市板橋區裕民街45巷3-1號","121.461603333333","25.02839","6500100","板橋區"
"220016","293-UM","2017/12/28 14:09:37","新北市板橋區萬安街132號","121.483315","25.02598","6500100","板橋區"
"220009","295-UM","2017/12/28 14:09:52","新北市板橋區三民路二段21巷10號","121.479965","25.0180616666667","6500100","板橋區"
"220032","296-UM","2017/12/28 14:09:38","新北市板橋區篤行路一段16-1號","121.43129","24.9955033333333","6500100","板橋區"
"220023","297-UM","2017/12/28 14:09:52","新北市板橋區光華街1巷1號","121.45402","25.0110633333333","6500100","板橋區"
"220010","303-R5","2017/12/28 14:09:49","新北市板橋區三民路二段245巷71號","121.481105","25.0126033333333","6500100","板橋區"
"220041","307-R5","2017/12/28 14:09:53","新北市板橋區文化路二段225巷60弄51號","121.46903","25.02961","6500100","板橋區"
"220047","317-R6","2017/12/28 14:09:42","新北市板橋區自由路17巷11-3號","121.464843333333","25.0233483333333","6500100","板橋區"
"220012","486-VK","2017/12/28 14:09:36","新北市板橋區民生路一段33號","121.476196666667","25.0121516666667","6500100","板橋區"
"220038","487-VK","2017/12/28 14:09:39","新北市板橋區文化路二段431號","121.474866666667","25.0329433333333","6500100","板橋區"
"220037","491-VK","2017/12/28 14:09:52","新北市板橋區文化路二段182巷7弄6號","121.47222","25.0270383333333","6500100","板橋區"
"220104","560-BX","2017/12/28 14:09:53","新北市板橋區中正路413巷12號","121.453616666667","25.0226316666667","6500100","板橋區"
"220052","561-BX","2017/12/28 14:09:51","新北市板橋區文化路一段188巷9弄21號","121.46855","25.019475","6500100","板橋區"
"220011","609-BX","2017/12/28 14:09:53","新北市板橋區三民路二段75號","121.479321666667","25.01684","6500100","板橋區"
"220040","637-BX","2017/12/28 14:09:34","新北市板橋區萬板路558-1號","121.480826666667","25.0264866666667","6500100","板橋區"
"220005","686-BX","2017/12/28 14:09:44","新北市板橋區重慶路197號","121.462846666667","25.00189","6500100","板橋區"
"220025","687-BX","2017/12/28 14:09:43","新北市板橋區龍興街54號","121.443253333333","25.0011483333333","6500100","板橋區"
"220042","689-BX","2017/12/28 14:09:55","新北市板橋區民生路三段251號","121.46469","25.0291483333333","6500100","板橋區"
"220002","741-BX","2017/12/28 14:09:50","新北市板橋區重慶路89巷4號","121.462625","25.0064533333333","6500100","板橋區"
"220003","827-TW","2017/12/28 14:09:44","新北市板橋區新民街9號","121.46394","25.0097766666667","6500100","板橋區"
"220014","829-TW","2017/12/28 14:09:47","新北市板橋區中山路二段90巷43弄15號","121.47689","25.0152033333333","6500100","板橋區"
"220051","830-TW","2017/12/28 14:09:41","新北市板橋區田單街34號","121.48245","25.0281483333333","6500100","板橋區"
"220022","895-R6","2017/12/28 14:09:54","新北市板橋區府中路122號","121.455308333333","25.009465","6500100","板橋區"
"220021","985-R7","2017/12/28 14:09:49","新北市板橋區民權路209號","121.457991666667","25.014935","6500100","板橋區"
"220046","AAC-210","2017/12/28 14:09:48","新北市板橋區新海路135巷4號","121.459911666667","25.0229083333333","6500100","板橋區"
"220018","AAC-253","2017/12/28 14:09:53","新北市板橋區忠孝路41-1號","121.461281666667","25.0020266666667","6500100","板橋區"
