"lineid","car","time","location","longitude","latitude","cityid","cityname"
"249005","172-UM","2017/12/28 17:09:53","新北市八里區華富山5-5號","121.417515","25.144695","6502300","八里區"
"249001","173-UM","2017/12/28 17:09:38","新北市八里區中華路二段329號","121.401835","25.1465733333333","6502300","八里區"
"249004","303-UY","2017/12/28 17:09:33","新北市八里區忠孝路199號","121.422215","25.160845","6502300","八里區"
"249002","305-UY","2017/12/28 17:09:36","新北市八里區龍米路二段147巷7號","121.442158333333","25.1504333333333","6502300","八里區"
"249003","593-UM","2017/12/28 17:09:35","新北市八里區中山路二段401號","121.398081666667","25.1467583333333","6502300","八里區"
"244013","069-UM","2017/12/28 17:09:15","新北市林口區粉寮69號","121.40506","25.0907933333333","6501700","林口區"
"244007","080-UY","2017/12/28 17:09:39","新北市林口區菁埔路23號","121.377648333333","25.0969616666667","6501700","林口區"
"244025","402-UM","2017/12/28 17:09:51","新北市林口區粉寮路二段14號","121.401635","25.0853633333333","6501700","林口區"
"244019","403-UM","2017/12/28 17:09:36","新北市林口區四維路156號","121.380493333333","25.075565","6501700","林口區"
"244023","483-VK","2017/12/28 17:09:52","新北市林口區中山路2號","121.39679","25.0785083333333","6501700","林口區"
"244017","485-VK","2017/12/28 17:09:47","新北市林口區粉寮69號","121.40502","25.09085","6501700","林口區"
"244009","837-TS","2017/12/28 17:09:50","新北市林口區力行路2號","121.393785","25.080375","6501700","林口區"
"244021","838-TS","2017/12/28 17:09:37","新北市林口區粉寮一街130號","121.404785","25.0860683333333","6501700","林口區"
"243011","297-R6","2017/12/28 15:55:13","新北市泰山區黎明路25號","121.421918333333","25.0609866666667","6501600","泰山區"
"243009","KEA-2216","2017/12/28 16:02:13","新北市泰山區黎明路25號","121.421983333333","25.0608566666667","6501600","泰山區"
"231046","278-BY","2017/12/28 17:09:38","新北市新店區直潭路92號","121.53097","24.93768","6500600","新店區"
"241011","013-R5","2017/12/28 17:09:43","新北市三重區龍門路210號","121.49994","25.0734833333333","6500200","三重區"
"241028","022-UY","2017/12/28 17:09:40","新北市三重區重新路三段110號","121.492306666667","25.0603033333333","6500200","三重區"
"241008","059-VK","2017/12/28 17:09:42","新北市三重區力行路二段136巷8號","121.481666666667","25.0755333333333","6500200","三重區"
"241009","060-VK","2017/12/28 17:09:47","新北市三重區三和路四段215巷33-12號","121.4833","25.08012","6500200","三重區"
"241031","061-VK","2017/12/28 17:09:49","新北市三重區重陽路一段113巷2弄2號","121.487426666667","25.05988","6500200","三重區"
"241015","062-VK","2017/12/28 17:09:49","新北市三重區文化北路61-4號","121.498596666667","25.0662966666667","6500200","三重區"
"241017","063-VK","2017/12/28 17:09:36","新北市三重區中正北路25巷2號","121.493333333333","25.0627533333333","6500200","三重區"
"241024","065-VK","2017/12/28 17:09:44","新北市三重區中正北路346號","121.477895","25.06936","6500200","三重區"
"241002","090-VK","2017/12/28 17:09:54","新北市三重區五華街35巷36號","121.495365","25.0814233333333","6500200","三重區"
"241003","091-VK","2017/12/28 17:09:36","新北市三重區進安街198號","121.493833333333","25.0860383333333","6500200","三重區"
"241026","156-TC","2017/12/28 17:09:41","新北市三重區正義南路47號","121.498131666667","25.060665","6500200","三重區"
"241005","262-UM","2017/12/28 17:09:44","新北市三重區仁愛街650號","121.482773333333","25.080625","6500200","三重區"
"241016","266-UM","2017/12/28 17:09:34","新北市三重區大同北路126-1號","121.492873333333","25.0644283333333","6500200","三重區"
"241022","267-UM","2017/12/28 17:09:45","新北市三重區重陽路二段16號","121.486658333333","25.0623516666667","6500200","三重區"
"241018","268-UM","2017/12/28 17:09:40","新北市三重區六張街66號","121.493421666667","25.07004","6500200","三重區"
"241032","269-UM","2017/12/28 17:09:46","新北市三重區興華街12號","121.485796666667","25.0597","6500200","三重區"
"241013","270-UM","2017/12/28 17:09:45","新北市三重區仁昌街40號","121.497153333333","25.0743333333333","6500200","三重區"
"241025","271-UM","2017/12/28 17:09:35","新北市三重區中正北路560巷79號","121.470936666667","25.0689066666667","6500200","三重區"
"241007","398-BY","2017/12/28 17:09:34","新北市三重區三和路四段163巷51號","121.484838333333","25.078995","6500200","三重區"
"241020","413-TH","2017/12/28 17:09:41","新北市三重區後竹圍街175巷2弄1號","121.485813333333","25.0721466666667","6500200","三重區"
"241004","475-VK","2017/12/28 17:09:49","新北市三重區五華街98巷4號","121.492306666667","25.0820966666667","6500200","三重區"
"241019","478-VK","2017/12/28 17:09:38","新北市三重區力行路一段123巷2號","121.486151666667","25.068535","6500200","三重區"
"241030","480-VK","2017/12/28 17:09:54","新北市三重區集成路3號","121.488395","25.051745","6500200","三重區"
"241014","543-UM","2017/12/28 17:09:44","新北市三重區龍濱路191號","121.502051666667","25.071195","6500200","三重區"
"241023","545-UM","2017/12/28 17:09:34","新北市三重區忠孝路三段84巷1號","121.480263333333","25.0644916666667","6500200","三重區"
"241001","547-UM","2017/12/28 17:09:48","新北市三重區仁愛街255巷42-1號","121.494086666667","25.0788133333333","6500200","三重區"
"241006","AAD-863","2017/12/28 17:09:38","新北市三重區三和路四段264巷2弄13號","121.485085","25.0767616666667","6500200","三重區"
"241012","941-UM","2017/12/28 17:09:45","新北市三重區仁壽街201號","121.50044","25.07456","6500200","三重區"
"241029","942-UM","2017/12/28 17:09:46","新北市三重區重新路三段180號","121.490636666667","25.059145","6500200","三重區"
"241033","AAC-255","2017/12/28 17:09:44","新北市三重區中興北街275號","121.469071666667","25.0607833333333","6500200","三重區"
"235024","647-TV","2017/12/28 15:12:29","新北市中和區員山路36巷16-3號","121.48483","24.991745","6500300","中和區"
"235062","800-TS","2017/12/28 16:40:00","新北市中和區員山路36巷16-3號","121.48496","24.9915233333333","6500300","中和區"
"235065","911-UM","2017/12/28 16:49:33","新北市中和區員山路36巷16-3號","121.485103333333","24.99109","6500300","中和區"
"247022","893-R6","2017/12/28 17:09:44","新北市蘆洲區民族路504號","121.469373333333","25.09019","6501400","蘆洲區"
"247012","546-UM","2017/12/28 17:09:42","新北市蘆洲區信義路292巷6號","121.478075","25.0876983333333","6501400","蘆洲區"
"247020","500-BY","2017/12/28 17:09:37","新北市蘆洲區仁愛街62巷8號","121.471846666667","25.09409","6501400","蘆洲區"
"247008","341-TH","2017/12/28 17:09:38","新北市蘆洲區信義路30巷155號","121.475498333333","25.076295","6501400","蘆洲區"
"247010","339-TH","2017/12/28 17:09:35","新北市蘆洲區中山一路122巷53號","121.476351666667","25.082675","6501400","蘆洲區"
"247002","337-TH","2017/12/28 17:09:53","新北市蘆洲區永樂街83號","121.455895","25.0887683333333","6501400","蘆洲區"
"247004","336-TH","2017/12/28 17:09:51","新北市蘆洲區長安街207巷33號","121.458993333333","25.0815583333333","6501400","蘆洲區"
"247016","057-VK","2017/12/28 17:09:43","新北市蘆洲區光華路73巷7號","121.468318333333","25.0823933333333","6501400","蘆洲區"
"247006","056-VK","2017/12/28 17:09:40","新北市蘆洲區長安街108巷37號","121.462158333333","25.0825866666667","6501400","蘆洲區"
"247014","007-UY","2017/12/28 17:09:47","新北市蘆洲區中央路37巷15-15號","121.473213333333","25.0825116666667","6501400","蘆洲區"
"247024","002-UY","2017/12/28 17:09:39","新北市蘆洲區長興路22號","121.464133333333","25.08303","6501400","蘆洲區"
"247018","001-UY","2017/12/28 17:09:41","新北市蘆洲區復興路109號","121.477076666667","25.0879066666667","6501400","蘆洲區"
"228003","097-TW","2017/12/28 17:09:37","新北市貢寮區福隆里東興街10-6號","121.951173333333","25.0195383333333","6502600","貢寮區"
"228001","212-TW","2017/12/28 17:09:48","新北市貢寮區仁理村研海街62-2號","121.925431666667","25.0458933333333","6502600","貢寮區"
"228002","585-TW","2017/12/28 17:09:36","新北市貢寮區龍崗里嵩陽街55號","121.907638333333","25.0166383333333","6502600","貢寮區"
"224010","AGQ-8101","2017/12/28 09:13:11","新北市瑞芳區民權街3-1號","121.809448333333","25.1082716666667","6501200","瑞芳區"
"224006","676-BX","2017/12/28 17:09:45","新北市瑞芳區楓子瀨路112-1號","121.7787","25.0992516666667","6501200","瑞芳區"
"224009","285-BY","2017/12/28 17:09:47","新北市瑞芳區街頂巷36號","121.843645","25.1104216666667","6501200","瑞芳區"
"224008","275-VK","2017/12/28 17:09:36","新北市瑞芳區柴寮路38號","121.827406666667","25.08679","6501200","瑞芳區"
"224007","272-VK","2017/12/28 17:09:49","新北市瑞芳區粗坑口路86巷4號","121.760751666667","25.0991166666667","6501200","瑞芳區"
"224005","271-BY","2017/12/28 17:09:43","新北市瑞芳區鼻頭路127號","121.916393333333","25.1220566666667","6501200","瑞芳區"
"227010","400-TW","2017/12/28 17:09:44","新北市雙溪區三貂里子崙坑1-6號","121.849906666667","25.0574666666667","6502500","雙溪區"
"227004","030-BX","2017/12/28 17:09:46","新北市雙溪區外柑里外柑腳51號","121.808301666667","25.0178916666667","6502500","雙溪區"
"251009","008-UM","2017/12/28 17:09:51","新北市淡水區三民街20號","121.43905","25.1717633333333","6501000","淡水區"
"251004","009-UM","2017/12/28 17:09:44","新北市淡水區中山路1號","121.444236666667","25.16957","6501000","淡水區"
"251005","010-UM","2017/12/28 17:09:48","新北市淡水區建設街1巷1號","121.439098333333","25.172735","6501000","淡水區"
"251007","179-VK","2017/12/28 17:09:54","新北市淡水區民權路20號","121.459891666667","25.1377716666667","6501000","淡水區"
"251008","181-VK","2017/12/28 17:09:33","新北市淡水區樹梅坑7-6號","121.472216666667","25.1440616666667","6501000","淡水區"
"251014","182-VK","2017/12/28 17:09:45","新北市淡水區八里堆9-8號","121.464316666667","25.223335","6501000","淡水區"
"251010","413-VK","2017/12/28 17:09:38","新北市淡水區新市五路二段75號","121.431283333333","25.1982766666667","6501000","淡水區"
"251012","441-VK","2017/12/28 17:09:46","新北市淡水區中山北路一段158號","121.444246666667","25.177915","6501000","淡水區"
"251016","442-VK","2017/12/28 17:09:54","新北市淡水區社厝坑3-11號","121.47526","25.188895","6501000","淡水區"
"251006","561-UM","2017/12/28 17:09:51","新北市淡水區中正路一段104號","121.42393","25.1778666666667","6501000","淡水區"
"251011","650-BX","2017/12/28 17:09:44","新北市淡水區坪頂路50號","121.457898333333","25.1624616666667","6501000","淡水區"
"251003","766-UM","2017/12/28 17:09:49","新北市淡水區中正路二段31號","121.419378333333","25.181425","6501000","淡水區"
"252002","178-VK","2017/12/28 17:09:36","新北市三芝區忠孝街1-8號","121.505618333333","25.2543616666667","6502100","三芝區"
"252001","292-VK","2017/12/28 17:09:46","新北市三芝區埔頭里埔頭43-3號","121.499931666667","25.2613566666667","6502100","三芝區"
"242031","AAC-296","2017/12/28 11:09:10","新北市新莊區新泰路357巷3弄57號","121.442231666667","25.0395366666667","6500500","新莊區"
"242029","986-R7","2017/12/28 17:09:44","新北市新莊區新泰路357巷1弄57號","121.442575","25.039515","6500500","新莊區"
"242051","751-BX","2017/12/28 17:09:52","新北市新莊區新泰路415-1號","121.4422","25.044335","6500500","新莊區"
"242025","615-BX","2017/12/28 17:09:48","新北市新莊區三和路12-21號","121.44242","25.0385233333333","6500500","新莊區"
"242023","613-BX","2017/12/28 17:09:46","新北市新莊區新泰路255巷83號","121.442151666667","25.03902","6500500","新莊區"
"242039","566-BX","2017/12/28 17:09:36","新北市新莊區三和路12-10號","121.441973333333","25.036765","6500500","新莊區"
"242044","442-UM","2017/12/28 17:09:35","新北市新莊區中正路535號","121.438725","25.0333116666667","6500500","新莊區"
"242048","441-UM","2017/12/28 17:09:50","新北市新莊區中正路723號","121.42363","25.02921","6500500","新莊區"
"242053","440-UM","2017/12/28 17:09:46","新北市新莊區三和路12-18號","121.442","25.0376533333333","6500500","新莊區"
"242034","415-TV","2017/12/28 17:09:40","新北市新莊區新泰路357巷3弄57號","121.442123333333","25.0393316666667","6500500","新莊區"
"242042","400-BY","2017/12/28 17:09:43","新北市新莊區新泰路255巷83號","121.442223333333","25.0388466666667","6500500","新莊區"
"242061","362-BY","2017/12/28 17:09:45","新北市新莊區公園一路75巷13號","121.44252","25.0383833333333","6500500","新莊區"
"242058","353-BY","2017/12/28 17:09:38","新北市新莊區新泰路255巷83號","121.442438333333","25.03896","6500500","新莊區"
"242007","132-UY","2017/12/28 17:09:39","新北市新莊區三和路12-21號","121.442011666667","25.0388533333333","6500500","新莊區"
"242036","133-UY","2017/12/28 17:09:43","新北市泰山區磚雅厝3號","121.442185","25.0416266666667","6500500","新莊區"
"242021","135-UY","2017/12/28 15:06:19","新北市新莊區三和路12-21號","121.441866666667","25.0388166666667","6500500","新莊區"
"242046","172-VK","2017/12/28 14:44:40","新北市新莊區三和路12-21號","121.44209","25.0386616666667","6500500","新莊區"
"242009","173-VK","2017/12/28 10:58:57","新北市新莊區三和路12-21號","121.441746666667","25.0386383333333","6500500","新莊區"
"242015","175-VK","2017/12/28 17:09:42","新北市新莊區三和路12-21號","121.441993333333","25.0386733333333","6500500","新莊區"
"242002","176-VK","2017/12/28 17:09:45","新北市新莊區三和路12-21號","121.441871666667","25.038565","6500500","新莊區"
"242013","346-TH","2017/12/28 09:20:21","新北市新莊區三和路12-17號","121.442143333333","25.0375366666667","6500500","新莊區"
"242019","348-TH","2017/12/28 17:09:32","新北市新莊區三和路12-9號","121.442321666667","25.036615","6500500","新莊區"
"242017","350-TH","2017/12/28 17:09:36","新北市新莊區新泰路357巷3弄51號","121.44233","25.0399716666667","6500500","新莊區"
"242011","351-TH","2017/12/28 17:09:48","新北市新莊區新泰路357巷3弄57號","121.442","25.0394383333333","6500500","新莊區"
"238023","601-UM","2017/12/28 17:09:36","新北市樹林區中正路433-2號","121.414998333333","25.008495","6500700","樹林區"
"238019","599-UM","2017/12/28 17:09:44","新北市樹林區太平路247巷30號","121.42079","24.9755883333333","6500700","樹林區"
"238018","571-TV","2017/12/28 17:09:41","新北市樹林區水源街54號","121.425775","24.98106","6500700","樹林區"
"238024","5061-A6","2017/12/28 17:09:54","新北市樹林區鎮前街77-21號","121.424868333333","24.9900816666667","6500700","樹林區"
"238022","KEA-2213","2017/12/28 17:09:33","新北市樹林區八德街263-1號","121.419265","24.9738766666667","6500700","樹林區"
"238017","283-BY","2017/12/28 17:09:48","新北市樹林區光武街7-3號","121.415835","25.0053033333333","6500700","樹林區"
"238001","282-BY","2017/12/28 17:09:51","新北市樹林區大慶街99-1號","121.427663333333","24.9996016666667","6500700","樹林區"
"238026","172-UY","2017/12/28 17:09:49","新北市樹林區新興街63號","121.39985","24.9710266666667","6500700","樹林區"
"238016","169-UY","2017/12/28 17:09:50","新北市樹林區八德街1號","121.417538333333","24.9849616666667","6500700","樹林區"
"239007","AAC-297","2017/12/28 17:09:51","新北市鶯歌區公有市場16號","121.35336","24.9541616666667","6500800","鶯歌區"
"239006","891-R6","2017/12/28 17:09:47","新北市鶯歌區八德路2巷37弄8號","121.33701","24.946515","6500800","鶯歌區"
"239008","527-UM","2017/12/28 17:09:39","新北市鶯歌區文化路136巷1-1號","121.35166","24.9509983333333","6500800","鶯歌區"
"239005","526-UM","2017/12/28 17:09:37","新北市鶯歌區德昌街27號","121.333308333333","24.9598083333333","6500800","鶯歌區"
"239001","417-VK","2017/12/28 17:09:45","新北市鶯歌區尖山路140巷33號","121.346281666667","24.9493283333333","6500800","鶯歌區"
"239003","360-BY","2017/12/28 17:09:50","新北市鶯歌區八德路50號","121.330078333333","24.9557466666667","6500800","鶯歌區"
"239002","359-BY","2017/12/28 17:09:39","新北市鶯歌區建國路247號","121.34824","24.9534033333333","6500800","鶯歌區"
"239004","193-VK","2017/12/28 17:09:50","新北市鶯歌區文化路324巷1-10號","121.351316666667","24.9451366666667","6500800","鶯歌區"
"221012","276-VK","2017/12/28 13:38:34","新北市汐止區汐萬路一段256巷3號","121.65341","25.0746066666667","6501100","汐止區"
"220010","303-R5","2017/12/28 16:38:28","新北市板橋區民生路二段120號","121.470485","25.0197566666667","6500100","板橋區"
"242056","280-VK","2017/12/28 17:09:48","新北市新莊區三和路12-21號","121.44195","25.0382383333333","6500500","新莊區"
