"lineid","car","time","location","longitude","latitude","cityid","cityname"
"234026","9371-KE","2017/12/28 17:59:45","新北市永和區永和路一段35號","121.512988333333","25.0059733333333","6500400","永和區"
"249005","172-UM","2017/12/28 17:59:53","新北市八里區荖阡坑路20號","121.397246666667","25.1363433333333","6502300","八里區"
"249001","173-UM","2017/12/28 17:59:37","新北市八里區龍米路二段35號","121.448498333333","25.1400516666667","6502300","八里區"
"249004","303-UY","2017/12/28 17:59:33","新北市八里區龍米路三段49-1號","121.424125","25.1589116666667","6502300","八里區"
"249002","305-UY","2017/12/28 17:59:36","新北市八里區龍米路一段430號","121.450998333333","25.1338233333333","6502300","八里區"
"249003","593-UM","2017/12/28 17:59:35","新北市八里區中山路二段179號","121.404798333333","25.1502216666667","6502300","八里區"
"248016","026-BX","2017/12/28 17:59:52","新北市五股區中興路二段103巷16號","121.458643333333","25.0761416666667","6501500","五股區"
"248006","077-UY","2017/12/28 17:59:54","新北市五股區中興路二段37巷28號","121.460128333333","25.0748733333333","6501500","五股區"
"248007","095-VK","2017/12/28 17:59:40","新北市五股區更洲路20號","121.458053333333","25.0790316666667","6501500","五股區"
"248020","225-UY","2017/12/28 17:59:46","新北市五股區中興路二段83巷26-6號","121.460063333333","25.0752033333333","6501500","五股區"
"248012","247-BX","2017/12/28 17:59:43","新北市五股區中興路二段37巷28號","121.460186666667","25.0750966666667","6501500","五股區"
"248014","261-SL","2017/12/28 17:59:48","新北市五股區更洲路47號","121.456958333333","25.0788516666667","6501500","五股區"
"248010","272-BY","2017/12/28 17:59:38","新北市五股區中興路二段103巷14號","121.45822","25.0765616666667","6501500","五股區"
"248004","677-BX","2017/12/28 17:59:43","新北市五股區中興路二段83巷26-6號","121.460033333333","25.0752166666667","6501500","五股區"
"248002","678-BX","2017/12/28 17:59:55","新北市五股區中興路二段37巷28號","121.460055","25.0748983333333","6501500","五股區"
"232011","375-UM","2017/12/28 17:59:51","新北市坪林區北宜路八段301號","121.710913333333","24.9342083333333","6502000","坪林區"
"244013","069-UM","2017/12/28 17:59:35","新北市林口區林口路31號","121.390925","25.078615","6501700","林口區"
"244007","080-UY","2017/12/28 17:59:39","新北市林口區林口路162號","121.387791666667","25.0825183333333","6501700","林口區"
"244025","402-UM","2017/12/28 17:59:51","新北市林口區文化三路一段39巷96號","121.359065","25.0667983333333","6501700","林口區"
"244019","403-UM","2017/12/28 17:59:36","新北市林口區忠孝路552巷17-1號","121.374131666667","25.0671683333333","6501700","林口區"
"244023","483-VK","2017/12/28 17:59:52","新北市林口區東湖路75巷53號","121.385483333333","25.0719016666667","6501700","林口區"
"244017","485-VK","2017/12/28 17:59:47","新北市林口區文化二路一段232號","121.369678333333","25.0726466666667","6501700","林口區"
"244011","656-BX","2017/12/28 17:59:41","新北市林口區中正路266號","121.389385","25.07769","6501700","林口區"
"244009","837-TS","2017/12/28 17:59:50","新北市林口區竹林路582巷11號","121.386068333333","25.08332","6501700","林口區"
"244021","838-TS","2017/12/28 17:59:37","新北市林口區新寮29號","121.39848","25.0669933333333","6501700","林口區"
"243015","380-SR","2017/12/28 17:45:49","新北市泰山區犁頭窠3-1號","121.422271666667","25.0604533333333","6501600","泰山區"
"243009","KEA-2216","2017/12/28 16:02:13","新北市泰山區黎明路25號","121.421983333333","25.0608566666667","6501600","泰山區"
"243013","646-TV","2017/12/28 17:59:52","新北市泰山區黎明路37-1號","121.421543333333","25.0596366666667","6501600","泰山區"
"243016","680-BX","2017/12/28 17:36:47","新北市泰山區黎明路25號","121.422421666667","25.06068","6501600","泰山區"
"222003","436-BY","2017/12/28 17:59:42","新北市深坑區炮子崙12-1號","121.604355","24.9860116666667","6501800","深坑區"
"222002","659-BX","2017/12/28 17:59:52","新北市深坑區文化街98號","121.617101666667","25.001865","6501800","深坑區"
"222001","696-SL","2017/12/28 17:59:49","新北市深坑區北深路二段187號","121.612223333333","25.0011566666667","6501800","深坑區"
"231046","278-BY","2017/12/28 17:59:38","新北市新店區康雅崙路1號","121.54047","24.9261583333333","6500600","新店區"
"241016","266-UM","2017/12/28 17:59:54","新北市三重區頂崁街99號","121.476375","25.0616183333333","6500200","三重區"
"241024","462-BY","2017/12/28 17:59:50","新北市三重區大勇街18號","121.482871666667","25.07147","6500200","三重區"
"241030","480-VK","2017/12/28 17:59:53","新北市八里區中山路三段323號","121.377596666667","25.1413316666667","6500200","三重區"
"241033","AAC-255","2017/12/28 17:59:44","新北市三重區重新路五段599號","121.469498333333","25.04553","6500200","三重區"
"235064","005-UY","2017/12/28 17:59:37","新北市中和區員山路36巷16-3號","121.485035","24.9913083333333","6500300","中和區"
"235063","006-UY","2017/12/28 17:59:48","新北市中和區員山路36巷16-3號","121.484915","24.991195","6500300","中和區"
"235058","151-BY","2017/12/28 17:59:42","新北市中和區錦和路350-1號","121.490178333333","24.99354","6500300","中和區"
"235038","185-VK","2017/12/28 17:59:54","新北市中和區錦和路216號","121.490318333333","24.9938783333333","6500300","中和區"
"235061","378-QA","2017/12/28 15:26:52","新北市中和區員山路36巷16號","121.484551666667","24.9914266666667","6500300","中和區"
"235042","551-UM","2017/12/28 17:59:46","新北市中和區錦和路350-1號","121.490235","24.9935533333333","6500300","中和區"
"235024","647-TV","2017/12/28 17:59:54","新北市中和區員山路36巷16-3號","121.4851","24.9914566666667","6500300","中和區"
"235062","800-TS","2017/12/28 17:59:43","新北市中和區連城路467-5號","121.483648333333","24.9961416666667","6500300","中和區"
"235065","911-UM","2017/12/28 17:59:55","新北市中和區新生街287號","121.483775","24.9975216666667","6500300","中和區"
"235051","157-BY","2017/12/28 17:59:50","新北市中和區和城路一段271巷1號","121.485473333333","24.9920183333333","6500300","中和區"
"235037","AAC-213","2017/12/28 17:59:46","新北市中和區中正路589巷15號","121.485721666667","24.9937166666667","6500300","中和區"
"247012","546-UM","2017/12/28 17:59:42","新北市蘆洲區民族路167巷15號","121.478246666667","25.088275","6501400","蘆洲區"
"247020","500-BY","2017/12/28 17:59:37","新北市蘆洲區民權路121巷15弄2號","121.471225","25.0891633333333","6501400","蘆洲區"
"247010","339-TH","2017/12/28 17:59:35","新北市蘆洲區信義路259巷14號","121.478163333333","25.0845483333333","6501400","蘆洲區"
"247002","337-TH","2017/12/28 17:59:53","新北市蘆洲區永平街32巷45弄35號","121.458331666667","25.09298","6501400","蘆洲區"
"247016","057-VK","2017/12/28 17:59:44","新北市蘆洲區光華路186巷65號","121.465195","25.08399","6501400","蘆洲區"
"247006","056-VK","2017/12/28 17:59:40","新北市蘆洲區中華街41號","121.462925","25.0812233333333","6501400","蘆洲區"
"247014","007-UY","2017/12/28 17:59:47","新北市蘆洲區光明路139號","121.464406666667","25.0886333333333","6501400","蘆洲區"
"247024","002-UY","2017/12/28 17:59:39","新北市蘆洲區光復路39-2號","121.462856666667","25.08505","6501400","蘆洲區"
"247018","001-UY","2017/12/28 17:59:41","新北市蘆洲區復興路292號","121.48095","25.0899516666667","6501400","蘆洲區"
"226004","312-R5","2017/12/28 08:48:25","新北市平溪區靜安路二段295號","121.733261666667","25.025515","6502400","平溪區"
"228003","097-TW","2017/12/28 17:59:37","新北市貢寮區真理里美艷山街6-2號","121.929025","25.06106","6502600","貢寮區"
"228001","212-TW","2017/12/28 17:59:48","新北市貢寮區真理里新港街26巷50號","121.927796666667","25.0532483333333","6502600","貢寮區"
"228002","585-TW","2017/12/28 17:59:35","新北市貢寮區福隆里桂安街17號","121.966158333333","25.0223366666667","6502600","貢寮區"
"224006","676-BX","2017/12/28 17:59:55","新北市瑞芳區傑魚坑路185號","121.788288333333","25.1079666666667","6501200","瑞芳區"
"224002","639-TC","2017/12/28 17:59:48","新北市瑞芳區三爪子坑路32巷1號","121.8102","25.10599","6501200","瑞芳區"
"224009","285-BY","2017/12/28 17:59:47","新北市瑞芳區新山路14號","121.852483333333","25.11089","6501200","瑞芳區"
"224008","275-VK","2017/12/28 17:59:56","新北市瑞芳區員山子路23號","121.82138","25.1029833333333","6501200","瑞芳區"
"224007","272-VK","2017/12/28 17:59:53","新北市瑞芳區大寮路84號","121.780416666667","25.1013116666667","6501200","瑞芳區"
"224005","271-BY","2017/12/28 17:59:43","新北市瑞芳區深澳路145號","121.820318333333","25.13334","6501200","瑞芳區"
"253005","032-BX","2017/12/28 17:59:49","新北市石門區中山路62-11號","121.567538333333","25.2896716666667","6502200","石門區"
"253006","741-TV","2017/12/28 17:59:48","新北市石門區大丘田45-3號","121.549533333333","25.2771066666667","6502200","石門區"
"208002","742-BX","2017/12/28 17:59:52","新北市金山區三界壇路81號","121.625273333333","25.228485","6502700","金山區"
"208003","665-BX","2017/12/28 17:59:49","新北市金山區磺港里磺港路309號","121.644108333333","25.2276","6502700","金山區"
"208001","761-BX","2017/12/28 17:59:54","新北市金山區磺港里磺港路169號","121.643366666667","25.22478","6502700","金山區"
"251009","008-UM","2017/12/28 17:59:51","新北市淡水區原德路1號","121.441816666667","25.1709633333333","6501000","淡水區"
"251004","009-UM","2017/12/28 17:59:44","新北市淡水區民權路187巷34號","121.460585","25.1334483333333","6501000","淡水區"
"251005","010-UM","2017/12/28 17:59:48","新北市淡水區英專路122巷1號","121.44665","25.17275","6501000","淡水區"
"251001","011-UM","2017/12/28 17:59:54","新北市淡水區民權路15號","121.46318","25.1244533333333","6501000","淡水區"
"251008","181-VK","2017/12/28 17:59:53","新北市淡水區八勢一街43-8號","121.46193","25.15576","6501000","淡水區"
"251014","182-VK","2017/12/28 17:59:45","新北市淡水區公埔子16-6號","121.481008333333","25.224565","6501000","淡水區"
"251010","413-VK","2017/12/28 17:59:38","新北市淡水區淡海路46號","121.42315","25.18002","6501000","淡水區"
"251012","441-VK","2017/12/28 17:59:46","新北市淡水區北新路三段38巷5號","121.484451666667","25.1870283333333","6501000","淡水區"
"251016","442-VK","2017/12/28 17:59:40","新北市淡水區埤島30-13號","121.447901666667","25.1982283333333","6501000","淡水區"
"251006","561-UM","2017/12/28 17:59:51","新北市淡水區真理街2號","121.43878","25.1730233333333","6501000","淡水區"
"251011","650-BX","2017/12/28 17:59:45","新北市淡水區三空泉6-3號","121.476963333333","25.16239","6501000","淡水區"
"251002","672-BX","2017/12/28 17:59:53","新北市淡水區鼻頭街18-5號","121.446753333333","25.1667283333333","6501000","淡水區"
"251003","766-UM","2017/12/28 17:59:49","新北市淡水區大忠街113巷20號","121.447298333333","25.1774233333333","6501000","淡水區"
"207003","550-UM","2017/12/28 17:59:38","新北市萬里區港東路野柳風景區攤販66號","121.69134","25.20585","6502800","萬里區"
"207004","225-TW","2017/12/28 17:59:42","新北市萬里區中幅里中福路48號","121.683295","25.1740933333333","6502800","萬里區"
"252002","178-VK","2017/12/28 17:59:36","新北市三芝區中山路二段45號","121.502906666667","25.2547933333333","6502100","三芝區"
"252001","292-VK","2017/12/28 17:59:46","新北市三芝區中興街一段32號","121.497923333333","25.2574933333333","6502100","三芝區"
"237004","078-UY","2017/12/28 17:59:35","新北市三峽區中正路二段46-1號","121.366856666667","24.9192133333333","6500900","三峽區"
"237007","153-BY","2017/12/28 17:59:51","新北市三峽區中園街125號","121.367533333333","24.9236516666667","6500900","三峽區"
"237009","210-TH","2017/12/28 17:59:45","新北市三峽區中山路106巷9號","121.366078333333","24.93613","6500900","三峽區"
"237013","252-BX","2017/12/28 17:59:40","新北市三峽區介壽路一段197號","121.378123333333","24.930715","6500900","三峽區"
"237012","275-BY","2017/12/28 17:59:34","新北市三峽區民生街27巷26號","121.376033333333","24.9358966666667","6500900","三峽區"
"237008","302-VK","2017/12/28 17:59:54","新北市三峽區正義街153號","121.368198333333","24.9152366666667","6500900","三峽區"
"237014","433-BY","2017/12/28 17:59:38","新北市三峽區復興路101巷1弄28號","121.370993333333","24.9377316666667","6500900","三峽區"
"237006","5529-G3","2017/12/28 17:59:40","新北市三峽區介壽路二段136巷114號","121.39225","24.9329066666667","6500900","三峽區"
"237011","572-TV","2017/12/28 13:09:16","新北市三峽區中山路459巷163-3號","121.348653333333","24.9330233333333","6500900","三峽區"
"237016","649-BX","2017/12/28 17:59:52","新北市三峽區紫微路105號","121.409335","24.9118633333333","6500900","三峽區"
"237010","706-TV","2017/12/28 17:59:36","新北市三峽區仁愛街18號","121.368335","24.9322166666667","6500900","三峽區"
"237005","AKY-6261","2017/12/28 17:59:55","新北市三峽區復興路235號","121.368228333333","24.9387533333333","6500900","三峽區"
"236071","105-UM","2017/12/28 17:59:38","新北市土城區青雲路663號","121.464621666667","24.9658","6501300","土城區"
"236042","107-UM","2017/12/28 17:59:47","新北市土城區城林路6巷80號","121.43847","24.9797183333333","6501300","土城區"
"236078","166-UM","2017/12/28 17:59:40","新北市土城區永寧路32巷10弄1號","121.428938333333","24.96102","6501300","土城區"
"236030","253-BX","2017/12/28 17:59:49","新北市土城區城林路6巷80號","121.43849","24.979765","6501300","土城區"
"236014","270-VK","2017/12/28 17:59:47","新北市土城區城林路6巷80號","121.438143333333","24.9796216666667","6501300","土城區"
"236037","271-VK","2017/12/28 17:59:50","新北市土城區城林路6巷80號","121.438418333333","24.9797233333333","6501300","土城區"
"236021","401-BY","2017/12/28 17:59:33","新北市土城區城林路6巷80號","121.438451666667","24.9798","6501300","土城區"
"236058","912-UM","2017/12/28 17:59:53","新北市土城區永寧路1號","121.430501666667","24.9648","6501300","土城區"
"236051","913-UM","2017/12/28 17:59:41","新北市土城區城林路6巷80號","121.438566666667","24.979665","6501300","土城區"
"236062","915-UM","2017/12/28 17:59:38","新北市土城區城林路6巷80號","121.438525","24.9797933333333","6501300","土城區"
"236053","AAC-216","2017/12/28 17:59:46","新北市土城區城林路6巷80號","121.438443333333","24.9795983333333","6501300","土城區"
"242031","AAC-296","2017/12/28 17:59:54","新北市新莊區新泰路316號","121.445153333333","25.0415283333333","6500500","新莊區"
"242029","986-R7","2017/12/28 17:59:44","新北市新莊區中平路50號","121.444816666667","25.0439833333333","6500500","新莊區"
"242051","751-BX","2017/12/28 17:59:52","新北市新莊區龍安路496號","121.426298333333","25.01715","6500500","新莊區"
"242025","615-BX","2017/12/28 17:59:49","新北市新莊區五工路58號","121.458795","25.0629066666667","6500500","新莊區"
"242023","613-BX","2017/12/28 17:59:46","新北市新莊區福壽街65號","121.458243333333","25.0492766666667","6500500","新莊區"
"242027","612-BX","2017/12/28 17:59:46","新北市新莊區思源路333號","121.459771666667","25.0497133333333","6500500","新莊區"
"242039","566-BX","2017/12/28 17:59:35","新北市新莊區民安西路26號","121.426735","25.0213183333333","6500500","新莊區"
"242044","442-UM","2017/12/28 17:59:40","新北市新莊區雙鳳路157號","121.412875","25.0269383333333","6500500","新莊區"
"242048","441-UM","2017/12/28 17:59:50","新北市新莊區後港二路18-1號","121.422588333333","25.0236733333333","6500500","新莊區"
"242053","440-UM","2017/12/28 17:59:47","新北市新莊區光華街46號","121.428738333333","25.0116516666667","6500500","新莊區"
"242034","415-TV","2017/12/28 17:59:49","新北市新莊區景德路397號","121.445516666667","25.033335","6500500","新莊區"
"242004","413-TV","2017/12/28 17:59:40","新北市新莊區福樂街74號","121.458025","25.0466133333333","6500500","新莊區"
"242042","400-BY","2017/12/28 17:59:43","新北市新莊區中正路857號","121.419653333333","25.0281216666667","6500500","新莊區"
"242061","362-BY","2017/12/28 17:59:45","新北市新莊區新樹路465號","121.432643333333","25.013065","6500500","新莊區"
"242058","353-BY","2017/12/28 17:59:38","新北市新莊區雙鳳路134巷3號","121.412793333333","25.0280116666667","6500500","新莊區"
"242007","132-UY","2017/12/28 17:59:51","新北市新莊區自信街46號","121.45484","25.0481983333333","6500500","新莊區"
"242036","133-UY","2017/12/28 17:59:42","新北市新莊區中正路683號","121.426095","25.02998","6500500","新莊區"
"242021","135-UY","2017/12/28 17:59:45","新北市新莊區建興街39巷2號","121.450083333333","25.0368916666667","6500500","新莊區"
"242046","172-VK","2017/12/28 17:59:52","新北市新莊區福營路165巷36號","121.432898333333","25.0298333333333","6500500","新莊區"
"242009","173-VK","2017/12/28 17:59:50","新北市新莊區中華路二段260號","121.45261","25.05316","6500500","新莊區"
"242015","175-VK","2017/12/28 17:59:42","新北市新莊區中平路87巷8號","121.444236666667","25.045765","6500500","新莊區"
"242002","176-VK","2017/12/28 17:59:45","新北市新莊區大觀街42巷15號","121.454365","25.035995","6500500","新莊區"
"242013","346-TH","2017/12/28 17:59:33","新北市新莊區中和街122號","121.447475","25.0477633333333","6500500","新莊區"
"242019","348-TH","2017/12/28 17:59:32","新北市新莊區明中街18號","121.457485","25.039325","6500500","新莊區"
"242017","350-TH","2017/12/28 17:59:36","新北市新莊區中和街60巷15號","121.448558333333","25.0448216666667","6500500","新莊區"
"242011","351-TH","2017/12/28 17:59:48","新北市新莊區中港路中慶巷33號","121.449541666667","25.0537466666667","6500500","新莊區"
"238015","755-BX","2017/12/28 17:59:45","新北市樹林區大安路307巷1弄3號","121.418226666667","24.99216","6500700","樹林區"
"238023","601-UM","2017/12/28 17:59:56","新北市樹林區龍興街31巷6號","121.403376666667","25.0160116666667","6500700","樹林區"
"238019","599-UM","2017/12/28 17:59:44","新北市樹林區水源街32巷65號","121.425061666667","24.980165","6500700","樹林區"
"238018","571-TV","2017/12/28 17:59:41","新北市樹林區中正路7-1號","121.43026","24.9976016666667","6500700","樹林區"
"238021","KEA-2217","2017/12/28 17:59:47","新北市樹林區柑園街一段36-8號","121.405498333333","24.9615266666667","6500700","樹林區"
"238022","KEA-2213","2017/12/28 17:59:53","新北市樹林區太元街75號","121.419173333333","24.9784383333333","6500700","樹林區"
"238025","303-VK","2017/12/28 17:59:51","新北市樹林區三俊街63號","121.413605","25.0157116666667","6500700","樹林區"
"238017","283-BY","2017/12/28 17:59:48","新北市樹林區三德街1號","121.412561666667","25.01283","6500700","樹林區"
"238001","282-BY","2017/12/28 17:59:50","新北市樹林區大安路117號","121.422455","24.9977416666667","6500700","樹林區"
"238020","268-VK","2017/12/28 17:59:34","新北市樹林區俊興街298號","121.418556666667","25.017895","6500700","樹林區"
"238026","172-UY","2017/12/28 17:59:49","新北市樹林區佳園路一段46號","121.392928333333","24.9708766666667","6500700","樹林區"
"238016","169-UY","2017/12/28 17:59:50","新北市樹林區啟智街151巷5號","121.416503333333","24.98772","6500700","樹林區"
"239007","AAC-297","2017/12/28 17:59:47","新北市鶯歌區永樂街34號","121.341986666667","24.9538766666667","6500800","鶯歌區"
"239006","891-R6","2017/12/28 17:59:46","新北市鶯歌區鶯桃路413巷70號","121.330065","24.9631266666667","6500800","鶯歌區"
"239008","527-UM","2017/12/28 17:59:39","新北市鶯歌區欣欣街4-3號","121.335591666667","24.9773016666667","6500800","鶯歌區"
"239005","526-UM","2017/12/28 17:59:37","新北市鶯歌區鶯桃路658巷49-2號","121.330918333333","24.97039","6500800","鶯歌區"
"239001","417-VK","2017/12/28 17:59:25","新北市鶯歌區中正三路156巷1號","121.33423","24.9389233333333","6500800","鶯歌區"
"239003","360-BY","2017/12/28 17:59:49","新北市鶯歌區永吉街7巷1號","121.336685","24.9585566666667","6500800","鶯歌區"
"239002","359-BY","2017/12/28 17:59:39","新北市鶯歌區光明街31號","121.34836","24.955895","6500800","鶯歌區"
"239004","193-VK","2017/12/28 17:59:50","新北市鶯歌區二甲路13號","121.344198333333","24.93542","6500800","鶯歌區"
"221008","489-VK","2017/12/28 17:59:54","新北市汐止區明峰街20號","121.63459","25.0714733333333","6501100","汐止區"
"221036","130-UY","2017/12/28 17:59:46","新北市汐止區大同路三段40號","121.667113333333","25.0766233333333","6501100","汐止區"
"221010","269-BY","2017/12/28 17:59:50","新北市汐止區汐萬路二段216巷9號","121.647676666667","25.0874333333333","6501100","汐止區"
"221012","276-VK","2017/12/28 13:38:34","新北市汐止區汐萬路一段256巷3號","121.65341","25.0746066666667","6501100","汐止區"
"221012","278-VK","2017/12/28 17:59:54","新北市汐止區長興街二段50巷2弄4號","121.673866666667","25.0817366666667","6501100","汐止區"
"221023","279-VK","2017/12/28 17:59:40","新北市汐止區民族六街2巷1號","121.629091666667","25.07071","6501100","汐止區"
"221032","280-BY","2017/12/28 17:59:51","新北市汐止區橫科路73巷2-1號","121.619413333333","25.050795","6501100","汐止區"
"221027","281-BY","2017/12/28 17:59:42","新北市汐止區大同路二段374號","121.657853333333","25.0670666666667","6501100","汐止區"
"221029","298-VK","2017/12/28 17:59:41","新北市汐止區樟樹二路263號","121.640993333333","25.0687833333333","6501100","汐止區"
"221021","299-VK","2017/12/28 17:59:44","新北市汐止區新興路32號","121.656678333333","25.06431","6501100","汐止區"
"221031","353-TW","2017/12/28 17:59:50","新北市汐止區中興路143號","121.631415","25.0656216666667","6501100","汐止區"
"221015","567-BX","2017/12/28 17:59:45","新北市汐止區長江街271號","121.66456","25.08058","6501100","汐止區"
"221035","622-UM","2017/12/28 17:59:47","新北市汐止區汐萬路一段115巷2號","121.654291666667","25.070835","6501100","汐止區"
"221025","623-UM","2017/12/28 17:59:35","新北市汐止區仁愛路39號","121.659558333333","25.0634183333333","6501100","汐止區"
"221038","646-BX","2017/12/28 17:59:38","新北市汐止區連興街116號","121.653656666667","25.0626466666667","6501100","汐止區"
"221033","647-BX","2017/12/28 17:59:40","新北市汐止區合順街39巷1號","121.62062","25.0432866666667","6501100","汐止區"
"221002","707-TV","2017/12/28 17:59:47","新北市汐止區工建路202號","121.636848333333","25.0626733333333","6501100","汐止區"
"221018","753-BX","2017/12/28 17:59:48","新北市汐止區招商街11巷2號","121.666626666667","25.0686383333333","6501100","汐止區"
"220010","303-R5","2017/12/28 16:38:28","新北市板橋區民生路二段120號","121.470485","25.0197566666667","6500100","板橋區"
"242056","280-VK","2017/12/28 17:59:48","新北市新莊區豐年街124巷18號","121.445488333333","25.029915","6500500","新莊區"
