"lineid","car","time","location","longitude","latitude","cityid","cityname"
"234046","148-BY","2017/12/28 18:39:51","新北市永和區秀朗路二段66巷9號","121.522701666667","25.0013616666667","6500400","永和區"
"234013","149-BY","2017/12/28 18:39:54","新北市永和區保安路96號","121.509525","25.0159666666667","6500400","永和區"
"234007","207-UY","2017/12/28 18:39:50","新北市永和區文化路170號","121.51176","25.0155066666667","6500400","永和區"
"234038","336-UY","2017/12/28 18:39:18","新北市永和區福和路1號","121.526488333333","25.0100866666667","6500400","永和區"
"234064","337-UY","2017/12/28 18:39:41","新北市永和區福和路1號","121.526491666667","25.0099533333333","6500400","永和區"
"234086","338-UY","2017/12/28 18:39:53","新北市永和區安樂路174號","121.514848333333","25.001125","6500400","永和區"
"234017","745-BX","2017/12/28 18:39:56","新北市永和區福和路1號","121.526458333333","25.0099533333333","6500400","永和區"
"234030","746-BX","2017/12/28 18:38:57","新北市永和區成功路一段44號","121.527001666667","25.0043333333333","6500400","永和區"
"234061","AAD-866","2017/12/28 18:39:52","新北市永和區環河東路二段90號","121.524375","25.0106566666667","6500400","永和區"
"234070","847-RS","2017/12/28 18:39:38","新北市永和區福和路1號","121.526386666667","25.009785","6500400","永和區"
"234042","862-TW","2017/12/28 18:39:49","新北市永和區福和路229-1號","121.518636666667","25.00756","6500400","永和區"
"234026","9371-KE","2017/12/28 18:39:45","新北市永和區永和路一段45號","121.51293","25.0064816666667","6500400","永和區"
"234011","9373-KE","2017/12/28 18:39:44","新北市永和區文化路9巷22弄44號","121.514145","25.01451","6500400","永和區"
"249005","172-UM","2017/12/28 18:39:53","新北市八里區中華路三段196號","121.388126666667","25.1255916666667","6502300","八里區"
"249001","173-UM","2017/12/28 18:39:37","新北市八里區龍米路一段360號","121.451566666667","25.1313433333333","6502300","八里區"
"249004","303-UY","2017/12/28 18:39:52","新北市八里區忠四街9號","121.424946666667","25.1606383333333","6502300","八里區"
"249002","305-UY","2017/12/28 18:39:36","新北市八里區頂寮二街138號","121.44933","25.129455","6502300","八里區"
"248016","026-BX","2017/12/28 18:39:52","新北市五股區凌雲路一段149巷13-1號","121.448623333333","25.10087","6501500","五股區"
"248007","095-VK","2017/12/28 18:39:40","新北市五股區中興路一段150巷8號","121.46468","25.074285","6501500","五股區"
"248020","225-UY","2017/12/28 18:38:26","新北市五股區孝義路118號","121.440711666667","25.1219566666667","6501500","五股區"
"248012","247-BX","2017/12/28 18:39:43","新北市五股區御成路158號","121.441196666667","25.0945883333333","6501500","五股區"
"248014","261-SL","2017/12/28 18:39:48","新北市五股區蓬萊路24號","121.434161666667","25.079825","6501500","五股區"
"248010","272-BY","2017/12/28 18:39:38","新北市五股區水碓三路120號","121.431783333333","25.0735966666667","6501500","五股區"
"248004","677-BX","2017/12/28 18:39:43","新北市五股區民義路一段236-6號","121.427485","25.09127","6501500","五股區"
"248002","678-BX","2017/12/28 18:39:34","新北市五股區西雲路220號","121.448235","25.0961083333333","6501500","五股區"
"234023","9380-KE","2017/12/28 18:39:50","新北市永和區福和路18號","121.52418","25.008455","6500400","永和區"
"234077","969-R7","2017/12/28 18:39:49","新北市永和區中正路475號","121.517045","25.006265","6500400","永和區"
"234067","AAC-212","2017/12/28 18:39:52","新北市永和區中正路475號","121.517041666667","25.00628","6500400","永和區"
"234003","AAC-295","2017/12/28 18:39:37","新北市永和區福和路1號","121.525711666667","25.0091816666667","6500400","永和區"
"232011","375-UM","2017/12/28 18:21:12","新北市坪林區坪雙路一段43號","121.71178","24.9424183333333","6502000","坪林區"
"244013","069-UM","2017/12/28 18:39:55","新北市林口區中正路432號","121.38405","25.077745","6501700","林口區"
"244007","080-UY","2017/12/28 18:39:50","新北市林口區太平里5-12號","121.379828333333","25.1129583333333","6501700","林口區"
"244025","402-UM","2017/12/28 18:39:51","新北市林口區南勢四街315號","121.356521666667","25.074665","6501700","林口區"
"244019","403-UM","2017/12/28 18:39:36","新北市林口區忠孝路606號","121.376505","25.0682433333333","6501700","林口區"
"244023","483-VK","2017/12/28 18:39:52","新北市林口區民享路36號","121.38077","25.0806783333333","6501700","林口區"
"244017","485-VK","2017/12/28 18:39:47","新北市林口區文化二路一段130號","121.36805","25.07112","6501700","林口區"
"244011","656-BX","2017/12/28 18:39:41","新北市林口區仁愛路一段326號","121.391263333333","25.0766166666667","6501700","林口區"
"244009","837-TS","2017/12/28 18:39:50","新北市林口區林口路241號","121.386596666667","25.0837766666667","6501700","林口區"
"244021","838-TS","2017/12/28 18:39:37","新北市林口區自強二街20號","121.397893333333","25.07803","6501700","林口區"
"243012","AAD-798","2017/12/28 18:39:41","新北市泰山區福興三街13號","121.434421666667","25.057815","6501600","泰山區"
"243015","380-SR","2017/12/28 18:29:29","新北市泰山區黎明路25號","121.422345","25.0606966666667","6501600","泰山區"
"243009","KEA-2216","2017/12/28 18:39:45","新北市泰山區黎明路31-1號","121.421575","25.060535","6501600","泰山區"
"243013","646-TV","2017/12/28 18:30:55","新北市泰山區明志路三段206巷3號","121.423278333333","25.03796","6501600","泰山區"
"243016","680-BX","2017/12/28 18:39:45","新北市泰山區黎明路25號","121.422168333333","25.0606333333333","6501600","泰山區"
"222003","436-BY","2017/12/28 18:39:42","新北市深坑區翠谷街27號","121.626741666667","25.0088533333333","6501800","深坑區"
"222002","659-BX","2017/12/28 18:39:52","新北市深坑區昇高坑路15號","121.624708333333","25.0009783333333","6501800","深坑區"
"222001","696-SL","2017/12/28 18:39:49","新北市深坑區北深路一段82號","121.636293333333","25.010675","6501800","深坑區"
"231066","0293-UT","2017/12/28 18:39:58","新北市新店區安華路28-1號","121.51946","24.9605683333333","6500600","新店區"
"231059","046-UY","2017/12/28 18:39:38","新北市新店區安華路28-1號","121.51959","24.9606716666667","6500600","新店區"
"231061","047-UY","2017/12/28 18:39:46","新北市新店區安華路28-1號","121.519161666667","24.9609366666667","6500600","新店區"
"231060","106-UY","2017/12/28 18:39:43","新北市新店區安華路28-1號","121.519605","24.9607066666667","6500600","新店區"
"231051","107-UY","2017/12/28 18:39:50","新北市新店區中央路57號","121.532816666667","24.9773283333333","6500600","新店區"
"231047","108-UY","2017/12/28 18:39:47","新北市新店區安康路一段11號","121.533273333333","24.96039","6500600","新店區"
"231052","187-VK","2017/12/28 18:39:42","新北市新店區新烏路一段70號","121.545928333333","24.9412983333333","6500600","新店區"
"231050","KEA-2219","2017/12/28 18:39:50","新北市新店區安華路28-1號","121.519876666667","24.961205","6500600","新店區"
"231057","256-BX","2017/12/28 18:39:50","新北市新店區新烏路一段201號","121.547438333333","24.9323133333333","6500600","新店區"
"231046","278-BY","2017/12/28 18:39:38","新北市新店區直潭二街1號","121.535558333333","24.94321","6500600","新店區"
"231054","AAD-862","2017/12/28 18:39:38","新北市新店區安華路28-1號","121.519925","24.9610816666667","6500600","新店區"
"231041","355-BY","2017/12/28 18:39:56","新北市新店區安華路28-1號","121.519058333333","24.9609716666667","6500600","新店區"
"231058","3712-VJ","2017/12/28 18:39:35","新北市新店區新店路13號","121.540328333333","24.9529116666667","6500600","新店區"
"231056","3713-VJ","2017/12/28 18:39:50","新北市新店區民族路75-2號","121.539185","24.9780283333333","6500600","新店區"
"231055","4716-K9","2017/12/28 18:39:42","新北市新店區華興街40號","121.537021666667","24.969065","6500600","新店區"
"231067","4772-VM","2017/12/28 18:39:44","新北市新店區安康路一段214號","121.523951666667","24.9634816666667","6500600","新店區"
"231065","512-UM","2017/12/28 18:39:43","新北市新店區安華路28-1號","121.519195","24.9612183333333","6500600","新店區"
"231064","515-UM","2017/12/28 16:45:28","新北市新店區安華路28-1號","121.519943333333","24.9608733333333","6500600","新店區"
"231040","619-UM","2017/12/28 18:39:46","新北市新店區安華路28-1號","121.519446666667","24.9608416666667","6500600","新店區"
"231042","641-BX","2017/12/28 18:39:46","新北市新店區安華路1-1號","121.519533333333","24.9603983333333","6500600","新店區"
"231063","645-TV","2017/12/28 18:39:38","新北市新店區安華路1-1號","121.51928","24.960535","6500600","新店區"
"231049","719-UM","2017/12/28 18:39:48","新北市新店區安康路一段79巷1號","121.52981","24.961225","6500600","新店區"
"231062","720-UM","2017/12/28 18:39:54","新北市新店區安華路28-1號","121.519038333333","24.9611916666667","6500600","新店區"
"231044","897-TW","2017/12/28 18:39:54","新北市新店區北新路二段2號","121.542548333333","24.9707033333333","6500600","新店區"
"231045","898-TW","2017/12/28 18:39:38","新北市新店區安華路28-1號","121.519365","24.9608533333333","6500600","新店區"
"231043","899-TW","2017/12/28 18:39:47","新北市新店區安華路28-1號","121.519118333333","24.9608716666667","6500600","新店區"
"241030","480-VK","2017/12/28 18:39:53","新北市三重區中正南路269號","121.493276666667","25.0522383333333","6500200","三重區"
"235066","003-UY","2017/12/28 18:39:52","新北市中和區水源路39號","121.504668333333","25.0035583333333","6500300","中和區"
"235064","005-UY","2017/12/28 18:39:57","新北市中和區連城路125號","121.49609","24.9992566666667","6500300","中和區"
"235063","006-UY","2017/12/28 18:39:28","新北市中和區連城路347巷4弄2號","121.48822","24.9956466666667","6500300","中和區"
"235046","031-BX","2017/12/28 18:39:37","新北市中和區忠孝街136號","121.512005","24.986605","6500300","中和區"
"235056","096-UM","2017/12/28 18:39:51","新北市中和區員山路611巷5弄3號","121.478025","25.011245","6500300","中和區"
"235039","097-UM","2017/12/28 18:39:44","新北市中和區安樂路245號","121.514078333333","24.9995616666667","6500300","中和區"
"235040","150-BY","2017/12/28 18:39:29","新北市中和區宜安路47巷2號","121.51175","24.9964883333333","6500300","中和區"
"235058","151-BY","2017/12/28 18:39:42","新北市中和區圓通路369巷39-30號","121.489715","24.9858116666667","6500300","中和區"
"235055","183-VK","2017/12/28 18:39:54","新北市中和區民生街72號","121.468625","25.004965","6500300","中和區"
"235038","185-VK","2017/12/28 18:39:34","新北市中和區立人街14巷10號","121.51947","24.9951333333333","6500300","中和區"
"235049","186-VK","2017/12/28 18:39:54","新北市中和區景平路500巷7號","121.504458333333","24.9937","6500300","中和區"
"235067","255-BX","2017/12/28 18:39:46","新北市中和區新生街2號","121.483098333333","25.0047216666667","6500300","中和區"
"235044","293-VK","2017/12/28 18:39:51","新北市中和區復興路280巷5號","121.502243333333","24.9910116666667","6500300","中和區"
"235072","301-VK","2017/12/28 18:39:53","新北市中和區景平路597號","121.497003333333","25.0005016666667","6500300","中和區"
"235043","352-BY","2017/12/28 18:39:48","新北市中和區景平路105號","121.516998333333","24.9917233333333","6500300","中和區"
"235068","377-QA","2017/12/28 18:39:42","新北市中和區中正路194號","121.497258333333","24.9937733333333","6500300","中和區"
"235061","378-QA","2017/12/28 18:39:50","新北市中和區民享街88巷20號","121.47359","25.0004216666667","6500300","中和區"
"235050","4979-A6","2017/12/28 18:39:41","新北市中和區景新街496巷28-1號","121.513481666667","24.9856266666667","6500300","中和區"
"235069","4980-A6","2017/12/28 18:39:52","新北市中和區景平路597號","121.496926666667","25.0005533333333","6500300","中和區"
"235042","551-UM","2017/12/28 18:39:46","新北市中和區成功路97巷3號","121.526486666667","24.9917683333333","6500300","中和區"
"235070","558-UM","2017/12/28 18:39:56","新北市中和區景新街160巷4號","121.505433333333","24.997275","6500300","中和區"
"235045","565-BX","2017/12/28 18:39:42","新北市中和區南山路236巷21號","121.505591666667","24.9885516666667","6500300","中和區"
"235054","640-BX","2017/12/28 18:39:46","新北市中和區民享街86巷18號","121.47368","25.00075","6500300","中和區"
"235060","647-TV","2017/12/28 18:39:33","新北市中和區中山路二段570號","121.482861666667","25.005265","6500300","中和區"
"235047","732-UM","2017/12/28 18:39:54","新北市中和區南山路320巷15號","121.507413333333","24.9863183333333","6500300","中和區"
"235062","800-TS","2017/12/28 18:39:43","新北市中和區中山路二段312巷23號","121.49576","25.0034066666667","6500300","中和區"
"235057","801-TS","2017/12/28 18:39:52","新北市中和區民安街42巷36號","121.479066666667","25.0011716666667","6500300","中和區"
"235041","802-TS","2017/12/28 18:39:48","新北市中和區宜安路150號","121.509408333333","24.9986216666667","6500300","中和區"
"235052","805-TS","2017/12/28 18:39:54","新北市中和區興南路三段91巷2號","121.490666666667","24.9735533333333","6500300","中和區"
"235048","896-TW","2017/12/28 18:39:45","新北市中和區南山路174-2號","121.505","24.9913266666667","6500300","中和區"
"235053","900-TW","2017/12/28 18:39:47","新北市中和區莒光路213號","121.469016666667","24.9946616666667","6500300","中和區"
"235065","911-UM","2017/12/28 18:39:55","新北市中和區莊敬路33巷34弄1號","121.500126666667","25.006085","6500300","中和區"
"235051","157-BY","2017/12/28 18:39:50","新北市中和區華新街143巷106弄9號","121.506233333333","24.9788016666667","6500300","中和區"
"235037","AAC-213","2017/12/28 18:39:46","新北市中和區景德街86號","121.516295","24.9915066666667","6500300","中和區"
"235059","AAC-215","2017/12/28 18:39:50","新北市中和區錦和路350-1號","121.490575","24.9935166666667","6500300","中和區"
"220065","072-UY","2017/12/28 18:39:47","新北市板橋區區運路82號","121.466865","25.0104616666667","6500100","板橋區"
"220086","073-UY","2017/12/28 18:39:47","新北市板橋區大智街71巷42弄16號","121.452256666667","25.0147283333333","6500100","板橋區"
"220069","AAD-861","2017/12/28 18:39:46","新北市板橋區華東街1-10號","121.448323333333","24.9950233333333","6500100","板橋區"
"226004","312-R5","2017/12/28 08:48:25","新北市平溪區靜安路二段295號","121.733261666667","25.025515","6502400","平溪區"
"228003","097-TW","2017/12/28 18:39:37","新北市貢寮區和美里龍洞街28-3號","121.917523333333","25.1116866666667","6502600","貢寮區"
"228001","212-TW","2017/12/28 18:39:48","新北市貢寮區仁理村研海街12-1號","121.92378","25.0516433333333","6502600","貢寮區"
"228002","585-TW","2017/12/28 18:39:35","新北市貢寮區福隆里東興街31-1號","121.954765","25.0207016666667","6502600","貢寮區"
"224010","AGQ-8101","2017/12/28 18:36:36","新北市瑞芳區烏勢巷117號","121.846346666667","25.1080933333333","6501200","瑞芳區"
"224006","676-BX","2017/12/28 18:39:45","新北市瑞芳區明燈路三段84號","121.805696666667","25.1082833333333","6501200","瑞芳區"
"224002","639-TC","2017/12/28 18:39:48","新北市瑞芳區中山路307-2號","121.794038333333","25.1096583333333","6501200","瑞芳區"
"224009","285-BY","2017/12/28 18:39:47","新北市瑞芳區五號路218-1號","121.855428333333","25.110655","6501200","瑞芳區"
"224008","275-VK","2017/12/28 18:39:50","新北市瑞芳區瑞芳街123號","121.805498333333","25.1097683333333","6501200","瑞芳區"
"224007","272-VK","2017/12/28 18:39:53","新北市瑞芳區大埔路117號","121.76344","25.1010616666667","6501200","瑞芳區"
"224005","271-BY","2017/12/28 18:39:43","新北市瑞芳區瑞濱路139號","121.819721666667","25.1198316666667","6501200","瑞芳區"
"227010","400-TW","2017/12/28 18:39:44","新北市雙溪區牡丹里下坑11號","121.851003333333","25.05617","6502500","雙溪區"
"227004","030-BX","2017/12/28 18:39:39","新北市雙溪區魚行里坤溪12號","121.873885","25.02241","6502500","雙溪區"
"253005","032-BX","2017/12/28 18:39:49","新北市石門區石門街41號","121.56638","25.2904233333333","6502200","石門區"
"253006","741-TV","2017/12/28 18:39:48","新北市石門區楓林37-6號","121.540608333333","25.289795","6502200","石門區"
"208002","742-BX","2017/12/28 18:39:52","新北市金山區忠孝一路29號","121.638375","25.2194216666667","6502700","金山區"
"208003","665-BX","2017/12/28 18:39:49","新北市金山區中山路331號","121.635253333333","25.2241083333333","6502700","金山區"
"208001","761-BX","2017/12/28 18:39:54","新北市金山區文化三路7號","121.635211666667","25.22495","6502700","金山區"
"251004","009-UM","2017/12/28 18:39:44","新北市淡水區中正東路二段143巷6弄7號","121.461541666667","25.1462766666667","6501000","淡水區"
"251001","011-UM","2017/12/28 18:39:34","新北市淡水區自強路419號","121.46555","25.1342733333333","6501000","淡水區"
"251008","181-VK","2017/12/28 18:39:53","新北市淡水區北投子69-1號","121.454013333333","25.1818333333333","6501000","淡水區"
"251014","182-VK","2017/12/28 18:39:45","新北市淡水區崙頂12-8號","121.495558333333","25.2172466666667","6501000","淡水區"
"251010","413-VK","2017/12/28 18:39:38","新北市淡水區沙崙路141-1號","121.423326666667","25.1829133333333","6501000","淡水區"
"251012","441-VK","2017/12/28 18:39:45","新北市淡水區北新路117號","121.448945","25.1786183333333","6501000","淡水區"
"251016","442-VK","2017/12/28 18:39:39","新北市淡水區下圭柔山76-3號","121.444023333333","25.2069066666667","6501000","淡水區"
"251006","561-UM","2017/12/28 18:39:50","新北市淡水區崁頂37-2號","121.439291666667","25.1948666666667","6501000","淡水區"
"251011","650-BX","2017/12/28 18:39:48","新北市淡水區鄧公路278巷1號","121.461076666667","25.1688783333333","6501000","淡水區"
"251002","672-BX","2017/12/28 18:39:53","新北市淡水區中正東路一段3巷14弄1號","121.45086","25.1641183333333","6501000","淡水區"
"251003","766-UM","2017/12/28 18:39:49","新北市淡水區中山北路一段212巷38號","121.446196666667","25.1790316666667","6501000","淡水區"
"207003","550-UM","2017/12/28 18:39:58","新北市萬里區野柳里港西路48號","121.678678333333","25.2013733333333","6502800","萬里區"
"207004","225-TW","2017/12/28 18:39:42","新北市萬里區萬里里獅頭路7號","121.692016666667","25.1784333333333","6502800","萬里區"
"252002","178-VK","2017/12/28 18:39:56","新北市三芝區民生街64巷8號","121.503578333333","25.2552216666667","6502100","三芝區"
"252003","249-BX","2017/12/28 18:39:42","新北市三芝區後厝里土地公坑54-16號","121.466008333333","25.249625","6502100","三芝區"
"252001","292-VK","2017/12/28 18:39:46","新北市三芝區埔頭里埔頭14號","121.50087","25.2537816666667","6502100","三芝區"
"237004","078-UY","2017/12/28 18:39:55","新北市三峽區插角1-1號","121.39763","24.8736666666667","6500900","三峽區"
"237007","153-BY","2017/12/28 18:39:51","新北市三峽區中正路三段7號","121.351948333333","24.9035566666667","6500900","三峽區"
"237013","252-BX","2017/12/28 18:39:40","新北市三峽區光明路69巷25號","121.376595","24.92915","6500900","三峽區"
"237012","275-BY","2017/12/28 18:39:54","新北市三峽區三樹路322號","121.381355","24.9440583333333","6500900","三峽區"
"237008","302-VK","2017/12/28 18:39:54","新北市三峽區白雞68-5號","121.395946666667","24.908325","6500900","三峽區"
"237014","433-BY","2017/12/28 18:39:37","新北市三峽區復興路179-3號","121.369181666667","24.9388783333333","6500900","三峽區"
"237006","5529-G3","2017/12/28 18:39:40","新北市三峽區溪東路315巷40號","121.411423333333","24.9311166666667","6500900","三峽區"
"237011","572-TV","2017/12/28 13:09:16","新北市三峽區中山路459巷163-3號","121.348653333333","24.9330233333333","6500900","三峽區"
"237016","649-BX","2017/12/28 18:17:52","新北市三峽區紫微路23號","121.422776666667","24.91964","6500900","三峽區"
"237010","706-TV","2017/12/28 18:39:36","新北市三峽區復興路323號","121.364813333333","24.938805","6500900","三峽區"
"237005","AKY-6261","2017/12/28 18:39:50","新北市三峽區復興路36-1號","121.374001666667","24.9363616666667","6500900","三峽區"
"236071","105-UM","2017/12/28 18:39:38","新北市土城區永豐路157巷29弄6-1號","121.468303333333","24.9815083333333","6501300","土城區"
"236042","107-UM","2017/12/28 18:39:47","新北市土城區裕民路55巷16號","121.449488333333","24.9886266666667","6501300","土城區"
"236078","166-UM","2017/12/28 18:39:56","新北市土城區中央路四段80號","121.418168333333","24.9599033333333","6501300","土城區"
"236030","253-BX","2017/12/28 18:39:49","新北市土城區福仁街72號","121.439173333333","24.9742233333333","6501300","土城區"
"236026","269-VK","2017/12/28 18:39:34","新北市土城區忠義路49-1號","121.440508333333","24.9690816666667","6501300","土城區"
"236014","270-VK","2017/12/28 18:39:55","新北市土城區清水路207巷9號","121.459985","24.9821783333333","6501300","土城區"
"236037","271-VK","2017/12/28 18:39:50","新北市土城區明德路一段291巷11弄20號","121.460866666667","24.9759816666667","6501300","土城區"
"236021","401-BY","2017/12/28 18:39:54","新北市土城區延吉街311號","121.465971666667","24.984395","6501300","土城區"
"236058","912-UM","2017/12/28 18:39:53","新北市土城區中興路1號","121.42461","24.9626","6501300","土城區"
"236051","913-UM","2017/12/28 18:39:41","新北市土城區金城路三段10號","121.46476","24.9858766666667","6501300","土城區"
"236062","915-UM","2017/12/28 18:39:38","新北市土城區延壽路55巷9弄5號","121.469816666667","24.9914233333333","6501300","土城區"
"236053","AAC-216","2017/12/28 18:39:46","新北市土城區中華路一段23號","121.446721666667","24.9893016666667","6501300","土城區"
"242061","362-BY","2017/12/28 18:39:44","新北市新莊區民安東路10號","121.428055","25.02094","6500500","新莊區"
"242058","353-BY","2017/12/28 18:39:52","新北市新莊區中正路887-5號","121.416723333333","25.0245383333333","6500500","新莊區"
"242046","172-VK","2017/12/28 18:39:52","新北市新莊區福營路326號","121.422","25.027025","6500500","新莊區"
"238023","601-UM","2017/12/28 18:39:55","新北市樹林區三福街114號","121.406476666667","25.01633","6500700","樹林區"
"238019","599-UM","2017/12/28 18:39:44","新北市樹林區中山路二段91號","121.411038333333","24.98155","6500700","樹林區"
"238018","571-TV","2017/12/28 18:39:41","新北市樹林區樹新路179號","121.429046666667","24.9972016666667","6500700","樹林區"
"238024","5061-A6","2017/12/28 18:39:54","新北市樹林區太順街79巷17號","121.417118333333","24.9780766666667","6500700","樹林區"
"238022","KEA-2213","2017/12/28 18:39:53","新北市樹林區中華路393號","121.411325","24.9804416666667","6500700","樹林區"
"238025","303-VK","2017/12/28 18:39:51","新北市樹林區東豐街18號","121.415463333333","24.9755983333333","6500700","樹林區"
"238020","268-VK","2017/12/28 18:39:54","新北市樹林區俊安街31巷5號","121.420455","25.0133733333333","6500700","樹林區"
"238026","172-UY","2017/12/28 18:39:49","新北市樹林區信和街6巷13號","121.39001","24.9717216666667","6500700","樹林區"
"238016","169-UY","2017/12/28 18:39:50","新北市樹林區文化街28號","121.419328333333","24.9877233333333","6500700","樹林區"
"239007","AAC-297","2017/12/28 18:39:47","新北市鶯歌區中正一路阿四巷7-1號","121.368608333333","24.9576","6500800","鶯歌區"
"239008","527-UM","2017/12/28 18:39:39","新北市鶯歌區國際一路179號","121.336258333333","24.976495","6500800","鶯歌區"
"239005","526-UM","2017/12/28 18:39:37","新北市鶯歌區鳳吉二街104號","121.327483333333","24.9742083333333","6500800","鶯歌區"
"239001","417-VK","2017/12/28 18:39:45","新北市鶯歌區國中街171號","121.33716","24.9384166666667","6500800","鶯歌區"
"239003","360-BY","2017/12/28 18:39:49","新北市鶯歌區永和街116號","121.33453","24.969115","6500800","鶯歌區"
"239002","359-BY","2017/12/28 18:39:39","新北市鶯歌區中山路300號","121.342855","24.9571366666667","6500800","鶯歌區"
"239004","193-VK","2017/12/28 18:39:50","新北市鶯歌區中正三路191號","121.335695","24.9395116666667","6500800","鶯歌區"
"221008","489-VK","2017/12/28 18:39:34","新北市汐止區康寧街901號","121.651446666667","25.0751033333333","6501100","汐止區"
"221036","130-UY","2017/12/28 18:39:46","新北市汐止區南昌街31號","121.663143333333","25.0692083333333","6501100","汐止區"
"221010","269-BY","2017/12/28 18:39:50","新北市汐止區瑞松街47巷6號","121.64522","25.1061616666667","6501100","汐止區"
"221012","276-VK","2017/12/28 13:38:34","新北市汐止區汐萬路一段256巷3號","121.65341","25.0746066666667","6501100","汐止區"
"221012","278-VK","2017/12/28 18:39:54","新北市汐止區長興街一段49號","121.670296666667","25.0791416666667","6501100","汐止區"
"221023","279-VK","2017/12/28 18:39:40","新北市汐止區明峰街11號","121.635241666667","25.0712983333333","6501100","汐止區"
"221032","280-BY","2017/12/28 18:39:50","新北市汐止區民權街二段93號","121.619063333333","25.0474666666667","6501100","汐止區"
"221027","281-BY","2017/12/28 18:39:42","新北市汐止區和平街3-1號","121.663411666667","25.0707183333333","6501100","汐止區"
"221029","298-VK","2017/12/28 18:39:41","新北市汐止區樟樹一路146號","121.64234","25.06508","6501100","汐止區"
"221021","299-VK","2017/12/28 18:39:49","新北市汐止區新興路74號","121.657398333333","25.061935","6501100","汐止區"
"221031","353-TW","2017/12/28 18:39:50","新北市汐止區福德一路274號","121.632115","25.06396","6501100","汐止區"
"221015","567-BX","2017/12/28 18:39:24","新北市汐止區吉祥街26號","121.667743333333","25.08101","6501100","汐止區"
"221035","622-UM","2017/12/28 18:39:47","新北市汐止區禮門街1號","121.65676","25.0672183333333","6501100","汐止區"
"221025","623-UM","2017/12/28 18:39:35","新北市汐止區仁愛路119巷10號","121.662393333333","25.06403","6501100","汐止區"
"221038","646-BX","2017/12/28 18:39:38","新北市汐止區汐萬路一段146號","121.652955","25.0711083333333","6501100","汐止區"
"221033","647-BX","2017/12/28 18:39:40","新北市汐止區南勢街1巷1號","121.627045","25.0374366666667","6501100","汐止區"
"221002","707-TV","2017/12/28 18:39:47","新北市汐止區中興路62號","121.635276666667","25.0614016666667","6501100","汐止區"
"221018","753-BX","2017/12/28 18:39:48","新北市汐止區茄苳路247號","121.671678333333","25.0683466666667","6501100","汐止區"
"220079","145-BY","2017/12/28 18:39:40","新北市板橋區大觀路一段31號","121.449798333333","25.0084083333333","6500100","板橋區"
"220080","200-UY","2017/12/28 18:39:40","新北市板橋區大觀路二段431-1號","121.441313333333","24.9950666666667","6500100","板橋區"
"220082","610-BX","2017/12/28 18:39:57","新北市板橋區大觀路三段52號","121.432506666667","24.99591","6500100","板橋區"
"220056","276-BY","2017/12/28 18:39:55","新北市板橋區四川路二段119號","121.451431666667","24.9942466666667","6500100","板橋區"
"220072","277-BY","2017/12/28 18:39:39","新北市板橋區大觀路三段59巷17弄6-1號","121.435691666667","24.9955483333333","6500100","板橋區"
"220071","283-VK","2017/12/28 18:39:56","新北市板橋區四川路二段橋頭6號","121.448348333333","24.994075","6500100","板橋區"
"220053","285-VK","2017/12/28 18:39:40","新北市板橋區民生路二段161巷1號","121.47025","25.01988","6500100","板橋區"
"220083","286-VK","2017/12/28 18:39:48","新北市板橋區大觀路二段153巷46弄1號","121.448706666667","24.9986","6500100","板橋區"
"220081","287-VK","2017/12/28 18:39:47","新北市板橋區大觀路二段266號","121.448796666667","24.9972716666667","6500100","板橋區"
"220084","296-UM","2017/12/28 18:39:49","新北市板橋區大觀路二段266號","121.44874","24.9971066666667","6500100","板橋區"
"220075","297-UM","2017/12/28 18:39:43","新北市板橋區南雅南路二段120-2號","121.452456666667","24.9998133333333","6500100","板橋區"
"220010","303-R5","2017/12/28 18:39:44","新北市板橋區民生路二段120號","121.470451666667","25.0196883333333","6500100","板橋區"
"220064","486-VK","2017/12/28 18:39:40","新北市板橋區民生路二段36-1號","121.47211","25.0167416666667","6500100","板橋區"
"220035","560-BX","2017/12/28 18:39:37","新北市板橋區南雅西路二段145巷10號","121.451585","25.011935","6500100","板橋區"
"220063","609-BX","2017/12/28 18:39:49","新北市板橋區民生路二段161巷1號","121.469853333333","25.020065","6500100","板橋區"
"220057","686-BX","2017/12/28 18:39:55","新北市板橋區華東街1-9號","121.448215","24.9949016666667","6500100","板橋區"
"220077","687-BX","2017/12/28 18:39:39","新北市板橋區大觀路二段431-1號","121.441465","24.9950866666667","6500100","板橋區"
"220054","741-BX","2017/12/28 18:39:53","新北市板橋區華東街1-9號","121.44813","24.9949416666667","6500100","板橋區"
"220055","827-TW","2017/12/28 18:39:42","新北市板橋區華東街1-9號","121.448176666667","24.9949033333333","6500100","板橋區"
"220014","829-TW","2017/12/28 18:39:45","新北市板橋區民生路二段161巷9號","121.470281666667","25.0196883333333","6500100","板橋區"
"220074","895-R6","2017/12/28 18:39:52","新北市板橋區南雅南路二段128號","121.452156666667","24.9968083333333","6500100","板橋區"
"220073","985-R7","2017/12/28 18:39:45","新北市板橋區南雅南路二段132號","121.452038333333","24.9966933333333","6500100","板橋區"
"220097","AAC-210","2017/12/28 16:41:25","新北市板橋區民生路二段161巷5號","121.470148333333","25.0197266666667","6500100","板橋區"
"220070","AAC-253","2017/12/28 18:39:42","新北市板橋區華東街1-8號","121.44785","24.9947783333333","6500100","板橋區"
