"lineid","car","time","location","longitude","latitude","cityid","cityname"
"234046","148-BY","2017/12/28 19:09:31","新北市永和區永元路18巷38弄1號","121.524041666667","25.0002733333333","6500400","永和區"
"234013","149-BY","2017/12/28 19:08:14","新北市永和區仁愛路155號","121.51116","25.0129116666667","6500400","永和區"
"234007","207-UY","2017/12/28 19:08:50","新北市永和區中山路一段211號","121.508781666667","25.0084066666667","6500400","永和區"
"234081","298-R6","2017/12/28 19:07:15","新北市永和區國中路204號","121.52226","25.0060966666667","6500400","永和區"
"234038","336-UY","2017/12/28 19:09:20","新北市永和區民樂街90巷1號","121.527321666667","24.9973516666667","6500400","永和區"
"234064","337-UY","2017/12/28 19:08:37","新北市永和區秀朗路二段20號","121.52084","25.0028","6500400","永和區"
"234086","338-UY","2017/12/28 19:09:12","新北市永和區永貞路142號","121.518136666667","25.0044033333333","6500400","永和區"
"234054","553-UM","2017/12/28 19:09:39","新北市永和區中興街133巷8號","121.518593333333","25.0125866666667","6500400","永和區"
"234017","745-BX","2017/12/28 19:09:37","新北市永和區文化路90巷3弄2號","121.51388","25.0156483333333","6500400","永和區"
"234030","746-BX","2017/12/28 19:08:57","新北市永和區民生路29號","121.522938333333","24.9984033333333","6500400","永和區"
"234061","AAD-866","2017/12/28 19:09:15","新北市永和區安樂路306-8號","121.514578333333","25.0053683333333","6500400","永和區"
"234070","847-RS","2017/12/28 19:09:41","新北市永和區豫溪街137巷1弄18號","121.518708333333","25.0104433333333","6500400","永和區"
"234042","862-TW","2017/12/28 19:09:09","新北市永和區永貞路352號","121.510771666667","25.0059766666667","6500400","永和區"
"234050","863-TW","2017/12/28 19:09:29","新北市永和區文化路135巷9號","121.510661666667","25.0144216666667","6500400","永和區"
"234026","9371-KE","2017/12/28 19:09:25","新北市永和區安樂路198巷安和二弄2號","121.515411666667","25.0017683333333","6500400","永和區"
"234011","9373-KE","2017/12/28 19:09:43","新北市永和區仁愛路141巷30弄2號","121.511633333333","25.0117","6500400","永和區"
"249005","172-UM","2017/12/28 19:09:13","新北市八里區中華路三段77號","121.394378333333","25.1404483333333","6502300","八里區"
"249001","173-UM","2017/12/28 19:09:37","新北市八里區龍米路二段228-7號","121.432291666667","25.1584816666667","6502300","八里區"
"248016","026-BX","2017/12/28 19:09:32","新北市五股區成泰路三段543巷62號","121.449343333333","25.10347","6501500","五股區"
"248006","077-UY","2017/12/28 19:09:33","新北市五股區四維路112號","121.467673333333","25.0738066666667","6501500","五股區"
"248007","095-VK","2017/12/28 19:08:20","新北市五股區中興路一段118巷15號","121.465901666667","25.0742083333333","6501500","五股區"
"248020","225-UY","2017/12/28 19:00:33","新北市五股區凌雲路三段57號","121.425281666667","25.12499","6501500","五股區"
"248012","247-BX","2017/12/28 19:09:23","新北市五股區中興路四段48巷16號","121.438653333333","25.0834433333333","6501500","五股區"
"248010","272-BY","2017/12/28 19:09:38","新北市五股區自強路90巷72號","121.430658333333","25.0712216666667","6501500","五股區"
"248004","677-BX","2017/12/28 19:09:43","新北市五股區六合街27號","121.430936666667","25.088755","6501500","五股區"
"248002","678-BX","2017/12/28 19:09:34","新北市五股區凌雲路一段158巷14號","121.44779","25.1034183333333","6501500","五股區"
"234023","9380-KE","2017/12/28 19:09:25","新北市永和區勵行街72巷21號","121.516365","25.0124816666667","6500400","永和區"
"234077","969-R7","2017/12/28 19:08:09","新北市永和區民權路22號","121.52029","24.9992883333333","6500400","永和區"
"234074","AAC-211","2017/12/28 19:09:37","新北市永和區竹林路217號","121.52069","25.0086483333333","6500400","永和區"
"234067","AAC-212","2017/12/28 19:09:32","新北市永和區保平路30巷2號","121.512063333333","25.00736","6500400","永和區"
"234003","AAC-295","2017/12/28 19:09:17","新北市永和區保福路一段54號","121.5127","25.009475","6500400","永和區"
"244013","069-UM","2017/12/28 19:09:15","新北市林口區麗園二街1巷9號","121.37902","25.0704733333333","6501700","林口區"
"244025","402-UM","2017/12/28 19:08:51","新北市林口區文化北路一段542巷13弄65號","121.369508333333","25.0796833333333","6501700","林口區"
"244019","403-UM","2017/12/28 19:09:36","新北市林口區麗園二街87號","121.38262","25.0668016666667","6501700","林口區"
"244023","483-VK","2017/12/28 19:09:32","新北市林口區民族路288號","121.370593333333","25.0787766666667","6501700","林口區"
"244011","656-BX","2017/12/28 19:09:41","新北市林口區中正路296巷5號","121.388258333333","25.0780983333333","6501700","林口區"
"244009","837-TS","2017/12/28 19:09:30","新北市林口區林口路54號","121.390421666667","25.07901","6501700","林口區"
"243012","AAD-798","2017/12/28 19:09:21","新北市泰山區吳厝窠1號","121.427915","25.0585583333333","6501600","泰山區"
"243011","297-R6","2017/12/28 19:09:31","新北市泰山區明志路二段372巷2號","121.425411666667","25.045005","6501600","泰山區"
"243015","380-SR","2017/12/28 19:08:30","新北市泰山區明志路一段431號","121.430915","25.0564933333333","6501600","泰山區"
"243014","421-VK","2017/12/28 19:09:15","新北市泰山區泰林路二段328號","121.4302","25.0630983333333","6501600","泰山區"
"243010","KEA-2215","2017/12/28 19:09:23","新北市泰山區明志路一段440號","121.430753333333","25.0561066666667","6501600","泰山區"
"243009","KEA-2216","2017/12/28 19:09:06","新北市泰山區楓江路25巷3號","121.434425","25.0631233333333","6501600","泰山區"
"243013","646-TV","2017/12/28 19:09:33","新北市泰山區明志路三段231巷2弄1號","121.424035","25.0377133333333","6501600","泰山區"
"243016","680-BX","2017/12/28 19:09:45","新北市泰山區明志路三段1號","121.424846666667","25.0434933333333","6501600","泰山區"
"222003","436-BY","2017/12/28 19:09:42","新北市深坑區深南路162號","121.626071666667","25.014935","6501800","深坑區"
"222002","659-BX","2017/12/28 19:09:12","新北市深坑區紅葉街61號","121.632298333333","25.0139183333333","6501800","深坑區"
"222001","696-SL","2017/12/28 19:09:29","新北市深坑區北深路一段300號","121.624203333333","25.005775","6501800","深坑區"
"231066","0293-UT","2017/12/28 19:09:38","新北市新店區安康路三段359巷12弄1號","121.484433333333","24.9499133333333","6500600","新店區"
"231059","046-UY","2017/12/28 19:09:38","新北市新店區安和路二段148號","121.519751666667","24.9729333333333","6500600","新店區"
"231061","047-UY","2017/12/28 19:08:46","新北市新店區安康路一段70號","121.528575","24.9618083333333","6500600","新店區"
"231060","106-UY","2017/12/28 19:09:45","新北市新店區安康路二段181號","121.50954","24.9591783333333","6500600","新店區"
"231051","107-UY","2017/12/28 19:09:01","新北市新店區中正路402號","121.534521666667","24.977435","6500600","新店區"
"231047","108-UY","2017/12/28 19:09:26","新北市新店區德正街31號","121.544675","24.97128","6500600","新店區"
"231052","187-VK","2017/12/28 19:09:42","新北市新店區自強路90號","121.546383333333","24.924025","6500600","新店區"
"231050","KEA-2219","2017/12/28 19:09:29","新北市新店區竹林路2巷31號","121.550396666667","24.9502433333333","6500600","新店區"
"231046","278-BY","2017/12/28 19:09:19","新北市新店區新潭路一段22巷2號","121.523066666667","24.9431266666667","6500600","新店區"
"231054","AAD-862","2017/12/28 19:09:18","新北市新店區新店路163號","121.537095","24.9555383333333","6500600","新店區"
"231041","355-BY","2017/12/28 19:09:37","新北市新店區溪園路413號","121.524301666667","24.9785066666667","6500600","新店區"
"231058","3712-VJ","2017/12/28 19:09:35","新北市新店區光明街138巷13弄3號","121.540451666667","24.9611766666667","6500600","新店區"
"231056","3713-VJ","2017/12/28 19:09:30","新北市新店區二十張路46巷37弄5號","121.536421666667","24.98194","6500600","新店區"
"231067","4772-VM","2017/12/28 19:09:04","新北市新店區安康路一段247巷7號","121.525036666667","24.9627266666667","6500600","新店區"
"231065","512-UM","2017/12/28 19:09:43","新北市新店區安祥路145巷12號","121.475125","24.9559533333333","6500600","新店區"
"231064","515-UM","2017/12/28 19:09:44","新北市新店區安忠路102巷2號","121.510828333333","24.9563933333333","6500600","新店區"
"231040","619-UM","2017/12/28 19:09:06","新北市新店區三民路98-3號","121.533956666667","24.9734233333333","6500600","新店區"
"231042","641-BX","2017/12/28 19:09:26","新北市新店區中興路一段113號","121.541278333333","24.96271","6500600","新店區"
"231063","645-TV","2017/12/28 19:08:38","新北市新店區車子路110號","121.505221666667","24.9520666666667","6500600","新店區"
"231049","719-UM","2017/12/28 19:09:28","新北市新店區二十張路25巷18弄16號","121.539225","24.9815933333333","6500600","新店區"
"231062","720-UM","2017/12/28 19:09:33","新北市新店區安康路一段222號","121.523816666667","24.9636133333333","6500600","新店區"
"231044","897-TW","2017/12/28 19:09:13","新北市新店區中興路三段160號","121.544335","24.9807633333333","6500600","新店區"
"231045","898-TW","2017/12/28 19:09:12","新北市新店區北宜路一段140巷11號","121.539946666667","24.95441","6500600","新店區"
"231043","899-TW","2017/12/28 19:09:27","新北市新店區寶橋路132號","121.547391666667","24.97602","6500600","新店區"
"241026","156-TC","2017/12/28 19:09:20","新北市三重區泉州街61巷1號","121.494668333333","25.0545933333333","6500200","三重區"
"241030","480-VK","2017/12/28 19:09:13","新北市三重區中正南路252巷5號","121.49332","25.0521733333333","6500200","三重區"
"241029","942-UM","2017/12/28 19:09:34","新北市三重區重安街83號","121.492531666667","25.0557833333333","6500200","三重區"
"235066","003-UY","2017/12/28 19:09:32","新北市中和區廣福路48號","121.504105","25.0020433333333","6500300","中和區"
"235064","005-UY","2017/12/28 19:09:09","新北市中和區泰和街30巷24號","121.498983333333","25.0012433333333","6500300","中和區"
"235063","006-UY","2017/12/28 19:09:28","新北市中和區中正路590號","121.48581","24.9949683333333","6500300","中和區"
"235046","031-BX","2017/12/28 19:09:37","新北市中和區華新街150號","121.507895","24.982415","6500300","中和區"
"235056","096-UM","2017/12/28 19:09:31","新北市中和區中正路1230號","121.479046666667","25.0110283333333","6500300","中和區"
"235039","097-UM","2017/12/28 19:09:23","新北市永和區民有街18號","121.516611666667","24.9966233333333","6500300","中和區"
"235040","150-BY","2017/12/28 19:08:49","新北市中和區宜安路11巷20號","121.51276","24.9951966666667","6500300","中和區"
"235058","151-BY","2017/12/28 19:09:42","新北市中和區員山路143巷5號","121.480505","24.9960733333333","6500300","中和區"
"235055","183-VK","2017/12/28 19:09:34","新北市中和區德光路16號","121.471178333333","25.004485","6500300","中和區"
"235038","185-VK","2017/12/28 19:09:34","新北市中和區大仁街10巷4號","121.518033333333","24.9925666666667","6500300","中和區"
"235049","186-VK","2017/12/28 19:07:04","新北市中和區安和路111號","121.506768333333","24.99564","6500300","中和區"
"235067","255-BX","2017/12/28 19:09:26","新北市中和區新生街176巷15號","121.482843333333","24.9998966666667","6500300","中和區"
"235044","293-VK","2017/12/28 19:09:34","新北市中和區復興路327巷4號","121.500656666667","24.98986","6500300","中和區"
"235072","301-VK","2017/12/28 19:09:33","新北市中和區永和路11號","121.498951666667","25.0043","6500300","中和區"
"235043","352-BY","2017/12/28 19:09:28","新北市中和區景平路142號","121.518496666667","24.9919216666667","6500300","中和區"
"235068","377-QA","2017/12/28 19:09:22","新北市中和區圓通路162巷19號","121.496786666667","24.9950233333333","6500300","中和區"
"235061","378-QA","2017/12/28 19:09:10","新北市中和區中山路三段63巷13弄41號","121.476701666667","25.003465","6500300","中和區"
"235050","4979-A6","2017/12/28 19:09:41","新北市中和區復興路255號","121.50315","24.9902616666667","6500300","中和區"
"235069","4980-A6","2017/12/28 19:09:04","新北市中和區中和路217巷20號","121.504725","25.0004816666667","6500300","中和區"
"235042","551-UM","2017/12/28 19:09:46","新北市中和區自立路16號","121.521916666667","24.9937266666667","6500300","中和區"
"235070","558-UM","2017/12/28 19:09:16","新北市中和區中和路212號","121.506018333333","24.9995633333333","6500300","中和區"
"235045","565-BX","2017/12/28 19:09:02","新北市中和區景新街467巷38弄6號","121.514646666667","24.9886866666667","6500300","中和區"
"235054","640-BX","2017/12/28 19:09:27","新北市中和區國光街87號","121.470516666667","25.00022","6500300","中和區"
"235060","647-TV","2017/12/28 19:09:42","新北市中和區民治街27巷4號","121.475498333333","25.00112","6500300","中和區"
"235047","732-UM","2017/12/28 19:09:34","新北市中和區興南路一段54號","121.510773333333","24.9907433333333","6500300","中和區"
"235062","800-TS","2017/12/28 19:09:43","新北市中和區中山路二段526巷17號","121.485773333333","25.0054633333333","6500300","中和區"
"235057","801-TS","2017/12/28 19:09:26","新北市中和區民利街100巷6弄8號","121.477246666667","24.9986466666667","6500300","中和區"
"235041","802-TS","2017/12/28 19:09:28","新北市永和區中和路329號","121.507346666667","24.9997483333333","6500300","中和區"
"235052","805-TS","2017/12/28 19:09:34","新北市中和區興南路二段142巷19弄13號","121.502681666667","24.983485","6500300","中和區"
"235048","896-TW","2017/12/28 19:09:45","新北市中和區華新街97號","121.508685","24.9829266666667","6500300","中和區"
"235053","900-TW","2017/12/28 19:08:47","新北市中和區華福街2-2號","121.464913333333","24.9970066666667","6500300","中和區"
"235065","911-UM","2017/12/28 19:09:35","新北市中和區中山路二段2巷45弄2號","121.502333333333","25.0070666666667","6500300","中和區"
"235051","157-BY","2017/12/28 19:09:30","新北市中和區興南路一段85巷81號","121.511143333333","24.9861566666667","6500300","中和區"
"235037","AAC-213","2017/12/28 19:09:26","新北市中和區秀朗路三段60巷40號","121.524978333333","24.99489","6500300","中和區"
"235059","AAC-215","2017/12/28 19:09:30","新北市中和區圓通路294巷13號","121.488736666667","24.99002","6500300","中和區"
"220068","013-TV","2017/12/28 15:37:30","新北市板橋區光復街38號","121.481765","25.0186183333333","6500100","板橋區"
"220065","072-UY","2017/12/28 19:09:29","新北市板橋區民族路219巷26號","121.469478333333","25.0084583333333","6500100","板橋區"
"220086","073-UY","2017/12/28 19:09:26","新北市板橋區幸福路70巷3號","121.460558333333","25.020135","6500100","板橋區"
"220106","075-UY","2017/12/28 19:09:12","新北市板橋區文化路二段315號","121.472148333333","25.0297766666667","6500100","板橋區"
"220069","AAD-861","2017/12/28 19:09:26","新北市板橋區華興街17號","121.458863333333","25.0046516666667","6500100","板橋區"
"220096","120-SR","2017/12/28 19:09:42","新北市板橋區雙十路二段33巷1-1號","121.476791666667","25.0256233333333","6500100","板橋區"
"226004","312-R5","2017/12/28 08:48:25","新北市平溪區靜安路二段295號","121.733261666667","25.025515","6502400","平溪區"
"228003","097-TW","2017/12/28 19:09:37","新北市貢寮區和美里和美街36-1號","121.912195","25.0858916666667","6502600","貢寮區"
"228001","212-TW","2017/12/28 19:09:28","新北市貢寮區真理里新港街10號","121.925501666667","25.0543533333333","6502600","貢寮區"
"228002","585-TW","2017/12/28 19:09:35","新北市貢寮區福隆里福隆街32-1號","121.945118333333","25.0174216666667","6502600","貢寮區"
"224010","AGQ-8101","2017/12/28 19:08:16","新北市瑞芳區金光路372號","121.848898333333","25.110805","6501200","瑞芳區"
"224006","676-BX","2017/12/28 19:08:56","新北市瑞芳區三爪子坑路106巷11號","121.808831666667","25.10449","6501200","瑞芳區"
"224009","285-BY","2017/12/28 19:09:39","新北市瑞芳區五號路137號","121.855261666667","25.1124116666667","6501200","瑞芳區"
"224008","275-VK","2017/12/28 19:09:36","新北市瑞芳區明燈路三段225號","121.800135","25.1113616666667","6501200","瑞芳區"
"224005","271-BY","2017/12/28 19:08:56","新北市瑞芳區三爪子坑路93號","121.811293333333","25.1072933333333","6501200","瑞芳區"
"227010","400-TW","2017/12/28 19:09:24","新北市雙溪區牡丹里中正路38號","121.864743333333","25.0384316666667","6502500","雙溪區"
"227004","030-BX","2017/12/28 19:09:43","新北市雙溪區平林里梅竹蹊56-4號","121.860615","25.0368033333333","6502500","雙溪區"
"253005","032-BX","2017/12/28 19:08:29","新北市石門區阿里荖41-1號","121.6057","25.2822866666667","6502200","石門區"
"253006","741-TV","2017/12/28 19:09:28","新北市石門區崁子腳58-19號","121.531361666667","25.2874166666667","6502200","石門區"
"208002","742-BX","2017/12/28 19:09:32","新北市金山區中正路67號","121.633975","25.22166","6502700","金山區"
"208003","665-BX","2017/12/28 19:09:29","新北市金山區中正路135號","121.632408333333","25.22156","6502700","金山區"
"208001","761-BX","2017/12/28 19:09:34","新北市金山區福德街2號","121.639438333333","25.2219033333333","6502700","金山區"
"251009","008-UM","2017/12/28 19:09:31","新北市淡水區清水街147-2號","121.440213333333","25.17166","6501000","淡水區"
"251001","011-UM","2017/12/28 19:09:34","新北市淡水區自強路201巷39號","121.462133333333","25.1268516666667","6501000","淡水區"
"251007","179-VK","2017/12/28 19:09:14","新北市淡水區民生路145巷33號","121.466793333333","25.138995","6501000","淡水區"
"251014","182-VK","2017/12/28 19:09:45","新北市淡水區小中寮19-7號","121.484716666667","25.2296083333333","6501000","淡水區"
"251010","413-VK","2017/12/28 19:09:38","新北市淡水區中正路一段156巷3號","121.42122","25.1803316666667","6501000","淡水區"
"251016","442-VK","2017/12/28 19:09:39","新北市淡水區下圭柔山119-51號","121.450738333333","25.2084283333333","6501000","淡水區"
"251002","672-BX","2017/12/28 19:09:13","新北市淡水區中山路87巷1號","121.442546666667","25.1704966666667","6501000","淡水區"
"251003","766-UM","2017/12/28 19:09:30","新北市淡水區中山北路一段80號","121.442338333333","25.176055","6501000","淡水區"
"207003","550-UM","2017/12/28 19:08:18","新北市萬里區大鵬里萬里加投29-2號","121.646938333333","25.2081483333333","6502800","萬里區"
"207004","225-TW","2017/12/28 19:09:22","新北市萬里區萬里里瑪鋉下街50號","121.691568333333","25.179495","6502800","萬里區"
"252002","178-VK","2017/12/28 19:09:36","新北市三芝區埔坪里埔頭坑84號","121.508118333333","25.2542966666667","6502100","三芝區"
"252003","249-BX","2017/12/28 19:09:42","新北市三芝區錫板里南勢崗8號","121.479243333333","25.2616233333333","6502100","三芝區"
"252001","292-VK","2017/12/28 19:09:26","新北市三芝區長勤街82號","121.500251666667","25.2550516666667","6502100","三芝區"
"237004","078-UY","2017/12/28 19:09:35","新北市三峽區有木212號","121.44051","24.852095","6500900","三峽區"
"237007","153-BY","2017/12/28 19:09:31","新北市三峽區中正路二段169號","121.36609","24.91462","6500900","三峽區"
"237009","210-TH","2017/12/28 19:09:25","新北市三峽區民生街108號","121.373538333333","24.935355","6500900","三峽區"
"237013","252-BX","2017/12/28 19:09:20","新北市三峽區光明路69巷25號","121.37664","24.9291533333333","6500900","三峽區"
"237012","275-BY","2017/12/28 19:09:34","新北市三峽區三樹路222巷254弄79號","121.393821666667","24.9444816666667","6500900","三峽區"
"237008","302-VK","2017/12/28 19:09:33","新北市三峽區中正路一段283-1號","121.371681666667","24.925835","6500900","三峽區"
"237014","433-BY","2017/12/28 19:09:17","新北市三峽區大勇路22號","121.367041666667","24.9380066666667","6500900","三峽區"
"237006","5529-G3","2017/12/28 19:09:20","新北市三峽區橫溪路140號","121.399146666667","24.9352716666667","6500900","三峽區"
"237011","572-TV","2017/12/28 13:09:16","新北市三峽區中山路459巷163-3號","121.348653333333","24.9330233333333","6500900","三峽區"
"237016","649-BX","2017/12/28 18:58:52","新北市三峽區建安71號","121.449058333333","24.9259816666667","6500900","三峽區"
"237010","706-TV","2017/12/28 19:05:36","新北市三峽區復興路1號","121.374371666667","24.9359616666667","6500900","三峽區"
"237005","AKY-6261","2017/12/28 19:09:36","新北市三峽區中山路459巷163-3號","121.34867","24.9329833333333","6500900","三峽區"
"236071","105-UM","2017/12/28 19:09:38","新北市土城區裕生路84巷8號","121.446883333333","24.9855566666667","6501300","土城區"
"236078","166-UM","2017/12/28 19:09:20","新北市土城區龍泉路36-1號","121.411821666667","24.946475","6501300","土城區"
"236030","253-BX","2017/12/28 19:09:29","新北市土城區城林路6巷80號","121.438465","24.9800783333333","6501300","土城區"
"236026","269-VK","2017/12/28 19:09:34","新北市土城區中正路56巷2號","121.443778333333","24.9753583333333","6501300","土城區"
"236014","270-VK","2017/12/28 19:09:27","新北市土城區學府路一段37巷30號","121.457341666667","24.9875466666667","6501300","土城區"
"236037","271-VK","2017/12/28 19:08:50","新北市土城區清水路141巷8號","121.458375","24.9818733333333","6501300","土城區"
"236021","401-BY","2017/12/28 19:09:34","新北市土城區延峰街36巷9號","121.469365","24.9844733333333","6501300","土城區"
"236058","912-UM","2017/12/28 19:08:53","新北市土城區金城路二段214號","121.455745","24.982465","6501300","土城區"
"236051","913-UM","2017/12/28 19:09:41","新北市土城區明德路一段398-1號","121.453656666667","24.9790733333333","6501300","土城區"
"236053","AAC-216","2017/12/28 19:09:36","新北市土城區學府路一段266號","121.451198333333","24.984215","6501300","土城區"
"238015","755-BX","2017/12/28 19:09:28","新北市樹林區備內街105號","121.40701","24.9895333333333","6500700","樹林區"
"238023","601-UM","2017/12/28 19:09:15","新北市樹林區大慶街57號","121.39608","25.0138833333333","6500700","樹林區"
"238019","599-UM","2017/12/28 19:09:44","新北市樹林區鎮前街347巷1弄20號","121.417153333333","24.9839483333333","6500700","樹林區"
"238018","571-TV","2017/12/28 19:09:21","新北市樹林區太平路50號","121.419085","24.9825033333333","6500700","樹林區"
"238021","KEA-2217","2017/12/28 19:08:47","新北市樹林區柑園街二段276巷22號","121.372855","24.9530316666667","6500700","樹林區"
"238022","KEA-2213","2017/12/28 19:09:33","新北市樹林區中山路二段151巷6弄3號","121.406593333333","24.9782233333333","6500700","樹林區"
"238025","303-VK","2017/12/28 19:09:27","新北市樹林區中山路三段349號","121.39008","24.9706233333333","6500700","樹林區"
"238017","283-BY","2017/12/28 19:09:28","新北市樹林區光興街50號","121.409833333333","25.0027366666667","6500700","樹林區"
"238001","282-BY","2017/12/28 19:09:30","新北市樹林區千歲街92巷1號","121.42684","24.9977","6500700","樹林區"
"238026","172-UY","2017/12/28 19:09:29","新北市樹林區佳園路一段39號","121.39321","24.970805","6500700","樹林區"
"238016","169-UY","2017/12/28 19:09:37","新北市樹林區復興路335巷4號","121.417915","24.98771","6500700","樹林區"
"239007","AAC-297","2017/12/28 19:09:27","新北市鶯歌區中正一路225號","121.35409","24.9574633333333","6500800","鶯歌區"
"239008","527-UM","2017/12/28 19:09:42","新北市鶯歌區國際二路8巷7號","121.338331666667","24.9740466666667","6500800","鶯歌區"
"239005","526-UM","2017/12/28 19:09:37","新北市鶯歌區大湖路718號","121.332538333333","24.9760816666667","6500800","鶯歌區"
"239001","417-VK","2017/12/28 19:08:45","新北市鶯歌區永安街52號","121.338025","24.9563733333333","6500800","鶯歌區"
"239003","360-BY","2017/12/28 19:09:30","新北市鶯歌區鶯桃路362-1號","121.333815","24.9627366666667","6500800","鶯歌區"
"239002","359-BY","2017/12/28 19:09:39","新北市鶯歌區中正一路309號","121.356753333333","24.95711","6500800","鶯歌區"
"239004","193-VK","2017/12/28 19:09:10","新北市鶯歌區中正三路335巷30號","121.329163333333","24.9344683333333","6500800","鶯歌區"
"221008","489-VK","2017/12/28 19:09:08","新北市汐止區康寧街495-2號","121.632656666667","25.06849","6501100","汐止區"
"221036","130-UY","2017/12/28 19:09:06","新北市汐止區仁愛路331號","121.66401","25.0680083333333","6501100","汐止區"
"221010","269-BY","2017/12/28 19:09:10","新北市汐止區康寧街901號","121.651535","25.07509","6501100","汐止區"
"221012","276-VK","2017/12/28 13:38:34","新北市汐止區汐萬路一段256巷3號","121.65341","25.0746066666667","6501100","汐止區"
"221012","278-VK","2017/12/28 19:09:14","新北市汐止區康寧街901號","121.650773333333","25.0752883333333","6501100","汐止區"
"221023","279-VK","2017/12/28 19:09:40","新北市汐止區康寧街901號","121.650973333333","25.0752066666667","6501100","汐止區"
"221032","280-BY","2017/12/28 19:09:31","新北市汐止區橫科路241-1號","121.622148333333","25.049115","6501100","汐止區"
"221027","281-BY","2017/12/28 19:09:42","新北市汐止區康寧街901號","121.651425","25.074945","6501100","汐止區"
"221029","298-VK","2017/12/28 19:09:41","新北市汐止區汐萬路一段256巷3號","121.652926666667","25.074375","6501100","汐止區"
"221021","299-VK","2017/12/28 19:09:04","新北市汐止區康寧街901號","121.651408333333","25.0750266666667","6501100","汐止區"
"221031","353-TW","2017/12/28 19:09:30","新北市汐止區福德三路127號","121.633536666667","25.0675683333333","6501100","汐止區"
"221015","567-BX","2017/12/28 19:09:24","新北市汐止區汐萬路一段37號","121.655453333333","25.0685333333333","6501100","汐止區"
"221025","623-UM","2017/12/28 19:09:35","新北市汐止區康寧街901號","121.65159","25.0749783333333","6501100","汐止區"
"221038","646-BX","2017/12/28 19:09:38","新北市汐止區汐萬路一段312號","121.650635","25.07531","6501100","汐止區"
"221033","647-BX","2017/12/28 19:09:19","新北市汐止區南勢街1巷1號","121.627076666667","25.0374433333333","6501100","汐止區"
"221002","707-TV","2017/12/28 19:09:27","台北市南港區南港路一段28號","121.618823333333","25.054655","6501100","汐止區"
"221018","753-BX","2017/12/28 19:09:28","新北市汐止區康寧街901號","121.651536666667","25.074935","6501100","汐止區"
"220079","145-BY","2017/12/28 19:07:22","新北市板橋區民權路260巷24-2號","121.458738333333","25.0152816666667","6500100","板橋區"
"220080","200-UY","2017/12/28 19:09:40","新北市板橋區大觀路二段7巷24號","121.447908333333","25.0033716666667","6500100","板橋區"
"220082","610-BX","2017/12/28 19:08:37","新北市板橋區溪崑二街63號","121.428088333333","24.9904116666667","6500100","板橋區"
"220101","245-BX","2017/12/28 19:08:27","新北市板橋區萬板路51號","121.471356666667","25.0214733333333","6500100","板橋區"
"220056","276-BY","2017/12/28 19:08:15","新北市板橋區信義路74巷3弄1號","121.457068333333","24.993055","6500100","板橋區"
"220072","277-BY","2017/12/28 19:07:27","新北市板橋區金門街369巷26號","121.42866","24.9832083333333","6500100","板橋區"
"220071","283-VK","2017/12/28 19:09:16","新北市板橋區和平路233號","121.465286666667","24.9982966666667","6500100","板橋區"
"220094","285-UM","2017/12/28 19:09:13","新北市板橋區光武街127巷1號","121.465983333333","25.0287016666667","6500100","板橋區"
"220053","285-VK","2017/12/28 19:08:20","新北市板橋區懷仁街14巷8號","121.475726666667","25.0199016666667","6500100","板橋區"
"220083","286-VK","2017/12/28 19:09:28","新北市板橋區大觀路二段174巷176弄16號","121.442813333333","25.00314","6500100","板橋區"
"220081","287-VK","2017/12/28 19:09:25","新北市板橋區光華街39巷23號","121.453143333333","25.0129616666667","6500100","板橋區"
"220090","288-VK","2017/12/28 19:06:30","新北市板橋區四維路291巷1號","121.461941666667","25.0282833333333","6500100","板橋區"
"220061","295-UM","2017/12/28 19:08:29","新北市板橋區懷仁街97號","121.477623333333","25.0180783333333","6500100","板橋區"
"220084","296-UM","2017/12/28 19:09:29","新北市板橋區篤行路二段125-2號","121.431255","24.9906933333333","6500100","板橋區"
"220075","297-UM","2017/12/28 19:09:43","新北市板橋區南雅南路一段3巷25-5號","121.456795","25.0059233333333","6500100","板橋區"
"220062","303-R5","2017/12/28 19:09:44","新北市板橋區三民路二段245巷69弄1號","121.481076666667","25.0128333333333","6500100","板橋區"
"220092","307-R5","2017/12/28 19:09:12","新北市板橋區文化路二段225巷72弄32號","121.468978333333","25.0291933333333","6500100","板橋區"
"220098","317-R6","2017/12/28 19:08:26","新北市板橋區四維路103巷12號","121.46473","25.02412","6500100","板橋區"
"220064","486-VK","2017/12/28 19:08:00","新北市板橋區板新路1號","121.475598333333","25.0124133333333","6500100","板橋區"
"220089","487-VK","2017/12/28 19:08:41","新北市板橋區文化路二段472號","121.475076666667","25.0327833333333","6500100","板橋區"
"220088","491-VK","2017/12/28 19:09:32","新北市板橋區文化路二段182巷1弄15號","121.471405","25.027855","6500100","板橋區"
"220035","560-BX","2017/12/28 19:08:57","新北市板橋區中正路397號","121.454195","25.022055","6500100","板橋區"
"220103","561-BX","2017/12/28 19:09:19","新北市板橋區文化路一段188巷9弄21號","121.468468333333","25.0195116666667","6500100","板橋區"
"220063","609-BX","2017/12/28 19:08:51","新北市板橋區三民路二段144號","121.479155","25.0154683333333","6500100","板橋區"
"220091","637-BX","2017/12/28 19:09:09","新北市板橋區縣民大道三段247巷32-2號","121.482031666667","25.0266016666667","6500100","板橋區"
"220057","686-BX","2017/12/28 19:08:55","新北市板橋區成都街69號","121.462358333333","25.0050016666667","6500100","板橋區"
"220077","687-BX","2017/12/28 19:09:19","新北市板橋區大觀路二段71號","121.4465","25.002345","6500100","板橋區"
"220093","689-BX","2017/12/28 19:09:30","新北市板橋區民生路三段303號","121.463816666667","25.0308583333333","6500100","板橋區"
"220054","741-BX","2017/12/28 19:09:16","新北市板橋區重慶路89巷15號","121.462675","25.0065333333333","6500100","板橋區"
"220055","827-TW","2017/12/28 19:08:42","新北市板橋區新民街9號","121.46389","25.00974","6500100","板橋區"
"220014","829-TW","2017/12/28 19:08:31","新北市板橋區中山路二段90巷43弄2號","121.476493333333","25.01491","6500100","板橋區"
"220102","830-TW","2017/12/28 19:09:36","新北市板橋區萬板路818巷9號","121.483013333333","25.0267083333333","6500100","板橋區"
"220074","895-R6","2017/12/28 19:09:16","新北市板橋區中正路自強新村41-1號","121.455385","25.0138783333333","6500100","板橋區"
"220073","985-R7","2017/12/28 19:07:25","新北市板橋區中正路214號","121.455926666667","25.01825","6500100","板橋區"
"220097","AAC-210","2017/12/28 19:09:41","新北市板橋區英士路153號","121.459501666667","25.023865","6500100","板橋區"
"220070","AAC-253","2017/12/28 19:09:15","新北市板橋區忠孝路35號","121.460908333333","25.0020766666667","6500100","板橋區"
