"lineid","car","time","location","longitude","latitude","cityid","cityname"
"234046","148-BY","2017/12/28 19:19:48","新北市永和區永元路21號","121.522038333333","25.000555","6500400","永和區"
"234013","149-BY","2017/12/28 19:19:34","新北市永和區永和路二段119號","121.514795","25.0120766666667","6500400","永和區"
"234007","207-UY","2017/12/28 19:19:31","新北市永和區中山路一段307號","121.506495","25.00662","6500400","永和區"
"234081","298-R6","2017/12/28 19:19:35","新北市永和區福和路7巷11弄2號","121.525518333333","25.0071916666667","6500400","永和區"
"234038","336-UY","2017/12/28 19:19:38","新北市永和區民樂街70號","121.52741","24.9984","6500400","永和區"
"234064","337-UY","2017/12/28 19:19:41","新北市永和區永元路17巷6弄4號","121.52138","25.0006216666667","6500400","永和區"
"234086","338-UY","2017/12/28 19:19:32","新北市永和區永利路86號","121.520673333333","25.0039383333333","6500400","永和區"
"234054","553-UM","2017/12/28 19:19:37","新北市永和區中興街20號","121.516098333333","25.0118416666667","6500400","永和區"
"234017","745-BX","2017/12/28 19:19:36","新北市永和區文化路144巷27號","121.512475","25.0167116666667","6500400","永和區"
"234030","746-BX","2017/12/28 19:19:37","新北市永和區厚德街58號","121.524453333333","24.9988283333333","6500400","永和區"
"234061","AAD-866","2017/12/28 19:19:12","新北市永和區秀朗路一段175號","121.517063333333","25.003685","6500400","永和區"
"234070","847-RS","2017/12/28 19:19:38","新北市永和區豫溪街49號","121.517048333333","25.0098933333333","6500400","永和區"
"234042","862-TW","2017/12/28 19:19:42","新北市永和區保平路151巷2弄7-1號","121.509688333333","25.0053","6500400","永和區"
"234050","863-TW","2017/12/28 19:19:29","新北市永和區仁愛路138號","121.511203333333","25.0135316666667","6500400","永和區"
"234026","9371-KE","2017/12/28 19:19:45","新北市永和區安樂路144巷26號","121.51528","24.999635","6500400","永和區"
"234011","9373-KE","2017/12/28 19:19:44","新北市永和區保福路二段14-1號","121.510935","25.0114333333333","6500400","永和區"
"249001","173-UM","2017/12/28 19:19:37","新北市八里區中華路二段103-1號","121.409288333333","25.1522516666667","6502300","八里區"
"249003","593-UM","2017/12/28 19:19:42","新北市八里區中山路二段448號","121.399318333333","25.1472416666667","6502300","八里區"
"248020","225-UY","2017/12/28 19:00:33","新北市五股區凌雲路三段57號","121.425281666667","25.12499","6501500","五股區"
"248012","247-BX","2017/12/28 19:19:43","新北市五股區中興路四段48巷16號","121.438596666667","25.083445","6501500","五股區"
"248010","272-BY","2017/12/28 19:19:38","新北市五股區自強路90巷72號","121.43068","25.0712266666667","6501500","五股區"
"248004","677-BX","2017/12/28 19:19:43","新北市五股區五福路49號","121.433023333333","25.0896983333333","6501500","五股區"
"248002","678-BX","2017/12/28 19:19:15","新北市五股區凌雲路一段158巷14號","121.447773333333","25.10342","6501500","五股區"
"234023","9380-KE","2017/12/28 19:19:00","新北市永和區竹林路124巷8號","121.51943","25.0112966666667","6500400","永和區"
"234077","969-R7","2017/12/28 19:19:43","新北市永和區民族街44號","121.51832","24.99875","6500400","永和區"
"234074","AAC-211","2017/12/28 19:19:47","新北市永和區竹林路105號","121.519778333333","25.0118616666667","6500400","永和區"
"234067","AAC-212","2017/12/28 19:19:02","新北市永和區保平路30巷7號","121.511616666667","25.0076433333333","6500400","永和區"
"234003","AAC-295","2017/12/28 19:19:37","新北市永和區中山路一段129號","121.510568333333","25.0100166666667","6500400","永和區"
"244013","069-UM","2017/12/28 19:19:35","新北市林口區麗園一街2巷1號","121.375755","25.071655","6501700","林口區"
"244019","403-UM","2017/12/28 19:19:36","新北市林口區麗園二街1巷8-3號","121.378665","25.0701783333333","6501700","林口區"
"244023","483-VK","2017/12/28 19:19:12","新北市林口區仁愛路二段271號","121.373288333333","25.0774266666667","6501700","林口區"
"244011","656-BX","2017/12/28 19:19:21","新北市林口區中山路518號","121.378875","25.0831183333333","6501700","林口區"
"243012","AAD-798","2017/12/28 19:19:41","新北市泰山區仁愛路100巷31號","121.433611666667","25.054965","6501600","泰山區"
"243011","297-R6","2017/12/28 19:19:31","新北市泰山區貴子路15巷4弄4號","121.426613333333","25.0422083333333","6501600","泰山區"
"243015","380-SR","2017/12/28 19:19:29","新北市泰山區公園路51號","121.427415","25.0548333333333","6501600","泰山區"
"243014","421-VK","2017/12/28 19:19:40","新北市泰山區泰林路二段85號","121.434828333333","25.0587216666667","6501600","泰山區"
"243010","KEA-2215","2017/12/28 19:19:22","新北市泰山區明志路一段492巷7號","121.429943333333","25.0547883333333","6501600","泰山區"
"243009","KEA-2216","2017/12/28 19:19:45","新北市泰山區明志路一段17號","121.433843333333","25.0658216666667","6501600","泰山區"
"243013","646-TV","2017/12/28 19:19:33","新北市泰山區明志路三段145巷2弄1號","121.42546","25.0398866666667","6501600","泰山區"
"243016","680-BX","2017/12/28 19:19:30","新北市泰山區工專路61號","121.422565","25.0403933333333","6501600","泰山區"
"222003","436-BY","2017/12/28 19:19:42","新北市深坑區深南路204號","121.626635","25.0160283333333","6501800","深坑區"
"222002","659-BX","2017/12/28 19:19:32","新北市深坑區北深路一段177號","121.632558333333","25.0108683333333","6501800","深坑區"
"222001","696-SL","2017/12/28 19:19:49","新北市深坑區北深路二段84號","121.617441666667","25.0035016666667","6501800","深坑區"
"231066","0293-UT","2017/12/28 19:19:38","新北市新店區安康路三段355巷47號","121.485035","24.9493066666667","6500600","新店區"
"231059","046-UY","2017/12/28 19:19:18","新北市新店區安和路三段33-1號","121.516941666667","24.98004","6500600","新店區"
"231061","047-UY","2017/12/28 19:19:46","新北市新店區安康路一段194號","121.524576666667","24.963395","6500600","新店區"
"231060","106-UY","2017/12/28 19:19:42","新北市新店區安康路二段98號","121.513556666667","24.9629983333333","6500600","新店區"
"231051","107-UY","2017/12/28 19:19:30","新北市新店區中央路63號","121.532636666667","24.97714","6500600","新店區"
"231047","108-UY","2017/12/28 19:18:27","新北市新店區中興路二段39號","121.546316666667","24.969965","6500600","新店區"
"231052","187-VK","2017/12/28 19:19:42","新北市新店區自強路197號","121.546613333333","24.920375","6500600","新店區"
"231050","KEA-2219","2017/12/28 19:19:10","新北市新店區竹林路87巷4號","121.554395","24.9505916666667","6500600","新店區"
"231046","278-BY","2017/12/28 19:19:19","新北市新店區華城路36巷1-1號","121.528448333333","24.9553033333333","6500600","新店區"
"231054","AAD-862","2017/12/28 19:19:38","新北市新店區國校路20-1號","121.537923333333","24.9550966666667","6500600","新店區"
"231041","355-BY","2017/12/28 19:19:36","新北市新店區溪園路245-6號","121.525433333333","24.98329","6500600","新店區"
"231058","3712-VJ","2017/12/28 19:19:35","新北市新店區北新路二段2號","121.5426","24.9707116666667","6500600","新店區"
"231065","512-UM","2017/12/28 19:19:43","新北市新店區安祥路108巷35號","121.474943333333","24.9570733333333","6500600","新店區"
"231064","515-UM","2017/12/28 19:19:35","新北市新店區安忠路57巷26弄22號","121.512635","24.958415","6500600","新店區"
"231040","619-UM","2017/12/28 19:19:46","新北市新店區三民路20巷4號","121.537856666667","24.9705383333333","6500600","新店區"
"231042","641-BX","2017/12/28 19:19:46","新北市新店區北宜路一段3號","121.538518333333","24.9585666666667","6500600","新店區"
"231063","645-TV","2017/12/28 19:19:38","新北市新店區達觀路14巷1-3號","121.504013333333","24.9421466666667","6500600","新店區"
"231049","719-UM","2017/12/28 19:19:28","新北市新店區明德路64號","121.541563333333","24.979435","6500600","新店區"
"231062","720-UM","2017/12/28 19:18:54","新北市新店區莒光路97-3號","121.52237","24.9536983333333","6500600","新店區"
"231044","897-TW","2017/12/28 19:19:47","新北市新店區中興路三段330號","121.542033333333","24.9865916666667","6500600","新店區"
"231045","898-TW","2017/12/28 19:19:38","新北市新店區北宜路一段272-1號","121.546056666667","24.9527033333333","6500600","新店區"
"231043","899-TW","2017/12/28 19:19:27","新北市新店區北新路二段156-1號","121.542981666667","24.975545","6500600","新店區"
"241009","060-VK","2017/12/28 19:19:38","新北市三重區仁美街115號","121.48582","25.081095","6500200","三重區"
"241031","061-VK","2017/12/28 19:19:48","新北市三重區重新路四段97號","121.485818333333","25.0549666666667","6500200","三重區"
"241017","063-VK","2017/12/28 19:19:16","新北市三重區大同北路182號","121.491633333333","25.0658733333333","6500200","三重區"
"241026","156-TC","2017/12/28 19:19:41","新北市三重區中正南路187號","121.493665","25.0551416666667","6500200","三重區"
"241022","267-UM","2017/12/28 19:19:27","新北市三重區中正北路52號","121.487088333333","25.064305","6500200","三重區"
"241032","269-UM","2017/12/28 19:19:40","新北市三重區新生街96號","121.483345","25.059375","6500200","三重區"
"241007","398-BY","2017/12/28 19:19:13","新北市三重區慈愛街48號","121.485768333333","25.079055","6500200","三重區"
"241020","413-TH","2017/12/28 19:19:41","新北市三重區大智街183號","121.489401666667","25.072985","6500200","三重區"
"241030","480-VK","2017/12/28 19:19:33","新北市三重區成功路41巷72號","121.491435","25.05326","6500200","三重區"
"241006","AAD-863","2017/12/28 19:19:12","新北市三重區車路頭街153號","121.483763333333","25.0770033333333","6500200","三重區"
"241035","743-BX","2017/12/28 19:19:39","新北市三重區重新路三段115巷2號","121.490623333333","25.0600683333333","6500200","三重區"
"241029","942-UM","2017/12/28 19:19:14","新北市三重區重安街27號","121.491133333333","25.057095","6500200","三重區"
"235066","003-UY","2017/12/28 19:19:32","新北市中和區中和路102號","121.502653333333","24.9997066666667","6500300","中和區"
"235064","005-UY","2017/12/28 19:19:37","新北市中和區泰和街8號","121.499733333333","25.0012266666667","6500300","中和區"
"235063","006-UY","2017/12/28 19:19:28","新北市中和區連城路249巷17弄2號","121.493876666667","24.9964733333333","6500300","中和區"
"235046","031-BX","2017/12/28 19:19:37","新北市中和區忠孝街20巷5號","121.510615","24.9825683333333","6500300","中和區"
"235056","096-UM","2017/12/28 19:19:31","新北市中和區中正路1171號","121.481386666667","25.009415","6500300","中和區"
"235039","097-UM","2017/12/28 19:19:43","新北市中和區自立路58巷23號","121.523125","24.9913366666667","6500300","中和區"
"235040","150-BY","2017/12/28 19:19:29","新北市中和區保健路50巷68號","121.50913","24.9951083333333","6500300","中和區"
"235058","151-BY","2017/12/28 19:19:22","新北市中和區連城路523巷9弄11號","121.48226","24.9946383333333","6500300","中和區"
"235055","183-VK","2017/12/28 19:19:34","新北市中和區德光路18號","121.471098333333","25.00443","6500300","中和區"
"235038","185-VK","2017/12/28 19:18:54","新北市中和區大仁街10巷27弄4號","121.519226666667","24.99268","6500300","中和區"
"235049","186-VK","2017/12/28 19:18:04","新北市中和區景新街218號","121.50714","24.9951033333333","6500300","中和區"
"235067","255-BX","2017/12/28 19:19:46","新北市中和區民樂路36號","121.482943333333","25.0012616666667","6500300","中和區"
"235044","293-VK","2017/12/28 19:19:31","新北市中和區中興街263巷2號","121.50036","24.9888666666667","6500300","中和區"
"235072","301-VK","2017/12/28 19:19:13","新北市中和區連城路263巷4弄2號","121.491536666667","24.99604","6500300","中和區"
"235043","352-BY","2017/12/28 19:19:28","新北市中和區景平路428號","121.507316666667","24.99321","6500300","中和區"
"235068","377-QA","2017/12/28 19:19:42","新北市中和區連勝街38巷18號","121.49776","24.9980383333333","6500300","中和區"
"235061","378-QA","2017/12/28 19:19:30","新北市中和區員山路150-2號","121.481258333333","24.99735","6500300","中和區"
"235050","4979-A6","2017/12/28 19:19:41","新北市中和區景安路220巷18號","121.502906666667","24.9915416666667","6500300","中和區"
"235069","4980-A6","2017/12/28 19:19:33","新北市中和區中山路二段181巷22號","121.501","25.0019166666667","6500300","中和區"
"235042","551-UM","2017/12/28 19:18:06","新北市中和區大勇街60巷16號","121.51869","24.9946433333333","6500300","中和區"
"235070","558-UM","2017/12/28 19:19:16","新北市中和區中和路42號","121.50027","25.0011366666667","6500300","中和區"
"235045","565-BX","2017/12/28 19:19:49","新北市中和區景新街423巷41號","121.514381666667","24.989745","6500300","中和區"
"235054","640-BX","2017/12/28 19:19:12","新北市中和區國光街107巷2弄2-1號","121.470096666667","25.000195","6500300","中和區"
"235060","647-TV","2017/12/28 19:19:33","新北市中和區民有街7-2號","121.475618333333","25.0056133333333","6500300","中和區"
"235047","732-UM","2017/12/28 19:19:34","新北市中和區和平街54巷14號","121.509035","24.9916183333333","6500300","中和區"
"235057","801-TS","2017/12/28 19:19:12","新北市中和區民利街50號","121.479363333333","24.9987783333333","6500300","中和區"
"235041","802-TS","2017/12/28 19:19:48","新北市永和區中和路331號","121.507375","24.999765","6500300","中和區"
"235052","805-TS","2017/12/28 19:19:34","新北市中和區興南路二段159巷1-1號","121.50508","24.983515","6500300","中和區"
"235048","896-TW","2017/12/28 19:19:45","新北市中和區忠孝街79號","121.512163333333","24.98523","6500300","中和區"
"235053","900-TW","2017/12/28 19:19:07","新北市中和區華安街21巷9號","121.46742","24.9976116666667","6500300","中和區"
"235065","911-UM","2017/12/28 19:19:35","新北市中和區中山路二段64巷7弄5號","121.503596666667","25.00471","6500300","中和區"
"235051","157-BY","2017/12/28 19:19:30","新北市中和區興南路一段56巷5號","121.510438333333","24.9912316666667","6500300","中和區"
"235037","AAC-213","2017/12/28 19:18:46","新北市中和區秀朗路三段50巷12弄6號","121.524043333333","24.9952533333333","6500300","中和區"
"235059","AAC-215","2017/12/28 19:19:30","新北市中和區錦和路195巷1弄2號","121.491121666667","24.9908833333333","6500300","中和區"
"220068","013-TV","2017/12/28 15:37:30","新北市板橋區光復街38號","121.481765","25.0186183333333","6500100","板橋區"
"220065","072-UY","2017/12/28 19:19:28","新北市板橋區國泰街76巷30號","121.467213333333","25.0070583333333","6500100","板橋區"
"220086","073-UY","2017/12/28 19:19:46","新北市板橋區中正路216巷45號","121.457215","25.0189566666667","6500100","板橋區"
"220106","075-UY","2017/12/28 19:19:12","新北市板橋區雙十路三段15號","121.471051666667","25.0310616666667","6500100","板橋區"
"220069","AAD-861","2017/12/28 19:18:47","新北市板橋區大明街20巷25-3號","121.458831666667","25.0035683333333","6500100","板橋區"
"220096","120-SR","2017/12/28 19:18:22","新北市板橋區大同街26巷2號","121.477995","25.0271933333333","6500100","板橋區"
"247004","336-TH","2017/12/28 19:19:38","新北市蘆洲區長榮路750號","121.460511666667","25.0923783333333","6501400","蘆洲區"
"226004","312-R5","2017/12/28 08:48:25","新北市平溪區靜安路二段295號","121.733261666667","25.025515","6502400","平溪區"
"228003","097-TW","2017/12/28 19:19:17","新北市貢寮區和美里和美街19-2號","121.912826666667","25.0825783333333","6502600","貢寮區"
"228001","212-TW","2017/12/28 19:19:48","新北市貢寮區真理里新港街10號","121.925498333333","25.0543766666667","6502600","貢寮區"
"228002","585-TW","2017/12/28 19:19:35","新北市貢寮區雙玉里田寮洋街21號","121.926378333333","25.0246416666667","6502600","貢寮區"
"224006","676-BX","2017/12/28 19:19:45","新北市瑞芳區中山路154號","121.802285","25.1065333333333","6501200","瑞芳區"
"224009","285-BY","2017/12/28 19:19:47","新北市瑞芳區長仁路40號","121.863575","25.1178783333333","6501200","瑞芳區"
"224008","275-VK","2017/12/28 19:19:48","新北市瑞芳區一坑路99號","121.802356666667","25.1078733333333","6501200","瑞芳區"
"224005","271-BY","2017/12/28 19:19:43","新北市瑞芳區員山子路3-9號","121.820163333333","25.103915","6501200","瑞芳區"
"227010","400-TW","2017/12/28 19:19:44","新北市雙溪區新基里新基北街40號","121.868508333333","25.0380233333333","6502500","雙溪區"
"227004","030-BX","2017/12/28 19:19:39","新北市雙溪區平林里梅竹蹊43號","121.86012","25.0358083333333","6502500","雙溪區"
"253005","032-BX","2017/12/28 19:19:49","新北市石門區阿里荖15號","121.607965","25.2804366666667","6502200","石門區"
"253006","741-TV","2017/12/28 19:19:08","新北市石門區崁子腳26號","121.53534","25.290875","6502200","石門區"
"208002","742-BX","2017/12/28 19:19:32","新北市金山區中華路133號","121.633123333333","25.2209333333333","6502700","金山區"
"208003","665-BX","2017/12/28 19:19:49","新北市金山區中山路186號","121.638003333333","25.2213483333333","6502700","金山區"
"208001","761-BX","2017/12/28 19:19:34","新北市金山區慈護街25號","121.639528333333","25.2200983333333","6502700","金山區"
"251009","008-UM","2017/12/28 19:19:11","新北市淡水區中正路42-1號","121.443513333333","25.1693966666667","6501000","淡水區"
"251005","010-UM","2017/12/28 19:18:48","新北市淡水區水源街一段27巷1號","121.443118333333","25.172455","6501000","淡水區"
"251001","011-UM","2017/12/28 19:19:34","新北市淡水區自強路201巷39號","121.462125","25.1268583333333","6501000","淡水區"
"251007","179-VK","2017/12/28 19:19:14","新北市淡水區民生路117巷16號","121.464986666667","25.1392583333333","6501000","淡水區"
"251014","182-VK","2017/12/28 19:19:45","新北市淡水區小中寮19-7號","121.484725","25.229605","6501000","淡水區"
"251010","413-VK","2017/12/28 19:19:18","新北市淡水區沙崙路27號","121.421515","25.18162","6501000","淡水區"
"251012","441-VK","2017/12/28 19:19:05","新北市淡水區下圭柔山91-2號","121.430341666667","25.20916","6501000","淡水區"
"251016","442-VK","2017/12/28 19:19:19","新北市淡水區下圭柔山119-51號","121.450775","25.2084216666667","6501000","淡水區"
"251006","561-UM","2017/12/28 19:19:31","新北市淡水區大信街33號","121.44199","25.1773333333333","6501000","淡水區"
"251003","766-UM","2017/12/28 19:19:24","新北市淡水區水碓街37號","121.443603333333","25.1776516666667","6501000","淡水區"
"207003","550-UM","2017/12/28 19:19:38","新北市萬里區大鵬里萬里加投79-3號","121.647321666667","25.2123316666667","6502800","萬里區"
"207004","225-TW","2017/12/28 19:19:20","新北市萬里區萬里里成功新村51號","121.688021666667","25.1746083333333","6502800","萬里區"
"252002","178-VK","2017/12/28 19:19:15","新北市三芝區淡金路二段20號","121.502676666667","25.259595","6502100","三芝區"
"252001","292-VK","2017/12/28 19:19:46","新北市三芝區長勤街9巷11弄1號","121.501815","25.254675","6502100","三芝區"
"237004","078-UY","2017/12/28 19:19:35","新北市三峽區有木205-1號","121.439065","24.8515","6500900","三峽區"
"237007","153-BY","2017/12/28 19:18:31","新北市三峽區中正路二段42巷12-1號","121.36425","24.9206016666667","6500900","三峽區"
"237009","210-TH","2017/12/28 19:19:25","新北市三峽區和平街33號","121.37036","24.9354783333333","6500900","三峽區"
"237013","252-BX","2017/12/28 19:19:39","新北市三峽區光明路75巷27號","121.377535","24.9283833333333","6500900","三峽區"
"237012","275-BY","2017/12/28 19:19:14","新北市三峽區三樹路222巷236弄23號","121.391423333333","24.9431083333333","6500900","三峽區"
"237008","302-VK","2017/12/28 19:19:33","新北市三峽區大同路105號","121.3745","24.9269166666667","6500900","三峽區"
"237014","433-BY","2017/12/28 19:19:17","新北市三峽區中山路277巷13號","121.361711666667","24.936985","6500900","三峽區"
"237006","5529-G3","2017/12/28 19:19:20","新北市三峽區大同路100號","121.374548333333","24.9270516666667","6500900","三峽區"
"237011","572-TV","2017/12/28 13:09:16","新北市三峽區中山路459巷163-3號","121.348653333333","24.9330233333333","6500900","三峽區"
"237016","649-BX","2017/12/28 19:19:32","新北市三峽區安坑48-1號","121.459395","24.932175","6500900","三峽區"
"237010","706-TV","2017/12/28 19:05:36","新北市三峽區復興路1號","121.374371666667","24.9359616666667","6500900","三峽區"
"237005","AKY-6261","2017/12/28 19:19:36","新北市三峽區中山路459巷24號","121.357451666667","24.9384883333333","6500900","三峽區"
"236071","105-UM","2017/12/28 19:18:18","新北市土城區中央路一段52號","121.447358333333","24.989935","6501300","土城區"
"236078","166-UM","2017/12/28 19:19:40","新北市土城區中央路四段321巷34弄5號","121.412716666667","24.9508733333333","6501300","土城區"
"236026","269-VK","2017/12/28 19:19:17","新北市土城區中央路二段149巷13號","121.442566666667","24.976705","6501300","土城區"
"236014","270-VK","2017/12/28 19:19:07","新北市土城區學府路一段23巷25弄46號","121.457671666667","24.9861716666667","6501300","土城區"
"236021","401-BY","2017/12/28 19:19:33","新北市土城區峰廷街3號","121.469085","24.9873283333333","6501300","土城區"
"236058","912-UM","2017/12/28 19:19:30","新北市土城區中央路三段59號","121.438796666667","24.969495","6501300","土城區"
"236051","913-UM","2017/12/28 19:19:41","新北市土城區明德路一段398-1號","121.453655","24.9790733333333","6501300","土城區"
"238015","755-BX","2017/12/28 19:19:08","新北市樹林區備內街5號","121.413038333333","24.9869233333333","6500700","樹林區"
"238023","601-UM","2017/12/28 19:18:18","新北市樹林區三興路50號","121.39498","25.0143833333333","6500700","樹林區"
"238019","599-UM","2017/12/28 19:19:05","新北市樹林區鎮前街349號","121.416478333333","24.984135","6500700","樹林區"
"238018","571-TV","2017/12/28 19:18:21","新北市樹林區中華路124號","121.417708333333","24.980515","6500700","樹林區"
"238024","5061-A6","2017/12/28 19:19:10","新北市樹林區福德街43-1號","121.400111666667","24.9750933333333","6500700","樹林區"
"238021","KEA-2217","2017/12/28 19:19:47","新北市樹林區柑園街二段384巷1號","121.367928333333","24.9490383333333","6500700","樹林區"
"238022","KEA-2213","2017/12/28 19:19:33","新北市樹林區中山路二段151巷6弄3號","121.406548333333","24.9783116666667","6500700","樹林區"
"238025","303-VK","2017/12/28 19:18:51","新北市樹林區中山路三段73號","121.400488333333","24.97493","6500700","樹林區"
"238017","283-BY","2017/12/28 19:18:51","新北市樹林區光興街376巷2號","121.406398333333","25.0057616666667","6500700","樹林區"
"238001","282-BY","2017/12/28 19:19:30","新北市樹林區千歲街44號","121.425878333333","24.9969683333333","6500700","樹林區"
"238026","172-UY","2017/12/28 19:19:42","新北市樹林區佳園路三段15號","121.388231666667","24.9550283333333","6500700","樹林區"
"238016","169-UY","2017/12/28 19:19:10","新北市樹林區復興路340號","121.416213333333","24.9865633333333","6500700","樹林區"
"239007","AAC-297","2017/12/28 19:16:27","新北市鶯歌區中山路138巷17-5號","121.351285","24.9596483333333","6500800","鶯歌區"
"239006","891-R6","2017/12/28 19:19:29","新北市鶯歌區鶯桃路268巷16弄3號","121.33617","24.9602933333333","6500800","鶯歌區"
"239008","527-UM","2017/12/28 19:19:45","新北市鶯歌區大湖路564號","121.336881666667","24.973245","6500800","鶯歌區"
"239005","526-UM","2017/12/28 19:19:37","新北市鶯歌區中湖街152巷1號","121.349713333333","24.9735316666667","6500800","鶯歌區"
"239001","417-VK","2017/12/28 19:19:25","新北市鶯歌區鶯桃路95巷78號","121.337135","24.9528466666667","6500800","鶯歌區"
"239003","360-BY","2017/12/28 19:19:30","新北市鶯歌區中正二路155-1號","121.345425","24.949805","6500800","鶯歌區"
"239002","359-BY","2017/12/28 19:19:19","新北市鶯歌區西湖街225號","121.338425","24.9648766666667","6500800","鶯歌區"
"239004","193-VK","2017/12/28 19:19:50","新北市鶯歌區鶯華新村1號","121.329936666667","24.9350383333333","6500800","鶯歌區"
"221008","489-VK","2017/12/28 19:19:28","新北市汐止區康寧街342號","121.628013333333","25.0675116666667","6501100","汐止區"
"221036","130-UY","2017/12/28 19:19:46","新北市汐止區康寧街901號","121.651558333333","25.0749533333333","6501100","汐止區"
"221010","269-BY","2017/12/28 19:19:30","新北市汐止區康寧街901號","121.651526666667","25.0750533333333","6501100","汐止區"
"221012","276-VK","2017/12/28 13:38:34","新北市汐止區汐萬路一段256巷3號","121.65341","25.0746066666667","6501100","汐止區"
"221012","278-VK","2017/12/28 19:18:54","新北市汐止區汐萬路一段312號","121.650591666667","25.0753766666667","6501100","汐止區"
"221023","279-VK","2017/12/28 19:19:20","新北市汐止區康寧街901號","121.65097","25.0752116666667","6501100","汐止區"
"221027","281-BY","2017/12/28 19:19:42","新北市汐止區汐萬路一段312號","121.650445","25.07524","6501100","汐止區"
"221021","299-VK","2017/12/28 19:19:04","新北市汐止區康寧街901號","121.651416666667","25.07505","6501100","汐止區"
"221031","353-TW","2017/12/28 19:19:10","新北市汐止區汐萬路一段256巷3號","121.652541666667","25.074515","6501100","汐止區"
"221015","567-BX","2017/12/28 19:19:45","新北市汐止區汐萬路一段256巷3號","121.653388333333","25.0745366666667","6501100","汐止區"
"221025","623-UM","2017/12/28 19:19:35","新北市汐止區汐萬路一段261號","121.650763333333","25.0741083333333","6501100","汐止區"
"221038","646-BX","2017/12/28 19:19:38","新北市汐止區汐萬路一段312號","121.650641666667","25.0753066666667","6501100","汐止區"
"221033","647-BX","2017/12/28 19:19:40","新北市汐止區南勢街1巷1號","121.627065","25.0374333333333","6501100","汐止區"
"221002","707-TV","2017/12/28 19:19:36","新北市汐止區大同路一段396號","121.639756666667","25.0597866666667","6501100","汐止區"
"221018","753-BX","2017/12/28 19:19:48","新北市汐止區康寧街901號","121.651476666667","25.0749366666667","6501100","汐止區"
"220079","145-BY","2017/12/28 19:19:50","新北市板橋區民權路202巷36號","121.46069","25.0174766666667","6500100","板橋區"
"220080","200-UY","2017/12/28 19:19:40","新北市板橋區大觀路二段19巷68號","121.448578333333","25.0029383333333","6500100","板橋區"
"220082","610-BX","2017/12/28 19:18:17","新北市板橋區溪城路85號","121.426798333333","24.9835366666667","6500100","板橋區"
"220101","245-BX","2017/12/28 19:19:26","新北市板橋區莒光路165巷44號","121.47457","25.02506","6500100","板橋區"
"220056","276-BY","2017/12/28 19:17:35","新北市板橋區信義路182號","121.459463333333","24.9914416666667","6500100","板橋區"
"220072","277-BY","2017/12/28 19:18:59","新北市板橋區金門街337巷12弄2號","121.430185","24.98481","6500100","板橋區"
"220071","283-VK","2017/12/28 19:19:16","新北市板橋區大豐街28號","121.461896666667","25.00135","6500100","板橋區"
"220094","285-UM","2017/12/28 19:17:12","新北市板橋區光武街126號","121.465571666667","25.029655","6500100","板橋區"
"220053","285-VK","2017/12/28 19:19:40","新北市板橋區富山街21號","121.477975","25.0217933333333","6500100","板橋區"
"220083","286-VK","2017/12/28 19:19:48","新北市板橋區大觀路二段174巷172號","121.44199","25.003445","6500100","板橋區"
"220081","287-VK","2017/12/28 19:19:47","新北市板橋區南雅東路89號","121.453163333333","25.0084816666667","6500100","板橋區"
"220090","288-VK","2017/12/28 19:18:49","新北市板橋區長江路一段106巷13弄36號","121.46144","25.0297983333333","6500100","板橋區"
"220061","295-UM","2017/12/28 19:17:48","新北市板橋區中山路二段318巷32號","121.480661666667","25.018415","6500100","板橋區"
"220084","296-UM","2017/12/28 19:19:01","新北市板橋區溪崑二街66巷18號","121.427418333333","24.990705","6500100","板橋區"
"220075","297-UM","2017/12/28 19:19:43","新北市板橋區南雅西路一段116號","121.4525","25.00645","6500100","板橋區"
"220062","303-R5","2017/12/28 19:17:04","新北市板橋區三民路二段居仁巷1弄42號","121.48077","25.0136616666667","6500100","板橋區"
"220092","307-R5","2017/12/28 19:19:35","新北市板橋區松江街53號","121.468528333333","25.0275833333333","6500100","板橋區"
"220098","317-R6","2017/12/28 19:18:26","新北市板橋區民有街65號","121.465238333333","25.0268066666667","6500100","板橋區"
"220064","486-VK","2017/12/28 19:19:20","新北市板橋區中山路二段21號","121.472375","25.0151083333333","6500100","板橋區"
"220089","487-VK","2017/12/28 19:19:20","新北市板橋區文化路二段9號","121.468675","25.0242666666667","6500100","板橋區"
"220088","491-VK","2017/12/28 19:17:32","新北市板橋區雙十路二段110號","121.47443","25.0286066666667","6500100","板橋區"
"220035","560-BX","2017/12/28 19:17:58","新北市板橋區新生街23巷19號","121.456545","25.0225216666667","6500100","板橋區"
"220103","561-BX","2017/12/28 19:19:39","新北市板橋區介壽街22-1號","121.467725","25.02009","6500100","板橋區"
"220063","609-BX","2017/12/28 19:18:29","新北市板橋區三民路二段136-4號","121.479163333333","25.01608","6500100","板橋區"
"220091","637-BX","2017/12/28 19:19:30","新北市板橋區松柏街78號","121.476423333333","25.0303366666667","6500100","板橋區"
"220057","686-BX","2017/12/28 19:19:35","新北市板橋區重慶路346巷8-2號","121.463621666667","24.9972566666667","6500100","板橋區"
"220077","687-BX","2017/12/28 19:18:57","新北市板橋區僑中二街10巷2號","121.447066666667","25.01099","6500100","板橋區"
"220093","689-BX","2017/12/28 19:16:03","新北市板橋區民生路三段119號","121.46627","25.0257116666667","6500100","板橋區"
"220054","741-BX","2017/12/28 19:19:13","新北市板橋區四川路一段168號","121.459975","25.0032066666667","6500100","板橋區"
"220055","827-TW","2017/12/28 19:18:42","新北市板橋區館前東路154號","121.464615","25.0078616666667","6500100","板橋區"
"220014","829-TW","2017/12/28 19:19:45","新北市板橋區長安街138巷1弄48號","121.473895","25.0099333333333","6500100","板橋區"
"220102","830-TW","2017/12/28 19:19:16","新北市板橋區田單街24號","121.482385","25.028485","6500100","板橋區"
"220074","895-R6","2017/12/28 19:19:32","新北市板橋區中正路自強新村91-1號","121.45482","25.01314","6500100","板橋區"
"220073","985-R7","2017/12/28 19:19:45","新北市板橋區新生街50號","121.456776666667","25.0210033333333","6500100","板橋區"
"220097","AAC-210","2017/12/28 19:19:42","新北市板橋區幸福路60巷5-1號","121.460926666667","25.0204333333333","6500100","板橋區"
"220070","AAC-253","2017/12/28 19:19:43","新北市板橋區忠孝路124號","121.463085","25.002305","6500100","板橋區"
