"lineid","car","time","location","longitude","latitude","cityid","cityname"
"234046","148-BY","2017/12/28 19:39:30","新北市永和區永亨路175號","121.526216666667","25.0035183333333","6500400","永和區"
"234013","149-BY","2017/12/28 19:39:34","新北市永和區永平路246號","121.508611666667","25.011015","6500400","永和區"
"234007","207-UY","2017/12/28 19:39:31","新北市中和區中和路408號","121.511475","25.0029833333333","6500400","永和區"
"234081","298-R6","2017/12/28 19:38:58","新北市永和區國中路104巷8弄28號","121.525483333333","25.0061833333333","6500400","永和區"
"234038","336-UY","2017/12/28 19:39:38","新北市永和區民樂街23號","121.527623333333","25.0019333333333","6500400","永和區"
"234064","337-UY","2017/12/28 19:38:21","新北市永和區秀朗路一段192巷6弄22號","121.519423333333","25.0019733333333","6500400","永和區"
"234086","338-UY","2017/12/28 19:39:12","新北市永和區永亨路144號","121.525218333333","25.003935","6500400","永和區"
"234054","553-UM","2017/12/28 19:39:37","新北市永和區竹林路39巷18號","121.5187","25.01456","6500400","永和區"
"234017","745-BX","2017/12/28 19:39:36","新北市永和區環河西路一段51巷24號","121.514245","25.0176033333333","6500400","永和區"
"234030","746-BX","2017/12/28 19:39:37","新北市永和區四維街103巷4號","121.523901666667","24.9977983333333","6500400","永和區"
"234061","AAD-866","2017/12/28 19:39:09","新北市永和區秀朗路一段185號","121.517425","25.0036833333333","6500400","永和區"
"234070","847-RS","2017/12/28 19:39:38","新北市永和區永和路二段215號","121.515443333333","25.0140083333333","6500400","永和區"
"234042","862-TW","2017/12/28 19:39:49","新北市中和區中和路464號","121.512238333333","25.00397","6500400","永和區"
"234050","863-TW","2017/12/28 19:39:29","新北市永和區保安路65號","121.509193333333","25.015445","6500400","永和區"
"234026","9371-KE","2017/12/28 19:39:45","新北市永和區中和路495號","121.510543333333","25.0022216666667","6500400","永和區"
"249004","303-UY","2017/12/28 19:39:46","新北市八里區博物館路31號","121.413456666667","25.1624366666667","6502300","八里區"
"249002","305-UY","2017/12/28 19:39:36","新北市八里區頂寮二街33-1號","121.450363333333","25.1251533333333","6502300","八里區"
"249003","593-UM","2017/12/28 19:39:42","新北市八里區中華路二段532號","121.399105","25.1456516666667","6502300","八里區"
"248016","026-BX","2017/12/28 19:39:09","新北市五股區成泰路三段476號","121.451798333333","25.1014433333333","6501500","五股區"
"248008","095-VK","2017/12/28 19:39:20","新北市五股區四維路116-1號","121.467973333333","25.0744583333333","6501500","五股區"
"248020","225-UY","2017/12/28 19:39:39","新北市五股區中直路10-1號","121.426965","25.1114816666667","6501500","五股區"
"248012","247-BX","2017/12/28 19:38:43","新北市五股區民義路一段48號","121.436983333333","25.0847666666667","6501500","五股區"
"248014","261-SL","2017/12/28 19:39:36","新北市五股區工商路166號","121.433576666667","25.0880516666667","6501500","五股區"
"248010","272-BY","2017/12/28 19:39:38","新北市五股區水碓一路23號","121.430653333333","25.0712383333333","6501500","五股區"
"248004","677-BX","2017/12/28 19:39:43","新北市五股區成泰路二段82號","121.4375","25.0823333333333","6501500","五股區"
"248002","678-BX","2017/12/28 19:38:55","新北市五股區成泰路三段577巷62號","121.450348333333","25.10337","6501500","五股區"
"234077","969-R7","2017/12/28 19:39:29","新北市永和區民權路82號","121.519906666667","24.9973333333333","6500400","永和區"
"234074","AAC-211","2017/12/28 19:39:47","新北市永和區竹林路225巷33號","121.522648333333","25.008745","6500400","永和區"
"234067","AAC-212","2017/12/28 19:39:32","新北市永和區中山路一段206號","121.508735","25.00862","6500400","永和區"
"234003","AAC-295","2017/12/28 19:39:37","新北市永和區自由街71號","121.513346666667","25.0052166666667","6500400","永和區"
"244019","403-UM","2017/12/28 19:39:16","新北市林口區文化一路一段237號","121.379791666667","25.0767266666667","6501700","林口區"
"243012","AAD-798","2017/12/28 19:39:41","新北市泰山區仁愛路100巷60號","121.4338","25.0543466666667","6501600","泰山區"
"243011","297-R6","2017/12/28 19:38:59","新北市泰山區明志路三段196巷21弄31號","121.42247","25.03821","6501600","泰山區"
"243015","380-SR","2017/12/28 19:39:49","新北市泰山區民權街57號","121.428856666667","25.0503316666667","6501600","泰山區"
"243014","421-VK","2017/12/28 19:39:20","新北市泰山區泰林路二段33-7號","121.435195","25.0563916666667","6501600","泰山區"
"243010","KEA-2215","2017/12/28 19:39:03","新北市泰山區仁愛路6巷36號","121.431381666667","25.052985","6501600","泰山區"
"243009","KEA-2216","2017/12/28 19:39:25","新北市泰山區美寧街58號","121.430881666667","25.0648516666667","6501600","泰山區"
"243013","646-TV","2017/12/28 19:38:53","新北市泰山區明志路三段6巷16號","121.42391","25.0436733333333","6501600","泰山區"
"243016","680-BX","2017/12/28 19:39:45","新北市泰山區中山路三段114號","121.41791","25.0321366666667","6501600","泰山區"
"222003","436-BY","2017/12/28 19:33:15","新北市深坑區深南路51-1號","121.621371666667","25.0096633333333","6501800","深坑區"
"222002","659-BX","2017/12/28 19:39:32","新北市深坑區北深路一段177號","121.632481666667","25.0108533333333","6501800","深坑區"
"222001","696-SL","2017/12/28 19:39:09","新北市深坑區北深路二段200號","121.612976666667","25.0015666666667","6501800","深坑區"
"231066","0293-UT","2017/12/28 19:39:38","新北市新店區安康路二段341巷50號","121.496633333333","24.9542883333333","6500600","新店區"
"231059","046-UY","2017/12/28 19:39:38","新北市新店區安和路二段208號","121.518213333333","24.9751083333333","6500600","新店區"
"231061","047-UY","2017/12/28 19:39:46","新北市新店區安民街147號","121.516546666667","24.9696733333333","6500600","新店區"
"231060","106-UY","2017/12/28 19:39:03","新北市新店區安康路二段157號","121.510375","24.95943","6500600","新店區"
"231051","107-UY","2017/12/28 19:39:30","新北市新店區中央四街68號","121.526915","24.9754116666667","6500600","新店區"
"231047","108-UY","2017/12/28 19:39:40","新北市新店區五峰路59-10號","121.547955","24.9699316666667","6500600","新店區"
"231052","187-VK","2017/12/28 19:39:42","新北市新店區新烏路二段422號","121.551735","24.909095","6500600","新店區"
"231050","KEA-2219","2017/12/28 19:39:50","新北市新店區郵政路97號","121.554475","24.9513816666667","6500600","新店區"
"231057","256-BX","2017/12/28 19:39:37","新北市新店區橘園一路11號","121.547986666667","24.9340366666667","6500600","新店區"
"231046","278-BY","2017/12/28 19:38:38","新北市新店區中正路329巷11-1號","121.534953333333","24.9736766666667","6500600","新店區"
"231054","AAD-862","2017/12/28 19:39:38","新北市新店區文中路45號","121.539618333333","24.95677","6500600","新店區"
"231041","355-BY","2017/12/28 19:39:36","新北市新店區中正路487號","121.533743333333","24.9821233333333","6500600","新店區"
"231058","3712-VJ","2017/12/28 19:39:35","新北市新店區中華路71號","121.539715","24.9683216666667","6500600","新店區"
"231056","3713-VJ","2017/12/28 19:39:30","新北市新店區柴埕路59號","121.513586666667","24.9649066666667","6500600","新店區"
"231067","4772-VM","2017/12/28 19:39:24","新北市新店區安康路二段296-2號","121.506521666667","24.9581266666667","6500600","新店區"
"231065","512-UM","2017/12/28 19:39:03","新北市新店區安祥路109巷90弄76號","121.475973333333","24.9584833333333","6500600","新店區"
"231064","515-UM","2017/12/28 19:39:04","新北市新店區安和路一段52巷2號","121.517641666667","24.9662183333333","6500600","新店區"
"231040","619-UM","2017/12/28 19:39:46","新北市新店區北新路一段96巷23號","121.542768333333","24.9687283333333","6500600","新店區"
"231042","641-BX","2017/12/28 19:39:46","新北市新店區中興路一段216號","121.543875","24.965795","6500600","新店區"
"231063","645-TV","2017/12/28 19:38:38","新北市新店區達觀路43號","121.502863333333","24.9380783333333","6500600","新店區"
"231049","719-UM","2017/12/28 19:39:15","新北市新店區大豐路47號","121.540051666667","24.9798316666667","6500600","新店區"
"231062","720-UM","2017/12/28 19:39:33","新北市新店區碧潭路41號","121.53397","24.9562316666667","6500600","新店區"
"231044","897-TW","2017/12/28 19:39:33","新北市新店區北新路三段17號","121.542148333333","24.9797066666667","6500600","新店區"
"231045","898-TW","2017/12/28 19:39:20","新北市新店區北宜路二段150-1號","121.557806666667","24.9539616666667","6500600","新店區"
"231043","899-TW","2017/12/28 19:39:49","新北市新店區中正路133號","121.541773333333","24.971335","6500600","新店區"
"241011","013-R5","2017/12/28 19:39:00","新北市三重區秀江街180號","121.497953333333","25.0716833333333","6500200","三重區"
"241028","022-UY","2017/12/28 19:39:23","新北市三重區中正南路192號","121.494","25.0560316666667","6500200","三重區"
"241008","059-VK","2017/12/28 19:38:30","新北市三重區永福街74號","121.478861666667","25.0767316666667","6500200","三重區"
"241009","060-VK","2017/12/28 19:39:38","新北市三重區三和路四段400巷32號","121.479988333333","25.0790983333333","6500200","三重區"
"241031","061-VK","2017/12/28 19:39:48","新北市三重區重新路四段248號","121.486155","25.0534416666667","6500200","三重區"
"241015","062-VK","2017/12/28 19:39:31","新北市三重區福德北路30-1號","121.502035","25.0650683333333","6500200","三重區"
"241017","063-VK","2017/12/28 19:39:36","新北市三重區大同北路223-1號","121.4913","25.0661833333333","6500200","三重區"
"241026","156-TC","2017/12/28 19:39:41","新北市三重區光興街43號","121.499405","25.0602816666667","6500200","三重區"
"241022","267-UM","2017/12/28 19:39:17","新北市三重區中正北路166號","121.484363333333","25.0661683333333","6500200","三重區"
"241032","269-UM","2017/12/28 19:39:40","新北市三重區三陽路63號","121.484318333333","25.0588566666667","6500200","三重區"
"241013","270-UM","2017/12/28 19:39:47","新北市三重區仁愛街129巷4號","121.495853333333","25.0750583333333","6500200","三重區"
"241025","271-UM","2017/12/28 19:38:43","新北市三重區頂崁街201巷1號","121.477361666667","25.0669733333333","6500200","三重區"
"241007","398-BY","2017/12/28 19:38:53","新北市三重區溪尾街126巷102號","121.487465","25.0786666666667","6500200","三重區"
"241020","413-TH","2017/12/28 19:39:40","新北市三重區三和路四段20巷99號","121.488156666667","25.0731983333333","6500200","三重區"
"241019","478-VK","2017/12/28 19:39:31","新北市三重區六張街194巷1弄12號","121.488285","25.06819","6500200","三重區"
"241030","480-VK","2017/12/28 19:39:13","新北市三重區新興路28巷14號","121.49174","25.05289","6500200","三重區"
"241014","543-UM","2017/12/28 19:39:44","新北市三重區河邊北街82號","121.504236666667","25.06901","6500200","三重區"
"241023","545-UM","2017/12/28 19:39:14","新北市三重區忠孝路三段99巷21號","121.479483333333","25.0642766666667","6500200","三重區"
"241001","547-UM","2017/12/28 19:39:26","新北市三重區仁愛街315巷15號","121.493463333333","25.0796466666667","6500200","三重區"
"241006","AAD-863","2017/12/28 19:38:12","新北市三重區聯華街108號","121.485278333333","25.0751083333333","6500200","三重區"
"241035","743-BX","2017/12/28 19:39:44","新北市三重區正義北路61-2號","121.497473333333","25.064505","6500200","三重區"
"241012","941-UM","2017/12/28 19:39:44","新北市三重區河邊北街256巷33號","121.500561666667","25.0759716666667","6500200","三重區"
"241029","942-UM","2017/12/28 19:39:34","新北市三重區同安街143號","121.493153333333","25.0560866666667","6500200","三重區"
"235066","003-UY","2017/12/28 19:39:12","新北市中和區景新街71號","121.504993333333","24.998835","6500300","中和區"
"235064","005-UY","2017/12/28 19:39:36","新北市中和區南山路127巷8弄1號","121.502913333333","24.9972433333333","6500300","中和區"
"235063","006-UY","2017/12/28 19:39:28","新北市中和區連城路203巷10弄1號","121.495118333333","24.9973716666667","6500300","中和區"
"235046","031-BX","2017/12/28 19:39:17","新北市中和區景新街496巷8弄1號","121.513278333333","24.9867633333333","6500300","中和區"
"235056","096-UM","2017/12/28 19:39:31","新北市中和區員山路581巷31弄22號","121.476615","25.0103533333333","6500300","中和區"
"235039","097-UM","2017/12/28 19:39:43","新北市中和區秀峰街119巷8弄9號","121.518938333333","24.9899083333333","6500300","中和區"
"235040","150-BY","2017/12/28 19:39:29","新北市中和區宜安路80號","121.51104","24.99755","6500300","中和區"
"235058","151-BY","2017/12/28 19:39:02","新北市中和區員山路124巷3號","121.48156","24.995985","6500300","中和區"
"235055","183-VK","2017/12/28 19:39:34","新北市中和區中山路三段181巷4號","121.47287","25.005875","6500300","中和區"
"235038","185-VK","2017/12/28 19:39:34","新北市中和區自立路127號","121.521998333333","24.9940733333333","6500300","中和區"
"235049","186-VK","2017/12/28 19:39:44","新北市中和區安平路14號","121.509201666667","24.9941183333333","6500300","中和區"
"235067","255-BX","2017/12/28 19:39:46","新北市中和區新生街186巷14號","121.483001666667","24.9996733333333","6500300","中和區"
"235044","293-VK","2017/12/28 19:39:51","新北市中和區興南路一段113號","121.509251666667","24.988055","6500300","中和區"
"235072","301-VK","2017/12/28 19:39:33","新北市中和區錦和路91-1號","121.490128333333","24.995715","6500300","中和區"
"235043","352-BY","2017/12/28 19:39:45","新北市中和區興南路一段9號","121.51143","24.99105","6500300","中和區"
"235068","377-QA","2017/12/28 19:39:42","新北市中和區景平路481號","121.500353333333","24.99744","6500300","中和區"
"235061","378-QA","2017/12/28 19:39:19","新北市中和區員山路327巷2號","121.481225","25.0012366666667","6500300","中和區"
"235050","4979-A6","2017/12/28 19:39:41","新北市中和區錦和路350-1號","121.490346666667","24.9935533333333","6500300","中和區"
"235042","551-UM","2017/12/28 19:39:26","新北市中和區中和路262巷49號","121.510091666667","24.9999566666667","6500300","中和區"
"235070","558-UM","2017/12/28 19:39:36","新北市中和區景平路624號","121.500483333333","24.997505","6500300","中和區"
"235045","565-BX","2017/12/28 19:39:41","新北市中和區景新街469號","121.513486666667","24.9880866666667","6500300","中和區"
"235054","640-BX","2017/12/28 19:39:46","新北市中和區國光街107巷4弄6號","121.470218333333","24.99958","6500300","中和區"
"235060","647-TV","2017/12/28 19:39:14","新北市中和區新生街114巷3號","121.483293333333","25.0023683333333","6500300","中和區"
"235047","732-UM","2017/12/28 19:39:34","新北市中和區和平街182巷3號","121.505165","24.9925783333333","6500300","中和區"
"235057","801-TS","2017/12/28 19:38:26","新北市中和區員山路284號","121.481363333333","25.002245","6500300","中和區"
"235041","802-TS","2017/12/28 19:39:48","新北市永和區中和路585號","121.512101666667","25.0039266666667","6500300","中和區"
"235052","805-TS","2017/12/28 19:39:14","新北市中和區華新街206巷18號","121.506248333333","24.98269","6500300","中和區"
"235048","896-TW","2017/12/28 19:39:45","新北市中和區忠孝街1巷2-1號","121.509166666667","24.983025","6500300","中和區"
"235053","900-TW","2017/12/28 19:39:47","新北市中和區國光街184巷14號","121.467283333333","25.0020483333333","6500300","中和區"
"235065","911-UM","2017/12/28 19:39:15","新北市中和區永和路9巷1號","121.499245","25.0040133333333","6500300","中和區"
"235051","157-BY","2017/12/28 19:39:10","新北市中和區中正路2號","121.503235","24.9938266666667","6500300","中和區"
"235037","AAC-213","2017/12/28 19:39:20","新北市中和區秀朗路三段10巷21弄8號","121.525201666667","24.9960633333333","6500300","中和區"
"235059","AAC-215","2017/12/28 19:39:10","新北市中和區錦和路203巷13號","121.491326666667","24.9905383333333","6500300","中和區"
"220068","013-TV","2017/12/28 15:37:30","新北市板橋區光復街38號","121.481765","25.0186183333333","6500100","板橋區"
"220065","072-UY","2017/12/28 19:39:28","新北市板橋區國泰街39巷2弄1號","121.468426666667","25.0062433333333","6500100","板橋區"
"220086","073-UY","2017/12/28 19:35:46","新北市板橋區國光路31號","121.45708","25.017565","6500100","板橋區"
"220106","075-UY","2017/12/28 19:39:32","新北市板橋區雙十路三段54號","121.47105","25.0315833333333","6500100","板橋區"
"220069","AAD-861","2017/12/28 19:39:46","新北市板橋區縣民大道一段64巷3號","121.455523333333","25.0037166666667","6500100","板橋區"
"220096","120-SR","2017/12/28 19:39:42","新北市板橋區民生路二段234巷77號","121.47022","25.0225433333333","6500100","板橋區"
"247008","341-TH","2017/12/28 19:38:35","新北市蘆洲區中山一路158號","121.474776666667","25.0814383333333","6501400","蘆洲區"
"247004","336-TH","2017/12/28 19:39:38","新北市蘆洲區中華街6巷14號","121.463031666667","25.08201","6501400","蘆洲區"
"226004","312-R5","2017/12/28 08:48:25","新北市平溪區靜安路二段295號","121.733261666667","25.025515","6502400","平溪區"
"228003","097-TW","2017/12/28 19:39:37","新北市貢寮區真理里美艷山街15-3號","121.923745","25.0679683333333","6502600","貢寮區"
"228001","212-TW","2017/12/28 19:39:28","新北市貢寮區真理里延平街49號","121.924623333333","25.0556616666667","6502600","貢寮區"
"224002","639-TC","2017/12/28 19:39:48","新北市瑞芳區民享新村13號","121.816628333333","25.105755","6501200","瑞芳區"
"227010","400-TW","2017/12/28 19:39:41","新北市雙溪區新基里新基北街18號","121.867173333333","25.0386633333333","6502500","雙溪區"
"227004","030-BX","2017/12/28 19:39:39","新北市雙溪區雙溪里太平路25號","121.864496666667","25.0352366666667","6502500","雙溪區"
"208002","742-BX","2017/12/28 19:39:32","新北市金山區三民街9號","121.634765","25.2225616666667","6502700","金山區"
"208003","665-BX","2017/12/28 19:39:33","新北市金山區仁愛路37-12號","121.635896666667","25.2202066666667","6502700","金山區"
"208001","761-BX","2017/12/28 19:38:18","新北市金山區六股里頂六股6號","121.611865","25.2221333333333","6502700","金山區"
"251009","008-UM","2017/12/28 19:39:31","新北市淡水區中山北路一段198巷1號","121.444975","25.1793416666667","6501000","淡水區"
"251004","009-UM","2017/12/28 19:39:46","新北市淡水區中正東路二段153號","121.459918333333","25.146505","6501000","淡水區"
"251005","010-UM","2017/12/28 19:39:48","新北市淡水區原德路108巷2號","121.4434","25.1735266666667","6501000","淡水區"
"251001","011-UM","2017/12/28 19:39:14","新北市淡水區民權路51號","121.459831666667","25.139075","6501000","淡水區"
"251007","179-VK","2017/12/28 19:39:34","新北市淡水區中正東路一段111巷28-1號","121.455581666667","25.1608816666667","6501000","淡水區"
"251014","182-VK","2017/12/28 19:39:24","新北市淡水區北勢子20號","121.476093333333","25.2313283333333","6501000","淡水區"
"251010","413-VK","2017/12/28 19:39:38","新北市淡水區崁頂三路153號","121.431063333333","25.20116","6501000","淡水區"
"251012","441-VK","2017/12/28 19:39:25","新北市淡水區中山北路三段156號","121.445535","25.195755","6501000","淡水區"
"251016","442-VK","2017/12/28 19:39:39","新北市淡水區下圭柔山119-51號","121.450775","25.2084433333333","6501000","淡水區"
"251006","561-UM","2017/12/28 19:39:31","新北市淡水區中山北路一段209號","121.444313333333","25.1789716666667","6501000","淡水區"
"251011","650-BX","2017/12/28 19:39:32","新北市淡水區中正東路二段69-10號","121.46048","25.1542133333333","6501000","淡水區"
"207003","550-UM","2017/12/28 19:39:38","新北市萬里區大鵬里下社33-2號","121.649288333333","25.2166166666667","6502800","萬里區"
"207004","225-TW","2017/12/28 19:38:42","新北市萬里區萬里里瑪鋉路21號","121.687275","25.1753583333333","6502800","萬里區"
"252002","178-VK","2017/12/28 19:39:36","新北市三芝區中正路一段18巷34-1號","121.503906666667","25.2591833333333","6502100","三芝區"
"252001","292-VK","2017/12/28 19:39:46","新北市三芝區公正街9號","121.499753333333","25.2574583333333","6502100","三芝區"
"237004","078-UY","2017/12/28 19:39:15","新北市三峽區插角24號","121.40198","24.8731633333333","6500900","三峽區"
"237007","153-BY","2017/12/28 19:39:31","新北市三峽區二鬮路178號","121.35915","24.9068466666667","6500900","三峽區"
"237009","210-TH","2017/12/28 19:39:25","新北市三峽區中山路11號","121.369493333333","24.93435","6500900","三峽區"
"237013","252-BX","2017/12/28 19:39:20","新北市三峽區介壽路一段406-1號","121.383873333333","24.9309483333333","6500900","三峽區"
"237012","275-BY","2017/12/28 19:39:14","新北市三峽區介壽路一段22號","121.375528333333","24.9329283333333","6500900","三峽區"
"237008","302-VK","2017/12/28 19:39:33","新北市三峽區中正路一段231號","121.372075","24.9269266666667","6500900","三峽區"
"237014","433-BY","2017/12/28 19:39:17","新北市三峽區大利路16號","121.366738333333","24.9116266666667","6500900","三峽區"
"237006","5529-G3","2017/12/28 19:39:40","新北市三峽區中正路一段336巷15弄2號","121.36995","24.9249266666667","6500900","三峽區"
"237016","649-BX","2017/12/28 19:34:12","新北市三峽區成福路249號","121.426513333333","24.9249016666667","6500900","三峽區"
"237005","AKY-6261","2017/12/28 19:39:36","新北市三峽區中山路169巷9號","121.364358333333","24.9360033333333","6500900","三峽區"
"236071","105-UM","2017/12/28 19:39:18","新北市土城區金城路二段35號","121.449613333333","24.9777033333333","6501300","土城區"
"236078","166-UM","2017/12/28 19:39:40","新北市土城區中州路5號","121.414455","24.95741","6501300","土城區"
"236030","253-BX","2017/12/28 19:39:49","新北市土城區福祥街55號","121.440836666667","24.9801333333333","6501300","土城區"
"236026","269-VK","2017/12/28 19:39:14","新北市土城區中央路二段61巷20號","121.443063333333","24.978745","6501300","土城區"
"236037","271-VK","2017/12/28 19:39:38","新北市土城區青雲路230號","121.458858333333","24.9808983333333","6501300","土城區"
"236021","401-BY","2017/12/28 19:39:33","新北市土城區峰廷街3號","121.469073333333","24.9873533333333","6501300","土城區"
"236058","912-UM","2017/12/28 19:39:33","新北市土城區中央路二段63號","121.442596666667","24.978965","6501300","土城區"
"236051","913-UM","2017/12/28 19:38:27","新北市土城區明德路一段37號","121.465115","24.9852833333333","6501300","土城區"
"236062","915-UM","2017/12/28 19:39:38","新北市土城區延平街65號","121.46783","24.9927516666667","6501300","土城區"
"236053","AAC-216","2017/12/28 19:39:46","新北市土城區學府路一段101號","121.456061666667","24.9877933333333","6501300","土城區"
"242031","AAC-296","2017/12/28 19:39:09","新北市新莊區新泰路213巷33號","121.444816666667","25.0384083333333","6500500","新莊區"
"242044","442-UM","2017/12/28 19:39:35","新北市新莊區新北大道七段365號","121.41233","25.0266416666667","6500500","新莊區"
"242009","173-VK","2017/12/28 19:39:50","新北市新莊區三和路12-21號","121.442026666667","25.038835","6500500","新莊區"
"242002","176-VK","2017/12/28 19:39:33","新北市新莊區新泰路368號","121.444316666667","25.0428716666667","6500500","新莊區"
"242013","346-TH","2017/12/28 19:39:33","新北市新莊區中誠街119號","121.449471666667","25.0474733333333","6500500","新莊區"
"242019","348-TH","2017/12/28 19:39:42","新北市新莊區新泰路357巷3弄53號","121.442361666667","25.0398933333333","6500500","新莊區"
"242017","350-TH","2017/12/28 19:39:32","新北市新莊區新泰路255巷83號","121.442078333333","25.0389216666667","6500500","新莊區"
"242011","351-TH","2017/12/28 19:39:08","新北市新莊區中央路736號","121.445556666667","25.05567","6500500","新莊區"
"238015","755-BX","2017/12/28 19:39:48","新北市樹林區日新街97號","121.421516666667","24.99008","6500700","樹林區"
"238023","601-UM","2017/12/28 19:39:15","新北市樹林區三福街114號","121.406441666667","25.01632","6500700","樹林區"
"238024","5061-A6","2017/12/28 19:39:34","新北市樹林區佳園路一段70號","121.393071666667","24.9700583333333","6500700","樹林區"
"238021","KEA-2217","2017/12/28 19:39:47","新北市樹林區學士路96號","121.38333","24.9475333333333","6500700","樹林區"
"238022","KEA-2213","2017/12/28 19:39:33","新北市樹林區名園街59號","121.420026666667","24.9780633333333","6500700","樹林區"
"238025","303-VK","2017/12/28 19:39:31","新北市樹林區中山路一段139號","121.422353333333","24.98969","6500700","樹林區"
"238017","283-BY","2017/12/28 19:39:28","新北市樹林區保安街二段167巷26號","121.414238333333","25.002825","6500700","樹林區"
"238001","282-BY","2017/12/28 19:39:30","新北市樹林區千歲街30巷26弄2號","121.426376666667","24.99601","6500700","樹林區"
"238026","172-UY","2017/12/28 19:38:49","新北市樹林區佳園路二段15巷21號","121.394448333333","24.9629066666667","6500700","樹林區"
"238016","169-UY","2017/12/28 19:39:30","新北市樹林區東和街22-2號","121.403501666667","24.9811216666667","6500700","樹林區"
"239007","AAC-297","2017/12/28 19:39:47","新北市鶯歌區大湖路328號","121.345373333333","24.970425","6500800","鶯歌區"
"239006","891-R6","2017/12/28 19:39:46","新北市鶯歌區建國路512巷31號","121.339695","24.951175","6500800","鶯歌區"
"239001","417-VK","2017/12/28 19:38:25","新北市鶯歌區尖山埔路263號","121.344095","24.94991","6500800","鶯歌區"
"239002","359-BY","2017/12/28 19:39:39","新北市鶯歌區大湖路306巷8-5號","121.344428333333","24.9698233333333","6500800","鶯歌區"
"239004","193-VK","2017/12/28 19:39:30","新北市鶯歌區二甲路12-2號","121.345633333333","24.9348016666667","6500800","鶯歌區"
"221008","489-VK","2017/12/28 19:39:48","新北市汐止區康寧街145號","121.622096666667","25.0667033333333","6501100","汐止區"
"221036","130-UY","2017/12/28 19:39:25","新北市汐止區康寧街901號","121.651591666667","25.0749366666667","6501100","汐止區"
"221010","269-BY","2017/12/28 19:39:50","新北市汐止區汐萬路二段23巷1號","121.649581666667","25.0807583333333","6501100","汐止區"
"221012","276-VK","2017/12/28 13:38:34","新北市汐止區汐萬路一段256巷3號","121.65341","25.0746066666667","6501100","汐止區"
"221012","278-VK","2017/12/28 19:39:47","新北市汐止區汐平路一段9號","121.681008333333","25.0713366666667","6501100","汐止區"
"221023","279-VK","2017/12/28 19:39:13","新北市汐止區中興路270號","121.62889","25.0688316666667","6501100","汐止區"
"221032","280-BY","2017/12/28 19:38:50","新北市汐止區大同路二段175號","121.651636666667","25.0643466666667","6501100","汐止區"
"221027","281-BY","2017/12/28 19:39:42","新北市汐止區忠孝東路9號","121.658336666667","25.0659566666667","6501100","汐止區"
"221021","299-VK","2017/12/28 19:39:44","新北市汐止區南興路28號","121.652216666667","25.0615966666667","6501100","汐止區"
"221031","353-TW","2017/12/28 19:39:29","新北市汐止區康寧街901號","121.650895","25.07526","6501100","汐止區"
"221015","567-BX","2017/12/28 19:39:05","新北市汐止區康寧街901號","121.651548333333","25.0749933333333","6501100","汐止區"
"221025","623-UM","2017/12/28 19:39:15","新北市汐止區福安街20巷20號","121.661943333333","25.0646433333333","6501100","汐止區"
"221038","646-BX","2017/12/28 19:39:38","新北市汐止區忠孝東路224號","121.66229","25.0667183333333","6501100","汐止區"
"221033","647-BX","2017/12/28 19:39:19","新北市汐止區南勢街1巷1號","121.62711","25.0374816666667","6501100","汐止區"
"221002","707-TV","2017/12/28 19:39:47","新北市汐止區大同路一段219巷27號","121.633285","25.0584266666667","6501100","汐止區"
"221018","753-BX","2017/12/28 19:39:48","新北市汐止區康寧街901號","121.65147","25.0749416666667","6501100","汐止區"
"220079","145-BY","2017/12/28 19:39:49","新北市板橋區建國街62-3號","121.45903","25.0171483333333","6500100","板橋區"
"220080","200-UY","2017/12/28 19:39:40","新北市板橋區大觀路二段37巷224號","121.449725","25.000915","6500100","板橋區"
"220082","610-BX","2017/12/28 19:39:37","新北市板橋區篤行路一段37號","121.431988333333","24.9938233333333","6500100","板橋區"
"220101","245-BX","2017/12/28 19:39:42","新北市板橋區縣民大道三段33巷15號","121.473945","25.0211","6500100","板橋區"
"220056","276-BY","2017/12/28 19:39:35","新北市板橋區四川路二段47巷1弄2號","121.45416","24.9948533333333","6500100","板橋區"
"220072","277-BY","2017/12/28 19:39:39","新北市板橋區金門街253巷5號","121.432475","24.98861","6500100","板橋區"
"220071","283-VK","2017/12/28 19:39:16","新北市板橋區信義路18號","121.457026666667","24.9954716666667","6500100","板橋區"
"220094","285-UM","2017/12/28 19:39:32","新北市板橋區銘傳街100號","121.469788333333","25.031645","6500100","板橋區"
"220053","285-VK","2017/12/28 19:39:40","新北市板橋區民享街91號","121.477028333333","25.0158933333333","6500100","板橋區"
"220083","286-VK","2017/12/28 19:39:27","新北市板橋區龍興街65巷7號","121.443201666667","25.0015316666667","6500100","板橋區"
"220081","287-VK","2017/12/28 19:39:47","新北市板橋區大觀路一段75巷11號","121.44768","25.00442","6500100","板橋區"
"220090","288-VK","2017/12/28 19:39:17","新北市板橋區裕民街110號","121.459621666667","25.0277016666667","6500100","板橋區"
"220061","295-UM","2017/12/28 19:39:09","新北市板橋區中山路一段279號","121.469478333333","25.0137466666667","6500100","板橋區"
"220084","296-UM","2017/12/28 19:38:57","新北市板橋區滿平街84巷100弄13號","121.42606","24.9862083333333","6500100","板橋區"
"220075","297-UM","2017/12/28 19:39:45","新北市板橋區大勇街65號","121.453373333333","25.0167066666667","6500100","板橋區"
"220062","303-R5","2017/12/28 19:39:44","新北市板橋區三民路二段81巷21號","121.480355","25.016755","6500100","板橋區"
"220092","307-R5","2017/12/28 19:39:35","新北市板橋區陽明街31號","121.465231666667","25.0218816666667","6500100","板橋區"
"220098","317-R6","2017/12/28 19:39:46","新北市板橋區四維路269巷25號","121.462148333333","25.0278783333333","6500100","板橋區"
"220064","486-VK","2017/12/28 19:39:40","新北市板橋區板新路11號","121.475208333333","25.0126283333333","6500100","板橋區"
"220089","487-VK","2017/12/28 19:39:40","新北市板橋區英士路199號","121.458696666667","25.0233583333333","6500100","板橋區"
"220088","491-VK","2017/12/28 19:39:45","新北市板橋區文化路二段568號","121.476391666667","25.03444","6500100","板橋區"
"220035","560-BX","2017/12/28 19:39:37","新北市板橋區英士路190巷2號","121.457673333333","25.0225666666667","6500100","板橋區"
"220103","561-BX","2017/12/28 19:39:39","新北市板橋區文化路一段369-1號","121.466875","25.0212033333333","6500100","板橋區"
"220063","609-BX","2017/12/28 19:39:29","新北市板橋區中山路二段531巷17弄1號","121.48287","25.022165","6500100","板橋區"
"220091","637-BX","2017/12/28 19:39:18","新北市板橋區懷德街131號","121.479101666667","25.0305733333333","6500100","板橋區"
"220057","686-BX","2017/12/28 19:38:35","新北市板橋區和平路61號","121.46115","24.994565","6500100","板橋區"
"220077","687-BX","2017/12/28 19:39:36","新北市板橋區僑中一街112號","121.446275","25.0117366666667","6500100","板橋區"
"220093","689-BX","2017/12/28 19:39:22","新北市板橋區新海路440號","121.457981666667","25.02777","6500100","板橋區"
"220054","741-BX","2017/12/28 19:39:27","新北市板橋區忠孝路239巷34號","121.467345","25.0035333333333","6500100","板橋區"
"220055","827-TW","2017/12/28 19:39:22","新北市板橋區國慶路149巷6號","121.461278333333","24.99691","6500100","板橋區"
"220067","829-TW","2017/12/28 19:39:44","新北市板橋區長安街144號","121.472911666667","25.0102666666667","6500100","板橋區"
"220102","830-TW","2017/12/28 19:39:34","新北市板橋區文化路二段410巷50號","121.474776666667","25.0302666666667","6500100","板橋區"
"220074","895-R6","2017/12/28 19:39:32","新北市板橋區倉後街1-6號","121.455516666667","25.0090633333333","6500100","板橋區"
"220073","985-R7","2017/12/28 19:38:45","新北市板橋區國光路49巷17號","121.458938333333","25.0188166666667","6500100","板橋區"
"220097","AAC-210","2017/12/28 19:39:18","新北市板橋區漢生西路89巷2弄26號","121.461668333333","25.0198866666667","6500100","板橋區"
"220070","AAC-253","2017/12/28 19:37:42","新北市板橋區民族路278號","121.469915","25.0069583333333","6500100","板橋區"
