"lineid","car","time","location","longitude","latitude","cityid","cityname"
"234013","149-BY","2017/12/28 20:19:34","新北市永和區仁愛路276號","121.503935","25.0083533333333","6500400","永和區"
"234007","207-UY","2017/12/28 20:19:50","新北市永和區仁愛路295號","121.50488","25.0089933333333","6500400","永和區"
"234081","298-R6","2017/12/28 20:19:55","新北市永和區國中路146號","121.523103333333","25.007005","6500400","永和區"
"234038","336-UY","2017/12/28 20:19:38","新北市永和區成功路一段93巷11-1號","121.527666666667","25.0027383333333","6500400","永和區"
"234064","337-UY","2017/12/28 20:19:41","新北市永和區得和路120號","121.518651666667","25.0001516666667","6500400","永和區"
"234086","338-UY","2017/12/28 20:19:53","新北市永和區永和路二段61號","121.514658333333","25.0111516666667","6500400","永和區"
"234054","553-UM","2017/12/28 20:19:37","新北市永和區光復街2巷26弄1號","121.51767","25.0166233333333","6500400","永和區"
"234017","745-BX","2017/12/28 20:19:56","新北市永和區仁愛路38號","121.514235","25.0134516666667","6500400","永和區"
"234030","746-BX","2017/12/28 20:19:37","新北市中和區自強路38巷7號","121.519783333333","24.9954283333333","6500400","永和區"
"234061","AAD-866","2017/12/28 20:19:52","新北市永和區得和路50號","121.515918333333","25.0002","6500400","永和區"
"234070","847-RS","2017/12/28 20:19:49","新北市永和區永安街14號","121.519086666667","25.00619","6500400","永和區"
"234042","862-TW","2017/12/28 20:19:49","新北市中和區中安街218號","121.512026666667","24.99882","6500400","永和區"
"234050","863-TW","2017/12/28 20:19:53","新北市永和區新生路2-4號","121.509306666667","25.01684","6500400","永和區"
"234011","9373-KE","2017/12/28 20:19:44","新北市永和區環河西路二段247號","121.499958333333","25.00935","6500400","永和區"
"249005","172-UM","2017/12/28 20:19:53","新北市八里區下罟子2-13號","121.388443333333","25.1413083333333","6502300","八里區"
"249001","173-UM","2017/12/28 20:19:54","新北市八里區中華路二段538號","121.399035","25.1450766666667","6502300","八里區"
"249004","303-UY","2017/12/28 20:16:05","新北市八里區中山路一段370號","121.41227","25.158685","6502300","八里區"
"249002","305-UY","2017/12/28 20:19:52","新北市八里區龍米路二段32巷13號","121.448938333333","25.1405333333333","6502300","八里區"
"249003","593-UM","2017/12/28 20:19:42","新北市八里區訊塘路23號","121.397636666667","25.14516","6502300","八里區"
"248016","026-BX","2017/12/28 20:19:49","新北市五股區天乙路34號","121.44839","25.1035033333333","6501500","五股區"
"248014","261-SL","2017/12/28 20:19:56","新北市八里區商港路120號","121.3929","25.15003","6501500","五股區"
"248010","272-BY","2017/12/28 20:19:38","新北市泰山區楓江路119-1號","121.438676666667","25.0649283333333","6501500","五股區"
"248004","677-BX","2017/12/28 20:19:45","新北市五股區中興路四段19號","121.439315","25.0825166666667","6501500","五股區"
"248002","678-BX","2017/12/28 20:19:55","新北市五股區成泰路三段149號","121.444841666667","25.0914133333333","6501500","五股區"
"234023","9380-KE","2017/12/28 20:19:50","新北市永和區復興街60號","121.516561666667","25.0132983333333","6500400","永和區"
"234077","969-R7","2017/12/28 20:19:49","新北市永和區民享街18號","121.515378333333","24.99506","6500400","永和區"
"234074","AAC-211","2017/12/28 20:19:47","新北市永和區豫溪街156號","121.523018333333","25.0098083333333","6500400","永和區"
"234067","AAC-212","2017/12/28 20:19:52","新北市永和區保平路270號","121.508536666667","25.0052266666667","6500400","永和區"
"234003","AAC-295","2017/12/28 20:19:57","新北市永和區大新街16號","121.51509","25.0084616666667","6500400","永和區"
"244019","403-UM","2017/12/28 20:19:36","新北市八里區下罟子6-1號","121.386468333333","25.1420016666667","6501700","林口區"
"243012","AAD-798","2017/12/28 20:19:38","新北市泰山區文化街42號","121.435216666667","25.0634733333333","6501600","泰山區"
"243011","297-R6","2017/12/28 20:19:51","新北市泰山區新北大道六段293號","121.424298333333","25.0340966666667","6501600","泰山區"
"243015","380-SR","2017/12/28 20:19:49","新北市泰山區福興三街31號","121.434193333333","25.0572483333333","6501600","泰山區"
"243014","421-VK","2017/12/28 20:19:40","新北市泰山區泰林路二段455號","121.4257","25.0639533333333","6501600","泰山區"
"243010","KEA-2215","2017/12/28 20:19:47","新北市泰山區明志路二段271號","121.427018333333","25.047265","6501600","泰山區"
"243009","KEA-2216","2017/12/28 20:19:49","新北市泰山區泰林路二段292巷7號","121.43138","25.0631933333333","6501600","泰山區"
"243013","646-TV","2017/12/28 20:19:53","新北市泰山區中央路5巷12號","121.426978333333","25.0434183333333","6501600","泰山區"
"243016","680-BX","2017/12/28 20:19:45","新北市泰山區明志路三段10號","121.424755","25.0433866666667","6501600","泰山區"
"222003","436-BY","2017/12/28 20:19:52","新北市深坑區文化街43號","121.617713333333","25.0017966666667","6501800","深坑區"
"222002","659-BX","2017/12/28 20:19:52","新北市深坑區萬福路75巷21號","121.599138333333","25.0096516666667","6501800","深坑區"
"222001","696-SL","2017/12/28 20:19:53","新北市深坑區北深路三段258號","121.599668333333","25.0043983333333","6501800","深坑區"
"231066","0293-UT","2017/12/28 20:19:38","新北市新店區安興路105-1號","121.514631666667","24.9777166666667","6500600","新店區"
"231059","046-UY","2017/12/28 20:19:54","新北市新店區安德街158號","121.50841","24.9592483333333","6500600","新店區"
"231061","047-UY","2017/12/28 20:19:46","新北市新店區安民街133巷26號","121.515351666667","24.96939","6500600","新店區"
"231060","106-UY","2017/12/28 20:19:43","新北市新店區錦秀路11巷35號","121.480246666667","24.94464","6500600","新店區"
"231051","107-UY","2017/12/28 20:19:50","新北市新店區中央六街52號","121.5281","24.9757233333333","6500600","新店區"
"231047","108-UY","2017/12/28 20:19:47","新北市新店區中興路三段221-1號","121.543423333333","24.982715","6500600","新店區"
"231052","187-VK","2017/12/28 20:19:42","新北市新店區新烏路二段377號","121.550706666667","24.910125","6500600","新店區"
"231050","KEA-2219","2017/12/28 20:19:50","新北市新店區北新路一段96巷23號","121.542883333333","24.9686666666667","6500600","新店區"
"231057","256-BX","2017/12/28 20:19:51","新北市新店區花園五路二段19號","121.554266666667","24.934565","6500600","新店區"
"231054","AAD-862","2017/12/28 20:19:38","新北市新店區檳榔路109號","121.544435","24.9616683333333","6500600","新店區"
"231041","355-BY","2017/12/28 20:19:56","新北市新店區民權路42-1號","121.540313333333","24.982955","6500600","新店區"
"231058","3712-VJ","2017/12/28 20:19:55","新北市新店區中正路347號","121.535411666667","24.975855","6500600","新店區"
"231056","3713-VJ","2017/12/28 20:19:50","新北市新店區中正路328巷6號","121.537196666667","24.97526","6500600","新店區"
"231055","4716-K9","2017/12/28 20:19:42","新北市新店區北新路一段303號","121.541326666667","24.9675466666667","6500600","新店區"
"231067","4772-VM","2017/12/28 20:19:44","新北市新店區溪洲路101-1號","121.531821666667","24.9623733333333","6500600","新店區"
"231065","512-UM","2017/12/28 20:19:43","新北市新店區安祥路104巷6弄36號","121.4831","24.96296","6500600","新店區"
"231064","515-UM","2017/12/28 20:19:50","新北市新店區安樂街14巷2號","121.520558333333","24.9735683333333","6500600","新店區"
"231040","619-UM","2017/12/28 20:19:48","新北市新店區中正路211號","121.539896666667","24.9725983333333","6500600","新店區"
"231042","641-BX","2017/12/28 20:19:46","新北市新店區中興路二段228號","121.547938333333","24.9752016666667","6500600","新店區"
"231063","645-TV","2017/12/28 20:19:57","新北市新店區車子路1-1號","121.504701666667","24.957735","6500600","新店區"
"231068","718-UY","2017/12/28 20:19:38","新北市新店區民權路17號","121.542146666667","24.9828983333333","6500600","新店區"
"231049","719-UM","2017/12/28 20:19:48","新北市新店區環河路29巷1號","121.536153333333","24.9612216666667","6500600","新店區"
"231062","720-UM","2017/12/28 20:19:54","新北市新店區安泰路7巷16號","121.485693333333","24.95097","6500600","新店區"
"231044","897-TW","2017/12/28 20:19:54","新北市新店區北新路三段173-3號","121.541038333333","24.9839783333333","6500600","新店區"
"231045","898-TW","2017/12/28 20:19:38","新北市新店區新坡一街12號","121.548398333333","24.9618783333333","6500600","新店區"
"231043","899-TW","2017/12/28 20:19:47","新北市新店區建國路133號","121.53938","24.9782233333333","6500600","新店區"
"241011","013-R5","2017/12/28 20:19:40","新北市三重區龍門路195號","121.499651666667","25.0732933333333","6500200","三重區"
"241028","022-UY","2017/12/28 20:19:43","新北市三重區大同南路103-2號","121.496281666667","25.0586033333333","6500200","三重區"
"241008","059-VK","2017/12/28 20:19:50","新北市三重區永福街156號","121.480326666667","25.0744666666667","6500200","三重區"
"241009","060-VK","2017/12/28 20:19:38","新北市三重區三和路四段382巷60號","121.480696666667","25.07828","6500200","三重區"
"241031","061-VK","2017/12/28 20:19:48","新北市三重區三寧街22號","121.48953","25.0598833333333","6500200","三重區"
"241015","062-VK","2017/12/28 20:19:51","新北市三重區重新路一段128號","121.500261666667","25.0629133333333","6500200","三重區"
"241017","063-VK","2017/12/28 20:19:56","新北市三重區自強路一段153號","121.493681666667","25.06703","6500200","三重區"
"241024","065-VK","2017/12/28 20:19:54","新北市三重區忠孝路三段23號","121.481365","25.0673866666667","6500200","三重區"
"241002","090-VK","2017/12/28 20:19:53","新北市三重區仁義街143巷2號","121.497296666667","25.080725","6500200","三重區"
"241003","091-VK","2017/12/28 20:19:46","新北市三重區富華街54號","121.490281666667","25.0829583333333","6500200","三重區"
"241026","156-TC","2017/12/28 20:19:44","新北市三重區中央南路85號","121.50141","25.0607533333333","6500200","三重區"
"241005","262-UM","2017/12/28 20:19:44","新北市三重區碧華街245號","121.489211666667","25.08301","6500200","三重區"
"241016","266-UM","2017/12/28 20:19:53","新北市三重區大同北路97-3號","121.494425","25.0636333333333","6500200","三重區"
"241022","267-UM","2017/12/28 20:19:46","新北市三重區中正北路8號","121.488873333333","25.0632283333333","6500200","三重區"
"241018","268-UM","2017/12/28 20:19:52","新北市三重區自強路一段157號","121.493501666667","25.0671483333333","6500200","三重區"
"241032","269-UM","2017/12/28 20:19:40","新北市三重區捷運路19巷6弄19號","121.484363333333","25.0568783333333","6500200","三重區"
"241013","270-UM","2017/12/28 20:19:47","新北市三重區三和路三段167巷3號","121.492073333333","25.0740883333333","6500200","三重區"
"241025","271-UM","2017/12/28 20:19:43","新北市三重區三民街272巷15號","121.478658333333","25.067735","6500200","三重區"
"241007","398-BY","2017/12/28 20:19:53","新北市三重區溪尾街108巷48號","121.487531666667","25.078225","6500200","三重區"
"241020","413-TH","2017/12/28 20:19:40","新北市三重區三和路三段170巷10號","121.49237","25.0729883333333","6500200","三重區"
"241004","475-VK","2017/12/28 20:19:40","新北市三重區仁政街198號","121.490571666667","25.0803766666667","6500200","三重區"
"241019","478-VK","2017/12/28 20:19:47","新北市三重區忠孝路一段68號","121.490168333333","25.0718083333333","6500200","三重區"
"241030","480-VK","2017/12/28 20:19:53","新北市三重區集成路32巷3號","121.48843","25.0527333333333","6500200","三重區"
"241014","543-UM","2017/12/28 20:19:44","新北市三重區長榮路77號","121.502696666667","25.069045","6500200","三重區"
"241023","545-UM","2017/12/28 20:19:34","新北市三重區頂崁街139號","121.477715","25.065035","6500200","三重區"
"241001","547-UM","2017/12/28 20:19:46","新北市三重區溪尾街42-5號","121.490721666667","25.07705","6500200","三重區"
"241035","743-BX","2017/12/28 20:19:39","新北市三重區正義北路33巷55號","121.499156666667","25.0639283333333","6500200","三重區"
"241012","941-UM","2017/12/28 20:19:44","新北市三重區河邊北街379-1號","121.501766666667","25.0764616666667","6500200","三重區"
"241029","942-UM","2017/12/28 20:19:54","新北市三重區集美街225號","121.49199","25.0551366666667","6500200","三重區"
"241033","AAC-255","2017/12/28 20:19:47","新北市三重區五谷王北街77號","121.475793333333","25.0500933333333","6500200","三重區"
"235066","003-UY","2017/12/28 20:19:52","新北市中和區保平路326巷1號","121.50717","25.004325","6500300","中和區"
"235039","097-UM","2017/12/28 20:19:43","新北市中和區大勇街25巷1號","121.517126666667","24.99312","6500300","中和區"
"235068","377-QA","2017/12/28 20:19:42","新北市中和區勝利路35巷3弄21號","121.499815","25.0075066666667","6500300","中和區"
"235050","4979-A6","2017/12/28 20:19:40","新北市中和區景平路404號","121.50918","24.9931116666667","6500300","中和區"
"235069","4980-A6","2017/12/28 20:19:52","新北市中和區中正路436號","121.491081666667","24.9941733333333","6500300","中和區"
"235070","558-UM","2017/12/28 20:19:56","新北市中和區中正路760號","121.485171666667","24.9992166666667","6500300","中和區"
"235047","732-UM","2017/12/28 20:19:54","新北市新店區光華街38巷11號","121.515896666667","24.9702583333333","6500300","中和區"
"235065","911-UM","2017/12/28 20:19:35","新北市中和區橋和路298號","121.496861666667","25.0068433333333","6500300","中和區"
"235059","AAC-215","2017/12/28 20:19:50","新北市中和區員山路30-2號","121.483148333333","24.9878866666667","6500300","中和區"
"220065","072-UY","2017/12/28 20:19:47","新北市八里區荖阡坑路22-5號","121.398835","25.1347","6500100","板橋區"
"247022","893-R6","2017/12/28 20:19:39","新北市蘆洲區中正路192巷2弄1號","121.467605","25.08839","6501400","蘆洲區"
"247012","546-UM","2017/12/28 20:19:57","新北市蘆洲區中興街15巷1號","121.48045","25.0871533333333","6501400","蘆洲區"
"247020","500-BY","2017/12/28 20:19:39","新北市蘆洲區仁愛街74號","121.470895","25.09427","6501400","蘆洲區"
"247008","341-TH","2017/12/28 20:19:35","新北市蘆洲區集賢路217-1號","121.482953333333","25.0867716666667","6501400","蘆洲區"
"247010","339-TH","2017/12/28 20:19:49","新北市蘆洲區信義路222巷32弄21號","121.480555","25.0847283333333","6501400","蘆洲區"
"247002","337-TH","2017/12/28 20:19:38","新北市蘆洲區長安街331巷27號","121.45558","25.0865633333333","6501400","蘆洲區"
"247004","336-TH","2017/12/28 20:19:38","新北市蘆洲區長安街220巷6號","121.45858","25.0847383333333","6501400","蘆洲區"
"247016","057-VK","2017/12/28 20:19:40","新北市蘆洲區光華路132巷26號","121.465731666667","25.0833683333333","6501400","蘆洲區"
"247006","056-VK","2017/12/28 20:19:38","新北市蘆洲區九芎街136號","121.465043333333","25.079125","6501400","蘆洲區"
"247014","007-UY","2017/12/28 20:19:45","新北市蘆洲區中山一路254號","121.472136666667","25.0798","6501400","蘆洲區"
"247024","002-UY","2017/12/28 20:19:41","新北市蘆洲區光榮路120巷8弄41號","121.464421666667","25.08782","6501400","蘆洲區"
"247018","001-UY","2017/12/28 20:19:40","新北市蘆洲區民族路408巷7號","121.47478","25.0918866666667","6501400","蘆洲區"
"224010","AGQ-8101","2017/12/28 20:14:56","新北市瑞芳區烏勢巷145號","121.847161666667","25.1081333333333","6501200","瑞芳區"
"251009","008-UM","2017/12/28 20:19:51","新北市淡水區中正路37號","121.442236666667","25.1695483333333","6501000","淡水區"
"251008","181-VK","2017/12/28 20:19:46","新北市淡水區淡海路180巷27號","121.421778333333","25.1845366666667","6501000","淡水區"
"251014","182-VK","2017/12/28 20:19:45","新北市淡水區石頭厝1號","121.458721666667","25.23553","6501000","淡水區"
"251010","413-VK","2017/12/28 20:19:48","新北市淡水區新民街一段134號","121.4276","25.1888383333333","6501000","淡水區"
"251012","441-VK","2017/12/28 20:19:45","新北市淡水區下圭柔山431-1號","121.44988","25.2102666666667","6501000","淡水區"
"251016","442-VK","2017/12/28 20:19:39","新北市淡水區番子田16-13號","121.453713333333","25.2316916666667","6501000","淡水區"
"251006","561-UM","2017/12/28 20:19:51","新北市淡水區淡金路一段571號","121.452605","25.1804916666667","6501000","淡水區"
"251002","672-BX","2017/12/28 20:19:53","新北市淡水區中正路148號","121.440883333333","25.169665","6501000","淡水區"
"251003","766-UM","2017/12/28 20:19:49","新北市淡水區中山北路一段229號","121.444513333333","25.1795283333333","6501000","淡水區"
"207004","225-TW","2017/12/28 20:19:42","新北市萬里區北基里仁二街2號","121.68264","25.1756233333333","6502800","萬里區"
"252002","178-VK","2017/12/28 20:19:35","新北市三芝區中正路一段16-1號","121.503038333333","25.2586733333333","6502100","三芝區"
"252001","292-VK","2017/12/28 20:19:46","新北市三芝區中山路一段14號","121.50068","25.258045","6502100","三芝區"
"237007","153-BY","2017/12/28 20:19:51","新北市三峽區麻園13號","121.362611666667","24.9157516666667","6500900","三峽區"
"237008","302-VK","2017/12/28 20:19:53","新北市三峽區中正路一段174巷9號","121.371906666667","24.9288616666667","6500900","三峽區"
"237006","5529-G3","2017/12/28 20:19:40","新北市三峽區嘉添1-3號","121.367821666667","24.9117466666667","6500900","三峽區"
"236071","105-UM","2017/12/28 20:19:57","新北市土城區三民路4號","121.420955","24.9628866666667","6501300","土城區"
"236078","166-UM","2017/12/28 20:19:40","新北市土城區民權街17號","121.414948333333","24.9638116666667","6501300","土城區"
"236030","253-BX","2017/12/28 20:19:49","新北市土城區學成路128巷11號","121.449516666667","24.99002","6501300","土城區"
"236026","269-VK","2017/12/28 20:19:54","新北市土城區中央路一段249巷10弄2-2號","121.445725","24.9854416666667","6501300","土城區"
"236014","270-VK","2017/12/28 20:19:47","新北市土城區廣明街90巷18號","121.45549","24.9944983333333","6501300","土城區"
"236037","271-VK","2017/12/28 20:19:50","新北市土城區明德路一段293號","121.460186666667","24.97723","6501300","土城區"
"236021","401-BY","2017/12/28 20:19:53","新北市土城區和城路二段255巷82-1號","121.474456666667","24.9872466666667","6501300","土城區"
"236058","912-UM","2017/12/28 20:19:53","新北市土城區大安路22號","121.432728333333","24.9663216666667","6501300","土城區"
"236053","AAC-216","2017/12/28 20:19:46","新北市土城區城林路6巷71號","121.438008333333","24.9784166666667","6501300","土城區"
"242031","AAC-296","2017/12/28 20:19:38","新北市新莊區三泰路1號","121.440626666667","25.0339783333333","6500500","新莊區"
"242029","986-R7","2017/12/28 20:19:56","新北市新莊區中原路303號","121.447353333333","25.0543116666667","6500500","新莊區"
"242051","751-BX","2017/12/28 20:19:42","新北市新莊區民安西路205號","121.426101666667","25.0147816666667","6500500","新莊區"
"242025","615-BX","2017/12/28 20:19:47","新北市新莊區五工一路80巷16號","121.461173333333","25.06679","6500500","新莊區"
"242023","613-BX","2017/12/28 20:19:48","新北市新莊區化成路766號","121.46526","25.0588366666667","6500500","新莊區"
"242027","612-BX","2017/12/28 20:19:46","新北市新莊區中港路471號","121.452338333333","25.0492283333333","6500500","新莊區"
"242039","566-BX","2017/12/28 20:19:35","新北市新莊區龍安路441號","121.424441666667","25.0185566666667","6500500","新莊區"
"242044","442-UM","2017/12/28 20:19:55","新北市新莊區中正路893巷6-1號","121.413483333333","25.0209066666667","6500500","新莊區"
"242048","441-UM","2017/12/28 20:19:45","新北市新莊區龍安路283號","121.420605","25.0198866666667","6500500","新莊區"
"242053","440-UM","2017/12/28 20:19:41","新北市新莊區西盛街390號","121.427615","25.0129533333333","6500500","新莊區"
"242034","415-TV","2017/12/28 20:19:39","新北市新莊區建中街90巷8號","121.446898333333","25.03731","6500500","新莊區"
"242004","413-TV","2017/12/28 20:19:41","新北市新莊區頭前路60-1號","121.46691","25.052605","6500500","新莊區"
"242042","400-BY","2017/12/28 20:19:48","新北市新莊區天祥街113號","121.414688333333","25.029655","6500500","新莊區"
"242061","362-BY","2017/12/28 20:19:57","新北市新莊區新樹路190號","121.434285","25.0210416666667","6500500","新莊區"
"242058","353-BY","2017/12/28 20:19:48","新北市新莊區四維路213號","121.421675","25.0199866666667","6500500","新莊區"
"242007","132-UY","2017/12/28 20:19:39","新北市新莊區福壽街94巷5號","121.458705","25.05011","6500500","新莊區"
"242036","133-UY","2017/12/28 20:19:55","新北市新莊區建安街62巷3弄8號","121.42631","25.0249566666667","6500500","新莊區"
"242021","135-UY","2017/12/28 20:19:48","新北市新莊區和興街39號","121.446826666667","25.0401533333333","6500500","新莊區"
"242046","172-VK","2017/12/28 20:19:52","新北市新莊區中正路新生巷55號","121.417561666667","25.0228566666667","6500500","新莊區"
"242009","173-VK","2017/12/28 20:19:50","新北市新莊區昌平街11號","121.454933333333","25.0517583333333","6500500","新莊區"
"242015","175-VK","2017/12/28 20:19:57","新北市新莊區永樂街239巷1號","121.446126666667","25.0443583333333","6500500","新莊區"
"242002","176-VK","2017/12/28 20:19:53","新北市三重區重新路五段629號","121.467798333333","25.043995","6500500","新莊區"
"242013","346-TH","2017/12/28 20:19:52","新北市新莊區中和街186巷13號","121.448093333333","25.0498766666667","6500500","新莊區"
"242019","348-TH","2017/12/28 20:19:42","新北市新莊區復興路二段196巷2弄1號","121.459375","25.0440316666667","6500500","新莊區"
"242017","350-TH","2017/12/28 20:19:52","新北市新莊區中港一街135號","121.448176666667","25.0450666666667","6500500","新莊區"
"242011","351-TH","2017/12/28 20:19:48","新北市新莊區中信街23巷1號","121.451058333333","25.0504966666667","6500500","新莊區"
"238021","KEA-2217","2017/12/28 20:19:46","新北市樹林區佳園路三段99巷71號","121.393991666667","24.952075","6500700","樹林區"
"221008","489-VK","2017/12/28 20:19:48","新北市汐止區康寧街227號","121.623171666667","25.0667916666667","6501100","汐止區"
"221036","130-UY","2017/12/28 20:19:46","新北市汐止區仁愛路152巷19號","121.664601666667","25.06407","6501100","汐止區"
"221010","269-BY","2017/12/28 20:19:50","新北市汐止區八連路二段337巷3號","121.629741666667","25.101295","6501100","汐止區"
"221012","276-VK","2017/12/28 13:38:34","新北市汐止區汐萬路一段256巷3號","121.65341","25.0746066666667","6501100","汐止區"
"221012","278-VK","2017/12/28 20:19:54","新北市汐止區保新街133-1號","121.688033333333","25.0704816666667","6501100","汐止區"
"221023","279-VK","2017/12/28 20:19:40","新北市汐止區明峰街92號","121.631106666667","25.0711866666667","6501100","汐止區"
"221032","280-BY","2017/12/28 20:19:50","新北市汐止區民權街二段37號","121.619448333333","25.0495783333333","6501100","汐止區"
"221027","281-BY","2017/12/28 20:19:42","新北市汐止區大同路二段497號","121.660953333333","25.06854","6501100","汐止區"
"221029","298-VK","2017/12/28 20:19:41","新北市汐止區樟樹二路106-1號","121.639431666667","25.0638883333333","6501100","汐止區"
"221021","299-VK","2017/12/28 20:19:44","新北市汐止區水源路一段293號","121.654315","25.0583083333333","6501100","汐止區"
"221031","353-TW","2017/12/28 20:19:50","新北市汐止區中興路150巷13號","121.632886666667","25.0649666666667","6501100","汐止區"
"221015","567-BX","2017/12/28 20:19:45","新北市汐止區建成路142巷19弄11號","121.661976666667","25.0739066666667","6501100","汐止區"
"221035","622-UM","2017/12/28 20:19:36","新北市汐止區長江街101-5號","121.658718333333","25.0731883333333","6501100","汐止區"
"221025","623-UM","2017/12/28 20:19:55","新北市汐止區水源路二段72巷6弄5號","121.655681666667","25.055675","6501100","汐止區"
"221038","646-BX","2017/12/28 20:19:58","新北市汐止區忠孝東路480號","121.666186666667","25.07382","6501100","汐止區"
"221033","647-BX","2017/12/28 20:19:40","新北市汐止區東勢街215巷14號","121.63488","25.0433116666667","6501100","汐止區"
"221002","707-TV","2017/12/28 20:19:49","新北市汐止區福德三路75號","121.636336666667","25.0691166666667","6501100","汐止區"
"221018","753-BX","2017/12/28 20:19:48","新北市汐止區茄安路43號","121.673635","25.0683533333333","6501100","汐止區"
"220101","245-BX","2017/12/28 20:19:46","新北市板橋區莊敬路9號","121.474053333333","25.0282016666667","6500100","板橋區"
"220072","277-BY","2017/12/28 20:19:39","新北市板橋區僑中一街124巷70-5號","121.449431666667","25.0157916666667","6500100","板橋區"
"220064","282-UM","2017/12/28 20:19:57","新北市板橋區實踐路147號","121.464285","25.0044483333333","6500100","板橋區"
"220083","286-VK","2017/12/28 20:19:47","新北市板橋區僑中二街102巷26號","121.445125","25.0085816666667","6500100","板橋區"
"220081","287-VK","2017/12/28 20:19:47","新北市板橋區僑中一街80巷5弄20號","121.446951666667","25.0125916666667","6500100","板橋區"
"220061","295-UM","2017/12/28 20:19:48","新北市板橋區館前西路2號","121.45938","25.0072916666667","6500100","板橋區"
"220062","303-R5","2017/12/28 20:19:44","新北市八里區中山路三段132號","121.385713333333","25.1453416666667","6500100","板橋區"
"220089","487-VK","2017/12/28 20:19:40","新北市板橋區四維路249號","121.463706666667","25.027705","6500100","板橋區"
"242056","280-VK","2017/12/28 20:19:47","新北市新莊區豐年街28巷14號","121.445618333333","25.0323783333333","6500500","新莊區"
"220088","491-VK","2017/12/28 20:19:52","新北市五股區成泰路一段98巷77號","121.450121666667","25.07825","6500100","板橋區"
"220103","561-BX","2017/12/28 20:19:39","新北市板橋區陽明街279巷4-4號","121.461791666667","25.026055","6500100","板橋區"
"220055","827-TW","2017/12/28 20:19:42","新北市板橋區仁愛路25號","121.458973333333","24.9994166666667","6500100","板橋區"
"220102","830-TW","2017/12/28 20:19:56","新北市板橋區漢生東路83巷4-1號","121.467271666667","25.015965","6500100","板橋區"
"220074","895-R6","2017/12/28 20:19:52","新北市板橋區南雅南路一段7巷22弄7號","121.45588","25.0047216666667","6500100","板橋區"
"220070","AAC-253","2017/12/28 20:19:42","新北市板橋區四川路二段245巷3號","121.450531666667","24.993395","6500100","板橋區"
