"lineid","car","time","location","longitude","latitude","cityid","cityname"
"234007","207-UY","2017/12/28 20:29:50","新北市永和區環河西路二段223號","121.500961666667","25.0103733333333","6500400","永和區"
"234081","298-R6","2017/12/28 20:29:35","新北市永和區永貞路82號","121.520173333333","25.0050583333333","6500400","永和區"
"234038","336-UY","2017/12/28 20:29:38","新北市永和區民樂街31巷6弄14號","121.528905","25.0015583333333","6500400","永和區"
"234064","337-UY","2017/12/28 20:29:41","新北市永和區中正路419號","121.517193333333","25.005005","6500400","永和區"
"234086","338-UY","2017/12/28 20:29:52","新北市永和區光復街21號","121.516506666667","25.0174416666667","6500400","永和區"
"234054","553-UM","2017/12/28 20:29:51","新北市永和區博愛街45巷25弄5號","121.518885","25.0169333333333","6500400","永和區"
"234030","746-BX","2017/12/28 20:29:37","新北市永和區民族街81巷62號","121.520163333333","24.99653","6500400","永和區"
"234061","AAD-866","2017/12/28 20:29:52","新北市永和區安樂路194巷39弄2號","121.516551666667","25.0013783333333","6500400","永和區"
"234070","847-RS","2017/12/28 20:29:38","新北市永和區永安街24號","121.519323333333","25.0068933333333","6500400","永和區"
"234042","862-TW","2017/12/28 20:29:49","新北市永和區安樂路433號","121.514371666667","25.0045933333333","6500400","永和區"
"234050","863-TW","2017/12/28 20:29:49","新北市永和區新生路138巷1弄1號","121.506628333333","25.0143533333333","6500400","永和區"
"249001","173-UM","2017/12/28 20:29:34","新北市八里區下罟子1-5號","121.389133333333","25.1423233333333","6502300","八里區"
"249004","303-UY","2017/12/28 20:29:46","新北市八里區中山路一段129巷27號","121.414001666667","25.158615","6502300","八里區"
"249002","305-UY","2017/12/28 20:29:36","新北市八里區龍米路二段123號","121.446733333333","25.14462","6502300","八里區"
"249003","593-UM","2017/12/28 20:29:42","新北市八里區華峰一街27-1號","121.399241666667","25.1465516666667","6502300","八里區"
"248002","678-BX","2017/12/28 20:29:35","新北市五股區新五路二段367號","121.44395","25.087825","6501500","五股區"
"234023","9380-KE","2017/12/28 20:29:50","新北市永和區光復街2巷16弄40號","121.518306666667","25.016295","6500400","永和區"
"234074","AAC-211","2017/12/28 20:29:50","新北市永和區豫溪街191巷7弄21號","121.523278333333","25.010995","6500400","永和區"
"234067","AAC-212","2017/12/28 20:29:52","新北市永和區保平路292巷42號","121.507501666667","25.0052583333333","6500400","永和區"
"234003","AAC-295","2017/12/28 20:29:37","新北市永和區中正路525號","121.516891666667","25.0076316666667","6500400","永和區"
"244019","403-UM","2017/12/28 20:29:36","新北市八里區長道坑23-18號","121.397806666667","25.1075083333333","6501700","林口區"
"243012","AAD-798","2017/12/28 20:29:41","新北市泰山區忠孝街19巷1弄2號","121.42751","25.0657333333333","6501600","泰山區"
"243011","297-R6","2017/12/28 20:29:51","新北市泰山區明志路二段246-1號","121.427126666667","25.0480783333333","6501600","泰山區"
"243015","380-SR","2017/12/28 20:29:49","新北市泰山區福興街30號","121.434466666667","25.0573716666667","6501600","泰山區"
"243014","421-VK","2017/12/28 20:29:40","新北市泰山區泰林路三段301巷51號","121.413366666667","25.06835","6501600","泰山區"
"243010","KEA-2215","2017/12/28 20:29:43","新北市泰山區新生路33號","121.427623333333","25.0452716666667","6501600","泰山區"
"243009","KEA-2216","2017/12/28 20:29:45","新北市泰山區泰林路二段542巷1弄27號","121.422701666667","25.0640233333333","6501600","泰山區"
"243016","680-BX","2017/12/28 20:29:45","新北市泰山區文程路15號","121.428078333333","25.0495666666667","6501600","泰山區"
"222003","436-BY","2017/12/28 20:29:52","新北市深坑區深坑街27號","121.615975","25.002335","6501800","深坑區"
"222002","659-BX","2017/12/28 20:29:52","新北市深坑區萬福路63巷8號","121.600353333333","25.0078916666667","6501800","深坑區"
"222001","696-SL","2017/12/28 20:29:49","新北市深坑區北深路三段329號","121.5972","25.0050166666667","6501800","深坑區"
"231066","0293-UT","2017/12/28 20:29:38","新北市新店區安興路112號","121.51465","24.9776433333333","6500600","新店區"
"231059","046-UY","2017/12/28 20:29:38","新北市新店區安豐路49號","121.50007","24.9548733333333","6500600","新店區"
"231061","047-UY","2017/12/28 20:29:46","新北市新店區新和街35號","121.519228333333","24.98495","6500600","新店區"
"231060","106-UY","2017/12/28 20:29:43","新北市新店區錦秀路66號","121.478948333333","24.9427416666667","6500600","新店區"
"231051","107-UY","2017/12/28 20:29:50","新北市新店區中央七街91號","121.52651","24.9771583333333","6500600","新店區"
"231047","108-UY","2017/12/28 20:29:46","新北市新店區寶慶街58巷10號","121.542055","24.987165","6500600","新店區"
"231052","187-VK","2017/12/28 20:29:42","新北市新店區松林路16巷31號","121.545956666667","24.910235","6500600","新店區"
"231050","KEA-2219","2017/12/28 20:29:50","新北市新店區博愛街25巷2號","121.54149","24.9739216666667","6500600","新店區"
"231057","256-BX","2017/12/28 20:29:37","新北市新店區花園五路二段1號","121.553538333333","24.9341716666667","6500600","新店區"
"231054","AAD-862","2017/12/28 20:29:38","新北市新店區檳榔路105號","121.54463","24.9616933333333","6500600","新店區"
"231041","355-BY","2017/12/28 20:29:36","新北市新店區中正路522號","121.533711666667","24.983765","6500600","新店區"
"231058","3712-VJ","2017/12/28 20:29:35","新北市新店區自由街43-1號","121.534485","24.9736716666667","6500600","新店區"
"231056","3713-VJ","2017/12/28 20:29:50","新北市新店區中正路423號","121.534205","24.9779283333333","6500600","新店區"
"231065","512-UM","2017/12/28 20:29:43","新北市新店區安祥路102巷46弄79號","121.48707","24.96329","6500600","新店區"
"231064","515-UM","2017/12/28 20:29:44","新北市新店區永安街97號","121.520423333333","24.9861266666667","6500600","新店區"
"231040","619-UM","2017/12/28 20:29:46","新北市新店區三民路185號","121.535331666667","24.9753983333333","6500600","新店區"
"231042","641-BX","2017/12/28 20:29:46","新北市新店區寶橋路234號","121.551575","24.9788266666667","6500600","新店區"
"231063","645-TV","2017/12/28 20:29:37","新北市新店區玫瑰路4-1號","121.493593333333","24.9513566666667","6500600","新店區"
"231068","718-UY","2017/12/28 20:29:56","新北市新店區民權路6號","121.542578333333","24.98292","6500600","新店區"
"231049","719-UM","2017/12/28 20:29:48","新北市新店區永業路81巷20號","121.530826666667","24.9482216666667","6500600","新店區"
"231062","720-UM","2017/12/28 20:29:54","新北市新店區安泰路60巷94號","121.484016666667","24.9453316666667","6500600","新店區"
"231044","897-TW","2017/12/28 20:29:54","新北市新店區民族路63號","121.539748333333","24.9782883333333","6500600","新店區"
"231045","898-TW","2017/12/28 20:29:38","新北市新店區新坡一街16號","121.548845","24.9617416666667","6500600","新店區"
"231043","899-TW","2017/12/28 20:29:53","新北市新店區建國路112號","121.53965","24.9780866666667","6500600","新店區"
"241011","013-R5","2017/12/28 20:29:40","新北市三重區龍門路42號","121.496043333333","25.0723916666667","6500200","三重區"
"241028","022-UY","2017/12/28 20:29:43","新北市三重區光興街91號","121.49739","25.059935","6500200","三重區"
"241008","059-VK","2017/12/28 20:29:50","新北市三重區下竹圍街42號","121.481063333333","25.0749216666667","6500200","三重區"
"241009","060-VK","2017/12/28 20:29:38","新北市三重區永福街52號","121.481648333333","25.077955","6500200","三重區"
"241031","061-VK","2017/12/28 20:29:48","新北市三重區三寧街25號","121.48959","25.0598816666667","6500200","三重區"
"241015","062-VK","2017/12/28 20:29:51","新北市三重區長元街2-2號","121.49878","25.0658533333333","6500200","三重區"
"241017","063-VK","2017/12/28 20:29:36","新北市三重區自強路一段209號","121.49145","25.0684166666667","6500200","三重區"
"241024","065-VK","2017/12/28 20:29:44","新北市三重區三民街285號","121.478915","25.0683633333333","6500200","三重區"
"241002","090-VK","2017/12/28 20:29:53","新北市三重區仁義街211巷33號","121.497815","25.0823783333333","6500200","三重區"
"241003","091-VK","2017/12/28 20:29:46","新北市三重區富華街152號","121.492343333333","25.084385","6500200","三重區"
"241026","156-TC","2017/12/28 20:29:41","新北市三重區環河南路30號","121.503281666667","25.0621233333333","6500200","三重區"
"241005","262-UM","2017/12/28 20:29:44","新北市三重區碧華街211號","121.488413333333","25.0828383333333","6500200","三重區"
"241016","266-UM","2017/12/28 20:29:53","新北市三重區正義北路190巷8號","121.496058333333","25.0667833333333","6500200","三重區"
"241022","267-UM","2017/12/28 20:29:46","新北市三重區民生街61巷18弄10號","121.48767","25.0627666666667","6500200","三重區"
"241018","268-UM","2017/12/28 20:29:52","新北市三重區正義北路206號","121.496311666667","25.0675283333333","6500200","三重區"
"241032","269-UM","2017/12/28 20:29:40","新北市三重區重陽路一段120巷35號","121.485273333333","25.0601316666667","6500200","三重區"
"241013","270-UM","2017/12/28 20:29:47","新北市三重區溪尾街5巷21號","121.492546666667","25.0745233333333","6500200","三重區"
"241025","271-UM","2017/12/28 20:29:43","新北市三重區頂崁街210巷23弄1號","121.475885","25.0681833333333","6500200","三重區"
"241007","398-BY","2017/12/28 20:29:53","新北市三重區自強路四段32-2號","121.489033333333","25.07715","6500200","三重區"
"241020","413-TH","2017/12/28 20:29:40","新北市三重區三和路三段142號","121.493378333333","25.0726466666667","6500200","三重區"
"241004","475-VK","2017/12/28 20:29:40","新北市三重區溪尾街150號","121.489025","25.0799616666667","6500200","三重區"
"241019","478-VK","2017/12/28 20:29:37","新北市三重區重陽路四段79號","121.492616666667","25.0709283333333","6500200","三重區"
"241030","480-VK","2017/12/28 20:29:53","新北市三重區成功路62號","121.488623333333","25.0508966666667","6500200","三重區"
"241014","543-UM","2017/12/28 20:29:44","新北市三重區長興街96號","121.501728333333","25.0691766666667","6500200","三重區"
"241023","545-UM","2017/12/28 20:29:54","新北市三重區自由街19號","121.479723333333","25.0665966666667","6500200","三重區"
"241001","547-UM","2017/12/28 20:29:46","新北市三重區自強路四段4號","121.488366666667","25.076105","6500200","三重區"
"241035","743-BX","2017/12/28 20:29:47","新北市三重區正義北路120號","121.496845","25.0654316666667","6500200","三重區"
"241012","941-UM","2017/12/28 20:29:44","新北市三重區龍濱路269號","121.50139","25.0730966666667","6500200","三重區"
"241029","942-UM","2017/12/28 20:29:54","新北市三重區集美街223號","121.491926666667","25.0549716666667","6500200","三重區"
"241033","AAC-255","2017/12/28 20:29:47","新北市三重區五谷王北街139號","121.476153333333","25.0521116666667","6500200","三重區"
"235066","003-UY","2017/12/28 20:29:52","新北市中和區光華街49號","121.505686666667","25.0038033333333","6500300","中和區"
"235039","097-UM","2017/12/28 20:29:43","新北市中和區大勇街27巷18號","121.51665","24.9939483333333","6500300","中和區"
"235050","4979-A6","2017/12/28 20:29:40","新北市中和區景新街160巷14號","121.505015","24.9967633333333","6500300","中和區"
"235069","4980-A6","2017/12/28 20:29:52","新北市中和區連城路347巷18弄18號","121.487878333333","24.99476","6500300","中和區"
"235047","732-UM","2017/12/28 20:29:34","新北市新店區薏仁坑路自強巷1號","121.49786","24.95766","6500300","中和區"
"235026","800-TS","2017/12/28 20:29:43","新北市中和區員山路36巷16-3號","121.484805","24.9917766666667","6500300","中和區"
"235059","AAC-215","2017/12/28 20:29:50","新北市中和區員山路36巷13號","121.483975","24.9912483333333","6500300","中和區"
"247022","893-R6","2017/12/28 20:29:39","新北市蘆洲區中正路321號","121.466188333333","25.08879","6501400","蘆洲區"
"247012","546-UM","2017/12/28 20:29:37","新北市蘆洲區民族路193號","121.478491666667","25.0890283333333","6501400","蘆洲區"
"247020","500-BY","2017/12/28 20:29:39","新北市蘆洲區民族路331號","121.473821666667","25.0917266666667","6501400","蘆洲區"
"247008","341-TH","2017/12/28 20:29:46","新北市蘆洲區重陽二街1號","121.483171666667","25.0843683333333","6501400","蘆洲區"
"247010","339-TH","2017/12/28 20:29:49","新北市蘆洲區集賢路237號","121.481806666667","25.0851466666667","6501400","蘆洲區"
"247002","337-TH","2017/12/28 20:29:38","新北市蘆洲區長安街347巷32號","121.455556666667","25.0870183333333","6501400","蘆洲區"
"247004","336-TH","2017/12/28 20:29:38","新北市蘆洲區長安街299巷38號","121.456831666667","25.0845816666667","6501400","蘆洲區"
"247016","057-VK","2017/12/28 20:29:40","新北市蘆洲區光華路47號","121.468708333333","25.08301","6501400","蘆洲區"
"247006","056-VK","2017/12/28 20:29:38","新北市蘆洲區和平路121巷14弄38號","121.466133333333","25.080175","6501400","蘆洲區"
"247014","007-UY","2017/12/28 20:29:45","新北市蘆洲區中山一路158號","121.474846666667","25.0816","6501400","蘆洲區"
"247024","002-UY","2017/12/28 20:29:41","新北市蘆洲區光復路70巷19號","121.46473","25.0852283333333","6501400","蘆洲區"
"247018","001-UY","2017/12/28 20:29:40","新北市蘆洲區民族路327巷28號","121.474385","25.0910683333333","6501400","蘆洲區"
"251009","008-UM","2017/12/28 20:29:46","新北市淡水區中正東路一段38號","121.452601666667","25.162245","6501000","淡水區"
"251001","011-UM","2017/12/28 20:29:54","新北市淡水區新市一路三段8號","121.445035","25.1829216666667","6501000","淡水區"
"251008","181-VK","2017/12/28 20:29:46","新北市淡水區淡海路221號","121.420238333333","25.1853833333333","6501000","淡水區"
"251014","182-VK","2017/12/28 20:29:45","新北市淡水區石頭厝9-3號","121.458151666667","25.2365883333333","6501000","淡水區"
"251010","413-VK","2017/12/28 20:29:38","新北市淡水區沙崙路181巷15號","121.423966666667","25.1843316666667","6501000","淡水區"
"251012","441-VK","2017/12/28 20:29:45","新北市淡水區興仁路108號","121.451635","25.2181766666667","6501000","淡水區"
"251016","442-VK","2017/12/28 20:29:39","新北市淡水區淡金路四段507號","121.451588333333","25.2282233333333","6501000","淡水區"
"251006","561-UM","2017/12/28 20:29:50","新北市淡水區商工路306號","121.4612","25.185855","6501000","淡水區"
"251011","650-BX","2017/12/28 20:29:52","新北市淡水區沙崙路二段112號","121.43336","25.1986366666667","6501000","淡水區"
"251002","672-BX","2017/12/28 20:29:53","新北市淡水區中正路58號","121.44313","25.1696133333333","6501000","淡水區"
"251003","766-UM","2017/12/28 20:29:49","新北市淡水區新民街33號","121.438965","25.1758433333333","6501000","淡水區"
"252002","178-VK","2017/12/28 20:29:55","新北市三芝區淡金路二段10號","121.502543333333","25.2594516666667","6502100","三芝區"
"252001","292-VK","2017/12/28 20:29:46","新北市三芝區中山路一段14號","121.500665","25.258045","6502100","三芝區"
"236014","270-VK","2017/12/28 20:29:47","新北市板橋區四川路二段245巷95號","121.453156666667","24.993075","6501300","土城區"
"236021","401-BY","2017/12/28 20:29:53","新北市土城區金城路三段133號","121.468091666667","24.9880066666667","6501300","土城區"
"242031","AAC-296","2017/12/28 20:29:38","新北市新莊區三和路58號","121.437348333333","25.0384983333333","6500500","新莊區"
"242029","986-R7","2017/12/28 20:29:47","新北市新莊區中華路二段211號","121.45215","25.0529816666667","6500500","新莊區"
"242051","751-BX","2017/12/28 20:29:42","新北市新莊區民安西路193-1號","121.426076666667","25.0153116666667","6500500","新莊區"
"242025","615-BX","2017/12/28 20:29:47","新北市新莊區五工三路50巷23-1號","121.460771666667","25.0651533333333","6500500","新莊區"
"242023","613-BX","2017/12/28 20:29:48","新北市新莊區化成路547號","121.46506","25.0648083333333","6500500","新莊區"
"242027","612-BX","2017/12/28 20:29:46","新北市新莊區幸福路28號","121.458675","25.0494833333333","6500500","新莊區"
"242039","566-BX","2017/12/28 20:29:40","新北市新莊區成功街8號","121.42559","25.021435","6500500","新莊區"
"242044","442-UM","2017/12/28 20:29:55","新北市新莊區中正路新建巷2號","121.41389","25.02265","6500500","新莊區"
"242048","441-UM","2017/12/28 20:29:50","新北市新莊區裕民街85巷17號","121.419638333333","25.0235133333333","6500500","新莊區"
"242053","440-UM","2017/12/28 20:29:41","新北市新莊區民安西路229巷9號","121.426695","25.014215","6500500","新莊區"
"242034","415-TV","2017/12/28 20:29:40","新北市新莊區中正路319號","121.447918333333","25.0350433333333","6500500","新莊區"
"242004","413-TV","2017/12/28 20:29:43","新北市新莊區化成路371巷15號","121.463985","25.0570416666667","6500500","新莊區"
"242042","400-BY","2017/12/28 20:29:48","新北市新莊區中正路694巷12號","121.41827","25.0286016666667","6500500","新莊區"
"242061","362-BY","2017/12/28 20:29:37","新北市新莊區新樹路244巷44號","121.431346666667","25.0191033333333","6500500","新莊區"
"242058","353-BY","2017/12/28 20:29:48","新北市新莊區四維路137號","121.422795","25.0223933333333","6500500","新莊區"
"242007","132-UY","2017/12/28 20:29:46","新北市新莊區思源路287巷2弄1號","121.459326666667","25.0483216666667","6500500","新莊區"
"242036","133-UY","2017/12/28 20:29:42","新北市新莊區後港一路76巷1弄2號","121.427248333333","25.0260766666667","6500500","新莊區"
"242021","135-UY","2017/12/28 20:29:54","新北市新莊區公園路72號","121.449836666667","25.039555","6500500","新莊區"
"242046","172-VK","2017/12/28 20:29:52","新北市新莊區裕民街70號","121.418496666667","25.024175","6500500","新莊區"
"242009","173-VK","2017/12/28 20:29:50","新北市新莊區昌隆街58巷1弄12號","121.455475","25.0506416666667","6500500","新莊區"
"242015","175-VK","2017/12/28 20:29:37","新北市新莊區中平路60號","121.444783333333","25.04424","6500500","新莊區"
"242002","176-VK","2017/12/28 20:29:53","新北市新莊區中正路51號","121.46311","25.0406216666667","6500500","新莊區"
"242013","346-TH","2017/12/28 20:29:52","新北市新莊區中榮街81巷8號","121.445416666667","25.052435","6500500","新莊區"
"242019","348-TH","2017/12/28 20:29:42","新北市新莊區銘德街49巷2弄1號","121.457278333333","25.043315","6500500","新莊區"
"242017","350-TH","2017/12/28 20:29:51","新北市新莊區中港三街7號","121.451178333333","25.0464283333333","6500500","新莊區"
"242011","351-TH","2017/12/28 20:29:55","新北市新莊區中榮街98號","121.447426666667","25.0527766666667","6500500","新莊區"
"221008","489-VK","2017/12/28 20:29:48","新北市汐止區康寧街543號","121.634313333333","25.0691066666667","6501100","汐止區"
"221036","130-UY","2017/12/28 20:29:46","新北市汐止區仁愛路151巷30號","121.663346666667","25.0655216666667","6501100","汐止區"
"221010","269-BY","2017/12/28 20:29:30","新北市汐止區八連路二段636-3號","121.626035","25.1109083333333","6501100","汐止區"
"221012","276-VK","2017/12/28 13:38:34","新北市汐止區汐萬路一段256巷3號","121.65341","25.0746066666667","6501100","汐止區"
"221012","278-VK","2017/12/28 20:29:54","新北市汐止區大同路三段241號","121.672643333333","25.0767166666667","6501100","汐止區"
"221023","279-VK","2017/12/28 20:29:40","新北市汐止區湖東街21號","121.635621666667","25.0725766666667","6501100","汐止區"
"221032","280-BY","2017/12/28 20:29:50","新北市汐止區弘道街53巷22號","121.61877","25.0495583333333","6501100","汐止區"
"221027","281-BY","2017/12/28 20:29:51","新北市汐止區中正路233號","121.657868333333","25.0687083333333","6501100","汐止區"
"221029","298-VK","2017/12/28 20:29:41","新北市汐止區樟樹一路129巷34弄19號","121.64047","25.065225","6501100","汐止區"
"221021","299-VK","2017/12/28 20:29:44","新北市汐止區水源路一段284號","121.654275","25.0582866666667","6501100","汐止區"
"221031","353-TW","2017/12/28 20:29:50","新北市汐止區中興路110巷36號","121.634318333333","25.0646983333333","6501100","汐止區"
"221015","567-BX","2017/12/28 20:29:45","新北市汐止區建成路142巷19弄11號","121.661951666667","25.0738583333333","6501100","汐止區"
"221035","622-UM","2017/12/28 20:29:36","新北市汐止區長江街101-5號","121.658748333333","25.0732066666667","6501100","汐止區"
"221025","623-UM","2017/12/28 20:29:55","新北市汐止區水源路二段110巷1號","121.65667","25.0554033333333","6501100","汐止區"
"221038","646-BX","2017/12/28 20:29:38","新北市汐止區大同路二段394號","121.658536666667","25.0660666666667","6501100","汐止區"
"221033","647-BX","2017/12/28 20:29:40","新北市汐止區林森街73巷15號","121.62386","25.0414316666667","6501100","汐止區"
"221002","707-TV","2017/12/28 20:29:50","新北市汐止區福德二路31號","121.634931666667","25.0678333333333","6501100","汐止區"
"221018","753-BX","2017/12/28 20:29:48","新北市汐止區茄苳路225巷11弄18號","121.671016666667","25.0697083333333","6501100","汐止區"
"220072","277-BY","2017/12/28 20:29:39","新北市五股區成泰路三段362號","121.4516","25.09853","6500100","板橋區"
"220064","282-UM","2017/12/28 20:29:52","新北市板橋區民族路219巷67號","121.468475","25.0090683333333","6500100","板橋區"
"220083","286-VK","2017/12/28 20:29:47","新北市板橋區僑中二街104巷1號","121.44583","25.0077933333333","6500100","板橋區"
"220061","295-UM","2017/12/28 20:29:48","新北市板橋區文華街28號","121.457295","25.0007783333333","6500100","板橋區"
"220062","303-R5","2017/12/28 20:29:44","新北市林口區太平里180號","121.366775","25.1337333333333","6500100","板橋區"
"220089","487-VK","2017/12/28 20:29:40","新北市板橋區漢生西路197號","121.463266666667","25.024355","6500100","板橋區"
"242056","280-VK","2017/12/28 20:29:47","新北市新莊區瓊泰路209號","121.443145","25.0323866666667","6500500","新莊區"
"220103","561-BX","2017/12/28 20:29:39","新北市板橋區漢生東路41-2號","121.46558","25.0167616666667","6500100","板橋區"
"220102","830-TW","2017/12/28 20:29:36","新北市板橋區民生路二段171號","121.469626666667","25.0200183333333","6500100","板橋區"
"220070","AAC-253","2017/12/28 20:29:42","新北市新莊區新莊路664-1號","121.442301666667","25.032725","6500100","板橋區"
