"lineid","car","time","location","longitude","latitude","cityid","cityname"
"231063","645-TV","2017/12/28 21:39:37","新北市新店區如意街30號","121.49362","24.948375","6500600","新店區"
"241005","262-UM","2017/12/28 21:39:44","新北市三重區碧華街1號","121.483446666667","25.0811433333333","6500200","三重區"
"235026","800-TS","2017/12/28 20:29:58","新北市中和區員山路36巷16-3號","121.484776666667","24.9917283333333","6500300","中和區"
"235029","911-UM","2017/12/28 21:39:55","新北市中和區員山路36巷16-3號","121.485081666667","24.9911833333333","6500300","中和區"
"251009","008-UM","2017/12/28 21:39:42","新北市淡水區民生路52巷22弄5號","121.462588333333","25.1374316666667","6501000","淡水區"
"251004","009-UM","2017/12/28 21:37:44","新北市淡水區民生路47-6號","121.462253333333","25.1381333333333","6501000","淡水區"
"251005","010-UM","2017/12/28 21:39:48","新北市淡水區學府路68號","121.448855","25.170435","6501000","淡水區"
"251001","011-UM","2017/12/28 21:39:34","新北市淡水區新市二路三段152號","121.435361666667","25.194275","6501000","淡水區"
"251008","181-VK","2017/12/28 21:39:56","新北市淡水區水源街二段80號","121.451423333333","25.17417","6501000","淡水區"
"251014","182-VK","2017/12/28 21:39:44","新北市淡水區淡金路四段521號","121.451483333333","25.22905","6501000","淡水區"
"251010","413-VK","2017/12/28 21:39:38","新北市淡水區沙崙路216巷58號","121.426255","25.1841783333333","6501000","淡水區"
"251012","441-VK","2017/12/28 21:39:45","新北市淡水區淡金路四段478號","121.451911666667","25.2240133333333","6501000","淡水區"
"251016","442-VK","2017/12/28 21:39:39","新北市淡水區淡金路二段15號","121.446201666667","25.1892183333333","6501000","淡水區"
"251006","561-UM","2017/12/28 21:39:56","新北市淡水區中正路11巷28-6號","121.438046666667","25.1708233333333","6501000","淡水區"
"251011","650-BX","2017/12/28 21:39:55","新北市淡水區新民街280號","121.43534","25.18189","6501000","淡水區"
"251002","672-BX","2017/12/28 21:39:53","新北市淡水區學府路207號","121.44633","25.175535","6501000","淡水區"
"251003","766-UM","2017/12/28 21:39:49","新北市淡水區新春街46-1號","121.437631666667","25.18171","6501000","淡水區"
"221012","276-VK","2017/12/28 13:38:34","新北市汐止區汐萬路一段256巷3號","121.65341","25.0746066666667","6501100","汐止區"
"220062","303-R5","2017/12/28 20:59:05","新北市板橋區民生路二段120號","121.470581666667","25.0196616666667","6500100","板橋區"
"220102","830-TW","2017/12/28 21:39:36","新北市三重區光復路二段143巷11號","121.474691666667","25.05969","6500100","板橋區"
"220070","AAC-253","2017/12/28 21:39:41","新北市板橋區僑中一街124巷70-5號","121.449383333333","25.0152316666667","6500100","板橋區"
