"lineid","car","time","location","longitude","latitude","cityid","cityname"
"248005","653-BX","2017/11/21 09:19:53","新北市五股區水碓三路63號","121.430375","25.0715033333333","6501500","五股區"
"222004","289-BY","2017/11/21 09:19:51","新北市深坑區王軍寮11-1號","121.620831666667","24.9840516666667","6501800","深坑區"
"231009","192-VK","2017/11/21 09:19:47","新北市新店區廣興路60巷1-1號","121.539346666667","24.9142983333333","6500600","新店區"
"231007","719-UM","2017/11/21 09:16:14","新北市新店區新潭路三段236號","121.501316666667","24.902595","6500600","新店區"
"226002","7418-A5","2017/11/21 09:19:55","新北市平溪區石底里公園街16號","121.737383333333","25.024855","6502400","平溪區"
"223001","205-TH","2017/11/21 09:19:50","新北市石碇區北宜路四段28號","121.62263","24.95882","6501900","石碇區"
"227006","282-VK","2017/11/21 09:19:54","新北市雙溪區長源里土地公山1號","121.797415","25.012155","6502500","雙溪區"
"227012","030-BX","2017/11/21 09:19:24","新北市坪林區坪雙路三段13號","121.776451666667","24.9689483333333","6502500","雙溪區"
"252004","249-BX","2017/11/21 09:19:54","新北市三芝區福德里大水堀31號","121.510516666667","25.21575","6502100","三芝區"
"252007","AAC-283","2017/11/21 09:19:47","新北市三芝區樂全街1號","121.487675","25.25898","6502100","三芝區"
"237001","159-UY","2017/11/21 09:19:51","新北市三峽區國學街24號","121.373186666667","24.941995","6500900","三峽區"
"236008","165-UM","2017/11/21 09:19:39","新北市土城區中央路四段321巷32-2號","121.411885","24.951155","6501300","土城區"
"236006","498-BY","2017/11/21 09:19:57","新北市土城區承天路81-8號","121.44065","24.9626633333333","6501300","土城區"
