"lineid","car","time","location","longitude","latitude","cityid","cityname"
"248005","653-BX","2017/11/21 09:29:53","新北市五股區登林路76-5號","121.430576666667","25.0695283333333","6501500","五股區"
"222004","289-BY","2017/11/21 09:29:51","新北市深坑區阿柔洋39-1號","121.613453333333","24.99733","6501800","深坑區"
"231009","192-VK","2017/11/21 09:29:47","新北市新店區平廣路一段73號","121.531988333333","24.8994","6500600","新店區"
"231007","719-UM","2017/11/21 09:29:54","新北市新店區新潭路三段215巷25號","121.508098333333","24.9041","6500600","新店區"
"223001","205-TH","2017/11/21 09:29:50","新北市石碇區內楒仔腳1-3號","121.633075","24.9680883333333","6501900","石碇區"
"227006","282-VK","2017/11/21 09:25:14","新北市雙溪區長源里柑腳58-1號","121.794096666667","25.0066816666667","6502500","雙溪區"
"227012","030-BX","2017/11/21 09:29:44","新北市坪林區鷺鶿岫3號","121.7825","24.9586133333333","6502500","雙溪區"
"252004","249-BX","2017/11/21 09:29:54","新北市三芝區圓山里石曹子坑68號","121.523556666667","25.2172866666667","6502100","三芝區"
"252007","AAC-283","2017/11/21 09:29:47","新北市三芝區埔坪里埔頭坑107號","121.50446","25.261505","6502100","三芝區"
"237001","159-UY","2017/11/21 09:29:51","新北市鶯歌區中正一路113-1號","121.370371666667","24.9587566666667","6500900","三峽區"
"236006","498-BY","2017/11/21 09:29:44","新北市土城區承天路71巷4弄11號","121.441216666667","24.963115","6501300","土城區"
