"lineid","car","time","location","longitude","latitude","cityid","cityname"
"231009","192-VK","2017/11/21 11:59:47","新北市新店區屈尺路216號","121.544091666667","24.9235833333333","6500600","新店區"
"228004","212-TW","2017/11/21 11:59:43","新北市貢寮區貢寮里朝陽街1-2號","121.911943333333","25.02128","6502600","貢寮區"
"228005","828-UM","2017/11/21 11:59:39","新北市貢寮區貢寮里朝陽街1-2號","121.912375","25.021255","6502600","貢寮區"
"227006","282-VK","2017/11/21 11:59:36","新北市雙溪區魚行里魚杭1號","121.883878333333","25.02664","6502500","雙溪區"
"237001","159-UY","2017/11/21 11:59:51","新北市三峽區中山路459巷163-3號","121.34915","24.933415","6500900","三峽區"
"221012","276-VK","2017/11/21 11:59:54","新北市汐止區康寧街901號","121.651058333333","25.075135","6501100","汐止區"
