"lineid","car","time","location","longitude","latitude","cityid","cityname"
"234044","148-BY","2017/11/21 13:59:50","新北市永和區成功路一段26號","121.527053333333","25.0047966666667","6500400","永和區"
"234012","149-BY","2017/11/21 13:59:45","新北市永和區保生路55號","121.50475","25.0103366666667","6500400","永和區"
"234005","207-UY","2017/11/21 13:59:55","新北市中和區中和路306-1號","121.508906666667","25.0000316666667","6500400","永和區"
"234078","298-R6","2017/11/21 13:59:49","新北市永和區國中路20號","121.524471666667","25.0051066666667","6500400","永和區"
"234036","336-UY","2017/11/21 13:59:37","新北市永和區成功路二段110號","121.526623333333","24.99819","6500400","永和區"
"234062","337-UY","2017/11/21 13:59:17","新北市永和區中正路368巷53號","121.519256666667","25.0009566666667","6500400","永和區"
"234084","338-UY","2017/11/21 13:59:40","新北市永和區福和路82-1號","121.522805","25.00808","6500400","永和區"
"234068","552-UM","2017/11/21 13:59:42","新北市永和區福和路224號","121.519131666667","25.0079116666667","6500400","永和區"
"234052","553-UM","2017/11/21 13:59:53","新北市永和區竹林路39巷35-1號","121.520161666667","25.015305","6500400","永和區"
"234015","745-BX","2017/11/21 13:59:43","新北市永和區文化路95-1號","121.513288333333","25.0152166666667","6500400","永和區"
"234028","746-BX","2017/11/21 13:59:43","新北市永和區厚德街4號","121.525756666667","24.9976333333333","6500400","永和區"
"234060","AAD-866","2017/11/21 13:59:47","新北市永和區中正路151巷14號","121.515596666667","24.998865","6500400","永和區"
"234040","862-TW","2017/11/21 13:59:53","新北市永和區中和路335巷18弄15號","121.507851666667","25.0003966666667","6500400","永和區"
"234048","863-TW","2017/11/21 13:59:50","新北市永和區保安路260號","121.505976666667","25.0124366666667","6500400","永和區"
"234010","9373-KE","2017/11/21 13:59:52","新北市永和區仁愛路352巷94號","121.501151666667","25.0079816666667","6500400","永和區"
"248017","225-UY","2017/11/21 13:59:56","新北市五股區民義路一段242-3號","121.426381666667","25.0923016666667","6501500","五股區"
"234022","9380-KE","2017/11/21 13:59:55","新北市永和區永和路二段216號","121.515715","25.0141633333333","6500400","永和區"
"234076","969-R7","2017/11/21 13:59:55","新北市永和區民族街43巷14號","121.519195","24.9982733333333","6500400","永和區"
"234072","AAC-211","2017/11/21 13:59:44","新北市永和區豫溪街185號","121.52246","25.0104166666667","6500400","永和區"
"234066","AAC-212","2017/11/21 13:59:55","新北市永和區永貞路313號","121.50995","25.0065266666667","6500400","永和區"
"234001","AAC-295","2017/11/21 13:59:49","新北市永和區福和路327號","121.515685","25.0072066666667","6500400","永和區"
"244002","248-BX","2017/11/21 13:59:50","新北市林口區林口路76號","121.38969","25.080715","6501700","林口區"
"231002","002-UM","2017/11/21 13:59:44","新北市新店區中正路608號","121.533985","24.9884333333333","6500600","新店區"
"231028","046-UY","2017/11/21 13:59:45","新北市新店區安和路三段124號","121.516783333333","24.9856316666667","6500600","新店區"
"231030","047-UY","2017/11/21 13:59:46","新北市新店區安民街65巷21-2號","121.51519","24.9674883333333","6500600","新店區"
"231029","106-UY","2017/11/21 13:59:55","新北市新店區安康路二段61號","121.514061666667","24.96319","6500600","新店區"
"231012","108-UY","2017/11/21 13:59:54","新北市新店區中興路一段282-5號","121.546141666667","24.9682","6500600","新店區"
"231020","187-VK","2017/11/21 13:59:53","新北市新店區屈尺路75號","121.54559","24.922715","6500600","新店區"
"231015","KEA-2219","2017/11/21 13:59:52","新北市新店區郵政路4巷7號","121.556996666667","24.9513983333333","6500600","新店區"
"231026","256-BX","2017/11/21 13:59:41","新北市新店區環河路22號","121.53696","24.96188","6500600","新店區"
"231023","AAD-862","2017/11/21 13:59:47","新北市新店區文中路40號","121.539735","24.9564616666667","6500600","新店區"
"231027","3712-VJ","2017/11/21 13:59:46","新北市新店區中興路一段36號","121.539016666667","24.9585916666667","6500600","新店區"
"231025","3713-VJ","2017/11/21 13:59:54","新北市新店區中正路275巷40號","121.536631666667","24.9726783333333","6500600","新店區"
"231024","4716-K9","2017/11/21 13:59:41","新北市新店區北新路一段271巷32號","121.540035","24.96722","6500600","新店區"
"231038","4715-K9","2017/11/21 13:59:52","新北市新店區溪洲路121號","121.53149","24.9630683333333","6500600","新店區"
"231036","512-UM","2017/11/21 13:59:48","新北市新店區安祥路109巷3弄104號","121.479208333333","24.9605433333333","6500600","新店區"
"231035","515-UM","2017/11/21 13:59:46","新北市新店區安忠路2號","121.51451","24.9635333333333","6500600","新店區"
"231003","616-UM","2017/11/21 13:59:35","新北市新店區北宜路一段3號","121.538516666667","24.9584183333333","6500600","新店區"
"231006","617-UM","2017/11/21 13:59:40","新北市新店區北宜路二段215號","121.553275","24.953415","6500600","新店區"
"231001","619-UM","2017/11/21 13:59:47","新北市新店區三民路45號","121.53711","24.9709416666667","6500600","新店區"
"231034","645-TV","2017/11/21 13:59:49","新北市新店區達觀路16號","121.502898333333","24.9412216666667","6500600","新店區"
"231013","719-UM","2017/11/21 13:59:47","新北市新店區明德路111號","121.541536666667","24.9794183333333","6500600","新店區"
"231018","719-UY","2017/11/21 13:59:45","新北市新店區中央路116號","121.531133333333","24.97516","6500600","新店區"
"231032","720-UM","2017/11/21 13:59:52","新北市新店區華城路6號","121.530183333333","24.9604016666667","6500600","新店區"
"231005","897-TW","2017/11/21 13:59:38","新北市新店區中興路三段168號","121.54425","24.980805","6500600","新店區"
"231004","899-TW","2017/11/21 13:59:38","新北市新店區北新路二段167號","121.542883333333","24.9763733333333","6500600","新店區"
"231037","AKT-0513","2017/11/21 13:59:44","新北市新店區安康路三段165巷6號","121.489675","24.9511783333333","6500600","新店區"
"235030","003-UY","2017/11/21 13:59:45","新北市中和區中山路二段131巷12號","121.502903333333","25.00205","6500300","中和區"
"235027","006-UY","2017/11/21 13:59:51","新北市中和區中正路524號","121.488031666667","24.9945233333333","6500300","中和區"
"235020","096-UM","2017/11/21 13:59:56","新北市中和區中正路1220巷7號","121.479795","25.01133","6500300","中和區"
"235003","097-UM","2017/11/21 13:59:42","新北市中和區景平路64巷18號","121.522353333333","24.9913116666667","6500300","中和區"
"235029","098-UM","2017/11/21 13:59:52","新北市中和區莊敬路49巷2號","121.501423333333","25.005455","6500300","中和區"
"235004","150-BY","2017/11/21 13:59:56","新北市中和區保健路46巷20弄1號","121.508868333333","24.9959716666667","6500300","中和區"
"235022","151-BY","2017/11/21 13:59:46","新北市中和區員山路75號","121.480801666667","24.994175","6500300","中和區"
"235019","183-VK","2017/11/21 13:59:45","新北市中和區中山路三段204號","121.471676666667","25.006465","6500300","中和區"
"235002","185-VK","2017/11/21 13:59:47","新北市中和區自強路38巷1號","121.520235","24.9953433333333","6500300","中和區"
"235013","186-VK","2017/11/21 13:59:45","新北市中和區景安路68號","121.505871666667","24.9966933333333","6500300","中和區"
"235031","255-BX","2017/11/21 13:59:52","新北市中和區新生街264號","121.483576666667","24.9971983333333","6500300","中和區"
"235008","293-VK","2017/11/21 13:59:47","新北市中和區中興街161巷5弄1號","121.50076","24.990915","6500300","中和區"
"235036","301-VK","2017/11/21 13:59:51","新北市中和區中山路二段43號","121.504646666667","25.0049283333333","6500300","中和區"
"235007","352-BY","2017/11/21 13:59:52","新北市中和區成功路98號","121.525856666667","24.9910566666667","6500300","中和區"
"235032","377-QA","2017/11/21 13:59:48","新北市中和區安邦街130號","121.49727","24.9954183333333","6500300","中和區"
"235025","378-QA","2017/11/21 13:59:43","新北市中和區民治街130巷10號","121.474795","25.002645","6500300","中和區"
"235035","269-TV","2017/11/21 13:59:56","新北市中和區立德街98巷62號","121.488201666667","25.0086316666667","6500300","中和區"
"235014","4979-A6","2017/11/21 13:59:41","新北市中和區華新街50巷6號","121.50768","24.9839616666667","6500300","中和區"
"235033","4980-A6","2017/11/21 13:59:55","新北市中和區中和路165巷10號","121.503028333333","25.0003483333333","6500300","中和區"
"235006","551-UM","2017/11/21 13:59:49","新北市中和區秀朗路三段128巷12弄3號","121.524698333333","24.9928333333333","6500300","中和區"
"235034","558-UM","2017/11/21 13:59:46","新北市中和區中和路169號","121.502961666667","24.9998016666667","6500300","中和區"
"235009","565-BX","2017/11/21 13:59:50","新北市中和區景新街469號","121.513583333333","24.9881233333333","6500300","中和區"
"235018","640-BX","2017/11/21 13:59:52","新北市中和區民享街29巷1號","121.474098333333","25.0044633333333","6500300","中和區"
"235024","647-TV","2017/11/21 13:59:50","新北市中和區民治街3巷1號","121.474928333333","25.0053733333333","6500300","中和區"
"235011","732-UM","2017/11/21 13:59:38","新北市中和區興南路二段32巷5號","121.507088333333","24.9855816666667","6500300","中和區"
"235010","733-UM","2017/11/21 13:59:45","新北市中和區興南路一段135巷17號","121.509421666667","24.98701","6500300","中和區"
"235026","800-TS","2017/11/21 13:59:40","新北市中和區中山路二段366巷13-1號","121.491763333333","25.0043083333333","6500300","中和區"
"235021","801-TS","2017/11/21 13:59:48","新北市中和區民安街63號","121.478696666667","24.999725","6500300","中和區"
"235005","802-TS","2017/11/21 13:59:49","新北市中和區中安街58號","121.512698333333","25.0023233333333","6500300","中和區"
"235016","805-TS","2017/11/21 13:59:48","新北市中和區興南路二段261巷7-1號","121.503226666667","24.9798566666667","6500300","中和區"
"235012","896-TW","2017/11/21 13:59:51","新北市中和區華新街52號","121.507961666667","24.9840133333333","6500300","中和區"
"235017","900-TW","2017/11/21 13:59:48","新北市板橋區和平路190巷14號","121.464548333333","24.9949783333333","6500300","中和區"
"235028","911-UM","2017/11/21 13:59:54","新北市中和區連城路47巷5號","121.498408333333","25.0016966666667","6500300","中和區"
"235001","157-BY","2017/11/21 13:59:56","新北市中和區忠孝街31巷41號","121.509795","24.9851183333333","6500300","中和區"
"235001","AAC-213","2017/11/21 13:59:39","新北市中和區秀朗路三段10巷14弄76號","121.523795","24.9965216666667","6500300","中和區"
"235023","AAC-215","2017/11/21 13:59:47","新北市中和區圓通路367巷20弄31號","121.491226666667","24.98799","6500300","中和區"
"220016","013-TV","2017/11/21 13:59:48","新北市板橋區中山路二段443巷80號","121.481093333333","25.0224466666667","6500100","板橋區"
"220034","073-UY","2017/11/21 13:59:54","新北市板橋區中正路236巷16號","121.456453333333","25.0191233333333","6500100","板橋區"
"220105","075-UY","2017/11/21 13:59:39","新北市板橋區莊敬路133號","121.471853333333","25.02526","6500100","板橋區"
"220017","AAD-861","2017/11/21 13:59:57","新北市板橋區東興街1號","121.458853333333","25.0051866666667","6500100","板橋區"
"220051","120-SR","2017/11/21 13:59:52","新北市板橋區懷德街233巷6號","121.480876666667","25.02862","6500100","板橋區"
"247019","500-BY","2017/11/21 13:59:39","新北市蘆洲區民族路422巷19號","121.473605","25.093","6501400","蘆洲區"
"247009","339-TH","2017/11/21 13:59:49","新北市蘆洲區集賢路227-1號","121.482325","25.0860916666667","6501400","蘆洲區"
"247001","337-TH","2017/11/21 13:59:36","新北市蘆洲區永平街32巷74號","121.460553333333","25.0936083333333","6501400","蘆洲區"
"247003","335-TH","2017/11/21 13:59:50","新北市蘆洲區長安街100號","121.461533333333","25.0811833333333","6501400","蘆洲區"
"247015","057-VK","2017/11/21 13:59:55","新北市蘆洲區光華路48號","121.468683333333","25.0831916666667","6501400","蘆洲區"
"247005","056-VK","2017/11/21 13:59:48","新北市蘆洲區九芎街189號","121.464638333333","25.0785416666667","6501400","蘆洲區"
"247007","053-VK","2017/11/21 13:59:53","新北市三重區永安北路一段91號","121.478368333333","25.0777966666667","6501400","蘆洲區"
"247013","007-UY","2017/11/21 13:59:48","新北市蘆洲區中正路100號","121.469795","25.0843566666667","6501400","蘆洲區"
"247017","001-UY","2017/11/21 13:59:49","新北市蘆洲區民族路327巷140號","121.475421666667","25.08937","6501400","蘆洲區"
"228004","212-TW","2017/11/21 13:59:42","新北市貢寮區龍崗里泮宮路19號","121.907726666667","25.0177116666667","6502600","貢寮區"
"228005","828-UM","2017/11/21 13:59:39","新北市貢寮區美豐里雞母嶺街52-1號","121.88859","25.068615","6502600","貢寮區"
"208004","AAC-292","2017/11/21 13:59:55","新北市金山區山城路29號","121.59836","25.2019933333333","6502700","金山區"
"207002","749-BX","2017/11/21 13:59:42","新北市萬里區溪底里溪底路9-1號","121.620321666667","25.148975","6502800","萬里區"
"207001","662-BX","2017/11/21 13:59:36","新北市萬里區磺潭里清水18號","121.637801666667","25.1976866666667","6502800","萬里區"
"252005","AAC-283","2017/11/21 13:59:54","新北市三芝區橫山里大坑85號","121.529718333333","25.25904","6502100","三芝區"
"237001","159-UY","2017/11/21 13:40:12","新北市三峽區中山路459巷163-1號","121.34933","24.9334583333333","6500900","三峽區"
"236065","105-UM","2017/11/21 13:59:35","新北市土城區和平路11號","121.442853333333","24.9740816666667","6501300","土城區"
"236041","107-UM","2017/11/21 13:59:41","新北市土城區裕生路61號","121.447638333333","24.986145","6501300","土城區"
"236075","166-UM","2017/11/21 13:59:52","新北市土城區永寧路32巷10弄21號","121.428991666667","24.9610633333333","6501300","土城區"
"236025","269-VK","2017/11/21 13:59:51","新北市土城區承天路65號","121.43971","24.96353","6501300","土城區"
"236013","270-VK","2017/11/21 13:59:54","新北市土城區城林路6巷80號","121.438383333333","24.9797816666667","6501300","土城區"
"236034","271-VK","2017/11/21 13:59:43","新北市土城區城林路6巷80號","121.438786666667","24.9796883333333","6501300","土城區"
"236017","401-BY","2017/11/21 13:59:54","新北市土城區城林路6巷80號","121.43865","24.9797766666667","6501300","土城區"
"236006","498-BY","2017/11/21 13:59:43","新北市土城區裕民路8-1號","121.447066666667","24.98875","6501300","土城區"
"236057","912-UM","2017/11/21 13:59:47","新北市土城區中央路三段188號","121.430541666667","24.9649183333333","6501300","土城區"
"236045","913-UM","2017/11/21 13:59:38","新北市土城區城林路6巷80號","121.438488333333","24.9797116666667","6501300","土城區"
"236061","915-UM","2017/11/21 13:59:47","新北市土城區城林路6巷80號","121.438568333333","24.97985","6501300","土城區"
"236047","970-R7","2017/11/21 13:59:50","新北市土城區中央路一段205號","121.445846666667","24.9867733333333","6501300","土城區"
"236054","AAC-216","2017/11/21 13:59:53","新北市土城區城林路6巷80號","121.438425","24.9798133333333","6501300","土城區"
"221012","276-VK","2017/11/21 13:59:54","新北市汐止區汐萬路三段197號","121.642293333333","25.096985","6501100","汐止區"
"220027","145-BY","2017/11/21 13:59:55","新北市板橋區民權路202巷7弄22號","121.459276666667","25.01497","6500100","板橋區"
"220028","200-UY","2017/11/21 13:59:56","新北市板橋區大觀路二段265巷1弄14號","121.44353","24.9985083333333","6500100","板橋區"
"220030","610-BX","2017/11/21 13:59:52","新北市板橋區篤行路三段玉平巷37號","121.42879","24.9870616666667","6500100","板橋區"
"220050","245-BX","2017/11/21 13:59:44","新北市板橋區文化路二段182巷5弄1號","121.471573333333","25.0269466666667","6500100","板橋區"
"220004","276-BY","2017/11/21 13:59:54","新北市板橋區信義路169號","121.458888333333","24.9920866666667","6500100","板橋區"
"220020","277-BY","2017/11/21 13:59:53","新北市板橋區篤行路二段135號","121.430155","24.9888816666667","6500100","板橋區"
"220043","283-UM","2017/11/21 13:59:48","新北市板橋區文化路二段37號","121.468895","25.0249433333333","6500100","板橋區"
"220019","283-VK","2017/11/21 13:59:50","新北市板橋區重慶路235號","121.463103333333","25.0010383333333","6500100","板橋區"
"220001","285-VK","2017/11/21 13:59:45","新北市板橋區中山路二段89巷48號","121.473766666667","25.017235","6500100","板橋區"
"220031","286-VK","2017/11/21 13:59:57","新北市板橋區大觀路一段38巷156弄15號","121.442513333333","25.0052683333333","6500100","板橋區"
"220029","287-VK","2017/11/21 13:59:58","新北市板橋區光華街28巷1號","121.453943333333","25.0124916666667","6500100","板橋區"
"220039","288-VK","2017/11/21 13:59:44","新北市板橋區四維路177巷2弄1號","121.463953333333","25.0262483333333","6500100","板橋區"
"220009","293-UM","2017/11/21 13:59:56","新北市板橋區懷仁街11號","121.476175","25.0200983333333","6500100","板橋區"
"220032","296-UM","2017/11/21 13:59:46","新北市板橋區龍興街59號","121.443251666667","25.0013133333333","6500100","板橋區"
"220023","297-UM","2017/11/21 13:59:51","新北市板橋區南雅西路二段255號","121.451723333333","25.0147166666667","6500100","板橋區"
"220045","299-UM","2017/11/21 13:59:53","新北市板橋區莒光路114巷1-3號","121.472465","25.023715","6500100","板橋區"
"220010","305-R5","2017/11/21 13:59:47","新北市板橋區三民路二段245巷60號","121.480993333333","25.0122316666667","6500100","板橋區"
"220041","307-R5","2017/11/21 13:59:53","新北市板橋區文化路一段259號","121.464386666667","25.0181733333333","6500100","板橋區"
"220047","317-R6","2017/11/21 13:59:49","新北市板橋區民有街31號","121.465935","25.0254233333333","6500100","板橋區"
"220038","487-VK","2017/11/21 13:59:53","新北市板橋區文化路二段294號","121.472038333333","25.0295966666667","6500100","板橋區"
"220037","491-VK","2017/11/21 13:59:46","新北市板橋區民生路二段216號","121.469343333333","25.0216766666667","6500100","板橋區"
"220104","560-BX","2017/11/21 13:59:54","新北市板橋區中正路379巷3弄38-1號","121.453206666667","25.021345","6500100","板橋區"
"220052","561-BX","2017/11/21 13:59:42","新北市板橋區介壽街120號","121.46985","25.01773","6500100","板橋區"
"220011","609-BX","2017/11/21 13:59:40","新北市板橋區中山路二段311號","121.478836666667","25.0184516666667","6500100","板橋區"
"220040","637-BX","2017/11/21 13:59:46","新北市板橋區雙十路二段47巷48號","121.474961666667","25.0255366666667","6500100","板橋區"
"220005","686-BX","2017/11/21 13:59:38","新北市板橋區南雅南路二段116號","121.452508333333","25.00059","6500100","板橋區"
"220025","687-BX","2017/11/21 13:59:57","新北市板橋區大觀路二段174巷153號","121.4415","25.00277","6500100","板橋區"
"220042","689-BX","2017/11/21 13:59:47","新北市板橋區民生路三段42號","121.467153333333","25.024935","6500100","板橋區"
"220002","741-BX","2017/11/21 13:59:50","新北市板橋區後埔街43號","121.460561666667","25.00603","6500100","板橋區"
"220018","806-UM","2017/11/21 13:59:48","新北市板橋區四川路一段26號","121.459528333333","25.00628","6500100","板橋區"
"220003","827-TW","2017/11/21 13:59:56","新北市板橋區中山路一段156號","121.465165","25.0116733333333","6500100","板橋區"
"220014","829-TW","2017/11/21 13:59:51","新北市板橋區三民路186巷13-1號","121.478593333333","25.014855","6500100","板橋區"
"220022","895-R6","2017/11/21 13:59:53","新北市板橋區南雅西路二段4號","121.453703333333","25.0090516666667","6500100","板橋區"
"220021","985-R7","2017/11/21 13:59:58","新北市板橋區林園街7-1號","121.454113333333","25.0091766666667","6500100","板橋區"
"220046","AAC-210","2017/11/21 13:59:47","新北市板橋區陽明街162號","121.463461666667","25.0244366666667","6500100","板橋區"
