"lineid","car","time","location","longitude","latitude","cityid","cityname"
"234044","148-BY","2017/11/21 14:09:46","新北市永和區得和路354號","121.52388","24.999435","6500400","永和區"
"234012","149-BY","2017/11/21 14:09:57","新北市永和區保生路5巷3號","121.50605","25.0071316666667","6500400","永和區"
"234005","207-UY","2017/11/21 14:09:41","新北市中和區保平路285號","121.506625","25.00389","6500400","永和區"
"234078","298-R6","2017/11/21 14:09:50","新北市永和區國中路104巷2弄1號","121.524405","25.0067233333333","6500400","永和區"
"234036","336-UY","2017/11/21 14:09:43","新北市永和區成功路一段70號","121.52684","25.00361","6500400","永和區"
"234062","337-UY","2017/11/21 14:09:37","新北市永和區永利路152號","121.522431666667","25.00275","6500400","永和區"
"234084","338-UY","2017/11/21 14:09:39","新北市永和區福和路271號","121.517623333333","25.0073683333333","6500400","永和區"
"234068","552-UM","2017/11/21 14:09:42","新北市永和區永貞路10巷8號","121.520375","25.0073266666667","6500400","永和區"
"234052","553-UM","2017/11/21 14:09:53","新北市永和區博愛街45巷2號","121.519196666667","25.0158916666667","6500400","永和區"
"234015","745-BX","2017/11/21 14:09:40","新北市永和區仁愛路54號","121.513851666667","25.013395","6500400","永和區"
"234028","746-BX","2017/11/21 14:09:47","新北市永和區民生路22巷27號","121.521191666667","24.9970066666667","6500400","永和區"
"234060","AAD-866","2017/11/21 14:09:51","新北市永和區安樂路146-1號","121.514173333333","25.0004233333333","6500400","永和區"
"234040","862-TW","2017/11/21 14:09:53","新北市永和區雙和街64巷9號","121.509401666667","25.0034116666667","6500400","永和區"
"234048","863-TW","2017/11/21 14:09:50","新北市永和區環河西路二段103號","121.506403333333","25.01475","6500400","永和區"
"234025","9381-KE","2017/11/21 14:09:50","新北市永和區安樂路198巷4弄2號","121.51557","25.0019966666667","6500400","永和區"
"234010","9373-KE","2017/11/21 14:09:52","新北市永和區仁愛路352巷122弄33號","121.500788333333","25.0092166666667","6500400","永和區"
"248017","225-UY","2017/11/21 14:09:36","新北市五股區民義路一段255-13號","121.426823333333","25.0914166666667","6501500","五股區"
"234022","9380-KE","2017/11/21 14:09:55","新北市永和區博愛街32巷17-1號","121.518821666667","25.0152816666667","6500400","永和區"
"234076","969-R7","2017/11/21 14:09:39","新北市中和區自強路10號","121.520083333333","24.9959233333333","6500400","永和區"
"234072","AAC-211","2017/11/21 14:09:44","新北市永和區竹林路201巷24弄8號","121.52246","25.0096266666667","6500400","永和區"
"234066","AAC-212","2017/11/21 14:09:55","新北市永和區保平路236巷1弄2號","121.508926666667","25.005895","6500400","永和區"
"234001","AAC-295","2017/11/21 14:09:49","新北市永和區中正路605號","121.516483333333","25.0096933333333","6500400","永和區"
"244002","248-BX","2017/11/21 14:09:50","新北市林口區竹林路265號","121.389658333333","25.0807316666667","6501700","林口區"
"231002","002-UM","2017/11/21 14:09:44","新北市新店區中正路487號","121.533893333333","24.9821566666667","6500600","新店區"
"231028","046-UY","2017/11/21 14:09:45","新北市新店區安和路二段236號","121.516543333333","24.9780633333333","6500600","新店區"
"231030","047-UY","2017/11/21 14:09:46","新北市新店區安民街65巷21-2號","121.515208333333","24.9674966666667","6500600","新店區"
"231029","106-UY","2017/11/21 14:09:40","新北市新店區安康路二段161號","121.51025","24.9594666666667","6500600","新店區"
"231012","108-UY","2017/11/21 14:09:55","新北市新店區五峰路63巷8弄23號","121.547403333333","24.9693533333333","6500600","新店區"
"231020","187-VK","2017/11/21 14:09:53","新北市新店區屈尺路115號","121.54535","24.9234733333333","6500600","新店區"
"231015","KEA-2219","2017/11/21 14:09:49","新北市新店區中生路125-1號","121.56587","24.9507766666667","6500600","新店區"
"231023","AAD-862","2017/11/21 14:09:47","新北市新店區文中路40-2號","121.539716666667","24.956275","6500600","新店區"
"231027","3712-VJ","2017/11/21 14:09:45","新北市新店區檳榔路18號","121.541121666667","24.9643733333333","6500600","新店區"
"231025","3713-VJ","2017/11/21 14:09:54","新北市新店區中正路300號","121.5376","24.97457","6500600","新店區"
"231024","4716-K9","2017/11/21 14:09:41","新北市新店區中央路173號","121.534303333333","24.9700116666667","6500600","新店區"
"231038","4715-K9","2017/11/21 14:09:52","新北市新店區溪洲路121號","121.531375","24.9627066666667","6500600","新店區"
"231036","512-UM","2017/11/21 14:09:48","新北市新店區安祥路109巷37號","121.476611666667","24.9595266666667","6500600","新店區"
"231035","515-UM","2017/11/21 14:09:46","新北市新店區安和路二段99號","121.518656666667","24.9695933333333","6500600","新店區"
"231003","616-UM","2017/11/21 14:09:55","新北市新店區中興路一段152號","121.542555","24.9637783333333","6500600","新店區"
"231006","617-UM","2017/11/21 14:09:40","新北市新店區北宜路二段126號","121.556818333333","24.9538916666667","6500600","新店區"
"231001","619-UM","2017/11/21 14:09:53","新北市新店區中華路59號","121.539871666667","24.9680716666667","6500600","新店區"
"231034","645-TV","2017/11/21 14:09:49","新北市新店區黎明路3號","121.503651666667","24.9524983333333","6500600","新店區"
"231013","719-UM","2017/11/21 14:09:47","新北市新店區北新路三段65巷34弄12號","121.540045","24.9814266666667","6500600","新店區"
"231018","719-UY","2017/11/21 14:09:45","新北市新店區中央五街28號","121.529021666667","24.9745466666667","6500600","新店區"
"231032","720-UM","2017/11/21 14:09:51","新北市新店區永業路34號","121.532661666667","24.9554266666667","6500600","新店區"
"231005","897-TW","2017/11/21 14:09:38","新北市新店區寶慶街66號","121.541993333333","24.98664","6500600","新店區"
"231004","899-TW","2017/11/21 14:09:38","新北市新店區北新路二段108號","121.543015","24.9741916666667","6500600","新店區"
"231037","AKT-0513","2017/11/21 14:09:44","新北市新店區安康路二段317-1號","121.49909","24.956405","6500600","新店區"
"235030","003-UY","2017/11/21 14:09:45","新北市中和區廣福路16號","121.505235","25.0026116666667","6500300","中和區"
"235027","006-UY","2017/11/21 14:09:51","新北市中和區中正路420號","121.491751666667","24.9942233333333","6500300","中和區"
"235020","096-UM","2017/11/21 14:09:56","新北市中和區中正路1171號","121.481318333333","25.0095433333333","6500300","中和區"
"235003","097-UM","2017/11/21 14:09:42","新北市中和區秀峰街64號","121.52064","24.9904433333333","6500300","中和區"
"235029","098-UM","2017/11/21 14:09:52","新北市中和區中山路二段2巷3弄11號","121.504518333333","25.00572","6500300","中和區"
"235004","150-BY","2017/11/21 14:09:56","新北市中和區宜安路57號","121.51163","24.9968283333333","6500300","中和區"
"235022","151-BY","2017/11/21 14:09:46","新北市中和區員山路102號","121.481075","24.9954116666667","6500300","中和區"
"235019","183-VK","2017/11/21 14:09:51","新北市中和區德光路43號","121.470343333333","25.0041083333333","6500300","中和區"
"235002","185-VK","2017/11/21 14:09:47","新北市中和區大仁街10巷27弄3號","121.519156666667","24.99274","6500300","中和區"
"235013","186-VK","2017/11/21 14:09:45","新北市中和區明仁街20號","121.50646","24.9954116666667","6500300","中和區"
"235031","255-BX","2017/11/21 14:09:52","新北市中和區新生街164號","121.483656666667","25.0002633333333","6500300","中和區"
"235008","293-VK","2017/11/21 14:09:47","新北市中和區復興路348號","121.500111666667","24.9904383333333","6500300","中和區"
"235036","301-VK","2017/11/21 14:09:51","新北市中和區中山路二段259號","121.49713","25.0022966666667","6500300","中和區"
"235007","352-BY","2017/11/21 14:09:55","新北市中和區景平路274-1號","121.514256666667","24.9926466666667","6500300","中和區"
"235032","377-QA","2017/11/21 14:09:48","新北市中和區景平路545巷1弄18號","121.498775","24.998765","6500300","中和區"
"235025","378-QA","2017/11/21 14:09:44","新北市中和區員山路314巷4號","121.481796666667","25.0027766666667","6500300","中和區"
"235035","269-TV","2017/11/21 14:09:56","新北市中和區立言街48號","121.48816","25.0067983333333","6500300","中和區"
"235014","4979-A6","2017/11/21 14:09:41","新北市中和區復興路280巷18弄1號","121.50186","24.991875","6500300","中和區"
"235033","4980-A6","2017/11/21 14:09:55","新北市中和區景平路736巷3弄9號","121.497516666667","25.003765","6500300","中和區"
"235006","551-UM","2017/11/21 14:09:45","新北市中和區立人街69巷17號","121.520521666667","24.993495","6500300","中和區"
"235034","558-UM","2017/11/21 14:09:46","新北市中和區中和路212號","121.50602","24.9994816666667","6500300","中和區"
"235009","565-BX","2017/11/21 14:09:50","新北市中和區景新街467巷36號","121.515445","24.9885466666667","6500300","中和區"
"235018","640-BX","2017/11/21 14:09:51","新北市中和區國光街107巷2弄32號","121.469296666667","24.999015","6500300","中和區"
"235024","647-TV","2017/11/21 14:09:50","新北市中和區民享街1號","121.47384","25.0058383333333","6500300","中和區"
"235011","732-UM","2017/11/21 14:09:38","新北市中和區景平路239巷33弄48號","121.510081666667","24.9914283333333","6500300","中和區"
"235010","733-UM","2017/11/21 14:09:45","新北市中和區忠孝街1巷3號","121.508738333333","24.9833466666667","6500300","中和區"
"235026","800-TS","2017/11/21 14:09:40","新北市中和區橋和路104號","121.490843333333","25.005335","6500300","中和區"
"235021","801-TS","2017/11/21 14:09:48","新北市中和區民利街46號","121.479418333333","24.9988216666667","6500300","中和區"
"235005","802-TS","2017/11/21 14:09:49","新北市中和區中安街178巷2號","121.511038333333","24.9996283333333","6500300","中和區"
"235016","805-TS","2017/11/21 14:09:48","新北市中和區興南路二段128巷7弄6號","121.503135","24.9839083333333","6500300","中和區"
"235012","896-TW","2017/11/21 14:09:51","新北市中和區華新街109巷11弄3-1號","121.508726666667","24.979405","6500300","中和區"
"235017","900-TW","2017/11/21 14:09:48","新北市中和區華福街57巷12號","121.46685","24.9970916666667","6500300","中和區"
"235028","911-UM","2017/11/21 14:09:42","新北市中和區連城路23巷11號","121.499116666667","25.0015716666667","6500300","中和區"
"235001","157-BY","2017/11/21 14:09:36","新北市中和區興南路一段57-1號","121.510576666667","24.9899566666667","6500300","中和區"
"235001","AAC-213","2017/11/21 14:09:45","新北市中和區秀朗路三段93號","121.526635","24.9952466666667","6500300","中和區"
"235023","AAC-215","2017/11/21 14:09:47","新北市中和區圓通路296巷31弄1號","121.48861","24.9904866666667","6500300","中和區"
"220016","013-TV","2017/11/21 14:09:49","新北市板橋區翠華街6巷8號","121.480628333333","25.0239483333333","6500100","板橋區"
"220034","073-UY","2017/11/21 14:09:50","新北市板橋區中正路236巷77號","121.459065","25.0196483333333","6500100","板橋區"
"220105","075-UY","2017/11/21 14:09:51","新北市板橋區雙十路三段9號","121.471476666667","25.0300683333333","6500100","板橋區"
"220017","AAD-861","2017/11/21 14:09:51","新北市板橋區東興街93-2號","121.45762","25.0051716666667","6500100","板橋區"
"220051","120-SR","2017/11/21 14:09:39","新北市板橋區田單街49巷2號","121.482521666667","25.0281616666667","6500100","板橋區"
"247021","893-R6","2017/11/21 14:09:45","新北市蘆洲區三民路193號","121.470548333333","25.0875816666667","6501400","蘆洲區"
"247011","546-UM","2017/11/21 14:09:56","新北市蘆洲區信義路343巷1號","121.477701666667","25.0870333333333","6501400","蘆洲區"
"247019","500-BY","2017/11/21 14:09:39","新北市蘆洲區仁愛街42號","121.472088333333","25.09337","6501400","蘆洲區"
"247009","339-TH","2017/11/21 14:09:49","新北市蘆洲區信義路243號","121.47911","25.0842233333333","6501400","蘆洲區"
"247001","337-TH","2017/11/21 14:09:36","新北市蘆洲區永平街65號","121.457193333333","25.0916883333333","6501400","蘆洲區"
"247003","335-TH","2017/11/21 14:09:50","新北市蘆洲區長安街239號","121.459216666667","25.0829733333333","6501400","蘆洲區"
"247015","057-VK","2017/11/21 14:09:55","新北市蘆洲區光華路46巷40號","121.467788333333","25.08443","6501400","蘆洲區"
"247005","056-VK","2017/11/21 14:09:49","新北市蘆洲區永安南路二段16巷17弄3號","121.467643333333","25.0778566666667","6501400","蘆洲區"
"247007","053-VK","2017/11/21 14:09:53","新北市蘆洲區中山二路309號","121.46915","25.07696","6501400","蘆洲區"
"247013","007-UY","2017/11/21 14:09:49","新北市蘆洲區保和街50-1號","121.469571666667","25.0862533333333","6501400","蘆洲區"
"247023","002-UY","2017/11/21 14:09:44","新北市蘆洲區光榮路122號","121.464566666667","25.0894316666667","6501400","蘆洲區"
"247017","001-UY","2017/11/21 14:09:49","新北市蘆洲區民族路201巷11號","121.477388333333","25.0888016666667","6501400","蘆洲區"
"228004","212-TW","2017/11/21 14:09:42","新北市貢寮區雙玉里下雙溪街8號","121.916281666667","25.0138733333333","6502600","貢寮區"
"228005","828-UM","2017/11/21 14:09:39","新北市貢寮區美豐里雞母嶺街52-1號","121.888585","25.0686116666667","6502600","貢寮區"
"208004","AAC-292","2017/11/21 14:09:55","新北市金山區重和里林口19號","121.597123333333","25.2104283333333","6502700","金山區"
"207002","749-BX","2017/11/21 14:09:42","新北市萬里區溪底里瑞泉路21號","121.604675","25.148875","6502800","萬里區"
"207001","662-BX","2017/11/21 14:09:56","新北市萬里區磺潭里清水18號","121.637813333333","25.1976916666667","6502800","萬里區"
"252005","AAC-283","2017/11/21 14:09:34","新北市三芝區橫山里大坑22號","121.523363333333","25.2558933333333","6502100","三芝區"
"237001","159-UY","2017/11/21 13:40:12","新北市三峽區中山路459巷163-1號","121.34933","24.9334583333333","6500900","三峽區"
"236065","105-UM","2017/11/21 14:09:56","新北市土城區金城路一段141號","121.445468333333","24.974215","6501300","土城區"
"236041","107-UM","2017/11/21 14:09:41","新北市土城區裕生路64號","121.447593333333","24.9861216666667","6501300","土城區"
"236075","166-UM","2017/11/21 14:00:13","新北市土城區永寧路32巷10弄3號","121.42884","24.9609416666667","6501300","土城區"
"236029","253-BX","2017/11/21 14:09:39","新北市土城區城林路6巷80號","121.438395","24.9798216666667","6501300","土城區"
"236025","269-VK","2017/11/21 14:09:31","新北市土城區承天路67號","121.43959","24.963445","6501300","土城區"
"236013","270-VK","2017/11/21 14:09:54","新北市土城區裕民路174號","121.452611666667","24.985435","6501300","土城區"
"236034","271-VK","2017/11/21 14:09:43","新北市土城區明德路一段385-1號","121.452626666667","24.9797083333333","6501300","土城區"
"236017","401-BY","2017/11/21 14:09:54","新北市土城區城林路6巷80號","121.438251666667","24.9797133333333","6501300","土城區"
"236006","498-BY","2017/11/21 14:09:43","新北市土城區中華路一段36號","121.446268333333","24.989195","6501300","土城區"
"236057","912-UM","2017/11/21 14:09:47","新北市土城區中央路四段38號","121.42074","24.9608933333333","6501300","土城區"
"236045","913-UM","2017/11/21 14:09:38","新北市土城區明德路一段365-1號","121.453563333333","24.97905","6501300","土城區"
"236061","915-UM","2017/11/21 14:09:47","新北市土城區金城路二段217號","121.454818333333","24.9817883333333","6501300","土城區"
"236047","970-R7","2017/11/21 14:09:50","新北市土城區清水路123號","121.457876666667","24.9816216666667","6501300","土城區"
"236054","AAC-216","2017/11/21 14:09:53","新北市土城區城林路6巷80號","121.43843","24.9798066666667","6501300","土城區"
"221012","276-VK","2017/11/21 14:09:54","新北市汐止區汐萬路二段228巷31弄12號","121.648278333333","25.0912233333333","6501100","汐止區"
"220027","145-BY","2017/11/21 14:09:52","新北市板橋區民權路202巷10弄9號","121.460938333333","25.0151816666667","6500100","板橋區"
"220028","200-UY","2017/11/21 14:09:56","新北市板橋區大觀路二段5-1號","121.447195","25.0039","6500100","板橋區"
"220030","610-BX","2017/11/21 14:09:48","新北市板橋區大觀路三段273號","121.428623333333","24.9925133333333","6500100","板橋區"
"220050","245-BX","2017/11/21 14:09:43","新北市板橋區民生路二段161巷1號","121.469863333333","25.0199766666667","6500100","板橋區"
"220004","276-BY","2017/11/21 14:09:53","新北市板橋區信義路150巷10號","121.458351666667","24.991745","6500100","板橋區"
"220020","277-BY","2017/11/21 14:09:53","新北市板橋區金門街302號","121.429028333333","24.9854983333333","6500100","板橋區"
"220043","283-UM","2017/11/21 14:09:50","新北市板橋區光武街108-5號","121.465765","25.029105","6500100","板橋區"
"220019","283-VK","2017/11/21 14:09:44","新北市板橋區重慶路325號","121.464046666667","24.998465","6500100","板橋區"
"220001","285-VK","2017/11/21 14:09:40","新北市板橋區懷仁街24巷24號","121.475558333333","25.019215","6500100","板橋區"
"220031","286-VK","2017/11/21 14:09:57","新北市板橋區大觀路二段174巷176弄12號","121.442625","25.0032516666667","6500100","板橋區"
"220029","287-VK","2017/11/21 14:09:38","新北市板橋區南雅西路二段151號","121.452126666667","25.0119816666667","6500100","板橋區"
"220039","288-VK","2017/11/21 14:09:44","新北市板橋區裕民街54號","121.461461666667","25.0286683333333","6500100","板橋區"
"220009","293-UM","2017/11/21 14:09:52","新北市板橋區三民路二段21巷45號","121.480538333333","25.0182416666667","6500100","板橋區"
"220032","296-UM","2017/11/21 14:09:46","新北市板橋區篤行路一段29號","121.43203","24.994655","6500100","板橋區"
"220023","297-UM","2017/11/21 14:09:51","新北市板橋區府中路122號","121.455355","25.0095166666667","6500100","板橋區"
"220045","299-UM","2017/11/21 14:09:48","新北市板橋區大同街7號","121.476928333333","25.0269433333333","6500100","板橋區"
"220010","305-R5","2017/11/21 14:09:55","新北市板橋區三民路二段居仁巷2弄1號","121.479413333333","25.0129033333333","6500100","板橋區"
"220041","307-R5","2017/11/21 14:09:53","新北市板橋區文化路二段225巷60弄40號","121.469161666667","25.02935","6500100","板橋區"
"220047","317-R6","2017/11/21 14:09:49","新北市板橋區四維路102號","121.465723333333","25.0244466666667","6500100","板橋區"
"220038","487-VK","2017/11/21 14:09:53","新北市板橋區文化路二段389號","121.473441666667","25.0313083333333","6500100","板橋區"
"220037","491-VK","2017/11/21 14:09:46","新北市板橋區文化路二段182巷7弄7號","121.472155","25.027315","6500100","板橋區"
"220104","560-BX","2017/11/21 14:09:54","新北市板橋區中正路360巷36號","121.455691666667","25.02311","6500100","板橋區"
"220052","561-BX","2017/11/21 14:09:54","新北市板橋區文化路一段188巷9弄7號","121.467806666667","25.0188933333333","6500100","板橋區"
"220011","609-BX","2017/11/21 14:09:40","新北市板橋區三民路二段203-4號","121.479156666667","25.0135983333333","6500100","板橋區"
"220040","637-BX","2017/11/21 14:09:46","新北市板橋區萬板路558-1號","121.480881666667","25.0265066666667","6500100","板橋區"
"220005","686-BX","2017/11/21 14:09:38","新北市板橋區重慶路37號","121.461681666667","25.0076133333333","6500100","板橋區"
"220025","687-BX","2017/11/21 14:09:57","新北市板橋區龍興街52號","121.443285","25.0010616666667","6500100","板橋區"
"220042","689-BX","2017/11/21 14:09:47","新北市板橋區民生路三段196號","121.46488","25.0291566666667","6500100","板橋區"
"220002","741-BX","2017/11/21 14:09:50","新北市板橋區重慶路93巷7號","121.462416666667","25.0058133333333","6500100","板橋區"
"220018","806-UM","2017/11/21 14:09:48","新北市板橋區四川路一段336號","121.456981666667","24.99711","6500100","板橋區"
"220003","827-TW","2017/11/21 14:09:36","新北市板橋區中山路一段140號","121.4635","25.0110466666667","6500100","板橋區"
"220014","829-TW","2017/11/21 14:09:38","新北市板橋區板新路11號","121.47517","25.0125633333333","6500100","板橋區"
"220022","895-R6","2017/11/21 14:09:53","新北市板橋區倉後街3號","121.455431666667","25.00953","6500100","板橋區"
"220021","985-R7","2017/11/21 14:09:58","新北市板橋區民權路216-1號","121.458803333333","25.0141683333333","6500100","板橋區"
"220046","AAC-210","2017/11/21 14:09:47","新北市板橋區新海路135巷2號","121.459908333333","25.0229983333333","6500100","板橋區"
