"lineid","car","time","location","longitude","latitude","cityid","cityname"
"234012","149-BY","2017/11/21 14:29:45","新北市五股區中興路三段2巷10號","121.448295","25.082745","6500400","永和區"
"234005","207-UY","2017/11/21 14:29:41","新北市永和區中正路295-1號","121.51752","25.00158","6500400","永和區"
"234036","336-UY","2017/11/21 14:29:37","新北市永和區民樂街31巷10弄11號","121.528885","25.0010066666667","6500400","永和區"
"234062","337-UY","2017/11/21 14:29:37","新北市永和區中正路417號","121.51719","25.004755","6500400","永和區"
"234084","338-UY","2017/11/21 14:29:39","新北市永和區光復街27號","121.516561666667","25.0175033333333","6500400","永和區"
"234068","552-UM","2017/11/21 14:29:42","新北市永和區永亨路9號","121.519431666667","25.0057816666667","6500400","永和區"
"234052","553-UM","2017/11/21 14:29:53","新北市永和區光復街60巷25號","121.517763333333","25.01751","6500400","永和區"
"234028","746-BX","2017/11/21 14:29:43","新北市永和區得和路353號","121.524173333333","24.9994283333333","6500400","永和區"
"234060","AAD-866","2017/11/21 14:29:47","新北市永和區秀朗路一段175號","121.517106666667","25.0036916666667","6500400","永和區"
"234040","862-TW","2017/11/21 14:29:53","新北市永和區安樂路332巷1號","121.514563333333","25.005925","6500400","永和區"
"234048","863-TW","2017/11/21 14:29:50","新北市永和區新生路142號","121.506621666667","25.01429","6500400","永和區"
"234025","9381-KE","2017/11/21 14:29:50","新北市中和區中和路390號","121.511201666667","25.0025566666667","6500400","永和區"
"248017","225-UY","2017/11/21 14:28:36","新北市五股區外寮路6-1號","121.425343333333","25.07552","6501500","五股區"
"234072","AAC-211","2017/11/21 14:29:44","新北市永和區環河東路一段124號","121.520668333333","25.0153683333333","6500400","永和區"
"234001","AAC-295","2017/11/21 14:29:49","新北市永和區大新街52巷1弄11號","121.51637","25.00814","6500400","永和區"
"244002","248-BX","2017/11/21 14:20:07","新北市林口區竹林路265號","121.389616666667","25.0807566666667","6501700","林口區"
"231002","002-UM","2017/11/21 14:29:44","新北市新店區中正路347號","121.53537","24.9758616666667","6500600","新店區"
"231028","046-UY","2017/11/21 14:29:45","新北市新店區安康路二段147號","121.51127","24.9598866666667","6500600","新店區"
"231030","047-UY","2017/11/21 14:29:46","新北市新店區安民街65巷3號","121.516118333333","24.966465","6500600","新店區"
"231029","106-UY","2017/11/21 14:29:40","新北市新店區安康路二段389號","121.494518333333","24.9542966666667","6500600","新店區"
"231012","108-UY","2017/11/21 14:29:34","新北市新店區寶興路64巷1號","121.55071","24.9717116666667","6500600","新店區"
"231020","187-VK","2017/11/21 14:29:52","新北市新店區桂山路79號","121.567043333333","24.8998016666667","6500600","新店區"
"231015","KEA-2219","2017/11/21 14:29:49","新北市新店區北宜路三段66號","121.575855","24.950845","6500600","新店區"
"231023","AAD-862","2017/11/21 14:29:47","新北市新店區光明街124號","121.53914","24.9610016666667","6500600","新店區"
"231027","3712-VJ","2017/11/21 14:29:45","新北市新店區寶橋路85巷23號","121.545188333333","24.9761316666667","6500600","新店區"
"231025","3713-VJ","2017/11/21 14:29:54","新北市新店區民族路161號","121.537793333333","24.976735","6500600","新店區"
"231038","4715-K9","2017/11/21 14:29:52","新北市新店區溪洲路121號","121.530825","24.9629366666667","6500600","新店區"
"231036","512-UM","2017/11/21 14:29:48","新北市新店區安祥路106巷128號","121.473446666667","24.9584683333333","6500600","新店區"
"231035","515-UM","2017/11/21 14:29:46","新北市新店區安民街3巷1號","121.514535","24.9642666666667","6500600","新店區"
"231003","616-UM","2017/11/21 14:29:55","新北市新店區中興路一段267-4號","121.545128333333","24.9679033333333","6500600","新店區"
"231006","617-UM","2017/11/21 14:29:40","新北市新店區北宜路二段332號","121.562378333333","24.9538516666667","6500600","新店區"
"231001","619-UM","2017/11/21 14:29:47","新北市新店區中正路75巷71號","121.543098333333","24.9688866666667","6500600","新店區"
"231034","645-TV","2017/11/21 14:29:53","新北市新店區黎明路11號","121.502075","24.9499716666667","6500600","新店區"
"231013","719-UM","2017/11/21 14:29:47","新北市新店區民權路100-1號","121.536108333333","24.9833033333333","6500600","新店區"
"231018","719-UY","2017/11/21 14:29:45","新北市新店區中央三街62號","121.526906666667","24.974945","6500600","新店區"
"231032","720-UM","2017/11/21 14:29:51","新北市新店區安業街215巷9號","121.523188333333","24.97297","6500600","新店區"
"231005","897-TW","2017/11/21 14:29:58","新北市新店區北新路三段148號","121.541466666667","24.9823816666667","6500600","新店區"
"231004","899-TW","2017/11/21 14:29:38","新北市新店區中正路263-3號","121.538333333333","24.9736983333333","6500600","新店區"
"231037","AKT-0513","2017/11/21 14:29:44","新北市新店區柴埕路21號","121.514181666667","24.96585","6500600","新店區"
"235030","003-UY","2017/11/21 14:29:45","新北市中和區景新街70號","121.504268333333","24.998895","6500300","中和區"
"235027","006-UY","2017/11/21 14:29:51","新北市中和區板南路335號","121.494188333333","24.9976816666667","6500300","中和區"
"235020","096-UM","2017/11/21 14:29:56","新北市中和區員山路514巷2號","121.47944","25.0096133333333","6500300","中和區"
"235003","097-UM","2017/11/21 14:29:42","新北市中和區秀峰街103巷7弄4號","121.519436666667","24.9889766666667","6500300","中和區"
"235029","098-UM","2017/11/21 14:29:52","新北市中和區莊敬路23號","121.500083333333","25.00457","6500300","中和區"
"235004","150-BY","2017/11/21 14:29:56","新北市中和區宜安路23巷27號","121.512116666667","24.99491","6500300","中和區"
"235022","151-BY","2017/11/21 14:29:55","新北市中和區連城路521號","121.482031666667","24.9952133333333","6500300","中和區"
"235019","183-VK","2017/11/21 14:29:45","新北市中和區德光路27巷1弄1號","121.470826666667","25.0039683333333","6500300","中和區"
"235002","185-VK","2017/11/21 14:29:47","新北市中和區立人街41號","121.520771666667","24.994125","6500300","中和區"
"235013","186-VK","2017/11/21 14:29:45","新北市中和區景新街295巷2-2號","121.510726666667","24.9933016666667","6500300","中和區"
"235031","255-BX","2017/11/21 14:29:52","新北市中和區連城路282號","121.484338333333","24.9963683333333","6500300","中和區"
"235008","293-VK","2017/11/21 14:29:47","新北市中和區捷運路185號","121.505411666667","24.9913966666667","6500300","中和區"
"235036","301-VK","2017/11/21 14:29:51","新北市中和區中山路二段3巷22弄31號","121.505933333333","25.004165","6500300","中和區"
"235007","352-BY","2017/11/21 14:29:55","新北市中和區景平路388號","121.510555","24.9929216666667","6500300","中和區"
"235032","377-QA","2017/11/21 14:29:57","新北市中和區廟美街8號","121.50099","25.0015666666667","6500300","中和區"
"235025","378-QA","2017/11/21 14:29:43","新北市中和區民安街2巷23號","121.480178333333","25.00146","6500300","中和區"
"235035","269-TV","2017/11/21 14:29:37","新北市中和區連城路469巷70弄2號","121.483428333333","24.99402","6500300","中和區"
"235014","4979-A6","2017/11/21 14:29:41","新北市中和區中正路450號","121.49083","24.9941366666667","6500300","中和區"
"235006","551-UM","2017/11/21 14:29:45","新北市中和區中和路378巷7號","121.5113","25.00181","6500300","中和區"
"235034","558-UM","2017/11/21 14:29:45","新北市中和區連城路71號","121.49732","25.0010783333333","6500300","中和區"
"235009","565-BX","2017/11/21 14:29:50","新北市中和區景新街425號","121.513073333333","24.98922","6500300","中和區"
"235018","640-BX","2017/11/21 14:29:51","新北市中和區國光街112巷20弄3號","121.470596666667","25.0019233333333","6500300","中和區"
"235024","647-TV","2017/11/21 14:29:56","新北市中和區員山路266巷31號","121.48256","25.00187","6500300","中和區"
"235011","732-UM","2017/11/21 14:29:38","新北市中和區景平路259巷11號","121.507883333333","24.9925766666667","6500300","中和區"
"235010","733-UM","2017/11/21 14:29:45","新北市中和區忠孝街37巷52號","121.511111666667","24.9849433333333","6500300","中和區"
"235026","800-TS","2017/11/21 14:29:40","新北市中和區中正路868號","121.48497","25.0058266666667","6500300","中和區"
"235021","801-TS","2017/11/21 14:29:48","新北市中和區台新街43號","121.479758333333","25.004895","6500300","中和區"
"235005","802-TS","2017/11/21 14:29:49","新北市中和區景安路63號","121.507113333333","24.9978366666667","6500300","中和區"
"235016","805-TS","2017/11/21 14:29:48","新北市中和區華新街143巷68號","121.506353333333","24.9792983333333","6500300","中和區"
"235012","896-TW","2017/11/21 14:29:51","新北市中和區忠孝街39-4號","121.511781666667","24.9839216666667","6500300","中和區"
"235017","900-TW","2017/11/21 14:29:48","新北市中和區民德路197號","121.468963333333","24.9982066666667","6500300","中和區"
"235028","911-UM","2017/11/21 14:29:42","新北市中和區南華路15號","121.502581666667","24.9956366666667","6500300","中和區"
"235001","157-BY","2017/11/21 14:29:36","新北市中和區中興街134號","121.499858333333","24.9921416666667","6500300","中和區"
"235001","AAC-213","2017/11/21 14:29:39","新北市中和區秀朗路三段10巷14弄26號","121.52485","24.9966483333333","6500300","中和區"
"235023","AAC-215","2017/11/21 14:29:47","新北市中和區圓通路315-5號","121.49296","24.9907616666667","6500300","中和區"
"220016","013-TV","2017/11/21 14:29:52","新北市板橋區萬安街2號","121.484796666667","25.0223816666667","6500100","板橋區"
"220034","073-UY","2017/11/21 14:29:50","新北市板橋區中正路216巷150弄16號","121.46087","25.0188566666667","6500100","板橋區"
"220105","075-UY","2017/11/21 14:29:39","新北市板橋區江寧路三段117號","121.473183333333","25.0329916666667","6500100","板橋區"
"220017","AAD-861","2017/11/21 14:29:51","新北市板橋區貴興路49-1號","121.45733","25.0031616666667","6500100","板橋區"
"220051","120-SR","2017/11/21 14:29:39","新北市板橋區文化路二段410巷1弄1號","121.474295","25.0311733333333","6500100","板橋區"
"247021","893-R6","2017/11/21 14:29:45","新北市蘆洲區中正路490號","121.462041666667","25.0960866666667","6501400","蘆洲區"
"247011","546-UM","2017/11/21 14:29:56","新北市蘆洲區復興路285號","121.481548333333","25.090195","6501400","蘆洲區"
"247019","500-BY","2017/11/21 14:29:39","新北市蘆洲區水湳街115-1號","121.469588333333","25.09135","6501400","蘆洲區"
"247009","339-TH","2017/11/21 14:29:49","新北市蘆洲區信義路158號","121.479276666667","25.0835483333333","6501400","蘆洲區"
"247001","337-TH","2017/11/21 14:29:56","新北市蘆洲區永樂街38巷33弄17號","121.457435","25.0895483333333","6501400","蘆洲區"
"247003","335-TH","2017/11/21 14:29:50","新北市蘆洲區永康街1巷12號","121.45966","25.08545","6501400","蘆洲區"
"247015","057-VK","2017/11/21 14:29:55","新北市蘆洲區中正路243巷19號","121.466605","25.085225","6501400","蘆洲區"
"247005","056-VK","2017/11/21 14:29:55","新北市蘆洲區長安街46巷10號","121.46376","25.079945","6501400","蘆洲區"
"247007","053-VK","2017/11/21 14:29:53","新北市蘆洲區信義路91-2號","121.477373333333","25.0796483333333","6501400","蘆洲區"
"247013","007-UY","2017/11/21 14:29:48","新北市蘆洲區中山二路228號","121.469678333333","25.0796316666667","6501400","蘆洲區"
"247023","002-UY","2017/11/21 14:29:44","新北市蘆洲區中正路261號","121.467325","25.087345","6501400","蘆洲區"
"247017","001-UY","2017/11/21 14:29:49","新北市蘆洲區民族路314巷3弄5號","121.477143333333","25.090215","6501400","蘆洲區"
"228004","212-TW","2017/11/21 14:29:42","新北市貢寮區雙玉里田寮洋街33號","121.93221","25.0132216666667","6502600","貢寮區"
"228005","828-UM","2017/11/21 14:29:39","新北市貢寮區美豐里巫里岸9-1號","121.901958333333","25.0701666666667","6502600","貢寮區"
"208004","AAC-292","2017/11/21 14:29:55","新北市金山區重和里六股林口76號","121.598125","25.2191916666667","6502700","金山區"
"207002","749-BX","2017/11/21 14:28:10","新北市萬里區溪底里福德坑路2-2號","121.624741666667","25.155835","6502800","萬里區"
"207001","662-BX","2017/11/21 14:29:36","新北市萬里區磺潭里清水15號","121.638215","25.1983083333333","6502800","萬里區"
"252005","AAC-283","2017/11/21 14:29:54","新北市三芝區埔坪里埔頭坑114號","121.515885","25.245905","6502100","三芝區"
"237001","159-UY","2017/11/21 13:40:12","新北市三峽區中山路459巷163-1號","121.34933","24.9334583333333","6500900","三峽區"
"236065","105-UM","2017/11/21 14:29:57","新北市土城區永豐路205-5號","121.474603333333","24.9778233333333","6501300","土城區"
"236041","107-UM","2017/11/21 14:29:41","新北市土城區學成路91巷1號","121.450621666667","24.98791","6501300","土城區"
"236075","166-UM","2017/11/21 14:00:13","新北市土城區永寧路32巷10弄3號","121.42884","24.9609416666667","6501300","土城區"
"236029","253-BX","2017/11/21 14:29:39","新北市土城區水源街15號","121.441181666667","24.9751333333333","6501300","土城區"
"236025","269-VK","2017/11/21 14:29:58","新北市土城區承天路69號","121.439816666667","24.9632866666667","6501300","土城區"
"236013","270-VK","2017/11/21 14:29:54","新北市土城區青雲路39巷7號","121.460363333333","24.987535","6501300","土城區"
"236034","271-VK","2017/11/21 14:29:43","新北市土城區青雲路451巷2弄2號","121.459066666667","24.9746116666667","6501300","土城區"
"236017","401-BY","2017/11/21 14:29:54","新北市土城區永豐路202巷7號","121.466281666667","24.9833066666667","6501300","土城區"
"236006","498-BY","2017/11/21 14:29:43","新北市土城區城林路6巷80號","121.438668333333","24.9797683333333","6501300","土城區"
"236057","912-UM","2017/11/21 14:29:47","新北市土城區中央路四段466號","121.410125","24.9505933333333","6501300","土城區"
"236045","913-UM","2017/11/21 14:29:38","新北市土城區青雲路369號","121.458816666667","24.9758833333333","6501300","土城區"
"236061","915-UM","2017/11/21 14:29:44","新北市土城區延壽路77巷6-3號","121.4685","24.9926316666667","6501300","土城區"
"236047","970-R7","2017/11/21 14:29:50","新北市土城區裕民路174號","121.452455","24.9852833333333","6501300","土城區"
"236054","AAC-216","2017/11/21 14:29:53","新北市土城區中華路二段62號","121.438995","24.9767266666667","6501300","土城區"
"221012","276-VK","2017/11/21 14:29:44","新北市汐止區康寧街901號","121.651191666667","25.075115","6501100","汐止區"
"220027","145-BY","2017/11/21 14:29:50","新北市板橋區民權路202巷13弄34號","121.458611666667","25.0163633333333","6500100","板橋區"
"220028","200-UY","2017/11/21 14:29:56","新北市板橋區大觀路二段37巷276號","121.449818333333","25.00115","6500100","板橋區"
"220030","610-BX","2017/11/21 14:29:48","新北市板橋區金門街256號","121.430191666667","24.9868033333333","6500100","板橋區"
"220050","245-BX","2017/11/21 14:29:51","新北市板橋區莊敬路220巷60號","121.471543333333","25.020715","6500100","板橋區"
"220004","276-BY","2017/11/21 14:29:53","新北市板橋區信義路1巷26弄33號","121.458771666667","24.99666","6500100","板橋區"
"220020","277-BY","2017/11/21 14:29:53","新北市板橋區金門街253巷13號","121.432776666667","24.98849","6500100","板橋區"
"220043","283-UM","2017/11/21 14:29:48","新北市板橋區吳鳳路50巷5號","121.467845","25.0305633333333","6500100","板橋區"
"220019","283-VK","2017/11/21 14:29:44","新北市板橋區四川路一段325巷11號","121.459458333333","25.00027","6500100","板橋區"
"220001","285-VK","2017/11/21 14:29:40","新北市板橋區懷仁街35巷7號","121.476951666667","25.019755","6500100","板橋區"
"220031","286-VK","2017/11/21 14:29:37","新北市板橋區龍興街71巷27號","121.442611666667","25.0023233333333","6500100","板橋區"
"220029","287-VK","2017/11/21 14:29:51","新北市板橋區大觀路一段71巷1號","121.447495","25.0046383333333","6500100","板橋區"
"220039","288-VK","2017/11/21 14:29:44","新北市板橋區長江路一段125號","121.46021","25.0299916666667","6500100","板橋區"
"220009","293-UM","2017/11/21 14:29:52","新北市板橋區中山路二段157號","121.475626666667","25.0166533333333","6500100","板橋區"
"220032","296-UM","2017/11/21 14:29:46","新北市板橋區篤行路三段玉平巷76弄2號","121.427985","24.98559","6500100","板橋區"
"220023","297-UM","2017/11/21 14:29:53","新北市板橋區中正路253巷7號","121.455266666667","25.0181533333333","6500100","板橋區"
"220045","299-UM","2017/11/21 14:29:46","新北市板橋區民生路二段226巷46號","121.471653333333","25.02233","6500100","板橋區"
"220010","305-R5","2017/11/21 14:29:35","新北市板橋區三民路二段123巷1號","121.479521666667","25.0156633333333","6500100","板橋區"
"220041","307-R5","2017/11/21 14:29:53","新北市板橋區光武街2巷29號","121.468711666667","25.0256633333333","6500100","板橋區"
"220047","317-R6","2017/11/21 14:29:49","新北市板橋區四維路318號","121.462383333333","25.0300166666667","6500100","板橋區"
"220038","487-VK","2017/11/21 14:29:53","新北市板橋區文化路一段33號","121.460268333333","25.012985","6500100","板橋區"
"220037","491-VK","2017/11/21 14:29:49","新北市板橋區雙十路二段88號","121.474811666667","25.0282516666667","6500100","板橋區"
"220104","560-BX","2017/11/21 14:29:54","新北市板橋區新生街86號","121.45821","25.0214766666667","6500100","板橋區"
"220052","561-BX","2017/11/21 14:29:42","新北市板橋區文化路一段210號","121.466485","25.0201666666667","6500100","板橋區"
"220011","609-BX","2017/11/21 14:29:55","新北市板橋區三民路一段43-2號","121.479481666667","25.0226566666667","6500100","板橋區"
"220040","637-BX","2017/11/21 14:29:46","新北市板橋區文聖街135巷27號","121.47901","25.0290266666667","6500100","板橋區"
"220005","686-BX","2017/11/21 14:29:39","新北市板橋區和平路155巷3號","121.463246666667","24.9958983333333","6500100","板橋區"
"220025","687-BX","2017/11/21 14:29:57","新北市板橋區僑中二街52號","121.446673333333","25.0102483333333","6500100","板橋區"
"220042","689-BX","2017/11/21 14:29:47","新北市板橋區雨農路32號","121.461273333333","25.02435","6500100","板橋區"
"220002","741-BX","2017/11/21 14:29:50","新北市板橋區光明街25號","121.460848333333","25.00265","6500100","板橋區"
"220018","806-UM","2017/11/21 14:29:48","新北市板橋區四川路一段114號","121.459828333333","25.00445","6500100","板橋區"
"220003","827-TW","2017/11/21 14:29:56","新北市板橋區重慶路278巷13號","121.462461666667","24.9996066666667","6500100","板橋區"
"220014","829-TW","2017/11/21 14:29:56","新北市板橋區長安街261巷1號","121.473358333333","25.0106333333333","6500100","板橋區"
"220022","895-R6","2017/11/21 14:29:52","新北市板橋區東門街1-2號","121.458038333333","25.0090483333333","6500100","板橋區"
"220021","985-R7","2017/11/21 14:29:41","新北市板橋區新生街13-1號","121.455481666667","25.0212166666667","6500100","板橋區"
"220046","AAC-210","2017/11/21 14:29:48","新北市板橋區新海路65號","121.461896666667","25.021625","6500100","板橋區"
