"lineid","car","time","location","longitude","latitude","cityid","cityname"
"234084","338-UY","2017/11/21 15:09:39","新北市八里區下罟子5-11號","121.386273333333","25.145665","6500400","永和區"
"234068","552-UM","2017/11/21 14:53:36","新北市永和區福和路1號","121.526253333333","25.0095083333333","6500400","永和區"
"248017","225-UY","2017/11/21 15:09:50","新北市五股區登林路103-1號","121.408986666667","25.0784466666667","6501500","五股區"
"244002","248-BX","2017/11/21 15:09:57","新北市林口區竹林路266號","121.389651666667","25.081005","6501700","林口區"
"231002","002-UM","2017/11/21 15:09:44","新北市新店區中正路698號","121.53404","24.9907133333333","6500600","新店區"
"231028","046-UY","2017/11/21 15:09:45","新北市新店區僑信路132巷29號","121.499838333333","24.9452483333333","6500600","新店區"
"231030","047-UY","2017/11/21 15:09:46","新北市新店區安民街341-1號","121.516846666667","24.97486","6500600","新店區"
"231029","106-UY","2017/11/21 15:09:40","新北市新店區安康路三段738號","121.473871666667","24.9420166666667","6500600","新店區"
"231012","108-UY","2017/11/21 15:09:54","新北市新店區寶元路一段61號","121.542106666667","24.985915","6500600","新店區"
"231020","187-VK","2017/11/21 15:09:52","新北市新店區永福路54-2號","121.55929","24.9281983333333","6500600","新店區"
"231015","KEA-2219","2017/11/21 15:05:29","新北市新店區明山路5號","121.563123333333","24.95507","6500600","新店區"
"231026","256-BX","2017/11/21 15:09:53","新北市新店區建國路85號","121.540488333333","24.9765533333333","6500600","新店區"
"231023","AAD-862","2017/11/21 15:09:47","新北市新店區檳榔路103號","121.544811666667","24.96177","6500600","新店區"
"231025","3713-VJ","2017/11/21 15:09:54","新北市新店區二十張路46巷37弄20號","121.536078333333","24.9816716666667","6500600","新店區"
"231024","4716-K9","2017/11/21 15:09:41","新北市新店區中華路42巷10號","121.540405","24.9684183333333","6500600","新店區"
"231036","512-UM","2017/11/21 15:09:48","新北市新店區安祥路104巷11弄16號","121.481008333333","24.9636833333333","6500600","新店區"
"231035","515-UM","2017/11/21 15:09:46","新北市新店區安和路三段167號","121.51613","24.98596","6500600","新店區"
"231003","616-UM","2017/11/21 15:09:35","新北市新店區寶橋路178號","121.549366666667","24.97752","6500600","新店區"
"231006","617-UM","2017/11/21 15:09:40","新北市新店區新坡一街18巷5弄23號","121.550728333333","24.9618733333333","6500600","新店區"
"231001","619-UM","2017/11/21 15:09:47","新北市新店區中正路276號","121.538881666667","24.9736766666667","6500600","新店區"
"231034","645-TV","2017/11/21 15:09:49","新北市新店區玫瑰路4-1號","121.493561666667","24.9514216666667","6500600","新店區"
"231039","718-UY","2017/11/21 15:09:55","新北市新店區北新路三段106號","121.542046666667","24.9813866666667","6500600","新店區"
"231018","719-UY","2017/11/21 15:09:45","新北市新店區中央六街93號","121.52622","24.9769583333333","6500600","新店區"
"231032","720-UM","2017/11/21 15:09:51","新北市新店區安泰路170-3號","121.488958333333","24.9363016666667","6500600","新店區"
"231005","897-TW","2017/11/21 15:09:40","新北市新店區北新路三段132號","121.541583333333","24.98195","6500600","新店區"
"231004","899-TW","2017/11/21 15:09:58","新北市新店區中正路244號","121.539766666667","24.97336","6500600","新店區"
"231037","AKT-0513","2017/11/21 15:09:44","新北市新店區安民街341-1號","121.516616666667","24.9750733333333","6500600","新店區"
"241013","270-UM","2017/11/21 15:09:44","新北市三重區重新路四段121號","121.484878333333","25.05258","6500200","三重區"
"235030","003-UY","2017/11/21 15:09:45","新北市中和區保平路370號","121.506383333333","25.0035633333333","6500300","中和區"
"235003","097-UM","2017/11/21 15:09:42","新北市中和區安樂路217巷56號","121.513033333333","24.99767","6500300","中和區"
"235004","150-BY","2017/11/21 15:09:56","新北市中和區保健路48巷1號","121.51016","24.9969016666667","6500300","中和區"
"235036","301-VK","2017/11/21 15:09:50","新北市中和區中正路571巷2弄11號","121.486108333333","24.9938166666667","6500300","中和區"
"235007","352-BY","2017/11/21 15:09:55","新北市中和區興南路二段159巷1號","121.505265","24.983315","6500300","中和區"
"235032","377-QA","2017/11/21 15:09:48","新北市中和區連城路2號","121.499295","25.0023416666667","6500300","中和區"
"235035","269-TV","2017/11/21 15:09:37","新北市中和區立德街327號","121.481701666667","25.0105766666667","6500300","中和區"
"235014","4979-A6","2017/11/21 15:09:41","新北市中和區景新街323-1號","121.511326666667","24.99218","6500300","中和區"
"235033","4980-A6","2017/11/21 15:09:48","新北市中和區圓通路198巷2號","121.496256666667","24.9944433333333","6500300","中和區"
"235034","558-UM","2017/11/21 15:09:45","新北市中和區圓通路143號","121.49867","24.9956583333333","6500300","中和區"
"235026","800-TS","2017/11/21 15:09:40","新北市新店區薏仁坑路自強巷1號","121.49729","24.9577216666667","6500300","中和區"
"235012","896-TW","2017/11/21 15:09:51","新北市中和區興南路二段22-3號","121.507496666667","24.9858533333333","6500300","中和區"
"235023","AAC-215","2017/11/21 15:09:47","新北市中和區圓通路335巷37弄1號","121.493913333333","24.989105","6500300","中和區"
"220016","013-TV","2017/11/21 15:09:48","新北市板橋區光復街230號","121.484765","25.021335","6500100","板橋區"
"220013","072-UY","2017/11/21 15:06:21","新北市板橋區三民路二段257號","121.479018333333","25.0115316666667","6500100","板橋區"
"220017","AAD-861","2017/11/21 15:09:51","新北市板橋區大明街25巷4弄2號","121.457975","25.0021416666667","6500100","板橋區"
"220051","120-SR","2017/11/21 15:09:39","新北市板橋區漢生東路83巷6號","121.467221666667","25.0160883333333","6500100","板橋區"
"247004","335-TH","2017/11/21 14:58:31","新北市五股區中興路三段163號","121.449215","25.0807533333333","6501400","蘆洲區"
"228004","212-TW","2017/11/21 15:09:42","新北市貢寮區雙玉里田寮洋街17號","121.92184","25.0249983333333","6502600","貢寮區"
"227003","400-TW","2017/11/21 14:54:22","新北市雙溪區三貂里政光路3-1號","121.85097","25.063055","6502500","雙溪區"
"208004","AAC-292","2017/11/21 15:09:55","新北市金山區半嶺7-2號","121.613796666667","25.2392166666667","6502700","金山區"
"207002","749-BX","2017/11/21 15:09:42","新北市萬里區崁腳里內中福路93號","121.654348333333","25.1648033333333","6502800","萬里區"
"207001","662-BX","2017/11/21 15:09:35","新北市萬里區大鵬里萬里加投14號","121.650543333333","25.2092666666667","6502800","萬里區"
"237001","159-UY","2017/11/21 13:40:12","新北市三峽區中山路459巷163-1號","121.34933","24.9334583333333","6500900","三峽區"
"236065","105-UM","2017/11/21 15:09:55","新北市土城區學成路102號","121.449983333333","24.98908","6501300","土城區"
"236041","107-UM","2017/11/21 15:09:51","新北市土城區金城路二段245巷42號","121.455453333333","24.9832583333333","6501300","土城區"
"236075","166-UM","2017/11/21 14:00:13","新北市土城區永寧路32巷10弄3號","121.42884","24.9609416666667","6501300","土城區"
"236029","253-BX","2017/11/21 15:09:39","新北市土城區福祥街101巷11號","121.441483333333","24.9815583333333","6501300","土城區"
"236025","269-VK","2017/11/21 15:09:51","新北市土城區中央路二段112號","121.442098333333","24.9780033333333","6501300","土城區"
"236013","270-VK","2017/11/21 15:09:54","新北市土城區學府路一段23巷24號","121.457696666667","24.9873216666667","6501300","土城區"
"236034","271-VK","2017/11/21 15:09:43","新北市土城區仁愛路25號","121.462583333333","24.97843","6501300","土城區"
"236017","401-BY","2017/11/21 15:09:54","新北市土城區峰廷街18號","121.468953333333","24.9872816666667","6501300","土城區"
"236057","912-UM","2017/11/21 15:09:50","新北市土城區金城路二段246號","121.456961666667","24.9831766666667","6501300","土城區"
"236045","913-UM","2017/11/21 15:09:38","新北市土城區清水路205號","121.460055","24.9818083333333","6501300","土城區"
"236061","915-UM","2017/11/21 15:09:47","新北市土城區延平街75號","121.467638333333","24.993145","6501300","土城區"
"236054","AAC-216","2017/11/21 15:09:53","新北市土城區學府路一段276號","121.449911666667","24.9829933333333","6501300","土城區"
"221012","276-VK","2017/11/21 14:42:12","新北市汐止區汐萬路一段256巷3號","121.653396666667","25.0747183333333","6501100","汐止區"
"220030","610-BX","2017/11/21 15:09:48","新北市板橋區大觀路三段80號","121.432726666667","24.9947983333333","6500100","板橋區"
"220050","245-BX","2017/11/21 15:09:53","新北市板橋區莊敬路75巷33號","121.474131666667","25.026465","6500100","板橋區"
"220031","286-VK","2017/11/21 15:09:36","新北市板橋區僑中二街102巷28號","121.445063333333","25.0085733333333","6500100","板橋區"
"220009","293-UM","2017/11/21 15:09:52","新北市板橋區中山路一段7號","121.460045","25.008095","6500100","板橋區"
"220010","305-R5","2017/11/21 15:09:35","新北市板橋區民生路二段161巷1號","121.470026666667","25.0199583333333","6500100","板橋區"
"220041","307-R5","2017/11/21 15:09:51","新北市板橋區文化路一段127號","121.462003333333","25.0149883333333","6500100","板橋區"
"220012","486-VK","2017/11/21 15:09:55","新北市板橋區長安街331巷8號","121.474253333333","25.0122616666667","6500100","板橋區"
"220038","487-VK","2017/11/21 15:09:53","新北市板橋區四維路259巷55號","121.461316666667","25.0269816666667","6500100","板橋區"
"220037","491-VK","2017/11/21 15:09:46","新北市板橋區懷德街127巷23弄7號","121.479288333333","25.0317183333333","6500100","板橋區"
"220052","561-BX","2017/11/21 15:09:42","新北市板橋區陽明街279巷14-3號","121.461481666667","25.0259166666667","6500100","板橋區"
"220025","687-BX","2017/11/21 15:09:57","新北市板橋區板城路273號","121.450431666667","24.9987733333333","6500100","板橋區"
"220042","689-BX","2017/11/21 15:09:47","新北市板橋區長江路二段280-13號","121.470425","25.0330316666667","6500100","板橋區"
"220018","806-UM","2017/11/21 15:09:48","新北市板橋區四川路二段245巷71號","121.452791666667","24.9918933333333","6500100","板橋區"
"220003","827-TW","2017/11/21 15:09:56","新北市板橋區仁愛路23號","121.458906666667","24.9994933333333","6500100","板橋區"
"220014","829-TW","2017/11/21 15:09:36","新北市板橋區萬板路820號","121.48363","25.0275133333333","6500100","板橋區"
"220046","AAC-210","2017/11/21 15:09:47","新北市板橋區公館街31號","121.461401666667","25.01554","6500100","板橋區"
