"lineid","car","time","location","longitude","latitude","cityid","cityname"
"231007","189-VK","2017/09/05 10:38:59","新北市新店區新潭路三段1巷10-2號","121.50873","24.9174433333333","6500600","新店區"
"231009","192-VK","2017/09/05 10:35:22","新北市新店區小坑一路73巷6號","121.530511666667","24.9082733333333","6500600","新店區"
"227006","282-VK","2017/09/05 10:38:04","新北市雙溪區新基里新基東街14-5號","121.873588333333","25.0425666666667","6502500","雙溪區"
"227012","030-BX","2017/09/05 10:38:53","新北市坪林區鷺鶿岫4-1號","121.787076666667","24.956005","6502500","雙溪區"
"239006","661-UM","2017/09/05 10:31:14","新北市樹林區中山路三段210-2號","121.381393333333","24.9657383333333","6500800","鶯歌區"
