"lineid","car","time","location","longitude","latitude","cityid","cityname"
"234040","862-TW","2017/09/05 12:08:40","新北市永和區福和路1號","121.52647","25.009655","6500400","永和區"
"231069","189-VK","2017/09/05 12:06:25","新北市新店區安華路28-1號","121.519471666667","24.960985","6500600","新店區"
"231009","192-VK","2017/09/05 12:08:42","新北市新店區屈尺路161-1號","121.542415","24.9231333333333","6500600","新店區"
"235031","255-BX","2017/09/05 12:08:40","新北市中和區員山路36巷13號","121.48422","24.9915933333333","6500300","中和區"
"228004","212-TW","2017/09/05 12:08:38","新北市貢寮區貢寮里貢寮街10號","121.908085","25.0188283333333","6502600","貢寮區"
"228005","828-UM","2017/09/05 12:08:53","新北市貢寮區福隆里興隆街23號","121.943078333333","25.0164966666667","6502600","貢寮區"
"221012","276-VK","2017/09/05 12:08:46","新北市汐止區康寧街901號","121.650993333333","25.0752","6501100","汐止區"
