"lineid","car","time","location","longitude","latitude","cityid","cityname"
"234084","338-UY","2017/09/05 14:49:23","新北市板橋區民治街71巷60弄4號","121.481726666667","25.0332866666667","6500400","永和區"
"234028","746-BX","2017/09/05 14:49:15","新北市新店區安康路二段269號","121.504315","24.9577416666667","6500400","永和區"
"234025","9371-KE","2017/09/05 14:49:16","新北市永和區雙和街52巷2號","121.50903","25.0031566666667","6500400","永和區"
"248017","225-UY","2017/09/05 14:23:54","新北市五股區外寮路9-23號","121.416651666667","25.0787733333333","6501500","五股區"
"244002","657-BX","2017/09/05 14:49:20","新北市林口區竹林路266號","121.389655","25.080785","6501700","林口區"
"231002","002-UM","2017/09/05 14:49:18","新北市新店區民權路72號","121.538195","24.98298","6500600","新店區"
"231028","046-UY","2017/09/05 14:49:13","新北市新店區安德街171號","121.508588333333","24.9591116666667","6500600","新店區"
"231030","047-UY","2017/09/05 14:49:12","新北市新店區安民街380號","121.51642","24.976595","6500600","新店區"
"231029","106-UY","2017/09/05 14:49:15","新北市新店區錦秀路11巷92弄1號","121.480221666667","24.9425833333333","6500600","新店區"
"231018","107-UY","2017/09/05 14:49:21","新北市新店區中央路226號","121.529388333333","24.9729366666667","6500600","新店區"
"231012","108-UY","2017/09/05 14:49:15","新北市新店區永華街47號","121.544208333333","24.9759666666667","6500600","新店區"
"231020","187-VK","2017/09/05 14:49:32","新北市新店區永福路38-1號","121.55334","24.9293483333333","6500600","新店區"
"231069","189-VK","2017/09/05 12:06:25","新北市新店區安華路28-1號","121.519471666667","24.960985","6500600","新店區"
"231034","268-BY","2017/09/05 14:49:26","新北市新店區車子路1-1號","121.504693333333","24.9576966666667","6500600","新店區"
"231015","AAD-862","2017/09/05 14:49:22","新北市新店區北宜路三段89號","121.577493333333","24.9516383333333","6500600","新店區"
"231001","355-BY","2017/09/05 14:49:29","新北市新店區三民路125號","121.534681666667","24.9724266666667","6500600","新店區"
"231027","3712-VJ","2017/09/05 14:49:18","新北市新店區中正路328巷1號","121.53687","24.9752316666667","6500600","新店區"
"231024","3713-VJ","2017/09/05 14:49:27","新北市新店區北新路一段237號","121.540541666667","24.965855","6500600","新店區"
"231025","4716-K9","2017/09/05 14:49:20","新北市新店區民族路66號","121.539473333333","24.9783416666667","6500600","新店區"
"231036","512-UM","2017/09/05 14:49:28","新北市新店區安祥路104巷6弄24號","121.482361666667","24.962365","6500600","新店區"
"231023","513-UM","2017/09/05 14:49:30","新北市新店區檳榔路109號","121.544461666667","24.96175","6500600","新店區"
"231035","515-UM","2017/09/05 14:49:23","新北市新店區安和路二段148號","121.519748333333","24.972955","6500600","新店區"
"231003","616-UM","2017/09/05 14:49:17","新北市新店區中興路一段304號","121.546338333333","24.96973","6500600","新店區"
"231006","617-UM","2017/09/05 14:49:22","新北市新店區北宜路一段222號","121.544115","24.9532766666667","6500600","新店區"
"231013","719-UM","2017/09/05 14:49:25","新北市新店區北新路二段35號","121.542848333333","24.97249","6500600","新店區"
"231005","897-TW","2017/09/05 14:49:29","新北市新店區復興路94號","121.532366666667","24.98835","6500600","新店區"
"231004","899-TW","2017/09/05 14:49:13","新北市新店區民族路100號","121.53917","24.9781533333333","6500600","新店區"
"231037","AKT-0513","2017/09/05 14:49:13","新北市新店區安民街65巷11號","121.515576666667","24.9664683333333","6500600","新店區"
"235030","003-UY","2017/09/05 14:49:28","新北市中和區南工路40號","121.505833333333","25.0011966666667","6500300","中和區"
"235027","006-UY","2017/09/05 14:49:19","新北市中和區連城路174巷20-1號","121.492428333333","24.9984666666667","6500300","中和區"
"235020","096-UM","2017/09/05 14:49:15","新北市中和區民富街88-1號","121.476578333333","25.0083816666667","6500300","中和區"
"235003","097-UM","2017/09/05 14:49:27","新北市中和區安樂路243巷9-3號","121.51391","24.9996283333333","6500300","中和區"
"235004","150-BY","2017/09/05 14:49:21","新北市中和區安平路59號","121.509505","24.9951566666667","6500300","中和區"
"235022","151-BY","2017/09/05 14:49:30","新北市中和區員山路142巷23號","121.482491666667","24.9966233333333","6500300","中和區"
"235019","183-VK","2017/09/05 03:45:22","新北市中和區員山路36巷16-3號","121.485051666667","24.9913083333333","6500300","中和區"
"235002","185-VK","2017/09/05 14:49:31","新北市中和區大智街55巷30弄21號","121.521608333333","24.9933","6500300","中和區"
"235013","186-VK","2017/09/05 14:49:29","新北市中和區中正路62號","121.501313333333","24.9937183333333","6500300","中和區"
"235031","255-BX","2017/09/05 14:49:20","新北市中和區連城路340巷14弄17號","121.482936666667","24.9971416666667","6500300","中和區"
"235008","293-VK","2017/09/05 14:49:25","新北市中和區南山路304號","121.507913333333","24.986985","6500300","中和區"
"235036","301-VK","2017/09/05 14:49:30","新北市中和區板南路405號","121.493025","24.99973","6500300","中和區"
"235007","352-BY","2017/09/05 14:49:16","新北市中和區安樂路51巷8號","121.51169","24.9936716666667","6500300","中和區"
"235015","376-QA","2017/09/05 14:49:18","新北市中和區復興路280號","121.502346666667","24.9904466666667","6500300","中和區"
"235032","377-QA","2017/09/05 14:49:29","新北市中和區福美路299號","121.497251666667","25.0047066666667","6500300","中和區"
"235025","378-QA","2017/09/05 14:49:25","新北市中和區民樂路26號","121.482543333333","25.0011233333333","6500300","中和區"
"235014","4979-A6","2017/09/05 14:49:22","新北市中和區景平路257號","121.508605","24.99301","6500300","中和區"
"235033","4980-A6","2017/09/05 14:49:26","新北市中和區南山路8號","121.501893333333","24.9988433333333","6500300","中和區"
"235006","551-UM","2017/09/05 14:49:29","新北市中和區安平路93號","121.511036666667","24.9967066666667","6500300","中和區"
"235034","558-UM","2017/09/05 14:49:28","新北市中和區連勝街32號","121.498215","24.9978416666667","6500300","中和區"
"235009","565-BX","2017/09/05 14:49:19","新北市中和區景平路406號","121.508905","24.9930366666667","6500300","中和區"
"235018","640-BX","2017/09/05 14:49:21","新北市中和區莒光路107號","121.472488333333","25.00271","6500300","中和區"
"235024","647-TV","2017/09/05 14:49:32","新北市中和區中山路二段570號","121.482885","25.005115","6500300","中和區"
"235011","732-UM","2017/09/05 14:49:33","新北市中和區和平街82號","121.507656666667","24.9912266666667","6500300","中和區"
"235010","733-UM","2017/09/05 14:49:27","新北市中和區仁愛街45號","121.511118333333","24.9883166666667","6500300","中和區"
"235026","800-TS","2017/09/05 14:49:17","新北市中和區中山路二段490號","121.48715","25.0049416666667","6500300","中和區"
"235021","801-TS","2017/09/05 14:49:30","新北市中和區員山路152-3號","121.481475","24.9986566666667","6500300","中和區"
"235005","802-TS","2017/09/05 14:49:20","新北市中和區永貞路288號","121.513","25.00408","6500300","中和區"
"235016","805-TS","2017/09/05 14:49:14","新北市中和區興南路二段117巷29號","121.506043333333","24.9837916666667","6500300","中和區"
"235012","896-TW","2017/09/05 14:49:15","新北市中和區忠孝街102號","121.512113333333","24.984655","6500300","中和區"
"235017","900-TW","2017/09/05 14:49:24","新北市中和區國光街213號","121.466398333333","25.00183","6500300","中和區"
"235001","AAC-213","2017/09/05 14:49:30","新北市中和區秀朗路三段127號","121.525521666667","24.9929233333333","6500300","中和區"
"235023","AAC-215","2017/09/05 14:49:23","新北市中和區圓通路305巷5弄2號","121.493535","24.9901983333333","6500300","中和區"
"220016","013-TV","2017/09/05 14:49:30","新北市板橋區中山路二段416巷66弄7號","121.482581666667","25.0185483333333","6500100","板橋區"
"220013","072-UY","2017/09/05 14:49:26","新北市板橋區民族路278號","121.47","25.00688","6500100","板橋區"
"220105","075-UY","2017/09/05 14:49:30","新北市板橋區民治街71巷33號","121.480591666667","25.0332566666667","6500100","板橋區"
"220017","AAD-861","2017/09/05 14:49:34","新北市板橋區南雅南路二段11-29號","121.453763333333","25.0011933333333","6500100","板橋區"
"220051","120-SR","2017/09/05 14:49:30","新北市板橋區仁化街53號","121.475208333333","25.0318533333333","6500100","板橋區"
"247019","500-BY","2017/09/05 14:49:27","新北市蘆洲區光榮路103號","121.464808333333","25.089745","6501400","蘆洲區"
"247001","337-TH","2017/09/05 14:49:29","新北市蘆洲區長安街313巷2-3號","121.457051666667","25.08609","6501400","蘆洲區"
"247009","335-TH","2017/09/05 14:49:16","新北市五股區中興路二段176號","121.457818333333","25.0779083333333","6501400","蘆洲區"
"247015","057-VK","2017/09/05 14:49:21","新北市蘆洲區和平路205號","121.465975","25.0816683333333","6501400","蘆洲區"
"247013","007-UY","2017/09/05 14:49:29","新北市蘆洲區得勝街118號","121.471086666667","25.082885","6501400","蘆洲區"
"247023","002-UY","2017/09/05 14:49:18","新北市五股區四維路185巷35弄13號","121.464355","25.076195","6501400","蘆洲區"
"228004","212-TW","2017/09/05 14:49:18","新北市貢寮區福隆里裕隆街5號","121.946166666667","25.0159783333333","6502600","貢寮區"
"228005","828-UM","2017/09/05 14:49:12","新北市貢寮區美豐里丹裡街69號","121.906028333333","25.0563966666667","6502600","貢寮區"
"227003","400-TW","2017/09/05 14:16:39","新北市雙溪區三貂里政光路3-1號","121.851171666667","25.0634516666667","6502500","雙溪區"
"208004","AAC-292","2017/09/05 14:49:11","新北市金山區兩湖里倒照湖21-1號","121.594258333333","25.2390483333333","6502700","金山區"
"207002","749-BX","2017/09/05 14:49:15","新北市萬里區崁腳里崁腳路73號","121.647623333333","25.1595916666667","6502800","萬里區"
"207001","662-BX","2017/09/05 14:49:15","新北市萬里區雙興里二坪路1-2號","121.649236666667","25.17797","6502800","萬里區"
"236065","105-UM","2017/09/05 14:49:33","新北市土城區明德路一段398號","121.453061666667","24.979635","6501300","土城區"
"236041","107-UM","2017/09/05 14:49:20","新北市土城區裕民路136巷29號","121.450733333333","24.9851033333333","6501300","土城區"
"236075","166-UM","2017/09/05 14:49:25","新北市土城區中央路四段67巷60號","121.418241666667","24.956825","6501300","土城區"
"236029","253-BX","2017/09/05 14:49:30","新北市土城區千歲路3巷8號","121.440985","24.9702483333333","6501300","土城區"
"236025","269-VK","2017/09/05 14:49:28","新北市土城區慶安街44號","121.44123","24.9733083333333","6501300","土城區"
"236013","270-VK","2017/09/05 14:49:17","新北市土城區金城路二段356號","121.461583333333","24.9850733333333","6501300","土城區"
"236034","271-VK","2017/09/05 14:49:29","新北市土城區明德路一段195巷1弄2號","121.46405","24.9787033333333","6501300","土城區"
"236017","401-BY","2017/09/05 14:49:13","新北市土城區延安街33巷2號","121.467896666667","24.9845833333333","6501300","土城區"
"236057","912-UM","2017/09/05 14:49:32","新北市土城區中央路三段149號","121.43223","24.9655133333333","6501300","土城區"
"236045","913-UM","2017/09/05 14:49:19","新北市土城區青雲路28號","121.459965","24.988665","6501300","土城區"
"236061","915-UM","2017/09/05 14:49:26","新北市土城區金城路三段139巷10號","121.467935","24.988665","6501300","土城區"
"236054","AAC-216","2017/09/05 14:49:13","新北市土城區裕民路159號","121.45244","24.9858166666667","6501300","土城區"
"238001","282-BY","2017/09/05 13:43:40","新北市樹林區育德街78-1號","121.387873333333","24.9681533333333","6500700","樹林區"
"221012","276-VK","2017/09/05 13:43:08","新北市汐止區汐萬路一段256巷3號","121.653458333333","25.07465","6501100","汐止區"
"221002","753-BX","2017/09/05 14:49:16","新北市汐止區秀峰路60號","121.659473333333","25.065525","6501100","汐止區"
"220027","145-BY","2017/09/05 14:49:20","新北市板橋區中正路135巷12弄6號","121.455686666667","25.01591","6500100","板橋區"
"220028","200-UY","2017/09/05 14:49:30","新北市板橋區大觀路二段69巷1號","121.446825","25.0023716666667","6500100","板橋區"
"220030","610-BX","2017/09/05 14:49:25","新北市板橋區存德街38號","121.43033","24.9914083333333","6500100","板橋區"
"220050","245-BX","2017/09/05 14:49:16","新北市板橋區莒光路192號","121.474138333333","25.0225016666667","6500100","板橋區"
"220046","257-TC","2017/09/05 14:49:29","新北市板橋區文化路一段285巷1號","121.46446","25.018875","6500100","板橋區"
"220040","267-BY","2017/09/05 14:49:15","新北市板橋區懷德街127巷60號","121.480623333333","25.0319566666667","6500100","板橋區"
"220004","276-BY","2017/09/05 14:49:27","新北市板橋區南雅南路二段21號","121.453991666667","24.997875","6500100","板橋區"
"220020","277-BY","2017/09/05 14:49:27","新北市板橋區金門街215巷79號","121.43411","24.9893833333333","6500100","板橋區"
"220043","280-UM","2017/09/05 14:49:32","新北市板橋區長江路一段115號","121.459903333333","25.0298783333333","6500100","板橋區"
"220001","285-VK","2017/09/05 14:49:19","新北市板橋區中山路二段60巷7號","121.474255","25.0153883333333","6500100","板橋區"
"220031","286-VK","2017/09/05 14:49:29","新北市板橋區僑中二街12巷2號","121.446895","25.0107616666667","6500100","板橋區"
"220029","287-VK","2017/09/05 14:49:22","新北市板橋區大觀路一段26號","121.450011666667","25.008665","6500100","板橋區"
"220039","288-VK","2017/09/05 14:49:03","新北市板橋區龍泉街90巷16號","121.456143333333","25.02501","6500100","板橋區"
"220009","295-UM","2017/09/05 14:49:24","新北市板橋區中山路一段156號","121.465","25.011715","6500100","板橋區"
"220023","297-UM","2017/09/05 14:49:29","新北市板橋區中正路194號","121.45615","25.0179616666667","6500100","板橋區"
"220014","299-UM","2017/09/05 14:49:24","新北市板橋區漢生東路161巷3號","121.469598333333","25.0126616666667","6500100","板橋區"
"220010","305-R5","2017/09/05 14:49:22","新北市板橋區光復街33巷10號","121.481943333333","25.0188816666667","6500100","板橋區"
"220041","307-R5","2017/09/05 14:49:19","新北市板橋區四維路269巷63號","121.460765","25.02702","6500100","板橋區"
"220047","317-R6","2017/09/05 14:49:28","新北市板橋區新海路385巷14號","121.458348333333","25.025845","6500100","板橋區"
"220034","461-BY","2017/09/05 14:49:23","新北市板橋區中正路1巷4號","121.455656666667","25.0119","6500100","板橋區"
"220012","486-VK","2017/09/05 14:49:26","新北市板橋區實踐路87號","121.464131666667","25.005575","6500100","板橋區"
"220038","487-VK","2017/09/05 14:49:21","新北市板橋區英士路192-1號","121.458233333333","25.0238033333333","6500100","板橋區"
"220037","491-VK","2017/09/05 14:49:28","新北市板橋區仁化街99號","121.476451666667","25.0322933333333","6500100","板橋區"
"220104","560-BX","2017/09/05 14:49:16","新北市板橋區新生街29巷15弄5號","121.456325","25.0219","6500100","板橋區"
"220052","561-BX","2017/09/05 14:49:22","新北市板橋區陽明街29巷32號","121.463666666667","25.02275","6500100","板橋區"
"220032","568-UM","2017/09/05 14:49:28","新北市板橋區滿平街45號","121.427106666667","24.9896216666667","6500100","板橋區"
"220011","609-BX","2017/09/05 14:49:24","新北市板橋區中山路二段547號","121.483786666667","25.0216716666667","6500100","板橋區"
"220019","630-UY","2017/09/05 14:49:27","新北市板橋區五權街32巷20號","121.464175","24.9928833333333","6500100","板橋區"
"220005","686-BX","2017/09/05 14:49:18","新北市板橋區廣權路33號","121.462743333333","24.9916033333333","6500100","板橋區"
"220025","687-BX","2017/09/05 14:49:19","新北市板橋區僑中一街150號","121.444795","25.012125","6500100","板橋區"
"220042","689-BX","2017/09/05 14:49:20","新北市板橋區長江路二段59號","121.464613333333","25.031385","6500100","板橋區"
"220002","741-BX","2017/09/05 14:49:33","新北市板橋區忠孝路忠義巷16弄1號","121.465893333333","25.003725","6500100","板橋區"
"220003","827-TW","2017/09/05 14:49:29","新北市板橋區仁愛路76巷1弄2號","121.460563333333","24.9993583333333","6500100","板橋區"
"220045","831-TW","2017/09/05 14:49:22","新北市板橋區文化路一段366-5號","121.469176666667","25.02341","6500100","板橋區"
"220022","895-R6","2017/09/05 14:49:26","新北市板橋區民權路67號","121.461621666667","25.0115233333333","6500100","板橋區"
"220021","985-R7","2017/09/05 14:49:15","新北市板橋區南雅西路二段142號","121.451951666667","25.0130133333333","6500100","板橋區"
"220018","AAC-253","2017/09/05 14:49:19","新北市板橋區館前東路63-2號","121.46374","25.00787","6500100","板橋區"
