"lineid","car","time","location","longitude","latitude","cityid","cityname"
"234028","746-BX","2017/09/05 14:59:15","新北市新店區安康路二段269號","121.504295","24.957755","6500400","永和區"
"234025","9371-KE","2017/09/05 14:59:16","新北市永和區中和路573號","121.511715","25.0035983333333","6500400","永和區"
"248017","225-UY","2017/09/05 14:23:54","新北市五股區外寮路9-23號","121.416651666667","25.0787733333333","6501500","五股區"
"244002","657-BX","2017/09/05 14:59:20","新北市林口區竹林路266號","121.38965","25.0808083333333","6501700","林口區"
"231002","002-UM","2017/09/05 14:59:23","新北市新店區中正路493-2號","121.533676666667","24.98294","6500600","新店區"
"231028","046-UY","2017/09/05 14:59:13","新北市新店區安豐路49號","121.500031666667","24.9549033333333","6500600","新店區"
"231030","047-UY","2017/09/05 14:59:32","新北市新店區安民街339號","121.516983333333","24.9748","6500600","新店區"
"231029","106-UY","2017/09/05 14:59:15","新北市新店區錦秀路32號","121.479183333333","24.9439666666667","6500600","新店區"
"231018","107-UY","2017/09/05 14:59:21","新北市新店區中央路226號","121.529468333333","24.9728566666667","6500600","新店區"
"231012","108-UY","2017/09/05 14:59:15","新北市新店區中興路三段205巷7弄1號","121.543201666667","24.9815133333333","6500600","新店區"
"231020","187-VK","2017/09/05 14:59:19","新北市新店區永福路54-2號","121.558113333333","24.9287233333333","6500600","新店區"
"231069","189-VK","2017/09/05 12:06:25","新北市新店區安華路28-1號","121.519471666667","24.960985","6500600","新店區"
"231026","256-BX","2017/09/05 14:59:33","新北市新店區博愛街9巷4號","121.540735","24.97299","6500600","新店區"
"231034","268-BY","2017/09/05 14:59:26","新北市新店區玫瑰路4-1號","121.49363","24.9514283333333","6500600","新店區"
"231015","AAD-862","2017/09/05 14:59:22","新北市新店區北宜路二段599號","121.568101666667","24.9556333333333","6500600","新店區"
"231001","355-BY","2017/09/05 14:59:29","新北市新店區中正路278號","121.53882","24.9737566666667","6500600","新店區"
"231024","3713-VJ","2017/09/05 14:59:27","新北市新店區中華路83巷15號","121.538751666667","24.96819","6500600","新店區"
"231025","4716-K9","2017/09/05 14:59:20","新北市新店區大同街9號","121.539296666667","24.980105","6500600","新店區"
"231036","512-UM","2017/09/05 14:59:28","新北市新店區安祥路102巷30弄11號","121.484573333333","24.96361","6500600","新店區"
"231023","513-UM","2017/09/05 14:59:30","新北市新店區檳榔路109號","121.544373333333","24.9617483333333","6500600","新店區"
"231035","515-UM","2017/09/05 14:59:23","新北市新店區安興路141號","121.51674","24.9790466666667","6500600","新店區"
"231003","616-UM","2017/09/05 14:59:17","新北市新店區中興路二段231號","121.547938333333","24.9748983333333","6500600","新店區"
"231006","617-UM","2017/09/05 14:59:22","新北市新店區新坡一街80-3號","121.54732","24.9642616666667","6500600","新店區"
"231039","718-UY","2017/09/05 14:59:25","新北市新店區中興路三段88號","121.545273333333","24.978905","6500600","新店區"
"231032","720-UM","2017/09/05 14:59:23","新北市新店區安泰路42號","121.485113333333","24.9478566666667","6500600","新店區"
"231005","897-TW","2017/09/05 14:59:29","新北市新店區復興路43-1號","121.536915","24.987105","6500600","新店區"
"231004","899-TW","2017/09/05 14:59:33","新北市新店區民族路52-1號","121.540011666667","24.9786716666667","6500600","新店區"
"231037","AKT-0513","2017/09/05 14:59:13","新北市新店區安民街365巷5號","121.516141666667","24.9755383333333","6500600","新店區"
"235030","003-UY","2017/09/05 14:59:28","新北市中和區中山路二段18號","121.504868333333","25.0054966666667","6500300","中和區"
"235020","096-UM","2017/09/05 14:59:15","新北市中和區中山路三段142號","121.473888333333","25.0063966666667","6500300","中和區"
"235003","097-UM","2017/09/05 14:59:27","新北市中和區宜安路2號","121.513753333333","24.99556","6500300","中和區"
"235004","150-BY","2017/09/05 14:59:21","新北市中和區景安路79巷21號","121.507128333333","24.9968066666667","6500300","中和區"
"235022","151-BY","2017/09/05 14:59:30","新北市中和區員山路148巷11號","121.481823333333","24.99718","6500300","中和區"
"235019","183-VK","2017/09/05 03:45:22","新北市中和區員山路36巷16-3號","121.485051666667","24.9913083333333","6500300","中和區"
"235002","185-VK","2017/09/05 14:59:11","新北市中和區更生街15號","121.52193","24.9961883333333","6500300","中和區"
"235013","186-VK","2017/09/05 14:59:29","新北市中和區南華路5號","121.502055","24.9954983333333","6500300","中和區"
"235031","255-BX","2017/09/05 14:59:20","新北市中和區新生街220巷4號","121.483058333333","24.998575","6500300","中和區"
"235008","293-VK","2017/09/05 14:59:25","新北市中和區中正路1號","121.50338","24.9933216666667","6500300","中和區"
"235036","301-VK","2017/09/05 14:59:30","新北市中和區圓通路320號","121.487103333333","24.9884333333333","6500300","中和區"
"235007","352-BY","2017/09/05 14:59:21","新北市中和區華新街230號","121.506063333333","24.9817416666667","6500300","中和區"
"235015","376-QA","2017/09/05 14:59:18","新北市中和區景安路220巷18號","121.502838333333","24.99146","6500300","中和區"
"235032","377-QA","2017/09/05 14:59:29","新北市中和區福祥路96號","121.499128333333","25.0059","6500300","中和區"
"235014","4979-A6","2017/09/05 14:59:22","新北市中和區安樂路37號","121.511855","24.9930016666667","6500300","中和區"
"235033","4980-A6","2017/09/05 14:59:25","新北市中和區景新街64巷12號","121.503938333333","24.9985283333333","6500300","中和區"
"235006","551-UM","2017/09/05 14:59:29","新北市新店區安民街227號","121.516436666667","24.972235","6500300","中和區"
"235034","558-UM","2017/09/05 14:59:14","新北市中和區連勝街22號","121.498513333333","24.9980666666667","6500300","中和區"
"235018","640-BX","2017/09/05 14:59:21","新北市中和區莒光路220號","121.469995","24.995825","6500300","中和區"
"235024","647-TV","2017/09/05 14:59:32","新北市中和區新生街30巷1號","121.483035","25.0037533333333","6500300","中和區"
"235010","733-UM","2017/09/05 14:59:27","新北市中和區興南路一段93巷89弄1號","121.510651666667","24.9860483333333","6500300","中和區"
"235005","802-TS","2017/09/05 14:59:20","新北市中和區安平路17號","121.509215","24.9942266666667","6500300","中和區"
"235016","805-TS","2017/09/05 14:59:14","新北市中和區華新街50巷5弄30號","121.50754","24.9832683333333","6500300","中和區"
"235012","896-TW","2017/09/05 14:59:14","新北市中和區忠孝街1巷2-1號","121.509151666667","24.9830316666667","6500300","中和區"
"235017","900-TW","2017/09/05 14:59:24","新北市中和區國光街134號","121.468578333333","25.0012716666667","6500300","中和區"
"235001","AAC-213","2017/09/05 14:59:31","新北市中和區自立路38-1號","121.522791666667","24.99257","6500300","中和區"
"235023","AAC-215","2017/09/05 14:59:23","新北市中和區圓通路335巷1弄1號","121.492131666667","24.9904333333333","6500300","中和區"
"220016","013-TV","2017/09/05 14:59:21","新北市板橋區光復街230號","121.484778333333","25.0213666666667","6500100","板橋區"
"220013","072-UY","2017/09/05 14:59:26","新北市板橋區長安街5號","121.46614","25.0086333333333","6500100","板橋區"
"220105","075-UY","2017/09/05 14:59:30","新北市板橋區文聖街5號","121.475546666667","25.0325033333333","6500100","板橋區"
"220017","AAD-861","2017/09/05 14:59:14","新北市板橋區大明街13號","121.45889","25.00246","6500100","板橋區"
"220051","120-SR","2017/09/05 14:59:29","新北市板橋區懷德街73號","121.477763333333","25.0322316666667","6500100","板橋區"
"247019","500-BY","2017/09/05 14:59:27","新北市五股區中興路三段163號","121.44939","25.0808916666667","6501400","蘆洲區"
"228004","212-TW","2017/09/05 14:59:18","新北市貢寮區福隆里興隆街21-2號","121.932061666667","25.0180683333333","6502600","貢寮區"
"227003","400-TW","2017/09/05 14:16:39","新北市雙溪區三貂里政光路3-1號","121.851171666667","25.0634516666667","6502500","雙溪區"
"208004","AAC-292","2017/09/05 14:59:31","新北市金山區法鼓路555號","121.61647","25.238465","6502700","金山區"
"207002","749-BX","2017/09/05 14:59:15","新北市萬里區崁腳里崁腳路73號","121.647573333333","25.1596416666667","6502800","萬里區"
"207001","662-BX","2017/09/05 14:59:15","新北市萬里區雙興里二坪路11號","121.646156666667","25.1750683333333","6502800","萬里區"
"236065","105-UM","2017/09/05 14:59:13","新北市土城區中央路一段291巷16號","121.445","24.9837933333333","6501300","土城區"
"236041","107-UM","2017/09/05 14:59:23","新北市土城區裕民路214巷8號","121.453031666667","24.9842283333333","6501300","土城區"
"236075","166-UM","2017/09/05 14:59:25","新北市土城區大暖坑11-2號","121.418828333333","24.95372","6501300","土城區"
"236029","253-BX","2017/09/05 14:59:30","新北市土城區中央路二段12號","121.442876666667","24.9806433333333","6501300","土城區"
"236025","269-VK","2017/09/05 14:59:25","新北市土城區中正路74巷1弄2號","121.444728333333","24.975","6501300","土城區"
"236013","270-VK","2017/09/05 14:59:17","新北市土城區立德路47號","121.462548333333","24.9881816666667","6501300","土城區"
"236034","271-VK","2017/09/05 14:59:23","新北市土城區仁愛路9巷1號","121.46011","24.9810016666667","6501300","土城區"
"236017","401-BY","2017/09/05 14:59:13","新北市土城區延吉街168巷10號","121.468023333333","24.9860733333333","6501300","土城區"
"236057","912-UM","2017/09/05 14:59:32","新北市土城區金城路一段105號","121.444323333333","24.9731433333333","6501300","土城區"
"236045","913-UM","2017/09/05 14:59:19","新北市土城區明德路一段398-1號","121.453686666667","24.9790883333333","6501300","土城區"
"236054","AAC-216","2017/09/05 14:59:13","新北市土城區裕民路30號","121.447885","24.9885016666667","6501300","土城區"
"238001","282-BY","2017/09/05 13:43:40","新北市樹林區育德街78-1號","121.387873333333","24.9681533333333","6500700","樹林區"
"221012","276-VK","2017/09/05 13:43:08","新北市汐止區汐萬路一段256巷3號","121.653458333333","25.07465","6501100","汐止區"
"221002","707-TV","2017/09/05 14:59:28","新北市汐止區新興路84巷5號","121.657823333333","25.0611966666667","6501100","汐止區"
"221002","753-BX","2017/09/05 14:59:16","新北市汐止區和平街46巷17號","121.662458333333","25.0721416666667","6501100","汐止區"
"220027","145-BY","2017/09/05 14:59:19","新北市板橋區南雅西路二段237號","121.45092","25.0141683333333","6500100","板橋區"
"220028","200-UY","2017/09/05 14:59:22","新北市板橋區大觀路二段153巷3號","121.445753333333","25.0007","6500100","板橋區"
"220030","610-BX","2017/09/05 14:59:25","新北市板橋區金門街182-2號","121.43264","24.9909916666667","6500100","板橋區"
"220050","245-BX","2017/09/05 14:59:16","新北市板橋區縣民大道三段97巷3號","121.475841666667","25.0222916666667","6500100","板橋區"
"220046","257-TC","2017/09/05 14:59:24","新北市板橋區光正街18巷2號","121.462775","25.0172033333333","6500100","板橋區"
"220040","267-BY","2017/09/05 14:59:16","新北市板橋區文聖街101巷11號","121.478011666667","25.02968","6500100","板橋區"
"220020","277-BY","2017/09/05 14:59:27","新北市板橋區金門街125-3號","121.432965","24.9915316666667","6500100","板橋區"
"220043","280-UM","2017/09/05 14:59:12","新北市板橋區陽明街259號","121.462746666667","25.02534","6500100","板橋區"
"220001","285-VK","2017/09/05 14:59:19","新北市板橋區永豐街103號","121.473948333333","25.0193766666667","6500100","板橋區"
"220031","286-VK","2017/09/05 14:59:29","新北市板橋區僑中二街90巷28號","121.44491","25.009395","6500100","板橋區"
"220029","287-VK","2017/09/05 14:59:22","新北市板橋區僑中一街80巷12弄2號","121.447985","25.0129366666667","6500100","板橋區"
"220039","288-VK","2017/09/05 14:59:23","新北市板橋區幸福路32巷54號","121.460448333333","25.0222166666667","6500100","板橋區"
"220009","295-UM","2017/09/05 14:59:24","新北市板橋區四川路一段284號","121.45864","25.0008466666667","6500100","板橋區"
"220023","297-UM","2017/09/05 14:59:29","新北市板橋區公館街254號","121.459688333333","25.021335","6500100","板橋區"
"220010","305-R5","2017/09/05 14:59:33","新北市板橋區中山路二段613號","121.485363333333","25.0225033333333","6500100","板橋區"
"220041","307-R5","2017/09/05 14:59:19","新北市板橋區新海路416號","121.458561666667","25.0272083333333","6500100","板橋區"
"220047","317-R6","2017/09/05 14:59:28","新北市板橋區新海路72巷20號","121.462596666667","25.0222083333333","6500100","板橋區"
"220034","461-BY","2017/09/05 14:59:23","新北市板橋區南雅西路二段7巷25號","121.451868333333","25.009445","6500100","板橋區"
"220012","486-VK","2017/09/05 14:59:26","新北市板橋區漢生東路193巷11號","121.470476666667","25.0119283333333","6500100","板橋區"
"220038","487-VK","2017/09/05 14:59:21","新北市板橋區龍泉街157號","121.458133333333","25.0243366666667","6500100","板橋區"
"220037","491-VK","2017/09/05 14:59:28","新北市板橋區懷德街181巷5號","121.479465","25.0300183333333","6500100","板橋區"
"220052","561-BX","2017/09/05 14:59:28","新北市板橋區文化路一段421巷15號","121.46649","25.023095","6500100","板橋區"
"220032","568-UM","2017/09/05 14:59:31","新北市樹林區水源街213號","121.424506666667","24.9873233333333","6500100","板橋區"
"220011","609-BX","2017/09/05 14:59:26","新北市板橋區三民路一段31巷1號","121.479308333333","25.023135","6500100","板橋區"
"220019","630-UY","2017/09/05 14:59:30","新北市板橋區和平路174巷25號","121.464648333333","24.994495","6500100","板橋區"
"220005","686-BX","2017/09/05 14:59:18","新北市板橋區四川路二段130巷1-2號","121.450016666667","24.99378","6500100","板橋區"
"220025","687-BX","2017/09/05 14:59:20","新北市板橋區僑中一街124巷62-9號","121.446815","25.0172783333333","6500100","板橋區"
"220042","689-BX","2017/09/05 14:59:20","新北市板橋區長江路三段59號","121.473993333333","25.0342133333333","6500100","板橋區"
"220002","741-BX","2017/09/05 14:59:13","新北市板橋區忠孝路201巷53號","121.464861666667","25.0038966666667","6500100","板橋區"
"220003","827-TW","2017/09/05 14:59:29","新北市板橋區國慶路149巷4弄18-3號","121.46193","24.997065","6500100","板橋區"
"220045","831-TW","2017/09/05 14:59:22","新北市板橋區莒光路15巷23號","121.470318333333","25.0255966666667","6500100","板橋區"
"220022","895-R6","2017/09/05 14:59:26","新北市板橋區府中路34號","121.457966666667","25.0095933333333","6500100","板橋區"
"220021","985-R7","2017/09/05 14:59:15","新北市板橋區大觀路二段179巷33號","121.446486666667","24.99948","6500100","板橋區"
"220018","AAC-253","2017/09/05 14:59:19","新北市板橋區四川路一段489號","121.457003333333","24.9971983333333","6500100","板橋區"
