"lineid","car","time","location","longitude","latitude","cityid","cityname"
"234028","746-BX","2017/09/05 15:29:15","新北市新店區安民街121巷12號","121.515426666667","24.969215","6500400","永和區"
"248017","225-UY","2017/09/05 15:29:23","新北市五股區新五路二段87號","121.436483333333","25.07411","6501500","五股區"
"244002","657-BX","2017/09/05 15:29:20","新北市林口區粉寮路二段160巷31號","121.40569","25.0910783333333","6501700","林口區"
"231002","002-UM","2017/09/05 15:29:18","新北市新店區環河路150-8號","121.534428333333","24.967985","6500600","新店區"
"231028","046-UY","2017/09/05 15:29:33","新北市新店區僑信路24號","121.499668333333","24.9522316666667","6500600","新店區"
"231030","047-UY","2017/09/05 15:29:32","新北市新店區新和街54號","121.51968","24.9852983333333","6500600","新店區"
"231029","106-UY","2017/09/05 15:29:15","新北市新店區安康路三段628號","121.478911666667","24.9459733333333","6500600","新店區"
"231018","107-UY","2017/09/05 15:29:21","新北市新店區中央八街88號","121.526975","24.9774383333333","6500600","新店區"
"231012","108-UY","2017/09/05 15:29:15","新北市新店區寶慶街66號","121.541996666667","24.9869083333333","6500600","新店區"
"231020","187-VK","2017/09/05 15:29:19","新北市新店區湖興路128-7號","121.55993","24.931075","6500600","新店區"
"231069","189-VK","2017/09/05 12:06:25","新北市新店區安華路28-1號","121.519471666667","24.960985","6500600","新店區"
"231026","256-BX","2017/09/05 15:29:26","新北市新店區三民路117巷6弄1號","121.534131666667","24.9712266666667","6500600","新店區"
"231034","268-BY","2017/09/05 15:29:26","新北市新店區富貴街9巷2號","121.494075","24.949095","6500600","新店區"
"231025","4716-K9","2017/09/05 15:29:20","新北市新店區環河路121-2號","121.530385","24.971505","6500600","新店區"
"231038","4715-K9","2017/09/05 15:29:16","新北市新店區安康路一段355號","121.519853333333","24.9633916666667","6500600","新店區"
"231036","512-UM","2017/09/05 15:29:28","新北市新店區安祥路67巷50弄2號","121.484828333333","24.95903","6500600","新店區"
"231023","513-UM","2017/09/05 15:29:30","新北市新店區北新路一段96巷23號","121.542773333333","24.968755","6500600","新店區"
"231035","515-UM","2017/09/05 15:29:23","新北市新店區安民街365巷7弄2號","121.515941666667","24.9752416666667","6500600","新店區"
"231003","616-UM","2017/09/05 15:29:17","新北市新店區寶高路120巷1號","121.554623333333","24.9760583333333","6500600","新店區"
"231039","718-UY","2017/09/05 15:29:25","新北市新店區寶元路一段84巷1號","121.544515","24.9838433333333","6500600","新店區"
"231032","720-UM","2017/09/05 15:29:23","新北市新店區裕合街215號","121.489221666667","24.948875","6500600","新店區"
"231005","897-TW","2017/09/05 15:29:29","新北市新店區建國路291巷1號","121.537003333333","24.9851866666667","6500600","新店區"
"231004","899-TW","2017/09/05 15:29:13","新北市新店區民族路161號","121.537841666667","24.97702","6500600","新店區"
"231037","AKT-0513","2017/09/05 15:29:13","新北市新店區安興路91巷9號","121.51258","24.9751083333333","6500600","新店區"
"241013","270-UM","2017/09/05 15:29:13","新北市三重區重新路四段121號","121.484585","25.0522916666667","6500200","三重區"
"235004","150-BY","2017/09/05 15:29:21","新北市新店區光華街38巷11號","121.51589","24.9702983333333","6500300","中和區"
"235036","301-VK","2017/09/05 15:29:30","新北市中和區中正路589巷15號","121.485796666667","24.9937166666667","6500300","中和區"
"235033","4980-A6","2017/09/05 15:29:25","新北市中和區員山路383-2號","121.480941666667","25.0024616666667","6500300","中和區"
"235006","551-UM","2017/09/05 15:29:29","新北市中和區景平路456號","121.505991666667","24.9936266666667","6500300","中和區"
"235012","896-TW","2017/09/05 15:29:16","新北市中和區忠孝街60巷2弄4號","121.511565","24.9836983333333","6500300","中和區"
"235023","AAC-215","2017/09/05 15:29:23","新北市中和區員山路28-6號","121.482278333333","24.98712","6500300","中和區"
"227003","400-TW","2017/09/05 15:29:22","新北市雙溪區三貂里政光路3-1號","121.851171666667","25.0634516666667","6502500","雙溪區"
"208004","AAC-292","2017/09/05 15:29:31","新北市金山區南勢湖20號","121.620766666667","25.2159716666667","6502700","金山區"
"236065","105-UM","2017/09/05 15:29:13","新北市土城區中央路二段195號","121.442166666667","24.9752116666667","6501300","土城區"
"236041","107-UM","2017/09/05 15:29:19","新北市土城區學府路一段164巷21號","121.453561666667","24.9873866666667","6501300","土城區"
"236075","166-UM","2017/09/05 15:29:25","新北市土城區龍泉路15-1號","121.411365","24.9473216666667","6501300","土城區"
"236029","253-BX","2017/09/05 15:29:30","新北市土城區中央路一段118巷1弄20號","121.445585","24.98766","6501300","土城區"
"236025","269-VK","2017/09/05 15:29:19","新北市土城區中央路一段286號","121.443585","24.9825833333333","6501300","土城區"
"236013","270-VK","2017/09/05 15:29:17","新北市土城區德興街133號","121.455065","24.9917916666667","6501300","土城區"
"236034","271-VK","2017/09/05 15:29:23","新北市土城區延吉街351號","121.464625","24.9839416666667","6501300","土城區"
"236017","401-BY","2017/09/05 15:29:13","新北市土城區金城路三段198號","121.468625","24.9879083333333","6501300","土城區"
"236057","912-UM","2017/09/05 15:29:31","新北市土城區中央路二段223-3號","121.440685","24.9735733333333","6501300","土城區"
"236045","913-UM","2017/09/05 15:29:24","新北市土城區金城路二段316號","121.459123333333","24.9844116666667","6501300","土城區"
"236061","915-UM","2017/09/05 15:29:26","新北市土城區延和路12巷13號","121.464385","24.98746","6501300","土城區"
"236054","AAC-216","2017/09/05 15:29:13","新北市土城區延和路51號","121.466431666667","24.9895983333333","6501300","土城區"
"238001","282-BY","2017/09/05 13:43:40","新北市樹林區育德街78-1號","121.387873333333","24.9681533333333","6500700","樹林區"
"221012","276-VK","2017/09/05 13:43:08","新北市汐止區汐萬路一段256巷3號","121.653458333333","25.07465","6501100","汐止區"
"221002","753-BX","2017/09/05 15:29:16","新北市汐止區大同路二段435號","121.659261666667","25.0675416666667","6501100","汐止區"
"220050","245-BX","2017/09/05 15:29:16","新北市板橋區漢生東路83巷1號","121.466423333333","25.016025","6500100","板橋區"
"220010","305-R5","2017/09/05 15:29:22","新北市樹林區環河路600號","121.404451666667","24.96939","6500100","板橋區"
"220038","487-VK","2017/09/05 15:29:21","新北市板橋區四維路296號","121.462776666667","25.0293533333333","6500100","板橋區"
"220052","561-BX","2017/09/05 15:29:22","新北市板橋區漢生東路35號","121.465468333333","25.0169266666667","6500100","板橋區"
"220018","AAC-253","2017/09/05 15:19:59","新北市板橋區溪城路90-2號","121.429381666667","24.9803333333333","6500100","板橋區"
