"lineid","car","time","location","longitude","latitude","cityid","cityname"
"249002","305-UY","2017/09/05 16:39:24","新北市八里區大堀湖13號","121.426511666667","25.148975","6502300","八里區"
"249005","759-BX","2017/09/05 16:39:15","新北市八里區博物館路10-1號","121.415103333333","25.1640716666667","6502300","八里區"
"244002","657-BX","2017/09/05 15:46:23","新北市林口區粉寮路二段160巷40號","121.405633333333","25.0911016666667","6501700","林口區"
"231069","189-VK","2017/09/05 12:06:25","新北市新店區安華路28-1號","121.519471666667","24.960985","6500600","新店區"
"231046","278-BY","2017/09/05 16:39:30","新北市新店區灣潭路55號","121.54097","24.9428416666667","6500600","新店區"
"241011","013-R5","2017/09/05 16:39:13","新北市三重區秀江街209號","121.497546666667","25.0718366666667","6500200","三重區"
"241028","022-UY","2017/09/05 16:39:18","新北市三重區中正南路1號","121.493336666667","25.060545","6500200","三重區"
"241008","059-VK","2017/09/05 16:39:14","新北市三重區永安北路一段27巷18號","121.477135","25.0755583333333","6500200","三重區"
"241009","060-VK","2017/09/05 16:39:24","新北市三重區三和路四段203巷22號","121.482643333333","25.0795966666667","6500200","三重區"
"241031","061-VK","2017/09/05 16:39:28","新北市三重區重新路四段41巷5弄2號","121.487286666667","25.0585683333333","6500200","三重區"
"241015","062-VK","2017/09/05 16:39:25","新北市三重區文化北路37-2號","121.499015","25.0650766666667","6500200","三重區"
"241017","063-VK","2017/09/05 16:39:29","新北市三重區中正北路25巷9號","121.492641666667","25.0622433333333","6500200","三重區"
"241024","065-VK","2017/09/05 16:39:12","新北市三重區中正北路315巷6弄84號","121.477331666667","25.07253","6500200","三重區"
"241002","090-VK","2017/09/05 16:39:32","新北市三重區自強路五段71號","121.495151666667","25.0818866666667","6500200","三重區"
"241003","091-VK","2017/09/05 16:39:31","新北市三重區五華街71巷87號","121.494253333333","25.0838483333333","6500200","三重區"
"241026","156-TC","2017/09/05 16:39:11","新北市三重區福德南路53號","121.503088333333","25.0616716666667","6500200","三重區"
"241005","262-UM","2017/09/05 16:39:11","新北市三重區碧華街246號","121.487526666667","25.0828316666667","6500200","三重區"
"241016","266-UM","2017/09/05 16:39:33","新北市三重區大智街1-1號","121.494801666667","25.0649333333333","6500200","三重區"
"241022","267-UM","2017/09/05 16:39:17","新北市三重區三民街34號","121.485721666667","25.0618466666667","6500200","三重區"
"241018","268-UM","2017/09/05 16:39:25","新北市三重區六張街71號","121.493666666667","25.07016","6500200","三重區"
"241032","269-UM","2017/09/05 16:39:24","新北市三重區過圳街75-1號","121.485323333333","25.0612983333333","6500200","三重區"
"241013","270-UM","2017/09/05 16:39:33","新北市三重區三和路三段101巷80號","121.496738333333","25.07316","6500200","三重區"
"241025","271-UM","2017/09/05 16:39:26","新北市三重區中正北路428巷18號","121.474558333333","25.0702366666667","6500200","三重區"
"241007","412-TH","2017/09/05 16:39:20","新北市三重區三和路四段167巷84號","121.485203333333","25.0794566666667","6500200","三重區"
"241020","413-TH","2017/09/05 16:39:26","新北市三重區忠孝路二段35號","121.485893333333","25.071095","6500200","三重區"
"241004","475-VK","2017/09/05 16:39:16","新北市三重區仁愛街377巷51號","121.49338","25.0813566666667","6500200","三重區"
"241019","478-VK","2017/09/05 16:39:24","新北市三重區重陽路三段144號","121.489521666667","25.0673083333333","6500200","三重區"
"241030","480-VK","2017/09/05 16:39:23","新北市三重區環河南路286號","121.488946666667","25.0489666666667","6500200","三重區"
"241014","543-UM","2017/09/05 16:39:29","新北市三重區龍濱路40號","121.50275","25.068375","6500200","三重區"
"241023","545-UM","2017/09/05 16:39:20","新北市三重區忠孝路三段50巷82號","121.482948333333","25.064495","6500200","三重區"
"241001","547-UM","2017/09/05 16:39:25","新北市三重區仁愛街257號","121.493143333333","25.07832","6500200","三重區"
"241006","887-TS","2017/09/05 16:39:34","新北市三重區車路頭街138-4號","121.483695","25.0754466666667","6500200","三重區"
"241012","941-UM","2017/09/05 16:39:24","新北市三重區仁興街3巷24號","121.500455","25.0740083333333","6500200","三重區"
"241029","942-UM","2017/09/05 16:39:26","新北市三重區集美街112巷13號","121.489443333333","25.0541133333333","6500200","三重區"
"241033","AAC-255","2017/09/05 16:39:30","新北市三重區光復路二段117-1號","121.472126666667","25.0586983333333","6500200","三重區"
"235026","800-TS","2017/09/05 16:39:17","新北市中和區中正路434號","121.49128","24.9940883333333","6500300","中和區"
"247004","336-TH","2017/09/05 16:39:20","新北市蘆洲區長榮路207號","121.461065","25.084895","6501400","蘆洲區"
"247016","057-VK","2017/09/05 16:39:13","新北市蘆洲區環堤大道365號","121.456803333333","25.097425","6501400","蘆洲區"
"247018","001-UY","2017/09/05 16:39:23","新北市五股區成泰路三段320號","121.45072","25.097085","6501400","蘆洲區"
"224006","676-BX","2017/09/05 16:39:16","新北市瑞芳區大寮路356-1號","121.784823333333","25.1033116666667","6501200","瑞芳區"
"224009","285-BY","2017/09/05 16:39:27","新北市瑞芳區傑魚坑路5號","121.794451666667","25.1105083333333","6501200","瑞芳區"
"224008","275-VK","2017/09/05 16:39:21","新北市瑞芳區民權街3-1號","121.80931","25.1084133333333","6501200","瑞芳區"
"224007","273-VK","2017/09/05 16:39:27","新北市瑞芳區中央路15號","121.761965","25.1036133333333","6501200","瑞芳區"
"224005","271-BY","2017/09/05 16:39:28","新北市瑞芳區海濱路136-1號","121.830446666667","25.1223316666667","6501200","瑞芳區"
"227009","642-TC","2017/09/05 16:39:22","新北市雙溪區牡丹里中正路67號","121.864638333333","25.043945","6502500","雙溪區"
"227003","400-TW","2017/09/05 16:39:22","新北市雙溪區外柑里土地公後5號","121.816146666667","25.0204266666667","6502500","雙溪區"
"251014","180-VK","2017/09/05 16:39:22","新北市淡水區沙崙路216巷72號","121.42608","25.18509","6501000","淡水區"
"251008","181-VK","2017/09/05 16:39:15","台北市北投區中央北路四段30巷160號","121.47419","25.1404883333333","6501000","淡水區"
"251016","442-VK","2017/09/05 16:39:24","新北市淡水區沙崙路196號","121.42442","25.1837116666667","6501000","淡水區"
"252002","178-VK","2017/09/05 16:39:16","新北市三芝區迎旭街72號","121.510063333333","25.25821","6502100","三芝區"
"236065","105-UM","2017/09/05 16:21:38","新北市土城區城林路6巷80號","121.438625","24.9797983333333","6501300","土城區"
"242061","362-BY","2017/09/05 16:39:29","新北市新莊區新泰路255巷83號","121.44244","25.0389666666667","6500500","新莊區"
"238018","571-TV","2017/09/05 16:39:04","新北市樹林區育德街78-1號","121.387283333333","24.968125","6500700","樹林區"
"238001","282-BY","2017/09/05 13:43:40","新北市樹林區育德街78-1號","121.387873333333","24.9681533333333","6500700","樹林區"
"221012","276-VK","2017/09/05 13:43:08","新北市汐止區汐萬路一段256巷3號","121.653458333333","25.07465","6501100","汐止區"
