"lineid","car","time","location","longitude","latitude","cityid","cityname"
"249002","305-UY","2017/09/05 16:45:24","新北市八里區牛寮埔31號","121.42988","25.1457233333333","6502300","八里區"
"249005","759-BX","2017/09/05 16:45:15","新北市八里區博物館路157號","121.407211666667","25.158","6502300","八里區"
"244002","657-BX","2017/09/05 15:46:23","新北市林口區粉寮路二段160巷40號","121.405633333333","25.0911016666667","6501700","林口區"
"231069","189-VK","2017/09/05 12:06:25","新北市新店區安華路28-1號","121.519471666667","24.960985","6500600","新店區"
"231046","278-BY","2017/09/05 16:45:30","新北市新店區灣潭路15-12號","121.541876666667","24.942265","6500600","新店區"
"241011","013-R5","2017/09/05 16:45:33","新北市三重區仁愛街53巷86號","121.4983","25.0723683333333","6500200","三重區"
"241028","022-UY","2017/09/05 16:45:18","新北市三重區重新路二段55號","121.497","25.0619383333333","6500200","三重區"
"241008","059-VK","2017/09/05 16:45:34","新北市三重區永安北路一段19號","121.47648","25.0751316666667","6500200","三重區"
"241009","060-VK","2017/09/05 16:45:24","新北市三重區三和路四段203巷129號","121.484888333333","25.0802116666667","6500200","三重區"
"241031","061-VK","2017/09/05 16:45:28","新北市三重區重陽路一段123號","121.487225","25.0610733333333","6500200","三重區"
"241015","062-VK","2017/09/05 16:45:25","新北市三重區文化北路43巷23號","121.499533333333","25.0655583333333","6500200","三重區"
"241017","063-VK","2017/09/05 16:45:29","新北市三重區國隆路2巷2號","121.49344","25.0633633333333","6500200","三重區"
"241024","065-VK","2017/09/05 16:45:12","新北市蘆洲區國道路二段30巷37號","121.474571666667","25.0728016666667","6500200","三重區"
"241002","090-VK","2017/09/05 16:45:32","新北市三重區仁義街241巷29號","121.497066666667","25.0830016666667","6500200","三重區"
"241003","091-VK","2017/09/05 16:45:31","新北市三重區五華街71巷9號","121.492873333333","25.0830133333333","6500200","三重區"
"241026","156-TC","2017/09/05 16:45:30","新北市三重區和平街20號","121.500905","25.06253","6500200","三重區"
"241005","262-UM","2017/09/05 16:45:31","新北市三重區仁華街80巷3號","121.484778333333","25.083205","6500200","三重區"
"241016","266-UM","2017/09/05 16:45:30","新北市三重區大同北路107號","121.494196666667","25.0642033333333","6500200","三重區"
"241022","267-UM","2017/09/05 16:45:17","新北市三重區中華路89號","121.483528333333","25.06294","6500200","三重區"
"241018","268-UM","2017/09/05 16:45:25","新北市三重區正義北路269號","121.495475","25.06997","6500200","三重區"
"241032","269-UM","2017/09/05 16:45:27","新北市三重區重陽路一段120巷1號","121.486376666667","25.0601333333333","6500200","三重區"
"241013","270-UM","2017/09/05 16:45:33","新北市三重區仁壽街68號","121.498048333333","25.0738083333333","6500200","三重區"
"241025","271-UM","2017/09/05 16:45:26","新北市三重區中正北路373號","121.472063333333","25.0718866666667","6500200","三重區"
"241007","412-TH","2017/09/05 16:45:20","新北市三重區三和路四段165-2號","121.483325","25.078695","6500200","三重區"
"241020","413-TH","2017/09/05 16:45:26","新北市三重區忠孝路二段34號","121.485863333333","25.0710516666667","6500200","三重區"
"241004","475-VK","2017/09/05 16:45:16","新北市三重區五福街2號","121.4932","25.0817","6500200","三重區"
"241019","478-VK","2017/09/05 16:45:24","新北市三重區力行路一段161號","121.484963333333","25.06919","6500200","三重區"
"241030","480-VK","2017/09/05 16:45:23","新北市三重區環河南路247號","121.491535","25.05088","6500200","三重區"
"241014","543-UM","2017/09/05 16:45:29","新北市三重區長榮路75號","121.502581666667","25.069155","6500200","三重區"
"241023","545-UM","2017/09/05 16:45:20","新北市三重區洛陽街62巷1號","121.481316666667","25.0629566666667","6500200","三重區"
"241001","547-UM","2017/09/05 16:45:25","新北市三重區仁政街86巷10號","121.492","25.0774616666667","6500200","三重區"
"241006","887-TS","2017/09/05 16:45:16","新北市三重區力行路二段156號","121.482725","25.0762466666667","6500200","三重區"
"241012","941-UM","2017/09/05 16:45:25","新北市三重區仁興街13號","121.499891666667","25.07409","6500200","三重區"
"241029","942-UM","2017/09/05 16:45:26","新北市三重區集美街202號","121.491098333333","25.053975","6500200","三重區"
"241033","AAC-255","2017/09/05 16:45:30","新北市三重區光華路69號","121.466735","25.059775","6500200","三重區"
"235026","800-TS","2017/09/05 16:45:17","新北市中和區員山路36巷16-3號","121.485008333333","24.991415","6500300","中和區"
"247004","336-TH","2017/09/05 16:45:30","新北市蘆洲區長榮路106號","121.461865","25.08413","6501400","蘆洲區"
"247016","057-VK","2017/09/05 16:45:12","新北市蘆洲區中正路216號","121.466431666667","25.0886566666667","6501400","蘆洲區"
"247018","001-UY","2017/09/05 16:45:23","新北市蘆洲區中正路520巷9號","121.461938333333","25.0991083333333","6501400","蘆洲區"
"224006","676-BX","2017/09/05 16:45:16","新北市瑞芳區大寮路356-1號","121.784833333333","25.10329","6501200","瑞芳區"
"224009","285-BY","2017/09/05 16:45:27","新北市瑞芳區民權街3-1號","121.809235","25.1083666666667","6501200","瑞芳區"
"224008","275-VK","2017/09/05 16:45:21","新北市瑞芳區逢甲路20-1號","121.80933","25.1084083333333","6501200","瑞芳區"
"224007","273-VK","2017/09/05 16:45:26","新北市瑞芳區中央路48巷吉祥園8號","121.759456666667","25.1035566666667","6501200","瑞芳區"
"224005","271-BY","2017/09/05 16:45:28","新北市瑞芳區洞頂路132-1號","121.862183333333","25.1235","6501200","瑞芳區"
"227009","642-TC","2017/09/05 16:45:22","新北市雙溪區牡丹里中正路101號","121.861836666667","25.0473316666667","6502500","雙溪區"
"227003","400-TW","2017/09/05 16:45:22","新北市雙溪區外柑里外柑腳64號","121.807765","25.017825","6502500","雙溪區"
"251014","180-VK","2017/09/05 16:45:22","新北市淡水區中山北路三段131號","121.445031666667","25.1956816666667","6501000","淡水區"
"251008","181-VK","2017/09/05 16:45:15","新北市淡水區樹梅坑20號","121.47453","25.14284","6501000","淡水區"
"251016","442-VK","2017/09/05 16:45:24","新北市淡水區新興街117號","121.440356666667","25.1804466666667","6501000","淡水區"
"252002","178-VK","2017/09/05 16:45:16","新北市三芝區茂長里陳厝坑15-1號","121.515798333333","25.25507","6502100","三芝區"
"236065","105-UM","2017/09/05 16:21:38","新北市土城區城林路6巷80號","121.438625","24.9797983333333","6501300","土城區"
"242061","362-BY","2017/09/05 16:45:29","新北市新莊區新泰路255巷83號","121.442385","25.0387066666667","6500500","新莊區"
"238018","571-TV","2017/09/05 16:45:24","新北市樹林區育德街78-1號","121.387311666667","24.9681016666667","6500700","樹林區"
"238001","282-BY","2017/09/05 13:43:40","新北市樹林區育德街78-1號","121.387873333333","24.9681533333333","6500700","樹林區"
"221012","276-VK","2017/09/05 13:43:08","新北市汐止區汐萬路一段256巷3號","121.653458333333","25.07465","6501100","汐止區"
