"lineid","car","time","location","longitude","latitude","cityid","cityname"
"234046","148-BY","2017/09/05 19:57:18","新北市永和區成功路一段80號","121.526336666667","25.0031183333333","6500400","永和區"
"234013","149-BY","2017/09/05 19:57:32","新北市永和區保安路292號","121.505001666667","25.011665","6500400","永和區"
"234007","207-UY","2017/09/05 19:57:32","新北市永和區保生路22巷10號","121.50739","25.0080616666667","6500400","永和區"
"234081","298-R6","2017/09/05 19:57:29","新北市永和區永亨路98號","121.523015","25.0047116666667","6500400","永和區"
"234038","336-UY","2017/09/05 19:57:29","新北市永和區成功路二段62號","121.526661666667","24.999645","6500400","永和區"
"234064","337-UY","2017/09/05 19:57:34","新北市永和區中正路368巷1弄16號","121.518818333333","25.0009183333333","6500400","永和區"
"234086","338-UY","2017/09/05 19:57:23","新北市永和區永利路44號","121.518791666667","25.0054583333333","6500400","永和區"
"234070","552-UM","2017/09/05 19:57:19","新北市永和區中正路614號","121.516948333333","25.0075483333333","6500400","永和區"
"234054","553-UM","2017/09/05 19:57:35","新北市永和區竹林路37號","121.517831666667","25.0142266666667","6500400","永和區"
"234017","745-BX","2017/09/05 19:57:33","新北市永和區文化路115號","121.5127","25.0151083333333","6500400","永和區"
"234030","746-BX","2017/09/05 19:57:31","新北市永和區民權路84號","121.51986","24.9969783333333","6500400","永和區"
"234061","AAD-866","2017/09/05 19:57:27","新北市永和區中正路230號","121.516205","24.9980183333333","6500400","永和區"
"234042","862-TW","2017/09/05 19:57:22","新北市永和區中和路389巷13號","121.508055","25.0010466666667","6500400","永和區"
"234050","863-TW","2017/09/05 19:57:35","新北市永和區永平路247號","121.506533333333","25.01285","6500400","永和區"
"234026","9371-KE","2017/09/05 19:57:37","新北市永和區保平路212號","121.509813333333","25.0059866666667","6500400","永和區"
"234011","9373-KE","2017/09/05 19:57:20","新北市永和區仁愛路352巷92弄5號","121.501201666667","25.0082183333333","6500400","永和區"
"249005","172-UM","2017/09/05 19:57:31","新北市八里區長坑口40-3號","121.388325","25.1300383333333","6502300","八里區"
"249001","173-UM","2017/09/05 19:57:23","新北市八里區中華路二段310號","121.403751666667","25.1484316666667","6502300","八里區"
"249004","303-UY","2017/09/05 19:57:33","新北市八里區仁愛路129號","121.409793333333","25.158725","6502300","八里區"
"249002","305-UY","2017/09/05 19:57:24","新北市八里區頂寮二街1號","121.450905","25.1237566666667","6502300","八里區"
"249003","759-BX","2017/09/05 19:57:30","新北市八里區中華路二段560巷3號","121.398545","25.1451133333333","6502300","八里區"
"248014","025-BX","2017/09/05 19:57:18","新北市五股區五福路11-6號","121.434168333333","25.08874","6501500","五股區"
"248016","026-BX","2017/09/05 19:57:30","新北市五股區成泰路三段577巷80弄7號","121.449505","25.1043166666667","6501500","五股區"
"248008","095-VK","2017/09/05 19:57:19","新北市五股區四維路155巷6弄4號","121.467571666667","25.0746116666667","6501500","五股區"
"248020","225-UY","2017/09/05 19:57:27","新北市五股區中直路26-1號","121.42612","25.11141","6501500","五股區"
"248012","247-BX","2017/09/05 19:57:37","新北市五股區成泰路二段64號","121.437365","25.0821283333333","6501500","五股區"
"248010","272-BY","2017/09/05 19:57:23","新北市五股區登林路92-5號","121.428458333333","25.0697283333333","6501500","五股區"
"248004","677-BX","2017/09/05 19:57:19","新北市五股區成泰路一段103號","121.435735","25.0708783333333","6501500","五股區"
"248002","678-BX","2017/09/05 19:57:29","新北市五股區成泰路三段553號","121.452016666667","25.1017616666667","6501500","五股區"
"234077","969-R7","2017/09/05 19:57:35","新北市永和區民有街26號","121.516766666667","24.9963566666667","6500400","永和區"
"234074","AAC-211","2017/09/05 19:57:29","新北市永和區竹林路179巷35號","121.522175","25.010255","6500400","永和區"
"234067","AAC-212","2017/09/05 19:57:26","新北市永和區保平路236巷48號","121.507675","25.0068366666667","6500400","永和區"
"234003","AAC-295","2017/09/05 19:57:18","新北市永和區永和路二段8號","121.514441666667","25.0101966666667","6500400","永和區"
"244019","403-UM","2017/09/05 19:57:33","新北市林口區中山路598號","121.375635","25.0858883333333","6501700","林口區"
"244002","657-BX","2017/09/05 15:46:23","新北市林口區粉寮路二段160巷40號","121.405633333333","25.0911016666667","6501700","林口區"
"243013","AAD-798","2017/09/05 19:57:37","新北市泰山區應化街7號","121.423855","25.0437316666667","6501600","泰山區"
"243009","297-R6","2017/09/05 19:57:35","新北市泰山區楓江路16巷6號","121.433745","25.0620816666667","6501600","泰山區"
"243015","380-SR","2017/09/05 19:57:29","新北市泰山區明志路二段214巷9號","121.426755","25.0488183333333","6501600","泰山區"
"243014","421-VK","2017/09/05 19:57:36","新北市泰山區泰林路二段121號","121.434221666667","25.0596016666667","6501600","泰山區"
"243010","548-UM","2017/09/05 19:57:32","新北市泰山區民生路11號","121.429676666667","25.0526833333333","6501600","泰山區"
"243011","549-UM","2017/09/05 19:57:27","新北市泰山區明志路三段196巷39號","121.421685","25.0398533333333","6501600","泰山區"
"243012","646-TV","2017/09/05 19:57:21","新北市泰山區全興路19號","121.432453333333","25.058865","6501600","泰山區"
"243016","680-BX","2017/09/05 19:57:19","新北市泰山區中山路二段927號","121.422666666667","25.0333683333333","6501600","泰山區"
"222003","436-BY","2017/09/05 19:57:29","新北市深坑區深南路32號","121.621216666667","25.00804","6501800","深坑區"
"222002","659-BX","2017/09/05 19:57:30","新北市深坑區北深路二段55巷12弄14號","121.61862","25.0032383333333","6501800","深坑區"
"222001","696-SL","2017/09/05 19:57:15","新北市深坑區北深路三段83號","121.606655","25.001345","6501800","深坑區"
"231041","002-UM","2017/09/05 19:57:20","新北市新店區三民路191號","121.535488333333","24.9756033333333","6500600","新店區"
"231059","046-UY","2017/09/05 19:57:25","新北市新店區安康路二段149號","121.511106666667","24.959765","6500600","新店區"
"231061","047-UY","2017/09/05 19:57:29","新北市新店區安民街337號","121.51719","24.9749266666667","6500600","新店區"
"231060","106-UY","2017/09/05 19:57:20","新北市新店區安康路二段362-5號","121.50161","24.9572583333333","6500600","新店區"
"231051","107-UY","2017/09/05 19:57:29","新北市新店區中央三街24號","121.528706666667","24.9737933333333","6500600","新店區"
"231048","108-UY","2017/09/05 19:57:34","新北市新店區中興路二段226號","121.547948333333","24.9751633333333","6500600","新店區"
"231053","187-VK","2017/09/05 19:57:14","新北市新店區新烏路二段424號","121.55186","24.90902","6500600","新店區"
"231069","189-VK","2017/09/05 12:06:25","新北市新店區安華路28-1號","121.519471666667","24.960985","6500600","新店區"
"231057","256-BX","2017/09/05 19:57:32","新北市新店區花園二路一段11號","121.555528333333","24.9325166666667","6500600","新店區"
"231063","268-BY","2017/09/05 19:57:23","新北市新店區黎明路3號","121.503331666667","24.95229","6500600","新店區"
"231046","278-BY","2017/09/05 19:57:29","新北市新店區中央路97號","121.531265","24.9750216666667","6500600","新店區"
"231050","AAD-862","2017/09/05 19:57:18","新北市新店區中生路61號","121.564708333333","24.9522516666667","6500600","新店區"
"231040","355-BY","2017/09/05 19:57:20","新北市新店區中正路106號","121.543113333333","24.9704483333333","6500600","新店區"
"231055","3713-VJ","2017/09/05 19:57:19","新北市新店區力行路74-1號","121.538673333333","24.9662933333333","6500600","新店區"
"231056","4716-K9","2017/09/05 19:57:31","新北市新店區民權路42巷7號","121.539925","24.983355","6500600","新店區"
"231067","4772-VM","2017/09/05 19:57:18","新北市新店區太平路57號","121.532671666667","24.9589933333333","6500600","新店區"
"231065","512-UM","2017/09/05 19:57:33","新北市新店區安祥路109巷1弄6號","121.475418333333","24.9588866666667","6500600","新店區"
"231054","513-UM","2017/09/05 19:57:23","新北市新店區光明街22號","121.538048333333","24.95867","6500600","新店區"
"231064","515-UM","2017/09/05 19:57:17","新北市新店區光華街5巷22號","121.517613333333","24.96825","6500600","新店區"
"231042","616-UM","2017/09/05 19:57:18","新北市新店區中興路一段278號","121.545536666667","24.9683183333333","6500600","新店區"
"231045","617-UM","2017/09/05 19:57:21","新北市新店區北宜路二段353-3號","121.558435","24.954215","6500600","新店區"
"231068","718-UY","2017/09/05 19:57:17","新北市新店區安華路28-1號","121.519285","24.9610983333333","6500600","新店區"
"231049","719-UM","2017/09/05 19:57:16","新北市新店區建國路219號","121.537625","24.981215","6500600","新店區"
"231062","720-UM","2017/09/05 19:57:23","新北市新店區華城路36巷1-5號","121.527628333333","24.9553816666667","6500600","新店區"
"231044","897-TW","2017/09/05 19:57:17","新北市新店區復興路53號","121.536096666667","24.987255","6500600","新店區"
"231043","899-TW","2017/09/05 19:57:32","新北市新店區中正路263-2號","121.538366666667","24.9736533333333","6500600","新店區"
"231066","AKT-0513","2017/09/05 19:57:21","新北市新店區柴埕路20巷2號","121.513941666667","24.9658516666667","6500600","新店區"
"241011","013-R5","2017/09/05 19:57:33","新北市三重區三和路三段33號","121.495883333333","25.0711016666667","6500200","三重區"
"241028","022-UY","2017/09/05 19:57:20","新北市三重區中正南路30號","121.49375","25.0603233333333","6500200","三重區"
"241008","059-VK","2017/09/05 19:57:18","新北市三重區力行路二段136巷49弄12號","121.479603333333","25.07538","6500200","三重區"
"241009","060-VK","2017/09/05 19:57:24","新北市三重區三和路四段390巷54號","121.479948333333","25.0784516666667","6500200","三重區"
"241031","061-VK","2017/09/05 19:57:28","新北市三重區重新路四段184巷5號","121.486746666667","25.05498","6500200","三重區"
"241015","062-VK","2017/09/05 19:57:29","新北市三重區三和路二段2-2號","121.501421666667","25.0666","6500200","三重區"
"241017","063-VK","2017/09/05 19:57:29","新北市三重區重陽路三段142-1號","121.489401666667","25.0672","6500200","三重區"
"241024","065-VK","2017/09/05 19:57:35","新北市三重區大勇街51號","121.481278333333","25.0717333333333","6500200","三重區"
"241003","091-VK","2017/09/05 19:57:33","新北市三重區五華街130號","121.49168","25.083575","6500200","三重區"
"241026","156-TC","2017/09/05 19:57:30","新北市三重區中央南路13號","121.501161666667","25.0626983333333","6500200","三重區"
"241016","266-UM","2017/09/05 19:57:32","新北市三重區正義北路46號","121.497395","25.0637133333333","6500200","三重區"
"241022","267-UM","2017/09/05 19:57:25","新北市三重區新北大道一段9號","121.488983333333","25.0607066666667","6500200","三重區"
"241018","268-UM","2017/09/05 19:57:25","新北市三重區正義北路195號","121.496141666667","25.068195","6500200","三重區"
"241032","269-UM","2017/09/05 19:57:29","新北市三重區重陽路一段44巷91號","121.483881666667","25.0577116666667","6500200","三重區"
"241013","270-UM","2017/09/05 19:57:31","新北市三重區三和路三段158號","121.492928333333","25.0730416666667","6500200","三重區"
"241025","271-UM","2017/09/05 19:57:24","新北市三重區頂崁街210巷16號","121.476401666667","25.0677466666667","6500200","三重區"
"241007","412-TH","2017/09/05 19:57:20","新北市三重區三和路四段155巷46號","121.484676666667","25.0787533333333","6500200","三重區"
"241020","413-TH","2017/09/05 19:57:21","新北市三重區忠孝路一段101號","121.48951","25.0722066666667","6500200","三重區"
"241004","475-VK","2017/09/05 19:57:28","新北市三重區仁愛街377巷132號","121.493533333333","25.08194","6500200","三重區"
"241019","478-VK","2017/09/05 19:57:24","新北市三重區大智街186號","121.49106","25.070295","6500200","三重區"
"241030","480-VK","2017/09/05 19:57:25","新北市三重區成功路187號","121.485788333333","25.0529083333333","6500200","三重區"
"241014","543-UM","2017/09/05 19:57:29","新北市三重區三和路二段142號","121.499566666667","25.0683033333333","6500200","三重區"
"241023","545-UM","2017/09/05 19:57:20","新北市三重區頂崁街166號","121.477606666667","25.0657383333333","6500200","三重區"
"241001","547-UM","2017/09/05 19:57:35","新北市三重區仁愛街285號","121.492868333333","25.0790966666667","6500200","三重區"
"241035","743-BX","2017/09/05 19:57:15","新北市三重區大榮街7號","121.498195","25.0630683333333","6500200","三重區"
"241006","887-TS","2017/09/05 19:57:36","新北市三重區力行路二段76巷1弄2號","121.481523333333","25.0735883333333","6500200","三重區"
"241012","941-UM","2017/09/05 19:57:32","新北市三重區仁厚街100號","121.501208333333","25.076985","6500200","三重區"
"241029","942-UM","2017/09/05 19:57:20","新北市三重區重新路三段204號","121.48998","25.058535","6500200","三重區"
"241033","AAC-255","2017/09/05 19:57:26","新北市三重區中興北街21號","121.469488333333","25.04643","6500200","三重區"
"235066","003-UY","2017/09/05 19:57:32","新北市中和區光華街33號","121.504935","25.00397","6500300","中和區"
"235056","096-UM","2017/09/05 19:57:32","新北市中和區中山路三段186號","121.472388333333","25.0065066666667","6500300","中和區"
"235039","097-UM","2017/09/05 19:57:18","新北市中和區大勇街25巷36號","121.515955","24.9937883333333","6500300","中和區"
"235040","150-BY","2017/09/05 19:57:31","新北市中和區景安路79巷25號","121.507116666667","24.9966133333333","6500300","中和區"
"235058","151-BY","2017/09/05 19:57:29","新北市中和區員山路217號","121.48121","24.9979333333333","6500300","中和區"
"235055","183-VK","2017/09/05 03:45:22","新北市中和區員山路36巷16-3號","121.485051666667","24.9913083333333","6500300","中和區"
"235038","185-VK","2017/09/05 19:57:35","新北市中和區大仁街20巷50號","121.520106666667","24.9933766666667","6500300","中和區"
"235049","186-VK","2017/09/05 19:57:27","新北市中和區中興街6號","121.501255","24.9951416666667","6500300","中和區"
"235067","255-BX","2017/09/05 19:57:26","新北市中和區新生街186巷1弄5號","121.483398333333","24.9994183333333","6500300","中和區"
"235044","293-VK","2017/09/05 19:57:17","新北市中和區中正路5號","121.503363333333","24.9931416666667","6500300","中和區"
"235072","301-VK","2017/09/05 19:57:30","新北市中和區連城路176號","121.493091666667","24.997135","6500300","中和區"
"235043","352-BY","2017/09/05 19:57:30","新北市中和區興南路二段159巷18號","121.505065","24.982955","6500300","中和區"
"235051","376-QA","2017/09/05 19:57:27","新北市中和區中興街180巷50弄1號","121.498916666667","24.9888233333333","6500300","中和區"
"235068","377-QA","2017/09/05 19:57:36","新北市中和區莊敬路16巷2號","121.499886666667","25.0041733333333","6500300","中和區"
"235061","378-QA","2017/09/05 19:57:26","新北市中和區員山路174巷11號","121.48208","25.0000383333333","6500300","中和區"
"235050","4979-A6","2017/09/05 19:57:20","新北市中和區景平路155巷4號","121.513496666667","24.9916833333333","6500300","中和區"
"235069","4980-A6","2017/09/05 19:57:18","新北市中和區景新街34巷2號","121.503351666667","24.99923","6500300","中和區"
"235042","551-UM","2017/09/05 19:57:25","新北市中和區宜安路135號","121.509581666667","24.99846","6500300","中和區"
"235070","558-UM","2017/09/05 19:57:27","新北市中和區連勝街31號","121.498426666667","24.9977783333333","6500300","中和區"
"235054","640-BX","2017/09/05 19:57:34","新北市中和區莒光路65號","121.472371666667","25.003395","6500300","中和區"
"235060","647-TV","2017/09/05 19:57:32","新北市中和區員山路396號","121.48059","25.0045966666667","6500300","中和區"
"235047","732-UM","2017/09/05 19:57:23","新北市中和區和平街27-2號","121.50771","24.9909916666667","6500300","中和區"
"235046","733-UM","2017/09/05 19:57:29","新北市中和區捷運路6號","121.510035","24.9895733333333","6500300","中和區"
"235057","801-TS","2017/09/05 19:57:23","新北市中和區員山路187號","121.48123","24.9971433333333","6500300","中和區"
"235041","802-TS","2017/09/05 19:57:28","新北市中和區永貞路225號","121.513518333333","25.0036283333333","6500300","中和區"
"235052","805-TS","2017/09/05 19:57:20","新北市中和區華新街144巷9號","121.507491666667","24.9831233333333","6500300","中和區"
"235048","896-TW","2017/09/05 19:57:21","新北市中和區興南路一段80號","121.510365","24.98987","6500300","中和區"
"235053","900-TW","2017/09/05 19:57:28","新北市中和區國光街183號","121.467618333333","25.0015916666667","6500300","中和區"
"235064","911-UM","2017/09/05 19:54:32","新北市中和區中山路二段228號","121.499126666667","25.0028933333333","6500300","中和區"
"235037","AAC-213","2017/09/05 19:57:25","新北市中和區自立路175號","121.52326","24.9920883333333","6500300","中和區"
"235059","AAC-215","2017/09/05 19:57:14","新北市中和區圓通路305巷25弄2號","121.494871666667","24.9891716666667","6500300","中和區"
"220068","013-TV","2017/09/05 19:57:29","新北市板橋區中山路二段光榮巷30弄2號","121.48473","25.0206233333333","6500100","板橋區"
"220065","072-UY","2017/09/05 19:57:24","新北市板橋區海山路29號","121.467586666667","25.0090316666667","6500100","板橋區"
"220086","073-UY","2017/09/05 19:57:20","新北市板橋區館前西路160巷3號","121.45257","25.0089033333333","6500100","板橋區"
"220106","075-UY","2017/09/05 19:57:16","新北市板橋區民治街71巷1弄5號","121.48013","25.0327816666667","6500100","板橋區"
"220069","AAD-861","2017/09/05 19:57:25","新北市板橋區南雅南路二段96號","121.453748333333","25.001165","6500100","板橋區"
"220102","120-SR","2017/09/05 19:57:35","新北市板橋區仁化街67號","121.475706666667","25.0318","6500100","板橋區"
"247002","337-TH","2017/09/05 19:57:20","新北市蘆洲區永樂街22號","121.458661666667","25.08851","6501400","蘆洲區"
"247004","336-TH","2017/09/05 19:57:34","新北市蘆洲區永安南路二段328巷17弄16號","121.45569","25.0839416666667","6501400","蘆洲區"
"247010","335-TH","2017/09/05 19:57:15","新北市三重區集賢路186號","121.484035","25.08827","6501400","蘆洲區"
"247016","057-VK","2017/09/05 19:57:31","新北市蘆洲區中正路144號","121.468981666667","25.085275","6501400","蘆洲區"
"247006","056-VK","2017/09/05 19:57:18","新北市蘆洲區九芎街139巷3號","121.46564","25.0793283333333","6501400","蘆洲區"
"247008","053-VK","2017/09/05 19:57:33","新北市蘆洲區中山一路135巷6弄12號","121.475336666667","25.0811116666667","6501400","蘆洲區"
"247014","007-UY","2017/09/05 19:57:32","新北市蘆洲區成功路185號","121.471848333333","25.082985","6501400","蘆洲區"
"247024","002-UY","2017/09/05 19:57:32","新北市蘆洲區光榮路120巷22弄26-1號","121.464635","25.0871283333333","6501400","蘆洲區"
"226004","205-ST","2017/09/05 19:57:17","新北市平溪區靜安路二段295號","121.73314","25.025815","6502400","平溪區"
"228003","828-UM","2017/09/05 19:57:22","新北市貢寮區仁理村仁和路33號","121.923931666667","25.0537733333333","6502600","貢寮區"
"227009","642-TC","2017/09/05 19:57:22","新北市雙溪區新基里新基南街25號","121.86624","25.0381283333333","6502500","雙溪區"
"227003","400-TW","2017/09/05 19:57:32","新北市雙溪區雙溪里長安街16號","121.864993333333","25.034745","6502500","雙溪區"
"208002","742-BX","2017/09/05 19:57:30","新北市金山區忠孝一路19巷26號","121.63706","25.2174283333333","6502700","金山區"
"208003","665-BX","2017/09/05 19:57:22","新北市金山區香園6號","121.634451666667","25.247575","6502700","金山區"
"208001","761-BX","2017/09/05 19:57:34","新北市金山區南勢湖16-2號","121.620843333333","25.2191166666667","6502700","金山區"
"251004","009-UM","2017/09/05 19:57:19","新北市淡水區民權路179巷20號","121.460513333333","25.1347066666667","6501000","淡水區"
"251005","010-UM","2017/09/05 19:57:21","新北市淡水區學府路104號","121.44977","25.171695","6501000","淡水區"
"251014","180-VK","2017/09/05 19:57:22","新北市淡水區石頭厝14-23號","121.464951666667","25.2363566666667","6501000","淡水區"
"251008","181-VK","2017/09/05 19:57:35","新北市淡水區淡海路76號","121.423211666667","25.1810216666667","6501000","淡水區"
"251012","441-VK","2017/09/05 19:57:37","新北市淡水區淡金路三段193號","121.448575","25.204555","6501000","淡水區"
"251016","442-VK","2017/09/05 19:57:24","新北市淡水區三塊厝2-1號","121.454615","25.2096116666667","6501000","淡水區"
"251001","559-UM","2017/09/05 19:57:29","新北市淡水區淡金路一段96號","121.45806","25.1741716666667","6501000","淡水區"
"251006","561-UM","2017/09/05 19:57:15","新北市淡水區水碓街39號","121.443971666667","25.1773316666667","6501000","淡水區"
"251009","575-R6","2017/09/05 19:57:22","新北市淡水區中山路18-1號","121.444446666667","25.1694516666667","6501000","淡水區"
"251011","650-BX","2017/09/05 19:57:37","新北市淡水區中山北路三段165-1號","121.444558333333","25.1970466666667","6501000","淡水區"
"207003","550-UM","2017/09/05 19:57:25","新北市萬里區磺潭里公館崙5號","121.641845","25.2142316666667","6502800","萬里區"
"207004","225-TW","2017/09/05 19:57:20","新北市萬里區北基里忠二街35號","121.685646666667","25.1757366666667","6502800","萬里區"
"252002","178-VK","2017/09/05 19:57:16","新北市三芝區三民街39巷14號","121.50522","25.2577716666667","6502100","三芝區"
"252001","702-TV","2017/09/05 19:57:31","新北市三芝區公正街9號","121.49982","25.257595","6502100","三芝區"
"237004","078-UY","2017/09/05 19:57:20","新北市三峽區嘉添135號","121.369255","24.911385","6500900","三峽區"
"237007","153-BY","2017/09/05 19:57:32","新北市三峽區二鬮路136巷22弄47號","121.357491666667","24.9104516666667","6500900","三峽區"
"237009","210-TH","2017/09/05 19:57:30","新北市三峽區民族街78巷9號","121.368775","24.92971","6500900","三峽區"
"237012","275-BY","2017/09/05 19:57:29","新北市三峽區中華路5-1號","121.374776666667","24.9327133333333","6500900","三峽區"
"237008","302-VK","2017/09/05 19:57:22","新北市三峽區中正路一段292巷18號","121.370773333333","24.9260016666667","6500900","三峽區"
"237014","433-BY","2017/09/05 19:57:31","新北市三峽區介壽路一段15號","121.375433333333","24.93359","6500900","三峽區"
"237006","5529-G3","2017/09/05 19:57:22","新北市三峽區正義街11-5號","121.369675","24.9196083333333","6500900","三峽區"
"237016","649-BX","2017/09/05 19:57:34","新北市三峽區介壽路二段138巷1弄166-2號","121.403373333333","24.9274266666667","6500900","三峽區"
"237005","AKY-6261","2017/09/05 19:57:27","新北市三峽區民生街57號","121.37516","24.9361583333333","6500900","三峽區"
"236070","105-UM","2017/09/05 19:57:18","新北市土城區千歲路13號","121.440978333333","24.9695866666667","6501300","土城區"
"236043","107-UM","2017/09/05 19:57:27","新北市土城區裕民路185巷7號","121.453881666667","24.984795","6501300","土城區"
"236079","166-UM","2017/09/05 19:57:21","新北市土城區福安街106號","121.417333333333","24.9639883333333","6501300","土城區"
"236031","253-BX","2017/09/05 19:57:25","新北市土城區中央路一段252-1號","121.444338333333","24.984555","6501300","土城區"
"236027","269-VK","2017/09/05 19:57:18","新北市土城區員林街86號","121.444811666667","24.9769983333333","6501300","土城區"
"236038","271-VK","2017/09/05 19:57:25","新北市土城區國際路139巷52號","121.468325","24.97749","6501300","土城區"
"236023","401-BY","2017/09/05 19:57:36","新北市土城區延吉街165巷16號","121.470046666667","24.985455","6501300","土城區"
"236059","912-UM","2017/09/05 19:57:30","新北市土城區中央路一段144號","121.446218333333","24.9874966666667","6501300","土城區"
"236049","913-UM","2017/09/05 19:57:16","新北市土城區金城路二段259號","121.463743333333","24.9858783333333","6501300","土城區"
"236063","915-UM","2017/09/05 19:57:26","新北市土城區金城路三段163巷16號","121.468885","24.989275","6501300","土城區"
"236055","AAC-216","2017/09/05 19:57:25","新北市土城區延和路258號","121.469978333333","24.9894016666667","6501300","土城區"
"242021","AAC-296","2017/09/05 19:57:22","新北市新莊區建中街16巷10號","121.449506666667","25.0380883333333","6500500","新莊區"
"242048","751-BX","2017/09/05 19:57:30","新北市新莊區民安路207巷17號","121.426775","25.02301","6500500","新莊區"
"242029","705-TV","2017/09/05 19:57:30","新北市新莊區中榮街85號","121.4453","25.052875","6500500","新莊區"
"242025","615-BX","2017/09/05 19:57:16","新北市新莊區五工二路86巷23號","121.460121666667","25.06697","6500500","新莊區"
"242023","613-BX","2017/09/05 19:57:36","新北市新莊區化成路354號","121.465826666667","25.049265","6500500","新莊區"
"242027","612-BX","2017/09/05 19:57:32","新北市新莊區立信三街25號","121.442971666667","25.050455","6500500","新莊區"
"242042","497-BY","2017/09/05 19:57:26","新北市新莊區青山路一段28巷3號","121.410706666667","25.0279266666667","6500500","新莊區"
"242037","442-UM","2017/09/05 19:57:23","新北市新莊區建安街57巷2弄1號","121.428563333333","25.0248666666667","6500500","新莊區"
"242051","440-UM","2017/09/05 19:57:20","新北市新莊區民本街27巷2號","121.42822","25.0191566666667","6500500","新莊區"
"242032","415-TV","2017/09/05 19:57:26","新北市新莊區中正路352號","121.444026666667","25.0342616666667","6500500","新莊區"
"242002","413-TV","2017/09/05 19:57:17","新北市新莊區中華路一段2號","121.452118333333","25.0361983333333","6500500","新莊區"
"242039","400-BY","2017/09/05 19:57:18","新北市新莊區民安路287-5號","121.4288","25.0230983333333","6500500","新莊區"
"242061","362-BY","2017/09/05 19:57:25","新北市新莊區瓊林路57號","121.44468","25.02804","6500500","新莊區"
"242005","132-UY","2017/09/05 19:57:37","新北市新莊區化成路314巷15號","121.466698333333","25.0483316666667","6500500","新莊區"
"242034","133-UY","2017/09/05 19:57:25","新北市新莊區建中街91號","121.446698333333","25.0364316666667","6500500","新莊區"
"242019","135-UY","2017/09/05 19:57:26","新北市新莊區民生街15巷3號","121.455533333333","25.0424666666667","6500500","新莊區"
"242044","172-VK","2017/09/05 19:57:28","新北市新莊區新北大道七段712號","121.412313333333","25.026555","6500500","新莊區"
"242007","173-VK","2017/09/05 19:57:27","新北市新莊區思源路593巷5弄6號","121.458915","25.059335","6500500","新莊區"
"242013","175-VK","2017/09/05 19:57:17","新北市新莊區中港路437號","121.452465","25.0479916666667","6500500","新莊區"
"242056","176-VK","2017/09/05 19:57:28","新北市新莊區中正路347巷17-1號","121.447401666667","25.0343933333333","6500500","新莊區"
"242011","346-TH","2017/09/05 19:57:35","新北市新莊區中港路531巷17號","121.450813333333","25.0515066666667","6500500","新莊區"
"242017","348-TH","2017/09/05 19:57:22","新北市新莊區中安街29號","121.452473333333","25.0461483333333","6500500","新莊區"
"242015","350-TH","2017/09/05 19:57:34","新北市新莊區復興路一段47巷9號","121.446826666667","25.0426233333333","6500500","新莊區"
"242009","351-TH","2017/09/05 19:57:34","新北市新莊區昌盛街12號","121.453536666667","25.0499266666667","6500500","新莊區"
"238015","755-BX","2017/09/05 19:57:14","新北市樹林區中山路三段166號","121.389171666667","24.97021","6500700","樹林區"
"238023","601-UM","2017/09/05 19:57:23","新北市樹林區中正路271-1號","121.420931666667","25.0052516666667","6500700","樹林區"
"238018","571-TV","2017/09/05 19:57:23","新北市樹林區育德街78-1號","121.387385","24.9681616666667","6500700","樹林區"
"238024","5061-A6","2017/09/05 19:53:34","新北市樹林區中山路三段210-2號","121.380545","24.9677133333333","6500700","樹林區"
"238021","311-TH","2017/09/05 19:57:24","新北市樹林區佳園路三段101巷38弄36號","121.392041666667","24.9493183333333","6500700","樹林區"
"238025","303-VK","2017/09/05 19:57:30","新北市樹林區中山路三段210-2號","121.380973333333","24.9669266666667","6500700","樹林區"
"238017","283-BY","2017/09/05 19:57:33","新北市樹林區保安街一段343號","121.416885","24.99914","6500700","樹林區"
"238014","282-BY","2017/09/05 19:57:19","新北市樹林區千歲街68號","121.42623","24.99751","6500700","樹林區"
"238020","268-VK","2017/09/05 19:57:18","新北市樹林區中山路三段206-2號","121.383001666667","24.9664683333333","6500700","樹林區"
"239007","AAC-297","2017/09/05 19:49:58","新北市鶯歌區二甲路171-1號","121.344301666667","24.93547","6500800","鶯歌區"
"239006","891-R6","2017/09/05 19:57:19","新北市鶯歌區文化路83號","121.35754","24.95558","6500800","鶯歌區"
"239003","360-BY","2017/09/05 19:57:20","新北市鶯歌區二甲路13-16號","121.344596666667","24.9352433333333","6500800","鶯歌區"
"239002","359-BY","2017/09/05 19:57:25","新北市鶯歌區二甲路171-1號","121.344383333333","24.9354683333333","6500800","鶯歌區"
"239004","193-VK","2017/09/05 19:57:25","新北市鶯歌區二甲路12-2號","121.345515","24.93479","6500800","鶯歌區"
"221036","130-UY","2017/09/05 19:57:35","新北市汐止區新台五路二段85巷15號","121.664145","25.0673316666667","6501100","汐止區"
"221015","131-UY","2017/09/05 19:57:29","新北市汐止區橋東街9號","121.666628333333","25.07602","6501100","汐止區"
"221010","269-BY","2017/09/05 19:57:22","新北市汐止區八連路一段72號","121.646378333333","25.0805966666667","6501100","汐止區"
"221012","276-VK","2017/09/05 13:43:08","新北市汐止區汐萬路一段256巷3號","121.653458333333","25.07465","6501100","汐止區"
"221031","277-VK","2017/09/05 19:57:29","新北市汐止區福德二路55巷1弄5號","121.63422","25.067005","6501100","汐止區"
"221012","278-VK","2017/09/05 19:57:14","新北市汐止區大同路三段302號","121.678516666667","25.0711066666667","6501100","汐止區"
"221023","279-VK","2017/09/05 19:57:19","新北市汐止區明峰街196號","121.6279","25.069515","6501100","汐止區"
"221032","280-BY","2017/09/05 19:57:32","新北市汐止區橫科路18巷12號","121.61772","25.0504566666667","6501100","汐止區"
"221027","281-BY","2017/09/05 19:57:18","新北市汐止區中正路29號","121.662408333333","25.070165","6501100","汐止區"
"221038","297-VK","2017/09/05 19:57:26","新北市汐止區忠孝東路428-3號","121.666081666667","25.0721116666667","6501100","汐止區"
"221029","298-VK","2017/09/05 19:57:33","新北市汐止區樟樹一路137巷26號","121.641045","25.0660033333333","6501100","汐止區"
"221021","299-VK","2017/09/05 19:57:25","新北市汐止區水源路一段143號","121.656068333333","25.0621916666667","6501100","汐止區"
"221008","358-BY","2017/09/05 19:57:31","新北市汐止區康寧街35號","121.618236666667","25.0669183333333","6501100","汐止區"
"221035","622-UM","2017/09/05 19:57:18","新北市汐止區長江街13巷6弄19號","121.655395","25.0718183333333","6501100","汐止區"
"221025","623-UM","2017/09/05 19:57:22","新北市汐止區秀峰路109巷18號","121.660688333333","25.0634766666667","6501100","汐止區"
"221033","647-BX","2017/09/05 19:57:23","新北市汐止區東勢街203號","121.633863333333","25.0418566666667","6501100","汐止區"
"221018","753-BX","2017/09/05 19:57:20","新北市汐止區忠孝東路363號","121.665593333333","25.0707783333333","6501100","汐止區"
"220079","145-BY","2017/09/05 19:57:25","新北市板橋區大智街87號","121.45315","25.0156533333333","6500100","板橋區"
"220080","200-UY","2017/09/05 19:57:30","新北市板橋區大觀路二段37巷10號","121.44726","25.0027533333333","6500100","板橋區"
"220082","610-BX","2017/09/05 19:57:26","新北市板橋區溪崑二街62號","121.427888333333","24.9904516666667","6500100","板橋區"
"220101","245-BX","2017/09/05 19:57:25","新北市板橋區縣民大道三段99號","121.476155","25.022385","6500100","板橋區"
"220097","257-TC","2017/09/05 19:57:31","新北市板橋區文化路一段285巷1號","121.46447","25.0188833333333","6500100","板橋區"
"220091","267-BY","2017/09/05 19:57:21","新北市板橋區懷德街174巷18弄4號","121.478783333333","25.0298116666667","6500100","板橋區"
"220072","277-BY","2017/09/05 19:57:23","新北市板橋區金門街153號","121.432691666667","24.9904333333333","6500100","板橋區"
"220094","280-UM","2017/09/05 19:57:33","新北市板橋區陽明街281號","121.461951666667","25.0262366666667","6500100","板橋區"
"220053","285-VK","2017/09/05 19:57:30","新北市板橋區永豐街24號","121.474653333333","25.0170883333333","6500100","板橋區"
"220083","286-VK","2017/09/05 19:57:17","新北市板橋區僑中二街8巷11號","121.446593333333","25.011225","6500100","板橋區"
"220090","288-VK","2017/09/05 19:57:30","新北市板橋區幸福路32巷2弄25號","121.460945","25.0216716666667","6500100","板橋區"
"220061","295-UM","2017/09/05 19:57:25","新北市板橋區觀光街1巷1號","121.472253333333","25.0153966666667","6500100","板橋區"
"220075","297-UM","2017/09/05 19:57:31","新北市板橋區金華街10巷48弄45號","121.458568333333","25.0201033333333","6500100","板橋區"
"220067","299-UM","2017/09/05 19:57:16","新北市板橋區長安街331巷95號","121.47201","25.012505","6500100","板橋區"
"220062","305-R5","2017/09/05 19:57:26","新北市板橋區光復街172巷31弄5-2號","121.486321666667","25.0190083333333","6500100","板橋區"
"220092","307-R5","2017/09/05 19:57:28","新北市板橋區新海路135巷39號","121.459405","25.0225933333333","6500100","板橋區"
"220098","317-R6","2017/09/05 19:57:18","新北市板橋區英士路153號","121.459698333333","25.0235716666667","6500100","板橋區"
"220081","461-BY","2017/09/05 19:57:26","新北市板橋區大觀路一段28巷88號","121.44991","25.0110733333333","6500100","板橋區"
"220064","486-VK","2017/09/05 19:57:27","新北市板橋區館前東路65號","121.464051666667","25.0079033333333","6500100","板橋區"
"220089","487-VK","2017/09/05 19:57:30","新北市板橋區龍泉街110號","121.456806666667","25.0245266666667","6500100","板橋區"
"220088","491-VK","2017/09/05 19:57:30","新北市板橋區大同街69號","121.479423333333","25.0279883333333","6500100","板橋區"
"220035","560-BX","2017/09/05 19:57:22","新北市板橋區新生街23巷3弄1號","121.456133333333","25.021545","6500100","板橋區"
"220103","561-BX","2017/09/05 19:57:27","新北市板橋區陽明街29巷1弄11號","121.464815","25.0214783333333","6500100","板橋區"
"220084","568-UM","2017/09/05 19:57:29","新北市板橋區滿平街84巷80號","121.425993333333","24.9871583333333","6500100","板橋區"
"220063","609-BX","2017/09/05 19:57:32","新北市板橋區三民路一段94號","121.479371666667","25.0215416666667","6500100","板橋區"
"220071","630-UY","2017/09/05 19:57:27","新北市板橋區信義路279巷23號","121.465103333333","24.99044","6500100","板橋區"
"220057","686-BX","2017/09/05 19:57:32","新北市板橋區四川路一段338號","121.456676666667","24.9967416666667","6500100","板橋區"
"220077","687-BX","2017/09/05 19:57:31","新北市板橋區僑中一街124巷20弄2號","121.446208333333","25.0139433333333","6500100","板橋區"
"220093","689-BX","2017/09/05 19:57:15","新北市板橋區文化路二段503號","121.476093333333","25.0344366666667","6500100","板橋區"
"220054","741-BX","2017/09/05 19:57:33","新北市板橋區忠孝路201巷66號","121.464776666667","25.0041433333333","6500100","板橋區"
"220055","827-TW","2017/09/05 19:57:34","新北市板橋區仁愛路62巷14弄1號","121.459943333333","24.9984316666667","6500100","板橋區"
"220096","831-TW","2017/09/05 19:57:34","新北市板橋區莊敬路168號","121.471583333333","25.02241","6500100","板橋區"
"220074","895-R6","2017/09/05 19:57:13","新北市板橋區大東街1號","121.456576666667","25.0095233333333","6500100","板橋區"
"220073","985-R7","2017/09/05 19:57:20","新北市板橋區南雅西路二段295號","121.45209","25.01556","6500100","板橋區"
"220070","AAC-253","2017/09/05 19:57:23","新北市板橋區民族路83-1號","121.465721666667","25.008455","6500100","板橋區"
