"lineid","car","time","location","longitude","latitude","cityid","cityname"
"244019","403-UM","2017/09/05 20:56:03","新北市林口區粉寮69號","121.405103333333","25.0908066666667","6501700","林口區"
"244002","657-BX","2017/09/05 15:46:23","新北市林口區粉寮路二段160巷40號","121.405633333333","25.0911016666667","6501700","林口區"
"244025","837-TS","2017/09/05 20:08:53","新北市林口區粉寮路二段160巷28號","121.40516","25.090765","6501700","林口區"
"243011","549-UM","2017/09/05 20:59:27","新北市泰山區泰林路三段745巷145號","121.405471666667","25.067815","6501600","泰山區"
"231059","046-UY","2017/09/05 20:59:25","新北市新店區僑信路94號","121.499931666667","24.947715","6500600","新店區"
"231061","047-UY","2017/09/05 20:59:29","新北市新店區永安街64號","121.519481666667","24.9868833333333","6500600","新店區"
"231060","106-UY","2017/09/05 20:59:20","新北市新店區安康路三段525巷41號","121.481716666667","24.944715","6500600","新店區"
"231051","107-UY","2017/09/05 20:59:29","新北市新店區民生路156巷88號","121.527411666667","24.9820533333333","6500600","新店區"
"231048","108-UY","2017/09/05 20:59:27","新北市新店區文化路92號","121.544958333333","24.9825116666667","6500600","新店區"
"231053","187-VK","2017/09/05 20:59:29","新北市新店區新烏路一段18號","121.54659","24.9512266666667","6500600","新店區"
"231069","189-VK","2017/09/05 12:06:25","新北市新店區安華路28-1號","121.519471666667","24.960985","6500600","新店區"
"231057","256-BX","2017/09/05 20:59:32","新北市新店區光明街1-1號","121.538053333333","24.9590216666667","6500600","新店區"
"231063","268-BY","2017/09/05 20:59:23","新北市新店區富貴街9巷2號","121.494083333333","24.94906","6500600","新店區"
"231050","AAD-862","2017/09/05 20:59:18","新北市新店區三民路117巷6弄1號","121.534181666667","24.97123","6500600","新店區"
"231040","355-BY","2017/09/05 20:59:20","新北市新店區中正路146號","121.541778333333","24.971625","6500600","新店區"
"231058","3712-VJ","2017/09/05 20:59:22","新北市新店區平等街48巷8號","121.535796666667","24.9730583333333","6500600","新店區"
"231065","512-UM","2017/09/05 20:59:33","新北市新店區安祥路67巷28弄1號","121.484815","24.95944","6500600","新店區"
"231054","513-UM","2017/09/05 20:59:23","新北市新店區北新路一段126巷27號","121.543311666667","24.9695433333333","6500600","新店區"
"231064","515-UM","2017/09/05 20:59:30","新北市新店區安民街301號","121.517563333333","24.9737516666667","6500600","新店區"
"231042","616-UM","2017/09/05 20:59:18","新北市新店區寶興路49號","121.549326666667","24.9730683333333","6500600","新店區"
"231062","720-UM","2017/09/05 20:59:23","新北市新店區雙城路21號","121.492275","24.9500666666667","6500600","新店區"
"231043","899-TW","2017/09/05 20:59:32","新北市新店區民族路213號","121.536913333333","24.9760116666667","6500600","新店區"
"231066","AKT-0513","2017/09/05 20:59:21","新北市新店區吉安街14號","121.516681666667","24.96577","6500600","新店區"
"241011","013-R5","2017/09/05 20:59:33","新北市三重區秀江街117號","121.499721666667","25.0722616666667","6500200","三重區"
"241028","022-UY","2017/09/05 20:59:20","新北市三重區新北大道一段2號","121.490875","25.0613333333333","6500200","三重區"
"241008","059-VK","2017/09/05 20:59:18","新北市三重區力行路二段136巷11弄24號","121.481718333333","25.0765533333333","6500200","三重區"
"241009","060-VK","2017/09/05 20:59:23","新北市三重區三和路四段165-2號","121.483246666667","25.0785633333333","6500200","三重區"
"241031","061-VK","2017/09/05 20:59:28","新北市三重區重陽路一段113巷2弄2號","121.487518333333","25.0599466666667","6500200","三重區"
"241015","062-VK","2017/09/05 20:59:14","新北市三重區福德北路69號","121.502101666667","25.0656616666667","6500200","三重區"
"241017","063-VK","2017/09/05 20:59:28","新北市三重區民生街38巷2弄24號","121.4922","25.0672683333333","6500200","三重區"
"241024","065-VK","2017/09/05 20:59:15","新北市三重區國道路一段58巷20號","121.481311666667","25.0720533333333","6500200","三重區"
"241002","090-VK","2017/09/05 20:59:26","新北市三重區仁義街157巷22號","121.497693333333","25.08128","6500200","三重區"
"241026","156-TC","2017/09/05 20:59:30","新北市三重區文化南路43號","121.50022","25.0614916666667","6500200","三重區"
"241005","262-UM","2017/09/05 20:59:30","新北市三重區五華街213號","121.489706666667","25.0857516666667","6500200","三重區"
"241016","266-UM","2017/09/05 20:59:12","新北市三重區自強路一段125號","121.49527","25.0664716666667","6500200","三重區"
"241022","267-UM","2017/09/05 20:59:25","新北市三重區中正北路20巷12號","121.487991666667","25.0624516666667","6500200","三重區"
"241018","268-UM","2017/09/05 20:59:24","新北市三重區自強路一段236號","121.493441666667","25.06706","6500200","三重區"
"241032","269-UM","2017/09/05 20:59:29","新北市三重區三陽路133號","121.48313","25.0588783333333","6500200","三重區"
"241013","270-UM","2017/09/05 20:59:11","新北市三重區仁賢街12-1號","121.495705","25.0748966666667","6500200","三重區"
"241025","271-UM","2017/09/05 20:59:24","新北市三重區貴陽街18號","121.484098333333","25.06187","6500200","三重區"
"241007","412-TH","2017/09/05 20:59:15","新北市三重區慈愛街10號","121.484553333333","25.0784516666667","6500200","三重區"
"241020","413-TH","2017/09/05 20:59:21","新北市三重區忠孝路二段34號","121.48587","25.07103","6500200","三重區"
"241004","475-VK","2017/09/05 20:59:28","新北市三重區仁愛街423-1號","121.490368333333","25.0814666666667","6500200","三重區"
"241019","478-VK","2017/09/05 20:59:24","新北市三重區三張街104號","121.487923333333","25.0699516666667","6500200","三重區"
"241030","480-VK","2017/09/05 20:59:23","新北市三重區中正南路293號","121.492533333333","25.0519583333333","6500200","三重區"
"241014","543-UM","2017/09/05 20:59:29","新北市三重區長壽街120巷11號","121.502511666667","25.0690283333333","6500200","三重區"
"241023","545-UM","2017/09/05 20:59:19","新北市三重區忠孝路三段50巷41弄46號","121.482191666667","25.0638116666667","6500200","三重區"
"241001","547-UM","2017/09/05 20:59:15","新北市三重區三和路四段118巷15號","121.488035","25.0746033333333","6500200","三重區"
"241006","887-TS","2017/09/05 20:59:16","新北市三重區永福街23號","121.48169","25.07815","6500200","三重區"
"241012","941-UM","2017/09/05 20:59:12","新北市三重區仁信街27號","121.501316666667","25.07557","6500200","三重區"
"241029","942-UM","2017/09/05 20:59:20","新北市三重區大同南路117巷3號","121.495806666667","25.0583183333333","6500200","三重區"
"241033","AAC-255","2017/09/05 20:59:26","新北市三重區光復路二段49號","121.472046666667","25.055975","6500200","三重區"
"235072","301-VK","2017/09/05 20:59:30","新北市中和區員山路36巷12號","121.48402","24.9906733333333","6500300","中和區"
"235069","4980-A6","2017/09/05 20:59:18","新北市中和區中正路637巷17號","121.484883333333","24.9946233333333","6500300","中和區"
"235026","800-TS","2017/09/05 20:59:27","新北市中和區員山路36巷16-3號","121.48485","24.9915483333333","6500300","中和區"
"235064","911-UM","2017/09/05 20:59:12","新北市中和區永和路39巷2號","121.498093333333","25.0049033333333","6500300","中和區"
"247022","893-R6","2017/09/05 20:59:33","新北市蘆洲區中正路263巷2號","121.467336666667","25.08736","6501400","蘆洲區"
"247012","546-UM","2017/09/05 20:59:21","新北市蘆洲區集賢路222-5號","121.482741666667","25.0867533333333","6501400","蘆洲區"
"247020","500-BY","2017/09/05 20:59:27","新北市蘆洲區民族路484號","121.471001666667","25.0913733333333","6501400","蘆洲區"
"247002","337-TH","2017/09/05 20:59:30","新北市蘆洲區永樂街38巷24號","121.458328333333","25.0893033333333","6501400","蘆洲區"
"247004","336-TH","2017/09/05 20:59:19","新北市蘆洲區永安南路二段268號","121.458623333333","25.0807466666667","6501400","蘆洲區"
"247010","335-TH","2017/09/05 20:59:15","新北市蘆洲區鷺江街76號","121.47698","25.0838666666667","6501400","蘆洲區"
"247016","057-VK","2017/09/05 20:59:11","新北市蘆洲區正和街56號","121.469008333333","25.081555","6501400","蘆洲區"
"247006","056-VK","2017/09/05 20:59:18","新北市蘆洲區九芎街15巷8號","121.46802","25.0780216666667","6501400","蘆洲區"
"247008","053-VK","2017/09/05 20:59:12","新北市蘆洲區民生街74號","121.472776666667","25.0790616666667","6501400","蘆洲區"
"247014","007-UY","2017/09/05 20:59:32","新北市蘆洲區中山二路36巷19號","121.47426","25.0829566666667","6501400","蘆洲區"
"247024","002-UY","2017/09/05 20:59:32","新北市蘆洲區光明路25號","121.460843333333","25.0868616666667","6501400","蘆洲區"
"247018","001-UY","2017/09/05 20:59:15","新北市蘆洲區民權路136-2號","121.473221666667","25.0888833333333","6501400","蘆洲區"
"251005","010-UM","2017/09/05 20:59:21","新北市淡水區學府路75號","121.448321666667","25.16997","6501000","淡水區"
"251002","012-UM","2017/09/05 20:59:30","新北市淡水區水源街一段110號","121.446556666667","25.1719583333333","6501000","淡水區"
"251014","180-VK","2017/09/05 20:59:22","新北市淡水區淡金路五段72號","121.454953333333","25.2335766666667","6501000","淡水區"
"251010","413-VK","2017/09/05 20:59:17","新北市淡水區淡海路27號","121.42368","25.17912","6501000","淡水區"
"251012","441-VK","2017/09/05 20:59:23","新北市淡水區淡金路五段120號","121.456626666667","25.237415","6501000","淡水區"
"251016","442-VK","2017/09/05 20:59:23","新北市淡水區興仁路165號","121.451501666667","25.2202716666667","6501000","淡水區"
"251001","559-UM","2017/09/05 20:59:29","新北市淡水區北新路一段2號","121.453321666667","25.1806516666667","6501000","淡水區"
"251007","577-R6","2017/09/05 20:59:28","新北市淡水區英專路48號","121.445865","25.17056","6501000","淡水區"
"251011","650-BX","2017/09/05 20:59:16","新北市淡水區新民街322巷1號","121.43525","25.1838933333333","6501000","淡水區"
"251003","766-UM","2017/09/05 20:59:28","新北市淡水區新春街148-3號","121.442746666667","25.181195","6501000","淡水區"
"252002","178-VK","2017/09/05 20:59:16","新北市三芝區淡金路二段89-1號","121.504053333333","25.2608583333333","6502100","三芝區"
"242037","442-UM","2017/09/05 20:59:23","新北市新莊區瓊林路108-1號","121.442098333333","25.0261783333333","6500500","新莊區"
"242046","441-UM","2017/09/05 20:59:18","新北市樹林區太平路277號","121.419165","24.9728916666667","6500500","新莊區"
"242034","133-UY","2017/09/05 20:59:25","新北市新莊區瓊林路59-28號","121.444098333333","25.0263466666667","6500500","新莊區"
"242054","349-TH","2017/09/05 20:59:17","新北市板橋區大觀路三段50巷103號","121.430973333333","24.9967516666667","6500500","新莊區"
"238023","601-UM","2017/09/05 20:59:23","新北市樹林區中山路三段204號","121.387146666667","24.968405","6500700","樹林區"
"221012","276-VK","2017/09/05 13:43:08","新北市汐止區汐萬路一段256巷3號","121.653458333333","25.07465","6501100","汐止區"
"221031","277-VK","2017/09/05 20:59:23","新北市汐止區汐萬路一段256巷3號","121.65237","25.0746433333333","6501100","汐止區"
"221018","753-BX","2017/09/05 20:59:20","新北市汐止區汐萬路一段256巷3號","121.653421666667","25.0748116666667","6501100","汐止區"
"220070","AAC-253","2017/09/05 20:59:23","新北市八里區中山路三段382號","121.368558333333","25.135965","6500100","板橋區"
