"lineid","car","time","location","longitude","latitude","cityid","cityname"
"244019","403-UM","2017/09/05 20:56:03","新北市林口區粉寮69號","121.405103333333","25.0908066666667","6501700","林口區"
"244002","657-BX","2017/09/05 15:46:23","新北市林口區粉寮路二段160巷40號","121.405633333333","25.0911016666667","6501700","林口區"
"244025","837-TS","2017/09/05 20:08:53","新北市林口區粉寮路二段160巷28號","121.40516","25.090765","6501700","林口區"
"231059","046-UY","2017/09/05 21:09:25","新北市新店區僑義路21號","121.500426666667","24.9510466666667","6500600","新店區"
"231061","047-UY","2017/09/05 21:09:29","新北市新店區永平街51巷1號","121.516195","24.9840466666667","6500600","新店區"
"231060","106-UY","2017/09/05 21:09:20","新北市新店區安康路三段2-2號","121.4933","24.9533866666667","6500600","新店區"
"231051","107-UY","2017/09/05 21:09:29","新北市新店區復興路108-1號","121.531921666667","24.98956","6500600","新店區"
"231048","108-UY","2017/09/05 21:09:27","新北市新店區寶強路19號","121.543258333333","24.979465","6500600","新店區"
"231053","187-VK","2017/09/05 21:09:14","新北市新店區柴埕路59號","121.513685","24.9648216666667","6500600","新店區"
"231069","189-VK","2017/09/05 12:06:25","新北市新店區安華路28-1號","121.519471666667","24.960985","6500600","新店區"
"231063","268-BY","2017/09/05 21:09:23","新北市新店區玫瑰路58巷2號","121.495461666667","24.9466233333333","6500600","新店區"
"231050","AAD-862","2017/09/05 21:09:18","新北市新店區三民路40號","121.536211666667","24.971505","6500600","新店區"
"231040","355-BY","2017/09/05 21:09:20","新北市新店區北新路一段353號","121.54203","24.9697566666667","6500600","新店區"
"231067","4772-VM","2017/09/05 21:09:17","新北市新店區安德街148巷37號","121.507468333333","24.9607783333333","6500600","新店區"
"231065","512-UM","2017/09/05 21:09:19","新北市新店區安祥路69巷89弄6號","121.483515","24.95937","6500600","新店區"
"231054","513-UM","2017/09/05 21:09:23","新北市新店區大新街7巷21號","121.544186666667","24.9679466666667","6500600","新店區"
"231042","616-UM","2017/09/05 21:09:18","新北市新店區寶興路60巷2號","121.549916666667","24.9719416666667","6500600","新店區"
"231062","720-UM","2017/09/05 21:09:23","新北市新店區安康路二段317-1號","121.499243333333","24.9565483333333","6500600","新店區"
"241011","013-R5","2017/09/05 21:09:13","新北市三重區龍濱路251號","121.50147","25.0727383333333","6500200","三重區"
"241028","022-UY","2017/09/05 21:09:20","新北市三重區正義南路53號","121.498191666667","25.0605366666667","6500200","三重區"
"241008","059-VK","2017/09/05 21:09:18","新北市三重區自強路一段64號","121.497206666667","25.0667366666667","6500200","三重區"
"241009","060-VK","2017/09/05 21:09:23","新北市三重區忠孝路二段122號","121.482998333333","25.0688316666667","6500200","三重區"
"241031","061-VK","2017/09/05 21:09:28","新北市三重區重新路五段406-1號","121.475993333333","25.0476633333333","6500200","三重區"
"241015","062-VK","2017/09/05 21:09:14","新北市三重區福德北路89號","121.50191","25.06609","6500200","三重區"
"241017","063-VK","2017/09/05 21:09:28","新北市三重區國隆路31號","121.49236","25.0644683333333","6500200","三重區"
"241024","065-VK","2017/09/05 21:09:15","新北市三重區國道路一段58巷20號","121.481313333333","25.0720766666667","6500200","三重區"
"241002","090-VK","2017/09/05 21:09:26","新北市三重區五華街16號","121.494911666667","25.0803266666667","6500200","三重區"
"241003","091-VK","2017/09/05 21:09:33","新北市三重區仁義街339號","121.494998333333","25.0849183333333","6500200","三重區"
"241026","156-TC","2017/09/05 21:09:30","新北市三重區文化南路42號","121.50039","25.0602716666667","6500200","三重區"
"241005","262-UM","2017/09/05 21:09:30","新北市三重區三信路182號","121.487955","25.0862066666667","6500200","三重區"
"241016","266-UM","2017/09/05 21:09:32","新北市三重區信義西街138號","121.495376666667","25.064315","6500200","三重區"
"241022","267-UM","2017/09/05 21:09:24","新北市三重區中正北路64巷21號","121.486041666667","25.0637666666667","6500200","三重區"
"241018","268-UM","2017/09/05 21:09:24","新北市三重區六張街39號","121.494273333333","25.070545","6500200","三重區"
"241032","269-UM","2017/09/05 21:09:29","新北市三重區光復路二段171號","121.473588333333","25.061565","6500200","三重區"
"241013","270-UM","2017/09/05 21:09:31","新北市三重區仁愛街141巷21號","121.496548333333","25.0758166666667","6500200","三重區"
"241025","271-UM","2017/09/05 21:09:24","新北市三重區中正北路208巷8號","121.482345","25.0669616666667","6500200","三重區"
"241007","412-TH","2017/09/05 21:09:15","新北市三重區三和路四段145巷85號","121.486433333333","25.0787616666667","6500200","三重區"
"241020","413-TH","2017/09/05 21:09:21","新北市三重區忠孝路二段34號","121.485848333333","25.0710183333333","6500200","三重區"
"241004","475-VK","2017/09/05 21:09:28","新北市三重區仁愛街423-1號","121.490385","25.0814833333333","6500200","三重區"
"241019","478-VK","2017/09/05 21:09:24","新北市三重區三張街104號","121.487895","25.0699466666667","6500200","三重區"
"241030","480-VK","2017/09/05 21:09:23","新北市三重區五谷王北街20巷15弄1號","121.475066666667","25.0485","6500200","三重區"
"241014","543-UM","2017/09/05 21:09:29","新北市三重區長安街82-1號","121.501396666667","25.0676716666667","6500200","三重區"
"241023","545-UM","2017/09/05 21:09:19","新北市三重區忠孝路三段50巷41弄46號","121.482196666667","25.0638083333333","6500200","三重區"
"241001","547-UM","2017/09/05 21:09:23","新北市三重區福隆路42號","121.492335","25.07835","6500200","三重區"
"241006","887-TS","2017/09/05 21:09:16","新北市三重區重陽路三段5巷1號","121.490695","25.0654883333333","6500200","三重區"
"241012","941-UM","2017/09/05 21:09:32","新北市三重區仁信街27號","121.501313333333","25.0755566666667","6500200","三重區"
"241029","942-UM","2017/09/05 21:09:20","新北市三重區正義南路107號","121.498211666667","25.0585733333333","6500200","三重區"
"241033","AAC-255","2017/09/05 21:09:26","新北市三重區新北大道二段65號","121.469366666667","25.0613","6500200","三重區"
"235072","301-VK","2017/09/05 21:09:30","新北市中和區員山路36巷12號","121.48395","24.9909483333333","6500300","中和區"
"235026","800-TS","2017/09/05 21:09:11","新北市中和區員山路36巷16-3號","121.484986666667","24.9914116666667","6500300","中和區"
"235064","911-UM","2017/09/05 21:09:32","新北市中和區福美路269號","121.498186666667","25.0050166666667","6500300","中和區"
"247022","893-R6","2017/09/05 21:09:33","新北市蘆洲區中正路202號","121.46661","25.088385","6501400","蘆洲區"
"247012","546-UM","2017/09/05 21:09:21","新北市蘆洲區民權路8-1號","121.476663333333","25.08579","6501400","蘆洲區"
"247020","500-BY","2017/09/05 21:09:27","新北市蘆洲區民族路436巷7號","121.472821666667","25.0929083333333","6501400","蘆洲區"
"247002","337-TH","2017/09/05 21:09:20","新北市蘆洲區長榮路309-1號","121.45917","25.0897583333333","6501400","蘆洲區"
"247004","336-TH","2017/09/05 21:09:19","新北市蘆洲區永安南路二段320號","121.45703","25.0827083333333","6501400","蘆洲區"
"247010","335-TH","2017/09/05 21:09:15","新北市蘆洲區鷺江街50號","121.477205","25.083235","6501400","蘆洲區"
"247016","057-VK","2017/09/05 21:09:31","新北市蘆洲區和平路151號","121.466843333333","25.0806766666667","6501400","蘆洲區"
"247006","056-VK","2017/09/05 21:09:18","新北市蘆洲區九芎街15巷8號","121.468021666667","25.0780383333333","6501400","蘆洲區"
"247008","053-VK","2017/09/05 21:09:12","新北市蘆洲區民生街30號","121.474868333333","25.0788583333333","6501400","蘆洲區"
"247014","007-UY","2017/09/05 21:09:32","新北市蘆洲區中央路155號","121.472671666667","25.0847133333333","6501400","蘆洲區"
"247024","002-UY","2017/09/05 21:09:12","新北市蘆洲區長興路52號","121.463601666667","25.0835983333333","6501400","蘆洲區"
"247018","001-UY","2017/09/05 21:09:15","新北市蘆洲區民族路408巷14號","121.474908333333","25.0920166666667","6501400","蘆洲區"
"251005","010-UM","2017/09/05 21:09:29","新北市淡水區博愛街61號","121.446845","25.16897","6501000","淡水區"
"251002","012-UM","2017/09/05 21:09:30","新北市淡水區英專路151號","121.448323333333","25.1746783333333","6501000","淡水區"
"251014","180-VK","2017/09/05 21:09:22","新北市淡水區溪口2-1號","121.449911666667","25.2392383333333","6501000","淡水區"
"251010","413-VK","2017/09/05 21:09:17","新北市淡水區中正路一段102號","121.424283333333","25.177705","6501000","淡水區"
"251012","441-VK","2017/09/05 21:09:23","新北市淡水區淡金路五段172號","121.457023333333","25.240105","6501000","淡水區"
"251016","442-VK","2017/09/05 21:09:24","新北市淡水區牛埔子5-1號","121.448893333333","25.218365","6501000","淡水區"
"251001","559-UM","2017/09/05 21:09:29","新北市淡水區新市一路三段101巷16弄14號","121.446701666667","25.1839266666667","6501000","淡水區"
"251009","575-R6","2017/09/05 21:09:22","新北市淡水區民權路187巷74弄9號","121.462043333333","25.1343966666667","6501000","淡水區"
"251007","577-R6","2017/09/05 21:09:21","新北市淡水區水源街二段194號","121.457058333333","25.1760916666667","6501000","淡水區"
"251011","650-BX","2017/09/05 21:09:16","新北市淡水區新民街120巷45弄36號","121.437661666667","25.1797183333333","6501000","淡水區"
"251003","766-UM","2017/09/05 21:09:28","新北市淡水區新春街103-2號","121.440098333333","25.182115","6501000","淡水區"
"242034","133-UY","2017/09/05 21:09:25","新北市板橋區金門街121巷62-1號","121.435098333333","24.9913166666667","6500500","新莊區"
"221012","276-VK","2017/09/05 13:43:08","新北市汐止區汐萬路一段256巷3號","121.653458333333","25.07465","6501100","汐止區"
"221018","753-BX","2017/09/05 21:09:20","新北市汐止區汐萬路一段256巷1號","121.652","25.0748183333333","6501100","汐止區"
"220070","AAC-253","2017/09/05 21:09:23","新北市八里區中山路三段409號","121.368688333333","25.13478","6500100","板橋區"
