"lineid","car","time","location","longitude","latitude","cityid","cityname"
"248005","653-BX","2017/06/15 07:29:13","新北市五股區明德路12巷1號","121.433275","25.0716883333333","6501500","五股區"
"232007","290-BY","2017/06/15 07:28:58","新北市坪林區魚堀33-5號","121.696115","24.9236866666667","6502000","坪林區"
"232001","291-BY","2017/06/15 07:29:09","新北市坪林區上坑子口22號","121.702238333333","24.952465","6502000","坪林區"
"232010","375-UM","2017/06/15 07:29:02","新北市坪林區水聳淒坑13號","121.718351666667","24.9306083333333","6502000","坪林區"
"232014","705-BZ","2017/06/15 07:28:27","新北市坪林區金瓜寮36號","121.672453333333","24.89618","6502000","坪林區"
"232018","758-BX","2017/06/15 07:28:58","新北市坪林區坪雙路二段12號","121.732995","24.96494","6502000","坪林區"
"244003","248-BX","2017/06/15 07:29:13","新北市林口區頂福里71-56號","121.353875","25.0808466666667","6501700","林口區"
"243002","548-UM","2017/06/15 07:29:02","新北市泰山區明志路一段95號","121.43358","25.0639516666667","6501600","泰山區"
"222006","289-BY","2017/06/15 07:28:59","新北市深坑區文化街39巷13號","121.618965","25.0010966666667","6501800","深坑區"
"235001","255-BX","2017/06/15 07:29:08","新北市中和區廟美街5號","121.500826666667","25.0014833333333","6500300","中和區"
"247002","402-BY","2017/06/15 07:29:06","新北市蘆洲區中央路60號","121.473186666667","25.0844916666667","6501400","蘆洲區"
"226005","5620-A6","2017/06/15 07:28:57","新北市平溪區嶺腳里中華街36號","121.739196666667","25.0252616666667","6502400","平溪區"
"226002","8452-VL","2017/06/15 07:22:31","新北市平溪區南山里南山坪3號","121.762656666667","25.03175","6502400","平溪區"
"226003","AGD-0702","2017/06/15 07:29:11","新北市平溪區嶺腳里中華街60號","121.739458333333","25.0250666666667","6502400","平溪區"
"223006","022-BY","2017/06/15 07:29:09","新北市石碇區番子坑56號","121.676368333333","25.0105183333333","6501900","石碇區"
"223002","198-BX","2017/06/15 07:29:11","新北市石碇區北宜路五段坑內巷14號","121.633996666667","24.9559783333333","6501900","石碇區"
"223003","205-TH","2017/06/15 07:18:28","新北市石碇區烏塗窟10號","121.655761666667","24.9750066666667","6501900","石碇區"
"223008","406-TH","2017/06/15 07:29:08","新北市石碇區靜安路一段308號","121.692503333333","25.0064766666667","6501900","石碇區"
"223001","592-UM","2017/06/15 07:29:11","新北市石碇區內楒仔腳4-1號","121.642503333333","24.9705633333333","6501900","石碇區"
"223004","660-BX","2017/06/15 07:29:05","新北市石碇區楓子林30號","121.642315","25.00954","6501900","石碇區"
"223007","661-BX","2017/06/15 07:29:07","新北市石碇區蚯蚓坑18-4號","121.691015","25.0044416666667","6501900","石碇區"
"227007","282-VK","2017/06/15 07:29:05","新北市雙溪區新基里自強路5號","121.866306666667","25.0391","6502500","雙溪區"
"252004","249-BX","2017/06/15 07:29:00","新北市三芝區店子里店子48-1號","121.503743333333","25.2065966666667","6502100","三芝區"
"237001","159-UY","2017/06/15 07:29:10","新北市三峽區隆恩街189號","121.361276666667","24.94242","6500900","三峽區"
"236009","165-UM","2017/06/15 07:29:03","新北市土城區延平街62巷2號","121.468071666667","24.9927333333333","6501300","土城區"
"236003","339-SR","2017/06/15 07:29:12","新北市土城區南天母路137-4號","121.447521666667","24.9542083333333","6501300","土城區"
"242020","AAC-296","2017/06/15 04:20:28","新北市新莊區新泰路357巷3弄57號","121.442116666667","25.03935","6500500","新莊區"
"242047","751-BX","2017/06/15 07:29:05","新北市新莊區新泰路357巷3弄57號","121.442011666667","25.039285","6500500","新莊區"
"242024","615-BX","2017/06/15 07:29:00","新北市新莊區新泰路255巷83號","121.442253333333","25.038715","6500500","新莊區"
"242022","613-BX","2017/06/15 07:28:56","新北市新莊區新泰路255巷83號","121.442195","25.03898","6500500","新莊區"
"242026","612-BX","2017/06/15 07:29:13","新北市新莊區新泰路357巷3弄45號","121.441835","25.0401783333333","6500500","新莊區"
"242035","566-BX","2017/06/15 07:29:15","新北市新莊區新泰路255巷83號","121.441963333333","25.03891","6500500","新莊區"
"242040","497-BY","2017/06/15 02:37:46","新北市新莊區新泰路357巷3弄57號","121.442353333333","25.03961","6500500","新莊區"
"242045","441-UM","2017/06/15 04:17:01","新北市新莊區三和路12-21號","121.442025","25.0383783333333","6500500","新莊區"
"242049","440-UM","2017/06/15 07:29:10","新北市新莊區新泰路357巷3弄57號","121.441758333333","25.03935","6500500","新莊區"
"242030","415-TV","2017/06/15 07:29:01","新北市新莊區新泰路357巷3弄57號","121.441913333333","25.0391266666667","6500500","新莊區"
"242038","400-BY","2017/06/15 07:29:12","新北市新莊區新泰路357巷3弄57號","121.442283333333","25.039575","6500500","新莊區"
"242059","362-BY","2017/06/15 07:29:03","新北市新莊區新泰路255巷83號","121.442195","25.0387383333333","6500500","新莊區"
"242010","132-UY","2017/06/15 07:28:55","新北市新莊區新泰路255巷83號","121.442053333333","25.0388633333333","6500500","新莊區"
"242043","172-VK","2017/06/15 04:25:39","新北市新莊區三和路12-21號","121.442005","25.03871","6500500","新莊區"
"242012","175-VK","2017/06/15 07:29:14","新北市新莊區三和路12-21號","121.44203","25.03855","6500500","新莊區"
"242033","347-TH","2017/06/15 07:29:05","新北市新莊區公園一路67號","121.442385","25.0368366666667","6500500","新莊區"
"242016","348-TH","2017/06/15 07:29:07","新北市新莊區新泰路357巷3弄57號","121.44233","25.0395933333333","6500500","新莊區"
"242052","349-TH","2017/06/15 07:29:03","新北市新莊區三和路12-20號","121.441793333333","25.0378016666667","6500500","新莊區"
"242014","350-TH","2017/06/15 07:28:56","新北市新莊區三和路12-21號","121.441833333333","25.03878","6500500","新莊區"
"242008","351-TH","2017/06/15 07:29:01","新北市新莊區新泰路357巷3弄57號","121.442163333333","25.039185","6500500","新莊區"
