"lineid","car","time","location","longitude","latitude","cityid","cityname"
"222005","289-BY","2017/09/08 09:19:33","新北市深坑區土庫尖路75-1號","121.63126","25.0181966666667","6501800","深坑區"
"231007","189-VK","2017/09/08 09:19:31","新北市新店區新潭路三段215巷25號","121.508113333333","24.9040533333333","6500600","新店區"
"231009","192-VK","2017/09/08 09:19:21","新北市新店區廣興路130號","121.535416666667","24.9112333333333","6500600","新店區"
"226001","7418-A5","2017/09/08 09:19:15","新北市平溪區石底里公園街18-3號","121.73328","25.0258116666667","6502400","平溪區"
"223002","198-BX","2017/09/08 09:04:57","新北市石碇區八分寮47-1號","121.643065","25.0133533333333","6501900","石碇區"
"223003","205-TH","2017/09/08 09:19:26","新北市石碇區北宜路四段30號","121.623663333333","24.9568316666667","6501900","石碇區"
"223008","406-TH","2017/09/08 09:19:28","新北市石碇區光明路33號","121.695146666667","25.0231966666667","6501900","石碇區"
"223001","592-UM","2017/09/08 09:19:19","新北市石碇區北宜路四段21號","121.619838333333","24.95915","6501900","石碇區"
"223004","660-BX","2017/09/08 09:19:14","新北市石碇區碇坪路二段25號","121.683473333333","24.9763","6501900","石碇區"
"223007","661-BX","2017/09/08 09:19:31","新北市石碇區光明路32號","121.695373333333","25.0219233333333","6501900","石碇區"
"223005","677-TV","2017/09/08 09:19:32","新北市石碇區碇坪路二段19號","121.682015","24.9748233333333","6501900","石碇區"
"227005","282-VK","2017/09/08 08:55:25","新北市雙溪區泰平里溪尾寮3號","121.81891","24.970405","6502500","雙溪區"
"237001","159-UY","2017/09/08 09:19:15","新北市三峽區國際一街72-1號","121.371881666667","24.9416166666667","6500900","三峽區"
"236004","339-SR","2017/09/08 09:19:29","新北市土城區員林街76號","121.444306666667","24.9767","6501300","土城區"
"236006","498-BY","2017/09/08 09:19:19","新北市土城區中央路三段124號","121.434946666667","24.9662633333333","6501300","土城區"
