"lineid","car","time","location","longitude","latitude","cityid","cityname"
"248005","653-BX","2017/12/28 06:59:43","新北市五股區更洲路47號","121.456913333333","25.0789916666667","6501500","五股區"
"232001","290-BY","2017/12/28 06:59:07","新北市坪林區下坑子口15-1號","121.71573","24.9509566666667","6502000","坪林區"
"232014","291-BY","2017/12/28 06:59:50","新北市坪林區嶺腳坑3號","121.69342","24.9364216666667","6502000","坪林區"
"232010","375-UM","2017/12/28 06:59:51","新北市坪林區北宜路八段558號","121.717995","24.9091916666667","6502000","坪林區"
"232018","705-BZ","2017/12/28 06:59:25","新北市坪林區坪雙路一段102號","121.721355","24.9457383333333","6502000","坪林區"
"232007","758-BX","2017/12/28 06:59:39","新北市坪林區九芎林36-13號","121.701501666667","24.9184383333333","6502000","坪林區"
"244003","248-BX","2017/12/28 06:59:37","新北市林口區湖南里93-2號","121.375041666667","25.090165","6501700","林口區"
"235044","293-VK","2017/12/28 06:59:54","新北市中和區和平街29-1號","121.507538333333","24.9910083333333","6500300","中和區"
"223006","022-BY","2017/12/28 06:59:40","新北市石碇區新興坑21號","121.650326666667","25.0221416666667","6501900","石碇區"
"223002","198-BX","2017/12/28 06:59:43","新北市石碇區烏塗窟48號","121.65263","24.9689983333333","6501900","石碇區"
"223001","437-BY","2017/12/28 06:59:48","新北市石碇區石碇西街9號","121.659058333333","24.9907166666667","6501900","石碇區"
"223004","660-BX","2017/12/28 06:59:51","新北市石碇區碇坪路一段58號","121.657051666667","24.99151","6501900","石碇區"
"223007","661-BX","2017/12/28 06:59:48","新北市石碇區十八重溪17號","121.677368333333","25.01121","6501900","石碇區"
"223005","677-TV","2017/12/28 06:59:37","新北市石碇區碇坪路一段62號","121.657153333333","24.9914916666667","6501900","石碇區"
"227007","282-VK","2017/12/28 06:59:50","新北市雙溪區新基里自強路7號","121.866286666667","25.039045","6502500","雙溪區"
"252004","249-BX","2017/12/28 06:59:47","新北市三芝區埔坪里埔頭坑41號","121.504526666667","25.264505","6502100","三芝區"
"252007","AAC-283","2017/12/28 06:59:37","新北市三芝區福德里埔尾2-1號","121.501228333333","25.2493783333333","6502100","三芝區"
"236009","165-UM","2017/12/28 06:50:36","新北市土城區永平街51號","121.427988333333","24.9591683333333","6501300","土城區"
"236003","339-SR","2017/12/28 06:59:41","新北市土城區永平街51號","121.427926666667","24.9591583333333","6501300","土城區"
"220057","282-UM","2017/12/28 06:57:16","新北市板橋區國光路49巷17號","121.458963333333","25.0188316666667","6500100","板橋區"
