"lineid","car","time","location","longitude","latitude","cityid","cityname"
"248005","653-BX","2017/11/17 09:59:04","新北市五股區新五路二段121號","121.43761","25.0788133333333","6501500","五股區"
"231007","188-VK","2017/11/17 09:59:06","新北市新店區新潭路三段215巷25號","121.508121666667","24.9040983333333","6500600","新店區"
"231009","192-VK","2017/11/17 09:37:28","新北市新店區平廣路一段256號","121.50783","24.888265","6500600","新店區"
"223007","437-BY","2017/11/17 09:30:39","新北市石碇區小粗坑(潭邊里)9-2號","121.67854","24.9857283333333","6501900","石碇區"
"227005","282-VK","2017/11/17 09:42:39","新北市雙溪區泰平里溪尾寮2-2號","121.819471666667","24.9637133333333","6502500","雙溪區"
"242001","233-RS","2017/11/17 08:25:01","新北市新莊區環河路48-7號","121.436915","25.009795","6500500","新莊區"
