"lineid","car","time","location","longitude","latitude","cityid","cityname"
"231007","188-VK","2017/11/17 10:59:06","新北市新店區新潭路一段212號","121.529198333333","24.9295583333333","6500600","新店區"
"231009","192-VK","2017/11/17 10:59:08","新北市新店區松林路83號","121.548091666667","24.90799","6500600","新店區"
"223007","437-BY","2017/11/17 09:30:39","新北市石碇區小粗坑(潭邊里)9-2號","121.67854","24.9857283333333","6501900","石碇區"
"227005","282-VK","2017/11/17 10:58:59","新北市雙溪區泰平里泰平1-5號","121.847591666667","24.9945933333333","6502500","雙溪區"
"242001","233-RS","2017/11/17 08:25:01","新北市新莊區環河路48-7號","121.436915","25.009795","6500500","新莊區"
