"lineid","car","time","location","longitude","latitude","cityid","cityname"
"231009","192-VK","2017/11/17 12:09:08","新北市新店區頂石厝路44-1號","121.536415","24.91753","6500600","新店區"
"235031","255-BX","2017/11/17 01:42:41","新北市中和區員山路36巷13號","121.48431","24.991505","6500300","中和區"
"223007","437-BY","2017/11/17 09:30:39","新北市石碇區小粗坑(潭邊里)9-2號","121.67854","24.9857283333333","6501900","石碇區"
"227005","282-VK","2017/11/17 12:08:59","新北市雙溪區三貂里政光路3-1號","121.85081","25.063305","6502500","雙溪區"
"242001","233-RS","2017/11/17 08:25:01","新北市新莊區環河路48-7號","121.436915","25.009795","6500500","新莊區"
"221012","276-VK","2017/11/17 12:09:05","新北市汐止區康寧街901號","121.651026666667","25.0751733333333","6501100","汐止區"
