"lineid","car","time","location","longitude","latitude","cityid","cityname"
"234012","149-BY","2017/11/17 12:28:54","新北市永和區福和路1號","121.52633","25.00943","6500400","永和區"
"234005","207-UY","2017/11/17 12:29:12","新北市永和區福和路1號","121.526133333333","25.0095516666667","6500400","永和區"
"234078","298-R6","2017/11/17 12:28:56","新北市永和區環河東路二段102號","121.524191666667","25.0102683333333","6500400","永和區"
"234015","745-BX","2017/11/17 12:29:11","新北市永和區福和路1號","121.526351666667","25.0098566666667","6500400","永和區"
"234040","862-TW","2017/11/17 12:29:03","新北市永和區福和路1號","121.525671666667","25.0094","6500400","永和區"
"234048","863-TW","2017/11/17 12:29:13","新北市永和區福和路1號","121.52647","25.0099233333333","6500400","永和區"
"234010","9373-KE","2017/11/17 12:29:00","新北市永和區福和路1號","121.526413333333","25.009725","6500400","永和區"
"234072","AAC-211","2017/11/17 12:29:12","新北市永和區福和路1號","121.526173333333","25.0095216666667","6500400","永和區"
"235031","255-BX","2017/11/17 01:42:41","新北市中和區員山路36巷13號","121.48431","24.991505","6500300","中和區"
"235025","378-QA","2017/11/17 12:22:44","新北市中和區員山路36巷16-2號","121.485286666667","24.991495","6500300","中和區"
"223007","437-BY","2017/11/17 09:30:39","新北市石碇區小粗坑(潭邊里)9-2號","121.67854","24.9857283333333","6501900","石碇區"
"227005","282-VK","2017/11/17 12:28:59","新北市雙溪區三貂里政光路3-1號","121.850798333333","25.063365","6502500","雙溪區"
"207002","749-BX","2017/11/17 12:29:06","新北市萬里區雙興里太和路7-2號","121.658528333333","25.1740016666667","6502800","萬里區"
"242001","233-RS","2017/11/17 08:25:01","新北市新莊區環河路48-7號","121.436915","25.009795","6500500","新莊區"
"221012","276-VK","2017/11/17 12:29:05","新北市汐止區中正路206號","121.658408333333","25.0690083333333","6501100","汐止區"
