"lineid","car","time","location","longitude","latitude","cityid","cityname"
"234044","148-BY","2017/11/17 13:48:58","新北市永和區永利路107號","121.523361666667","25.0026133333333","6500400","永和區"
"234012","149-BY","2017/11/17 13:48:54","新北市永和區保生路55號","121.50471","25.010605","6500400","永和區"
"234005","207-UY","2017/11/17 13:48:52","新北市中和區中和路402號","121.511266666667","25.0027883333333","6500400","永和區"
"234078","298-R6","2017/11/17 13:48:55","新北市永和區永亨路98號","121.522981666667","25.004845","6500400","永和區"
"234036","336-UY","2017/11/17 13:49:05","新北市永和區成功路二段121巷6號","121.527121666667","24.998335","6500400","永和區"
"234062","337-UY","2017/11/17 13:49:07","新北市永和區中正路368巷2號","121.517943333333","25.0008783333333","6500400","永和區"
"234084","338-UY","2017/11/17 13:49:11","新北市永和區永利路24號","121.518173333333","25.005835","6500400","永和區"
"234068","552-UM","2017/11/17 13:49:08","新北市永和區竹林路88號","121.51943","25.012655","6500400","永和區"
"234052","553-UM","2017/11/17 13:49:11","新北市永和區竹林路39巷28弄21號","121.520005","25.0144416666667","6500400","永和區"
"234015","745-BX","2017/11/17 13:49:11","新北市永和區文化路9巷2號","121.515268333333","25.01503","6500400","永和區"
"234028","746-BX","2017/11/17 13:49:06","新北市永和區民生路4號","121.522648333333","24.9979266666667","6500400","永和區"
"234060","AAD-866","2017/11/17 13:49:04","新北市永和區中正路175號","121.516675","24.9986583333333","6500400","永和區"
"234040","862-TW","2017/11/17 13:49:03","新北市永和區中和路389巷41號","121.508195","25.001655","6500400","永和區"
"234048","863-TW","2017/11/17 13:49:13","新北市永和區保安路148號","121.508443333333","25.0147433333333","6500400","永和區"
"234010","9373-KE","2017/11/17 13:49:00","新北市永和區保福路二段163巷12號","121.508876666667","25.0146916666667","6500400","永和區"
"248019","225-UY","2017/11/17 13:49:09","新北市五股區凌雲路三段45-2號","121.42781","25.120655","6501500","五股區"
"234022","9380-KE","2017/11/17 13:48:59","新北市永和區中正路688號","121.516603333333","25.00951","6500400","永和區"
"234076","969-R7","2017/11/17 13:48:55","新北市永和區民權路58巷2弄11號","121.519596666667","24.9988633333333","6500400","永和區"
"234072","AAC-211","2017/11/17 13:49:11","新北市永和區豫溪街207巷4號","121.523763333333","25.00962","6500400","永和區"
"234066","AAC-212","2017/11/17 13:49:09","新北市永和區保平路236巷24弄1號","121.508028333333","25.0069483333333","6500400","永和區"
"234001","AAC-295","2017/11/17 13:49:09","新北市永和區永和路一段122號","121.513905","25.007795","6500400","永和區"
"244004","657-BX","2017/11/17 13:49:08","新北市林口區文化北路一段366號","121.361688333333","25.0744116666667","6501700","林口區"
"231029","001-UM","2017/11/17 13:49:07","新北市新店區安康路二段125-1號","121.512426666667","24.9611616666667","6500600","新店區"
"231002","002-UM","2017/11/17 13:49:02","新北市新店區溪園路245-6號","121.525181666667","24.98317","6500600","新店區"
"231028","046-UY","2017/11/17 13:49:06","新北市新店區安和路三段35-2號","121.516966666667","24.980325","6500600","新店區"
"231012","108-UY","2017/11/17 13:49:10","新北市新店區中興路二段67巷2號","121.546468333333","24.9709316666667","6500600","新店區"
"231022","187-VK","2017/11/17 13:49:03","新北市新店區永興路102-4號","121.545815","24.9303366666667","6500600","新店區"
"231016","KEA-2219","2017/11/17 13:49:02","新北市新店區竹林路71-7號","121.553645","24.951325","6500600","新店區"
"231026","256-BX","2017/11/17 13:49:06","新北市新店區三民路84巷3號","121.53463","24.97288","6500600","新店區"
"231034","268-BY","2017/11/17 13:49:09","新北市新店區達觀路16號","121.50297","24.9409166666667","6500600","新店區"
"231010","278-BY","2017/11/17 13:49:08","新北市新店區平等街48巷10號","121.535735","24.973195","6500600","新店區"
"231023","AAD-862","2017/11/17 13:49:02","新北市新店區國校路1號","121.538006666667","24.9569966666667","6500600","新店區"
"231005","355-BY","2017/11/17 13:48:58","新北市新店區寶中路116號","121.550025","24.9788516666667","6500600","新店區"
"231027","3712-VJ","2017/11/17 13:49:01","新北市新店區北宜路一段39巷20號","121.538763333333","24.9584716666667","6500600","新店區"
"231025","3713-VJ","2017/11/17 13:49:12","新北市新店區中央五街55號","121.527813333333","24.9755083333333","6500600","新店區"
"231024","4716-K9","2017/11/17 13:49:04","新北市新店區新生街53號","121.539013333333","24.9669316666667","6500600","新店區"
"231038","4715-K9","2017/11/17 13:49:03","新北市新店區安康路一段323-1號","121.521776666667","24.9634166666667","6500600","新店區"
"231036","512-UM","2017/11/17 13:49:07","新北市新店區安祥路110巷30弄5號","121.473791666667","24.9568266666667","6500600","新店區"
"231035","515-UM","2017/11/17 13:49:04","新北市新店區安忠路57巷26弄2號","121.513001666667","24.9587466666667","6500600","新店區"
"231003","616-UM","2017/11/17 13:48:57","新北市新店區中興路一段113號","121.541375","24.9626233333333","6500600","新店區"
"231006","617-UM","2017/11/17 13:48:54","新北市新店區北宜路一段260號","121.54571","24.95278","6500600","新店區"
"231030","618-UM","2017/11/17 13:49:02","新北市新店區安康路一段20號","121.531126666667","24.9611066666667","6500600","新店區"
"231001","619-UM","2017/11/17 13:48:57","新北市新店區三民路66號","121.535078333333","24.9723266666667","6500600","新店區"
"231013","719-UM","2017/11/17 13:49:15","新北市新店區二十張路25巷18弄27號","121.539255","24.9812483333333","6500600","新店區"
"231018","719-UY","2017/11/17 13:49:13","新北市新店區中正路382巷36號","121.535666666667","24.97833","6500600","新店區"
"231032","720-UM","2017/11/17 13:49:06","新北市新店區莒光路44巷21弄11-3號","121.518536666667","24.952115","6500600","新店區"
"231004","899-TW","2017/11/17 13:49:11","新北市新店區寶橋路132號","121.547333333333","24.9760766666667","6500600","新店區"
"231037","AKT-0513","2017/11/17 13:48:54","新北市新店區安康路三段355巷49號","121.485093333333","24.9493266666667","6500600","新店區"
"235030","003-UY","2017/11/17 13:49:11","新北市中和區水源路29巷2號","121.50414","25.0038133333333","6500300","中和區"
"235027","006-UY","2017/11/17 13:49:13","新北市中和區連城路319巷12號","121.48918","24.995095","6500300","中和區"
"235020","096-UM","2017/11/17 13:48:54","新北市中和區中正路1180號","121.481268333333","25.00994","6500300","中和區"
"235003","097-UM","2017/11/17 13:49:02","新北市中和區大勇街29巷21號","121.515723333333","24.9948083333333","6500300","中和區"
"235029","098-UM","2017/11/17 13:48:58","新北市中和區中山路二段2巷45弄26-6號","121.50139","25.0070433333333","6500300","中和區"
"235004","150-BY","2017/11/17 13:49:11","新北市中和區保健路48巷3號","121.510023333333","24.99695","6500300","中和區"
"235022","151-BY","2017/11/17 13:49:01","新北市中和區連城路532巷3-6號","121.475268333333","24.991975","6500300","中和區"
"235019","183-VK","2017/11/17 13:49:06","新北市中和區德光路77巷1號","121.469586666667","25.0034933333333","6500300","中和區"
"235002","185-VK","2017/11/17 13:49:04","新北市中和區自強路62巷12號","121.519455","24.9945433333333","6500300","中和區"
"235013","186-VK","2017/11/17 13:49:01","新北市中和區景安路132巷35號","121.50377","24.994465","6500300","中和區"
"235031","255-BX","2017/11/17 13:49:00","新北市中和區連城路340巷14弄2號","121.483325","24.997265","6500300","中和區"
"235008","293-VK","2017/11/17 13:49:08","新北市中和區中興街141號","121.500026666667","24.991295","6500300","中和區"
"235036","301-VK","2017/11/17 13:49:13","新北市中和區連城路2號","121.499273333333","25.0024333333333","6500300","中和區"
"235007","352-BY","2017/11/17 13:49:01","新北市中和區秀朗路三段107號","121.526425","24.9946583333333","6500300","中和區"
"235032","377-QA","2017/11/17 13:46:20","新北市中和區中正路211巷38號","121.497821666667","24.9926516666667","6500300","中和區"
"235025","378-QA","2017/11/17 13:49:04","新北市中和區民享街40號","121.473823333333","25.0028616666667","6500300","中和區"
"235035","269-TV","2017/11/17 13:49:00","新北市中和區立德街7巷7號","121.490143333333","25.0060416666667","6500300","中和區"
"235014","4979-A6","2017/11/17 13:49:10","新北市中和區忠孝街62巷3號","121.512681666667","24.9836333333333","6500300","中和區"
"235033","4980-A6","2017/11/17 13:49:08","新北市中和區圓通路119號","121.49935","24.99631","6500300","中和區"
"235006","551-UM","2017/11/17 13:49:12","新北市中和區秀朗路三段72號","121.526253333333","24.9944116666667","6500300","中和區"
"235034","558-UM","2017/11/17 13:45:07","新北市中和區景安路63號","121.506998333333","24.99791","6500300","中和區"
"235009","565-BX","2017/11/17 13:49:00","新北市中和區復興路32號","121.505136666667","24.9900166666667","6500300","中和區"
"235018","640-BX","2017/11/17 13:48:55","新北市中和區民享街56-1號","121.47399","25.002355","6500300","中和區"
"235024","647-TV","2017/11/17 13:48:54","新北市中和區中山路三段39-2號","121.477641666667","25.0053483333333","6500300","中和區"
"235011","732-UM","2017/11/17 13:48:53","新北市中和區興南路二段34巷28弄2號","121.505055","24.9864983333333","6500300","中和區"
"235010","733-UM","2017/11/17 13:48:56","新北市中和區仁愛街36巷45號","121.511275","24.98666","6500300","中和區"
"235026","800-TS","2017/11/17 13:49:08","新北市中和區中山路二段332巷1號","121.494058333333","25.0023233333333","6500300","中和區"
"235021","801-TS","2017/11/17 13:49:04","新北市中和區員山路325-5號","121.480985","25.001055","6500300","中和區"
"235005","802-TS","2017/11/17 13:49:12","新北市中和區永貞路274-3號","121.51341","25.0037733333333","6500300","中和區"
"235016","805-TS","2017/11/17 13:49:08","新北市中和區興南路二段399巷2-2號","121.498713333333","24.9793933333333","6500300","中和區"
"235012","896-TW","2017/11/17 13:49:04","新北市中和區南山路389號","121.506473333333","24.990305","6500300","中和區"
"235017","900-TW","2017/11/17 13:49:04","新北市中和區華福街42巷3號","121.466416666667","24.9962633333333","6500300","中和區"
"235028","911-UM","2017/11/17 13:49:03","新北市中和區泰和街40號","121.499225","24.99988","6500300","中和區"
"235001","157-BY","2017/11/17 13:48:55","新北市中和區華新街98號","121.508625","24.9829033333333","6500300","中和區"
"235001","AAC-213","2017/11/17 13:48:54","新北市中和區自立路183號","121.52356","24.9918116666667","6500300","中和區"
"235023","AAC-215","2017/11/17 13:48:54","新北市中和區圓通路385號","121.490275","24.9891366666667","6500300","中和區"
"220016","013-TV","2017/11/17 13:48:54","新北市板橋區太和街5巷12號","121.473303333333","25.01995","6500100","板橋區"
"220013","072-UY","2017/11/17 13:48:59","新北市板橋區漢生東路281號","121.471281666667","25.0090383333333","6500100","板橋區"
"220034","073-UY","2017/11/17 13:49:07","新北市板橋區大智街64號","121.454138333333","25.01556","6500100","板橋區"
"220105","075-UY","2017/11/17 13:48:57","新北市板橋區民生路二段161巷5號","121.470171666667","25.0196883333333","6500100","板橋區"
"220017","AAD-861","2017/11/17 13:49:09","新北市板橋區館前西路37號","121.458266666667","25.0068583333333","6500100","板橋區"
"220051","120-SR","2017/11/17 13:49:08","新北市板橋區民生路二段161巷5號","121.470298333333","25.019735","6500100","板橋區"
"247009","339-TH","2017/11/17 13:49:00","新北市三重區環河北路三段528號","121.488755","25.090935","6501400","蘆洲區"
"247003","335-TH","2017/11/17 13:49:11","新北市蘆洲區長榮路98號","121.462106666667","25.0838283333333","6501400","蘆洲區"
"247015","057-VK","2017/11/17 13:49:15","新北市蘆洲區光華路30號","121.469306666667","25.08329","6501400","蘆洲區"
"247005","056-VK","2017/11/17 13:49:12","新北市蘆洲區中山二路256號","121.469233333333","25.0790266666667","6501400","蘆洲區"
"247007","053-VK","2017/11/17 13:49:05","新北市蘆洲區集賢路223-1號","121.48261","25.0864983333333","6501400","蘆洲區"
"247017","001-UY","2017/11/17 13:49:04","新北市蘆洲區民族路422巷82弄36-8號","121.47381","25.0974883333333","6501400","蘆洲區"
"223007","437-BY","2017/11/17 09:30:39","新北市石碇區小粗坑(潭邊里)9-2號","121.67854","24.9857283333333","6501900","石碇區"
"207002","749-BX","2017/11/17 13:49:05","新北市萬里區崁腳里崁腳路166號","121.645085","25.1559716666667","6502800","萬里區"
"207001","662-BX","2017/11/17 13:49:07","新北市萬里區磺潭里公館崙58號","121.62859","25.20512","6502800","萬里區"
"208004","170-UY","2017/11/17 13:48:58","新北市金山區重和里三重橋1號","121.59553","25.1971933333333","6502700","金山區"
"236067","105-UM","2017/11/17 13:48:56","新北市土城區城林路6巷80號","121.4383","24.9797633333333","6501300","土城區"
"236041","107-UM","2017/11/17 13:49:09","新北市土城區城林路6巷80號","121.43842","24.9798683333333","6501300","土城區"
"236077","166-UM","2017/11/17 13:49:10","新北市土城區中央路三段122號","121.435141666667","24.9661416666667","6501300","土城區"
"236029","253-BX","2017/11/17 13:49:01","新北市土城區城林路6巷80號","121.438488333333","24.9797716666667","6501300","土城區"
"236025","269-VK","2017/11/17 13:49:01","新北市土城區福仁街33號","121.440065","24.9757183333333","6501300","土城區"
"236013","270-VK","2017/11/17 13:49:05","新北市土城區城林路6巷80號","121.438425","24.9797466666667","6501300","土城區"
"236035","271-VK","2017/11/17 13:49:05","新北市土城區城林路6巷80號","121.43861","24.9797716666667","6501300","土城區"
"236019","401-BY","2017/11/17 13:49:06","新北市土城區城林路6巷80號","121.438648333333","24.97978","6501300","土城區"
"236006","498-BY","2017/11/17 13:49:03","新北市土城區慶祥街1巷13號","121.437366666667","24.9743883333333","6501300","土城區"
"236057","912-UM","2017/11/17 13:49:11","新北市土城區城林路6巷80號","121.438473333333","24.9798816666667","6501300","土城區"
"236046","913-UM","2017/11/17 13:48:55","新北市土城區城林路6巷80號","121.43835","24.9798733333333","6501300","土城區"
"236061","915-UM","2017/11/17 13:49:01","新北市土城區城林路6巷80號","121.438296666667","24.9798","6501300","土城區"
"236054","AAC-216","2017/11/17 13:48:58","新北市土城區城林路6巷80號","121.438351666667","24.97983","6501300","土城區"
"242046","172-VK","2017/11/17 13:49:14","新北市新莊區新樹路609-7號","121.433896666667","25.0043616666667","6500500","新莊區"
"242001","233-RS","2017/11/17 08:25:01","新北市新莊區環河路48-7號","121.436915","25.009795","6500500","新莊區"
"238016","308-TH","2017/11/17 13:49:10","新北市樹林區中山路三段204號","121.387288333333","24.9684033333333","6500700","樹林區"
"221012","276-VK","2017/11/17 13:26:13","新北市汐止區汐萬路一段256巷3號","121.65346","25.07464","6501100","汐止區"
"221025","623-UM","2017/11/17 13:49:13","新北市汐止區大同路一段333號","121.638316666667","25.0593583333333","6501100","汐止區"
"221018","753-BX","2017/11/17 13:49:10","台北市南港區研究院路三段25巷7號","121.615895","25.0328866666667","6501100","汐止區"
"220027","145-BY","2017/11/17 13:49:05","新北市板橋區國光路12號","121.456853333333","25.01739","6500100","板橋區"
"220028","200-UY","2017/11/17 13:49:11","新北市板橋區大觀路二段265巷66弄16號","121.441908333333","24.9970666666667","6500100","板橋區"
"220030","610-BX","2017/11/17 13:49:11","新北市板橋區篤行路三段玉平巷68弄2號","121.428015","24.98624","6500100","板橋區"
"220052","255-TC","2017/11/17 13:49:02","新北市板橋區民生路二段120號","121.470543333333","25.019565","6500100","板橋區"
"220004","276-BY","2017/11/17 13:49:01","新北市板橋區四川路二段14號","121.4561","24.9962816666667","6500100","板橋區"
"220020","277-BY","2017/11/17 13:49:13","新北市板橋區大觀路三段63-2號","121.433493333333","24.9953016666667","6500100","板橋區"
"220050","280-UM","2017/11/17 13:49:04","新北市板橋區民生路二段161巷1號","121.47022","25.0199116666667","6500100","板橋區"
"220043","283-UM","2017/11/17 13:49:02","新北市板橋區民生路二段184號","121.471193333333","25.020125","6500100","板橋區"
"220019","283-VK","2017/11/17 13:49:09","新北市板橋區忠孝路176巷5弄2號","121.46475","25.00199","6500100","板橋區"
"220001","285-VK","2017/11/17 13:49:01","新北市板橋區民生路二段121號","121.470816666667","25.0185","6500100","板橋區"
"220031","286-VK","2017/11/17 13:49:10","新北市板橋區大觀路二段20巷15號","121.444658333333","25.003865","6500100","板橋區"
"220029","287-VK","2017/11/17 13:49:13","新北市板橋區南雅西路二段124號","121.45209","25.0125433333333","6500100","板橋區"
"220039","288-VK","2017/11/14 14:42:18","新北市板橋區民生路二段89-6號","121.470558333333","25.0192466666667","6500100","板橋區"
"220009","293-UM","2017/11/17 13:49:10","新北市板橋區太和街6巷1號","121.473631666667","25.0201783333333","6500100","板橋區"
"220032","296-UM","2017/11/17 13:49:10","新北市板橋區大觀路二段150巷22號","121.441673333333","24.99949","6500100","板橋區"
"220023","297-UM","2017/11/17 13:49:06","新北市板橋區南雅西路一段174巷1弄3號","121.453011666667","25.0076716666667","6500100","板橋區"
"220047","299-UM","2017/11/17 00:30:12","新北市板橋區民生路二段161巷9號","121.470243333333","25.019665","6500100","板橋區"
"220010","305-R5","2017/11/17 13:48:57","新北市板橋區中山路二段27號","121.47262","25.0151916666667","6500100","板橋區"
"220041","307-R5","2017/11/17 13:48:55","新北市板橋區民生路二段120號","121.470443333333","25.0195566666667","6500100","板橋區"
"220012","486-VK","2017/11/17 13:48:55","新北市板橋區民生路二段15-1號","121.47307","25.0159133333333","6500100","板橋區"
"220037","491-VK","2017/11/17 01:35:01","新北市板橋區民生路二段171號","121.469863333333","25.0200966666667","6500100","板橋區"
"220104","560-BX","2017/11/17 13:49:06","新北市板橋區中正路275巷77號","121.452371666667","25.0181383333333","6500100","板橋區"
"220011","609-BX","2017/11/17 13:49:10","新北市板橋區中山路二段50-1號","121.473215","25.0155233333333","6500100","板橋區"
"220040","637-BX","2017/11/17 13:49:12","新北市板橋區民生路二段161巷1號","121.470206666667","25.0200683333333","6500100","板橋區"
"220005","686-BX","2017/11/17 13:48:55","新北市鶯歌區鶯桃路38-1號","121.341928333333","24.9526816666667","6500100","板橋區"
"220025","687-BX","2017/11/17 13:49:13","新北市板橋區篤行路一段10號","121.432135","24.99549","6500100","板橋區"
"220002","741-BX","2017/11/17 13:49:11","新北市板橋區華東街1-9號","121.448076666667","24.994945","6500100","板橋區"
"220005","806-UM","2017/11/17 13:48:59","新北市板橋區華東街1-9號","121.448161666667","24.9949066666667","6500100","板橋區"
"220003","827-TW","2017/11/17 13:49:00","新北市板橋區南雅南路二段120-1號","121.452318333333","24.9996433333333","6500100","板橋區"
"220014","829-TW","2017/11/17 13:49:05","新北市板橋區民生路一段53號","121.475598333333","25.0130883333333","6500100","板橋區"
"220038","833-TW","2017/11/17 13:48:57","新北市板橋區民生路二段161巷1號","121.470088333333","25.020005","6500100","板橋區"
"220022","895-R6","2017/11/17 13:49:08","新北市板橋區府中路29號","121.458933333333","25.0089183333333","6500100","板橋區"
"220021","985-R7","2017/11/17 13:48:59","新北市板橋區館前西路121號","121.456665","25.0075583333333","6500100","板橋區"
"220046","AAC-210","2017/11/17 13:49:00","新北市板橋區民生路二段161巷3號","121.470108333333","25.0197666666667","6500100","板橋區"
"220018","AAC-253","2017/11/17 13:49:11","新北市板橋區館前西路4-1號","121.459146666667","25.007055","6500100","板橋區"
