"lineid","car","time","location","longitude","latitude","cityid","cityname"
"234044","148-BY","2017/11/17 13:59:03","新北市永和區成功路一段121號","121.526856666667","25.0019283333333","6500400","永和區"
"234012","149-BY","2017/11/17 13:59:11","新北市永和區仁愛路289號","121.505383333333","25.0093983333333","6500400","永和區"
"234005","207-UY","2017/11/17 13:59:12","新北市中和區中和路246號","121.507243333333","24.999595","6500400","永和區"
"234078","298-R6","2017/11/17 13:58:56","新北市永和區永利路98號","121.521083333333","25.0035716666667","6500400","永和區"
"234036","336-UY","2017/11/17 13:59:10","新北市永和區成功路二段112號","121.52662","24.9981166666667","6500400","永和區"
"234062","337-UY","2017/11/17 13:59:07","新北市永和區中正路412巷20弄27號","121.51914","25.0013116666667","6500400","永和區"
"234084","338-UY","2017/11/17 13:59:11","新北市永和區福和路110號","121.522025","25.007895","6500400","永和區"
"234068","552-UM","2017/11/17 13:59:08","新北市永和區福和路224號","121.519131666667","25.0079583333333","6500400","永和區"
"234052","553-UM","2017/11/17 13:59:11","新北市永和區竹林路39巷42弄1號","121.520073333333","25.0151816666667","6500400","永和區"
"234015","745-BX","2017/11/17 13:58:51","新北市永和區文化路87號","121.513478333333","25.01518","6500400","永和區"
"234028","746-BX","2017/11/17 13:59:06","新北市永和區四維街67號","121.525628333333","24.9978683333333","6500400","永和區"
"234060","AAD-866","2017/11/17 13:59:04","新北市永和區中正路283巷82號","121.515533333333","24.99892","6500400","永和區"
"234040","862-TW","2017/11/17 13:59:03","新北市永和區中和路335巷14號","121.507566666667","25.0002966666667","6500400","永和區"
"234048","863-TW","2017/11/17 13:58:53","新北市永和區保安路264號","121.505913333333","25.0123716666667","6500400","永和區"
"234025","9381-KE","2017/11/17 13:59:02","新北市永和區安樂路304巷10弄4號","121.514673333333","25.0048716666667","6500400","永和區"
"234010","9373-KE","2017/11/17 13:59:00","新北市永和區仁愛路352巷92弄16號","121.50133","25.0082583333333","6500400","永和區"
"248019","225-UY","2017/11/17 13:58:30","新北市五股區凌雲路三段57號","121.425323333333","25.1250233333333","6501500","五股區"
"234022","9380-KE","2017/11/17 13:59:09","新北市永和區復興街33號","121.516388333333","25.013165","6500400","永和區"
"234076","969-R7","2017/11/17 13:58:54","新北市永和區民權路58巷2弄2號","121.519681666667","24.9983416666667","6500400","永和區"
"234072","AAC-211","2017/11/17 13:59:12","新北市永和區豫溪街185號","121.522488333333","25.0104033333333","6500400","永和區"
"234066","AAC-212","2017/11/17 13:59:09","新北市永和區永貞路313號","121.51","25.0065183333333","6500400","永和區"
"234001","AAC-295","2017/11/17 13:59:09","新北市永和區福和路310號","121.516316666667","25.0073716666667","6500400","永和區"
"244004","657-BX","2017/11/17 13:59:08","新北市林口區信義路100號","121.381433333333","25.07887","6501700","林口區"
"231029","001-UM","2017/11/17 13:59:08","新北市新店區安康路二段81號","121.513591666667","24.9629833333333","6500600","新店區"
"231002","002-UM","2017/11/17 13:59:02","新北市新店區中正路603號","121.533846666667","24.9883933333333","6500600","新店區"
"231028","046-UY","2017/11/17 13:59:06","新北市新店區安和路三段119號","121.517678333333","24.9850083333333","6500600","新店區"
"231012","108-UY","2017/11/17 13:59:13","","121.546253333333","24.967885","6500600","新店區"
"231022","187-VK","2017/11/17 13:59:03","新北市新店區自強路59號","121.546313333333","24.9247783333333","6500600","新店區"
"231016","KEA-2219","2017/11/17 13:59:02","新北市新店區北宜路二段82-40號","121.5534","24.9531966666667","6500600","新店區"
"231026","256-BX","2017/11/17 13:59:01","新北市新店區安康路一段44號","121.530846666667","24.961065","6500600","新店區"
"231034","268-BY","2017/11/17 13:59:09","","121.502353333333","24.9406433333333","6500600","新店區"
"231023","AAD-862","2017/11/17 13:59:02","新北市新店區文中路51號","121.539761666667","24.95666","6500600","新店區"
"231005","355-BY","2017/11/17 13:58:58","新北市新店區中興路三段200號","121.543905","24.9818916666667","6500600","新店區"
"231027","3712-VJ","2017/11/17 13:59:01","新北市新店區北宜路一段39巷20號","121.538835","24.9584666666667","6500600","新店區"
"231025","3713-VJ","2017/11/17 13:58:52","新北市新店區中正路275巷18號","121.537171666667","24.97355","6500600","新店區"
"231024","4716-K9","2017/11/17 13:59:04","新北市新店區新生街13巷11號","121.539553333333","24.9659533333333","6500600","新店區"
"231038","4715-K9","2017/11/17 13:59:03","新北市新店區溪洲路121號","121.531326666667","24.9627","6500600","新店區"
"231036","512-UM","2017/11/17 13:59:07","新北市新店區安祥路109巷3弄18號","121.475776666667","24.95996","6500600","新店區"
"231035","515-UM","2017/11/17 13:59:04","新北市新店區安康路二段12號","121.5162","24.9637883333333","6500600","新店區"
"231003","616-UM","2017/11/17 13:58:57","新北市新店區中興路一段34號","121.538661666667","24.9586183333333","6500600","新店區"
"231006","617-UM","2017/11/17 13:59:13","新北市新店區北宜路二段211號","121.553211666667","24.9533083333333","6500600","新店區"
"231030","618-UM","2017/11/17 13:59:02","新北市新店區吉安街11號","121.516608333333","24.9657416666667","6500600","新店區"
"231001","619-UM","2017/11/17 13:58:57","新北市新店區三民路24號","121.537096666667","24.971015","6500600","新店區"
"231013","719-UM","2017/11/17 13:58:55","新北市新店區明德路111號","121.541535","24.979465","6500600","新店區"
"231018","719-UY","2017/11/17 13:59:13","新北市新店區中央路116號","121.531116666667","24.9751766666667","6500600","新店區"
"231032","720-UM","2017/11/17 13:58:46","新北市新店區莒光路44巷21弄11-3號","121.518488333333","24.95215","6500600","新店區"
"231004","899-TW","2017/11/17 13:59:11","","121.542941666667","24.9746683333333","6500600","新店區"
"231037","AKT-0513","2017/11/17 13:58:54","新北市新店區安康路三段165巷2弄12號","121.489008333333","24.9513883333333","6500600","新店區"
"235030","003-UY","2017/11/17 13:59:11","新北市中和區中山路二段131巷7號","121.502783333333","25.0026733333333","6500300","中和區"
"235027","006-UY","2017/11/17 13:59:13","新北市中和區中正路548號","121.487181666667","24.9945016666667","6500300","中和區"
"235020","096-UM","2017/11/17 13:58:54","新北市板橋區三民路二段228號","121.47883","25.01142","6500300","中和區"
"235003","097-UM","2017/11/17 13:59:02","新北市中和區景平路64巷13弄22號","121.521515","24.9914866666667","6500300","中和區"
"235029","098-UM","2017/11/17 13:58:58","新北市中和區勝利路7號","121.499788333333","25.0082416666667","6500300","中和區"
"235004","150-BY","2017/11/17 13:59:07","新北市中和區保健路61巷5弄2號","121.509681666667","24.9976416666667","6500300","中和區"
"235022","151-BY","2017/11/17 13:59:10","新北市中和區連城路428巷13號","121.47981","24.9955316666667","6500300","中和區"
"235019","183-VK","2017/11/17 13:59:06","新北市中和區中山路三段210號","121.471458333333","25.0065366666667","6500300","中和區"
"235002","185-VK","2017/11/17 13:59:04","新北市中和區大勇街31巷23號","121.517056666667","24.99457","6500300","中和區"
"235013","186-VK","2017/11/17 13:58:41","新北市中和區景新街212號","121.506995","24.9952916666667","6500300","中和區"
"235031","255-BX","2017/11/17 13:59:00","新北市中和區新生街184號","121.483763333333","24.9997","6500300","中和區"
"235008","293-VK","2017/11/17 13:59:08","新北市中和區中興街180巷14號","121.498655","24.990385","6500300","中和區"
"235036","301-VK","2017/11/17 13:59:13","新北市永和區保生路2號","121.50694","25.0071433333333","6500300","中和區"
"235007","352-BY","2017/11/17 13:59:00","新北市中和區景平路1號","121.525563333333","24.9903","6500300","中和區"
"235032","377-QA","2017/11/17 13:59:00","新北市中和區圓通路162-1號","121.497391666667","24.9953933333333","6500300","中和區"
"235025","378-QA","2017/11/17 13:58:56","新北市中和區民有街3號","121.475626666667","25.005735","6500300","中和區"
"235035","269-TV","2017/11/17 13:58:59","新北市中和區立德街73號","121.487065","25.008055","6500300","中和區"
"235014","4979-A6","2017/11/17 13:59:10","","121.507663333333","24.983955","6500300","中和區"
"235033","4980-A6","2017/11/17 13:59:08","新北市中和區中和路165巷3號","121.502833333333","25.000155","6500300","中和區"
"235006","551-UM","2017/11/17 13:59:12","新北市中和區秀朗路三段22巷14號","121.525726666667","24.99636","6500300","中和區"
"235034","558-UM","2017/11/17 13:59:07","新北市中和區中和路126號","121.50332","24.9997133333333","6500300","中和區"
"235009","565-BX","2017/11/17 13:59:00","新北市中和區景新街412號","121.512751666667","24.9891416666667","6500300","中和區"
"235018","640-BX","2017/11/17 13:58:55","新北市中和區民享街28號","121.473928333333","25.003545","6500300","中和區"
"235024","647-TV","2017/11/17 13:58:54","新北市中和區民治街1巷2號","121.474965","25.005465","6500300","中和區"
"235011","732-UM","2017/11/17 13:58:53","新北市中和區興南路二段66號","121.506205","24.9848966666667","6500300","中和區"
"235010","733-UM","2017/11/17 13:58:56","新北市中和區興南路一段135巷22弄4號","121.509098333333","24.986875","6500300","中和區"
"235026","800-TS","2017/11/17 13:59:07","新北市中和區中山路二段340巷53號","121.49291","25.004325","6500300","中和區"
"235021","801-TS","2017/11/17 13:59:04","新北市中和區民利街40巷1弄12號","121.478966666667","24.99907","6500300","中和區"
"235005","802-TS","2017/11/17 13:59:12","新北市中和區中安街60號","121.512488333333","25.002355","6500300","中和區"
"235016","805-TS","2017/11/17 13:59:08","新北市中和區興南路二段256號","121.502916666667","24.98174","6500300","中和區"
"235012","896-TW","2017/11/17 13:59:04","新北市中和區華新街61號","121.508093333333","24.9842416666667","6500300","中和區"
"235017","900-TW","2017/11/17 13:59:04","新北市中和區和平路200巷31號","121.465003333333","24.9945933333333","6500300","中和區"
"235028","911-UM","2017/11/17 13:59:01","新北市中和區泰和街36號","121.49933","25.0001466666667","6500300","中和區"
"235001","157-BY","2017/11/17 13:58:55","新北市中和區忠孝街11巷3號","121.509818333333","24.9831583333333","6500300","中和區"
"235001","AAC-213","2017/11/17 13:59:14","新北市中和區自立路99巷4號","121.522403333333","24.994795","6500300","中和區"
"235023","AAC-215","2017/11/17 13:58:54","新北市中和區圓通路367巷20弄23號","121.491435","24.9883583333333","6500300","中和區"
"220016","013-TV","2017/11/17 13:58:34","新北市板橋區中山路二段443巷2號","121.48096","25.0205266666667","6500100","板橋區"
"220013","072-UY","2017/11/17 13:59:00","新北市板橋區漢生東路337號","121.472068333333","25.0075766666667","6500100","板橋區"
"220034","073-UY","2017/11/17 13:59:07","新北市板橋區中正路236巷18號","121.456665","25.0191216666667","6500100","板橋區"
"220105","075-UY","2017/11/17 13:58:57","新北市板橋區文化路二段124巷28-2號","121.471225","25.0256816666667","6500100","板橋區"
"220017","AAD-861","2017/11/17 13:59:09","新北市板橋區華興街76號","121.457103333333","25.00508","6500100","板橋區"
"220051","120-SR","2017/11/17 13:59:08","新北市板橋區縣民大道三段247巷19號","121.481458333333","25.0268416666667","6500100","板橋區"
"247019","500-BY","2017/11/17 13:59:12","新北市蘆洲區民族路422巷50號","121.473811666667","25.0931133333333","6501400","蘆洲區"
"247009","339-TH","2017/11/17 13:59:00","新北市蘆洲區集賢路400號","121.480225","25.08198","6501400","蘆洲區"
"247001","337-TH","2017/11/17 13:59:02","新北市蘆洲區三民路605號","121.460575","25.0936783333333","6501400","蘆洲區"
"247003","335-TH","2017/11/17 13:58:52","新北市蘆洲區長安街100號","121.461701666667","25.080815","6501400","蘆洲區"
"247015","057-VK","2017/11/17 13:58:55","新北市蘆洲區光華路36巷12號","121.468825","25.0834116666667","6501400","蘆洲區"
"247005","056-VK","2017/11/17 13:59:12","","121.465496666667","25.0780016666667","6501400","蘆洲區"
"247007","053-VK","2017/11/17 13:59:05","新北市蘆洲區中山一路6號","121.480975","25.0804366666667","6501400","蘆洲區"
"247017","001-UY","2017/11/17 13:59:04","","121.475865","25.0890833333333","6501400","蘆洲區"
"223007","437-BY","2017/11/17 09:30:39","新北市石碇區小粗坑(潭邊里)9-2號","121.67854","24.9857283333333","6501900","石碇區"
"207002","749-BX","2017/11/17 13:59:05","新北市萬里區溪底里溪底路10號","121.617805","25.1487066666667","6502800","萬里區"
"207001","662-BX","2017/11/17 13:59:07","新北市萬里區磺潭里清水18號","121.637765","25.1977166666667","6502800","萬里區"
"208004","170-UY","2017/11/17 13:58:58","新北市金山區山城路29號","121.59838","25.2019566666667","6502700","金山區"
"236067","105-UM","2017/11/17 13:58:56","新北市土城區中華路二段2號","121.439446666667","24.979605","6501300","土城區"
"236041","107-UM","2017/11/17 13:59:09","新北市土城區裕生路61號","121.447653333333","24.9861333333333","6501300","土城區"
"236077","166-UM","2017/11/17 13:59:10","新北市土城區永寧路32巷10弄21號","121.429018333333","24.9610416666667","6501300","土城區"
"236029","253-BX","2017/11/17 13:57:47","新北市土城區中央路二段280號","121.44074","24.9740916666667","6501300","土城區"
"236025","269-VK","2017/11/17 13:59:01","新北市土城區承天路20號","121.43958","24.9634066666667","6501300","土城區"
"236013","270-VK","2017/11/17 13:59:05","新北市土城區城林路6巷80號","121.438668333333","24.9797566666667","6501300","土城區"
"236035","271-VK","2017/11/17 13:59:05","新北市土城區城林路6巷80號","121.438596666667","24.9797683333333","6501300","土城區"
"236019","401-BY","2017/11/17 13:59:06","","121.438635","24.9797683333333","6501300","土城區"
"236006","498-BY","2017/11/17 13:59:03","新北市土城區中央路一段365巷30弄2號","121.446386666667","24.9799833333333","6501300","土城區"
"236057","912-UM","2017/11/17 13:59:11","新北市土城區中央路三段188號","121.430446666667","24.9649033333333","6501300","土城區"
"236046","913-UM","2017/11/17 13:58:55","新北市土城區城林路6巷80號","121.438125","24.9795516666667","6501300","土城區"
"236061","915-UM","2017/11/17 13:59:01","新北市土城區城林路6巷80號","121.438345","24.979805","6501300","土城區"
"236054","AAC-216","2017/11/17 13:58:58","新北市土城區城林路6巷80號","121.438336666667","24.9798216666667","6501300","土城區"
"242046","172-VK","2017/11/17 13:59:13","新北市新莊區瓊林南路7號","121.43837","25.0205866666667","6500500","新莊區"
"242001","233-RS","2017/11/17 08:25:01","新北市新莊區環河路48-7號","121.436915","25.009795","6500500","新莊區"
"221012","276-VK","2017/11/17 13:26:13","新北市汐止區汐萬路一段256巷3號","121.65346","25.07464","6501100","汐止區"
"221025","623-UM","2017/11/17 13:59:13","新北市汐止區樟樹二路266號","121.640906666667","25.0682033333333","6501100","汐止區"
"221018","753-BX","2017/11/17 13:59:10","新北市新店區碧潭路123號","121.534306666667","24.9594166666667","6501100","汐止區"
"220027","145-BY","2017/11/17 13:59:08","新北市板橋區民權路202巷7弄40號","121.45853","25.015045","6500100","板橋區"
"220028","200-UY","2017/11/17 13:59:11","新北市板橋區大觀路二段265巷1弄12號","121.443493333333","24.9985316666667","6500100","板橋區"
"220030","610-BX","2017/11/17 13:59:05","新北市板橋區溪崑一街126號","121.429193333333","24.9881983333333","6500100","板橋區"
"220052","255-TC","2017/11/17 13:59:07","新北市板橋區文化路一段188巷9弄39號","121.469336666667","25.0192433333333","6500100","板橋區"
"220004","276-BY","2017/11/17 13:59:01","新北市板橋區信義路148號","121.458935","24.991775","6500100","板橋區"
"220020","277-BY","2017/11/17 13:59:13","新北市板橋區大觀路三段50巷43號","121.432073333333","24.995595","6500100","板橋區"
"220050","280-UM","2017/11/17 13:59:04","新北市板橋區文化路二段182巷1弄2號","121.471216666667","25.0273216666667","6500100","板橋區"
"220043","283-UM","2017/11/17 13:59:02","新北市板橋區文化路二段76號","121.469475","25.02504","6500100","板橋區"
"220019","283-VK","2017/11/17 13:59:09","新北市板橋區忠孝路132巷1號","121.463475","25.002285","6500100","板橋區"
"220001","285-VK","2017/11/17 13:59:10","新北市板橋區中山路二段89巷29號","121.473686666667","25.0168066666667","6500100","板橋區"
"220031","286-VK","2017/11/17 13:59:10","新北市板橋區大觀路一段38巷158號","121.442238333333","25.0045266666667","6500100","板橋區"
"220029","287-VK","2017/11/17 13:59:13","新北市板橋區光華街19巷11號","121.453345","25.011985","6500100","板橋區"
"220039","288-VK","2017/11/17 13:59:07","新北市板橋區四維路177巷2弄1號","121.46399","25.026245","6500100","板橋區"
"220009","293-UM","2017/11/17 13:59:10","新北市板橋區懷仁街37-4號","121.476568333333","25.0193866666667","6500100","板橋區"
"220032","296-UM","2017/11/17 13:58:55","新北市板橋區大觀路三段59巷17弄6-1號","121.43539","24.995605","6500100","板橋區"
"220023","297-UM","2017/11/17 13:59:06","","121.454686666667","25.0086133333333","6500100","板橋區"
"220047","299-UM","2017/11/17 00:30:12","新北市板橋區民生路二段161巷9號","121.470243333333","25.019665","6500100","板橋區"
"220010","305-R5","2017/11/17 13:59:11","新北市板橋區三民路二段245巷63號","121.480916666667","25.0126283333333","6500100","板橋區"
"220041","307-R5","2017/11/17 13:58:55","新北市板橋區文化路一段243號","121.464268333333","25.0178366666667","6500100","板橋區"
"220012","486-VK","2017/11/17 13:58:55","新北市板橋區中山路一段283巷2弄25號","121.470625","25.0153316666667","6500100","板橋區"
"220037","491-VK","2017/11/17 13:58:58","新北市板橋區文化路二段26號","121.468978333333","25.02464","6500100","板橋區"
"220104","560-BX","2017/11/17 13:59:06","新北市板橋區中正路341巷33號","121.454276666667","25.0197633333333","6500100","板橋區"
"220011","609-BX","2017/11/17 13:59:10","新北市板橋區中山路二段152號","121.476701666667","25.0171433333333","6500100","板橋區"
"220040","637-BX","2017/11/17 13:59:12","新北市板橋區大同街37號","121.477978333333","25.0272783333333","6500100","板橋區"
"220005","686-BX","2017/11/17 13:58:55","新北市鶯歌區中山路243號","121.345993333333","24.9569683333333","6500100","板橋區"
"220025","687-BX","2017/11/17 13:59:13","新北市板橋區大觀路二段174巷177號","121.442073333333","25.00367","6500100","板橋區"
"220042","689-BX","2017/11/17 13:59:00","新北市板橋區文化路一段435巷16號","121.46793","25.0236066666667","6500100","板橋區"
"220002","741-BX","2017/11/17 13:59:11","新北市板橋區四川路一段87巷66號","121.460658333333","25.0056016666667","6500100","板橋區"
"220005","806-UM","2017/11/17 13:58:59","新北市板橋區館前西路46巷2號","121.458905","25.00703","6500100","板橋區"
"220003","827-TW","2017/11/17 13:59:00","新北市板橋區中山路一段143號","121.464573333333","25.0117933333333","6500100","板橋區"
"220014","829-TW","2017/11/17 13:59:05","新北市板橋區三民路二段正隆巷12弄23號","121.477306666667","25.0137316666667","6500100","板橋區"
"220045","831-TW","2017/11/17 13:59:07","新北市板橋區莊敬路167號","121.471008333333","25.0240266666667","6500100","板橋區"
"220038","833-TW","2017/11/17 13:58:57","新北市板橋區文化路二段294號","121.472065","25.0296033333333","6500100","板橋區"
"220022","895-R6","2017/11/17 13:59:04","新北市板橋區南雅東路1號","121.455576666667","25.00555","6500100","板橋區"
"220021","985-R7","2017/11/17 13:58:59","新北市板橋區林園街7-1號","121.453993333333","25.009205","6500100","板橋區"
"220046","AAC-210","2017/11/17 13:59:00","新北市板橋區陽明街162號","121.46349","25.0244866666667","6500100","板橋區"
"220018","AAC-253","2017/11/17 13:59:11","新北市板橋區四川路一段258號","121.45907","25.0012733333333","6500100","板橋區"
