"lineid","car","time","location","longitude","latitude","cityid","cityname"
"234044","148-BY","2017/11/17 14:08:58","新北市永和區得和路324號","121.523171666667","24.99953","6500400","永和區"
"234012","149-BY","2017/11/17 14:09:03","新北市永和區保生路5巷3號","121.506021666667","25.0071566666667","6500400","永和區"
"234005","207-UY","2017/11/17 14:08:52","新北市中和區保平路231號","121.508005","25.0044183333333","6500400","永和區"
"234078","298-R6","2017/11/17 14:09:05","新北市永和區永亨路100號","121.523115","25.0048883333333","6500400","永和區"
"234036","336-UY","2017/11/17 14:09:05","新北市永和區成功路一段47巷7號","121.527528333333","25.0041166666667","6500400","永和區"
"234062","337-UY","2017/11/17 14:09:07","新北市永和區永利路152號","121.522425","25.0027483333333","6500400","永和區"
"234084","338-UY","2017/11/17 14:09:11","新北市永和區中正路618號","121.51707","25.0076916666667","6500400","永和區"
"234068","552-UM","2017/11/17 14:09:08","新北市永和區永貞路10巷7號","121.520208333333","25.0071433333333","6500400","永和區"
"234052","553-UM","2017/11/17 14:09:11","新北市永和區博愛街39號","121.518943333333","25.0160016666667","6500400","永和區"
"234015","745-BX","2017/11/17 14:08:54","新北市永和區仁愛路48號","121.51393","25.0133833333333","6500400","永和區"
"234028","746-BX","2017/11/17 14:09:06","新北市永和區民生路20號","121.52253","24.9973583333333","6500400","永和區"
"234060","AAD-866","2017/11/17 14:09:04","新北市中和區安平路222號","121.514011666667","25.0001133333333","6500400","永和區"
"234040","862-TW","2017/11/17 14:09:03","新北市永和區雙和街16巷18號","121.509895","25.0027216666667","6500400","永和區"
"234048","863-TW","2017/11/17 14:09:13","新北市永和區環河西路二段63號","121.506975","25.0153483333333","6500400","永和區"
"234025","9381-KE","2017/11/17 14:09:02","新北市永和區安樂路198巷3號","121.515475","25.0019883333333","6500400","永和區"
"234010","9373-KE","2017/11/17 14:09:00","新北市永和區仁愛路352巷122弄30號","121.500731666667","25.0091583333333","6500400","永和區"
"248019","225-UY","2017/11/17 13:58:30","新北市五股區凌雲路三段57號","121.425323333333","25.1250233333333","6501500","五股區"
"234022","9380-KE","2017/11/17 14:09:04","新北市永和區光復街2巷16弄9號","121.517603333333","25.0163466666667","6500400","永和區"
"234076","969-R7","2017/11/17 14:09:14","新北市永和區民族街67巷18號","121.519496666667","24.9971333333333","6500400","永和區"
"234072","AAC-211","2017/11/17 14:09:11","新北市永和區竹林路201巷24弄4號","121.522235","25.0096333333333","6500400","永和區"
"234066","AAC-212","2017/11/17 14:09:09","新北市永和區保平路236巷12弄4號","121.50878","25.0063766666667","6500400","永和區"
"234001","AAC-295","2017/11/17 14:09:09","","121.515801666667","25.0099883333333","6500400","永和區"
"244004","657-BX","2017/11/17 14:08:59","新北市林口區竹林路266號","121.389645","25.0808483333333","6501700","林口區"
"231029","001-UM","2017/11/17 14:09:07","新北市新店區安康路二段159巷2號","121.510358333333","24.9592983333333","6500600","新店區"
"231002","002-UM","2017/11/17 14:09:02","新北市新店區中正路487號","121.533713333333","24.9821333333333","6500600","新店區"
"231028","046-UY","2017/11/17 14:09:06","新北市新店區安和路二段251號","121.516613333333","24.9775983333333","6500600","新店區"
"231012","108-UY","2017/11/17 14:09:09","新北市新店區五峰路63巷8弄44號","121.547956666667","24.9685966666667","6500600","新店區"
"231022","187-VK","2017/11/17 14:09:03","新北市新店區新烏路二段212-1號","121.547553333333","24.9162133333333","6500600","新店區"
"231016","KEA-2219","2017/11/17 14:09:02","新北市新店區郵政路101號","121.554241666667","24.9513866666667","6500600","新店區"
"231034","268-BY","2017/11/17 14:09:09","新北市新店區黎明路3號","121.50355","24.952455","6500600","新店區"
"231023","AAD-862","2017/11/17 14:09:02","新北市新店區文中路40號","121.539751666667","24.9565783333333","6500600","新店區"
"231005","355-BY","2017/11/17 14:09:09","新北市新店區中興路三段253號","121.542583333333","24.984195","6500600","新店區"
"231027","3712-VJ","2017/11/17 14:09:01","新北市新店區光明街168巷5弄2-2號","121.540408333333","24.96176","6500600","新店區"
"231025","3713-VJ","2017/11/17 14:09:12","新北市新店區中正路328巷42弄14號","121.538568333333","24.975835","6500600","新店區"
"231024","4716-K9","2017/11/17 14:09:04","新北市新店區溪園路365-8號","121.522445","24.9807583333333","6500600","新店區"
"231038","4715-K9","2017/11/17 14:09:03","新北市新店區溪洲路121號","121.531331666667","24.962695","6500600","新店區"
"231036","512-UM","2017/11/17 14:09:07","新北市新店區安祥路109巷85弄17號","121.4782","24.960165","6500600","新店區"
"231035","515-UM","2017/11/17 14:09:04","新北市新店區安和路一段52巷2-1號","121.517728333333","24.9667216666667","6500600","新店區"
"231003","616-UM","2017/11/17 14:08:57","新北市新店區中興路一段162號","121.542663333333","24.9640783333333","6500600","新店區"
"231006","617-UM","2017/11/17 14:09:00","新北市新店區北宜路二段108-1號","121.555786666667","24.9536933333333","6500600","新店區"
"231030","618-UM","2017/11/17 14:09:02","新北市新店區安民街65巷21-2號","121.51519","24.9675483333333","6500600","新店區"
"231001","619-UM","2017/11/17 14:08:57","新北市新店區中華路139號","121.538386666667","24.9700233333333","6500600","新店區"
"231013","719-UM","2017/11/17 14:09:12","新北市新店區北新路三段65巷34弄1號","121.53999","24.981285","6500600","新店區"
"231018","719-UY","2017/11/17 14:09:13","新北市新店區中央五街15號","121.52964","24.9743283333333","6500600","新店區"
"231032","720-UM","2017/11/17 14:09:06","新北市新店區太平路44號","121.533056666667","24.9592516666667","6500600","新店區"
"231004","899-TW","2017/11/17 14:09:11","新北市新店區北新路二段156-1號","121.542965","24.975515","6500600","新店區"
"231037","AKT-0513","2017/11/17 14:09:14","新北市新店區安康路二段362-5號","121.5016","24.9573","6500600","新店區"
"235030","003-UY","2017/11/17 14:09:11","新北市中和區廣福路14號","121.505271666667","25.0027083333333","6500300","中和區"
"235027","006-UY","2017/11/17 14:08:53","新北市中和區連城路249-1號","121.493221666667","24.996625","6500300","中和區"
"235020","096-UM","2017/11/17 14:08:54","新北市中和區新民街12-3號","121.481871666667","25.007265","6500300","中和區"
"235003","097-UM","2017/11/17 14:09:02","新北市中和區秀峰街56號","121.521008333333","24.9903566666667","6500300","中和區"
"235029","098-UM","2017/11/17 14:08:58","新北市中和區中山路二段64巷7弄27號","121.502496666667","25.004545","6500300","中和區"
"235004","150-BY","2017/11/17 14:09:07","新北市中和區宜安路121號","121.50999","24.9979166666667","6500300","中和區"
"235022","151-BY","2017/11/17 14:09:01","新北市中和區連城路523巷9弄11號","121.48223","24.9947116666667","6500300","中和區"
"235019","183-VK","2017/11/17 14:09:06","新北市中和區德光路62號","121.469658333333","25.00396","6500300","中和區"
"235002","185-VK","2017/11/17 14:09:04","新北市中和區立人街24-5號","121.518888333333","24.994185","6500300","中和區"
"235013","186-VK","2017/11/17 14:09:01","新北市中和區明禮街25巷2號","121.504306666667","24.9961583333333","6500300","中和區"
"235031","255-BX","2017/11/17 14:09:00","新北市中和區新生街168號","121.483665","25.0001316666667","6500300","中和區"
"235008","293-VK","2017/11/17 14:09:08","新北市中和區中興街214號","121.49954","24.9900416666667","6500300","中和區"
"235036","301-VK","2017/11/17 14:09:13","新北市中和區中山路二段173號","121.501226666667","25.0027216666667","6500300","中和區"
"235007","352-BY","2017/11/17 14:09:00","新北市中和區景平路288號","121.513401666667","24.9928483333333","6500300","中和區"
"235032","377-QA","2017/11/17 14:09:10","新北市中和區連勝街38巷12號","121.497908333333","24.9981","6500300","中和區"
"235025","378-QA","2017/11/17 14:08:56","新北市中和區新生街114巷37弄12號","121.482278333333","25.001855","6500300","中和區"
"235035","269-TV","2017/11/17 14:08:59","新北市中和區橋和路81號","121.489311666667","25.0056833333333","6500300","中和區"
"235014","4979-A6","2017/11/17 14:09:10","新北市中和區景安路220巷20號","121.502765","24.9914133333333","6500300","中和區"
"235033","4980-A6","2017/11/17 14:09:08","新北市中和區福美路301巷12號","121.4974","25.00438","6500300","中和區"
"235006","551-UM","2017/11/17 14:09:12","新北市中和區自立路117巷1號","121.52233","24.994615","6500300","中和區"
"235034","558-UM","2017/11/17 14:08:28","新北市中和區中和路281-1號","121.505998333333","24.9999316666667","6500300","中和區"
"235009","565-BX","2017/11/17 14:09:00","新北市中和區景新街467巷35弄1號","121.514756666667","24.988925","6500300","中和區"
"235018","640-BX","2017/11/17 14:08:55","新北市中和區國光街107巷2弄29號","121.469358333333","24.9989883333333","6500300","中和區"
"235024","647-TV","2017/11/17 14:08:54","新北市中和區中山路三段125號","121.474348333333","25.00611","6500300","中和區"
"235011","732-UM","2017/11/17 14:09:13","新北市中和區興南路一段56巷8號","121.510633333333","24.9909883333333","6500300","中和區"
"235010","733-UM","2017/11/17 14:08:56","新北市中和區忠孝街1巷17號","121.50857","24.9838583333333","6500300","中和區"
"235026","800-TS","2017/11/17 14:09:07","新北市中和區中山路二段380號","121.491301666667","25.0038716666667","6500300","中和區"
"235021","801-TS","2017/11/17 14:09:04","新北市中和區民利街50號","121.479335","24.9987783333333","6500300","中和區"
"235005","802-TS","2017/11/17 14:09:12","新北市中和區宜安路118巷14號","121.510691666667","24.9985316666667","6500300","中和區"
"235016","805-TS","2017/11/17 14:09:08","新北市中和區興南路二段110號","121.504488333333","24.9841366666667","6500300","中和區"
"235012","896-TW","2017/11/17 14:09:04","新北市中和區工專路139號","121.508376666667","24.9788983333333","6500300","中和區"
"235017","900-TW","2017/11/17 14:09:03","新北市中和區民德路274號","121.467938333333","24.9965083333333","6500300","中和區"
"235028","911-UM","2017/11/17 14:09:01","新北市中和區中和路40巷16號","121.49943","25.0012116666667","6500300","中和區"
"235001","157-BY","2017/11/17 14:08:55","新北市中和區景新街410巷13號","121.512021666667","24.9889183333333","6500300","中和區"
"235001","AAC-213","2017/11/17 14:08:54","新北市中和區秀朗路三段60巷9號","121.525761666667","24.9950683333333","6500300","中和區"
"235023","AAC-215","2017/11/17 14:09:14","新北市中和區圓通路296巷31弄2號","121.488565","24.9905116666667","6500300","中和區"
"220016","013-TV","2017/11/17 14:08:54","新北市板橋區萬安街121號","121.483501666667","25.02508","6500100","板橋區"
"220013","072-UY","2017/11/17 14:08:59","新北市板橋區民族路219巷42號","121.469475","25.00883","6500100","板橋區"
"220034","073-UY","2017/11/17 14:09:06","新北市板橋區中正路236巷66號","121.457891666667","25.0193583333333","6500100","板橋區"
"220105","075-UY","2017/11/17 14:08:57","新北市板橋區文化路二段263巷20號","121.47114","25.0296966666667","6500100","板橋區"
"220017","AAD-861","2017/11/17 14:09:09","新北市板橋區貴興路7號","121.457743333333","25.0043816666667","6500100","板橋區"
"220051","120-SR","2017/11/17 14:09:08","新北市板橋區萬板路810-1號","121.482766666667","25.0275966666667","6500100","板橋區"
"247022","893-R6","2017/11/17 14:09:09","新北市蘆洲區三民路173號","121.471155","25.0872","6501400","蘆洲區"
"247011","546-UM","2017/11/17 14:09:06","新北市蘆洲區信義路345號","121.477716666667","25.0871733333333","6501400","蘆洲區"
"247019","500-BY","2017/11/17 14:09:12","新北市蘆洲區民族路426巷22號","121.47299","25.0928633333333","6501400","蘆洲區"
"247009","339-TH","2017/11/17 14:09:00","新北市蘆洲區信義路170號","121.479305","25.0838666666667","6501400","蘆洲區"
"247001","337-TH","2017/11/17 14:09:02","新北市蘆洲區永平街58號","121.457586666667","25.0915433333333","6501400","蘆洲區"
"247003","335-TH","2017/11/17 14:09:11","新北市蘆洲區長安街174號","121.459071666667","25.0833266666667","6501400","蘆洲區"
"247015","057-VK","2017/11/17 14:09:15","新北市蘆洲區光華路46巷48號","121.467591666667","25.0847133333333","6501400","蘆洲區"
"247005","056-VK","2017/11/17 14:09:12","新北市蘆洲區永安南路二段16巷15號","121.467756666667","25.0777566666667","6501400","蘆洲區"
"247007","053-VK","2017/11/17 14:09:05","新北市蘆洲區永安南路一段142巷66號","121.4717","25.07773","6501400","蘆洲區"
"247013","007-UY","2017/11/17 14:09:12","新北市蘆洲區忠孝路39-1號","121.47134","25.0859033333333","6501400","蘆洲區"
"247023","002-UY","2017/11/17 14:09:08","新北市蘆洲區光明路106巷9號","121.463563333333","25.0877716666667","6501400","蘆洲區"
"247017","001-UY","2017/11/17 14:09:04","新北市蘆洲區復興路105巷5號","121.476456666667","25.0882166666667","6501400","蘆洲區"
"223007","437-BY","2017/11/17 09:30:39","新北市石碇區小粗坑(潭邊里)9-2號","121.67854","24.9857283333333","6501900","石碇區"
"207002","749-BX","2017/11/17 14:06:25","新北市萬里區溪底里瑞泉路21號","121.604655","25.1488683333333","6502800","萬里區"
"207001","662-BX","2017/11/17 14:09:07","新北市萬里區磺潭里清水18號","121.637826666667","25.1976616666667","6502800","萬里區"
"208004","170-UY","2017/11/17 14:08:58","新北市金山區山城路58號","121.598386666667","25.2019483333333","6502700","金山區"
"236067","105-UM","2017/11/17 14:08:56","新北市土城區和平路42號","121.444938333333","24.9706716666667","6501300","土城區"
"236041","107-UM","2017/11/17 14:09:09","新北市土城區裕生路61號","121.447626666667","24.9861633333333","6501300","土城區"
"236077","166-UM","2017/11/17 14:02:30","新北市土城區永寧路32巷10弄43號","121.42814","24.961275","6501300","土城區"
"236029","253-BX","2017/11/17 14:08:58","新北市土城區興城路75號","121.440095","24.9707733333333","6501300","土城區"
"236025","269-VK","2017/11/17 14:09:01","新北市土城區承天路67號","121.439523333333","24.963495","6501300","土城區"
"236013","270-VK","2017/11/17 14:09:05","新北市土城區學府路一段72號","121.456696666667","24.9882216666667","6501300","土城區"
"236035","271-VK","2017/11/17 14:09:05","新北市土城區青雲路449號","121.458855","24.97498","6501300","土城區"
"236019","401-BY","2017/11/17 14:09:06","新北市土城區城林路6巷80號","121.43836","24.9796133333333","6501300","土城區"
"236006","498-BY","2017/11/17 14:09:03","新北市土城區中央路一段57號","121.447896666667","24.9902333333333","6501300","土城區"
"236057","912-UM","2017/11/17 14:09:11","新北市土城區中央路四段46巷28號","121.421913333333","24.9616216666667","6501300","土城區"
"236046","913-UM","2017/11/17 14:08:55","新北市土城區明德路一段365-1號","121.453535","24.97904","6501300","土城區"
"236061","915-UM","2017/11/17 14:09:01","新北市土城區金城路二段200號","121.454886666667","24.9818266666667","6501300","土城區"
"236054","AAC-216","2017/11/17 14:08:58","新北市土城區城林路6巷80號","121.438343333333","24.97982","6501300","土城區"
"242046","172-VK","2017/11/17 14:08:53","新北市新莊區瓊林路13-3號","121.448903333333","25.0310133333333","6500500","新莊區"
"242001","233-RS","2017/11/17 08:25:01","新北市新莊區環河路48-7號","121.436915","25.009795","6500500","新莊區"
"221012","276-VK","2017/11/17 13:26:13","新北市汐止區汐萬路一段256巷3號","121.65346","25.07464","6501100","汐止區"
"221025","623-UM","2017/11/17 14:08:53","新北市汐止區工建路202號","121.636838333333","25.0626766666667","6501100","汐止區"
"221018","753-BX","2017/11/17 14:09:10","新北市新店區薏仁坑路自強巷1號","121.497876666667","24.957645","6501100","汐止區"
"220027","145-BY","2017/11/17 14:09:05","新北市板橋區民權路260巷64號","121.460335","25.0149216666667","6500100","板橋區"
"220028","200-UY","2017/11/17 14:08:58","新北市板橋區大觀路二段7巷16號","121.44761","25.0034533333333","6500100","板橋區"
"220030","610-BX","2017/11/17 14:09:05","新北市板橋區溪崑二街63號","121.428035","24.9904666666667","6500100","板橋區"
"220052","255-TC","2017/11/17 14:09:02","新北市板橋區介壽街84巷10號","121.469813333333","25.0185083333333","6500100","板橋區"
"220004","276-BY","2017/11/17 14:09:01","新北市板橋區信義路150巷18號","121.458145","24.991765","6500100","板橋區"
"220020","277-BY","2017/11/17 14:09:13","新北市板橋區金門街369巷99號","121.428251666667","24.9816016666667","6500100","板橋區"
"220050","280-UM","2017/11/17 14:09:04","新北市板橋區萬板路15號","121.470635","25.0210933333333","6500100","板橋區"
"220043","283-UM","2017/11/17 14:09:13","新北市板橋區光武街151號","121.465556666667","25.0293266666667","6500100","板橋區"
"220019","283-VK","2017/11/17 14:09:09","新北市板橋區重慶路327巷24弄2號","121.464711666667","24.9986766666667","6500100","板橋區"
"220001","285-VK","2017/11/17 14:09:01","新北市板橋區懷仁街14巷6號","121.475853333333","25.01973","6500100","板橋區"
"220031","286-VK","2017/11/17 14:09:10","新北市板橋區大觀路二段174巷176弄15號","121.44288","25.0032283333333","6500100","板橋區"
"220029","287-VK","2017/11/17 14:08:54","新北市板橋區南雅西路二段191號","121.45183","25.013045","6500100","板橋區"
"220039","288-VK","2017/11/17 14:09:07","新北市板橋區裕民街54號","121.461438333333","25.0286416666667","6500100","板橋區"
"220009","293-UM","2017/11/17 14:09:10","新北市板橋區中山路二段318巷18號","121.480445","25.0187616666667","6500100","板橋區"
"220032","296-UM","2017/11/17 14:09:01","新北市板橋區溪崑一街47巷7號","121.430521666667","24.9908533333333","6500100","板橋區"
"220023","297-UM","2017/11/17 14:09:06","新北市板橋區西門街18-4號","121.454485","25.0112016666667","6500100","板橋區"
"220047","299-UM","2017/11/17 00:30:12","新北市板橋區民生路二段161巷9號","121.470243333333","25.019665","6500100","板橋區"
"220010","305-R5","2017/11/17 14:09:06","新北市板橋區三民路二段居仁巷1弄2號","121.479466666667","25.0134983333333","6500100","板橋區"
"220041","307-R5","2017/11/17 14:08:55","新北市板橋區文化路二段225巷56號","121.46938","25.0285333333333","6500100","板橋區"
"220012","486-VK","2017/11/17 14:09:12","新北市板橋區板新路128號","121.470921666667","25.015515","6500100","板橋區"
"220037","491-VK","2017/11/17 14:08:58","新北市板橋區文化路二段182巷3弄53號","121.472591666667","25.0287666666667","6500100","板橋區"
"220104","560-BX","2017/11/17 14:09:06","新北市板橋區中正路379巷20號","121.453568333333","25.0218383333333","6500100","板橋區"
"220011","609-BX","2017/11/17 14:09:10","新北市板橋區三民路二段169號","121.479125","25.01446","6500100","板橋區"
"220040","637-BX","2017/11/17 14:09:12","新北市板橋區萬板路710號","121.482061666667","25.0270883333333","6500100","板橋區"
"220005","686-BX","2017/11/17 14:08:55","新北市樹林區八德街495-3號","121.401551666667","24.9692766666667","6500100","板橋區"
"220025","687-BX","2017/11/17 14:09:13","新北市板橋區龍興街5號","121.442625","24.999425","6500100","板橋區"
"220042","689-BX","2017/11/17 14:09:00","新北市板橋區民生路三段255號","121.464511666667","25.029305","6500100","板橋區"
"220002","741-BX","2017/11/17 14:09:11","新北市板橋區館前東路100-2號","121.462925","25.0071783333333","6500100","板橋區"
"220005","806-UM","2017/11/17 14:09:12","新北市板橋區重慶路258號","121.462988333333","25.0007966666667","6500100","板橋區"
"220003","827-TW","2017/11/17 14:09:00","新北市板橋區中山路一段161號","121.465586666667","25.0119","6500100","板橋區"
"220014","829-TW","2017/11/17 14:09:05","新北市板橋區三民路二段正隆巷67號","121.476218333333","25.0132833333333","6500100","板橋區"
"220045","831-TW","2017/11/17 14:09:07","新北市板橋區雙十路二段6-11號","121.476613333333","25.0265016666667","6500100","板橋區"
"220038","833-TW","2017/11/17 14:08:57","新北市板橋區文化路二段431號","121.474888333333","25.032995","6500100","板橋區"
"220022","895-R6","2017/11/17 14:09:14","新北市板橋區府中路102號","121.455888333333","25.009635","6500100","板橋區"
"220021","985-R7","2017/11/17 14:09:07","新北市板橋區民權路232號","121.458601666667","25.01438","6500100","板橋區"
"220046","AAC-210","2017/11/17 14:09:00","新北市板橋區新海路135巷2號","121.460003333333","25.0229383333333","6500100","板橋區"
"220018","AAC-253","2017/11/17 14:09:11","新北市板橋區忠孝路19號","121.460316666667","25.0019233333333","6500100","板橋區"
