"lineid","car","time","location","longitude","latitude","cityid","cityname"
"234044","148-BY","2017/11/17 14:18:58","新北市永和區永貞路113號","121.517625","25.0043483333333","6500400","永和區"
"234012","149-BY","2017/11/17 14:18:54","","121.490485","25.00932","6500400","永和區"
"234005","207-UY","2017/11/17 14:19:12","新北市永和區中正路620號","121.516965","25.0078533333333","6500400","永和區"
"234078","298-R6","2017/11/17 14:18:56","新北市永和區福和路57巷14弄2號","121.522846666667","25.0072433333333","6500400","永和區"
"234036","336-UY","2017/11/17 14:19:05","新北市永和區成功路一段91號","121.527178333333","25.0027666666667","6500400","永和區"
"234062","337-UY","2017/11/17 14:19:07","新北市永和區得和路170號","121.519603333333","25.0000966666667","6500400","永和區"
"234084","338-UY","2017/11/17 14:19:11","新北市永和區永和路二段93號","121.514838333333","25.0114533333333","6500400","永和區"
"234068","552-UM","2017/11/17 14:19:08","新北市永和區福和路263巷13號","121.518085","25.006585","6500400","永和區"
"234052","553-UM","2017/11/17 14:19:11","新北市永和區光復街2巷16弄1號","121.517128333333","25.016325","6500400","永和區"
"234028","746-BX","2017/11/17 14:19:09","新北市永和區民權路49巷5弄35號","121.521736666667","24.9978716666667","6500400","永和區"
"234060","AAD-866","2017/11/17 14:19:07","新北市永和區安樂路194巷17弄3號","121.51588","25.00116","6500400","永和區"
"234040","862-TW","2017/11/17 14:19:03","新北市中和區中安街176號","121.510948333333","24.999695","6500400","永和區"
"234048","863-TW","2017/11/17 14:19:13","新北市永和區新生路25巷4弄18-1號","121.509371666667","25.016185","6500400","永和區"
"234025","9381-KE","2017/11/17 14:19:08","新北市永和區安樂路44號","121.514685","24.9970166666667","6500400","永和區"
"234010","9373-KE","2017/11/17 14:19:00","新北市永和區保生路55-4號","121.504638333333","25.012115","6500400","永和區"
"248019","225-UY","2017/11/17 13:58:30","新北市五股區凌雲路三段57號","121.425323333333","25.1250233333333","6501500","五股區"
"234022","9380-KE","2017/11/17 14:18:59","新北市永和區竹林路25巷30號","121.518101666667","25.0149716666667","6500400","永和區"
"234076","969-R7","2017/11/17 14:18:54","新北市永和區民族街81巷40號","121.519486666667","24.996525","6500400","永和區"
"234072","AAC-211","2017/11/17 14:19:12","新北市永和區豫溪街191巷7弄13號","121.52337","25.010715","6500400","永和區"
"234066","AAC-212","2017/11/17 14:19:09","新北市永和區保平路268巷51弄22號","121.50674","25.0061133333333","6500400","永和區"
"234001","AAC-295","2017/11/17 14:19:09","新北市永和區福和路306號","121.51652","25.0073433333333","6500400","永和區"
"244004","657-BX","2017/11/17 14:18:59","新北市林口區竹林路266號","121.389651666667","25.0808216666667","6501700","林口區"
"231029","001-UM","2017/11/17 14:19:07","新北市新店區安康路二段159巷2號","121.51032","24.959305","6500600","新店區"
"231002","002-UM","2017/11/17 14:19:02","新北市新店區中央路196號","121.530678333333","24.974495","6500600","新店區"
"231028","046-UY","2017/11/17 14:19:12","新北市新店區安和路一段53號","121.517433333333","24.9660883333333","6500600","新店區"
"231012","108-UY","2017/11/17 14:19:09","新北市新店區中興路二段22號","121.547061666667","24.9705483333333","6500600","新店區"
"231022","187-VK","2017/11/17 14:19:03","新北市新店區桂山路29巷1號","121.557506666667","24.9034233333333","6500600","新店區"
"231016","KEA-2219","2017/11/17 14:19:06","新北市新店區北宜路二段392巷9號","121.566555","24.95312","6500600","新店區"
"231034","268-BY","2017/11/17 14:18:49","新北市新店區黎明路3號","121.50352","24.9524516666667","6500600","新店區"
"231023","AAD-862","2017/11/17 14:19:02","新北市新店區光明街91號","121.539011666667","24.9609516666667","6500600","新店區"
"231005","355-BY","2017/11/17 14:19:03","新北市新店區寶強路27號","121.54366","24.9789683333333","6500600","新店區"
"231027","3712-VJ","2017/11/17 14:19:01","新北市新店區北新路二段10號","121.542768333333","24.9711683333333","6500600","新店區"
"231025","3713-VJ","2017/11/17 14:19:12","新北市新店區二十張路129巷1弄1號","121.535993333333","24.979145","6500600","新店區"
"231024","4716-K9","2017/11/17 14:19:04","新北市新店區安康路二段414巷2號","121.495876666667","24.9578166666667","6500600","新店區"
"231038","4715-K9","2017/11/17 14:19:03","新北市新店區溪洲路6巷1-3號","121.533853333333","24.9611066666667","6500600","新店區"
"231036","512-UM","2017/11/17 14:19:07","新北市新店區安祥路109巷151弄12號","121.47811","24.95898","6500600","新店區"
"231035","515-UM","2017/11/17 14:19:04","新北市新店區光華街26號","121.516838333333","24.9693116666667","6500600","新店區"
"231003","616-UM","2017/11/17 14:18:57","新北市新店區中興路一段216號","121.54392","24.96573","6500600","新店區"
"231006","617-UM","2017/11/17 14:19:13","新北市新店區北宜路二段599號","121.56813","24.9555866666667","6500600","新店區"
"231030","618-UM","2017/11/17 14:19:02","新北市新店區安民街11號","121.515303333333","24.9644683333333","6500600","新店區"
"231001","619-UM","2017/11/17 14:18:57","新北市新店區北新路一段90號","121.541855","24.9686116666667","6500600","新店區"
"231013","719-UM","2017/11/17 14:18:55","新北市新店區建國路253號","121.537558333333","24.98278","6500600","新店區"
"231018","719-UY","2017/11/17 14:19:13","新北市新店區中央四街24號","121.529008333333","24.9741533333333","6500600","新店區"
"231032","720-UM","2017/11/17 14:19:06","新北市新店區溪洲路17號","121.534295","24.9594833333333","6500600","新店區"
"231004","899-TW","2017/11/17 14:19:11","新北市新店區中正路147號","121.541396666667","24.9716666666667","6500600","新店區"
"231037","AKT-0513","2017/11/17 14:18:54","新北市新店區車子路1-1號","121.504656666667","24.9576516666667","6500600","新店區"
"235030","003-UY","2017/11/17 14:19:11","新北市中和區景新街2號","121.502613333333","24.9996766666667","6500300","中和區"
"235027","006-UY","2017/11/17 14:18:53","新北市中和區連城路249巷28弄1號","121.494708333333","24.9949316666667","6500300","中和區"
"235020","096-UM","2017/11/17 14:19:14","新北市中和區民富街36號","121.47679","25.0066166666667","6500300","中和區"
"235003","097-UM","2017/11/17 14:19:02","新北市中和區秀峰街103巷6弄2號","121.52035","24.989855","6500300","中和區"
"235029","098-UM","2017/11/17 14:18:58","新北市中和區中山路二段2巷13弄33號","121.502855","25.0064416666667","6500300","中和區"
"235004","150-BY","2017/11/17 14:19:07","新北市中和區宜安路39號","121.511946666667","24.9962033333333","6500300","中和區"
"235022","151-BY","2017/11/17 14:19:01","新北市中和區員山路36巷16-2號","121.485206666667","24.9915933333333","6500300","中和區"
"235019","183-VK","2017/11/17 14:19:06","新北市中和區中山路三段181巷4號","121.472833333333","25.00592","6500300","中和區"
"235002","185-VK","2017/11/17 14:19:03","新北市中和區大仁街20巷43號","121.51917","24.9931783333333","6500300","中和區"
"235013","186-VK","2017/11/17 14:19:01","新北市中和區景新街228-6號","121.508211666667","24.9941666666667","6500300","中和區"
"235031","255-BX","2017/11/17 14:19:00","新北市中和區新生街164號","121.483678333333","25.0002516666667","6500300","中和區"
"235008","293-VK","2017/11/17 14:19:08","新北市中和區中興街230巷11號","121.499546666667","24.9882316666667","6500300","中和區"
"235036","301-VK","2017/11/17 14:18:53","新北市中和區永和路39巷2號","121.498065","25.0050466666667","6500300","中和區"
"235007","352-BY","2017/11/17 14:19:00","新北市中和區景平路298號","121.512743333333","24.9926783333333","6500300","中和區"
"235032","377-QA","2017/11/17 14:18:40","新北市中和區連勝街47-10號","121.498766666667","24.9974966666667","6500300","中和區"
"235025","378-QA","2017/11/17 14:19:13","新北市中和區民利街61巷11弄2號","121.47879","24.9983216666667","6500300","中和區"
"235035","269-TV","2017/11/17 14:18:59","","121.481976666667","24.99536","6500300","中和區"
"235014","4979-A6","2017/11/17 14:19:10","新北市中和區復興路319號","121.500936666667","24.9902766666667","6500300","中和區"
"235033","4980-A6","2017/11/17 14:19:08","新北市中和區連城路134巷3號","121.495431666667","24.9995783333333","6500300","中和區"
"235006","551-UM","2017/11/17 14:19:12","新北市永和區民有街65號","121.517853333333","24.9958433333333","6500300","中和區"
"235034","558-UM","2017/11/17 14:19:08","新北市中和區連城路3號","121.499385","25.002155","6500300","中和區"
"235009","565-BX","2017/11/17 14:19:00","新北市中和區景平路111巷61弄21號","121.514886666667","24.98975","6500300","中和區"
"235018","640-BX","2017/11/17 14:18:55","新北市中和區民德路140號","121.468713333333","25.0005533333333","6500300","中和區"
"235024","647-TV","2017/11/17 14:18:54","新北市中和區員山路390號","121.48048","25.0045266666667","6500300","中和區"
"235011","732-UM","2017/11/17 14:19:13","新北市中和區景平路239巷73號","121.50814","24.9920966666667","6500300","中和區"
"235010","733-UM","2017/11/17 14:18:58","新北市中和區忠孝街2巷8-2號","121.510303333333","24.9820066666667","6500300","中和區"
"235026","800-TS","2017/11/17 14:19:07","新北市中和區橋安街6號","121.492828333333","25.003805","6500300","中和區"
"235021","801-TS","2017/11/17 14:19:04","新北市中和區員山路263號","121.481291666667","24.9992333333333","6500300","中和區"
"235005","802-TS","2017/11/17 14:18:52","新北市中和區宜安路153號","121.50903","24.99874","6500300","中和區"
"235016","805-TS","2017/11/17 14:19:08","新北市中和區興南路二段142巷17弄26號","121.502976666667","24.9829383333333","6500300","中和區"
"235012","896-TW","2017/11/17 14:19:04","","121.50902","24.9823116666667","6500300","中和區"
"235017","900-TW","2017/11/17 14:19:09","新北市中和區華安街17巷43號","121.467985","24.99847","6500300","中和區"
"235028","911-UM","2017/11/17 14:19:01","新北市中和區中和路50號","121.500513333333","25.0009516666667","6500300","中和區"
"235001","157-BY","2017/11/17 14:19:15","新北市中和區景平路239巷33弄42號","121.509666666667","24.991405","6500300","中和區"
"235001","AAC-213","2017/11/17 14:18:54","新北市中和區秀朗路三段10巷37弄4號","121.524076666667","24.9958566666667","6500300","中和區"
"235023","AAC-215","2017/11/17 14:18:54","新北市中和區圓通路286巷16-5號","121.491658333333","24.9915016666667","6500300","中和區"
"220016","013-TV","2017/11/17 14:18:54","新北市板橋區萬安街54號","121.484288333333","25.0232383333333","6500100","板橋區"
"220013","072-UY","2017/11/17 14:18:59","新北市板橋區國泰街75巷4號","121.467455","25.0063066666667","6500100","板橋區"
"220034","073-UY","2017/11/17 14:19:06","新北市板橋區中正路216巷117號","121.459541666667","25.0194483333333","6500100","板橋區"
"220105","075-UY","2017/11/17 14:18:57","新北市板橋區雙十路三段66巷1號","121.470481666667","25.0319383333333","6500100","板橋區"
"220017","AAD-861","2017/11/17 14:19:09","新北市板橋區華興街21巷23號","121.458815","25.0036716666667","6500100","板橋區"
"220051","120-SR","2017/11/17 14:19:08","新北市板橋區松柏街31-4號","121.475176666667","25.0300966666667","6500100","板橋區"
"247022","893-R6","2017/11/17 14:19:09","新北市蘆洲區中正路442號","121.46338","25.0950733333333","6501400","蘆洲區"
"247011","546-UM","2017/11/17 14:19:06","新北市蘆洲區民權路5號","121.476516666667","25.0858566666667","6501400","蘆洲區"
"247019","500-BY","2017/11/17 14:19:12","新北市蘆洲區仁愛街20號","121.472301666667","25.0929016666667","6501400","蘆洲區"
"247009","339-TH","2017/11/17 14:19:00","新北市蘆洲區三民路26巷2弄2號","121.476075","25.08267","6501400","蘆洲區"
"247001","337-TH","2017/11/17 14:19:02","新北市蘆洲區永樂街96號","121.456315","25.0886816666667","6501400","蘆洲區"
"247003","335-TH","2017/11/17 14:19:11","新北市蘆洲區中原路12巷25號","121.460626666667","25.0839566666667","6501400","蘆洲區"
"247015","057-VK","2017/11/17 14:14:15","新北市蘆洲區光華路80號","121.467943333333","25.082705","6501400","蘆洲區"
"247005","056-VK","2017/11/17 14:19:12","新北市蘆洲區永安南路二段106號","121.463143333333","25.0781383333333","6501400","蘆洲區"
"247007","053-VK","2017/11/17 14:19:05","新北市蘆洲區中山一路197巷6弄22號","121.474098333333","25.0803366666667","6501400","蘆洲區"
"247013","007-UY","2017/11/17 14:19:12","新北市蘆洲區中山一路245號","121.47324","25.0804516666667","6501400","蘆洲區"
"247023","002-UY","2017/11/17 14:19:08","新北市蘆洲區長榮路665號","121.46023","25.0914916666667","6501400","蘆洲區"
"247017","001-UY","2017/11/17 14:19:04","新北市蘆洲區民權路81號","121.473243333333","25.0886216666667","6501400","蘆洲區"
"223007","437-BY","2017/11/17 09:30:39","新北市石碇區小粗坑(潭邊里)9-2號","121.67854","24.9857283333333","6501900","石碇區"
"207002","749-BX","2017/11/17 14:18:25","新北市萬里區溪底里溪底路13號","121.614151666667","25.1494816666667","6502800","萬里區"
"207001","662-BX","2017/11/17 14:19:07","新北市萬里區磺潭里清水18號","121.63782","25.1976783333333","6502800","萬里區"
"208004","170-UY","2017/11/17 14:18:58","新北市金山區山城路10巷24弄32號","121.593323333333","25.20092","6502700","金山區"
"236067","105-UM","2017/11/17 14:18:56","新北市土城區明德路一段182號","121.462355","24.9781066666667","6501300","土城區"
"236041","107-UM","2017/11/17 14:19:09","新北市土城區裕生路21巷1弄2號","121.448651666667","24.9872133333333","6501300","土城區"
"236077","166-UM","2017/11/17 14:02:30","新北市土城區永寧路32巷10弄43號","121.42814","24.961275","6501300","土城區"
"236029","253-BX","2017/11/17 14:18:58","新北市土城區順風路29號","121.44023","24.9770233333333","6501300","土城區"
"236025","269-VK","2017/11/17 14:19:01","新北市土城區承天路67號","121.439546666667","24.96354","6501300","土城區"
"236013","270-VK","2017/11/17 14:19:05","新北市土城區青雲路39巷5號","121.460301666667","24.987615","6501300","土城區"
"236035","271-VK","2017/11/17 14:19:05","新北市土城區青雲路451巷8弄9號","121.459618333333","24.9743983333333","6501300","土城區"
"236019","401-BY","2017/11/17 14:19:05","新北市土城區清水路27號","121.45431","24.9803216666667","6501300","土城區"
"236006","498-BY","2017/11/17 14:19:03","新北市土城區中華路一段56巷22號","121.444598333333","24.9895083333333","6501300","土城區"
"236057","912-UM","2017/11/17 14:18:51","新北市土城區中央路四段300號","121.414081666667","24.9561416666667","6501300","土城區"
"236046","913-UM","2017/11/17 14:19:10","新北市土城區明德路一段369號","121.455615","24.9779116666667","6501300","土城區"
"236061","915-UM","2017/11/17 14:19:01","新北市土城區金城路三段245號","121.47168","24.9898816666667","6501300","土城區"
"236054","AAC-216","2017/11/17 14:18:58","新北市土城區中華路二段108號","121.43792","24.9742266666667","6501300","土城區"
"242046","172-VK","2017/11/17 14:19:13","新北市新莊區新泰路357巷3弄51號","121.442006666667","25.0400366666667","6500500","新莊區"
"242001","233-RS","2017/11/17 08:25:01","新北市新莊區環河路48-7號","121.436915","25.009795","6500500","新莊區"
"221012","276-VK","2017/11/17 13:26:13","新北市汐止區汐萬路一段256巷3號","121.65346","25.07464","6501100","汐止區"
"221025","623-UM","2017/11/17 14:18:33","台北市南港區研究院路四段21巷2-1號","121.602583333333","25.0245783333333","6501100","汐止區"
"221018","753-BX","2017/11/17 14:19:10","新北市新店區安忠路57巷13號","121.513351666667","24.957255","6501100","汐止區"
"220027","145-BY","2017/11/17 14:19:08","新北市板橋區民權路202巷17弄13號","121.460123333333","25.0165416666667","6500100","板橋區"
"220028","200-UY","2017/11/17 14:19:11","新北市板橋區大觀路二段5號","121.447128333333","25.0038683333333","6500100","板橋區"
"220030","610-BX","2017/11/17 14:19:05","新北市板橋區溪城路105號","121.427423333333","24.9827066666667","6500100","板橋區"
"220052","255-TC","2017/11/17 14:19:02","新北市板橋區文化路一段188巷7號","121.466345","25.01939","6500100","板橋區"
"220004","276-BY","2017/11/17 14:19:09","新北市板橋區信義路89號","121.457883333333","24.9942066666667","6500100","板橋區"
"220020","277-BY","2017/11/17 14:18:53","新北市板橋區金門街337巷9弄1號","121.430431666667","24.984675","6500100","板橋區"
"220050","280-UM","2017/11/17 14:19:10","新北市板橋區莊敬路31-1號","121.47356","25.0276366666667","6500100","板橋區"
"220043","283-UM","2017/11/17 14:19:02","新北市板橋區吳鳳路21巷2號","121.466926666667","25.0312416666667","6500100","板橋區"
"220019","283-VK","2017/11/17 14:19:09","新北市板橋區忠孝路48巷7弄1-3號","121.46106","25.000455","6500100","板橋區"
"220001","285-VK","2017/11/17 14:19:01","新北市板橋區富山街18巷28號","121.478463333333","25.0229033333333","6500100","板橋區"
"220031","286-VK","2017/11/17 14:18:50","新北市板橋區大觀路二段174巷196弄16號","121.44305","25.0035066666667","6500100","板橋區"
"220029","287-VK","2017/11/17 14:19:13","新北市板橋區南雅南路一段131號","121.454991666667","25.004415","6500100","板橋區"
"220039","288-VK","2017/11/17 14:19:07","新北市板橋區長江路一段106巷13弄3號","121.46016","25.02916","6500100","板橋區"
"220009","293-UM","2017/11/17 14:18:56","新北市板橋區中山路二段257號","121.477298333333","25.0177666666667","6500100","板橋區"
"220032","296-UM","2017/11/17 14:19:02","新北市板橋區滿平街136巷8弄12號","121.427443333333","24.987645","6500100","板橋區"
"220023","297-UM","2017/11/17 14:19:06","新北市板橋區南雅南路一段4巷14號","121.4546","25.00519","6500100","板橋區"
"220047","299-UM","2017/11/17 14:19:14","新北市板橋區四維路214號","121.464028333333","25.0275516666667","6500100","板橋區"
"220010","305-R5","2017/11/17 14:18:57","新北市板橋區三民路二段153巷26號","121.480741666667","25.0150933333333","6500100","板橋區"
"220041","307-R5","2017/11/17 14:18:55","新北市板橋區松江街64號","121.46865","25.0275666666667","6500100","板橋區"
"220012","486-VK","2017/11/17 14:19:13","新北市板橋區中山路一段57號","121.460993333333","25.00941","6500100","板橋區"
"220037","491-VK","2017/11/17 14:18:58","新北市板橋區雙十路二段37-1號","121.476828333333","25.02588","6500100","板橋區"
"220104","560-BX","2017/11/17 14:19:06","新北市板橋區中正路413巷2弄2號","121.454025","25.0226366666667","6500100","板橋區"
"220011","609-BX","2017/11/17 14:19:10","新北市板橋區三民路二段251號","121.478946666667","25.01225","6500100","板橋區"
"220040","637-BX","2017/11/17 14:18:52","新北市板橋區縣民大道三段223號","121.480585","25.02539","6500100","板橋區"
"220005","686-BX","2017/11/17 14:15:42","新北市板橋區溪城路90-2號","121.429075","24.9802","6500100","板橋區"
"220025","687-BX","2017/11/17 14:18:53","新北市板橋區大觀路一段61號","121.447258333333","25.00511","6500100","板橋區"
"220042","689-BX","2017/11/17 14:19:00","新北市板橋區文化路一段148號","121.465398333333","25.01912","6500100","板橋區"
"220002","741-BX","2017/11/17 14:19:11","新北市板橋區重慶路155巷47號","121.4638","25.0041916666667","6500100","板橋區"
"220005","806-UM","2017/11/17 14:19:09","新北市板橋區國慶路203號","121.463391666667","24.997015","6500100","板橋區"
"220003","827-TW","2017/11/17 14:19:00","新北市板橋區新民街6巷2號","121.464411666667","25.01038","6500100","板橋區"
"220014","829-TW","2017/11/17 14:19:10","新北市板橋區漢生東路313巷2弄11號","121.472411666667","25.0080083333333","6500100","板橋區"
"220045","831-TW","2017/11/17 14:19:07","新北市板橋區大同街50巷43號","121.47922","25.0266433333333","6500100","板橋區"
"220038","833-TW","2017/11/17 14:19:07","新北市板橋區文化路一段379號","121.467138333333","25.021515","6500100","板橋區"
"220022","895-R6","2017/11/17 14:19:03","新北市板橋區大東街1號","121.45661","25.0095516666667","6500100","板橋區"
"220021","985-R7","2017/11/17 14:18:59","新北市板橋區中正路377-2號","121.454356666667","25.0214116666667","6500100","板橋區"
"220046","AAC-210","2017/11/17 14:19:12","新北市板橋區幸福路60巷49號","121.460396666667","25.02134","6500100","板橋區"
"220018","AAC-253","2017/11/17 14:19:11","新北市板橋區忠孝路158號","121.464125","25.00247","6500100","板橋區"
