"lineid","car","time","location","longitude","latitude","cityid","cityname"
"234044","148-BY","2017/11/17 14:28:53","新北市永和區福和路232號","121.519048333333","25.007575","6500400","永和區"
"234005","207-UY","2017/11/17 14:28:52","新北市永和區得和路16號","121.515233333333","25.0004933333333","6500400","永和區"
"234078","298-R6","2017/11/17 14:28:55","","121.520193333333","25.0051133333333","6500400","永和區"
"234036","336-UY","2017/11/17 14:29:05","","121.52872","24.9989666666667","6500400","永和區"
"234062","337-UY","2017/11/17 14:29:07","新北市永和區中正路395號","121.51718","25.0041033333333","6500400","永和區"
"234084","338-UY","2017/11/17 14:29:11","新北市永和區光復街21號","121.516526666667","25.0174083333333","6500400","永和區"
"234068","552-UM","2017/11/17 14:29:08","新北市永和區永亨路7號","121.519405","25.005705","6500400","永和區"
"234052","553-UM","2017/11/17 14:29:11","新北市永和區環河東路一段42號","121.518786666667","25.0169866666667","6500400","永和區"
"234028","746-BX","2017/11/17 14:29:06","新北市永和區得和路326號","121.523273333333","24.999575","6500400","永和區"
"234060","AAD-866","2017/11/17 14:29:04","新北市永和區中正路381號","121.517138333333","25.0036383333333","6500400","永和區"
"234040","862-TW","2017/11/17 14:29:03","","121.514393333333","25.0053066666667","6500400","永和區"
"234048","863-TW","2017/11/17 14:29:13","新北市永和區保安路134號","121.508623333333","25.01543","6500400","永和區"
"234025","9381-KE","2017/11/17 14:29:02","","121.511171666667","25.002495","6500400","永和區"
"248019","225-UY","2017/11/17 13:58:30","新北市五股區凌雲路三段57號","121.425323333333","25.1250233333333","6501500","五股區"
"234022","9380-KE","2017/11/17 14:29:00","","121.504493333333","25.0109616666667","6500400","永和區"
"234072","AAC-211","2017/11/17 14:29:12","新北市永和區竹林路39巷14號","121.518528333333","25.0145983333333","6500400","永和區"
"234001","AAC-295","2017/11/17 14:29:09","新北市永和區大新街16號","121.515071666667","25.0084883333333","6500400","永和區"
"244004","657-BX","2017/11/17 14:28:59","","121.389655","25.0807733333333","6501700","林口區"
"231029","001-UM","2017/11/17 14:29:07","新北市新店區安康路二段416號","121.496523333333","24.9551683333333","6500600","新店區"
"231002","002-UM","2017/11/17 14:29:02","新北市新店區中央路21號","121.533193333333","24.9781","6500600","新店區"
"231028","046-UY","2017/11/17 14:29:06","","121.51137","24.9598316666667","6500600","新店區"
"231012","108-UY","2017/11/17 14:29:09","新北市新店區寶興路64巷2號","121.550483333333","24.971695","6500600","新店區"
"231022","187-VK","2017/11/17 14:28:03","新北市新店區桂山路121號","121.568576666667","24.8935433333333","6500600","新店區"
"231016","KEA-2219","2017/11/17 14:29:02","","121.577066666667","24.9517533333333","6500600","新店區"
"231034","268-BY","2017/11/17 14:29:09","新北市新店區黎明路51巷1號","121.501978333333","24.949385","6500600","新店區"
"231023","AAD-862","2017/11/17 14:29:02","","121.539498333333","24.959965","6500600","新店區"
"231005","355-BY","2017/11/17 14:28:58","","121.54074","24.9861683333333","6500600","新店區"
"231027","3712-VJ","2017/11/17 14:29:01","新北市新店區寶橋路85巷5弄3號","121.545991666667","24.97564","6500600","新店區"
"231025","3713-VJ","2017/11/17 14:28:52","新北市新店區民族路161號","121.537626666667","24.9767466666667","6500600","新店區"
"231038","4715-K9","2017/11/17 14:29:03","","121.532491666667","24.9618166666667","6500600","新店區"
"231036","512-UM","2017/11/17 14:29:07","新北市新店區安祥路109巷1弄2號","121.475346666667","24.9589116666667","6500600","新店區"
"231035","515-UM","2017/11/17 14:29:04","新北市新店區安光路10號","121.513868333333","24.9639166666667","6500600","新店區"
"231003","616-UM","2017/11/17 14:28:57","新北市新店區中興路一段268-2號","121.54519","24.9678183333333","6500600","新店區"
"231006","617-UM","2017/11/17 14:28:54","新北市新店區北宜路二段491號","121.562745","24.9538016666667","6500600","新店區"
"231030","618-UM","2017/11/17 14:29:02","新北市新店區安民街85-1號","121.516566666667","24.9675733333333","6500600","新店區"
"231001","619-UM","2017/11/17 14:28:57","新北市新店區北新路一段96巷23號","121.543021666667","24.9688583333333","6500600","新店區"
"231013","719-UM","2017/11/17 14:28:55","新北市新店區民權路108-1號","121.536071666667","24.9835583333333","6500600","新店區"
"231018","719-UY","2017/11/17 14:29:13","新北市新店區中央三街22號","121.5288","24.973835","6500600","新店區"
"231032","720-UM","2017/11/17 14:29:06","","121.523778333333","24.9715166666667","6500600","新店區"
"231004","899-TW","2017/11/17 14:29:11","新北市新店區中正路263-4號","121.538295","24.9737666666667","6500600","新店區"
"231037","AKT-0513","2017/11/17 14:29:09","新北市新店區柴埕路52巷3號","121.51185","24.9645016666667","6500600","新店區"
"235030","003-UY","2017/11/17 14:29:11","新北市中和區中和路102號","121.502673333333","24.999705","6500300","中和區"
"235027","006-UY","2017/11/17 14:29:13","新北市中和區連城路219巷9號","121.494796666667","24.9967166666667","6500300","中和區"
"235020","096-UM","2017/11/17 14:29:14","新北市中和區員山路514巷2號","121.47942","25.0096866666667","6500300","中和區"
"235003","097-UM","2017/11/17 14:29:02","新北市中和區秀峰街103巷7弄4號","121.519441666667","24.9889716666667","6500300","中和區"
"235029","098-UM","2017/11/17 14:28:58","","121.500663333333","25.0034533333333","6500300","中和區"
"235004","150-BY","2017/11/17 14:29:07","新北市中和區宜安路7號","121.51343","24.9954483333333","6500300","中和區"
"235022","151-BY","2017/11/17 14:29:01","新北市中和區連城路501號","121.482618333333","24.995485","6500300","中和區"
"235019","183-VK","2017/11/17 14:29:06","","121.471588333333","25.005535","6500300","中和區"
"235002","185-VK","2017/11/17 14:29:03","","121.520473333333","24.99289","6500300","中和區"
"235013","186-VK","2017/11/17 14:29:01","","121.509533333333","24.9933633333333","6500300","中和區"
"235031","255-BX","2017/11/17 14:29:00","新北市中和區連城路280號","121.484506666667","24.996315","6500300","中和區"
"235008","293-VK","2017/11/17 14:29:08","新北市中和區景安路192號","121.504356666667","24.9916616666667","6500300","中和區"
"235036","301-VK","2017/11/17 14:28:53","新北市中和區莊敬路33巷16號","121.500301666667","25.00539","6500300","中和區"
"235007","352-BY","2017/11/17 14:29:00","新北市中和區景平路358號","121.511101666667","24.9928233333333","6500300","中和區"
"235032","377-QA","2017/11/17 14:28:20","新北市中和區廟美街28號","121.500633333333","25.001765","6500300","中和區"
"235025","378-QA","2017/11/17 14:28:56","新北市中和區民安街22巷18號","121.479631666667","25.0015216666667","6500300","中和區"
"235035","269-TV","2017/11/17 14:29:00","","121.483581666667","24.9955816666667","6500300","中和區"
"235014","4979-A6","2017/11/17 14:29:10","新北市中和區中正路521號","121.488293333333","24.9938316666667","6500300","中和區"
"235006","551-UM","2017/11/17 14:28:52","新北市中和區中和路378巷16號","121.51147","25.001575","6500300","中和區"
"235034","558-UM","2017/11/17 14:28:07","新北市中和區連城路2號","121.499236666667","25.002585","6500300","中和區"
"235009","565-BX","2017/11/17 14:29:00","","121.513228333333","24.9893383333333","6500300","中和區"
"235018","640-BX","2017/11/17 14:28:55","新北市中和區國光街112巷14弄1號","121.46989","25.0012916666667","6500300","中和區"
"235024","647-TV","2017/11/17 14:28:57","","121.482555","25.0018916666667","6500300","中和區"
"235011","732-UM","2017/11/17 14:29:13","新北市中和區景平路259巷11號","121.507948333333","24.9925966666667","6500300","中和區"
"235010","733-UM","2017/11/17 14:28:56","","121.511113333333","24.984945","6500300","中和區"
"235026","800-TS","2017/11/17 14:29:07","","121.486238333333","25.0049016666667","6500300","中和區"
"235021","801-TS","2017/11/17 14:29:04","新北市中和區中山路三段37巷25號","121.479308333333","25.004905","6500300","中和區"
"235005","802-TS","2017/11/17 14:29:12","新北市中和區中和路252巷4號","121.507503333333","24.999295","6500300","中和區"
"235016","805-TS","2017/11/17 14:29:08","新北市中和區華新街143巷63弄2號","121.506465","24.97917","6500300","中和區"
"235012","896-TW","2017/11/17 14:29:04","新北市中和區忠孝街39-1號","121.511436666667","24.98374","6500300","中和區"
"235017","900-TW","2017/11/17 14:29:03","","121.468403333333","24.9989816666667","6500300","中和區"
"235028","911-UM","2017/11/17 14:29:01","","121.502123333333","24.997115","6500300","中和區"
"235001","157-BY","2017/11/17 14:28:55","新北市中和區興南路一段75號","121.510193333333","24.989115","6500300","中和區"
"235001","AAC-213","2017/11/17 14:28:54","新北市中和區秀朗路三段10巷14弄18號","121.524915","24.9965883333333","6500300","中和區"
"235023","AAC-215","2017/11/17 14:28:54","新北市中和區圓通路317-5號","121.492801666667","24.9907316666667","6500300","中和區"
"220016","013-TV","2017/11/17 14:28:54","新北市板橋區中山路二段412巷7號","121.483316666667","25.0207133333333","6500100","板橋區"
"220013","072-UY","2017/11/17 14:28:59","","121.467351666667","25.0057866666667","6500100","板橋區"
"220034","073-UY","2017/11/17 14:29:06","新北市板橋區中正路250巷20號","121.456248333333","25.0194216666667","6500100","板橋區"
"220105","075-UY","2017/11/17 14:29:02","新北市板橋區文化路二段417巷1號","121.473825","25.0334083333333","6500100","板橋區"
"220017","AAD-861","2017/11/17 14:29:09","新北市板橋區貴興路39號","121.457516666667","25.0037683333333","6500100","板橋區"
"220051","120-SR","2017/11/17 14:29:08","新北市板橋區松柏街19號","121.474585","25.029875","6500100","板橋區"
"247022","893-R6","2017/11/17 14:29:09","新北市蘆洲區中正路507號","121.461203333333","25.09736","6501400","蘆洲區"
"247011","546-UM","2017/11/17 14:29:06","新北市蘆洲區復興路201號","121.479645","25.08959","6501400","蘆洲區"
"247019","500-BY","2017/11/17 14:29:12","新北市蘆洲區民族路492號","121.46982","25.09082","6501400","蘆洲區"
"247009","339-TH","2017/11/17 14:29:00","新北市蘆洲區信義路186號","121.479156666667","25.08428","6501400","蘆洲區"
"247001","337-TH","2017/11/17 14:29:02","新北市蘆洲區永樂街38巷33弄54號","121.456676666667","25.0900216666667","6501400","蘆洲區"
"247003","335-TH","2017/11/17 14:29:11","新北市蘆洲區長安街283號","121.458316666667","25.0844566666667","6501400","蘆洲區"
"247015","057-VK","2017/11/17 14:29:15","新北市蘆洲區中正路185巷68弄25號","121.466238333333","25.0853633333333","6501400","蘆洲區"
"247005","056-VK","2017/11/17 14:29:12","新北市蘆洲區長安街22巷31弄17號","121.464048333333","25.0804116666667","6501400","蘆洲區"
"247007","053-VK","2017/11/17 14:29:05","","121.477418333333","25.0796983333333","6501400","蘆洲區"
"247013","007-UY","2017/11/17 14:29:12","新北市蘆洲區中山二路161號","121.47128","25.081275","6501400","蘆洲區"
"247023","002-UY","2017/11/17 14:29:08","","121.467591666667","25.0875166666667","6501400","蘆洲區"
"247017","001-UY","2017/11/17 14:29:08","新北市蘆洲區民族路213號","121.478076666667","25.0895733333333","6501400","蘆洲區"
"223007","437-BY","2017/11/17 09:30:39","新北市石碇區小粗坑(潭邊里)9-2號","121.67854","24.9857283333333","6501900","石碇區"
"207002","749-BX","2017/11/17 14:25:25","新北市萬里區溪底里福德坑路6-1號","121.624626666667","25.158695","6502800","萬里區"
"207001","662-BX","2017/11/17 14:29:07","新北市萬里區磺潭里清水18-2號","121.638556666667","25.19836","6502800","萬里區"
"208004","170-UY","2017/11/17 14:28:58","","121.61442","25.2236583333333","6502700","金山區"
"236067","105-UM","2017/11/17 14:28:56","新北市土城區永豐路342-1號","121.474511666667","24.97641","6501300","土城區"
"236041","107-UM","2017/11/17 14:29:10","新北市土城區學成路91巷14號","121.45047","24.9879716666667","6501300","土城區"
"236077","166-UM","2017/11/17 14:02:30","新北市土城區永寧路32巷10弄43號","121.42814","24.961275","6501300","土城區"
"236029","253-BX","2017/11/17 14:28:58","新北市土城區水源街69號","121.43986","24.97632","6501300","土城區"
"236025","269-VK","2017/11/17 14:29:09","新北市土城區承天路69-1號","121.439856666667","24.9632716666667","6501300","土城區"
"236013","270-VK","2017/11/17 14:29:05","","121.460328333333","24.987605","6501300","土城區"
"236035","271-VK","2017/11/17 14:29:05","新北市土城區青雲路453號","121.458876666667","24.9746166666667","6501300","土城區"
"236019","401-BY","2017/11/17 14:29:05","新北市土城區永豐路202巷7號","121.466281666667","24.9832866666667","6501300","土城區"
"236006","498-BY","2017/11/17 14:29:03","","121.442706666667","24.9884316666667","6501300","土城區"
"236057","912-UM","2017/11/17 14:29:11","新北市土城區中央路四段466號","121.409976666667","24.9506016666667","6501300","土城區"
"236046","913-UM","2017/11/17 14:28:55","","121.458711666667","24.9738966666667","6501300","土城區"
"236061","915-UM","2017/11/17 14:29:01","","121.471406666667","24.993015","6501300","土城區"
"236054","AAC-216","2017/11/17 14:28:58","","121.43924","24.9776183333333","6501300","土城區"
"242001","233-RS","2017/11/17 08:25:01","新北市新莊區環河路48-7號","121.436915","25.009795","6500500","新莊區"
"221012","276-VK","2017/11/17 13:26:13","新北市汐止區汐萬路一段256巷3號","121.65346","25.07464","6501100","汐止區"
"221025","623-UM","2017/11/17 14:28:53","新北市新店區安業街285-1號","121.527078333333","24.96702","6501100","汐止區"
"221018","753-BX","2017/11/17 14:29:10","台北市文山區新光路二段100號","121.594983333333","25.000915","6501100","汐止區"
"220027","145-BY","2017/11/17 14:29:09","新北市板橋區建國街6號","121.45702","25.0168833333333","6500100","板橋區"
"220028","200-UY","2017/11/17 14:29:11","新北市板橋區大觀路二段37巷196號","121.449451666667","25.00153","6500100","板橋區"
"220030","610-BX","2017/11/17 14:29:05","","121.43222","24.9896483333333","6500100","板橋區"
"220052","255-TC","2017/11/17 14:29:02","","121.46845","25.0208733333333","6500100","板橋區"
"220004","276-BY","2017/11/17 14:29:01","","121.45896","24.9961866666667","6500100","板橋區"
"220020","277-BY","2017/11/17 14:29:13","新北市板橋區金門街253巷16弄7號","121.432725","24.987985","6500100","板橋區"
"220050","280-UM","2017/11/17 14:29:14","新北市板橋區縣民大道三段135號","121.477633333333","25.023345","6500100","板橋區"
"220043","283-UM","2017/11/17 14:29:02","","121.468693333333","25.030345","6500100","板橋區"
"220019","283-VK","2017/11/17 14:29:09","新北市板橋區四川路一段281號","121.459461666667","25.0017416666667","6500100","板橋區"
"220001","285-VK","2017/11/17 14:29:02","","121.478016666667","25.0206033333333","6500100","板橋區"
"220031","286-VK","2017/11/17 14:29:10","新北市板橋區大觀路二段174巷163弄9號","121.441215","25.0032333333333","6500100","板橋區"
"220029","287-VK","2017/11/17 14:28:54","新北市板橋區大觀路一段29巷133弄2號","121.450243333333","25.0054433333333","6500100","板橋區"
"220039","288-VK","2017/11/17 14:29:07","新北市板橋區長江路一段53號","121.458725","25.0291666666667","6500100","板橋區"
"220009","293-UM","2017/11/17 14:28:53","新北市板橋區中山路一段265巷36弄2號","121.469126666667","25.0151416666667","6500100","板橋區"
"220032","296-UM","2017/11/17 14:28:55","","121.425805","24.9860783333333","6500100","板橋區"
"220023","297-UM","2017/11/17 14:29:06","新北市板橋區中正路253巷5號","121.455366666667","25.0182033333333","6500100","板橋區"
"220047","299-UM","2017/11/17 14:29:11","新北市板橋區裕民街1號","121.462581666667","25.0290283333333","6500100","板橋區"
"220010","305-R5","2017/11/17 14:28:57","","121.480516666667","25.015595","6500100","板橋區"
"220041","307-R5","2017/11/17 14:29:15","新北市板橋區文化路二段107號","121.469376666667","25.0260566666667","6500100","板橋區"
"220012","486-VK","2017/11/17 14:29:04","","121.460156666667","25.0082233333333","6500100","板橋區"
"220037","491-VK","2017/11/17 14:28:58","新北市板橋區文化路二段318號","121.47269","25.0297266666667","6500100","板橋區"
"220104","560-BX","2017/11/17 14:29:06","新北市板橋區中正路360巷53號","121.456416666667","25.0229866666667","6500100","板橋區"
"220011","609-BX","2017/11/17 14:29:10","新北市板橋區三民路二段140號","121.479128333333","25.0159783333333","6500100","板橋區"
"220040","637-BX","2017/11/17 14:28:53","新北市板橋區文聖街135巷27號","121.479043333333","25.0290266666667","6500100","板橋區"
"220005","686-BX","2017/11/17 14:23:33","新北市板橋區溪城路90-2號","121.429058333333","24.98028","6500100","板橋區"
"220025","687-BX","2017/11/17 14:29:09","新北市板橋區僑中二街92巷1號","121.44627","25.0087","6500100","板橋區"
"220042","689-BX","2017/11/17 14:29:08","","121.460606666667","25.0235783333333","6500100","板橋區"
"220002","741-BX","2017/11/17 14:29:11","新北市板橋區忠孝路203號","121.465068333333","25.0026933333333","6500100","板橋區"
"220005","806-UM","2017/11/17 14:29:12","新北市板橋區五權街7-1號","121.463813333333","24.9945316666667","6500100","板橋區"
"220003","827-TW","2017/11/17 14:29:00","","121.463956666667","25.0055766666667","6500100","板橋區"
"220014","829-TW","2017/11/17 14:29:05","新北市板橋區長安街168巷10弄16-1號","121.473531666667","25.0103816666667","6500100","板橋區"
"220045","831-TW","2017/11/17 14:29:07","新北市板橋區莊敬路168號","121.471743333333","25.0224866666667","6500100","板橋區"
"220038","833-TW","2017/11/17 14:29:02","","121.460883333333","25.01369","6500100","板橋區"
"220022","895-R6","2017/11/17 14:29:03","新北市板橋區府中路29-2號","121.458536666667","25.0081583333333","6500100","板橋區"
"220021","985-R7","2017/11/17 14:28:59","","121.455538333333","25.0211133333333","6500100","板橋區"
"220046","AAC-210","2017/11/17 14:29:00","","121.462651666667","25.02127","6500100","板橋區"
"220018","AAC-253","2017/11/17 14:29:11","新北市板橋區四川路一段40號","121.459553333333","25.0060116666667","6500100","板橋區"
