"lineid","car","time","location","longitude","latitude","cityid","cityname"
"234084","338-UY","2017/11/17 15:09:11","新北市林口區太平里180號","121.366871666667","25.1337333333333","6500400","永和區"
"248019","225-UY","2017/11/17 15:08:58","新北市五股區凌雲路三段24巷24號","121.435255","25.10442","6501500","五股區"
"244004","657-BX","2017/11/17 15:08:59","新北市林口區竹林路266號","121.389668333333","25.08091","6501700","林口區"
"231029","001-UM","2017/11/17 15:09:07","新北市新店區安康路三段738號","121.473871666667","24.9420366666667","6500600","新店區"
"231002","002-UM","2017/11/17 15:09:11","新北市新店區中正路630號","121.533961666667","24.988965","6500600","新店區"
"231028","046-UY","2017/11/17 15:09:06","新北市新店區僑信路122號","121.500473333333","24.9463333333333","6500600","新店區"
"231012","108-UY","2017/11/17 15:09:09","新北市新店區寶元路一段61號","121.54213","24.9860266666667","6500600","新店區"
"231022","187-VK","2017/11/17 15:09:03","新北市新店區永福路54-2號","121.558093333333","24.92876","6500600","新店區"
"231026","256-BX","2017/11/17 15:08:55","新北市新店區建興街8號","121.539858333333","24.97646","6500600","新店區"
"231034","268-BY","2017/11/17 15:09:09","新北市新店區玫瑰路4-1號","121.493523333333","24.9513466666667","6500600","新店區"
"231023","AAD-862","2017/11/17 15:09:01","新北市新店區檳榔路105號","121.544588333333","24.9617483333333","6500600","新店區"
"231005","355-BY","2017/11/17 15:08:58","新北市新店區寶元路一段15巷20號","121.541978333333","24.9869516666667","6500600","新店區"
"231025","3713-VJ","2017/11/17 15:09:12","新北市新店區民權路98號","121.53637","24.9829266666667","6500600","新店區"
"231024","4716-K9","2017/11/17 15:09:04","新北市新店區中華路42巷15號","121.540608333333","24.9688033333333","6500600","新店區"
"231036","512-UM","2017/11/17 15:09:07","新北市新店區安祥路104巷11弄16號","121.480883333333","24.9636783333333","6500600","新店區"
"231035","515-UM","2017/11/17 15:09:04","新北市新店區安和路三段128號","121.516635","24.9856733333333","6500600","新店區"
"231003","616-UM","2017/11/17 15:08:57","新北市新店區寶橋路225號","121.54944","24.9777166666667","6500600","新店區"
"231006","617-UM","2017/11/17 15:08:53","新北市新店區新坡一街18巷5弄23號","121.550766666667","24.96188","6500600","新店區"
"231030","618-UM","2017/11/17 15:09:02","新北市新店區安民街341-1號","121.51687","24.9749133333333","6500600","新店區"
"231001","619-UM","2017/11/17 15:08:57","新北市新店區中正路261號","121.53876","24.9735183333333","6500600","新店區"
"231039","718-UY","2017/11/17 15:09:09","新北市新店區寶安街4巷2號","121.542271666667","24.98096","6500600","新店區"
"231018","719-UY","2017/11/17 15:09:13","新北市新店區中央六街93號","121.526291666667","24.976955","6500600","新店區"
"231032","720-UM","2017/11/17 15:09:06","新北市新店區安泰路170-2號","121.48852","24.93736","6500600","新店區"
"231004","899-TW","2017/11/17 15:09:11","新北市新店區建國路21號","121.540056666667","24.973855","6500600","新店區"
"231037","AKT-0513","2017/11/17 15:08:54","新北市新店區安民街365巷1弄10號","121.516521666667","24.9750233333333","6500600","新店區"
"235030","003-UY","2017/11/17 15:09:11","新北市中和區水源路127巷1號","121.508021666667","25.0034216666667","6500300","中和區"
"235020","096-UM","2017/11/17 15:08:54","新北市中和區民享街34號","121.473996666667","25.0031133333333","6500300","中和區"
"235003","097-UM","2017/11/17 15:09:02","新北市中和區安樂路217巷24號","121.513648333333","24.9984266666667","6500300","中和區"
"235004","150-BY","2017/11/17 15:09:07","新北市中和區保健路60號","121.510926666667","24.996595","6500300","中和區"
"235031","255-BX","2017/11/17 15:09:00","新北市板橋區民生路三段30-5號","121.467285","25.0245566666667","6500300","中和區"
"235007","352-BY","2017/11/17 15:09:00","新北市中和區興南路二段159巷10號","121.505076666667","24.9832866666667","6500300","中和區"
"235032","377-QA","2017/11/17 15:09:00","新北市中和區中山路二段327巷10號","121.493305","25.001115","6500300","中和區"
"235035","269-TV","2017/11/17 15:09:00","新北市中和區中正路1145號","121.482913333333","25.007925","6500300","中和區"
"235014","4979-A6","2017/11/17 15:09:10","新北市中和區安樂路37號","121.511881666667","24.9930983333333","6500300","中和區"
"235033","4980-A6","2017/11/17 15:09:08","新北市中和區中正路446號","121.490935","24.994225","6500300","中和區"
"235034","558-UM","2017/11/17 15:07:36","","121.495763333333","24.99401","6500300","中和區"
"235018","640-BX","2017/11/17 15:08:55","新北市中和區民治街32巷10號","121.474596666667","25.0036333333333","6500300","中和區"
"235026","800-TS","2017/11/17 15:09:07","新北市新店區安忠路205巷8號","121.509263333333","24.9549016666667","6500300","中和區"
"235016","805-TS","2017/11/17 15:09:08","新北市中和區中正路155號","121.49893","24.9934033333333","6500300","中和區"
"235012","896-TW","2017/11/17 15:09:04","新北市中和區興南路一段152號","121.50831","24.9869566666667","6500300","中和區"
"235001","AAC-213","2017/11/17 15:08:53","新北市永和區民生路46巷56號","121.520703333333","24.996415","6500300","中和區"
"235023","AAC-215","2017/11/17 15:08:54","新北市中和區圓通路335巷35號","121.493636666667","24.9894683333333","6500300","中和區"
"220013","072-UY","2017/11/17 15:08:59","新北市板橋區南雅南路二段120-26號","121.452481666667","24.9984333333333","6500100","板橋區"
"220017","AAD-861","2017/11/17 15:09:09","新北市板橋區大明街25巷4弄12號","121.457556666667","25.00217","6500100","板橋區"
"220051","120-SR","2017/11/17 15:09:08","新北市板橋區縣民大道三段121巷3號","121.476765","25.0228216666667","6500100","板橋區"
"247004","335-TH","2017/11/17 14:59:17","新北市五股區中興路三段163號","121.44921","25.08052","6501400","蘆洲區"
"223007","437-BY","2017/11/17 09:30:39","新北市石碇區小粗坑(潭邊里)9-2號","121.67854","24.9857283333333","6501900","石碇區"
"227003","400-TW","2017/11/17 14:52:58","新北市雙溪區三貂里政光路3-1號","121.850838333333","25.0632016666667","6502500","雙溪區"
"207002","749-BX","2017/11/17 15:09:05","新北市萬里區崁腳里內中福路97號","121.653703333333","25.1639516666667","6502800","萬里區"
"207001","662-BX","2017/11/17 15:09:07","新北市萬里區大鵬里萬里加投9號","121.652235","25.2086566666667","6502800","萬里區"
"208004","170-UY","2017/11/17 15:08:58","新北市金山區半嶺2號","121.61902","25.232545","6502700","金山區"
"236067","105-UM","2017/11/17 15:08:56","新北市土城區中央路一段67-3號","121.44781","24.9896316666667","6501300","土城區"
"236041","107-UM","2017/11/17 15:09:11","新北市土城區金城路二段210號","121.455423333333","24.9821816666667","6501300","土城區"
"236077","166-UM","2017/11/17 14:57:30","新北市土城區中州路3巷50號","121.413368333333","24.956425","6501300","土城區"
"236029","253-BX","2017/11/17 15:09:10","新北市土城區福祥街55號","121.440775","24.9801616666667","6501300","土城區"
"236025","269-VK","2017/11/17 15:09:01","新北市土城區中央路二段177巷15號","121.443558333333","24.97621","6501300","土城區"
"236013","270-VK","2017/11/17 15:09:05","新北市土城區學府路一段100號","121.456096666667","24.987955","6501300","土城區"
"236035","271-VK","2017/11/17 15:09:05","新北市土城區明德路一段156號","121.46311","24.9785383333333","6501300","土城區"
"236019","401-BY","2017/11/17 15:09:06","新北市土城區延峰街9號","121.468716666667","24.9863983333333","6501300","土城區"
"236057","912-UM","2017/11/17 15:09:11","新北市土城區金城路二段240號","121.456658333333","24.9831","6501300","土城區"
"236046","913-UM","2017/11/17 15:08:55","新北市土城區清水路137號","121.45826","24.9816116666667","6501300","土城區"
"236061","915-UM","2017/11/17 15:09:01","新北市土城區延平街17號","121.468181666667","24.991105","6501300","土城區"
"236054","AAC-216","2017/11/17 15:08:58","新北市土城區學府路一段276號","121.44995","24.983105","6501300","土城區"
"242001","233-RS","2017/11/17 08:25:01","新北市新莊區環河路48-7號","121.436915","25.009795","6500500","新莊區"
"221012","276-VK","2017/11/17 13:26:13","新北市汐止區汐萬路一段256巷3號","121.65346","25.07464","6501100","汐止區"
"221025","623-UM","2017/11/17 15:09:13","新北市汐止區南興路28號","121.65206","25.0616266666667","6501100","汐止區"
"221018","753-BX","2017/11/17 15:09:10","新北市汐止區大同路二段312巷9弄1號","121.655941666667","25.0659566666667","6501100","汐止區"
"220052","255-TC","2017/11/17 15:09:02","新北市板橋區新海路97號","121.461378333333","25.0223666666667","6500100","板橋區"
"220050","280-UM","2017/11/17 15:09:04","新北市板橋區雙十路二段47巷4弄24號","121.474913333333","25.0264516666667","6500100","板橋區"
"220019","283-VK","2017/11/17 15:09:09","新北市板橋區四川路二段130巷29號","121.44939","24.994345","6500100","板橋區"
"220031","286-VK","2017/11/17 15:09:10","新北市板橋區僑中二街102巷6號","121.44583","25.00839","6500100","板橋區"
"220009","293-UM","2017/11/17 15:08:53","新北市板橋區四川路一段286巷26-1號","121.457796666667","25.00125","6500100","板橋區"
"220032","296-UM","2017/11/17 15:08:55","新北市板橋區滿平街110巷20號","121.427791666667","24.9881516666667","6500100","板橋區"
"220041","307-R5","2017/11/17 15:09:02","新北市板橋區文化路一段81巷7號","121.460625","25.0141983333333","6500100","板橋區"
"220012","486-VK","2017/11/17 15:08:54","新北市板橋區長安街331巷3號","121.474195","25.01218","6500100","板橋區"
"220011","609-BX","2017/11/17 15:09:10","新北市板橋區民生路二段46號","121.47235","25.01755","6500100","板橋區"
"220025","687-BX","2017/11/17 15:09:13","新北市板橋區板城路421號","121.448256666667","24.9959483333333","6500100","板橋區"
"220042","689-BX","2017/11/17 15:09:00","新北市板橋區長江路二段266號","121.469526666667","25.0328083333333","6500100","板橋區"
"220003","827-TW","2017/11/17 15:09:00","新北市板橋區國慶路167巷37號","121.461448333333","24.99816","6500100","板橋區"
"220014","829-TW","2017/11/17 15:09:05","新北市三重區重新路5段221巷6弄11-1號","121.479128333333","25.0508483333333","6500100","板橋區"
"220038","833-TW","2017/11/17 15:08:57","新北市板橋區互助街68號","121.46104","25.0266233333333","6500100","板橋區"
"220046","AAC-210","2017/11/17 15:09:00","新北市板橋區公館街33號","121.461278333333","25.0161516666667","6500100","板橋區"
"220018","AAC-253","2017/11/17 15:09:11","新北市板橋區德興街13號","121.453405","24.994495","6500100","板橋區"
