"lineid","car","time","location","longitude","latitude","cityid","cityname"
"244005","248-BX","2017/11/17 15:58:01","新北市林口區粉寮路二段160巷29號","121.405686666667","25.0912616666667","6501700","林口區"
"231012","108-UY","2017/11/17 15:59:09","新北市新店區中央一街43號","121.527206666667","24.9736633333333","6500600","新店區"
"231016","KEA-2219","2017/11/17 15:58:59","新北市新店區中正路244號","121.539653333333","24.9731666666667","6500600","新店區"
"231034","268-BY","2017/11/17 15:59:09","新北市新店區吉祥街5巷2號","121.49737","24.9475666666667","6500600","新店區"
"231046","278-BY","2017/11/17 15:58:57","新北市新店區安華路28-1號","121.519675","24.96116","6500600","新店區"
"231038","4715-K9","2017/11/17 15:59:03","新北市新店區安康路二段224號","121.509598333333","24.9593616666667","6500600","新店區"
"231035","515-UM","2017/11/17 15:59:04","新北市新店區安民街251巷4號","121.51698","24.97242","6500600","新店區"
"231003","616-UM","2017/11/17 15:58:57","新北市新店區中興路二段206號","121.548253333333","24.974635","6500600","新店區"
"231030","618-UM","2017/11/17 15:59:08","新北市新店區永平街10號","121.517166666667","24.9835516666667","6500600","新店區"
"231039","718-UY","2017/11/17 15:59:09","新北市新店區安光路10-1號","121.513628333333","24.9640466666667","6500600","新店區"
"231013","719-UM","2017/11/17 15:58:56","新北市新店區安康路一段116號","121.52708","24.96264","6500600","新店區"
"231018","719-UY","2017/11/17 15:59:13","新北市新店區中正路663巷7弄15號","121.532948333333","24.99013","6500600","新店區"
"231037","AKT-0513","2017/11/17 15:58:54","新北市新店區柴埕路59號","121.513633333333","24.9647216666667","6500600","新店區"
"241011","013-R5","2017/11/17 15:59:14","新北市三重區雙園街1巷7號","121.497131666667","25.0683166666667","6500200","三重區"
"241028","022-UY","2017/11/17 15:59:05","新北市三重區電信街97號","121.49546","25.05827","6500200","三重區"
"241008","059-VK","2017/11/17 15:59:13","新北市三重區成功路108巷8號","121.486183333333","25.0504216666667","6500200","三重區"
"241015","062-VK","2017/11/17 15:58:55","新北市三重區重新路四段121號","121.48516","25.0520133333333","6500200","三重區"
"241017","063-VK","2017/11/17 15:58:54","新北市三重區大仁街48巷41號","121.490833333333","25.0644666666667","6500200","三重區"
"241024","065-VK","2017/11/17 15:59:08","新北市三重區力行路一段38巷2號","121.485411666667","25.0667683333333","6500200","三重區"
"241002","090-VK","2017/11/17 15:58:56","新北市三重區環河北路353號","121.501553333333","25.0771266666667","6500200","三重區"
"241025","156-TC","2017/11/17 15:58:58","新北市三重區三民街206號","121.480921666667","25.06621","6500200","三重區"
"241005","262-UM","2017/11/17 15:58:53","新北市三重區溪尾街322號","121.487941666667","25.0845866666667","6500200","三重區"
"241016","266-UM","2017/11/17 15:59:09","新北市三重區重新路四段121號","121.485186666667","25.05205","6500200","三重區"
"241022","267-UM","2017/11/17 15:59:10","新北市三重區忠孝路三段40巷54號","121.48305","25.0656933333333","6500200","三重區"
"241018","268-UM","2017/11/17 15:58:54","新北市三重區中正北路35號","121.491585","25.0625766666667","6500200","三重區"
"241013","270-UM","2017/11/17 15:58:59","新北市三重區三和路三段16巷15號","121.49644","25.0700816666667","6500200","三重區"
"241007","398-BY","2017/11/17 15:58:56","新北市三重區力行路一段221號","121.4828","25.0705516666667","6500200","三重區"
"241020","413-TH","2017/11/17 15:59:04","新北市三重區忠孝路二段95號","121.48427","25.069975","6500200","三重區"
"241014","543-UM","2017/11/17 15:58:57","新北市三重區重新路四段121號","121.485133333333","25.0520716666667","6500200","三重區"
"241023","545-UM","2017/11/17 15:59:08","新北市三重區三民街175巷21號","121.483961666667","25.0657983333333","6500200","三重區"
"241001","547-UM","2017/11/17 15:59:05","新北市三重區忠孝路二段3號","121.487006666667","25.0715083333333","6500200","三重區"
"241006","AAD-863","2017/11/17 15:59:01","新北市三重區忠孝路三段99巷4號","121.480063333333","25.0640933333333","6500200","三重區"
"241012","941-UM","2017/11/17 15:59:02","新北市三重區文化北路132巷42號","121.497366666667","25.0663333333333","6500200","三重區"
"241029","942-UM","2017/11/17 15:59:04","新北市三重區大同南路212巷18號","121.49731","25.05667","6500200","三重區"
"241033","AAC-255","2017/11/17 15:58:56","新北市三重區光復路一段5號","121.472013333333","25.04702","6500200","三重區"
"235026","800-TS","2017/11/17 15:59:07","新北市中和區中山路二段476-9號","121.488713333333","25.0061433333333","6500300","中和區"
"235001","AAC-213","2017/11/17 15:58:14","新北市八里區荖阡坑路32號","121.403436666667","25.1273466666667","6500300","中和區"
"220051","120-SR","2017/11/17 15:58:59","新北市板橋區民生路二段175號","121.469933333333","25.0202666666667","6500100","板橋區"
"247004","335-TH","2017/11/17 14:59:17","新北市五股區中興路三段163號","121.44921","25.08052","6501400","蘆洲區"
"223007","437-BY","2017/11/17 09:30:39","新北市石碇區小粗坑(潭邊里)9-2號","121.67854","24.9857283333333","6501900","石碇區"
"224007","273-VK","2017/11/17 15:58:58","新北市瑞芳區楓子瀨路76號","121.76191","25.09762","6501200","瑞芳區"
"224005","271-BY","2017/11/17 15:59:03","新北市瑞芳區傑魚坑路183號","121.788481666667","25.1081066666667","6501200","瑞芳區"
"227011","642-TC","2017/11/17 15:58:59","新北市雙溪區三港里雙澳路33-3號","121.87021","25.049135","6502500","雙溪區"
"227003","400-TW","2017/11/17 15:58:53","新北市雙溪區平林里外平林49號","121.849333333333","25.0352516666667","6502500","雙溪區"
"236067","105-UM","2017/11/17 15:58:56","新北市土城區福安街118號","121.415583333333","24.96444","6501300","土城區"
"236025","269-VK","2017/11/17 15:59:00","新北市土城區永寧路35號","121.43008","24.9620466666667","6501300","土城區"
"236057","912-UM","2017/11/17 15:59:11","新北市土城區中央路二段314號","121.440435","24.97297","6501300","土城區"
"242001","233-RS","2017/11/17 08:25:01","新北市新莊區環河路48-7號","121.436915","25.009795","6500500","新莊區"
"221012","276-VK","2017/11/17 13:26:13","新北市汐止區汐萬路一段256巷3號","121.65346","25.07464","6501100","汐止區"
"221025","623-UM","2017/11/17 15:22:40","新北市汐止區康寧街901號","121.651673333333","25.074905","6501100","汐止區"
