"lineid","car","time","location","longitude","latitude","cityid","cityname"
"244005","248-BX","2017/11/17 15:59:41","新北市林口區粉寮路二段160巷29號","121.405688333333","25.0912533333333","6501700","林口區"
"231034","268-BY","2017/11/17 16:09:09","新北市新店區富貴街18巷16號","121.493305","24.9481383333333","6500600","新店區"
"231046","278-BY","2017/11/17 16:08:57","新北市新店區碧潭路69號","121.534226666667","24.9568033333333","6500600","新店區"
"231035","515-UM","2017/11/17 16:09:04","新北市新店區薏仁坑路自強巷6號","121.496888333333","24.9586783333333","6500600","新店區"
"231030","618-UM","2017/11/17 16:09:02","新北市新店區安德街148巷31號","121.506363333333","24.9608233333333","6500600","新店區"
"231018","719-UY","2017/11/17 16:08:53","新北市新店區中正路680巷51弄11號","121.535308333333","24.9895316666667","6500600","新店區"
"241011","013-R5","2017/11/17 16:08:54","新北市三重區正義北路366號","121.493756666667","25.0713716666667","6500200","三重區"
"241028","022-UY","2017/11/17 16:09:05","新北市三重區正義南路107號","121.498215","25.0586466666667","6500200","三重區"
"241008","059-VK","2017/11/17 16:08:53","新北市三重區力行路一段189號","121.483591666667","25.0699166666667","6500200","三重區"
"241015","062-VK","2017/11/17 16:08:55","新北市三重區環河南路128號","121.497058333333","25.0547266666667","6500200","三重區"
"241017","063-VK","2017/11/17 16:09:09","新北市三重區民生街76號","121.490268333333","25.06485","6500200","三重區"
"241024","065-VK","2017/11/17 16:09:08","新北市三重區中正北路145巷9弄4號","121.485321666667","25.0679666666667","6500200","三重區"
"241026","066-VK","2017/11/17 16:09:07","新北市三重區福裕街54號","121.497395","25.0613116666667","6500200","三重區"
"241002","090-VK","2017/11/17 16:08:56","新北市三重區仁義街91號","121.499796666667","25.0795716666667","6500200","三重區"
"241025","156-TC","2017/11/17 16:08:58","新北市三重區忠孝路三段40巷14號","121.482188333333","25.0665133333333","6500200","三重區"
"241005","262-UM","2017/11/17 16:08:53","新北市三重區溪尾街300-2號","121.48748","25.0837333333333","6500200","三重區"
"241016","266-UM","2017/11/17 16:09:10","新北市三重區大仁街52號","121.491993333333","25.0647383333333","6500200","三重區"
"241022","267-UM","2017/11/17 16:08:51","新北市三重區中正北路111-1號","121.485433333333","25.0654433333333","6500200","三重區"
"241018","268-UM","2017/11/17 16:08:54","新北市三重區明志街55號","121.491418333333","25.0639633333333","6500200","三重區"
"241013","270-UM","2017/11/17 16:08:59","新北市三重區安樂街49-3號","121.495888333333","25.0696683333333","6500200","三重區"
"241007","398-BY","2017/11/17 16:08:56","新北市三重區慈愛街8號","121.484501666667","25.0784433333333","6500200","三重區"
"241020","413-TH","2017/11/17 16:09:04","新北市三重區大勇街5號","121.483653333333","25.0712833333333","6500200","三重區"
"241004","475-VK","2017/11/17 16:08:58","新北市三重區五華街74號","121.49349","25.08196","6500200","三重區"
"241014","543-UM","2017/11/17 16:08:57","新北市三重區環河南路125號","121.497336666667","25.0549666666667","6500200","三重區"
"241023","545-UM","2017/11/17 16:09:08","新北市三重區力行路一段64號","121.484286666667","25.069405","6500200","三重區"
"241001","547-UM","2017/11/17 16:09:05","新北市三重區自強路四段80號","121.490648333333","25.0788983333333","6500200","三重區"
"241006","AAD-863","2017/11/17 16:09:01","新北市三重區永福街58巷3弄20號","121.480695","25.0773483333333","6500200","三重區"
"241012","941-UM","2017/11/17 16:09:02","新北市三重區文化北路132巷39號","121.497625","25.066635","6500200","三重區"
"241029","942-UM","2017/11/17 16:09:03","新北市三重區同安街24號","121.49621","25.05683","6500200","三重區"
"241033","AAC-255","2017/11/17 16:08:56","新北市三重區重新路五段408巷21-3號","121.47617","25.0453516666667","6500200","三重區"
"235026","800-TS","2017/11/17 16:09:07","新北市中和區永和路206號","121.491941666667","25.00747","6500300","中和區"
"235001","AAC-213","2017/11/17 16:08:53","新北市三重區後埔街82-1號","121.478436666667","25.0463533333333","6500300","中和區"
"247004","335-TH","2017/11/17 14:59:17","新北市五股區中興路三段163號","121.44921","25.08052","6501400","蘆洲區"
"223007","437-BY","2017/11/17 09:30:39","新北市石碇區小粗坑(潭邊里)9-2號","121.67854","24.9857283333333","6501900","石碇區"
"224006","676-BX","2017/11/17 16:09:10","新北市瑞芳區大寮路356-1號","121.785035","25.1033","6501200","瑞芳區"
"224007","273-VK","2017/11/17 16:08:58","新北市瑞芳區粗坑口路86巷14號","121.761236666667","25.0992466666667","6501200","瑞芳區"
"224005","271-BY","2017/11/17 16:09:03","新北市瑞芳區明燈路二段66號","121.809466666667","25.107545","6501200","瑞芳區"
"227011","642-TC","2017/11/17 16:08:59","新北市雙溪區三港里雙澳路72號","121.881678333333","25.05448","6502500","雙溪區"
"227003","400-TW","2017/11/17 16:08:53","新北市雙溪區上林里內平林30號","121.834011666667","25.0312166666667","6502500","雙溪區"
"251013","180-VK","2017/11/17 16:09:01","新北市淡水區中正路二段38號","121.419593333333","25.1823366666667","6501000","淡水區"
"236057","912-UM","2017/11/17 16:09:11","新北市土城區大安路2號","121.43282","24.9654733333333","6501300","土城區"
"242001","233-RS","2017/11/17 08:25:01","新北市新莊區環河路48-7號","121.436915","25.009795","6500500","新莊區"
"221012","276-VK","2017/11/17 13:26:13","新北市汐止區汐萬路一段256巷3號","121.65346","25.07464","6501100","汐止區"
"221025","623-UM","2017/11/17 15:22:40","新北市汐止區康寧街901號","121.651673333333","25.074905","6501100","汐止區"
