"lineid","car","time","location","longitude","latitude","cityid","cityname"
"249002","305-UY","2017/11/17 16:28:59","新北市八里區中山路一段276號","121.414013333333","25.1599133333333","6502300","八里區"
"244005","248-BX","2017/11/17 15:59:41","新北市林口區粉寮路二段160巷29號","121.405688333333","25.0912533333333","6501700","林口區"
"231046","278-BY","2017/11/17 16:28:57","新北市新店區灣潭路3-3號","121.53826","24.9507883333333","6500600","新店區"
"241011","013-R5","2017/11/17 16:28:54","新北市三重區龍濱路285號","121.501171666667","25.0733783333333","6500200","三重區"
"241028","022-UY","2017/11/17 16:29:05","新北市三重區中正南路200號","121.493836666667","25.055905","6500200","三重區"
"241008","059-VK","2017/11/17 16:28:53","新北市三重區永福街122-2號","121.479","25.07533","6500200","三重區"
"241009","060-VK","2017/11/17 16:29:04","新北市三重區仁美街96巷5號","121.485491666667","25.0801733333333","6500200","三重區"
"241031","061-VK","2017/11/17 16:29:09","新北市三重區重陽路一段59號","121.486696666667","25.0585083333333","6500200","三重區"
"241015","062-VK","2017/11/17 16:28:55","新北市三重區福德北路46號","121.502025","25.065335","6500200","三重區"
"241017","063-VK","2017/11/17 16:28:59","新北市三重區大同北路38號","121.495315","25.062655","6500200","三重區"
"241024","065-VK","2017/11/17 16:29:08","新北市三重區中正北路253號","121.475663333333","25.070905","6500200","三重區"
"241026","066-VK","2017/11/17 16:29:09","新北市三重區文化南路42號","121.500393333333","25.060275","6500200","三重區"
"241002","090-VK","2017/11/17 16:29:07","新北市三重區五華街7巷14號","121.495725","25.0803766666667","6500200","三重區"
"241003","091-VK","2017/11/17 16:28:51","新北市三重區仁義街220巷35號","121.494101666667","25.0834816666667","6500200","三重區"
"241025","156-TC","2017/11/17 16:28:58","新北市三重區中正北路560巷100弄2號","121.472361666667","25.068265","6500200","三重區"
"241005","262-UM","2017/11/17 16:28:53","新北市三重區溪尾街262-1號","121.487463333333","25.0831533333333","6500200","三重區"
"241016","266-UM","2017/11/17 16:29:09","新北市三重區大智街21號","121.494271666667","25.0657933333333","6500200","三重區"
"241022","267-UM","2017/11/17 16:29:10","新北市三重區新北大道一段72號","121.486308333333","25.0615716666667","6500200","三重區"
"241018","268-UM","2017/11/17 16:28:54","新北市三重區重陽路三段190號","121.49028","25.0683316666667","6500200","三重區"
"241032","269-UM","2017/11/17 16:29:02","新北市三重區三陽路100巷3弄13號","121.48309","25.0580516666667","6500200","三重區"
"241013","270-UM","2017/11/17 16:28:59","新北市三重區龍門路86號","121.497235","25.0726916666667","6500200","三重區"
"241007","398-BY","2017/11/17 16:28:56","新北市三重區三和路四段167巷202號","121.488395","25.0804916666667","6500200","三重區"
"241020","413-TH","2017/11/17 16:29:04","新北市三重區車路頭街37巷20號","121.484386666667","25.0718433333333","6500200","三重區"
"241004","475-VK","2017/11/17 16:28:58","新北市三重區自強路五段5-1號","121.492346666667","25.08037","6500200","三重區"
"241019","478-VK","2017/11/17 16:28:56","新北市三重區重陽路三段180號","121.490018333333","25.068055","6500200","三重區"
"241030","480-VK","2017/11/17 16:29:08","新北市三重區成功路96號","121.48767","25.0515133333333","6500200","三重區"
"241014","543-UM","2017/11/17 16:28:57","新北市三重區河邊北街70-3號","121.504383333333","25.0683933333333","6500200","三重區"
"241023","545-UM","2017/11/17 16:29:08","新北市三重區忠孝路三段50巷43號","121.482893333333","25.0644683333333","6500200","三重區"
"241001","547-UM","2017/11/17 16:29:05","新北市三重區福隆路56號","121.492648333333","25.07858","6500200","三重區"
"241006","AAD-863","2017/11/17 16:29:01","新北市三重區力行路二段184號","121.483255","25.07722","6500200","三重區"
"241012","941-UM","2017/11/17 16:29:02","新北市三重區河邊北街385號","121.50172","25.0767766666667","6500200","三重區"
"241029","942-UM","2017/11/17 16:29:03","新北市三重區集美街126巷12號","121.489471666667","25.0537816666667","6500200","三重區"
"241033","AAC-255","2017/11/17 16:28:56","新北市三重區五谷王北街20巷15弄2號","121.474918333333","25.048355","6500200","三重區"
"235026","800-TS","2017/11/17 16:29:10","新北市中和區建八路125巷10號","121.490216666667","24.999425","6500300","中和區"
"235001","AAC-213","2017/11/17 16:28:53","新北市中和區員山路36巷13號","121.484298333333","24.9907683333333","6500300","中和區"
"247004","335-TH","2017/11/17 16:29:04","新北市五股區中興路三段163號","121.449188333333","25.0806183333333","6501400","蘆洲區"
"223007","437-BY","2017/11/17 09:30:39","新北市石碇區小粗坑(潭邊里)9-2號","121.67854","24.9857283333333","6501900","石碇區"
"224006","676-BX","2017/11/17 16:29:10","新北市瑞芳區明燈路二段66號","121.809245","25.1075533333333","6501200","瑞芳區"
"224008","275-VK","2017/11/17 16:29:03","新北市瑞芳區民權街3-1號","121.80936","25.1083633333333","6501200","瑞芳區"
"224007","273-VK","2017/11/17 16:28:58","新北市瑞芳區瑞竹路36巷43號","121.76422","25.1044983333333","6501200","瑞芳區"
"224005","271-BY","2017/11/17 16:29:03","新北市瑞芳區連福新城123-3號","121.821415","25.11958","6501200","瑞芳區"
"227011","642-TC","2017/11/17 16:28:59","新北市雙溪區三港里雙澳路37-5號","121.872715","25.0503383333333","6502500","雙溪區"
"227003","400-TW","2017/11/17 16:29:13","新北市雙溪區上林里內平林120-2號","121.824828333333","25.02644","6502500","雙溪區"
"251013","180-VK","2017/11/17 16:29:01","新北市淡水區大溪8號","121.495143333333","25.1909433333333","6501000","淡水區"
"251008","181-VK","2017/11/17 16:29:04","新北市淡水區中正東路一段25號","121.45183","25.1632883333333","6501000","淡水區"
"242001","233-RS","2017/11/17 08:25:01","新北市新莊區環河路48-7號","121.436915","25.009795","6500500","新莊區"
"221012","276-VK","2017/11/17 13:26:13","新北市汐止區汐萬路一段256巷3號","121.65346","25.07464","6501100","汐止區"
"221025","623-UM","2017/11/17 15:22:40","新北市汐止區康寧街901號","121.651673333333","25.074905","6501100","汐止區"
