"lineid","car","time","location","longitude","latitude","cityid","cityname"
"249005","172-UM","2017/11/17 16:39:06","新北市八里區中山路一段29-1號","121.4215","25.1591616666667","6502300","八里區"
"249004","303-UY","2017/11/17 16:38:55","新北市八里區挖子尾街6號","121.415448333333","25.1641683333333","6502300","八里區"
"249002","305-UY","2017/11/17 16:38:59","新北市八里區大崁腳47-3號","121.424381666667","25.1589933333333","6502300","八里區"
"249003","593-UM","2017/11/17 16:39:07","新北市八里區挖子尾街6號","121.415503333333","25.1642666666667","6502300","八里區"
"244005","248-BX","2017/11/17 15:59:41","新北市林口區粉寮路二段160巷29號","121.405688333333","25.0912533333333","6501700","林口區"
"231046","278-BY","2017/11/17 16:38:57","新北市新店區灣潭路55號","121.541823333333","24.9431416666667","6500600","新店區"
"241011","013-R5","2017/11/17 16:39:06","新北市三重區仁愛街45號","121.496755","25.0717","6500200","三重區"
"241028","022-UY","2017/11/17 16:39:05","新北市三重區重新路三段84號","121.493333333333","25.0607266666667","6500200","三重區"
"241008","059-VK","2017/11/17 16:38:53","新北市三重區永安北路一段27巷10號","121.476981666667","25.075625","6500200","三重區"
"241009","060-VK","2017/11/17 16:39:04","新北市三重區三和路四段203巷36號","121.48289","25.07974","6500200","三重區"
"241031","061-VK","2017/11/17 16:39:09","新北市三重區重新路四段41巷24號","121.48739","25.0583866666667","6500200","三重區"
"241015","062-VK","2017/11/17 16:38:55","新北市三重區文化北路37-2號","121.499018333333","25.065055","6500200","三重區"
"241017","063-VK","2017/11/17 16:39:14","新北市三重區中正北路25巷2號","121.493233333333","25.0627083333333","6500200","三重區"
"241024","065-VK","2017/11/17 16:39:08","新北市三重區中正北路315巷6弄62號","121.47597","25.0724816666667","6500200","三重區"
"241026","066-VK","2017/11/17 16:39:07","新北市三重區中央南路83-1號","121.501311666667","25.0607933333333","6500200","三重區"
"241002","090-VK","2017/11/17 16:39:09","新北市三重區自強路五段121號","121.496208333333","25.0825816666667","6500200","三重區"
"241003","091-VK","2017/11/17 16:39:11","新北市三重區五華街71巷56號","121.493486666667","25.0834616666667","6500200","三重區"
"241025","156-TC","2017/11/17 16:38:58","新北市三重區中正北路430-5號","121.474545","25.0705","6500200","三重區"
"241005","262-UM","2017/11/17 16:38:53","新北市三重區仁華街146號","121.48717","25.0831866666667","6500200","三重區"
"241016","266-UM","2017/11/17 16:39:09","新北市三重區大智街1-1號","121.494806666667","25.06495","6500200","三重區"
"241022","267-UM","2017/11/17 16:39:10","新北市三重區新北大道一段100巷29號","121.485376666667","25.06268","6500200","三重區"
"241018","268-UM","2017/11/17 16:38:53","新北市三重區正義北路338巷50號","121.49308","25.0702533333333","6500200","三重區"
"241032","269-UM","2017/11/17 16:39:02","新北市三重區三民街28號","121.485563333333","25.061275","6500200","三重區"
"241013","270-UM","2017/11/17 16:38:59","新北市三重區仁愛街81號","121.496023333333","25.0731216666667","6500200","三重區"
"241007","398-BY","2017/11/17 16:38:56","新北市三重區三和路四段167巷80號","121.48501","25.079465","6500200","三重區"
"241020","413-TH","2017/11/17 16:39:04","新北市三重區後竹圍街197號","121.484978333333","25.0714983333333","6500200","三重區"
"241004","475-VK","2017/11/17 16:38:58","新北市三重區五華街72號","121.493193333333","25.0817616666667","6500200","三重區"
"241019","478-VK","2017/11/17 16:38:56","新北市三重區安慶街287號","121.488996666667","25.0673366666667","6500200","三重區"
"241030","480-VK","2017/11/17 16:39:08","新北市三重區環河南路253號","121.491203333333","25.0505466666667","6500200","三重區"
"241014","543-UM","2017/11/17 16:38:57","新北市三重區龍濱路38號","121.502806666667","25.0682666666667","6500200","三重區"
"241023","545-UM","2017/11/17 16:39:08","新北市三重區忠孝路三段50巷47號","121.482923333333","25.064455","6500200","三重區"
"241001","547-UM","2017/11/17 16:39:05","新北市三重區仁愛街202號","121.4938","25.077485","6500200","三重區"
"241006","AAD-863","2017/11/17 16:39:01","新北市三重區車路頭街140號","121.48405","25.0755716666667","6500200","三重區"
"241012","941-UM","2017/11/17 16:39:02","新北市三重區仁興街5號","121.499895","25.0738683333333","6500200","三重區"
"241029","942-UM","2017/11/17 16:39:03","新北市三重區集美街112巷9號","121.489325","25.0541183333333","6500200","三重區"
"241033","AAC-255","2017/11/17 16:38:56","新北市三重區光復路二段49號","121.472045","25.055855","6500200","三重區"
"235026","800-TS","2017/11/17 16:39:07","新北市中和區連城路263巷11弄11號","121.49341","24.99552","6500300","中和區"
"247004","335-TH","2017/11/17 16:38:55","新北市五股區中興路三段163號","121.44869","25.0804","6501400","蘆洲區"
"247016","057-VK","2017/11/17 16:39:04","新北市五股區凌雲路一段21號","121.45414","25.0995316666667","6501400","蘆洲區"
"247006","056-VK","2017/11/17 16:39:06","新北市五股區中興路三段160號","121.445541666667","25.0807483333333","6501400","蘆洲區"
"223007","437-BY","2017/11/17 09:30:39","新北市石碇區小粗坑(潭邊里)9-2號","121.67854","24.9857283333333","6501900","石碇區"
"228002","663-BX","2017/11/17 16:39:05","新北市貢寮區貢寮里朝陽街2號","121.912481666667","25.0216166666667","6502600","貢寮區"
"224006","676-BX","2017/11/17 16:39:10","新北市瑞芳區中山路312號","121.797033333333","25.1100133333333","6501200","瑞芳區"
"224008","275-VK","2017/11/17 16:39:03","新北市瑞芳區逢甲路17號","121.809385","25.1084316666667","6501200","瑞芳區"
"224007","273-VK","2017/11/17 16:38:58","新北市瑞芳區月眉路36-2號","121.761073333333","25.1115983333333","6501200","瑞芳區"
"224005","271-BY","2017/11/17 16:39:03","新北市瑞芳區明里路122號","121.863305","25.12271","6501200","瑞芳區"
"227011","642-TC","2017/11/17 16:38:59","新北市雙溪區牡丹里中正路67號","121.864793333333","25.0438533333333","6502500","雙溪區"
"227003","400-TW","2017/11/17 16:38:53","新北市雙溪區外柑里土地公後5號","121.815746666667","25.0204183333333","6502500","雙溪區"
"251013","180-VK","2017/11/17 16:39:01","新北市淡水區大溪8號","121.495813333333","25.1904816666667","6501000","淡水區"
"251008","181-VK","2017/11/17 16:39:04","新北市淡水區民生路115號","121.464403333333","25.1384816666667","6501000","淡水區"
"251015","182-VK","2017/11/17 16:39:08","新北市淡水區忠愛街5-2號","121.460628333333","25.1716733333333","6501000","淡水區"
"252002","178-VK","2017/11/17 16:38:55","新北市三芝區茂長里陳厝坑12號","121.515008333333","25.2553866666667","6502100","三芝區"
"252001","292-VK","2017/11/17 16:39:09","新北市三芝區埔坪里埔頭坑61號","121.507131666667","25.2645116666667","6502100","三芝區"
"242029","986-R7","2017/11/17 16:38:07","新北市新莊區新泰路357巷3弄57號","121.442228333333","25.0392316666667","6500500","新莊區"
"242001","233-RS","2017/11/17 08:25:01","新北市新莊區環河路48-7號","121.436915","25.009795","6500500","新莊區"
"238018","571-TV","2017/11/17 16:39:07","新北市樹林區育德街78號","121.387876666667","24.9684316666667","6500700","樹林區"
"239003","360-BY","2017/11/17 16:38:59","新北市鶯歌區二甲路12-2號","121.345413333333","24.9348933333333","6500800","鶯歌區"
"221012","276-VK","2017/11/17 13:26:13","新北市汐止區汐萬路一段256巷3號","121.65346","25.07464","6501100","汐止區"
"221025","623-UM","2017/11/17 15:22:40","新北市汐止區康寧街901號","121.651673333333","25.074905","6501100","汐止區"
