"lineid","car","time","location","longitude","latitude","cityid","cityname"
"248005","653-BX","2017/09/22 09:09:34","新北市五股區自強路76號","121.432958333333","25.072795","6501500","五股區"
"222005","289-BY","2017/09/22 09:09:28","新北市深坑區土庫尖路75-1號","121.631156666667","25.0181866666667","6501800","深坑區"
"231007","189-VK","2017/09/22 09:09:32","新北市新店區新潭路三段112巷11號","121.509303333333","24.90922","6500600","新店區"
"231009","192-VK","2017/09/22 09:09:35","新北市新店區廣興路30號","121.540508333333","24.9116216666667","6500600","新店區"
"247009","339-TH","2017/09/22 09:09:23","新北市鶯歌區永明街7號","121.338238333333","24.9550483333333","6501400","蘆洲區"
"226001","7418-A5","2017/09/22 08:54:23","新北市平溪區東勢里番仔坑34-3號","121.749451666667","24.9831216666667","6502400","平溪區"
"223002","198-BX","2017/09/22 08:58:02","新北市石碇區八分寮47-1號","121.642983333333","25.0133916666667","6501900","石碇區"
"223008","406-TH","2017/09/22 09:09:28","新北市石碇區光明路28號","121.69522","25.02381","6501900","石碇區"
"223004","660-BX","2017/09/22 09:09:35","新北市石碇區華梵路2號","121.691165","24.97649","6501900","石碇區"
"223007","661-BX","2017/09/22 09:09:30","新北市石碇區光明路26號","121.6949","25.0252216666667","6501900","石碇區"
"223005","677-TV","2017/09/22 09:09:23","新北市石碇區華梵路16-1號","121.69082","24.97781","6501900","石碇區"
"227005","282-VK","2017/09/22 09:07:31","新北市雙溪區泰平里料角坑9號","121.812126666667","24.9735266666667","6502500","雙溪區"
"237001","159-UY","2017/09/22 09:09:35","新北市三峽區大德路493號","121.373725","24.9486866666667","6500900","三峽區"
"241031","760-BX","2017/09/22 09:09:24","新北市三峽區竹崙路116號","121.433703333333","24.9110983333333","6500200","三重區"
"236004","339-SR","2017/09/22 09:09:33","新北市土城區光明街63號","121.442556666667","24.973345","6501300","土城區"
"236006","498-BY","2017/09/22 09:09:27","新北市土城區中央路三段122號","121.435145","24.966145","6501300","土城區"
