"lineid","car","time","location","longitude","latitude","cityid","cityname"
"234040","862-TW","2017/09/22 12:08:10","新北市永和區福和路1號","121.52655","25.0097083333333","6500400","永和區"
"231009","192-VK","2017/09/22 12:08:15","新北市新店區頂石厝路53號","121.535298333333","24.91837","6500600","新店區"
"223007","661-BX","2017/09/22 09:51:26","新北市石碇區小粗坑(潭邊里)9-2號","121.678693333333","24.9855516666667","6501900","石碇區"
"227005","282-VK","2017/09/22 12:08:31","新北市雙溪區牡丹里牡丹58號","121.851096666667","25.0611883333333","6502500","雙溪區"
"241031","760-BX","2017/09/22 10:37:29","新北市三峽區中山路459巷163-3號","121.349091666667","24.9332","6500200","三重區"
"221012","276-VK","2017/09/22 12:08:26","新北市汐止區康寧街901號","121.65098","25.0751666666667","6501100","汐止區"
