"lineid","car","time","location","longitude","latitude","cityid","cityname"
"234046","148-BY","2017/09/22 12:50:22","新北市永和區秀朗路二段126巷30號","121.524635","25.0008516666667","6500400","永和區"
"234012","149-BY","2017/09/22 12:50:20","新北市永和區保福路二段70號","121.510578333333","25.013015","6500400","永和區"
"234005","208-UY","2017/09/22 12:50:30","新北市永和區永和路二段216號","121.5157","25.0139633333333","6500400","永和區"
"234078","298-R6","2017/09/22 12:50:25","新北市永和區永利路108號","121.521276666667","25.003425","6500400","永和區"
"234036","336-UY","2017/09/22 12:50:21","新北市永和區成功路二段127號","121.526761666667","24.9983283333333","6500400","永和區"
"234062","337-UY","2017/09/22 12:50:28","新北市永和區福和路1號","121.525871666667","25.0095233333333","6500400","永和區"
"234084","338-UY","2017/09/22 12:50:10","新北市永和區中正路71號","121.51498","24.9967633333333","6500400","永和區"
"234068","552-UM","2017/09/22 12:50:28","新北市永和區福和路1號","121.525745","25.0092633333333","6500400","永和區"
"234052","553-UM","2017/09/22 12:50:10","新北市永和區竹林路64號","121.518301666667","25.0135033333333","6500400","永和區"
"234015","745-BX","2017/09/22 12:50:28","新北市永和區永和路二段299號","121.516005","25.0161083333333","6500400","永和區"
"234028","746-BX","2017/09/22 12:50:25","新北市永和區得和路358號","121.523988333333","24.99937","6500400","永和區"
"234060","AAD-866","2017/09/22 12:50:18","新北市永和區福和路307號","121.516233333333","25.0071166666667","6500400","永和區"
"234040","862-TW","2017/09/22 12:50:31","新北市永和區永貞路267號","121.511806666667","25.004825","6500400","永和區"
"234048","863-TW","2017/09/22 12:50:16","新北市永和區保安路2號","121.510848333333","25.0175566666667","6500400","永和區"
"234025","9371-KE","2017/09/22 12:50:24","新北市永和區永和路一段155號","121.514073333333","25.00936","6500400","永和區"
"234010","9373-KE","2017/09/22 12:50:17","新北市永和區保福路二段156號","121.5092","25.0150383333333","6500400","永和區"
"248019","225-UY","2017/09/22 12:50:16","新北市五股區中興路二段83巷26-6號","121.460075","25.0751866666667","6501500","五股區"
"234022","9380-KE","2017/09/22 12:50:24","新北市永和區竹林路91巷60弄40號","121.522441666667","25.0123683333333","6500400","永和區"
"234076","969-R7","2017/09/22 12:50:24","新北市中和區景平路288號","121.513291666667","24.993165","6500400","永和區"
"234072","AAC-211","2017/09/22 12:50:12","新北市永和區福和路1號","121.526073333333","25.0097133333333","6500400","永和區"
"234066","AAC-212","2017/09/22 12:50:23","新北市永和區永和路一段1號","121.512978333333","25.0050933333333","6500400","永和區"
"234001","AAC-295","2017/09/22 12:50:11","新北市永和區中正路653號","121.515003333333","25.01002","6500400","永和區"
"231028","046-UY","2017/09/22 12:50:29","新北市新店區安華路28-1號","121.519651666667","24.9608733333333","6500600","新店區"
"231030","047-UY","2017/09/22 12:50:26","新北市新店區安華路28-1號","121.518973333333","24.9609883333333","6500600","新店區"
"231018","107-UY","2017/09/22 12:50:17","新北市新店區安康路一段355-3號","121.519248333333","24.9617566666667","6500600","新店區"
"231022","187-VK","2017/09/22 12:50:19","新北市新店區安華路28-1號","121.5196","24.9611666666667","6500600","新店區"
"231016","215-TC","2017/09/22 12:50:16","新北市新店區安華路28-1號","121.51992","24.9610133333333","6500600","新店區"
"231034","268-BY","2017/09/22 12:50:19","新北市新店區安華路1-1號","121.519393333333","24.9605333333333","6500600","新店區"
"231010","278-BY","2017/09/22 00:44:23","新北市新店區安華路28-1號","121.519615","24.9612366666667","6500600","新店區"
"231038","4715-K9","2017/09/22 12:50:25","新北市新店區安華路1-1號","121.519205","24.9605766666667","6500600","新店區"
"231036","512-UM","2017/09/22 04:04:43","新北市新店區安華路28-1號","121.519345","24.9612533333333","6500600","新店區"
"231023","513-UM","2017/09/22 12:50:20","新北市新店區安華路28-1號","121.519705","24.961065","6500600","新店區"
"231035","515-UM","2017/09/22 12:50:18","新北市新店區安華路28-1號","121.519723333333","24.96086","6500600","新店區"
"231006","617-UM","2017/09/22 12:50:18","新北市新店區安華路28-1號","121.519385","24.9610166666667","6500600","新店區"
"231001","619-UM","2017/09/22 12:50:17","新北市新店區安華路28-1號","121.519621666667","24.960945","6500600","新店區"
"231013","719-UM","2017/09/22 12:48:54","新北市新店區安華路28-1號","121.519441666667","24.96132","6500600","新店區"
"231032","720-UM","2017/09/22 12:50:14","新北市新店區安華路28-1號","121.519153333333","24.9612683333333","6500600","新店區"
"231004","899-TW","2017/09/22 03:52:28","新北市新店區安華路28-1號","121.519263333333","24.9609766666667","6500600","新店區"
"231037","AKT-0513","2017/09/22 12:50:17","新北市新店區安華路1-1號","121.519376666667","24.9604016666667","6500600","新店區"
"235002","185-VK","2017/09/22 12:50:33","新北市中和區中正路637巷60弄61號","121.485433333333","24.992815","6500300","中和區"
"235031","255-BX","2017/09/22 12:50:28","新北市中和區新民街92號","121.481253333333","25.008235","6500300","中和區"
"235025","378-QA","2017/09/22 12:20:52","新北市中和區員山路36巷13號","121.484016666667","24.9915166666667","6500300","中和區"
"235016","805-TS","2017/09/22 12:50:14","新北市中和區員山路36巷13號","121.484291666667","24.9915","6500300","中和區"
"223007","661-BX","2017/09/22 09:51:26","新北市石碇區小粗坑(潭邊里)9-2號","121.678693333333","24.9855516666667","6501900","石碇區"
"208004","AAC-292","2017/09/22 12:50:13","新北市金山區磺清路135號","121.639425","25.2277766666667","6502700","金山區"
"207002","749-BX","2017/09/22 12:50:10","新北市萬里區雙興里大坪路1-1號","121.641206666667","25.1664816666667","6502800","萬里區"
"207001","662-BX","2017/09/22 12:50:23","新北市萬里區萬里里瑪鋉路158號","121.690193333333","25.1796316666667","6502800","萬里區"
"241031","760-BX","2017/09/22 10:37:29","新北市三峽區中山路459巷163-3號","121.349091666667","24.9332","6500200","三重區"
"236006","498-BY","2017/09/22 12:50:27","新北市土城區永寧路53號","121.429675","24.9612916666667","6501300","土城區"
"221012","276-VK","2017/09/22 12:50:26","新北市汐止區中正路133號","121.660015","25.06927","6501100","汐止區"
"221032","280-BY","2017/09/22 12:50:21","新北市汐止區大同路二段527號","121.66172","25.0689266666667","6501100","汐止區"
"221018","753-BX","2017/09/22 12:50:09","新北市汐止區康寧街488號","121.63273","25.0684633333333","6501100","汐止區"
