"lineid","car","time","location","longitude","latitude","cityid","cityname"
"249005","172-UM","2017/09/22 17:07:56","新北市八里區大堀湖3號","121.425226666667","25.1514833333333","6502300","八里區"
"249001","173-UM","2017/09/22 17:08:04","新北市八里區中華路二段305-10號","121.403281666667","25.1477683333333","6502300","八里區"
"249004","303-UY","2017/09/22 17:08:07","新北市八里區忠孝路298號","121.418195","25.1614516666667","6502300","八里區"
"249002","305-UY","2017/09/22 17:08:01","新北市八里區龍米路二段153巷1號","121.440903333333","25.1518933333333","6502300","八里區"
"249003","593-UM","2017/09/22 17:08:01","新北市八里區中山路二段502號","121.398126666667","25.1468083333333","6502300","八里區"
"244007","080-UY","2017/09/22 17:08:05","新北市林口區中湖52-1號","121.376061666667","25.0913916666667","6501700","林口區"
"244019","403-UM","2017/09/22 17:08:00","新北市林口區仁愛路二段145號","121.382595","25.0744866666667","6501700","林口區"
"244009","410-SL","2017/09/22 17:08:04","新北市林口區粉寮路31-2號","121.403896666667","25.0875233333333","6501700","林口區"
"244023","483-VK","2017/09/22 17:08:08","新北市林口區粉寮路31-2號","121.403745","25.08728","6501700","林口區"
"244021","838-TS","2017/09/22 17:08:07","新北市林口區粉寮路二段128號","121.404493333333","25.0906733333333","6501700","林口區"
"231046","278-BY","2017/09/22 17:08:05","新北市新店區直潭路92號","121.53091","24.93766","6500600","新店區"
"241011","013-R5","2017/09/22 17:08:05","新北市三重區龍濱路285號","121.501093333333","25.0733616666667","6500200","三重區"
"241028","022-UY","2017/09/22 17:08:12","新北市三重區重新路三段110號","121.492281666667","25.0602966666667","6500200","三重區"
"241009","060-VK","2017/09/22 17:07:57","新北市三重區三和路四段215巷4號","121.481898333333","25.0798533333333","6500200","三重區"
"241031","061-VK","2017/09/22 17:08:03","新北市三重區重陽路一段113巷3號","121.487506666667","25.05971","6500200","三重區"
"241015","062-VK","2017/09/22 17:08:11","新北市三重區長生街6號","121.499091666667","25.0663283333333","6500200","三重區"
"241017","063-VK","2017/09/22 17:08:01","新北市三重區大仁街52號","121.492035","25.06466","6500200","三重區"
"241024","065-VK","2017/09/22 17:08:08","新北市三重區大勇街82巷26弄41號","121.478178333333","25.07198","6500200","三重區"
"241026","066-VK","2017/09/22 17:08:13","新北市三重區正義南路3號","121.497926666667","25.0619266666667","6500200","三重區"
"241002","090-VK","2017/09/22 17:08:12","新北市三重區五華街35巷74號","121.496118333333","25.0819283333333","6500200","三重區"
"241003","091-VK","2017/09/22 17:08:06","新北市三重區五華街141巷58號","121.4934","25.08657","6500200","三重區"
"241008","156-TC","2017/09/22 17:08:12","新北市三重區力行路二段136巷37號","121.480223333333","25.07531","6500200","三重區"
"241005","262-UM","2017/09/22 17:08:05","新北市三重區碧華街26號","121.482456666667","25.0807","6500200","三重區"
"241016","266-UM","2017/09/22 17:07:58","新北市三重區大仁街78號","121.492558333333","25.065255","6500200","三重區"
"241022","267-UM","2017/09/22 17:08:15","新北市三重區重陽路二段16號","121.486615","25.062335","6500200","三重區"
"241032","269-UM","2017/09/22 17:08:04","新北市三重區興華街10號","121.48601","25.0597066666667","6500200","三重區"
"241013","270-UM","2017/09/22 17:08:10","新北市三重區仁福街28號","121.496755","25.074675","6500200","三重區"
"241025","271-UM","2017/09/22 17:08:10","新北市三重區中正北路560巷39號","121.470925","25.0706783333333","6500200","三重區"
"241007","398-BY","2017/09/22 17:07:58","新北市三重區三和路四段163巷61號","121.485275","25.0791383333333","6500200","三重區"
"241020","413-TH","2017/09/22 17:08:13","新北市三重區自強路三段18號","121.486751666667","25.0722166666667","6500200","三重區"
"241004","475-VK","2017/09/22 17:07:55","新北市三重區五華街98巷10號","121.49165","25.0816916666667","6500200","三重區"
"241019","478-VK","2017/09/22 17:07:52","新北市三重區自強路二段74巷73號","121.486923333333","25.0693816666667","6500200","三重區"
"241030","480-VK","2017/09/22 17:07:56","新北市三重區成功路91號","121.48844","25.0514816666667","6500200","三重區"
"241014","543-UM","2017/09/22 17:08:05","新北市三重區龍濱路211號","121.50184","25.07172","6500200","三重區"
"241023","545-UM","2017/09/22 17:07:59","新北市三重區忠孝路三段84巷1號","121.480188333333","25.06447","6500200","三重區"
"241001","547-UM","2017/09/22 17:08:05","新北市三重區仁愛街245巷23號","121.494345","25.07841","6500200","三重區"
"241006","AAD-863","2017/09/22 17:07:56","新北市三重區三和路四段264巷11號","121.485083333333","25.0768666666667","6500200","三重區"
"241018","887-TS","2017/09/22 17:08:09","新北市三重區六張街101號","121.49217","25.069775","6500200","三重區"
"241012","941-UM","2017/09/22 17:07:59","新北市三重區仁壽街223號","121.50078","25.0747033333333","6500200","三重區"
"241029","942-UM","2017/09/22 17:07:59","新北市三重區重新路四段65-10號","121.487036666667","25.0568866666667","6500200","三重區"
"241033","AAC-255","2017/09/22 17:07:55","新北市三重區中興北街271號","121.469131666667","25.0606666666667","6500200","三重區"
"235062","800-TS","2017/09/22 17:06:18","新北市中和區員山路36巷16-3號","121.485166666667","24.991365","6500300","中和區"
"247022","893-R6","2017/09/22 17:08:10","新北市蘆洲區民族路391號","121.469383333333","25.0901533333333","6501400","蘆洲區"
"247012","546-UM","2017/09/22 17:08:03","新北市蘆洲區信義路290號","121.477685","25.0874466666667","6501400","蘆洲區"
"247020","500-BY","2017/09/22 17:08:08","新北市蘆洲區仁愛街75號","121.471498333333","25.0938116666667","6501400","蘆洲區"
"247010","339-TH","2017/09/22 17:08:01","新北市蘆洲區民族路26號","121.476218333333","25.0841733333333","6501400","蘆洲區"
"247002","337-TH","2017/09/22 17:08:14","新北市蘆洲區永樂街80號","121.456781666667","25.0885616666667","6501400","蘆洲區"
"247004","336-TH","2017/09/22 17:08:10","新北市蘆洲區長安街207巷2號","121.459638333333","25.082085","6501400","蘆洲區"
"247016","057-VK","2017/09/22 17:08:04","新北市蘆洲區光華路65巷33號","121.46895","25.0818733333333","6501400","蘆洲區"
"247006","056-VK","2017/09/22 17:08:08","新北市蘆洲區中華街6巷3號","121.462433333333","25.0823666666667","6501400","蘆洲區"
"247008","053-VK","2017/09/22 17:08:16","新北市蘆洲區信義路30巷123號","121.475253333333","25.076815","6501400","蘆洲區"
"247014","007-UY","2017/09/22 17:08:06","新北市蘆洲區中央路37巷15號","121.473305","25.0824833333333","6501400","蘆洲區"
"247024","002-UY","2017/09/22 17:07:58","新北市蘆洲區長興路150-1號","121.461791666667","25.0852533333333","6501400","蘆洲區"
"247018","001-UY","2017/09/22 17:08:01","新北市蘆洲區復興路167號","121.47832","25.0892","6501400","蘆洲區"
"223007","661-BX","2017/09/22 09:51:26","新北市石碇區小粗坑(潭邊里)9-2號","121.678693333333","24.9855516666667","6501900","石碇區"
"228002","663-BX","2017/09/22 17:08:01","新北市貢寮區龍崗里嵩陽街55號","121.90768","25.0166083333333","6502600","貢寮區"
"228001","670-TC","2017/09/22 17:08:08","新北市貢寮區仁理村研海街22號","121.927431666667","25.038255","6502600","貢寮區"
"228003","828-UM","2017/09/22 17:07:56","新北市貢寮區福隆里東興街31-1號","121.952568333333","25.0206416666667","6502600","貢寮區"
"224010","AGQ-8101","2017/09/22 14:54:07","新北市瑞芳區逢甲路1號","121.810108333333","25.10847","6501200","瑞芳區"
"224006","676-BX","2017/09/22 17:07:59","新北市瑞芳區大寮路56-2號","121.78171","25.09844","6501200","瑞芳區"
"224009","285-BY","2017/09/22 17:08:11","新北市瑞芳區輕便路90號","121.84484","25.1132166666667","6501200","瑞芳區"
"224008","275-VK","2017/09/22 17:08:06","新北市瑞芳區侯硐路59號","121.829306666667","25.0886233333333","6501200","瑞芳區"
"224007","273-VK","2017/09/22 17:07:57","新北市瑞芳區粗坑口路100-7號","121.759928333333","25.0994033333333","6501200","瑞芳區"
"224005","271-BY","2017/09/22 17:08:14","新北市瑞芳區鼻頭路179號","121.915618333333","25.1231283333333","6501200","瑞芳區"
"227011","642-TC","2017/09/22 17:08:09","新北市雙溪區牡丹里下坑35-1號","121.850378333333","25.0570116666667","6502500","雙溪區"
"227003","400-TW","2017/09/22 17:08:08","新北市雙溪區外柑里田寮1號","121.806808333333","25.0172233333333","6502500","雙溪區"
"251004","009-UM","2017/09/22 17:08:01","新北市淡水區中正東路61號","121.446911666667","25.16776","6501000","淡水區"
"251005","010-UM","2017/09/22 17:07:58","新北市淡水區水源街一段160號","121.44898","25.1711216666667","6501000","淡水區"
"251013","180-VK","2017/09/22 17:08:04","新北市淡水區大埤頭3號","121.486553333333","25.1959733333333","6501000","淡水區"
"251008","181-VK","2017/09/22 17:08:07","新北市淡水區樹梅坑7-6號","121.472295","25.144055","6501000","淡水區"
"251015","182-VK","2017/09/22 17:08:04","新北市淡水區鄧公路30巷2弄16號","121.452905","25.1691533333333","6501000","淡水區"
"251010","413-VK","2017/09/22 17:07:58","新北市淡水區新市三路一段312號","121.430956666667","25.1975266666667","6501000","淡水區"
"251012","441-VK","2017/09/22 17:08:10","新北市淡水區新生街29號","121.439581666667","25.1749266666667","6501000","淡水區"
"251006","561-UM","2017/09/22 17:07:57","新北市淡水區中正路二段31號","121.419063333333","25.1820166666667","6501000","淡水區"
"251009","575-R6","2017/09/22 17:07:55","新北市淡水區三民街13號","121.438905","25.1717833333333","6501000","淡水區"
"251007","577-R6","2017/09/22 17:07:55","新北市淡水區中正東路二段163號","121.459636666667","25.1455716666667","6501000","淡水區"
"251011","650-BX","2017/09/22 17:08:13","新北市淡水區坪頂路52巷10號","121.457835","25.1624616666667","6501000","淡水區"
"252002","178-VK","2017/09/22 17:07:55","新北市三芝區智成街120號","121.505988333333","25.255305","6502100","三芝區"
"252001","292-VK","2017/09/22 17:08:01","新北市三芝區埔坪里埔頭坑33號","121.50163","25.2614216666667","6502100","三芝區"
"241031","760-BX","2017/09/22 15:50:47","新北市三峽區中山路459巷163-3號","121.348955","24.9331166666667","6500200","三重區"
"242029","986-R7","2017/09/22 17:08:04","新北市新莊區新泰路357巷3弄57號","121.442291666667","25.039425","6500500","新莊區"
"242050","751-BX","2017/09/22 17:08:06","新北市泰山區磚雅厝3號","121.442276666667","25.0416316666667","6500500","新莊區"
"242023","613-BX","2017/09/22 17:08:14","新北市新莊區新泰路255巷83號","121.442045","25.0390283333333","6500500","新莊區"
"242027","612-BX","2017/09/22 17:08:01","新北市新莊區新泰路255巷83號","121.442178333333","25.0391333333333","6500500","新莊區"
"242009","566-BX","2017/09/22 17:08:15","新北市新莊區新泰路255巷83號","121.442043333333","25.0390283333333","6500500","新莊區"
"242044","497-BY","2017/09/22 17:08:08","新北市新莊區中正路384號","121.441968333333","25.0346233333333","6500500","新莊區"
"242048","441-UM","2017/09/22 17:08:14","新北市新莊區新泰路357巷2-2號","121.441861666667","25.04138","6500500","新莊區"
"242054","440-UM","2017/09/22 17:08:02","新北市新莊區新泰路255巷83號","121.442246666667","25.0388633333333","6500500","新莊區"
"242005","413-TV","2017/09/22 17:07:58","新北市新莊區新泰路357巷3弄57號","121.441846666667","25.0394183333333","6500500","新莊區"
"242060","362-BY","2017/09/22 17:08:10","新北市新莊區新泰路357巷3弄57號","121.44223","25.03921","6500500","新莊區"
"242007","132-UY","2017/09/22 01:29:27","新北市新莊區三和路18-23號","121.441483333333","25.038955","6500500","新莊區"
"242037","133-UY","2017/09/22 17:08:14","新北市新莊區三和路12-21號","121.442028333333","25.0387866666667","6500500","新莊區"
"242021","135-UY","2017/09/22 17:07:59","新北市新莊區三和路18-21號","121.441663333333","25.0388066666667","6500500","新莊區"
"242046","172-VK","2017/09/22 04:29:14","新北市新莊區三和路12-21號","121.441981666667","25.0386983333333","6500500","新莊區"
"242009","173-VK","2017/09/22 09:09:41","新北市新莊區三和路18-21號","121.440886666667","25.038865","6500500","新莊區"
"242015","175-VK","2017/09/22 17:07:56","新北市新莊區三和路12-21號","121.442035","25.03866","6500500","新莊區"
"242002","176-VK","2017/09/22 17:08:05","新北市新莊區三和路12-21號","121.441941666667","25.0387866666667","6500500","新莊區"
"242013","346-TH","2017/09/22 15:18:17","新北市新莊區三和路12-18號","121.441971666667","25.0375883333333","6500500","新莊區"
"242019","348-TH","2017/09/22 17:08:13","新北市新莊區新泰路357巷3弄57號","121.441746666667","25.0396016666667","6500500","新莊區"
"242056","349-TH","2017/09/22 17:08:12","新北市新莊區三和路12-16號","121.442006666667","25.037395","6500500","新莊區"
"242017","350-TH","2017/09/22 03:26:53","新北市新莊區新泰路357巷3弄57號","121.441986666667","25.03906","6500500","新莊區"
"242011","351-TH","2017/09/22 17:08:06","新北市新莊區新泰路357巷3弄57號","121.441883333333","25.0395216666667","6500500","新莊區"
"238015","755-BX","2017/09/22 17:07:54","新北市樹林區八德街1172號","121.390211666667","24.9682916666667","6500700","樹林區"
"238023","601-UM","2017/09/22 17:08:03","新北市樹林區佳園路一段94號","121.393566666667","24.968655","6500700","樹林區"
"238019","599-UM","2017/09/22 17:08:07","新北市樹林區育德街76巷1號","121.388715","24.9681683333333","6500700","樹林區"
"238018","571-TV","2017/09/22 17:08:08","新北市樹林區八德街682號","121.396133333333","24.9688966666667","6500700","樹林區"
"238024","5061-A6","2017/09/22 17:08:00","新北市樹林區八德街800號","121.395313333333","24.968775","6500700","樹林區"
"238021","KEA-2217","2017/09/22 17:08:11","新北市樹林區西圳街一段118巷16號","121.394168333333","24.966805","6500700","樹林區"
"238022","KEA-2213","2017/09/22 17:08:13","新北市樹林區八德街1172號","121.390285","24.9683333333333","6500700","樹林區"
"238020","308-TH","2017/09/22 17:08:09","新北市樹林區八德街648號","121.396515","24.9690616666667","6500700","樹林區"
"238025","303-VK","2017/09/22 17:07:59","新北市樹林區八德街1012號","121.391371666667","24.9685033333333","6500700","樹林區"
"238017","283-BY","2017/09/22 17:07:53","新北市樹林區中山路三段111號","121.399221666667","24.97441","6500700","樹林區"
"238014","282-BY","2017/09/22 17:07:55","新北市樹林區育德街78-1號","121.388388333333","24.9682783333333","6500700","樹林區"
"238026","172-UY","2017/09/22 17:07:57","新北市樹林區八德街445-2號","121.404436666667","24.9703","6500700","樹林區"
"238016","169-UY","2017/09/22 17:08:05","新北市樹林區八德街1172號","121.390091666667","24.9683716666667","6500700","樹林區"
"239007","AAC-297","2017/09/22 17:08:11","新北市鶯歌區建國路108號","121.353496666667","24.9542166666667","6500800","鶯歌區"
"239006","891-R6","2017/09/22 17:08:03","新北市鶯歌區八德路2巷37弄10號","121.337128333333","24.9464833333333","6500800","鶯歌區"
"239008","527-UM","2017/09/22 17:08:02","新北市鶯歌區文化路136巷23號","121.351345","24.95071","6500800","鶯歌區"
"239005","526-UM","2017/09/22 17:08:10","新北市鶯歌區德昌二街21號","121.333236666667","24.9590766666667","6500800","鶯歌區"
"239001","417-VK","2017/09/22 17:08:06","新北市鶯歌區尖山路140巷6弄1號","121.346495","24.948945","6500800","鶯歌區"
"239003","360-BY","2017/09/22 17:07:55","新北市鶯歌區八德路50號","121.330066666667","24.9557266666667","6500800","鶯歌區"
"239002","359-BY","2017/09/22 17:08:11","新北市鶯歌區育英街45巷26號","121.347683333333","24.9536583333333","6500800","鶯歌區"
"239004","193-VK","2017/09/22 17:07:56","新北市鶯歌區文化路256巷15弄15號","121.352181666667","24.947235","6500800","鶯歌區"
"221012","276-VK","2017/09/22 13:17:46","新北市汐止區汐萬路一段256巷3號","121.653445","25.074605","6501100","汐止區"
"242034","280-VK","2017/09/22 17:07:59","新北市新莊區三和路12-21號","121.442053333333","25.03828","6500500","新莊區"
