"lineid","car","time","location","longitude","latitude","cityid","cityname"
"249005","172-UM","2017/09/22 17:27:56","新北市八里區荖阡坑路91號","121.409401666667","25.1280133333333","6502300","八里區"
"249001","173-UM","2017/09/22 17:28:04","新北市八里區中華路一段5-6號","121.422433333333","25.1581816666667","6502300","八里區"
"249004","303-UY","2017/09/22 17:28:07","新北市八里區賢一街228號","121.415188333333","25.1556383333333","6502300","八里區"
"249002","305-UY","2017/09/22 17:28:01","新北市八里區龍米路一段470號","121.449828333333","25.136265","6502300","八里區"
"249003","593-UM","2017/09/22 17:28:01","新北市八里區中山路二段315號","121.400611666667","25.147725","6502300","八里區"
"244013","069-UM","2017/09/22 17:28:01","新北市林口區粉寮路二段66-1號","121.403978333333","25.087655","6501700","林口區"
"244007","080-UY","2017/09/22 17:28:05","新北市林口區湖子7-8號","121.388495","25.0925266666667","6501700","林口區"
"244019","403-UM","2017/09/22 17:28:00","新北市林口區文化二路一段527號","121.373705","25.076155","6501700","林口區"
"244009","410-SL","2017/09/22 17:28:04","新北市林口區中華路325號","121.382066666667","25.0919283333333","6501700","林口區"
"244023","483-VK","2017/09/22 17:28:08","新北市林口區隆林街63號","121.387085","25.0754266666667","6501700","林口區"
"244017","485-VK","2017/09/22 17:28:04","新北市林口區粉寮69號","121.404846666667","25.09077","6501700","林口區"
"244011","657-BX","2017/09/22 17:27:59","新北市林口區仁愛路一段378號","121.388873333333","25.0767416666667","6501700","林口區"
"244021","838-TS","2017/09/22 17:28:07","新北市林口區粉寮路二段88巷7號","121.404796666667","25.0884766666667","6501700","林口區"
"231046","278-BY","2017/09/22 17:28:05","新北市新店區直潭路92號","121.530916666667","24.937655","6500600","新店區"
"241011","013-R5","2017/09/22 17:28:05","新北市三重區河邊北街124巷57號","121.502476666667","25.071195","6500200","三重區"
"241015","062-VK","2017/09/22 17:28:11","新北市三重區開元街1號","121.503588333333","25.0664416666667","6500200","三重區"
"241017","063-VK","2017/09/22 17:28:01","新北市三重區中正北路25巷7號","121.492681666667","25.0621083333333","6500200","三重區"
"241024","065-VK","2017/09/22 17:28:08","新北市三重區中正北路191巷3弄2號","121.477681666667","25.06993","6500200","三重區"
"241026","066-VK","2017/09/22 17:28:13","新北市三重區文化南路42號","121.500418333333","25.0602366666667","6500200","三重區"
"241003","091-VK","2017/09/22 17:28:06","新北市三重區碧華街404號","121.491828333333","25.0849316666667","6500200","三重區"
"241008","156-TC","2017/09/22 17:28:12","新北市三重區力行路二段123巷2號","121.483233333333","25.076515","6500200","三重區"
"241005","262-UM","2017/09/22 17:28:05","新北市三重區永安北路二段5巷33號","121.482631666667","25.08119","6500200","三重區"
"241016","266-UM","2017/09/22 17:27:58","新北市三重區大同北路85號","121.494781666667","25.0637266666667","6500200","三重區"
"241022","267-UM","2017/09/22 17:28:02","新北市三重區市前街2號","121.488985","25.0619033333333","6500200","三重區"
"241032","269-UM","2017/09/22 17:28:05","新北市三重區名源街59號","121.482286666667","25.0592766666667","6500200","三重區"
"241013","270-UM","2017/09/22 17:28:10","新北市三重區仁愛街141巷8號","121.49567","25.0755066666667","6500200","三重區"
"241025","271-UM","2017/09/22 17:28:10","新北市三重區中正北路209號","121.476396666667","25.0700016666667","6500200","三重區"
"241007","398-BY","2017/09/22 17:27:58","新北市三重區三和路四段145巷205號","121.488578333333","25.0795166666667","6500200","三重區"
"241020","413-TH","2017/09/22 17:28:13","新北市三重區忠孝路二段31號","121.486183333333","25.0711983333333","6500200","三重區"
"241019","478-VK","2017/09/22 17:28:12","新北市三重區自強路二段18-1號","121.489745","25.0690066666667","6500200","三重區"
"241030","480-VK","2017/09/22 17:27:56","新北市三重區新興路41號","121.491733333333","25.0537633333333","6500200","三重區"
"241014","543-UM","2017/09/22 17:28:05","新北市三重區長壽街48號","121.500463333333","25.0681533333333","6500200","三重區"
"241023","545-UM","2017/09/22 17:27:59","新北市三重區三民街146巷7號","121.481438333333","25.0644916666667","6500200","三重區"
"241018","887-TS","2017/09/22 17:28:09","新北市三重區大仁街52號","121.491968333333","25.0647683333333","6500200","三重區"
"241012","941-UM","2017/09/22 17:27:59","新北市三重區仁興街24巷8號","121.499125","25.0751166666667","6500200","三重區"
"241033","AAC-255","2017/09/22 17:27:55","新北市三重區中興北街153-16號","121.469078333333","25.0547183333333","6500200","三重區"
"235062","800-TS","2017/09/22 17:06:18","新北市中和區員山路36巷16-3號","121.485166666667","24.991365","6500300","中和區"
"247022","893-R6","2017/09/22 17:28:05","新北市蘆洲區三民路224號","121.468711666667","25.0894083333333","6501400","蘆洲區"
"247012","546-UM","2017/09/22 17:28:03","新北市蘆洲區信義路228號","121.478845","25.0854916666667","6501400","蘆洲區"
"247020","500-BY","2017/09/22 17:28:08","新北市蘆洲區水湳街126號","121.469668333333","25.0933266666667","6501400","蘆洲區"
"247010","339-TH","2017/09/22 17:28:02","新北市蘆洲區鷺江街1號","121.479411666667","25.08278","6501400","蘆洲區"
"247002","337-TH","2017/09/22 17:27:54","新北市蘆洲區永樂街38巷57弄37號","121.45727","25.0906266666667","6501400","蘆洲區"
"247004","336-TH","2017/09/22 17:28:10","新北市蘆洲區長安街233巷34號","121.458155","25.0823516666667","6501400","蘆洲區"
"247016","057-VK","2017/09/22 17:28:04","新北市蘆洲區光華路22巷21號","121.468716666667","25.0842083333333","6501400","蘆洲區"
"247006","056-VK","2017/09/22 17:28:08","新北市蘆洲區九芎街90巷27號","121.464565","25.0813933333333","6501400","蘆洲區"
"247008","053-VK","2017/09/22 17:27:56","新北市蘆洲區民生街105號","121.473485","25.0786833333333","6501400","蘆洲區"
"247014","007-UY","2017/09/22 17:28:06","新北市蘆洲區三民路97號","121.47378","25.0850916666667","6501400","蘆洲區"
"247024","002-UY","2017/09/22 17:27:58","新北市蘆洲區長興路413號","121.46178","25.092465","6501400","蘆洲區"
"247018","001-UY","2017/09/22 17:28:01","新北市蘆洲區民權路99號","121.472738333333","25.08915","6501400","蘆洲區"
"223007","661-BX","2017/09/22 09:51:26","新北市石碇區小粗坑(潭邊里)9-2號","121.678693333333","24.9855516666667","6501900","石碇區"
"228002","663-BX","2017/09/22 17:28:01","新北市貢寮區福隆里興隆街100巷7號","121.936921666667","25.0182233333333","6502600","貢寮區"
"228001","670-TC","2017/09/22 17:28:08","新北市貢寮區仁理村仁愛路29號","121.924765","25.053345","6502600","貢寮區"
"228003","828-UM","2017/09/22 17:27:56","新北市貢寮區仁理村研海街42號","121.926283333333","25.041235","6502600","貢寮區"
"224010","AGQ-8101","2017/09/22 14:54:07","新北市瑞芳區逢甲路1號","121.810108333333","25.10847","6501200","瑞芳區"
"224006","676-BX","2017/09/22 17:27:59","新北市瑞芳區傑魚坑路185號","121.788345","25.1079433333333","6501200","瑞芳區"
"224009","285-BY","2017/09/22 17:28:11","新北市瑞芳區汽車路11號","121.846","25.11047","6501200","瑞芳區"
"224008","275-VK","2017/09/22 17:28:06","新北市瑞芳區九芎橋路17號","121.832793333333","25.0927566666667","6501200","瑞芳區"
"224005","271-BY","2017/09/22 17:27:54","新北市瑞芳區鼻頭路1號","121.915646666667","25.1248733333333","6501200","瑞芳區"
"227003","400-TW","2017/09/22 17:28:08","新北市雙溪區平林里梅竹蹊69號","121.843803333333","25.030235","6502500","雙溪區"
"251004","009-UM","2017/09/22 17:28:01","新北市淡水區中正東路二段103號","121.459211666667","25.1514366666667","6501000","淡水區"
"251005","010-UM","2017/09/22 17:28:11","新北市淡水區鄧公路31巷2號","121.451208333333","25.170635","6501000","淡水區"
"251002","012-UM","2017/09/22 17:28:02","新北市淡水區中正路一段64號","121.425425","25.1769433333333","6501000","淡水區"
"251013","180-VK","2017/09/22 17:28:02","新北市淡水區水尾子6號","121.462945","25.1952383333333","6501000","淡水區"
"251008","181-VK","2017/09/22 17:28:07","新北市淡水區大同路120巷18號","121.463163333333","25.1396916666667","6501000","淡水區"
"251015","182-VK","2017/09/22 17:28:04","新北市淡水區三空泉20號","121.469756666667","25.1656716666667","6501000","淡水區"
"251010","413-VK","2017/09/22 17:27:58","新北市淡水區中正路二段215號","121.426215","25.18919","6501000","淡水區"
"251012","441-VK","2017/09/22 17:28:10","新北市淡水區北新路111號","121.448153333333","25.178515","6501000","淡水區"
"251006","561-UM","2017/09/22 17:27:57","新北市淡水區大仁街29號","121.442548333333","25.175405","6501000","淡水區"
"251009","575-R6","2017/09/22 17:28:06","新北市淡水區新生街88號","121.439448333333","25.1748233333333","6501000","淡水區"
"251007","577-R6","2017/09/22 17:27:55","新北市淡水區民生路47-4號","121.46213","25.13804","6501000","淡水區"
"251011","650-BX","2017/09/22 17:27:53","新北市淡水區坪頂路718號","121.482586666667","25.1585383333333","6501000","淡水區"
"251003","673-BX","2017/09/22 17:27:59","新北市淡水區中山路158號","121.440815","25.172855","6501000","淡水區"
"207003","550-UM","2017/09/22 17:27:48","新北市萬里區龜吼里美崙路91號","121.685696666667","25.185075","6502800","萬里區"
"207004","225-TW","2017/09/22 17:27:59","新北市萬里區萬里里景美路16號","121.68667","25.1734","6502800","萬里區"
"252002","178-VK","2017/09/22 17:27:55","新北市三芝區忠孝街1-15號","121.505595","25.25395","6502100","三芝區"
"252001","292-VK","2017/09/22 17:28:01","新北市三芝區長安街119號","121.498076666667","25.2596783333333","6502100","三芝區"
"237004","078-UY","2017/09/22 17:28:00","新北市三峽區中山路459巷163-3號","121.348733333333","24.933055","6500900","三峽區"
"241031","760-BX","2017/09/22 15:50:47","新北市三峽區中山路459巷163-3號","121.348955","24.9331166666667","6500200","三重區"
"242032","AAC-296","2017/09/22 17:28:10","新北市新莊區新泰路413巷18號","121.442668333333","25.0445666666667","6500500","新莊區"
"242029","986-R7","2017/09/22 17:28:04","新北市新莊區復興路二段198號","121.459383333333","25.044445","6500500","新莊區"
"242050","751-BX","2017/09/22 17:28:06","新北市新莊區瓊林南路59-8號","121.435425","25.0163033333333","6500500","新莊區"
"242025","615-BX","2017/09/22 17:28:03","新北市新莊區中港路266號","121.453256666667","25.0438433333333","6500500","新莊區"
"242023","613-BX","2017/09/22 17:28:14","新北市新莊區中華路一段112號","121.452375","25.0403","6500500","新莊區"
"242027","612-BX","2017/09/22 17:28:01","新北市新莊區思源路51號","121.459951666667","25.0400883333333","6500500","新莊區"
"242039","566-BX","2017/09/22 17:27:55","新北市新莊區民安路276號","121.427713333333","25.0214066666667","6500500","新莊區"
"242044","497-BY","2017/09/22 17:28:08","新北市新莊區富國路87號","121.420486666667","25.0257983333333","6500500","新莊區"
"242048","441-UM","2017/09/22 17:28:13","新北市新莊區龍安路253號","121.41965","25.020085","6500500","新莊區"
"242054","440-UM","2017/09/22 17:28:02","新北市新莊區環河路48-7號","121.436615","25.0102283333333","6500500","新莊區"
"242005","413-TV","2017/09/22 17:27:58","新北市新莊區中港路280號","121.453085","25.04414","6500500","新莊區"
"242060","362-BY","2017/09/22 17:28:10","新北市新莊區瓊林路186號","121.44036","25.0220783333333","6500500","新莊區"
"242058","353-BY","2017/09/22 17:28:01","新北市新莊區中正路400號","121.441578333333","25.0339416666667","6500500","新莊區"
"242007","132-UY","2017/09/22 17:27:53","新北市新莊區中港路290號","121.453173333333","25.0447116666667","6500500","新莊區"
"242037","133-UY","2017/09/22 17:27:54","新北市新莊區新樹路215號","121.435576666667","25.02338","6500500","新莊區"
"242021","135-UY","2017/09/22 17:28:09","新北市新莊區中正路130號","121.452825","25.0361683333333","6500500","新莊區"
"242046","172-VK","2017/09/22 17:27:57","新北市新莊區新樹路65-5號","121.439431666667","25.0308566666667","6500500","新莊區"
"242009","173-VK","2017/09/22 17:28:02","新北市新莊區中原路193號","121.451906666667","25.054275","6500500","新莊區"
"242015","175-VK","2017/09/22 17:28:01","新北市新莊區新泰路152號","121.447683333333","25.0373183333333","6500500","新莊區"
"242002","176-VK","2017/09/22 17:28:05","新北市新莊區利濟街18號","121.453171666667","25.0335133333333","6500500","新莊區"
"242013","346-TH","2017/09/22 17:28:09","新北市新莊區中誠街36號","121.451468333333","25.048105","6500500","新莊區"
"242041","347-TH","2017/09/22 17:28:02","新北市新莊區新樹路113巷26號","121.438316666667","25.0266816666667","6500500","新莊區"
"242019","348-TH","2017/09/22 17:28:13","新北市新莊區中港路61號","121.455355","25.03851","6500500","新莊區"
"242056","349-TH","2017/09/22 17:28:12","新北市新莊區新泰路55號","121.44927","25.0338783333333","6500500","新莊區"
"242017","350-TH","2017/09/22 17:27:56","新北市新莊區中華路一段101號","121.452693333333","25.0437966666667","6500500","新莊區"
"242011","351-TH","2017/09/22 17:28:06","新北市新莊區中華路二段83-1號","121.452521666667","25.04882","6500500","新莊區"
"238015","755-BX","2017/09/22 17:27:54","新北市樹林區大安路269號","121.41901","24.993665","6500700","樹林區"
"238023","601-UM","2017/09/22 17:28:02","新北市樹林區中正路433號","121.415055","25.0085016666667","6500700","樹林區"
"238019","599-UM","2017/09/22 17:28:07","新北市樹林區太平路1-13號","121.418843333333","24.9841733333333","6500700","樹林區"
"238018","571-TV","2017/09/22 17:28:08","新北市樹林區樹中街55號","121.421041666667","24.9855083333333","6500700","樹林區"
"238024","5061-A6","2017/09/22 17:28:00","新北市樹林區鎮前街10號","121.426205","24.9934783333333","6500700","樹林區"
"238021","KEA-2217","2017/09/22 17:28:11","新北市樹林區西圳街一段56號","121.400701666667","24.962235","6500700","樹林區"
"238022","KEA-2213","2017/09/22 17:28:13","新北市樹林區忠孝街19號","121.423441666667","24.98252","6500700","樹林區"
"238020","308-TH","2017/09/22 17:28:08","新北市樹林區俊英街48-2號","121.428568333333","25.0031633333333","6500700","樹林區"
"238025","303-VK","2017/09/22 17:27:59","新北市樹林區保安二街29號","121.424703333333","24.9936133333333","6500700","樹林區"
"238017","283-BY","2017/09/22 17:28:13","新北市樹林區中正路419號","121.416748333333","25.007165","6500700","樹林區"
"238014","282-BY","2017/09/22 17:27:55","新北市樹林區長壽街70巷35弄9號","121.421318333333","24.9951833333333","6500700","樹林區"
"238026","172-UY","2017/09/22 17:27:57","新北市樹林區中山路三段29-1號","121.401513333333","24.975105","6500700","樹林區"
"238016","169-UY","2017/09/22 17:28:05","新北市樹林區中山路一段163號","121.421778333333","24.9886033333333","6500700","樹林區"
"239007","AAC-297","2017/09/22 17:28:11","新北市鶯歌區國華路2號","121.342871666667","24.9564483333333","6500800","鶯歌區"
"239006","891-R6","2017/09/22 17:28:03","新北市鶯歌區鶯桃路472巷21號","121.333111666667","24.9659933333333","6500800","鶯歌區"
"239008","527-UM","2017/09/22 17:28:02","新北市鶯歌區大湖路584號","121.335826666667","24.973895","6500800","鶯歌區"
"239005","526-UM","2017/09/22 17:28:10","新北市鶯歌區鶯桃路二段9號","121.325968333333","24.9720683333333","6500800","鶯歌區"
"239001","417-VK","2017/09/22 17:28:06","新北市鶯歌區高職西街75號","121.33625","24.941895","6500800","鶯歌區"
"239003","360-BY","2017/09/22 17:27:55","新北市鶯歌區鶯桃路283號","121.335138333333","24.9601183333333","6500800","鶯歌區"
"239002","359-BY","2017/09/22 17:28:11","新北市鶯歌區育英街15號","121.346918333333","24.95529","6500800","鶯歌區"
"239004","193-VK","2017/09/22 17:27:56","新北市鶯歌區三鶯路29巷19號","121.354385","24.94","6500800","鶯歌區"
"221012","276-VK","2017/09/22 13:17:46","新北市汐止區汐萬路一段256巷3號","121.653445","25.074605","6501100","汐止區"
"221033","647-BX","2017/09/22 17:28:13","新北市汐止區汐萬路一段301號","121.649633333333","25.0758433333333","6501100","汐止區"
"221018","753-BX","2017/09/22 17:27:56","新北市汐止區汐萬路一段256巷1號","121.651895","25.0748416666667","6501100","汐止區"
"242034","280-VK","2017/09/22 17:27:59","新北市新莊區瓊林路13-2號","121.449055","25.03122","6500500","新莊區"
