"lineid","car","time","location","longitude","latitude","cityid","cityname"
"234044","148-BY","2017/08/12 12:39:35","新北市永和區林森路24號","121.525903333333","25.0053083333333","6500400","永和區"
"234012","149-BY","2017/08/12 12:39:48","新北市永和區環河東路二段8號","121.522123333333","25.0134833333333","6500400","永和區"
"234005","207-UY","2017/08/12 12:39:52","新北市永和區福和路1號","121.525798333333","25.0093883333333","6500400","永和區"
"234078","298-R6","2017/08/12 12:39:37","新北市永和區林森路67號","121.524075","25.0039616666667","6500400","永和區"
"234036","336-UY","2017/08/12 12:39:51","新北市永和區福和路1號","121.526643333333","25.010015","6500400","永和區"
"234062","337-UY","2017/08/12 12:39:47","新北市永和區福和路1號","121.526398333333","25.0100066666667","6500400","永和區"
"234068","552-UM","2017/08/12 12:39:44","新北市永和區豫溪街193號","121.522773333333","25.0102666666667","6500400","永和區"
"234052","553-UM","2017/08/12 12:39:47","新北市永和區福和路1號","121.526038333333","25.0096966666667","6500400","永和區"
"234015","745-BX","2017/08/12 12:39:45","新北市永和區福和路1號","121.526495","25.0097316666667","6500400","永和區"
"234028","746-BX","2017/08/12 12:39:37","新北市永和區環河東路三段36號","121.526523333333","25.0067483333333","6500400","永和區"
"234060","AAD-866","2017/08/12 12:39:51","新北市永和區環河東路二段92號","121.524506666667","25.0105933333333","6500400","永和區"
"234084","847-RS","2017/08/12 12:39:32","新北市中和區安平路104號","121.51163","24.9972783333333","6500400","永和區"
"234040","862-TW","2017/08/12 12:39:55","新北市永和區福和路48號","121.523556666667","25.0082433333333","6500400","永和區"
"234025","9371-KE","2017/08/12 12:39:35","新北市永和區福和路1號","121.52652","25.0097616666667","6500400","永和區"
"234010","9373-KE","2017/08/12 12:39:26","新北市永和區福和路1號","121.525595","25.0093416666667","6500400","永和區"
"234022","9380-KE","2017/08/12 12:39:36","新北市永和區豫溪街191巷3弄24號","121.523106666667","25.0108183333333","6500400","永和區"
"234076","969-R7","2017/08/12 12:39:46","新北市永和區中正路70號","121.513571666667","24.9949983333333","6500400","永和區"
"234066","AAC-212","2017/08/12 12:39:43","新北市永和區福和路8巷1號","121.524983333333","25.009035","6500400","永和區"
"234001","AAC-295","2017/08/12 12:39:37","新北市永和區福和路1號","121.526291666667","25.00975","6500400","永和區"
"231010","278-BY","2017/08/12 12:39:17","新北市新店區安華路28-1號","121.51963","24.9610916666667","6500600","新店區"
"231036","512-UM","2017/08/12 03:56:53","新北市新店區安華路28-1號","121.519301666667","24.9612183333333","6500600","新店區"
"231023","513-UM","2017/08/12 12:39:49","新北市新店區安華路28-1號","121.5198","24.9611483333333","6500600","新店區"
"231006","617-UM","2017/08/12 12:39:44","新北市新店區安華路28-1號","121.519381666667","24.9608266666667","6500600","新店區"
"231004","899-TW","2017/08/12 12:39:38","新北市新店區安華路28-1號","121.519273333333","24.9608916666667","6500600","新店區"
"235031","255-BX","2017/08/12 12:39:45","新北市中和區新生街165號","121.483643333333","25.00105","6500300","中和區"
"228005","097-TW","2017/08/12 12:39:50","新北市貢寮區福連里馬崗街40-1號","122.003543333333","25.0094833333333","6502600","貢寮區"
"228004","212-TW","2017/08/12 12:39:37","新北市貢寮區吉林里枋腳街6-2號","121.8877","25.006045","6502600","貢寮區"
"207002","749-BX","2017/08/12 12:39:41","新北市萬里區雙興里太和路7-2號","121.658541666667","25.1739583333333","6502800","萬里區"
"241031","276-VK","2017/08/12 12:39:33","新北市汐止區中正路190號","121.658881666667","25.0691066666667","6500200","三重區"
"221002","753-BX","2017/08/12 12:39:49","新北市汐止區康寧街753巷8號","121.638386666667","25.07531","6501100","汐止區"
