"lineid","car","time","location","longitude","latitude","cityid","cityname"
"234044","148-BY","2017/08/12 12:59:55","新北市永和區得和路373巷16弄11號","121.525628333333","25.000075","6500400","永和區"
"234012","149-BY","2017/08/12 12:59:47","新北市永和區信義路14-1號","121.51436","25.0121133333333","6500400","永和區"
"234005","207-UY","2017/08/12 12:59:52","新北市永和區中山路一段100巷6號","121.511401666667","25.01078","6500400","永和區"
"234078","298-R6","2017/08/12 12:59:47","新北市永和區永貞路34號","121.520886666667","25.0067","6500400","永和區"
"234036","336-UY","2017/08/12 12:59:51","新北市永和區民樂街94巷2號","121.527311666667","24.99707","6500400","永和區"
"234062","337-UY","2017/08/12 12:59:47","新北市永和區秀朗路一段209巷1號","121.519341666667","25.0032916666667","6500400","永和區"
"234068","552-UM","2017/08/12 12:59:44","新北市永和區豫溪街95巷10弄1號","121.518046666667","25.0107966666667","6500400","永和區"
"234052","553-UM","2017/08/12 12:59:47","新北市永和區竹林路64號","121.518313333333","25.01345","6500400","永和區"
"234015","745-BX","2017/08/12 12:59:45","新北市永和區忠孝街14號","121.515636666667","25.01584","6500400","永和區"
"234028","746-BX","2017/08/12 12:59:37","新北市永和區四維街73號","121.525305","24.9979866666667","6500400","永和區"
"234060","AAD-866","2017/08/12 12:59:51","新北市永和區福和路307號","121.51624","25.0072533333333","6500400","永和區"
"234084","847-RS","2017/08/12 12:59:53","新北市永和區永利路10巷7號","121.517955","25.0056516666667","6500400","永和區"
"234040","862-TW","2017/08/12 12:59:35","新北市永和區永貞路285號","121.511253333333","25.00531","6500400","永和區"
"234048","863-TW","2017/08/12 12:59:52","新北市永和區文化路194號","121.510861666667","25.0162416666667","6500400","永和區"
"234025","9371-KE","2017/08/12 12:59:35","新北市永和區水源街2巷15號","121.511985","25.0057216666667","6500400","永和區"
"234010","9373-KE","2017/08/12 12:59:46","新北市永和區文化路9巷22弄28號","121.514573333333","25.0146183333333","6500400","永和區"
"248017","225-UY","2017/08/12 12:59:50","新北市五股區中興路二段83巷26-6號","121.460048333333","25.075185","6501500","五股區"
"234022","9380-KE","2017/08/12 12:59:36","新北市永和區竹林路73-1號","121.518696666667","25.0132483333333","6500400","永和區"
"234076","969-R7","2017/08/12 12:59:46","新北市永和區民享街10號","121.515278333333","24.9953166666667","6500400","永和區"
"234072","AAC-211","2017/08/12 12:59:42","新北市永和區環河東路二段100號","121.524145","25.01035","6500400","永和區"
"234066","AAC-212","2017/08/12 12:59:43","新北市永和區中和路625號","121.512996666667","25.004885","6500400","永和區"
"234001","AAC-295","2017/08/12 12:59:37","新北市永和區保福路一段27號","121.512698333333","25.0087366666667","6500400","永和區"
"244005","248-BX","2017/08/12 12:59:34","新北市林口區粉寮路二段27號","121.400855","25.08471","6501700","林口區"
"231002","002-UM","2017/08/12 12:59:52","新北市新店區安華路28-1號","121.519796666667","24.9609883333333","6500600","新店區"
"231027","0293-UT","2017/08/12 12:59:54","新北市新店區安華路28-1號","121.519615","24.9607083333333","6500600","新店區"
"231028","046-UY","2017/08/12 12:59:36","新北市新店區安華路28-1號","121.519566666667","24.9608783333333","6500600","新店區"
"231030","047-UY","2017/08/12 12:59:33","新北市新店區安華路28-1號","121.519305","24.9609316666667","6500600","新店區"
"231018","107-UY","2017/08/12 12:59:51","新北市新店區安華路28-1號","121.519475","24.9613433333333","6500600","新店區"
"231012","108-UY","2017/08/12 12:59:42","新北市新店區安華路28-1號","121.519456666667","24.961295","6500600","新店區"
"231020","187-VK","2017/08/12 12:59:38","新北市新店區安華路28-1號","121.519638333333","24.96117","6500600","新店區"
"231034","268-BY","2017/08/12 12:59:47","新北市新店區安華路28-1號","121.519408333333","24.9605866666667","6500600","新店區"
"231010","278-BY","2017/08/12 12:59:37","新北市新店區安華路28-1號","121.519401666667","24.9611866666667","6500600","新店區"
"231017","AAD-862","2017/08/12 12:59:42","新北市新店區安華路28-1號","121.519736666667","24.9612383333333","6500600","新店區"
"231024","3713-VJ","2017/08/12 12:59:43","新北市新店區安華路28-1號","121.519295","24.9606","6500600","新店區"
"231038","4715-K9","2017/08/12 12:59:52","新北市新店區安華路28-1號","121.519411666667","24.9605666666667","6500600","新店區"
"231036","512-UM","2017/08/12 12:59:42","新北市新店區安康路一段355-3號","121.519466666667","24.9616883333333","6500600","新店區"
"231023","513-UM","2017/08/12 12:59:49","新北市新店區安華路28-1號","121.519713333333","24.9611383333333","6500600","新店區"
"231006","617-UM","2017/08/12 12:59:44","新北市新店區安華路28-1號","121.519465","24.960925","6500600","新店區"
"231003","641-BX","2017/08/12 12:59:47","新北市新店區安華路28-1號","121.519735","24.9605016666667","6500600","新店區"
"231013","719-UM","2017/08/12 12:59:52","新北市新店區安華路28-1號","121.519443333333","24.961185","6500600","新店區"
"231033","720-UM","2017/08/12 12:59:42","新北市新店區安康路一段355-3號","121.519068333333","24.9613933333333","6500600","新店區"
"231005","897-TW","2017/08/12 12:59:33","新北市新店區安華路28-1號","121.519513333333","24.9609183333333","6500600","新店區"
"231004","899-TW","2017/08/12 12:59:38","新北市新店區安華路28-1號","121.519306666667","24.9608266666667","6500600","新店區"
"231037","AKT-0513","2017/08/12 12:59:44","新北市新店區安華路28-1號","121.51935","24.9605816666667","6500600","新店區"
"235022","151-BY","2017/08/12 12:59:53","新北市中和區錦和路350-1號","121.490475","24.9935433333333","6500300","中和區"
"235019","183-VK","2017/08/12 12:59:50","新北市中和區員山路36巷16-2號","121.485211666667","24.99153","6500300","中和區"
"235002","185-VK","2017/08/12 12:59:33","新北市中和區景平路353號","121.504786666667","24.9934816666667","6500300","中和區"
"235031","255-BX","2017/08/12 12:59:39","新北市中和區中山路二段550號","121.483985","25.0055283333333","6500300","中和區"
"235036","301-VK","2017/08/12 12:59:37","新北市中和區員山路36巷13號","121.484031666667","24.9910166666667","6500300","中和區"
"235015","376-QA","2017/08/12 05:37:28","新北市中和區員山路36巷13號","121.484166666667","24.9908383333333","6500300","中和區"
"235025","378-QA","2017/08/12 12:49:43","新北市中和區和城路一段271巷1號","121.485525","24.9916716666667","6500300","中和區"
"235024","647-TV","2017/08/12 12:59:52","新北市中和區員山路36巷16-2號","121.485061666667","24.991875","6500300","中和區"
"235016","805-TS","2017/08/12 12:59:38","新北市中和區員山路36巷13號","121.484306666667","24.9914366666667","6500300","中和區"
"235017","900-TW","2017/08/12 12:59:40","新北市中和區員山路36巷16-3號","121.484756666667","24.9917816666667","6500300","中和區"
"235035","911-UM","2017/08/12 12:59:38","新北市中和區中正路637巷52弄1號","121.485478333333","24.993435","6500300","中和區"
"220013","072-UY","2017/08/12 12:59:37","新北市板橋區民生路二段36-1號","121.472628333333","25.0166016666667","6500100","板橋區"
"228005","097-TW","2017/08/12 12:59:50","新北市貢寮區福隆里東興街6-14號","121.952093333333","25.02053","6502600","貢寮區"
"228004","212-TW","2017/08/12 12:59:37","新北市貢寮區吉林里內寮街57號","121.886466666667","24.986695","6502600","貢寮區"
"208004","AAC-292","2017/08/12 12:59:38","新北市金山區磺港里磺港路171-1號","121.643751666667","25.223605","6502700","金山區"
"207002","749-BX","2017/08/12 12:59:41","新北市萬里區雙興里大坪路23號","121.633321666667","25.1685416666667","6502800","萬里區"
"252005","073-UM","2017/08/12 12:59:40","新北市三芝區埔坪里埔頭坑41號","121.504546666667","25.2632533333333","6502100","三芝區"
"207001","662-BX","2017/08/12 12:59:43","新北市萬里區萬里里獅頭路22-1號","121.693011666667","25.178215","6502800","萬里區"
"236006","498-BY","2017/08/12 12:59:46","新北市土城區亞洲路32巷1號","121.435781666667","24.9744","6501300","土城區"
"241031","308-TH","2017/08/12 12:59:34","新北市樹林區八德街500號","121.399793333333","24.97025","6500200","三重區"
"241031","276-VK","2017/08/12 12:39:33","新北市汐止區中正路190號","121.658881666667","25.0691066666667","6500200","三重區"
"221002","753-BX","2017/08/12 12:59:49","新北市汐止區中興路183巷39號","121.628701666667","25.0649316666667","6501100","汐止區"
