"lineid","car","time","location","longitude","latitude","cityid","cityname"
"234044","148-BY","2017/08/12 13:19:35","新北市永和區得和路373巷29號","121.525021666667","25.0003566666667","6500400","永和區"
"234012","149-BY","2017/08/12 13:19:47","新北市永和區信義路23號","121.51389","25.012265","6500400","永和區"
"234005","207-UY","2017/08/12 13:19:52","新北市永和區中山路一段320號","121.5066","25.0068166666667","6500400","永和區"
"234078","298-R6","2017/08/12 13:19:37","新北市永和區林森路10巷35號","121.525773333333","25.0063633333333","6500400","永和區"
"234036","336-UY","2017/08/12 13:19:51","新北市永和區民樂街31巷2號","121.52758","25.0014666666667","6500400","永和區"
"234062","337-UY","2017/08/12 13:19:47","新北市永和區永元路17巷25弄2號","121.521541666667","25.0013933333333","6500400","永和區"
"234068","552-UM","2017/08/12 13:19:44","新北市永和區警光街12號","121.519701666667","25.009535","6500400","永和區"
"234052","553-UM","2017/08/12 13:19:47","新北市永和區中興街12號","121.515786666667","25.0119283333333","6500400","永和區"
"234015","745-BX","2017/08/12 13:19:45","新北市永和區文化路144巷31弄7號","121.512075","25.0168433333333","6500400","永和區"
"234028","746-BX","2017/08/12 13:19:37","新北市永和區四維街101號","121.524076666667","24.99816","6500400","永和區"
"234060","AAD-866","2017/08/12 13:19:51","新北市永和區秀朗路一段120號","121.516973333333","25.003665","6500400","永和區"
"234084","847-RS","2017/08/12 13:19:53","新北市永和區永利路39號","121.518816666667","25.0055683333333","6500400","永和區"
"234040","862-TW","2017/08/12 13:19:55","新北市永和區保平路151巷17號","121.510661666667","25.0050916666667","6500400","永和區"
"234048","863-TW","2017/08/12 13:19:52","新北市永和區保福路二段88巷26號","121.511891666667","25.0136533333333","6500400","永和區"
"234025","9371-KE","2017/08/12 13:19:35","新北市永和區豫溪街42巷24號","121.515295","25.0088966666667","6500400","永和區"
"234010","9373-KE","2017/08/12 13:19:46","新北市永和區永和路二段405巷44號","121.514351666667","25.017025","6500400","永和區"
"248019","225-UY","2017/08/12 13:19:30","新北市五股區御史路205-1號","121.431011666667","25.1008416666667","6501500","五股區"
"234022","9380-KE","2017/08/12 13:19:36","新北市永和區竹林路104號","121.519685","25.011925","6500400","永和區"
"234076","969-R7","2017/08/12 13:19:46","新北市永和區民有街98巷4號","121.51751","24.9957933333333","6500400","永和區"
"234072","AAC-211","2017/08/12 13:19:42","新北市永和區復興街85號","121.517548333333","25.01413","6500400","永和區"
"234066","AAC-212","2017/08/12 13:19:52","新北市永和區保平路30巷7號","121.511645","25.007625","6500400","永和區"
"234001","AAC-295","2017/08/12 13:19:49","新北市永和區和平街93巷9弄2號","121.511615","25.009075","6500400","永和區"
"244005","248-BX","2017/08/12 13:19:34","新北市林口區南勢街228號","121.359493333333","25.0751083333333","6501700","林口區"
"231002","002-UM","2017/08/12 13:19:52","新北市新店區安華路28-1號","121.519606666667","24.9608716666667","6500600","新店區"
"231025","0291-UT","2017/08/12 13:19:38","新北市新店區安康路一段261號","121.524383333333","24.963335","6500600","新店區"
"231027","0293-UT","2017/08/12 13:19:38","新北市新店區安康路一段231號","121.525278333333","24.96318","6500600","新店區"
"231028","046-UY","2017/08/12 13:19:36","新北市新店區安華路28-1號","121.519573333333","24.960845","6500600","新店區"
"231030","047-UY","2017/08/12 13:19:33","新北市新店區安忠路56巷6號","121.512911666667","24.959355","6500600","新店區"
"231029","106-UY","2017/08/12 13:19:34","新北市新店區安華路28-1號","121.51977","24.960915","6500600","新店區"
"231018","107-UY","2017/08/12 13:19:49","新北市新店區安康路一段152號","121.526285","24.9629216666667","6500600","新店區"
"231012","108-UY","2017/08/12 13:19:43","新北市新店區安康路一段17號","121.533135","24.96035","6500600","新店區"
"231020","187-VK","2017/08/12 13:19:38","新北市新店區安康路一段35-1號","121.532013333333","24.9605666666667","6500600","新店區"
"231026","256-BX","2017/08/12 13:19:47","新北市新店區安華路28-1號","121.519901666667","24.9611033333333","6500600","新店區"
"231034","268-BY","2017/08/12 13:19:47","新北市新店區安華路1-1號","121.51951","24.9602466666667","6500600","新店區"
"231010","278-BY","2017/08/12 13:19:36","新北市新店區安康路一段83-1號","121.529605","24.96133","6500600","新店區"
"231017","AAD-862","2017/08/12 13:19:42","新北市新店區安康路一段77號","121.530015","24.96115","6500600","新店區"
"231024","3713-VJ","2017/08/12 13:19:43","新北市新店區安康路一段162號","121.526095","24.9629783333333","6500600","新店區"
"231038","4715-K9","2017/08/12 13:19:52","新北市新店區安華路1-1號","121.519553333333","24.9604966666667","6500600","新店區"
"231036","512-UM","2017/08/12 13:19:42","新北市新店區車子路10-4號","121.504891666667","24.95456","6500600","新店區"
"231023","513-UM","2017/08/12 13:19:49","新北市新店區安康路一段163號","121.52737","24.96236","6500600","新店區"
"231035","515-UM","2017/08/12 13:19:54","新北市新店區安華路28-1號","121.519638333333","24.9615033333333","6500600","新店區"
"231006","617-UM","2017/08/12 13:19:44","新北市新店區安華路28-1號","121.519485","24.9608666666667","6500600","新店區"
"231001","619-UM","2017/08/12 13:19:46","新北市新店區安華路28-1號","121.519561666667","24.9608916666667","6500600","新店區"
"231003","641-BX","2017/08/12 13:19:47","新北市新店區光明街225號","121.540218333333","24.9642516666667","6500600","新店區"
"231013","719-UM","2017/08/12 13:19:52","新北市新店區安康路一段79巷1號","121.529833333333","24.9612366666667","6500600","新店區"
"231033","720-UM","2017/08/12 13:19:42","新北市新店區安忠路57巷11弄14號","121.514755","24.957865","6500600","新店區"
"231005","897-TW","2017/08/12 13:19:33","新北市新店區安華路28-1號","121.51964","24.960885","6500600","新店區"
"231004","899-TW","2017/08/12 13:19:38","新北市新店區安華路28-1號","121.519283333333","24.9609633333333","6500600","新店區"
"231037","AKT-0513","2017/08/12 13:19:44","新北市新店區車子路10-4號","121.504626666667","24.9545616666667","6500600","新店區"
"235030","003-UY","2017/08/12 13:19:44","新北市中和區中山路二段64巷11號","121.503386666667","25.0054966666667","6500300","中和區"
"235028","005-UY","2017/08/12 13:19:35","新北市中和區中正路133號","121.499643333333","24.9934916666667","6500300","中和區"
"235027","006-UY","2017/08/12 13:19:46","新北市中和區員山路36巷16-3號","121.485033333333","24.9912933333333","6500300","中和區"
"235003","097-UM","2017/08/12 13:19:49","新北市中和區中正路271號","121.495821666667","24.9936466666667","6500300","中和區"
"235029","098-UM","2017/08/12 13:19:48","新北市中和區莊敬路49巷20弄20號","121.502645","25.0058133333333","6500300","中和區"
"235004","150-BY","2017/08/12 13:19:37","新北市中和區保健路50巷66號","121.509283333333","24.9952116666667","6500300","中和區"
"235022","151-BY","2017/08/12 13:19:33","新北市中和區圓通路367巷60-2號","121.49206","24.9838883333333","6500300","中和區"
"235019","183-VK","2017/08/12 13:19:50","新北市中和區員山路36巷16-3號","121.485","24.9913483333333","6500300","中和區"
"235002","185-VK","2017/08/12 13:19:33","新北市中和區大智街18號","121.52049","24.9918416666667","6500300","中和區"
"235031","255-BX","2017/08/12 13:19:39","新北市中和區新生街177巷4號","121.48407","25.00067","6500300","中和區"
"235036","301-VK","2017/08/12 13:19:37","新北市中和區員山路36巷16-3號","121.48472","24.9912783333333","6500300","中和區"
"235007","352-BY","2017/08/12 13:19:44","新北市中和區中正路2-1號","121.50303","24.9935866666667","6500300","中和區"
"235015","376-QA","2017/08/12 13:19:34","新北市中和區信義街104號","121.511786666667","24.9872783333333","6500300","中和區"
"235025","378-QA","2017/08/12 13:19:44","新北市中和區民德路204號","121.46826","24.998525","6500300","中和區"
"235014","4979-A6","2017/08/12 13:19:37","新北市中和區捷運路102號","121.505703333333","24.9914583333333","6500300","中和區"
"235033","4980-A6","2017/08/12 13:19:39","新北市中和區安邦街43號","121.496266666667","24.997605","6500300","中和區"
"235006","551-UM","2017/08/12 13:19:53","新北市中和區大仁街42號","121.51811","24.9939233333333","6500300","中和區"
"235034","558-UM","2017/08/12 13:19:47","新北市中和區中正路271號","121.495878333333","24.9937366666667","6500300","中和區"
"235009","565-BX","2017/08/12 13:19:48","新北市中和區中正路171號","121.497858333333","24.9935783333333","6500300","中和區"
"235018","640-BX","2017/08/12 13:19:41","新北市中和區民德路142號","121.468703333333","25.0005033333333","6500300","中和區"
"235024","647-TV","2017/08/12 13:19:52","新北市中和區員山路36巷16-3號","121.48488","24.9916916666667","6500300","中和區"
"235011","732-UM","2017/08/12 13:19:39","新北市中和區南山路300號","121.507798333333","24.9871283333333","6500300","中和區"
"235026","800-TS","2017/08/12 13:19:36","新北市中和區景平路999巷1號","121.495396666667","25.00594","6500300","中和區"
"235005","802-TS","2017/08/12 13:19:47","新北市中和區景安路26號","121.507383333333","24.9985283333333","6500300","中和區"
"235016","805-TS","2017/08/12 13:19:38","新北市中和區興南路二段96號","121.505198333333","24.9842166666667","6500300","中和區"
"235012","896-TW","2017/08/12 13:19:36","新北市中和區員山路36巷16-2號","121.485085","24.9919083333333","6500300","中和區"
"235017","900-TW","2017/08/12 13:19:40","新北市中和區員山路36巷16-2號","121.48513","24.99181","6500300","中和區"
"235035","911-UM","2017/08/12 13:19:38","新北市中和區永和路458巷1弄2號","121.483941666667","25.0123033333333","6500300","中和區"
"235001","AAC-213","2017/08/12 13:19:53","新北市中和區景平路149號","121.513816666667","24.992105","6500300","中和區"
"235023","AAC-215","2017/08/12 13:19:51","新北市中和區員山路36巷16-3號","121.485023333333","24.99129","6500300","中和區"
"220016","013-TV","2017/08/12 13:19:41","新北市板橋區民生路二段16號","121.472885","25.0164516666667","6500100","板橋區"
"220013","072-UY","2017/08/12 13:19:37","新北市板橋區民生路二段36-1號","121.47263","25.0167583333333","6500100","板橋區"
"228005","097-TW","2017/08/12 13:19:50","新北市貢寮區美豐里丹裡街59-2號","121.91177","25.0587816666667","6502600","貢寮區"
"228004","212-TW","2017/08/12 13:19:37","新北市貢寮區吉林里內寮街23號","121.901776666667","24.985345","6502600","貢寮區"
"208004","AAC-292","2017/08/12 13:19:38","新北市金山區南勢湖92號","121.605418333333","25.2093916666667","6502700","金山區"
"207002","749-BX","2017/08/12 13:19:41","新北市萬里區崁腳里崁腳路166號","121.645043333333","25.1558316666667","6502800","萬里區"
"252005","073-UM","2017/08/12 13:19:44","新北市三芝區八賢里八連溪51號","121.515386666667","25.2342383333333","6502100","三芝區"
"207001","662-BX","2017/08/12 13:19:43","新北市萬里區龜吼里光宇大道2號","121.679508333333","25.1908533333333","6502800","萬里區"
"236006","498-BY","2017/08/12 13:19:46","新北市土城區大安路138巷40號","121.434806666667","24.9718883333333","6501300","土城區"
"241031","308-TH","2017/08/12 13:19:54","新北市樹林區中山路三段210-2號","121.380831666667","24.9668766666667","6500200","三重區"
"241031","276-VK","2017/08/12 12:39:33","新北市汐止區中正路190號","121.658881666667","25.0691066666667","6500200","三重區"
"221002","753-BX","2017/08/12 13:19:49","新北市汐止區福德一路342巷1號","121.629151666667","25.0629483333333","6501100","汐止區"
"220030","610-BX","2017/08/12 13:19:40","新北市樹林區八德街395號","121.415256666667","24.9714233333333","6500100","板橋區"
"220012","486-VK","2017/08/12 02:43:37","新北市板橋區民生路二段36-1號","121.472658333333","25.016695","6500100","板橋區"
"220011","609-BX","2017/08/12 00:11:07","新北市板橋區民生路二段36-1號","121.4724","25.0167183333333","6500100","板橋區"
