"lineid","car","time","location","longitude","latitude","cityid","cityname"
"234005","207-UY","2017/08/12 14:29:35","新北市永和區中正路401號","121.517195","25.0045383333333","6500400","永和區"
"234078","298-R6","2017/08/12 14:29:37","新北市永和區永貞路82號","121.520243333333","25.0050083333333","6500400","永和區"
"234062","337-UY","2017/08/12 14:29:47","新北市永和區秀朗路一段139巷14號","121.516891666667","25.0048766666667","6500400","永和區"
"234052","553-UM","2017/08/12 14:29:47","新北市永和區環河東路一段80號","121.51962","25.0164816666667","6500400","永和區"
"234028","746-BX","2017/08/12 14:29:37","新北市永和區中正路138號","121.51464","24.99622","6500400","永和區"
"234060","AAD-866","2017/08/12 14:29:51","新北市永和區中正路381號","121.517216666667","25.0037616666667","6500400","永和區"
"234084","847-RS","2017/08/12 14:29:53","新北市永和區光復街13號","121.516415","25.0172683333333","6500400","永和區"
"234040","862-TW","2017/08/12 14:29:55","新北市永和區安樂路250號","121.51468","25.0035666666667","6500400","永和區"
"234048","863-TW","2017/08/12 14:29:52","新北市永和區保安路132-1號","121.508636666667","25.0154883333333","6500400","永和區"
"234025","9371-KE","2017/08/12 14:29:35","新北市永和區安樂路104巷1號","121.514463333333","24.9996933333333","6500400","永和區"
"248017","225-UY","2017/08/12 14:29:50","新北市五股區外寮路13-1號","121.424735","25.0811816666667","6501500","五股區"
"234072","AAC-211","2017/08/12 14:29:42","新北市永和區竹林路121號","121.520056666667","25.0113766666667","6500400","永和區"
"234066","AAC-212","2017/08/12 14:29:43","新北市永和區保平路268巷41號","121.507606666667","25.0062683333333","6500400","永和區"
"234001","AAC-295","2017/08/12 14:29:37","新北市永和區大新街39號","121.51539","25.0084283333333","6500400","永和區"
"231002","002-UM","2017/08/12 14:29:52","新北市新店區中正路468號","121.534008333333","24.9793983333333","6500600","新店區"
"231025","0291-UT","2017/08/12 14:29:38","新北市新店區民族路108號","121.538196666667","24.97738","6500600","新店區"
"231027","0293-UT","2017/08/12 14:29:38","新北市新店區永華街9號","121.543355","24.97709","6500600","新店區"
"231028","046-UY","2017/08/12 14:29:36","新北市新店區安康路二段145號","121.51153","24.9599433333333","6500600","新店區"
"231030","047-UY","2017/08/12 14:29:33","新北市新店區安民街125-1號","121.516348333333","24.968815","6500600","新店區"
"231029","106-UY","2017/08/12 14:29:34","新北市新店區安康路二段406號","121.496763333333","24.955315","6500600","新店區"
"231018","107-UY","2017/08/12 14:29:49","新北市新店區中央二街47號","121.527463333333","24.9742966666667","6500600","新店區"
"231012","108-UY","2017/08/12 14:29:42","新北市新店區寶橋路162號","121.549096666667","24.9771466666667","6500600","新店區"
"231020","187-VK","2017/08/12 14:29:38","新北市新店區桂山路51巷2號","121.562886666667","24.9013633333333","6500600","新店區"
"231034","268-BY","2017/08/12 14:29:54","新北市新店區黎明路52巷9號","121.502055","24.9487516666667","6500600","新店區"
"231017","AAD-862","2017/08/12 14:29:42","新北市新店區北宜路三段86號","121.577781666667","24.9514366666667","6500600","新店區"
"231038","4715-K9","2017/08/12 14:29:52","新北市新店區溪洲路50號","121.532828333333","24.9612766666667","6500600","新店區"
"231036","512-UM","2017/08/12 14:29:42","新北市新店區安祥路109巷8號","121.475458333333","24.958845","6500600","新店區"
"231023","513-UM","2017/08/12 14:29:49","新北市新店區北新路一段89號","121.538776666667","24.9613183333333","6500600","新店區"
"231035","515-UM","2017/08/12 14:29:34","新北市新店區安光路10-1號","121.513823333333","24.964415","6500600","新店區"
"231006","617-UM","2017/08/12 14:29:44","新北市新店區北宜路二段449號","121.56144","24.9541966666667","6500600","新店區"
"231001","619-UM","2017/08/12 14:29:46","新北市新店區北新路一段96巷23號","121.542911666667","24.9687866666667","6500600","新店區"
"231003","641-BX","2017/08/12 14:29:52","新北市新店區中興路一段280號","121.545608333333","24.96834","6500600","新店區"
"231013","719-UM","2017/08/12 14:29:52","新北市新店區民權路102號","121.53601","24.9830016666667","6500600","新店區"
"231005","897-TW","2017/08/12 14:29:53","新北市新店區北新路三段63號","121.541726666667","24.9809","6500600","新店區"
"231004","899-TW","2017/08/12 14:29:38","新北市新店區中正路282號","121.538578333333","24.9738633333333","6500600","新店區"
"231037","AKT-0513","2017/08/12 14:29:44","新北市新店區安康路二段320巷6號","121.504498333333","24.95872","6500600","新店區"
"235030","003-UY","2017/08/12 14:29:43","新北市中和區景新街7號","121.503283333333","24.9995383333333","6500300","中和區"
"235028","005-UY","2017/08/12 14:29:35","新北市中和區中和路139號","121.502041666667","24.9997833333333","6500300","中和區"
"235027","006-UY","2017/08/12 14:29:46","新北市中和區連城路203巷10弄11號","121.495015","24.9969583333333","6500300","中和區"
"235020","096-UM","2017/08/12 14:29:36","新北市中和區員山路514巷16號","121.479601666667","25.00945","6500300","中和區"
"235003","097-UM","2017/08/12 14:29:49","新北市中和區秀峰街103巷7弄4號","121.519428333333","24.9889266666667","6500300","中和區"
"235029","098-UM","2017/08/12 14:29:47","新北市中和區永和路52號","121.499228333333","25.0040516666667","6500300","中和區"
"235004","150-BY","2017/08/12 14:29:46","新北市中和區宜安路3號","121.513421666667","24.9952866666667","6500300","中和區"
"235022","151-BY","2017/08/12 14:29:53","新北市中和區連城路499號","121.482606666667","24.9955583333333","6500300","中和區"
"235019","183-VK","2017/08/12 14:29:50","新北市中和區中山路三段181巷18弄33號","121.4726","25.00477","6500300","中和區"
"235002","185-VK","2017/08/12 14:29:33","新北市中和區大智街55巷31號","121.520616666667","24.9927633333333","6500300","中和區"
"235013","186-VK","2017/08/12 14:29:54","新北市中和區安和路11號","121.511306666667","24.9935383333333","6500300","中和區"
"235031","255-BX","2017/08/12 14:29:39","新北市中和區連城路453號","121.484531666667","24.9962416666667","6500300","中和區"
"235008","293-VK","2017/08/12 14:29:38","新北市中和區中興街239號","121.500458333333","24.9891866666667","6500300","中和區"
"235036","301-VK","2017/08/12 14:29:37","新北市中和區中山路二段3巷22弄1號","121.506368333333","25.0053566666667","6500300","中和區"
"235007","352-BY","2017/08/12 14:29:44","新北市中和區景平路334號","121.51191","24.9928083333333","6500300","中和區"
"235015","376-QA","2017/08/12 14:29:34","新北市中和區興南路一段77號","121.510115","24.9890666666667","6500300","中和區"
"235032","377-QA","2017/08/12 14:29:37","新北市中和區中和路143號","121.502158333333","24.9999","6500300","中和區"
"235025","378-QA","2017/08/12 14:29:44","新北市中和區民安街1號","121.480968333333","25.0010116666667","6500300","中和區"
"235014","4979-A6","2017/08/12 14:29:37","新北市中和區中正路637巷60弄61號","121.485461666667","24.9930416666667","6500300","中和區"
"235006","551-UM","2017/08/12 14:29:53","新北市中和區中安街166號","121.510796666667","25.0001016666667","6500300","中和區"
"235034","558-UM","2017/08/12 14:29:47","新北市中和區景平路668號","121.497241666667","25.0009883333333","6500300","中和區"
"235009","565-BX","2017/08/12 14:29:48","新北市中和區景新街423巷33弄3號","121.513763333333","24.9897616666667","6500300","中和區"
"235018","640-BX","2017/08/12 14:29:41","新北市中和區國光街109巷27號","121.469473333333","24.9994583333333","6500300","中和區"
"235024","647-TV","2017/08/12 14:29:52","新北市中和區中正路839巷29號","121.483568333333","25.00241","6500300","中和區"
"235011","732-UM","2017/08/12 14:29:39","新北市中和區景平路241巷64弄8號","121.507828333333","24.992595","6500300","中和區"
"235010","733-UM","2017/08/12 14:29:46","新北市中和區忠孝街37巷22號","121.510945","24.9842116666667","6500300","中和區"
"235026","800-TS","2017/08/12 14:29:49","新北市中和區中山路二段417號","121.48613","25.00482","6500300","中和區"
"235021","801-TS","2017/08/12 14:29:36","新北市中和區台新街43號","121.479738333333","25.0048866666667","6500300","中和區"
"235005","802-TS","2017/08/12 14:29:47","新北市中和區中和路230巷23號","121.506621666667","24.9987016666667","6500300","中和區"
"235016","805-TS","2017/08/12 14:29:38","新北市中和區華新街143巷49號","121.506366666667","24.9802483333333","6500300","中和區"
"235012","896-TW","2017/08/12 14:29:45","新北市中和區忠孝街39-1號","121.511595","24.98376","6500300","中和區"
"235017","900-TW","2017/08/12 14:29:40","新北市中和區華順街32號","121.46673","24.9987016666667","6500300","中和區"
"235035","911-UM","2017/08/12 14:29:41","新北市中和區立德街23號","121.488463333333","25.0073466666667","6500300","中和區"
"235001","AAC-213","2017/08/12 14:29:53","新北市中和區自立路19號","121.522515","24.9961016666667","6500300","中和區"
"235023","AAC-215","2017/08/12 14:29:51","新北市中和區圓通路333號","121.491938333333","24.99068","6500300","中和區"
"220016","013-TV","2017/08/12 14:29:41","新北市板橋區中山路二段416巷2號","121.482983333333","25.020875","6500100","板橋區"
"220013","072-UY","2017/08/12 14:29:52","新北市板橋區國泰街75巷22號","121.46791","25.005205","6500100","板橋區"
"220034","073-UY","2017/08/12 14:29:45","新北市板橋區中正路250巷27號","121.456805","25.01952","6500100","板橋區"
"220105","075-UY","2017/08/12 14:29:32","新北市板橋區文化路二段417巷11號","121.473546666667","25.03384","6500100","板橋區"
"220017","AAD-861","2017/08/12 14:29:50","新北市板橋區華興街21巷18號","121.458555","25.0037033333333","6500100","板橋區"
"220045","120-SR","2017/08/12 14:29:48","新北市板橋區民生路二段226巷35號","121.471311666667","25.0222716666667","6500100","板橋區"
"247019","893-R6","2017/08/12 14:29:46","新北市蘆洲區民權路117號","121.472283333333","25.0898616666667","6501400","蘆洲區"
"247009","546-UM","2017/08/12 14:29:38","新北市蘆洲區鷺江街1號","121.479371666667","25.0827366666667","6501400","蘆洲區"
"247017","500-BY","2017/08/12 14:29:42","新北市蘆洲區復興路179號","121.478905","25.089345","6501400","蘆洲區"
"247007","339-TH","2017/08/12 14:29:50","新北市蘆洲區民生街38號","121.474095","25.07865","6501400","蘆洲區"
"247023","337-TH","2017/08/12 14:29:35","新北市蘆洲區中正路74號","121.470353333333","25.0833616666667","6501400","蘆洲區"
"247001","336-TH","2017/08/12 14:29:46","新北市蘆洲區永樂街38巷45弄5號","121.45805","25.0898033333333","6501400","蘆洲區"
"247005","335-TH","2017/08/12 14:29:36","新北市蘆洲區長安街46巷10號","121.463798333333","25.0800983333333","6501400","蘆洲區"
"247013","057-VK","2017/08/12 14:29:40","新北市蘆洲區中山二路155號","121.4715","25.08142","6501400","蘆洲區"
"247003","056-VK","2017/08/12 14:29:37","新北市蘆洲區長安街220巷6號","121.458681666667","25.084645","6501400","蘆洲區"
"247011","007-UY","2017/08/12 14:29:51","新北市蘆洲區集賢路224巷46弄30-2號","121.481626666667","25.08754","6501400","蘆洲區"
"247015","001-UY","2017/08/12 14:29:48","新北市蘆洲區中正路185巷72號","121.46649","25.084445","6501400","蘆洲區"
"241031","4501-MT","2017/08/12 14:29:32","新北市平溪區靜安路二段352號","121.737521666667","25.0246116666667","6500200","三重區"
"228005","097-TW","2017/08/12 14:29:50","新北市貢寮區美豐里巫里岸9-1號","121.901968333333","25.0700133333333","6502600","貢寮區"
"228004","212-TW","2017/08/12 14:29:37","新北市貢寮區雙玉里田寮洋街33-1號","121.932201666667","25.0135283333333","6502600","貢寮區"
"208004","AAC-292","2017/08/12 14:29:38","新北市金山區重和里竹子山腳1號","121.599301666667","25.2247866666667","6502700","金山區"
"207002","749-BX","2017/08/12 14:26:21","新北市萬里區溪底里富士坪路16-1號","121.621408333333","25.154095","6502800","萬里區"
"252005","073-UM","2017/08/12 14:29:49","新北市三芝區橫山里大坑85號","121.529796666667","25.2590516666667","6502100","三芝區"
"207001","662-BX","2017/08/12 14:29:43","新北市萬里區磺潭里清水4號","121.64141","25.200885","6502800","萬里區"
"236068","105-UM","2017/08/12 14:29:49","新北市土城區永豐路205-5號","121.474468333333","24.977735","6501300","土城區"
"236041","107-UM","2017/08/12 14:29:47","新北市土城區學成路99巷9號","121.450015","24.98852","6501300","土城區"
"236075","166-UM","2017/08/12 14:29:49","新北市土城區中央路四段29號","121.423991666667","24.9623116666667","6501300","土城區"
"236029","253-BX","2017/08/12 14:29:34","新北市土城區水源街81巷18號","121.439305","24.9758916666667","6501300","土城區"
"236025","269-VK","2017/08/12 14:29:40","新北市土城區承天路18號","121.43934","24.9635183333333","6501300","土城區"
"236013","270-VK","2017/08/12 14:29:38","新北市土城區青雲路39巷7號","121.460306666667","24.9874066666667","6501300","土城區"
"236035","271-VK","2017/08/12 14:29:46","新北市土城區青雲路451巷8弄1號","121.459606666667","24.974515","6501300","土城區"
"236017","401-BY","2017/08/12 14:29:38","新北市土城區永豐路202巷14號","121.466335","24.9833283333333","6501300","土城區"
"236057","912-UM","2017/08/12 14:29:43","新北市土城區中央路四段464號","121.409911666667","24.9504916666667","6501300","土城區"
"236045","913-UM","2017/08/12 14:29:29","新北市土城區青雲路457號","121.458646666667","24.9744683333333","6501300","土城區"
"236061","915-UM","2017/08/12 14:29:41","新北市土城區延壽路115巷1號","121.469096666667","24.9941266666667","6501300","土城區"
"236054","AAC-216","2017/08/12 14:29:52","新北市土城區中華路二段61號","121.439476666667","24.97877","6501300","土城區"
"241031","276-VK","2017/08/12 12:39:33","新北市汐止區中正路190號","121.658881666667","25.0691066666667","6500200","三重區"
"220027","145-BY","2017/08/12 14:29:49","新北市板橋區建國街1巷2號","121.457271666667","25.01698","6500100","板橋區"
"220028","200-UY","2017/08/12 14:29:53","新北市板橋區大觀路二段37巷314號","121.449851666667","25.0022266666667","6500100","板橋區"
"220030","610-BX","2017/08/12 14:29:43","新北市板橋區金門街299號","121.430053333333","24.9866","6500100","板橋區"
"220050","245-BX","2017/08/12 14:29:46","新北市板橋區民生路二段174號","121.47139","25.0205066666667","6500100","板橋區"
"220052","257-TC","2017/08/12 14:29:42","新北市板橋區介壽街3號","121.467098333333","25.02035","6500100","板橋區"
"220043","267-BY","2017/08/12 14:29:51","新北市板橋區吳鳳路50巷85弄1號","121.470235","25.0304066666667","6500100","板橋區"
"220004","276-BY","2017/08/12 14:29:39","新北市板橋區信義路1巷26弄48號","121.45928","24.9966866666667","6500100","板橋區"
"220020","277-BY","2017/08/12 14:29:45","新北市板橋區金門街287巷37號","121.43229","24.98754","6500100","板橋區"
"220019","283-VK","2017/08/12 14:29:41","新北市板橋區忠孝路48巷4弄1-1號","121.460851666667","25.0006516666667","6500100","板橋區"
"220001","285-VK","2017/08/12 14:29:45","新北市板橋區永豐街249號","121.477658333333","25.0213233333333","6500100","板橋區"
"220031","286-VK","2017/08/12 14:29:26","新北市板橋區龍興街71巷36號","121.442231666667","25.00254","6500100","板橋區"
"220029","287-VK","2017/08/12 14:29:33","新北市板橋區大觀路一段77號","121.447286666667","25.0044283333333","6500100","板橋區"
"220039","288-VK","2017/08/12 14:29:37","新北市板橋區裕民街94巷1弄1號","121.460085","25.0282183333333","6500100","板橋區"
"220009","293-UM","2017/08/12 14:29:42","新北市板橋區中山路一段265巷36弄1號","121.469068333333","25.0152366666667","6500100","板橋區"
"220003","295-UM","2017/08/12 14:29:51","新北市板橋區重慶路290巷26號","121.462173333333","24.9989266666667","6500100","板橋區"
"220032","296-UM","2017/08/12 14:29:53","新北市板橋區滿平街84巷120弄9號","121.426751666667","24.986025","6500100","板橋區"
"220023","297-UM","2017/08/12 14:29:45","新北市板橋區中正路291號","121.455371666667","25.0192733333333","6500100","板橋區"
"220047","299-UM","2017/08/12 14:29:53","新北市板橋區四維路314號","121.462415","25.0299066666667","6500100","板橋區"
"220010","303-R5","2017/08/12 14:29:45","新北市板橋區三民路二段81巷25號","121.480488333333","25.016745","6500100","板橋區"
"220041","307-R5","2017/08/12 14:29:47","新北市板橋區民生路三段8號","121.468075","25.0243883333333","6500100","板橋區"
"220012","486-VK","2017/08/12 14:29:36","新北市板橋區中山路一段65號","121.461168333333","25.009595","6500100","板橋區"
"220038","487-VK","2017/08/12 14:29:53","新北市板橋區文化路一段149號","121.46263","25.0156766666667","6500100","板橋區"
"220037","491-VK","2017/08/12 14:29:38","新北市板橋區雙十路二段39-1號","121.476746666667","25.0259966666667","6500100","板橋區"
"220104","560-BX","2017/08/12 14:29:48","新北市板橋區中正路366號","121.454326666667","25.0241666666667","6500100","板橋區"
"220011","609-BX","2017/08/12 14:29:46","新北市板橋區三民路二段2號","121.479133333333","25.01821","6500100","板橋區"
"220040","637-BX","2017/08/12 14:29:44","新北市板橋區縣民大道三段189號","121.479496666667","25.0248333333333","6500100","板橋區"
"220005","686-BX","2017/08/12 14:29:50","新北市板橋區五權街25號","121.46428","24.9942783333333","6500100","板橋區"
"220025","687-BX","2017/08/12 14:29:51","新北市板橋區僑中二街92巷1號","121.44621","25.008685","6500100","板橋區"
"220042","689-BX","2017/08/12 14:29:42","新北市板橋區雨農路21號","121.461305","25.02427","6500100","板橋區"
"220002","741-BX","2017/08/12 14:29:39","新北市板橋區光明街4號","121.460046666667","25.0024483333333","6500100","板橋區"
"220014","829-TW","2017/08/12 14:29:50","新北市板橋區長安街148號","121.473023333333","25.0103433333333","6500100","板橋區"
"220051","830-TW","2017/08/12 14:29:49","新北市板橋區松柏街19號","121.474595","25.0298533333333","6500100","板橋區"
"220022","895-R6","2017/08/12 14:29:49","新北市板橋區北門街8號","121.457756666667","25.0105083333333","6500100","板橋區"
"220021","985-R7","2017/08/12 14:29:51","新北市板橋區金華街69號","121.457495","25.020755","6500100","板橋區"
"220046","AAC-210","2017/08/12 14:29:43","新北市板橋區陽明街133號","121.46334","25.0239416666667","6500100","板橋區"
"220018","AAC-253","2017/08/12 14:29:41","新北市板橋區忠孝路173號","121.464095","25.00254","6500100","板橋區"
