"lineid","car","time","location","longitude","latitude","cityid","cityname"
"234028","746-BX","2017/08/12 14:49:37","新北市五股區凌雲路三段24巷19-1號","121.43539","25.10719","6500400","永和區"
"234025","9371-KE","2017/08/12 14:49:35","新北市永和區雙和街25巷7號","121.508866666667","25.0018316666667","6500400","永和區"
"248017","225-UY","2017/08/12 14:47:10","新北市五股區外寮路13-1號","121.424741666667","25.0811983333333","6501500","五股區"
"234066","AAC-212","2017/08/12 14:49:43","新北市板橋區文化路二段656號","121.480791666667","25.0407866666667","6500400","永和區"
"231002","002-UM","2017/08/12 14:49:52","新北市新店區民權路39號","121.540541666667","24.9829166666667","6500600","新店區"
"231025","0291-UT","2017/08/12 14:49:38","新北市新店區民族路161號","121.537643333333","24.9767366666667","6500600","新店區"
"231027","0293-UT","2017/08/12 14:49:38","新北市新店區中正路334巷5號","121.536876666667","24.97534","6500600","新店區"
"231028","046-UY","2017/08/12 14:49:40","新北市新店區安德街158號","121.508445","24.9592616666667","6500600","新店區"
"231030","047-UY","2017/08/12 14:49:33","新北市新店區安民街382號","121.516311666667","24.9767616666667","6500600","新店區"
"231029","106-UY","2017/08/12 14:49:34","新北市新店區錦秀路11巷12號","121.480948333333","24.9441966666667","6500600","新店區"
"231018","107-UY","2017/08/12 14:49:49","新北市新店區中央一街22號","121.528021666667","24.9732583333333","6500600","新店區"
"231012","108-UY","2017/08/12 14:49:42","新北市新店區永華街45號","121.544183333333","24.976","6500600","新店區"
"231020","187-VK","2017/08/12 14:49:38","新北市新店區永興路102-2號","121.545063333333","24.9303333333333","6500600","新店區"
"231034","268-BY","2017/08/12 14:49:47","新北市新店區安康路二段434號","121.495896666667","24.95496","6500600","新店區"
"231017","AAD-862","2017/08/12 14:49:42","新北市新店區北宜路三段88-1號","121.578011666667","24.9512633333333","6500600","新店區"
"231024","3713-VJ","2017/08/12 14:49:43","新北市新店區新生街1號","121.54048","24.9656933333333","6500600","新店區"
"231036","512-UM","2017/08/12 14:49:42","新北市新店區安祥路104-1號","121.480428333333","24.9624666666667","6500600","新店區"
"231023","513-UM","2017/08/12 14:49:49","新北市新店區檳榔路109號","121.544511666667","24.96176","6500600","新店區"
"231035","515-UM","2017/08/12 14:49:51","新北市新店區安樂街14巷2號","121.52061","24.9735733333333","6500600","新店區"
"231006","617-UM","2017/08/12 14:49:47","新北市新店區北宜路一段143號","121.541191666667","24.952935","6500600","新店區"
"231001","619-UM","2017/08/12 14:49:45","新北市新店區三民路21巷1號","121.539191666667","24.9715283333333","6500600","新店區"
"231003","641-BX","2017/08/12 14:49:47","新北市新店區中興路二段199號","121.548205","24.973935","6500600","新店區"
"231013","719-UM","2017/08/12 14:49:52","新北市新店區北新路二段97巷9弄20號","121.542158333333","24.973595","6500600","新店區"
"231033","720-UM","2017/08/12 14:49:42","新北市新店區安泰路7巷16號","121.485661666667","24.9507916666667","6500600","新店區"
"231005","897-TW","2017/08/12 14:49:53","新北市新店區復興路94號","121.532328333333","24.9883383333333","6500600","新店區"
"231004","899-TW","2017/08/12 14:49:38","新北市新店區民族路85號","121.538893333333","24.9778583333333","6500600","新店區"
"231037","AKT-0513","2017/08/12 14:49:44","新北市新店區柴埕路52巷9號","121.511746666667","24.9649033333333","6500600","新店區"
"235030","003-UY","2017/08/12 14:49:43","新北市中和區南工路40號","121.505796666667","25.0013533333333","6500300","中和區"
"235028","005-UY","2017/08/12 14:49:35","新北市中和區圓通路39號","121.500878333333","24.9976316666667","6500300","中和區"
"235020","096-UM","2017/08/12 14:49:56","新北市中和區中山路三段114巷35號","121.475436666667","25.0084483333333","6500300","中和區"
"235003","097-UM","2017/08/12 14:49:49","新北市中和區安平路208號","121.513618333333","24.9997216666667","6500300","中和區"
"235029","098-UM","2017/08/12 14:49:47","新北市中和區福美路245號","121.499171666667","25.00521","6500300","中和區"
"235004","150-BY","2017/08/12 14:49:37","新北市中和區安平路59號","121.509713333333","24.995035","6500300","中和區"
"235022","151-BY","2017/08/12 14:49:50","新北市中和區員山路150-24號","121.481295","24.998075","6500300","中和區"
"235019","183-VK","2017/08/12 14:49:50","新北市中和區民生街85巷1弄2號","121.46908","25.0045916666667","6500300","中和區"
"235002","185-VK","2017/08/12 14:49:53","新北市中和區自立路139巷8號","121.5226","24.99379","6500300","中和區"
"235013","186-VK","2017/08/12 14:49:35","新北市中和區景平路520-1號","121.503478333333","24.994175","6500300","中和區"
"235031","255-BX","2017/08/12 14:49:39","新北市中和區新生街226號","121.483715","24.99833","6500300","中和區"
"235008","293-VK","2017/08/12 14:49:38","新北市中和區興南路一段91號","121.509831666667","24.98868","6500300","中和區"
"235036","301-VK","2017/08/12 14:49:37","新北市中和區中山路二段3巷22弄33號","121.505861666667","25.0041716666667","6500300","中和區"
"235007","352-BY","2017/08/12 14:49:44","新北市中和區安樂路49號","121.511996666667","24.9935033333333","6500300","中和區"
"235015","376-QA","2017/08/12 14:49:34","新北市中和區中興街233巷8弄8號","121.501273333333","24.989305","6500300","中和區"
"235032","377-QA","2017/08/12 14:49:37","新北市中和區福美路301巷44號","121.497706666667","25.0033916666667","6500300","中和區"
"235025","378-QA","2017/08/12 14:49:44","新北市中和區興南路二段261巷10-1號","121.504443333333","24.9776616666667","6500300","中和區"
"235014","4979-A6","2017/08/12 14:49:47","新北市中和區景平路241巷82弄4號","121.507306666667","24.99208","6500300","中和區"
"235033","4980-A6","2017/08/12 14:49:39","新北市中和區南山路37巷3弄1號","121.502838333333","24.99886","6500300","中和區"
"235034","558-UM","2017/08/12 14:49:47","新北市中和區景平路634-15號","121.498143333333","24.9999816666667","6500300","中和區"
"235009","565-BX","2017/08/12 14:49:48","新北市中和區安樂路66號","121.512135","24.9933183333333","6500300","中和區"
"235018","640-BX","2017/08/12 14:49:41","新北市中和區莒光路93號","121.47237","25.0031616666667","6500300","中和區"
"235024","647-TV","2017/08/12 14:49:52","新北市中和區員山路394巷5號","121.48098","25.00473","6500300","中和區"
"235011","732-UM","2017/08/12 14:49:39","新北市中和區和平街74號","121.507798333333","24.991115","6500300","中和區"
"235010","733-UM","2017/08/12 14:49:46","新北市中和區景新街496巷27弄4號","121.513783333333","24.9865083333333","6500300","中和區"
"235026","800-TS","2017/08/12 14:49:36","新北市中和區中山路二段372號","121.49169","25.0032016666667","6500300","中和區"
"235021","801-TS","2017/08/12 14:49:36","新北市中和區員山路130號","121.481163333333","24.9963133333333","6500300","中和區"
"235016","805-TS","2017/08/12 14:49:38","新北市中和區興南路二段119巷6號","121.505788333333","24.9839566666667","6500300","中和區"
"235012","896-TW","2017/08/12 14:49:36","新北市中和區忠孝街99號","121.512045","24.985855","6500300","中和區"
"235017","900-TW","2017/08/12 14:49:40","新北市中和區國光街205巷2號","121.466796666667","25.0019666666667","6500300","中和區"
"235035","911-UM","2017/08/12 14:49:41","新北市中和區連城路296號","121.483975","24.996235","6500300","中和區"
"235001","AAC-213","2017/08/12 14:49:33","新北市中和區秀朗路三段123號","121.525593333333","24.9930383333333","6500300","中和區"
"235023","AAC-215","2017/08/12 14:49:51","新北市中和區圓通路367巷18-5號","121.491908333333","24.9885233333333","6500300","中和區"
"220016","013-TV","2017/08/12 14:49:40","新北市板橋區光復街112號","121.483363333333","25.0186733333333","6500100","板橋區"
"220013","072-UY","2017/08/12 14:49:37","新北市板橋區國泰街39巷5弄22號","121.46901","25.0060783333333","6500100","板橋區"
"220034","073-UY","2017/08/12 14:49:48","新北市板橋區中正路48號","121.456465","25.01414","6500100","板橋區"
"220105","075-UY","2017/08/12 14:49:52","新北市板橋區文化路二段650巷19號","121.477925","25.0349666666667","6500100","板橋區"
"220017","AAD-861","2017/08/12 14:49:45","新北市板橋區貴興路104號","121.455506666667","25.00253","6500100","板橋區"
"220045","120-SR","2017/08/12 14:49:48","新北市板橋區文化路二段124巷30號","121.471253333333","25.02551","6500100","板橋區"
"247001","336-TH","2017/08/12 14:49:46","新北市蘆洲區長安街313巷46號","121.455458333333","25.08616","6501400","蘆洲區"
"247013","057-VK","2017/08/12 14:49:40","新北市蘆洲區得勝街118號","121.471075","25.08283","6501400","蘆洲區"
"241031","4501-MT","2017/08/12 14:49:32","新北市平溪區靜安路二段232號","121.723866666667","25.0221966666667","6500200","三重區"
"228005","097-TW","2017/08/12 14:49:50","新北市貢寮區美豐里丹裡街59-1號","121.909558333333","25.0589416666667","6502600","貢寮區"
"228004","212-TW","2017/08/12 14:49:37","新北市貢寮區福隆里裕隆街2號","121.94663","25.0152933333333","6502600","貢寮區"
"208004","AAC-292","2017/08/12 14:49:38","新北市金山區半嶺41號","121.6039","25.2386583333333","6502700","金山區"
"207002","749-BX","2017/08/12 14:49:41","新北市萬里區崁腳里崁腳路73號","121.647628333333","25.1595483333333","6502800","萬里區"
"252005","073-UM","2017/08/12 14:49:39","新北市三芝區埔坪里埔頭坑83號","121.50977","25.2539866666667","6502100","三芝區"
"207001","662-BX","2017/08/12 14:46:23","新北市萬里區雙興里二坪路1號","121.649823333333","25.1791333333333","6502800","萬里區"
"236068","105-UM","2017/08/12 14:49:37","新北市土城區明德路一段398-1號","121.453448333333","24.9792433333333","6501300","土城區"
"236041","107-UM","2017/08/12 14:49:47","新北市土城區裕民路136巷2弄2號","121.451371666667","24.9860166666667","6501300","土城區"
"236075","166-UM","2017/08/12 14:49:49","新北市土城區中央路四段165巷25號","121.416241666667","24.9558533333333","6501300","土城區"
"236029","253-BX","2017/08/12 14:49:34","新北市土城區中央路三段61巷1號","121.439178333333","24.96941","6501300","土城區"
"236025","269-VK","2017/08/12 14:49:40","新北市土城區慶安街82號","121.440656666667","24.9726866666667","6501300","土城區"
"236013","270-VK","2017/08/12 14:49:38","新北市土城區金城路二段356號","121.461793333333","24.98514","6501300","土城區"
"236035","271-VK","2017/08/12 14:49:46","新北市土城區明德路一段195巷3弄3號","121.464258333333","24.978535","6501300","土城區"
"236017","401-BY","2017/08/12 14:49:38","新北市土城區明峰街47號","121.467251666667","24.9863866666667","6501300","土城區"
"236057","912-UM","2017/08/12 14:49:43","新北市土城區中央路三段85號","121.438278333333","24.968305","6501300","土城區"
"236045","913-UM","2017/08/12 14:49:49","新北市土城區青雲路35號","121.460111666667","24.98857","6501300","土城區"
"236061","915-UM","2017/08/12 14:49:41","新北市土城區延壽路13巷5號","121.470835","24.9903233333333","6501300","土城區"
"236054","AAC-216","2017/08/12 14:49:52","新北市土城區裕民路187號","121.453531666667","24.9844116666667","6501300","土城區"
"241031","276-VK","2017/08/12 12:39:33","新北市汐止區中正路190號","121.658881666667","25.0691066666667","6500200","三重區"
"220027","145-BY","2017/08/12 14:49:49","新北市板橋區中正路135巷12-2號","121.455776666667","25.0156316666667","6500100","板橋區"
"220028","200-UY","2017/08/12 14:49:52","新北市板橋區大觀路二段37巷46號","121.448813333333","25.0023583333333","6500100","板橋區"
"220030","610-BX","2017/08/12 14:49:40","新北市板橋區大觀路三段191號","121.431995","24.993685","6500100","板橋區"
"220050","245-BX","2017/08/12 14:49:50","新北市板橋區縣民大道三段103巷6號","121.476173333333","25.022775","6500100","板橋區"
"220052","257-TC","2017/08/12 14:49:42","新北市板橋區陽明街46-5號","121.465473333333","25.0220533333333","6500100","板橋區"
"220043","267-BY","2017/08/12 14:49:50","新北市板橋區新海路454號","121.457835","25.0281183333333","6500100","板橋區"
"220020","277-BY","2017/08/12 14:49:45","新北市板橋區篤行路二段77巷16號","121.432605","24.9917166666667","6500100","板橋區"
"220019","283-VK","2017/08/12 14:49:41","新北市板橋區五權街30巷10號","121.464378333333","24.9933333333333","6500100","板橋區"
"220001","285-VK","2017/08/12 14:49:45","新北市板橋區民享街56號","121.476106666667","25.0150433333333","6500100","板橋區"
"220031","286-VK","2017/08/12 14:49:45","新北市板橋區僑中二街10巷8號","121.44667","25.0110166666667","6500100","板橋區"
"220029","287-VK","2017/08/12 14:49:53","新北市板橋區僑中一街80巷7弄1號","121.447873333333","25.0126983333333","6500100","板橋區"
"220039","288-VK","2017/08/12 14:49:39","新北市板橋區綠堤街25號","121.45595","25.02639","6500100","板橋區"
"220009","293-UM","2017/08/12 14:49:42","新北市板橋區板新路128號","121.470963333333","25.01573","6500100","板橋區"
"220003","295-UM","2017/08/12 14:49:38","新北市板橋區仁愛路76巷3弄1號","121.460566666667","24.9992516666667","6500100","板橋區"
"220032","296-UM","2017/08/12 14:49:48","新北市板橋區溪崑二街90號","121.42689","24.9892083333333","6500100","板橋區"
"220023","297-UM","2017/08/12 14:49:51","新北市板橋區金華街10巷48弄26號","121.457936666667","25.0199766666667","6500100","板橋區"
"220047","299-UM","2017/08/12 14:49:53","新北市板橋區龍泉街55巷36號","121.45792","25.0249","6500100","板橋區"
"220010","303-R5","2017/08/12 14:49:45","新北市板橋區中山路二段318巷20弄46-3號","121.481443333333","25.0188566666667","6500100","板橋區"
"220041","307-R5","2017/08/12 14:49:47","新北市板橋區四維路259巷23號","121.462135","25.0275066666667","6500100","板橋區"
"220012","486-VK","2017/08/12 14:49:36","新北市板橋區實踐路84號","121.46395","25.0052516666667","6500100","板橋區"
"220038","487-VK","2017/08/12 14:49:55","新北市板橋區龍泉街71號","121.456478333333","25.0254683333333","6500100","板橋區"
"220037","491-VK","2017/08/12 14:49:53","新北市板橋區文化路二段445號","121.475243333333","25.0333383333333","6500100","板橋區"
"220104","560-BX","2017/08/12 14:49:48","新北市板橋區新生街87巷17號","121.457005","25.0219516666667","6500100","板橋區"
"220011","609-BX","2017/08/12 14:49:46","新北市板橋區中山路二段424號","121.483746666667","25.02148","6500100","板橋區"
"220040","637-BX","2017/08/12 14:49:44","新北市板橋區懷德街191巷27號","121.480576666667","25.0300366666667","6500100","板橋區"
"220005","686-BX","2017/08/12 14:49:50","新北市板橋區干城路167號","121.461193333333","24.99158","6500100","板橋區"
"220025","687-BX","2017/08/12 14:49:45","新北市板橋區僑中一街102巷3弄15-3號","121.445975","25.0123266666667","6500100","板橋區"
"220042","689-BX","2017/08/12 14:49:42","新北市板橋區長江路二段67號","121.464711666667","25.03154","6500100","板橋區"
"220002","741-BX","2017/08/12 14:49:39","新北市板橋區實踐路93巷57號","121.467176666667","25.0047616666667","6500100","板橋區"
"220014","829-TW","2017/08/12 14:49:50","新北市板橋區中山路一段206巷74號","121.472508333333","25.0134566666667","6500100","板橋區"
"220051","830-TW","2017/08/12 14:49:52","新北市板橋區仁化街42巷5弄1號","121.475445","25.0314966666667","6500100","板橋區"
"220022","895-R6","2017/08/12 14:49:49","新北市板橋區明德街2-2號","121.459741666667","25.00997","6500100","板橋區"
"220021","985-R7","2017/08/12 14:49:44","新北市板橋區南雅西路二段271號","121.451823333333","25.01511","6500100","板橋區"
"220046","AAC-210","2017/08/12 14:49:50","新北市板橋區文化路一段285巷2弄31號","121.463846666667","25.0195783333333","6500100","板橋區"
"220018","AAC-253","2017/08/12 14:49:41","新北市板橋區民族路244號","121.469063333333","25.007265","6500100","板橋區"
