"lineid","car","time","location","longitude","latitude","cityid","cityname"
"248018","225-UY","2017/08/12 15:33:06","新北市五股區中興路二段83巷26-6號","121.46011","25.0752266666667","6501500","五股區"
"231025","0291-UT","2017/08/12 15:49:38","新北市新店區薏仁坑路自強巷1號","121.497643333333","24.9577066666667","6500600","新店區"
"231030","047-UY","2017/08/12 15:49:53","新北市新店區永安街3號","121.516696666667","24.986075","6500600","新店區"
"231018","107-UY","2017/08/12 15:49:49","新北市新店區中正路558號","121.533635","24.98723","6500600","新店區"
"231012","108-UY","2017/08/12 15:49:42","新北市新店區文化路13號","121.543005","24.9793866666667","6500600","新店區"
"231020","187-VK","2017/08/12 15:49:42","新北市新店區新烏路一段73-1號","121.54668","24.9422516666667","6500600","新店區"
"231026","256-BX","2017/08/12 15:49:42","新北市新店區中正路444號","121.534058333333","24.9784833333333","6500600","新店區"
"231034","268-BY","2017/08/12 15:49:46","新北市新店區玫瑰路57巷35號","121.496948333333","24.94642","6500600","新店區"
"231046","278-BY","2017/08/12 14:03:36","新北市新店區安華路28-1號","121.519643333333","24.9611816666667","6500600","新店區"
"231017","AAD-862","2017/08/12 15:49:42","新北市新店區中華路83巷4弄10號","121.538625","24.968475","6500600","新店區"
"231038","4715-K9","2017/08/12 15:49:32","新北市新店區安康路二段242巷4號","121.50895","24.95955","6500600","新店區"
"231035","515-UM","2017/08/12 15:49:34","新北市新店區安興路94號","121.51516","24.9762683333333","6500600","新店區"
"231003","641-BX","2017/08/12 15:49:47","新北市新店區寶興路60巷3號","121.549906666667","24.9718566666667","6500600","新店區"
"231013","719-UM","2017/08/12 15:49:44","新北市新店區永業路81巷5弄1號","121.530211666667","24.9489633333333","6500600","新店區"
"231005","897-TW","2017/08/12 15:49:53","新北市新店區環河路29巷1號","121.536233333333","24.9612616666667","6500600","新店區"
"231037","AKT-0513","2017/08/12 15:49:44","新北市新店區安興路105-1號","121.51465","24.977705","6500600","新店區"
"241011","013-R5","2017/08/12 15:49:37","新北市三重區文化北路246號","121.497443333333","25.0698966666667","6500200","三重區"
"241028","022-UY","2017/08/12 15:49:43","新北市三重區中正南路22號","121.493645","25.0603916666667","6500200","三重區"
"241008","059-VK","2017/08/12 15:49:39","新北市三重區重新路四段121號","121.484923333333","25.051935","6500200","三重區"
"241015","062-VK","2017/08/12 15:49:37","新北市三重區重新路四段121號","121.485421666667","25.0520683333333","6500200","三重區"
"241017","063-VK","2017/08/12 15:49:43","新北市三重區大仁街13號","121.491723333333","25.0643116666667","6500200","三重區"
"241003","091-VK","2017/08/12 15:49:41","新北市三重區福德南路53號","121.503238333333","25.0614366666667","6500200","三重區"
"241006","156-TC","2017/08/12 15:49:43","新北市三重區忠孝路三段52號","121.480716666667","25.0658533333333","6500200","三重區"
"241005","262-UM","2017/08/12 15:49:37","新北市三重區重安街160-1號","121.496118333333","25.0546183333333","6500200","三重區"
"241016","266-UM","2017/08/12 15:49:46","新北市三重區重新路四段121號","121.48519","25.0518716666667","6500200","三重區"
"241022","267-UM","2017/08/12 15:49:53","新北市三重區重新路四段121號","121.484586666667","25.0521433333333","6500200","三重區"
"241018","268-UM","2017/08/12 15:49:39","新北市三重區重新路三段196號","121.490186666667","25.0588533333333","6500200","三重區"
"241013","270-UM","2017/08/12 15:49:33","新北市三重區六張街21號","121.495301666667","25.0706233333333","6500200","三重區"
"241019","478-VK","2017/08/12 15:49:47","新北市三重區中正北路237號","121.475503333333","25.07063","6500200","三重區"
"241014","543-UM","2017/08/12 15:49:35","新北市三重區重新路四段121號","121.484835","25.0515566666667","6500200","三重區"
"241023","545-UM","2017/08/12 15:49:41","新北市三重區忠孝路三段84巷1號","121.480256666667","25.0644633333333","6500200","三重區"
"241001","547-UM","2017/08/12 15:49:50","新北市三重區重新路四段121號","121.484496666667","25.052425","6500200","三重區"
"241029","887-TS","2017/08/12 15:49:47","新北市三重區大同南路242號","121.496836666667","25.0559233333333","6500200","三重區"
"241012","941-UM","2017/08/12 15:49:35","新北市三重區自強路一段40號","121.497818333333","25.0671666666667","6500200","三重區"
"241033","AAC-255","2017/08/12 15:49:37","新北市三重區光復路一段126號","121.47202","25.051945","6500200","三重區"
"235030","003-UY","2017/08/12 15:49:43","新北市新店區薏仁坑路自強巷6號","121.49712","24.958805","6500300","中和區"
"235062","800-TS","2017/08/12 15:49:36","新北市中和區員山路36巷16-3號","121.484776666667","24.9916","6500300","中和區"
"235023","AAC-215","2017/08/12 15:49:51","新北市中和區連城路523巷13弄28號","121.482335","24.9933966666667","6500300","中和區"
"224007","273-VK","2017/08/12 10:17:42","新北市瑞芳區大寮路356-1號","121.784485","25.1034033333333","6501200","瑞芳區"
"227002","642-TC","2017/08/12 15:49:40","新北市雙溪區平林里外平林44號","121.852943333333","25.0362916666667","6502500","雙溪區"
"227010","400-TW","2017/08/12 15:49:51","新北市雙溪區牡丹里中正路56號","121.865705","25.0406616666667","6502500","雙溪區"
"236068","105-UM","2017/08/12 15:49:37","新北市土城區中山路68號","121.4323","24.9702016666667","6501300","土城區"
"236075","166-UM","2017/08/12 15:49:49","新北市土城區金安街99號","121.420075","24.9658233333333","6501300","土城區"
"236029","253-BX","2017/08/12 15:49:54","新北市土城區中央路一段45巷15號","121.44925","24.9900316666667","6501300","土城區"
"236025","269-VK","2017/08/12 15:49:46","新北市土城區中央路一段249巷10弄2-2號","121.445686666667","24.9853733333333","6501300","土城區"
"236013","270-VK","2017/08/12 15:49:38","新北市土城區廣明街61號","121.455025","24.9936366666667","6501300","土城區"
"236017","401-BY","2017/08/12 15:49:50","新北市土城區延吉街27號","121.472403333333","24.988275","6501300","土城區"
"236057","912-UM","2017/08/12 15:49:43","新北市土城區中央路二段41號","121.442803333333","24.97985","6501300","土城區"
"236054","AAC-216","2017/08/12 15:49:32","新北市土城區中華路一段211號","121.442446666667","24.984575","6501300","土城區"
"241031","276-VK","2017/08/12 12:39:33","新北市汐止區中正路190號","121.658881666667","25.0691066666667","6500200","三重區"
"220029","287-VK","2017/08/12 15:49:33","新北市八里區中山路三段372號","121.3688","25.13618","6500100","板橋區"
