"lineid","car","time","location","longitude","latitude","cityid","cityname"
"248018","225-UY","2017/08/12 15:33:06","新北市五股區中興路二段83巷26-6號","121.46011","25.0752266666667","6501500","五股區"
"231025","0291-UT","2017/08/12 15:58:19","新北市新店區安康路二段362號","121.50179","24.9575033333333","6500600","新店區"
"231030","047-UY","2017/08/12 15:59:50","新北市新店區安和路三段77號","121.517566666667","24.983515","6500600","新店區"
"231018","107-UY","2017/08/12 15:59:49","新北市新店區中正路663巷7弄15號","121.53292","24.99012","6500600","新店區"
"231012","108-UY","2017/08/12 15:59:42","新北市新店區溪園路395號","121.52356","24.9774333333333","6500600","新店區"
"231034","268-BY","2017/08/12 15:59:46","新北市新店區吉祥街5巷1號","121.497268333333","24.9478216666667","6500600","新店區"
"231046","278-BY","2017/08/12 14:03:36","新北市新店區安華路28-1號","121.519643333333","24.9611816666667","6500600","新店區"
"231017","AAD-862","2017/08/12 15:59:42","新北市新店區中正路284巷4弄3號","121.538448333333","24.97479","6500600","新店區"
"231038","4715-K9","2017/08/12 15:59:52","新北市新店區安康路二段183巷5號","121.509683333333","24.9588483333333","6500600","新店區"
"231035","515-UM","2017/08/12 15:59:54","新北市新店區安民街300號","121.517743333333","24.9737683333333","6500600","新店區"
"231003","641-BX","2017/08/12 15:59:47","新北市新店區中興路二段196號","121.548516666667","24.9739266666667","6500600","新店區"
"231013","719-UM","2017/08/12 15:59:44","新北市新店區華潭街1巷17號","121.529258333333","24.949285","6500600","新店區"
"231037","AKT-0513","2017/08/12 15:59:44","新北市新店區吉安街14號","121.5167","24.9657566666667","6500600","新店區"
"241011","013-R5","2017/08/12 15:59:38","新北市三重區雙園街1巷7號","121.497236666667","25.0683666666667","6500200","三重區"
"241028","022-UY","2017/08/12 15:59:43","新北市三重區電信街95號","121.495576666667","25.0582833333333","6500200","三重區"
"241008","059-VK","2017/08/12 15:59:39","新北市三重區捷運路36號","121.482846666667","25.0551433333333","6500200","三重區"
"241015","062-VK","2017/08/12 15:59:37","新北市三重區重新路四段121號","121.485201666667","25.0519083333333","6500200","三重區"
"241017","063-VK","2017/08/12 15:59:43","新北市三重區大仁街48巷35號","121.490973333333","25.0644683333333","6500200","三重區"
"241024","065-VK","2017/08/12 15:59:48","新北市三重區中正北路145巷5弄9號","121.484855","25.0673783333333","6500200","三重區"
"241003","091-VK","2017/08/12 15:59:41","新北市三重區自強路五段112號","121.496911666667","25.0835766666667","6500200","三重區"
"241006","156-TC","2017/08/12 15:59:43","新北市三重區永福街58巷3弄20號","121.480668333333","25.0773766666667","6500200","三重區"
"241005","262-UM","2017/08/12 15:59:37","新北市三重區集賢路108號","121.491946666667","25.0896433333333","6500200","三重區"
"241025","265-UM","2017/08/12 15:59:47","新北市三重區三民街188號","121.481781666667","25.0658266666667","6500200","三重區"
"241016","266-UM","2017/08/12 15:59:46","新北市三重區捷運路36號","121.48284","25.05496","6500200","三重區"
"241022","267-UM","2017/08/12 15:59:53","新北市三重區中正北路176巷2號","121.483148333333","25.066475","6500200","三重區"
"241018","268-UM","2017/08/12 15:59:38","新北市三重區中正北路33號","121.491468333333","25.0628066666667","6500200","三重區"
"241013","270-UM","2017/08/12 15:59:33","新北市三重區三和路三段16巷11號","121.496515","25.0701066666667","6500200","三重區"
"241026","271-UM","2017/08/12 15:59:53","新北市三重區重新路三段84號","121.493358333333","25.0607133333333","6500200","三重區"
"241007","398-BY","2017/08/12 15:59:51","新北市三重區忠孝路三段32號","121.481265","25.066775","6500200","三重區"
"241020","412-TH","2017/08/12 15:59:46","新北市三重區忠孝路二段76號","121.484306666667","25.0699433333333","6500200","三重區"
"241019","478-VK","2017/08/12 15:59:53","新北市三重區自強路二段24號","121.489601666667","25.0692166666667","6500200","三重區"
"241014","543-UM","2017/08/12 15:59:35","新北市三重區重新路四段121號","121.484861666667","25.0515766666667","6500200","三重區"
"241023","545-UM","2017/08/12 15:59:41","新北市三重區中正北路174號","121.483928333333","25.0666233333333","6500200","三重區"
"241001","547-UM","2017/08/12 15:59:51","新北市三重區自強路三段99號","121.487745","25.0753433333333","6500200","三重區"
"241029","887-TS","2017/08/12 15:59:47","新北市三重區大同南路212巷22號","121.497426666667","25.0566383333333","6500200","三重區"
"241012","941-UM","2017/08/12 15:59:35","新北市三重區文化北路118巷50號","121.497413333333","25.06618","6500200","三重區"
"241033","AAC-255","2017/08/12 15:59:37","新北市三重區重新路五段479號","121.473255","25.0469483333333","6500200","三重區"
"235030","003-UY","2017/08/12 15:59:43","新北市中和區華新街143巷106弄47號","121.507308333333","24.9781166666667","6500300","中和區"
"235062","800-TS","2017/08/12 15:59:36","新北市中和區員山路36巷16-3號","121.484816666667","24.991745","6500300","中和區"
"241031","7418-A5","2017/08/12 15:53:44","新北市平溪區石底里公園街18-3號","121.733536666667","25.0255933333333","6500200","三重區"
"224007","273-VK","2017/08/12 15:59:46","新北市瑞芳區楓子瀨路76號","121.762761666667","25.09851","6501200","瑞芳區"
"227002","642-TC","2017/08/12 15:59:40","新北市雙溪區平林里外平林61號","121.844736666667","25.03492","6502500","雙溪區"
"227010","400-TW","2017/08/12 15:59:51","新北市雙溪區三港里雙澳路26號","121.869591666667","25.0483383333333","6502500","雙溪區"
"236075","166-UM","2017/08/12 15:59:49","新北市土城區三民路47-1號","121.419846666667","24.96407","6501300","土城區"
"236017","401-BY","2017/08/12 15:59:37","新北市土城區金城路三段17號","121.464928333333","24.986385","6501300","土城區"
"236057","912-UM","2017/08/12 15:59:43","新北市土城區中央路三段67號","121.438761666667","24.969335","6501300","土城區"
"241031","276-VK","2017/08/12 12:39:33","新北市汐止區中正路190號","121.658881666667","25.0691066666667","6500200","三重區"
"220029","287-VK","2017/08/12 15:59:53","新北市林口區汕頭32號","121.366826666667","25.1350683333333","6500100","板橋區"
