"lineid","car","time","location","longitude","latitude","cityid","cityname"
"249005","172-UM","2017/08/12 17:19:41","新北市五股區民義路二段130號","121.407626666667","25.122155","6502300","八里區"
"249001","173-UM","2017/08/12 17:19:35","新北市八里區中華路二段165巷2-1號","121.407623333333","25.150875","6502300","八里區"
"249004","303-UY","2017/08/12 17:19:41","新北市八里區文化街78號","121.421638333333","25.1600833333333","6502300","八里區"
"249002","305-UY","2017/08/12 17:19:37","新北市八里區龍米路二段117巷16號","121.445298333333","25.1430266666667","6502300","八里區"
"249003","593-UM","2017/08/12 17:19:41","新北市八里區商港路80號","121.395416666667","25.1462966666667","6502300","八里區"
"248018","225-UY","2017/08/12 15:33:06","新北市五股區中興路二段83巷26-6號","121.46011","25.0752266666667","6501500","五股區"
"244007","080-UY","2017/08/12 17:19:35","新北市林口區中湖43-18號","121.382368333333","25.091745","6501700","林口區"
"244025","742-UY","2017/08/12 17:19:51","新北市林口區中山路522號","121.378593333333","25.0833083333333","6501700","林口區"
"244009","410-SL","2017/08/12 17:19:43","新北市林口區文化北路二段550巷20弄37號","121.377963333333","25.091325","6501700","林口區"
"244023","657-BX","2017/08/12 17:19:45","新北市林口區仁愛路一段641號","121.38895","25.0766083333333","6501700","林口區"
"244013","658-BX","2017/08/12 17:19:47","新北市林口區粉寮69號","121.404965","25.0909233333333","6501700","林口區"
"244019","837-TS","2017/08/12 17:19:33","新北市林口區公園路223巷24號","121.373356666667","25.0748983333333","6501700","林口區"
"244021","838-TS","2017/08/12 17:19:40","新北市林口區粉寮路二段160巷8號","121.404658333333","25.0933716666667","6501700","林口區"
"231046","278-BY","2017/08/12 17:19:44","新北市新店區直潭路92號","121.530903333333","24.9375833333333","6500600","新店區"
"241011","013-R5","2017/08/12 17:19:42","新北市三重區龍濱路191號","121.501953333333","25.07113","6500200","三重區"
"241028","022-UY","2017/08/12 17:19:43","新北市三重區仁化商場10號","121.493581666667","25.0594033333333","6500200","三重區"
"241008","059-VK","2017/08/12 17:19:39","新北市三重區下竹圍街17號","121.481043333333","25.0757183333333","6500200","三重區"
"241009","060-VK","2017/08/12 17:19:32","新北市三重區仁愛街606號","121.483845","25.080785","6500200","三重區"
"241015","062-VK","2017/08/12 17:19:37","新北市三重區長元街82-1號","121.501815","25.0663316666667","6500200","三重區"
"241017","063-VK","2017/08/12 17:19:43","新北市三重區大同北路79號","121.49499","25.06362","6500200","三重區"
"241024","065-VK","2017/08/12 17:19:48","新北市三重區中正北路191巷1號","121.477426666667","25.0698883333333","6500200","三重區"
"241002","090-VK","2017/08/12 17:19:38","新北市三重區仁愛街355號","121.491913333333","25.0801266666667","6500200","三重區"
"241003","091-VK","2017/08/12 17:19:41","新北市三重區富福街48號","121.491565","25.0842566666667","6500200","三重區"
"241006","156-TC","2017/08/12 17:19:43","新北市三重區車路頭街135-1號","121.484286666667","25.0758583333333","6500200","三重區"
"241005","262-UM","2017/08/12 17:19:37","新北市三重區永安北路二段25巷60號","121.483488333333","25.0820566666667","6500200","三重區"
"241025","265-UM","2017/08/12 17:19:47","新北市三重區中正北路253號","121.475415","25.0707833333333","6500200","三重區"
"241016","266-UM","2017/08/12 17:19:46","新北市三重區重新路三段82號","121.493111666667","25.0610316666667","6500200","三重區"
"241022","267-UM","2017/08/12 17:19:33","新北市三重區中正北路64巷24號","121.486153333333","25.0635116666667","6500200","三重區"
"241018","268-UM","2017/08/12 17:19:38","新北市三重區安慶街144號","121.494373333333","25.06869","6500200","三重區"
"241032","269-UM","2017/08/12 17:19:45","新北市三重區中華路2巷11號","121.482791666667","25.0604666666667","6500200","三重區"
"241013","270-UM","2017/08/12 17:19:32","新北市三重區仁愛街88號","121.495565","25.073885","6500200","三重區"
"241026","271-UM","2017/08/12 17:19:53","新北市三重區福裕街47號","121.49881","25.0616283333333","6500200","三重區"
"241007","398-BY","2017/08/12 17:19:51","新北市三重區三和路四段143-1號","121.484471666667","25.07828","6500200","三重區"
"241020","412-TH","2017/08/12 17:19:46","新北市三重區自強路三段7巷38號","121.488216666667","25.072335","6500200","三重區"
"241004","475-VK","2017/08/12 17:19:32","新北市三重區仁愛街425巷58號","121.49158","25.0824916666667","6500200","三重區"
"241019","478-VK","2017/08/12 17:19:47","新北市三重區自強路二段100號","121.487386666667","25.0712833333333","6500200","三重區"
"241030","480-VK","2017/08/12 17:19:53","新北市三重區成功路73巷12號","121.489371666667","25.0518016666667","6500200","三重區"
"241014","543-UM","2017/08/12 17:19:35","新北市三重區三和路二段83號","121.500135","25.0684416666667","6500200","三重區"
"241023","545-UM","2017/08/12 17:19:41","新北市三重區三民街148號","121.482516666667","25.0652983333333","6500200","三重區"
"241029","887-TS","2017/08/12 17:19:47","新北市三重區重陽路一段113巷7號","121.487703333333","25.059665","6500200","三重區"
"241012","941-UM","2017/08/12 17:19:34","新北市三重區仁興街31巷39號","121.500255","25.0753983333333","6500200","三重區"
"241033","AAC-255","2017/08/12 17:19:37","新北市三重區中興北街136巷27號","121.467943333333","25.05598","6500200","三重區"
"235062","800-TS","2017/08/12 16:14:47","新北市中和區員山路36巷16-3號","121.484831666667","24.99168","6500300","中和區"
"247020","893-R6","2017/08/12 17:19:48","新北市蘆洲區仁愛街57號","121.471836666667","25.0932866666667","6501400","蘆洲區"
"247010","546-UM","2017/08/12 17:19:46","新北市蘆洲區中山一路122巷52號","121.476621666667","25.0827666666667","6501400","蘆洲區"
"247018","500-BY","2017/08/12 17:19:32","新北市蘆洲區民權路82巷5弄5號","121.474876666667","25.0882866666667","6501400","蘆洲區"
"247008","339-TH","2017/08/12 17:19:43","新北市三重區永安北路一段47號","121.476741666667","25.0763416666667","6501400","蘆洲區"
"247024","337-TH","2017/08/12 17:19:53","新北市蘆洲區長榮路428號","121.459455","25.0883433333333","6501400","蘆洲區"
"247002","336-TH","2017/08/12 17:19:38","新北市蘆洲區永樂街38巷45弄12號","121.457715","25.0901166666667","6501400","蘆洲區"
"247006","335-TH","2017/08/12 17:19:38","新北市蘆洲區長安街73巷25號","121.461963333333","25.0793233333333","6501400","蘆洲區"
"247014","057-VK","2017/08/12 17:19:53","新北市蘆洲區忠孝路8號","121.470461666667","25.0838816666667","6501400","蘆洲區"
"247004","056-VK","2017/08/12 17:19:45","新北市蘆洲區中原路11號","121.460996666667","25.0831683333333","6501400","蘆洲區"
"247022","053-VK","2017/08/12 17:19:47","新北市蘆洲區民族路500號","121.469633333333","25.090415","6501400","蘆洲區"
"247012","007-UY","2017/08/12 17:19:47","新北市蘆洲區信義路319巷4號","121.477963333333","25.0863466666667","6501400","蘆洲區"
"247016","001-UY","2017/08/12 17:19:46","新北市蘆洲區中正路185巷30號","121.46784","25.08519","6501400","蘆洲區"
"241031","7418-A5","2017/08/12 15:53:44","新北市平溪區石底里公園街18-3號","121.733536666667","25.0255933333333","6500200","三重區"
"228003","097-TW","2017/08/12 17:19:45","新北市貢寮區福隆里興隆街16號","121.94499","25.0167433333333","6502600","貢寮區"
"228001","212-TW","2017/08/12 17:19:39","新北市貢寮區仁理村尖山腳街18-3號","121.925395","25.0482883333333","6502600","貢寮區"
"228002","585-TW","2017/08/12 17:19:50","新北市貢寮區雙玉里田寮洋街43號","121.926016666667","25.0127716666667","6502600","貢寮區"
"224010","AGQ-8101","2017/08/12 08:56:24","新北市瑞芳區明燈路二段44-1號","121.809535","25.10822","6501200","瑞芳區"
"224006","676-BX","2017/08/12 17:19:43","新北市瑞芳區大寮路29號","121.782421666667","25.0986883333333","6501200","瑞芳區"
"241031","285-BY","2017/08/12 17:19:38","新北市瑞芳區石崁巷49號","121.837775","25.1095466666667","6500200","三重區"
"224008","275-VK","2017/08/12 17:19:52","新北市瑞芳區侯硐路260號","121.830676666667","25.0891266666667","6501200","瑞芳區"
"224005","271-BY","2017/08/12 17:19:48","新北市瑞芳區鼻頭路245-1號","121.913178333333","25.1242466666667","6501200","瑞芳區"
"227002","642-TC","2017/08/12 17:19:40","新北市雙溪區上林里內平林90號","121.827556666667","25.0274733333333","6502500","雙溪區"
"227010","400-TW","2017/08/12 17:19:51","新北市雙溪區三貂里十三層17-3號","121.853523333333","25.0789966666667","6502500","雙溪區"
"251004","009-UM","2017/08/12 17:19:55","新北市淡水區中正東路二段88巷15號","121.459203333333","25.15054","6501000","淡水區"
"251002","012-UM","2017/08/12 17:19:48","新北市淡水區中正路二段31號","121.419406666667","25.1814983333333","6501000","淡水區"
"251014","180-VK","2017/08/12 17:19:42","新北市淡水區公埔子45號","121.463978333333","25.230165","6501000","淡水區"
"251008","181-VK","2017/08/12 17:19:48","新北市淡水區大同路263號","121.466896666667","25.14211","6501000","淡水區"
"251010","413-VK","2017/08/12 17:19:45","新北市淡水區新市一路一段6號","121.429066666667","25.187515","6501000","淡水區"
"251012","441-VK","2017/08/12 17:19:37","新北市淡水區中山北路一段156號","121.444193333333","25.1779133333333","6501000","淡水區"
"251016","442-VK","2017/08/12 17:19:51","新北市淡水區鄒厝崙12-1號","121.465711666667","25.1900566666667","6501000","淡水區"
"251005","443-VK","2017/08/12 17:19:45","新北市淡水區鄧公路19-1號","121.450258333333","25.169965","6501000","淡水區"
"251006","561-UM","2017/08/12 17:19:50","新北市淡水區大智街10號","121.441658333333","25.1745916666667","6501000","淡水區"
"251009","575-R6","2017/08/12 17:19:39","新北市淡水區三民街20號","121.439011666667","25.17175","6501000","淡水區"
"251007","577-R6","2017/08/12 17:19:34","新北市淡水區民生路47-4號","121.462031666667","25.13802","6501000","淡水區"
"251011","650-BX","2017/08/12 17:19:44","新北市淡水區坪頂路135號","121.465971666667","25.1614216666667","6501000","淡水區"
"251003","673-BX","2017/08/12 17:19:27","新北市淡水區文化路61號","121.43833","25.1728616666667","6501000","淡水區"
"207003","550-UM","2017/08/12 17:19:46","新北市萬里區龜吼里美崙路53-1號","121.687508333333","25.183595","6502800","萬里區"
"252002","178-VK","2017/08/12 17:19:39","新北市三芝區忠孝街1-15號","121.505608333333","25.2539683333333","6502100","三芝區"
"252001","292-VK","2017/08/12 17:18:04","新北市三芝區中興街一段2號","121.497466666667","25.2596683333333","6502100","三芝區"
"242021","AAC-296","2017/08/12 17:19:44","新北市新莊區中港一街140號","121.44793","25.0452333333333","6500500","新莊區"
"242029","986-R7","2017/08/12 17:19:54","新北市新莊區幸福路848號","121.444361666667","25.0490316666667","6500500","新莊區"
"242048","751-BX","2017/08/12 17:19:54","新北市新莊區裕民街85巷17號","121.419608333333","25.023545","6500500","新莊區"
"242025","615-BX","2017/08/12 17:19:52","新北市新莊區中和街50號","121.448111666667","25.0444783333333","6500500","新莊區"
"242023","613-BX","2017/08/12 17:19:40","新北市新莊區新泰路488號","121.442641666667","25.0459183333333","6500500","新莊區"
"242027","612-BX","2017/08/12 17:19:43","新北市新莊區復興路一段117號","121.449466666667","25.0430716666667","6500500","新莊區"
"242036","566-BX","2017/08/12 17:19:42","新北市新莊區新樹路40號","121.437668333333","25.0280033333333","6500500","新莊區"
"242042","497-BY","2017/08/12 17:19:52","新北市新莊區新樹路69號","121.4389","25.0300566666667","6500500","新莊區"
"242004","442-UM","2017/08/12 17:19:37","新北市新莊區中港一街161號","121.447405","25.044975","6500500","新莊區"
"242046","441-UM","2017/08/12 17:19:44","新北市新莊區新樹路69號","121.438933333333","25.0300633333333","6500500","新莊區"
"242051","440-UM","2017/08/12 17:19:34","新北市新莊區瓊林南路59-8號","121.435433333333","25.0163316666667","6500500","新莊區"
"242031","415-TV","2017/08/12 17:19:43","新北市新莊區新泰路476巷12號","121.443646666667","25.04543","6500500","新莊區"
"242002","413-TV","2017/08/12 17:19:38","新北市新莊區新泰路415-1號","121.442223333333","25.0444616666667","6500500","新莊區"
"242039","400-BY","2017/08/12 17:19:44","新北市新莊區新樹路215號","121.435535","25.0233016666667","6500500","新莊區"
"242061","362-BY","2017/08/12 17:19:46","新北市泰山區磚雅厝3號","121.442156666667","25.0416533333333","6500500","新莊區"
"242058","353-BY","2017/08/12 17:19:28","新北市泰山區磚雅厝6號","121.442286666667","25.0422883333333","6500500","新莊區"
"242015","132-UY","2017/08/12 17:19:40","新北市新莊區新泰路255巷35號","121.44473","25.03953","6500500","新莊區"
"242019","135-UY","2017/08/12 17:19:42","新北市新莊區新泰路119號","121.448438333333","25.0358833333333","6500500","新莊區"
"242044","172-VK","2017/08/12 17:19:51","新北市新莊區富國路101-1號","121.421366666667","25.0255133333333","6500500","新莊區"
"242007","173-VK","2017/08/12 17:19:38","新北市泰山區磚雅厝3號","121.442361666667","25.0419083333333","6500500","新莊區"
"242013","175-VK","2017/08/12 17:19:53","新北市新莊區新泰路401巷29-1號","121.442335","25.0439016666667","6500500","新莊區"
"242056","176-VK","2017/08/12 17:19:43","新北市新莊區新莊路763巷2號","121.44244","25.032445","6500500","新莊區"
"242011","346-TH","2017/08/12 17:19:45","新北市新莊區新泰路502巷16號","121.442916666667","25.046435","6500500","新莊區"
"242034","347-TH","2017/08/12 17:19:32","新北市新莊區瓊林路46-2號","121.447376666667","25.0294133333333","6500500","新莊區"
"242017","348-TH","2017/08/12 17:19:47","新北市新莊區復興路一段212號","121.452898333333","25.0439033333333","6500500","新莊區"
"242053","349-TH","2017/08/12 17:19:43","新北市新莊區瓊林路108號","121.442271666667","25.026225","6500500","新莊區"
"242009","351-TH","2017/08/12 17:19:40","新北市新莊區中平路441號","121.444128333333","25.0557683333333","6500500","新莊區"
"238015","755-BX","2017/08/12 17:19:45","新北市樹林區大安路267號","121.418995","24.9938366666667","6500700","樹林區"
"238023","601-UM","2017/08/12 17:19:46","新北市樹林區保安街二段179-1號","121.415211666667","25.0031466666667","6500700","樹林區"
"238019","599-UM","2017/08/12 17:19:38","新北市樹林區八德街295號","121.422696666667","24.97889","6500700","樹林區"
"238018","571-TV","2017/08/12 17:19:45","新北市樹林區中華路1-6號","121.425656666667","24.9844533333333","6500700","樹林區"
"238024","5061-A6","2017/08/12 17:19:37","新北市樹林區博愛一街29巷68號","121.425866666667","24.99156","6500700","樹林區"
"238022","312-TH","2017/08/12 17:19:51","新北市樹林區和平街51號","121.42389","24.9822083333333","6500700","樹林區"
"238021","311-TH","2017/08/12 17:19:44","新北市樹林區西圳街一段165巷20弄28號","121.395601666667","24.9601483333333","6500700","樹林區"
"238025","303-VK","2017/08/12 17:19:54","新北市樹林區中山路一段296號","121.4203","24.9863316666667","6500700","樹林區"
"238017","283-BY","2017/08/12 17:19:40","新北市樹林區保安二街二段6號","121.416036666667","25.0008416666667","6500700","樹林區"
"238014","282-BY","2017/08/12 17:19:46","新北市樹林區大安路325號","121.417291666667","24.99162","6500700","樹林區"
"238020","268-VK","2017/08/12 17:19:49","新北市樹林區大安路123號","121.42229","24.99757","6500700","樹林區"
"238026","172-UY","2017/08/12 17:19:51","新北市樹林區東豐街97號","121.4079","24.9745716666667","6500700","樹林區"
"238016","169-UY","2017/08/12 17:19:35","新北市樹林區中山路二段157號","121.406245","24.978885","6500700","樹林區"
"239007","AAC-297","2017/08/12 17:19:50","新北市鶯歌區中正一路60號","121.352391666667","24.9539316666667","6500800","鶯歌區"
"239006","891-R6","2017/08/12 17:19:44","新北市鶯歌區鶯桃路320號","121.33401","24.96189","6500800","鶯歌區"
"239008","527-UM","2017/08/12 17:19:44","新北市鶯歌區西湖街279巷23號","121.340996666667","24.96776","6500800","鶯歌區"
"239005","526-UM","2017/08/12 17:19:45","新北市鶯歌區福德二街6號","121.33015","24.967535","6500800","鶯歌區"
"239001","417-VK","2017/08/12 17:19:48","新北市鶯歌區尖山路140巷39號","121.346026666667","24.949385","6500800","鶯歌區"
"239003","360-BY","2017/08/12 17:19:39","新北市鶯歌區德昌街179號","121.331373333333","24.9606183333333","6500800","鶯歌區"
"239002","359-BY","2017/08/12 17:19:53","新北市鶯歌區南雅路33巷6弄13號","121.348361666667","24.9543433333333","6500800","鶯歌區"
"239004","193-VK","2017/08/12 17:19:35","新北市鶯歌區文化路417-17號","121.353716666667","24.9494433333333","6500800","鶯歌區"
"241031","276-VK","2017/08/12 12:39:33","新北市汐止區中正路190號","121.658881666667","25.0691066666667","6500200","三重區"
"220039","288-VK","2017/08/12 16:11:17","新北市板橋區民生路二段161巷5號","121.470216666667","25.019735","6500100","板橋區"
