"lineid","car","time","location","longitude","latitude","cityid","cityname"
"234026","9371-KE","2017/08/12 17:49:43","新北市永和區和平街109巷6號","121.510776666667","25.0096366666667","6500400","永和區"
"234010","9373-KE","2017/08/12 17:48:58","新北市永和區福和路1號","121.525775","25.00949","6500400","永和區"
"249005","172-UM","2017/08/12 17:49:41","新北市八里區荖阡坑路26-12號","121.401476666667","25.1372433333333","6502300","八里區"
"249001","173-UM","2017/08/12 17:49:55","新北市八里區龍米路二段129巷1號","121.445965","25.1465316666667","6502300","八里區"
"249004","303-UY","2017/08/12 17:49:42","新北市八里區中華路一段79巷9號","121.421005","25.1564216666667","6502300","八里區"
"249002","305-UY","2017/08/12 17:49:37","新北市八里區龍形五街35-1號","121.449238333333","25.1329283333333","6502300","八里區"
"249003","593-UM","2017/08/12 17:49:41","新北市八里區中山路二段212號","121.405353333333","25.1518616666667","6502300","八里區"
"248006","077-UY","2017/08/12 17:49:49","新北市五股區中興路二段83巷26-6號","121.460083333333","25.0750566666667","6501500","五股區"
"248018","225-UY","2017/08/12 17:49:43","新北市五股區中興路二段83巷26-6號","121.460015","25.0751966666667","6501500","五股區"
"232011","375-UM","2017/08/12 17:49:39","新北市坪林區北宜路八段138號","121.706625","24.9345216666667","6502000","坪林區"
"244007","080-UY","2017/08/12 17:49:35","新北市林口區佳林路11號","121.387025","25.0823483333333","6501700","林口區"
"244025","742-UY","2017/08/12 17:49:51","新北市林口區忠孝三路42號","121.360158333333","25.0700516666667","6501700","林口區"
"244009","410-SL","2017/08/12 17:49:43","新北市林口區中北三街402號","121.384203333333","25.0859883333333","6501700","林口區"
"244009","656-BX","2017/08/12 17:49:44","新北市林口區忠孝路377號","121.369351666667","25.07156","6501700","林口區"
"244023","657-BX","2017/08/12 17:49:45","新北市林口區興林路318巷13號","121.388168333333","25.070445","6501700","林口區"
"244013","658-BX","2017/08/12 17:49:47","新北市林口區中正路505巷5號","121.38336","25.0772166666667","6501700","林口區"
"244011","701-TV","2017/08/12 17:49:51","新北市林口區中興街11號","121.388898333333","25.077335","6501700","林口區"
"244019","837-TS","2017/08/12 17:49:33","新北市林口區忠孝路512巷25號","121.371066666667","25.0683133333333","6501700","林口區"
"244021","838-TS","2017/08/12 17:49:40","新北市林口區仁愛路一段139巷7號","121.398766666667","25.0714683333333","6501700","林口區"
"243013","AAD-798","2017/08/12 17:49:48","新北市泰山區大科路45-16號","121.404221666667","25.0548233333333","6501600","泰山區"
"243011","549-UM","2017/08/12 17:49:39","新北市泰山區泰林路三段17巷1號","121.420216666667","25.0639733333333","6501600","泰山區"
"222003","436-BY","2017/08/12 17:49:46","新北市深坑區阿柔洋60-1號","121.60856","24.9985033333333","6501800","深坑區"
"222002","659-BX","2017/08/12 17:49:44","新北市深坑區平埔街22巷8號","121.614998333333","25.0008266666667","6501800","深坑區"
"231046","278-BY","2017/08/12 17:49:44","新北市新店區下石厝路21號","121.53255","24.9274566666667","6500600","新店區"
"241024","065-VK","2017/08/12 17:49:48","新北市三重區車路頭街70號","121.484248333333","25.0729133333333","6500200","三重區"
"241016","266-UM","2017/08/12 17:49:46","新北市三重區重新路三段52-2號","121.493946666667","25.06132","6500200","三重區"
"241013","270-UM","2017/08/12 17:49:52","新北市三重區仁福街64巷38號","121.49736","25.07599","6500200","三重區"
"241033","AAC-255","2017/08/12 17:49:37","新北市三重區重新路五段535號","121.471058333333","25.0460266666667","6500200","三重區"
"235061","378-QA","2017/08/12 17:26:52","新北市中和區和城路一段271巷1號","121.485541666667","24.9920633333333","6500300","中和區"
"235062","800-TS","2017/08/12 17:49:39","新北市中和區員山路36巷16-3號","121.484811666667","24.9918983333333","6500300","中和區"
"247020","893-R6","2017/08/12 17:49:48","新北市蘆洲區民權路131巷10號","121.471355","25.0899883333333","6501400","蘆洲區"
"247010","546-UM","2017/08/12 17:49:46","新北市蘆洲區民族路31號","121.47752","25.0849583333333","6501400","蘆洲區"
"247018","500-BY","2017/08/12 17:49:52","新北市蘆洲區復興路227巷2弄9號","121.48039","25.0902633333333","6501400","蘆洲區"
"247008","339-TH","2017/08/12 17:49:53","新北市蘆洲區成功路27號","121.473215","25.0795016666667","6501400","蘆洲區"
"247024","337-TH","2017/08/12 17:49:53","新北市蘆洲區光榮路50號","121.461256666667","25.0883383333333","6501400","蘆洲區"
"247002","336-TH","2017/08/12 17:49:47","新北市蘆洲區永平街32巷35號","121.459385","25.0921116666667","6501400","蘆洲區"
"247006","335-TH","2017/08/12 17:49:38","新北市蘆洲區九芎街113號","121.465591666667","25.0795683333333","6501400","蘆洲區"
"247022","053-VK","2017/08/12 17:49:46","新北市蘆洲區中正路418號","121.462896666667","25.0938366666667","6501400","蘆洲區"
"247012","007-UY","2017/08/12 17:49:47","新北市蘆洲區信義路302巷21號","121.478138333333","25.08845","6501400","蘆洲區"
"247016","001-UY","2017/08/12 17:49:46","新北市蘆洲區中正路185巷68弄1號","121.46658","25.0845383333333","6501400","蘆洲區"
"241031","7418-A5","2017/08/12 15:53:44","新北市平溪區石底里公園街18-3號","121.733536666667","25.0255933333333","6500200","三重區"
"228003","097-TW","2017/08/12 17:49:45","新北市貢寮區真理里美艷山街6-2號","121.928915","25.0607183333333","6502600","貢寮區"
"228001","212-TW","2017/08/12 17:49:39","新北市貢寮區仁理村仁愛路95-1號","121.92767","25.0554966666667","6502600","貢寮區"
"228002","585-TW","2017/08/12 17:49:50","新北市貢寮區福隆里龜壽谷街13號","121.956958333333","25.005575","6502600","貢寮區"
"224006","676-BX","2017/08/12 17:49:35","新北市瑞芳區瑞興新村12巷1號","121.788428333333","25.1083","6501200","瑞芳區"
"224002","639-TC","2017/08/12 17:49:34","新北市瑞芳區明燈路二段48-1號","121.809595","25.108015","6501200","瑞芳區"
"241031","285-BY","2017/08/12 17:49:38","新北市瑞芳區山尖路215-1號","121.848888333333","25.1123833333333","6500200","三重區"
"224008","275-VK","2017/08/12 17:49:39","新北市瑞芳區明燈路一段48號","121.820225","25.1070116666667","6501200","瑞芳區"
"224005","271-BY","2017/08/12 17:49:48","新北市瑞芳區瑞芳街32-9號","121.822761666667","25.12101","6501200","瑞芳區"
"227010","400-TW","2017/08/12 17:49:51","新北市雙溪區三貂里定福路1-2號","121.85071","25.06339","6502500","雙溪區"
"253006","032-BX","2017/08/12 17:49:43","新北市石門區中山路64-1號","121.567448333333","25.2904633333333","6502200","石門區"
"208002","742-BX","2017/08/12 17:49:49","新北市金山區磺清路135號","121.639413333333","25.227685","6502700","金山區"
"208003","665-BX","2017/08/12 17:49:54","新北市金山區磺清路135號","121.639441666667","25.227695","6502700","金山區"
"208001","761-BX","2017/08/12 17:49:46","新北市金山區磺清路135號","121.639375","25.2276783333333","6502700","金山區"
"251004","009-UM","2017/08/12 17:49:35","新北市淡水區民權一街29號","121.459176666667","25.1362866666667","6501000","淡水區"
"251002","012-UM","2017/08/12 17:49:51","新北市淡水區中山路104號","121.442366666667","25.1707366666667","6501000","淡水區"
"251014","180-VK","2017/08/12 17:49:42","新北市淡水區公埔子16-6號","121.481006666667","25.2245533333333","6501000","淡水區"
"251008","181-VK","2017/08/12 17:49:48","新北市淡水區八勢路一段155號","121.46778","25.1564516666667","6501000","淡水區"
"251010","413-VK","2017/08/12 17:49:45","新北市淡水區中正路二段54號","121.418646666667","25.1843566666667","6501000","淡水區"
"251012","441-VK","2017/08/12 17:49:37","新北市淡水區北新路二段13號","121.475921666667","25.185565","6501000","淡水區"
"251016","442-VK","2017/08/12 17:49:43","新北市淡水區埤島39-15號","121.45274","25.1958716666667","6501000","淡水區"
"251005","443-VK","2017/08/12 17:49:45","新北市淡水區學府路100巷1號","121.450253333333","25.1717566666667","6501000","淡水區"
"251001","559-UM","2017/08/12 17:49:37","新北市淡水區民權路92巷35-1號","121.462195","25.1267216666667","6501000","淡水區"
"251006","561-UM","2017/08/12 17:49:50","新北市淡水區新生街51巷32號","121.44093","25.1758683333333","6501000","淡水區"
"251009","575-R6","2017/08/12 17:49:39","新北市淡水區長興街43-1號","121.444145","25.17151","6501000","淡水區"
"251011","650-BX","2017/08/12 17:49:24","新北市淡水區吳(仔)厝70號","121.479575","25.149615","6501000","淡水區"
"251003","673-BX","2017/08/12 17:49:47","新北市淡水區大忠街19號","121.44371","25.176005","6501000","淡水區"
"207003","550-UM","2017/08/12 17:49:46","新北市萬里區野柳里東澳路55號","121.692033333333","25.2032466666667","6502800","萬里區"
"207004","225-TW","2017/08/12 17:49:34","新北市萬里區萬里里瑪鋉頂街61號","121.688401666667","25.1804883333333","6502800","萬里區"
"252002","178-VK","2017/08/12 17:49:38","新北市三芝區中正路二段1號","121.504823333333","25.2558583333333","6502100","三芝區"
"252001","292-VK","2017/08/12 17:49:44","新北市三芝區中山路一段8號","121.500593333333","25.2587","6502100","三芝區"
"237004","078-UY","2017/08/12 17:49:35","新北市三峽區中山路269號","121.362186666667","24.9374416666667","6500900","三峽區"
"237009","210-TH","2017/08/12 17:49:35","新北市三峽區大勇路15號","121.36721","24.9368","6500900","三峽區"
"237013","252-BX","2017/08/12 17:49:51","新北市三峽區愛國路33-8號","121.374483333333","24.9332183333333","6500900","三峽區"
"237012","275-BY","2017/08/12 17:49:49","新北市三峽區文化路39號","121.372685","24.9361116666667","6500900","三峽區"
"237008","302-VK","2017/08/12 17:49:41","新北市三峽區中園街175號","121.367103333333","24.921655","6500900","三峽區"
"237006","5529-G3","2017/08/12 17:49:42","新北市三峽區介壽路二段136巷106弄16號","121.391846666667","24.9333366666667","6500900","三峽區"
"237011","572-TV","2017/08/12 17:49:42","新北市三峽區大同路41號","121.376393333333","24.928105","6500900","三峽區"
"237016","649-BX","2017/08/12 17:49:37","新北市三峽區中園街237-1號","121.36679","24.91947","6500900","三峽區"
"237010","706-TV","2017/08/12 17:49:43","新北市三峽區中山路93號","121.366283333333","24.93545","6500900","三峽區"
"237005","AKY-6261","2017/08/12 17:49:37","新北市三峽區中山路459巷52-1號","121.356501666667","24.9361","6500900","三峽區"
"236079","166-UM","2017/08/12 17:49:34","新北市土城區中央路三段141號","121.433465","24.9654816666667","6501300","土城區"
"236015","270-VK","2017/08/12 17:49:39","新北市土城區城林路6巷80號","121.438543333333","24.9795416666667","6501300","土城區"
"236038","271-VK","2017/08/12 17:49:50","新北市土城區中華路二段2號","121.43944","24.9795816666667","6501300","土城區"
"236059","912-UM","2017/08/12 17:49:43","新北市土城區城林路6巷80號","121.438538333333","24.9795583333333","6501300","土城區"
"236049","913-UM","2017/08/12 17:49:53","新北市土城區中央路二段274號","121.441118333333","24.9741466666667","6501300","土城區"
"242021","AAC-296","2017/08/12 17:49:44","新北市新莊區中港路134號","121.455236666667","25.0407433333333","6500500","新莊區"
"242029","986-R7","2017/08/12 17:49:35","新北市新莊區復興路一段89號","121.448703333333","25.0427366666667","6500500","新莊區"
"242048","751-BX","2017/08/12 17:49:34","新北市新莊區萬安街58號","121.421046666667","25.0235283333333","6500500","新莊區"
"242025","615-BX","2017/08/12 17:49:52","新北市三重區新北大道二段25號","121.471478333333","25.061255","6500500","新莊區"
"242023","613-BX","2017/08/12 17:49:40","新北市新莊區福樂街76號","121.457746666667","25.046705","6500500","新莊區"
"242027","612-BX","2017/08/12 17:49:43","新北市新莊區福壽街171號","121.457941666667","25.0538033333333","6500500","新莊區"
"242036","566-BX","2017/08/12 17:49:47","新北市新莊區後港一路82號","121.427211666667","25.0265983333333","6500500","新莊區"
"242042","497-BY","2017/08/12 17:49:52","新北市新莊區中正路612-1號","121.426173333333","25.03022","6500500","新莊區"
"242004","442-UM","2017/08/12 17:49:43","新北市新莊區自立街249號","121.458746666667","25.0455433333333","6500500","新莊區"
"242046","441-UM","2017/08/12 17:49:44","新北市新莊區福營路143號","121.43248","25.0316216666667","6500500","新莊區"
"242051","440-UM","2017/08/12 17:49:35","新北市新莊區西盛街269巷19號","121.428795","25.0155933333333","6500500","新莊區"
"242031","415-TV","2017/08/12 17:49:43","新北市新莊區新泰路357巷1弄43號","121.442723333333","25.0398933333333","6500500","新莊區"
"242002","413-TV","2017/08/12 17:49:51","新北市新莊區景德路168號","121.45047","25.0341","6500500","新莊區"
"242039","400-BY","2017/08/12 17:49:44","新北市新莊區民安路160號","121.424803333333","25.0246183333333","6500500","新莊區"
"242061","362-BY","2017/08/12 17:49:46","新北市新莊區新樹路601號","121.433103333333","25.0058566666667","6500500","新莊區"
"242058","353-BY","2017/08/12 17:49:48","新北市新莊區中山路三段627號","121.413923333333","25.0237416666667","6500500","新莊區"
"242015","132-UY","2017/08/12 17:49:40","新北市新莊區新泰路462號","121.44325","25.04487","6500500","新莊區"
"242019","135-UY","2017/08/12 17:49:42","新北市新莊區民樂街53號","121.457903333333","25.041395","6500500","新莊區"
"242044","172-VK","2017/08/12 17:49:51","新北市新莊區中正路857號","121.419585","25.0280433333333","6500500","新莊區"
"242007","173-VK","2017/08/12 17:49:38","新北市新莊區福樂街104號","121.457511666667","25.047695","6500500","新莊區"
"242013","175-VK","2017/08/12 17:49:53","新北市新莊區中誠街164號","121.448183333333","25.0474066666667","6500500","新莊區"
"242056","176-VK","2017/08/12 17:49:42","新北市新莊區瓊林路40巷29號","121.446646666667","25.03017","6500500","新莊區"
"242011","346-TH","2017/08/12 17:49:45","新北市新莊區中港路697號","121.450715","25.0568183333333","6500500","新莊區"
"242034","347-TH","2017/08/12 17:49:51","新北市新莊區新莊路664-1號","121.44223","25.0326933333333","6500500","新莊區"
"242017","348-TH","2017/08/12 17:49:47","新北市新莊區永安街91號","121.450628333333","25.044595","6500500","新莊區"
"242053","349-TH","2017/08/12 17:49:43","新北市新莊區民安西路468-1號","121.431585","25.007785","6500500","新莊區"
"242009","351-TH","2017/08/12 17:49:48","新北市新莊區昌平街28號","121.454836666667","25.0529433333333","6500500","新莊區"
"238015","755-BX","2017/08/12 17:49:45","新北市樹林區長壽街25巷1弄3號","121.420436666667","24.994605","6500700","樹林區"
"238023","601-UM","2017/08/12 17:49:46","新北市樹林區福興街3巷19號","121.404758333333","25.0167666666667","6500700","樹林區"
"238019","599-UM","2017/08/12 17:49:39","新北市樹林區太平路120號","121.418593333333","24.9784716666667","6500700","樹林區"
"238018","571-TV","2017/08/12 17:49:55","新北市樹林區保安街一段22號","121.427423333333","24.9934116666667","6500700","樹林區"
"238024","5061-A6","2017/08/12 17:49:37","新北市樹林區育德街78-1號","121.387765","24.9681566666667","6500700","樹林區"
"238022","312-TH","2017/08/12 17:49:48","新北市樹林區太順街64號","121.417831666667","24.9793233333333","6500700","樹林區"
"238021","311-TH","2017/08/12 17:49:44","新北市樹林區柑園街一段253巷9號","121.396028333333","24.9557483333333","6500700","樹林區"
"238025","303-VK","2017/08/12 17:49:34","新北市樹林區三俊街54號","121.412608333333","25.0155716666667","6500700","樹林區"
"238017","283-BY","2017/08/12 17:49:40","新北市樹林區三德街45號","121.416085","25.0137816666667","6500700","樹林區"
"238014","282-BY","2017/08/12 17:49:46","新北市樹林區保安街一段293號","121.417948333333","24.9971883333333","6500700","樹林區"
"238020","268-VK","2017/08/12 17:49:49","新北市樹林區三俊街219號","121.421226666667","25.0150566666667","6500700","樹林區"
"238026","172-UY","2017/08/12 17:47:31","新北市樹林區新興街19巷8號","121.40062","24.9726733333333","6500700","樹林區"
"238016","169-UY","2017/08/12 17:49:52","新北市樹林區育英街165巷22號","121.418145","24.988815","6500700","樹林區"
"239007","AAC-297","2017/08/12 17:49:50","新北市鶯歌區尖山埔路135號","121.346543333333","24.9511116666667","6500800","鶯歌區"
"239006","891-R6","2017/08/12 17:49:44","新北市鶯歌區鶯桃路413巷78弄8-1號","121.32967","24.9631983333333","6500800","鶯歌區"
"239008","527-UM","2017/08/12 17:49:44","新北市鶯歌區香賓街19號","121.337391666667","24.9797166666667","6500800","鶯歌區"
"239005","526-UM","2017/08/12 17:49:45","新北市鶯歌區鳳吉五街7號","121.326561666667","24.9722116666667","6500800","鶯歌區"
"239001","417-VK","2017/08/12 17:49:48","新北市鶯歌區中正三路252號","121.329756666667","24.9364266666667","6500800","鶯歌區"
"239003","360-BY","2017/08/12 17:49:39","新北市鶯歌區鶯桃路266號","121.335645","24.9598883333333","6500800","鶯歌區"
"239002","359-BY","2017/08/12 17:49:53","新北市鶯歌區育英街17巷1弄3號","121.347425","24.9552183333333","6500800","鶯歌區"
"239004","193-VK","2017/08/12 17:49:35","新北市鶯歌區尖山路101巷3-1號","121.347308333333","24.9458133333333","6500800","鶯歌區"
"221008","489-VK","2017/08/12 17:49:35","新北市汐止區康寧街901號","121.65124","25.0749716666667","6501100","汐止區"
"221036","130-UY","2017/08/12 17:49:44","新北市汐止區汐萬路一段39號","121.655026666667","25.06916","6501100","汐止區"
"221015","131-UY","2017/08/12 17:49:48","新北市汐止區長江街249-1號","121.662866666667","25.0793466666667","6501100","汐止區"
"221010","269-BY","2017/08/12 17:49:50","新北市汐止區汐萬路二段48號","121.649561666667","25.0816","6501100","汐止區"
"241031","276-VK","2017/08/12 12:39:33","新北市汐止區中正路190號","121.658881666667","25.0691066666667","6500200","三重區"
"241031","278-VK","2017/08/12 14:56:56","新北市汐止區汐萬路一段39號","121.654945","25.0690566666667","6500200","三重區"
"221023","279-VK","2017/08/12 02:07:57","新北市汐止區康寧街901號","121.651743333333","25.0751166666667","6501100","汐止區"
"221032","280-BY","2017/08/12 17:49:53","新北市汐止區橫科路73巷2-2號","121.619581666667","25.0507033333333","6501100","汐止區"
"221027","281-BY","2017/08/12 17:49:40","新北市汐止區康寧街901號","121.651721666667","25.0749533333333","6501100","汐止區"
"221038","297-VK","2017/08/12 17:49:39","新北市汐止區汐萬路一段310號","121.650316666667","25.074825","6501100","汐止區"
"221029","298-VK","2017/08/12 17:49:51","新北市汐止區康寧街901號","121.651565","25.0749066666667","6501100","汐止區"
"221021","299-VK","2017/08/12 17:29:43","新北市汐止區汐萬路一段256巷3號","121.652183333333","25.0753183333333","6501100","汐止區"
"221031","353-TW","2017/08/12 17:49:46","新北市汐止區康寧街901號","121.650823333333","25.0753","6501100","汐止區"
"221035","622-UM","2017/08/12 17:49:37","新北市汐止區汐萬路一段211巷15號","121.651531666667","25.0718916666667","6501100","汐止區"
"221025","623-UM","2017/08/12 17:49:51","新北市汐止區新台五路一段131號","121.652223333333","25.061945","6501100","汐止區"
"221033","647-BX","2017/08/12 17:49:53","新北市汐止區橫科路73巷20弄18號","121.619695","25.0516116666667","6501100","汐止區"
"221018","753-BX","2017/08/12 17:49:46","新北市汐止區忠孝東路382巷3弄1號","121.665666666667","25.0697433333333","6501100","汐止區"
"220039","288-VK","2017/08/12 16:11:17","新北市板橋區民生路二段161巷5號","121.470216666667","25.019735","6500100","板橋區"
