"lineid","car","time","location","longitude","latitude","cityid","cityname"
"234007","207-UY","2017/08/12 18:19:52","新北市永和區保生路55-6號","121.504723333333","25.012205","6500400","永和區"
"234081","298-R6","2017/08/12 18:19:43","新北市永和區福和路1號","121.526581666667","25.0097766666667","6500400","永和區"
"234017","745-BX","2017/08/12 18:19:41","新北市永和區福和路1號","121.52651","25.0097666666667","6500400","永和區"
"234026","9371-KE","2017/08/12 18:19:43","新北市永和區豫溪街42巷5號","121.515493333333","25.00953","6500400","永和區"
"234011","9373-KE","2017/08/12 18:19:42","新北市永和區保安路88號","121.509693333333","25.0161116666667","6500400","永和區"
"249005","172-UM","2017/08/12 18:19:41","新北市八里區荖阡坑路4-31號","121.39925","25.1425083333333","6502300","八里區"
"249001","173-UM","2017/08/12 18:19:35","新北市八里區龍米路一段135號","121.452085","25.1269666666667","6502300","八里區"
"249004","303-UY","2017/08/12 18:19:41","新北市八里區龍米路二段230-2號","121.431676666667","25.1587133333333","6502300","八里區"
"249002","305-UY","2017/08/12 18:19:32","新北市八里區龍形二街52號","121.450275","25.1330683333333","6502300","八里區"
"248016","026-BX","2017/08/12 18:19:38","新北市五股區西雲路293號","121.4494","25.0992016666667","6501500","五股區"
"248006","077-UY","2017/08/12 18:19:54","新北市五股區中興路一段152號","121.464543333333","25.0737883333333","6501500","五股區"
"248008","095-VK","2017/08/12 18:19:39","新北市五股區更洲路32巷8弄14號","121.459215","25.0796083333333","6501500","五股區"
"248018","225-UY","2017/08/12 18:19:44","新北市五股區孝義路47巷22號","121.451606666667","25.109085","6501500","五股區"
"248012","247-BX","2017/08/12 18:19:45","新北市五股區御成路35號","121.441018333333","25.0912533333333","6501500","五股區"
"248014","261-SL","2017/08/12 18:19:43","新北市五股區自強路19巷5-1號","121.43462","25.0737833333333","6501500","五股區"
"248004","677-BX","2017/08/12 18:19:46","新北市五股區成泰路二段224號","121.439331666667","25.0858383333333","6501500","五股區"
"248002","678-BX","2017/08/12 18:19:51","新北市五股區西雲路86號","121.443761666667","25.0923483333333","6501500","五股區"
"248010","682-TV","2017/08/12 18:19:35","新北市五股區成泰路一段161號","121.435226666667","25.0743216666667","6501500","五股區"
"232011","375-UM","2017/08/12 18:16:49","新北市坪林區坪雙路一段43號","121.711751666667","24.942445","6502000","坪林區"
"244007","080-UY","2017/08/12 18:19:35","新北市林口區林口路113巷6弄1號","121.388683333333","25.0805866666667","6501700","林口區"
"244025","742-UY","2017/08/12 18:19:51","新北市林口區南勢二街20-2號","121.355018333333","25.06791","6501700","林口區"
"244009","410-SL","2017/08/12 18:19:43","新北市林口區佳林路82-1號","121.385693333333","25.0802833333333","6501700","林口區"
"244009","656-BX","2017/08/12 18:19:44","新北市林口區文化一路一段41號","121.370871666667","25.0694233333333","6501700","林口區"
"244023","657-BX","2017/08/12 18:19:45","新北市林口區東湖路214號","121.382845","25.07369","6501700","林口區"
"244013","658-BX","2017/08/12 18:19:47","新北市林口區林口路50號","121.390581666667","25.0788833333333","6501700","林口區"
"244011","701-TV","2017/08/12 18:19:51","新北市林口區仁愛路一段292號","121.392751666667","25.07637","6501700","林口區"
"244019","837-TS","2017/08/12 18:19:53","新北市林口區麗園路89號","121.373126666667","25.06873","6501700","林口區"
"244021","838-TS","2017/08/12 18:19:40","新北市林口區自強一街24號","121.398556666667","25.07794","6501700","林口區"
"243013","AAD-798","2017/08/12 18:19:48","新北市泰山區南林路93號","121.415496666667","25.0511566666667","6501600","泰山區"
"222003","436-BY","2017/08/12 18:19:46","新北市深坑區文山路二段3號","121.623108333333","25.0004166666667","6501800","深坑區"
"222002","659-BX","2017/08/12 18:19:44","新北市深坑區雲鄉路3-1號","121.621301666667","24.9996333333333","6501800","深坑區"
"222001","696-SL","2017/08/12 18:19:41","新北市深坑區北深路二段51號","121.618951666667","25.004075","6501800","深坑區"
"231041","002-UM","2017/08/12 18:19:36","新北市新店區安華路28-1號","121.519826666667","24.9607533333333","6500600","新店區"
"231056","0291-UT","2017/08/12 18:19:49","新北市新店區秀山路72號","121.531223333333","24.960865","6500600","新店區"
"231058","0293-UT","2017/08/12 18:19:44","新北市新店區安康路一段79巷1號","121.529778333333","24.96125","6500600","新店區"
"231059","046-UY","2017/08/12 18:19:38","新北市新店區安華路28-1號","121.519541666667","24.960715","6500600","新店區"
"231061","047-UY","2017/08/12 18:19:38","新北市新店區安華路28-1號","121.519258333333","24.9609616666667","6500600","新店區"
"231060","106-UY","2017/08/12 18:19:54","新北市新店區安華路28-1號","121.519583333333","24.9607416666667","6500600","新店區"
"231051","107-UY","2017/08/12 18:19:47","新北市新店區安華路28-1號","121.519375","24.9613033333333","6500600","新店區"
"231048","108-UY","2017/08/12 16:31:17","新北市新店區安華路28-1號","121.51945","24.9612016666667","6500600","新店區"
"231052","187-VK","2017/08/12 18:19:41","新北市新店區安康路一段299-3號","121.520951666667","24.963815","6500600","新店區"
"231057","256-BX","2017/08/12 18:19:36","新北市新店區安華路28-1號","121.519658333333","24.9610883333333","6500600","新店區"
"231063","268-BY","2017/08/12 18:19:37","新北市新店區安華路1-1號","121.519393333333","24.960445","6500600","新店區"
"231046","278-BY","2017/08/12 18:19:44","新北市新店區直潭七街60號","121.532256666667","24.93977","6500600","新店區"
"231055","3713-VJ","2017/08/12 18:19:48","新北市新店區安康路一段48號","121.530343333333","24.9611116666667","6500600","新店區"
"231067","4772-VM","2017/08/12 18:19:45","新北市新店區安華路1-1號","121.519063333333","24.9605783333333","6500600","新店區"
"231065","512-UM","2017/08/12 18:19:45","新北市新店區安華路28-1號","121.519205","24.9612683333333","6500600","新店區"
"231054","513-UM","2017/08/12 18:19:39","新北市新店區安華路28-1號","121.519628333333","24.9610733333333","6500600","新店區"
"231045","617-UM","2017/08/12 18:19:36","新北市新店區安華路28-1號","121.519525","24.9609616666667","6500600","新店區"
"231040","619-UM","2017/08/12 18:19:36","新北市新店區安華路28-1號","121.519446666667","24.9607283333333","6500600","新店區"
"231042","641-BX","2017/08/12 18:19:40","新北市新店區安華路1-1號","121.519583333333","24.96038","6500600","新店區"
"231049","719-UM","2017/08/12 18:19:43","新北市新店區安華路28-1號","121.519485","24.9612566666667","6500600","新店區"
"231062","720-UM","2017/08/12 18:19:43","新北市新店區安華路28-1號","121.519253333333","24.9611883333333","6500600","新店區"
"231044","897-TW","2017/08/12 18:19:48","新北市新店區安華路28-1號","121.519785","24.9606316666667","6500600","新店區"
"231043","899-TW","2017/08/12 18:19:35","新北市新店區安華路28-1號","121.51939","24.9608316666667","6500600","新店區"
"231066","AKT-0513","2017/08/12 18:19:50","新北市新店區安華路28-1號","121.519641666667","24.960515","6500600","新店區"
"241033","AAC-255","2017/08/12 18:19:37","新北市三重區光復路一段61巷21號","121.473356666667","25.0492133333333","6500200","三重區"
"235066","003-UY","2017/08/12 18:19:48","新北市中和區中山路二段124號","121.50256","25.0035283333333","6500300","中和區"
"235064","005-UY","2017/08/12 18:19:48","新北市中和區圓通路183號","121.497488333333","24.9947383333333","6500300","中和區"
"235063","006-UY","2017/08/12 18:19:51","新北市中和區中正路525號","121.487991666667","24.993675","6500300","中和區"
"235056","096-UM","2017/08/12 18:19:33","新北市中和區新民街12號","121.482456666667","25.0058966666667","6500300","中和區"
"235039","097-UM","2017/08/12 18:19:41","新北市中和區中正路271-2號","121.495771666667","24.9935333333333","6500300","中和區"
"235065","098-UM","2017/08/12 18:19:51","新北市中和區莊敬路49巷18號","121.501728333333","25.0060933333333","6500300","中和區"
"235040","150-BY","2017/08/12 18:19:35","新北市中和區景安路80號","121.505721666667","24.9963516666667","6500300","中和區"
"235058","151-BY","2017/08/12 18:19:41","新北市中和區圓通路367巷58號","121.491831666667","24.9843783333333","6500300","中和區"
"235055","183-VK","2017/08/12 18:19:51","新北市中和區員山路36巷16-2號","121.485173333333","24.991635","6500300","中和區"
"235038","185-VK","2017/08/12 18:19:49","新北市中和區大智街57號","121.521213333333","24.9920983333333","6500300","中和區"
"235049","186-VK","2017/08/12 18:19:51","新北市中和區和城路一段271巷1號","121.485403333333","24.9919016666667","6500300","中和區"
"235067","255-BX","2017/08/12 18:19:47","新北市中和區和城路一段271巷1號","121.48546","24.991855","6500300","中和區"
"235072","301-VK","2017/08/12 18:19:34","新北市中和區中正路637巷52弄1號","121.485628333333","24.993635","6500300","中和區"
"235043","352-BY","2017/08/12 18:19:50","新北市中和區景平路502-1號","121.504036666667","24.9936616666667","6500300","中和區"
"235051","376-QA","2017/08/12 18:19:38","新北市中和區南山路523-1號","121.50792","24.9871816666667","6500300","中和區"
"235061","378-QA","2017/08/12 18:19:39","新北市中和區國光街215巷24弄4號","121.466601666667","25.0002666666667","6500300","中和區"
"235050","4979-A6","2017/08/12 18:19:43","新北市中和區捷運路63號","121.508858333333","24.9896816666667","6500300","中和區"
"235069","4980-A6","2017/08/12 18:19:48","新北市中和區連城路139巷66號","121.496831666667","24.9967066666667","6500300","中和區"
"235042","551-UM","2017/08/12 18:19:50","新北市中和區大仁街20巷25弄25號","121.518908333333","24.993605","6500300","中和區"
"235070","558-UM","2017/08/12 18:19:41","新北市中和區中正路410號","121.492193333333","24.9939783333333","6500300","中和區"
"235045","565-BX","2017/08/12 18:19:47","新北市中和區中正路275-2號","121.495538333333","24.9935083333333","6500300","中和區"
"235054","640-BX","2017/08/12 18:19:51","新北市中和區莒光路185號","121.472665","24.9990116666667","6500300","中和區"
"235060","647-TV","2017/08/12 18:19:35","新北市中和區和城路一段271巷1號","121.48549","24.991995","6500300","中和區"
"235047","732-UM","2017/08/12 18:19:35","新北市中和區圓通路141巷48弄15號","121.498275","24.9938183333333","6500300","中和區"
"235062","800-TS","2017/08/12 18:19:39","新北市中和區景平路997巷2號","121.495791666667","25.0057133333333","6500300","中和區"
"235052","805-TS","2017/08/12 18:19:35","新北市中和區興南路二段125號","121.505348333333","24.9841683333333","6500300","中和區"
"235048","896-TW","2017/08/12 18:19:48","新北市中和區員山路36巷16-2號","121.485231666667","24.9916783333333","6500300","中和區"
"235053","900-TW","2017/08/12 18:19:33","新北市中和區員山路36巷13號","121.484271666667","24.9907133333333","6500300","中和區"
"235037","AAC-213","2017/08/12 18:19:49","新北市中和區景平路149號","121.513905","24.9922666666667","6500300","中和區"
"235059","AAC-215","2017/08/12 18:19:44","新北市中和區錦和路350號","121.490523333333","24.9920666666667","6500300","中和區"
"226004","312-R5","2017/08/12 18:19:47","新北市平溪區靜安路二段11巷7號","121.709158333333","25.0192266666667","6502400","平溪區"
"241031","7418-A5","2017/08/12 15:53:44","新北市平溪區石底里公園街18-3號","121.733536666667","25.0255933333333","6500200","三重區"
"228003","097-TW","2017/08/12 18:19:45","新北市貢寮區真理里美艷山街49號","121.92321","25.06952","6502600","貢寮區"
"228001","212-TW","2017/08/12 18:19:39","新北市貢寮區真理里新港街26巷55弄2-1號","121.92736","25.0528416666667","6502600","貢寮區"
"228002","585-TW","2017/08/12 18:19:50","新北市貢寮區福連里福興街24-1號","121.991128333333","25.0120266666667","6502600","貢寮區"
"224006","676-BX","2017/08/12 18:19:35","新北市瑞芳區民權街3-2號","121.808051666667","25.1074116666667","6501200","瑞芳區"
"224002","639-TC","2017/08/12 18:19:38","新北市瑞芳區三爪子坑路91巷1號","121.811631666667","25.1074016666667","6501200","瑞芳區"
"224011","420-VK","2017/08/12 18:19:37","新北市瑞芳區汽車路11號","121.84607","25.110545","6501200","瑞芳區"
"241031","285-BY","2017/08/12 18:19:38","新北市瑞芳區金光路131號","121.853885","25.1068366666667","6500200","三重區"
"224008","275-VK","2017/08/12 18:19:39","新北市瑞芳區逢甲路204號","121.806868333333","25.1101483333333","6501200","瑞芳區"
"224007","273-VK","2017/08/12 18:19:45","新北市瑞芳區大埔路42號","121.764413333333","25.1020383333333","6501200","瑞芳區"
"224005","271-BY","2017/08/12 18:19:48","新北市瑞芳區建基路一段62巷24-1號","121.816598333333","25.128485","6501200","瑞芳區"
"227002","642-TC","2017/08/12 18:19:55","新北市雙溪區共和里中山路2號","121.863781666667","25.03377","6502500","雙溪區"
"227010","400-TW","2017/08/12 18:19:51","新北市雙溪區牡丹里牡丹73號","121.851711666667","25.0593466666667","6502500","雙溪區"
"253006","032-BX","2017/08/12 18:19:40","新北市石門區老梅路87號","121.546458333333","25.2891833333333","6502200","石門區"
"253005","295-VK","2017/08/12 18:19:39","新北市石門區中央路9-4號","121.56667","25.29162","6502200","石門區"
"208002","742-BX","2017/08/12 18:19:49","新北市金山區磺清路135號","121.639355","25.227345","6502700","金山區"
"208003","665-BX","2017/08/12 18:19:54","新北市金山區民生路196號","121.645608333333","25.22177","6502700","金山區"
"208001","761-BX","2017/08/12 18:19:46","新北市金山區環金路19號","121.640998333333","25.2176733333333","6502700","金山區"
"251004","009-UM","2017/08/12 18:19:35","新北市淡水區民族路31巷24號","121.462785","25.1361","6501000","淡水區"
"251002","012-UM","2017/08/12 18:19:48","新北市淡水區中正東路一段61-5號","121.453181666667","25.1626633333333","6501000","淡水區"
"251014","180-VK","2017/08/12 18:19:49","新北市淡水區崙頂13號","121.491313333333","25.2198166666667","6501000","淡水區"
"251008","181-VK","2017/08/12 18:19:48","新北市淡水區水源街二段246號","121.463041666667","25.1759633333333","6501000","淡水區"
"251010","413-VK","2017/08/12 18:19:44","新北市淡水區淡海路180巷12-3號","121.420403333333","25.184675","6501000","淡水區"
"251012","441-VK","2017/08/12 18:19:37","新北市淡水區北新路二段77-5號","121.480281666667","25.185595","6501000","淡水區"
"251016","442-VK","2017/08/12 18:19:43","新北市淡水區淡金路三段70巷1號","121.448255","25.20035","6501000","淡水區"
"251005","443-VK","2017/08/12 18:19:45","新北市淡水區學府路51巷6弄7號","121.447533333333","25.1701733333333","6501000","淡水區"
"251001","559-UM","2017/08/12 18:19:37","新北市淡水區自強路110-8號","121.461686666667","25.131375","6501000","淡水區"
"251006","561-UM","2017/08/12 18:19:50","新北市淡水區新民街30號","121.43968","25.1758183333333","6501000","淡水區"
"251011","650-BX","2017/08/12 18:19:44","新北市淡水區坪頂路52巷10號","121.457818333333","25.1624766666667","6501000","淡水區"
"251003","673-BX","2017/08/12 18:19:47","新北市淡水區北新路133號","121.449278333333","25.178845","6501000","淡水區"
"207003","550-UM","2017/08/12 18:19:46","新北市萬里區野柳里港東路112號","121.688528333333","25.203855","6502800","萬里區"
"207004","225-TW","2017/08/12 18:19:54","新北市萬里區中幅里中福路39-1號","121.677586666667","25.1661266666667","6502800","萬里區"
"252002","178-VK","2017/08/12 18:19:38","新北市三芝區中山路二段39號","121.502921666667","25.2551433333333","6502100","三芝區"
"252003","249-BX","2017/08/12 18:19:52","新北市三芝區錫板里海尾14-35號","121.477608333333","25.259515","6502100","三芝區"
"252001","292-VK","2017/08/12 18:19:44","新北市三芝區中興街一段50號","121.498333333333","25.2567383333333","6502100","三芝區"
"237004","078-UY","2017/08/12 18:19:35","新北市三峽區圳頭94號","121.380301666667","24.8770883333333","6500900","三峽區"
"237007","153-BY","2017/08/12 18:19:37","新北市三峽區中正路二段540號","121.360243333333","24.90632","6500900","三峽區"
"237009","210-TH","2017/08/12 18:19:35","新北市三峽區大勇路36巷6號","121.366553333333","24.93719","6500900","三峽區"
"237013","252-BX","2017/08/12 18:19:51","新北市三峽區永安街7號","121.377803333333","24.9299883333333","6500900","三峽區"
"237012","275-BY","2017/08/12 18:19:49","新北市三峽區民生街1巷5-6號","121.378771666667","24.9362733333333","6500900","三峽區"
"237008","302-VK","2017/08/12 18:19:41","新北市三峽區白雞68-51號","121.392151666667","24.9091516666667","6500900","三峽區"
"237014","433-BY","2017/08/12 18:19:52","新北市三峽區復興路39號","121.373636666667","24.936665","6500900","三峽區"
"237006","5529-G3","2017/08/12 18:19:42","新北市三峽區溪東路235號","121.406495","24.9326816666667","6500900","三峽區"
"237011","572-TV","2017/08/12 18:19:42","新北市三峽區溪東路182號","121.406641666667","24.9325616666667","6500900","三峽區"
"237016","649-BX","2017/08/12 18:19:37","新北市三峽區紫微路42-1號","121.422376666667","24.9202333333333","6500900","三峽區"
"237010","706-TV","2017/08/12 18:19:43","新北市三峽區民權街147號","121.368821666667","24.9316866666667","6500900","三峽區"
"237005","AKY-6261","2017/08/12 18:19:37","新北市三峽區秀川街59號","121.37044","24.9334333333333","6500900","三峽區"
"236073","105-UM","2017/08/12 18:19:50","新北市土城區石門路23號","121.459733333333","24.966405","6501300","土城區"
"236043","107-UM","2017/08/12 18:19:52","新北市土城區裕民路3巷32號","121.448565","24.986525","6501300","土城區"
"236079","166-UM","2017/08/12 18:19:34","新北市土城區永平街19號","121.428301666667","24.9625416666667","6501300","土城區"
"236031","253-BX","2017/08/12 18:19:49","新北市土城區順風路42號","121.440586666667","24.9768383333333","6501300","土城區"
"236027","269-VK","2017/08/12 18:19:46","新北市土城區承天路43巷2號","121.438991666667","24.9639133333333","6501300","土城區"
"236015","270-VK","2017/08/12 18:19:39","新北市土城區青雲路39巷7號","121.460303333333","24.9874066666667","6501300","土城區"
"236038","271-VK","2017/08/12 18:19:50","新北市土城區青雲路521巷11號","121.459316666667","24.9732683333333","6501300","土城區"
"236023","401-BY","2017/08/12 18:19:44","新北市土城區明德路一段137-4號","121.465413333333","24.9812216666667","6501300","土城區"
"236059","912-UM","2017/08/12 18:19:43","新北市土城區中央路四段207號","121.413933333333","24.95601","6501300","土城區"
"236049","913-UM","2017/08/12 18:19:53","新北市土城區明德路一段280號","121.457815","24.9773316666667","6501300","土城區"
"236055","AAC-216","2017/08/12 18:19:46","新北市土城區中華路二段104號","121.438016666667","24.9743283333333","6501300","土城區"
"242021","AAC-296","2017/08/12 18:19:44","新北市新莊區新興街27巷2號","121.450681666667","25.0374266666667","6500500","新莊區"
"242029","986-R7","2017/08/12 18:19:35","新北市新莊區中平路202-1號","121.444816666667","25.048825","6500500","新莊區"
"242025","615-BX","2017/08/12 18:19:32","新北市新莊區五權一路12巷9弄13號","121.457665","25.0650383333333","6500500","新莊區"
"242027","612-BX","2017/08/12 18:19:43","新北市新莊區幸福路912號","121.442711666667","25.0489883333333","6500500","新莊區"
"242036","566-BX","2017/08/12 18:19:42","新北市新莊區後港一路49巷1弄2號","121.425781666667","25.0266883333333","6500500","新莊區"
"242042","497-BY","2017/08/12 18:19:52","新北市新莊區天祥街81巷24號","121.415038333333","25.028595","6500500","新莊區"
"242046","441-UM","2017/08/12 18:19:54","新北市新莊區中正路803巷6號","121.421311666667","25.0281633333333","6500500","新莊區"
"242051","440-UM","2017/08/12 18:19:40","新北市新莊區民安西路44號","121.42749","25.0208883333333","6500500","新莊區"
"242031","415-TV","2017/08/12 18:19:43","新北市新莊區新泰路255巷83號","121.442765","25.0394266666667","6500500","新莊區"
"242002","413-TV","2017/08/12 18:19:38","新北市新莊區碧江街18-7號","121.455388333333","25.03459","6500500","新莊區"
"242061","362-BY","2017/08/12 18:19:46","新北市新莊區後港一路159號","121.431528333333","25.0279516666667","6500500","新莊區"
"242058","353-BY","2017/08/12 18:19:49","新北市新莊區中正路899巷2號","121.411551666667","25.021585","6500500","新莊區"
"242015","132-UY","2017/08/12 18:19:40","新北市新莊區中平路198巷27號","121.446425","25.04852","6500500","新莊區"
"242019","135-UY","2017/08/12 18:19:42","新北市新莊區新泰路351號","121.44462","25.0423866666667","6500500","新莊區"
"242044","172-VK","2017/08/12 18:19:51","新北市新莊區新北大道七段848號","121.413785","25.0236716666667","6500500","新莊區"
"242007","173-VK","2017/08/12 18:19:38","新北市新莊區自治街37號","121.454125","25.0480766666667","6500500","新莊區"
"242056","176-VK","2017/08/12 18:19:42","新北市新莊區瓊林路13-3號","121.448811666667","25.0309866666667","6500500","新莊區"
"242011","346-TH","2017/08/12 18:19:45","新北市新莊區中港路591巷31號","121.44968","25.052255","6500500","新莊區"
"242034","347-TH","2017/08/12 18:19:51","新北市新莊區景德路223號","121.449016666667","25.0337066666667","6500500","新莊區"
"242017","348-TH","2017/08/12 18:19:47","新北市新莊區中華路一段6號","121.452048333333","25.0365483333333","6500500","新莊區"
"242053","349-TH","2017/08/12 18:19:43","新北市新莊區民安西路410巷8弄1號","121.428291666667","25.0094766666667","6500500","新莊區"
"238015","755-BX","2017/08/12 18:19:44","新北市樹林區啟智街84-2號","121.418738333333","24.9905116666667","6500700","樹林區"
"238023","601-UM","2017/08/12 18:19:46","新北市樹林區三福街85巷11號","121.407281666667","25.015445","6500700","樹林區"
"238018","571-TV","2017/08/12 18:19:35","新北市板橋區大觀路三段263號","121.429188333333","24.9922933333333","6500700","樹林區"
"238021","311-TH","2017/08/12 18:19:51","新北市樹林區柑園街二段9號","121.388078333333","24.95575","6500700","樹林區"
"238025","303-VK","2017/08/12 18:19:34","新北市樹林區保安二街59號","121.424446666667","24.9944716666667","6500700","樹林區"
"238017","283-BY","2017/08/12 18:19:49","新北市樹林區保安街二段333巷2號","121.412538333333","25.0076383333333","6500700","樹林區"
"238014","282-BY","2017/08/12 18:19:46","新北市樹林區大安路11號","121.42497","25.000525","6500700","樹林區"
"238020","268-VK","2017/08/12 18:19:49","新北市樹林區三俊街21號","121.411793333333","25.015505","6500700","樹林區"
"238026","172-UY","2017/08/12 18:19:51","新北市樹林區佳園路一段105號","121.393658333333","24.969415","6500700","樹林區"
"238016","169-UY","2017/08/12 18:19:35","新北市樹林區中山路一段242巷12號","121.420631666667","24.98806","6500700","樹林區"
"239007","AAC-297","2017/08/12 18:19:50","新北市鶯歌區中正一路461-2號","121.363208333333","24.9566866666667","6500800","鶯歌區"
"239006","891-R6","2017/08/12 18:19:44","新北市鶯歌區鶯桃路296巷53號","121.335886666667","24.9613083333333","6500800","鶯歌區"
"239008","527-UM","2017/08/12 18:19:44","新北市鶯歌區國際一路179號","121.336191666667","24.9765133333333","6500800","鶯歌區"
"239005","526-UM","2017/08/12 18:19:45","新北市鶯歌區鶯桃路668巷52弄21號","121.329698333333","24.9703116666667","6500800","鶯歌區"
"239001","417-VK","2017/08/12 18:19:48","新北市鶯歌區中正三路福德巷21號","121.339623333333","24.94062","6500800","鶯歌區"
"239003","360-BY","2017/08/12 18:19:39","新北市鶯歌區福安街11巷2號","121.335485","24.9652366666667","6500800","鶯歌區"
"239002","359-BY","2017/08/12 18:19:33","新北市鶯歌區中正一路306號","121.356316666667","24.957075","6500800","鶯歌區"
"239004","193-VK","2017/08/12 18:19:35","新北市鶯歌區尖山路342號","121.341116666667","24.94361","6500800","鶯歌區"
"221008","489-VK","2017/08/12 18:19:35","新北市汐止區康寧街901號","121.651456666667","25.0750483333333","6501100","汐止區"
"221036","130-UY","2017/08/12 18:19:48","新北市汐止區長安路83號","121.669305","25.0784316666667","6501100","汐止區"
"221015","131-UY","2017/08/12 18:19:52","新北市汐止區長江街367號","121.668025","25.0826283333333","6501100","汐止區"
"221010","269-BY","2017/08/12 18:19:50","新北市汐止區祥雲街45號","121.647225","25.0898183333333","6501100","汐止區"
"241031","276-VK","2017/08/12 12:39:33","新北市汐止區中正路190號","121.658881666667","25.0691066666667","6500200","三重區"
"241031","278-VK","2017/08/12 14:56:56","新北市汐止區汐萬路一段39號","121.654945","25.0690566666667","6500200","三重區"
"221023","279-VK","2017/08/12 02:07:57","新北市汐止區康寧街901號","121.651743333333","25.0751166666667","6501100","汐止區"
"221032","280-BY","2017/08/12 18:19:40","新北市汐止區民權街二段102號","121.618666666667","25.04689","6501100","汐止區"
"221027","281-BY","2017/08/12 18:19:55","新北市汐止區和平街9號","121.663185","25.07066","6501100","汐止區"
"221038","297-VK","2017/08/12 18:19:39","新北市汐止區仁愛路321-1號","121.664388333333","25.0676566666667","6501100","汐止區"
"221029","298-VK","2017/08/12 18:19:51","新北市汐止區樟樹二路330巷66號","121.642805","25.069855","6501100","汐止區"
"221021","299-VK","2017/08/12 17:29:43","新北市汐止區汐萬路一段256巷3號","121.652183333333","25.0753183333333","6501100","汐止區"
"221031","353-TW","2017/08/12 18:19:46","新北市汐止區中興路27巷6弄7號","121.63481","25.0608716666667","6501100","汐止區"
"221035","622-UM","2017/08/12 18:19:37","新北市汐止區大同路二段187巷8弄12號","121.652778333333","25.0654366666667","6501100","汐止區"
"221025","623-UM","2017/08/12 18:19:51","新北市汐止區勤進路12巷49號","121.659031666667","25.0628933333333","6501100","汐止區"
"221033","647-BX","2017/08/12 18:19:53","新北市汐止區宜興街59巷1號","121.622388333333","25.0427916666667","6501100","汐止區"
"221002","707-TV","2017/08/12 18:19:43","新北市汐止區福德一路213巷35號","121.635751666667","25.0647666666667","6501100","汐止區"
"221018","753-BX","2017/08/12 18:19:46","新北市汐止區茄苳路88巷6弄32號","121.666626666667","25.0700583333333","6501100","汐止區"
"220039","288-VK","2017/08/12 16:11:17","新北市板橋區民生路二段161巷5號","121.470216666667","25.019735","6500100","板橋區"
