"lineid","car","time","location","longitude","latitude","cityid","cityname"
"234046","148-BY","2017/08/12 18:49:49","新北市永和區秀朗路二段126巷30號","121.524626666667","25.0008016666667","6500400","永和區"
"234013","149-BY","2017/08/12 18:49:48","新北市永和區保福路二段78號","121.510461666667","25.0132983333333","6500400","永和區"
"234007","207-UY","2017/08/12 18:49:37","新北市永和區復興街16巷2號","121.515385","25.012795","6500400","永和區"
"234081","298-R6","2017/08/12 18:49:43","新北市永和區永利路108號","121.521223333333","25.0034816666667","6500400","永和區"
"234064","337-UY","2017/08/12 18:49:35","新北市永和區福和路14號","121.524418333333","25.0085333333333","6500400","永和區"
"234070","552-UM","2017/08/12 18:49:43","新北市永和區竹林路96巷15弄2號","121.518883333333","25.0119533333333","6500400","永和區"
"234054","553-UM","2017/08/12 18:49:41","新北市永和區竹林路66巷4號","121.518236666667","25.0133116666667","6500400","永和區"
"234017","745-BX","2017/08/12 18:49:41","新北市永和區永和路二段303號","121.51591","25.0164233333333","6500400","永和區"
"234030","746-BX","2017/08/12 18:49:46","新北市永和區得和路321號","121.523418333333","24.9996366666667","6500400","永和區"
"234061","AAD-866","2017/08/12 18:49:37","新北市永和區福和路303號","121.516378333333","25.007135","6500400","永和區"
"234086","847-RS","2017/08/12 18:49:56","新北市永和區中正路39-1號","121.514451666667","24.9960716666667","6500400","永和區"
"234042","862-TW","2017/08/12 18:49:49","新北市永和區永貞路308號","121.511833333333","25.004885","6500400","永和區"
"234050","863-TW","2017/08/12 18:49:48","新北市永和區保安路2號","121.51083","25.0175633333333","6500400","永和區"
"234026","9371-KE","2017/08/12 18:49:42","新北市永和區自由街60號","121.513645","25.0059316666667","6500400","永和區"
"234011","9373-KE","2017/08/12 18:49:42","新北市永和區仁愛路31巷2弄15號","121.513435","25.0128666666667","6500400","永和區"
"249005","172-UM","2017/08/12 18:49:41","新北市八里區長道坑17號","121.396258333333","25.11562","6502300","八里區"
"249001","173-UM","2017/08/12 18:49:35","新北市八里區龍米路二段39號","121.448405","25.1401583333333","6502300","八里區"
"249004","303-UY","2017/08/12 18:49:42","新北市八里區中山路一段150巷80號","121.415983333333","25.1603066666667","6502300","八里區"
"248016","026-BX","2017/08/12 18:49:50","新北市五股區凌雲路一段134巷17號","121.449901666667","25.1025883333333","6501500","五股區"
"248006","077-UY","2017/08/12 18:49:49","新北市五股區四維路1巷2弄2號","121.466605","25.0701433333333","6501500","五股區"
"248008","095-VK","2017/08/12 18:49:49","新北市五股區中興路一段126號","121.465641666667","25.0737","6501500","五股區"
"248018","225-UY","2017/08/12 18:49:44","新北市五股區凌雲路三段田埔巷13號","121.435465","25.1211533333333","6501500","五股區"
"248012","247-BX","2017/08/12 18:49:45","新北市五股區成泰路二段147巷26號","121.438418333333","25.0869816666667","6501500","五股區"
"248014","261-SL","2017/08/12 18:49:43","新北市五股區民義路一段107巷23號","121.432101666667","25.0845083333333","6501500","五股區"
"248004","677-BX","2017/08/12 18:49:39","新北市五股區民義路二段52-22號","121.409455","25.1052566666667","6501500","五股區"
"248002","678-BX","2017/08/12 18:49:51","新北市五股區成泰路三段454號","121.45141","25.1003266666667","6501500","五股區"
"248010","682-TV","2017/08/12 18:49:51","新北市五股區水碓一路61號","121.43157","25.0724366666667","6501500","五股區"
"234023","9380-KE","2017/08/12 18:49:39","新北市永和區竹林路119巷28-3號","121.52189","25.0117816666667","6500400","永和區"
"234077","969-R7","2017/08/12 18:49:40","新北市永和區中正路40號","121.513128333333","24.99425","6500400","永和區"
"234074","AAC-211","2017/08/12 18:49:50","新北市永和區福和路1號","121.526458333333","25.0098","6500400","永和區"
"234067","AAC-212","2017/08/12 18:49:48","新北市永和區永和路一段22號","121.512983333333","25.00485","6500400","永和區"
"234003","AAC-295","2017/08/12 18:49:54","新北市永和區永和路二段8號","121.514613333333","25.0102116666667","6500400","永和區"
"232011","375-UM","2017/08/12 18:49:49","新北市坪林區坪林街79號","121.71164","24.9370166666667","6502000","坪林區"
"244007","080-UY","2017/08/12 18:49:49","新北市林口區太平里3號","121.379573333333","25.1125616666667","6501700","林口區"
"244025","742-UY","2017/08/12 18:49:51","新北市林口區南勢二街162號","121.35924","25.074735","6501700","林口區"
"244009","410-SL","2017/08/12 18:49:43","新北市林口區民生路108號","121.37815","25.0882283333333","6501700","林口區"
"244009","656-BX","2017/08/12 18:49:44","新北市林口區文化二路一段70號","121.365843333333","25.06914","6501700","林口區"
"244023","657-BX","2017/08/12 18:49:45","新北市林口區文化三路二段238號","121.376461666667","25.08296","6501700","林口區"
"244013","658-BX","2017/08/12 18:49:47","新北市林口區中正路514巷19號","121.381883333333","25.077685","6501700","林口區"
"244011","701-TV","2017/08/12 18:49:51","新北市林口區仁愛路一段256號","121.394371666667","25.0758883333333","6501700","林口區"
"244019","837-TS","2017/08/12 18:49:33","新北市林口區麗園二街36巷23號","121.380055","25.0683733333333","6501700","林口區"
"244021","838-TS","2017/08/12 18:49:40","新北市林口區自強二街1-4號","121.397251666667","25.0785466666667","6501700","林口區"
"243013","AAD-798","2017/08/12 18:49:48","新北市泰山區明志路三段206巷3號","121.42329","25.0379166666667","6501600","泰山區"
"243015","380-SR","2017/08/12 18:49:38","新北市泰山區美寧街57巷35弄1號","121.42999","25.0649016666667","6501600","泰山區"
"243011","549-UM","2017/08/12 18:49:36","新北市泰山區明志路二段25號","121.429825","25.0532983333333","6501600","泰山區"
"243012","646-TV","2017/08/12 18:49:34","新北市泰山區福興三街13號","121.434453333333","25.0577466666667","6501600","泰山區"
"243016","680-BX","2017/08/12 18:49:33","新北市泰山區明志路二段137號","121.427751666667","25.0507","6501600","泰山區"
"222003","436-BY","2017/08/12 18:49:46","新北市深坑區翠谷街17巷40號","121.62529","25.01008","6501800","深坑區"
"222002","659-BX","2017/08/12 18:49:44","新北市深坑區文山路一段69號","121.627071666667","25.0018983333333","6501800","深坑區"
"222001","696-SL","2017/08/12 18:49:41","新北市深坑區松柏街33號","121.638616666667","25.01133","6501800","深坑區"
"231041","002-UM","2017/08/12 18:49:36","新北市新店區安華路28-1號","121.519655","24.9608566666667","6500600","新店區"
"231056","0291-UT","2017/08/12 18:49:49","新北市新店區大豐路68巷14號","121.538918333333","24.98","6500600","新店區"
"231058","0293-UT","2017/08/12 18:49:50","新北市新店區北宜路一段105巷2-1號","121.53987","24.955395","6500600","新店區"
"231059","046-UY","2017/08/12 18:49:38","新北市新店區安華路28-1號","121.519535","24.96097","6500600","新店區"
"231061","047-UY","2017/08/12 18:49:38","新北市新店區安康路二段1-5號","121.517126666667","24.9638566666667","6500600","新店區"
"231060","106-UY","2017/08/12 18:49:34","新北市新店區安華路28-1號","121.519703333333","24.9607666666667","6500600","新店區"
"231051","107-UY","2017/08/12 18:49:47","新北市新店區中央路63號","121.532601666667","24.9770433333333","6500600","新店區"
"231048","108-UY","2017/08/12 18:49:47","新北市新店區德正街23巷1號","121.544186666667","24.9719766666667","6500600","新店區"
"231052","187-VK","2017/08/12 18:49:41","新北市新店區新烏路一段105巷27號","121.546605","24.940325","6500600","新店區"
"231063","268-BY","2017/08/12 18:49:37","新北市新店區車子路12號","121.505078333333","24.9545133333333","6500600","新店區"
"231046","278-BY","2017/08/12 18:49:44","新北市新店區直潭路57號","121.532986666667","24.9424683333333","6500600","新店區"
"231050","AAD-862","2017/08/12 18:49:33","新北市新店區安康路一段85號","121.529458333333","24.9613866666667","6500600","新店區"
"231055","3713-VJ","2017/08/12 18:49:48","新北市新店區新生街16號","121.539996666667","24.96623","6500600","新店區"
"231067","4772-VM","2017/08/12 18:49:45","新北市新店區安康路一段106巷14號","121.52778","24.9629333333333","6500600","新店區"
"231065","512-UM","2017/08/12 18:49:45","新北市新店區安豐路48號","121.500738333333","24.9542233333333","6500600","新店區"
"231054","513-UM","2017/08/12 18:49:39","新北市新店區北宜路一段154號","121.540388333333","24.95356","6500600","新店區"
"231064","515-UM","2017/08/12 18:49:36","新北市新店區安康路一段323-1號","121.521723333333","24.96375","6500600","新店區"
"231045","617-UM","2017/08/12 18:49:36","新北市新店區安康路一段198號","121.524405","24.9634083333333","6500600","新店區"
"231040","619-UM","2017/08/12 18:49:36","新北市新店區中央路68號","121.532648333333","24.9774166666667","6500600","新店區"
"231042","641-BX","2017/08/12 18:49:40","新北市新店區中正路69號","121.543481666667","24.9701483333333","6500600","新店區"
"231049","719-UM","2017/08/12 18:49:43","新北市新店區中正路454-5號","121.534473333333","24.9790533333333","6500600","新店區"
"231062","720-UM","2017/08/12 18:49:23","新北市新店區安忠路57巷15號","121.512625","24.95717","6500600","新店區"
"231044","897-TW","2017/08/12 18:49:48","新北市新店區中興路二段22-2號","121.546746666667","24.9703233333333","6500600","新店區"
"231043","899-TW","2017/08/12 18:49:35","新北市新店區安康路一段89號","121.529268333333","24.961465","6500600","新店區"
"231066","AKT-0513","2017/08/12 18:49:50","新北市新店區安豐路22巷14號","121.502885","24.95491","6500600","新店區"
"235066","003-UY","2017/08/12 18:49:47","新北市中和區水源路18巷4號","121.504005","25.003185","6500300","中和區"
"235064","005-UY","2017/08/12 18:49:48","新北市中和區連城路87號","121.496806666667","25.0004716666667","6500300","中和區"
"235063","006-UY","2017/08/12 18:49:53","新北市中和區錦和路111-1號","121.490191666667","24.9951966666667","6500300","中和區"
"235056","096-UM","2017/08/12 18:49:53","新北市中和區員山路556號","121.47863","25.0104083333333","6500300","中和區"
"235039","097-UM","2017/08/12 18:49:47","新北市中和區安樂路123號","121.51382","24.9961883333333","6500300","中和區"
"235065","098-UM","2017/08/12 18:49:51","新北市中和區莊敬路49巷29弄22號","121.500908333333","25.0065516666667","6500300","中和區"
"235040","150-BY","2017/08/12 18:49:35","新北市中和區保健路106巷13號","121.5123","24.9957166666667","6500300","中和區"
"235058","151-BY","2017/08/12 18:49:41","新北市中和區連城路534巷10號","121.475205","24.9920833333333","6500300","中和區"
"235055","183-VK","2017/08/12 18:49:51","新北市中和區民生街21-4號","121.470883333333","25.0056433333333","6500300","中和區"
"235038","185-VK","2017/08/12 18:49:49","新北市中和區自強路62巷2號","121.519728333333","24.9945233333333","6500300","中和區"
"235049","186-VK","2017/08/12 18:49:51","新北市中和區景安路134號","121.504918333333","24.9943133333333","6500300","中和區"
"235067","255-BX","2017/08/12 18:49:47","新北市中和區中山路二段449巷1弄11號","121.483905","25.0039816666667","6500300","中和區"
"235044","293-VK","2017/08/12 18:49:38","新北市中和區復興路280巷18弄8號","121.502233333333","24.9917016666667","6500300","中和區"
"235072","301-VK","2017/08/12 18:49:54","新北市永和區中山路一段293號","121.506705","25.0068866666667","6500300","中和區"
"235043","352-BY","2017/08/12 18:49:50","新北市中和區成功路90號","121.525876666667","24.9911583333333","6500300","中和區"
"235051","376-QA","2017/08/12 18:49:38","新北市中和區忠孝街106巷36號","121.513151666667","24.984295","6500300","中和區"
"235068","377-QA","2017/08/12 18:45:52","新北市中和區中正路93號","121.500186666667","24.9935333333333","6500300","中和區"
"235061","378-QA","2017/08/12 18:49:52","新北市中和區民享街57號","121.474091666667","25.0024783333333","6500300","中和區"
"235050","4979-A6","2017/08/12 18:49:43","新北市中和區忠孝街58巷28號","121.512528333333","24.982635","6500300","中和區"
"235069","4980-A6","2017/08/12 18:49:48","新北市中和區泰和街12號","121.4999","25.0010166666667","6500300","中和區"
"235042","551-UM","2017/08/12 18:49:50","新北市中和區秀朗路三段153巷16弄5號","121.525775","24.9916216666667","6500300","中和區"
"235070","558-UM","2017/08/12 18:49:41","新北市中和區景新街146號","121.505341666667","24.9976133333333","6500300","中和區"
"235045","565-BX","2017/08/12 18:49:48","新北市中和區復興路7號","121.506068333333","24.9897316666667","6500300","中和區"
"235054","640-BX","2017/08/12 18:49:54","新北市中和區民享街54巷2號","121.473783333333","25.0024716666667","6500300","中和區"
"235060","647-TV","2017/08/12 18:49:35","新北市中和區中山路三段170巷152-1號","121.47345","25.0063066666667","6500300","中和區"
"235047","732-UM","2017/08/12 18:49:55","新北市中和區興南路二段34巷57弄1號","121.504863333333","24.9859083333333","6500300","中和區"
"235046","733-UM","2017/08/12 18:49:46","新北市中和區仁愛街36巷30號","121.511111666667","24.98689","6500300","中和區"
"235062","800-TS","2017/08/12 18:49:39","新北市中和區景平路705號","121.496595","25.00355","6500300","中和區"
"235057","801-TS","2017/08/12 18:49:41","新北市中和區民安街22巷3號","121.480253333333","25.0009083333333","6500300","中和區"
"235041","802-TS","2017/08/12 18:49:47","新北市中和區中安街188號","121.511306666667","24.9992566666667","6500300","中和區"
"235052","805-TS","2017/08/12 18:49:55","新北市中和區興南路二段399巷86號","121.499953333333","24.9783866666667","6500300","中和區"
"235048","896-TW","2017/08/12 18:49:48","新北市中和區華新街9號","121.507543333333","24.9851816666667","6500300","中和區"
"235053","900-TW","2017/08/12 18:49:53","新北市中和區華福街42巷2弄2號","121.466351666667","24.9963433333333","6500300","中和區"
"235037","AAC-213","2017/08/12 18:49:49","新北市中和區景德街29號","121.518936666667","24.9912566666667","6500300","中和區"
"235059","AAC-215","2017/08/12 18:49:44","新北市中和區圓通路393巷19弄1號","121.490203333333","24.9886983333333","6500300","中和區"
"220068","013-TV","2017/08/12 18:49:48","新北市板橋區縣民大道三段30巷1號","121.47158","25.0185233333333","6500100","板橋區"
"220065","072-UY","2017/08/12 18:49:47","新北市板橋區觀光街2-1號","121.472368333333","25.0153883333333","6500100","板橋區"
"220086","073-UY","2017/08/12 18:49:50","新北市板橋區大智街71巷38號","121.452948333333","25.0144066666667","6500100","板橋區"
"220106","075-UY","2017/08/12 18:49:42","新北市板橋區民生路二段161巷7號","121.470131666667","25.0196133333333","6500100","板橋區"
"220069","AAD-861","2017/08/12 18:49:45","新北市板橋區觀光街2-4號","121.472221666667","25.0155266666667","6500100","板橋區"
"220096","120-SR","2017/08/12 18:49:43","新北市板橋區民生路二段120號","121.47041","25.0196116666667","6500100","板橋區"
"226004","312-R5","2017/08/12 18:49:47","新北市平溪區平溪里平溪街63號","121.737801666667","25.0270483333333","6502400","平溪區"
"241031","7418-A5","2017/08/12 15:53:44","新北市平溪區石底里公園街18-3號","121.733536666667","25.0255933333333","6500200","三重區"
"228003","097-TW","2017/08/12 18:49:53","新北市貢寮區和美里龍洞街56號","121.912168333333","25.113755","6502600","貢寮區"
"228001","212-TW","2017/08/12 18:49:39","新北市貢寮區仁理村研海街12-1號","121.923768333333","25.0516516666667","6502600","貢寮區"
"228002","585-TW","2017/08/12 18:49:50","新北市貢寮區福隆里東興街6-11號","121.95078","25.0210416666667","6502600","貢寮區"
"224010","AGQ-8101","2017/08/12 18:48:26","新北市瑞芳區金光路334號","121.848163333333","25.109435","6501200","瑞芳區"
"224006","676-BX","2017/08/12 18:49:35","新北市瑞芳區民生街21號","121.805738333333","25.1074983333333","6501200","瑞芳區"
"224011","420-VK","2017/08/12 18:49:37","新北市瑞芳區崙頂路1-6號","121.847043333333","25.1047433333333","6501200","瑞芳區"
"241031","285-BY","2017/08/12 18:49:38","新北市瑞芳區祈堂路2號","121.859763333333","25.11168","6500200","三重區"
"224008","275-VK","2017/08/12 18:49:40","新北市瑞芳區逢甲路402號","121.797621666667","25.113315","6501200","瑞芳區"
"224007","273-VK","2017/08/12 18:49:39","新北市瑞芳區大埔路186-1號","121.761485","25.1012683333333","6501200","瑞芳區"
"224005","271-BY","2017/08/12 18:49:48","新北市瑞芳區建基路一段22號","121.819968333333","25.12095","6501200","瑞芳區"
"227002","642-TC","2017/08/12 18:49:55","新北市雙溪區平林里梅竹蹊26號","121.861655","25.0360466666667","6502500","雙溪區"
"227010","400-TW","2017/08/12 18:49:52","新北市雙溪區牡丹里聖南14號","121.858266666667","25.0527266666667","6502500","雙溪區"
"253006","032-BX","2017/08/12 18:49:40","新北市石門區下員坑15號","121.511485","25.2850233333333","6502200","石門區"
"253005","295-VK","2017/08/12 18:49:19","新北市石門區中山路28-3號","121.565781666667","25.2898583333333","6502200","石門區"
"208002","742-BX","2017/08/12 18:49:49","新北市金山區信義路61號","121.63573","25.2189366666667","6502700","金山區"
"208003","665-BX","2017/08/12 18:49:33","新北市金山區中山路393號","121.633395","25.2252016666667","6502700","金山區"
"208001","761-BX","2017/08/12 18:49:46","新北市金山區文化三路66巷2弄1號","121.634293333333","25.2257233333333","6502700","金山區"
"251002","012-UM","2017/08/12 18:49:48","新北市淡水區學府路60號","121.448626666667","25.1701683333333","6501000","淡水區"
"251014","180-VK","2017/08/12 18:49:42","新北市淡水區崙頂32號","121.487756666667","25.222945","6501000","淡水區"
"251010","413-VK","2017/08/12 18:49:44","新北市淡水區沙崙路20號","121.421166666667","25.1811716666667","6501000","淡水區"
"251012","441-VK","2017/08/12 18:49:37","新北市淡水區新興街3號","121.443783333333","25.180275","6501000","淡水區"
"251016","442-VK","2017/08/12 18:49:43","新北市淡水區下圭柔山71-3號","121.447085","25.206165","6501000","淡水區"
"251001","559-UM","2017/08/12 18:49:39","新北市淡水區自強路88號","121.46261","25.1283666666667","6501000","淡水區"
"251009","575-R6","2017/08/12 18:49:38","新北市淡水區重建街136號","121.440426666667","25.1733833333333","6501000","淡水區"
"251011","650-BX","2017/08/12 18:49:44","新北市淡水區學府路27號","121.44783","25.16883","6501000","淡水區"
"251003","673-BX","2017/08/12 18:49:47","新北市淡水區中山北路一段149巷8-3號","121.442788333333","25.1777716666667","6501000","淡水區"
"207003","550-UM","2017/08/12 18:49:46","新北市萬里區大鵬里頂社1號","121.657021666667","25.2097083333333","6502800","萬里區"
"207004","225-TW","2017/08/12 18:47:16","新北市萬里區萬里里獅頭路23號","121.693598333333","25.1781583333333","6502800","萬里區"
"252002","178-VK","2017/08/12 18:49:38","新北市三芝區中正路一段101-1號","121.504791666667","25.2564083333333","6502100","三芝區"
"252003","249-BX","2017/08/12 18:49:52","新北市三芝區後厝里土地公坑57-1號","121.461381666667","25.2476533333333","6502100","三芝區"
"252001","292-VK","2017/08/12 18:49:44","新北市三芝區中正路三段9號","121.502925","25.2540233333333","6502100","三芝區"
"237004","078-UY","2017/08/12 18:49:35","新北市三峽區有木17號","121.424518333333","24.8626966666667","6500900","三峽區"
"237007","153-BY","2017/08/12 18:49:37","新北市三峽區柑樹路2巷19號","121.361841666667","24.904605","6500900","三峽區"
"237009","210-TH","2017/08/12 18:49:35","新北市三峽區中山路89號","121.366443333333","24.935385","6500900","三峽區"
"237013","252-BX","2017/08/12 18:49:51","新北市三峽區光明路69巷25號","121.376675","24.9292716666667","6500900","三峽區"
"237012","275-BY","2017/08/12 18:49:49","新北市三峽區三樹路340號","121.383963333333","24.9433416666667","6500900","三峽區"
"237008","302-VK","2017/08/12 18:49:41","新北市三峽區白雞33-60號","121.370911666667","24.9131166666667","6500900","三峽區"
"237014","433-BY","2017/08/12 18:49:32","新北市三峽區隆恩街230號","121.358316666667","24.94136","6500900","三峽區"
"237006","5529-G3","2017/08/12 18:49:42","新北市三峽區溪東路233巷2弄3號","121.40699","24.9336483333333","6500900","三峽區"
"237011","572-TV","2017/08/12 18:49:42","新北市三峽區介壽路三段245號","121.408043333333","24.9496316666667","6500900","三峽區"
"237016","649-BX","2017/08/12 18:49:37","新北市三峽區成福路315巷2號","121.429615","24.9236583333333","6500900","三峽區"
"237010","706-TV","2017/08/12 18:49:48","新北市三峽區復興路279號","121.366251666667","24.9388883333333","6500900","三峽區"
"237005","AKY-6261","2017/08/12 18:49:37","新北市三峽區中山路323號","121.360491666667","24.93812","6500900","三峽區"
"236073","105-UM","2017/08/12 18:49:50","新北市土城區立德路105號","121.463635","24.9874466666667","6501300","土城區"
"236043","107-UM","2017/08/12 18:49:52","新北市土城區裕民路92巷25弄7號","121.449893333333","24.9857516666667","6501300","土城區"
"236079","166-UM","2017/08/12 18:49:34","新北市土城區中央路四段185巷42號","121.416048333333","24.9558066666667","6501300","土城區"
"236031","253-BX","2017/08/12 18:49:49","新北市土城區中央路二段243號","121.440091666667","24.9717266666667","6501300","土城區"
"236027","269-VK","2017/08/12 18:49:48","新北市土城區興城路48號","121.441355","24.9726216666667","6501300","土城區"
"236015","270-VK","2017/08/12 18:49:39","新北市土城區金城路二段354巷4號","121.460921666667","24.9849166666667","6501300","土城區"
"236038","271-VK","2017/08/12 18:49:50","新北市土城區明德路一段247巷22號","121.462885","24.97757","6501300","土城區"
"236023","401-BY","2017/08/12 18:49:44","新北市土城區延安街2號","121.467128333333","24.9861866666667","6501300","土城區"
"236059","912-UM","2017/08/12 18:49:43","新北市土城區中央路三段141-2號","121.433396666667","24.965415","6501300","土城區"
"236049","913-UM","2017/08/12 18:49:53","新北市土城區青雲路18號","121.460038333333","24.9888533333333","6501300","土城區"
"236063","915-UM","2017/08/12 18:49:41","新北市土城區金城路三段161號","121.469061666667","24.98847","6501300","土城區"
"236055","AAC-216","2017/08/12 18:49:46","新北市土城區裕民路222號","121.453591666667","24.9842666666667","6501300","土城區"
"242061","362-BY","2017/08/12 18:49:46","新北市新莊區新泰路357巷3弄9號","121.44231","25.0410366666667","6500500","新莊區"
"238023","601-UM","2017/08/12 18:49:46","新北市樹林區三福街114號","121.40644","25.016195","6500700","樹林區"
"238019","599-UM","2017/08/12 18:49:52","新北市樹林區東榮街179號","121.41369","24.9813316666667","6500700","樹林區"
"238018","571-TV","2017/08/12 18:49:44","新北市樹林區樹新路30-3號","121.42726","24.994825","6500700","樹林區"
"238024","5061-A6","2017/08/12 18:49:37","新北市樹林區太平路247巷1號","121.419125","24.97509","6500700","樹林區"
"238022","312-TH","2017/08/12 18:49:47","新北市樹林區東大街32號","121.413193333333","24.9765533333333","6500700","樹林區"
"238025","303-VK","2017/08/12 18:49:34","新北市樹林區中山路三段22號","121.395663333333","24.9729133333333","6500700","樹林區"
"238017","283-BY","2017/08/12 18:49:40","新北市樹林區光興街44號","121.409881666667","25.0027183333333","6500700","樹林區"
"238014","282-BY","2017/08/12 18:49:46","新北市樹林區大安路111巷11號","121.423145","24.99771","6500700","樹林區"
"238020","268-VK","2017/08/12 18:49:49","新北市樹林區中正路266號","121.41718","25.00784","6500700","樹林區"
"238026","172-UY","2017/08/12 18:49:51","新北市樹林區信和街7號","121.389613333333","24.971145","6500700","樹林區"
"238016","169-UY","2017/08/12 18:49:35","新北市樹林區文化街28號","121.419416666667","24.9878116666667","6500700","樹林區"
"239007","AAC-297","2017/08/12 18:49:50","新北市鶯歌區中山路138巷40號","121.351298333333","24.95987","6500800","鶯歌區"
"239006","891-R6","2017/08/12 18:49:44","新北市鶯歌區鶯桃路296巷102號","121.337155","24.9622433333333","6500800","鶯歌區"
"239008","527-UM","2017/08/12 18:49:43","新北市鶯歌區國際二路20巷5號","121.33678","24.9751833333333","6500800","鶯歌區"
"239005","526-UM","2017/08/12 18:49:45","新北市鶯歌區鳳吉一街86號","121.327015","24.974375","6500800","鶯歌區"
"239001","417-VK","2017/08/12 18:49:48","新北市鶯歌區鶯桃路35-1號","121.34299","24.9507416666667","6500800","鶯歌區"
"239003","360-BY","2017/08/12 18:49:39","新北市鶯歌區鶯桃路660號","121.329098333333","24.969195","6500800","鶯歌區"
"239002","359-BY","2017/08/12 18:49:53","新北市鶯歌區中正一路213號","121.353801666667","24.9570716666667","6500800","鶯歌區"
"239004","193-VK","2017/08/12 18:49:35","新北市鶯歌區中正三路316號","121.328236666667","24.9354516666667","6500800","鶯歌區"
"221008","489-VK","2017/08/12 18:49:35","新北市汐止區康寧街901號","121.651445","25.0750316666667","6501100","汐止區"
"221036","130-UY","2017/08/12 18:49:44","新北市汐止區水碓街63號","121.665138333333","25.06874","6501100","汐止區"
"221015","131-UY","2017/08/12 18:49:48","新北市汐止區鄉長路一段43號","121.665501666667","25.0751083333333","6501100","汐止區"
"221010","269-BY","2017/08/12 18:49:53","新北市汐止區康寧街885巷37號","121.650286666667","25.0770083333333","6501100","汐止區"
"241031","276-VK","2017/08/12 12:39:33","新北市汐止區中正路190號","121.658881666667","25.0691066666667","6500200","三重區"
"241031","278-VK","2017/08/12 14:56:56","新北市汐止區汐萬路一段39號","121.654945","25.0690566666667","6500200","三重區"
"221023","279-VK","2017/08/12 02:07:57","新北市汐止區康寧街901號","121.651743333333","25.0751166666667","6501100","汐止區"
"221032","280-BY","2017/08/12 18:49:40","新北市汐止區橫科路407巷81弄5號","121.629026666667","25.0479683333333","6501100","汐止區"
"221027","281-BY","2017/08/12 18:49:36","新北市汐止區康寧街901號","121.650811666667","25.0752333333333","6501100","汐止區"
"221038","297-VK","2017/08/12 18:49:39","新北市汐止區汐萬路一段312號","121.650665","25.0753","6501100","汐止區"
"221029","298-VK","2017/08/12 18:49:51","新北市汐止區樟樹一路2巷59號","121.641825","25.0630183333333","6501100","汐止區"
"221021","299-VK","2017/08/12 17:29:43","新北市汐止區汐萬路一段256巷3號","121.652183333333","25.0753183333333","6501100","汐止區"
"221031","353-TW","2017/08/12 18:49:46","新北市汐止區福德一路272巷9號","121.631911666667","25.0641433333333","6501100","汐止區"
"221035","622-UM","2017/08/12 18:49:37","新北市汐止區汐萬路一段208號","121.65203","25.0723483333333","6501100","汐止區"
"221025","623-UM","2017/08/12 18:49:51","新北市汐止區秀峰路60號","121.659745","25.0647916666667","6501100","汐止區"
"221033","647-BX","2017/08/12 18:49:33","新北市汐止區南勢街1巷1號","121.626968333333","25.0373516666667","6501100","汐止區"
"221002","707-TV","2017/08/12 18:49:43","新北市汐止區大同路一段231-1號","121.634286666667","25.0575733333333","6501100","汐止區"
"221018","753-BX","2017/08/12 18:49:46","新北市汐止區茄苳路252號","121.671603333333","25.0683683333333","6501100","汐止區"
"220079","145-BY","2017/08/12 18:49:35","新北市板橋區民權路202巷4弄2號","121.459785","25.01434","6500100","板橋區"
"220080","200-UY","2017/08/12 18:49:47","新北市板橋區大觀路二段265巷72弄13號","121.441911666667","24.9969566666667","6500100","板橋區"
"220082","610-BX","2017/08/12 18:49:48","新北市板橋區篤行路二段153號","121.429628333333","24.9880183333333","6500100","板橋區"
"220101","245-BX","2017/08/12 16:47:33","新北市板橋區民生路二段120號","121.470521666667","25.01944","6500100","板橋區"
"220103","257-TC","2017/08/12 18:49:46","新北市板橋區民生路二段161巷5號","121.470236666667","25.0197583333333","6500100","板橋區"
"220094","267-BY","2017/08/12 18:49:53","新北市板橋區民生路二段120號","121.47036","25.0201066666667","6500100","板橋區"
"220072","277-BY","2017/08/12 18:49:30","新北市板橋區金門街25巷3號","121.433718333333","24.99465","6500100","板橋區"
"220071","283-VK","2017/08/12 18:49:44","新北市板橋區觀光街1巷1號","121.472181666667","25.015495","6500100","板橋區"
"220053","285-VK","2017/08/12 18:49:36","新北市板橋區民生路二段80號","121.471738333333","25.0183966666667","6500100","板橋區"
"220083","286-VK","2017/08/12 18:49:55","新北市板橋區大觀路二段22巷29號","121.445176666667","25.0035466666667","6500100","板橋區"
"220081","287-VK","2017/08/12 18:49:52","新北市板橋區南雅西路二段94號","121.452418333333","25.0113133333333","6500100","板橋區"
"220090","288-VK","2017/08/12 18:49:42","新北市板橋區民生路二段161巷9號","121.470138333333","25.0195683333333","6500100","板橋區"
"220061","293-UM","2017/08/12 18:49:36","新北市板橋區民生路二段64號","121.472023333333","25.017965","6500100","板橋區"
"220055","295-UM","2017/08/12 15:25:38","新北市板橋區民生路二段15-1號","121.472695","25.0163366666667","6500100","板橋區"
"220084","296-UM","2017/08/12 18:49:43","新北市板橋區大觀路二段148巷39-1號","121.441791666667","25.000685","6500100","板橋區"
"220075","297-UM","2017/08/12 18:49:37","新北市板橋區大觀路一段28巷98號","121.450553333333","25.0110216666667","6500100","板橋區"
"220098","299-UM","2017/08/12 18:49:51","新北市板橋區民生路二段161巷9號","121.470105","25.0194716666667","6500100","板橋區"
"220062","303-R5","2017/08/12 18:49:33","新北市板橋區民生路二段15號","121.472471666667","25.0160316666667","6500100","板橋區"
"220092","307-R5","2017/08/12 18:49:40","新北市板橋區民生路二段120號","121.470431666667","25.0198383333333","6500100","板橋區"
"220064","486-VK","2017/08/12 18:49:49","新北市板橋區民生路二段15-1號","121.47281","25.0159983333333","6500100","板橋區"
"220089","487-VK","2017/08/12 18:49:44","新北市板橋區民生路二段120號","121.470545","25.01954","6500100","板橋區"
"220088","491-VK","2017/08/12 18:49:54","新北市板橋區民生路二段161巷7號","121.470216666667","25.01969","6500100","板橋區"
"220035","560-BX","2017/08/12 18:49:47","新北市板橋區中正路275巷55號","121.453166666667","25.0179083333333","6500100","板橋區"
"220063","609-BX","2017/08/12 18:49:54","新北市板橋區中山路二段50-1號","121.473288333333","25.015415","6500100","板橋區"
"220091","637-BX","2017/08/12 18:49:45","新北市板橋區民生路二段188號","121.470173333333","25.020315","6500100","板橋區"
"220057","686-BX","2017/08/12 18:49:37","新北市板橋區民生路二段17號","121.472525","25.0162183333333","6500100","板橋區"
"220077","687-BX","2017/08/12 18:49:52","新北市板橋區僑中二街152-1號","121.444413333333","25.0043166666667","6500100","板橋區"
"220093","689-BX","2017/08/12 18:49:39","新北市板橋區民生路二段161巷1號","121.46985","25.0199666666667","6500100","板橋區"
"220054","741-BX","2017/08/12 18:49:44","新北市板橋區中山路二段23號","121.472378333333","25.0153133333333","6500100","板橋區"
"220067","829-TW","2017/08/12 18:49:51","新北市板橋區民生路一段133號","121.47371","25.0150783333333","6500100","板橋區"
"220102","830-TW","2017/08/12 16:27:49","新北市板橋區民生路一段30-1號","121.47656","25.0138166666667","6500100","板橋區"
"220074","895-R6","2017/08/12 18:49:38","新北市板橋區南門街63號","121.457168333333","25.0082116666667","6500100","板橋區"
"220073","985-R7","2017/08/12 18:49:40","新北市板橋區館前西路92號","121.45735","25.007235","6500100","板橋區"
"220097","AAC-210","2017/08/12 18:49:40","新北市板橋區民生路二段161巷3號","121.469953333333","25.0197033333333","6500100","板橋區"
"220070","AAC-253","2017/08/12 18:49:46","新北市板橋區民生路二段1號","121.472913333333","25.015735","6500100","板橋區"
