"lineid","car","time","location","longitude","latitude","cityid","cityname"
"234046","148-BY","2017/08/12 18:59:49","新北市永和區得和路373巷16弄11號","121.525685","25.0000683333333","6500400","永和區"
"234013","149-BY","2017/08/12 18:59:48","新北市永和區信義路10-1號","121.514493333333","25.0119983333333","6500400","永和區"
"234007","207-UY","2017/08/12 18:59:52","新北市永和區保福路二段2號","121.511211666667","25.0107783333333","6500400","永和區"
"234081","298-R6","2017/08/12 18:59:43","新北市永和區永貞路35號","121.520965","25.0065583333333","6500400","永和區"
"234038","336-UY","2017/08/12 18:59:41","新北市永和區民樂街75巷1號","121.527371666667","24.9970066666667","6500400","永和區"
"234064","337-UY","2017/08/12 18:59:35","新北市永和區秀朗路一段198號","121.519368333333","25.0032366666667","6500400","永和區"
"234070","552-UM","2017/08/12 18:59:43","新北市永和區豫溪街95巷10弄1號","121.518023333333","25.0108416666667","6500400","永和區"
"234054","553-UM","2017/08/12 18:59:41","新北市永和區竹林路66巷15-7號","121.518263333333","25.013205","6500400","永和區"
"234017","745-BX","2017/08/12 18:59:41","新北市永和區永和路二段287號","121.516038333333","25.0158866666667","6500400","永和區"
"234030","746-BX","2017/08/12 18:59:46","新北市永和區厚德街5號","121.52564","24.998","6500400","永和區"
"234061","AAD-866","2017/08/12 18:59:37","新北市永和區福和路303號","121.516396666667","25.0071666666667","6500400","永和區"
"234086","847-RS","2017/08/12 18:59:36","新北市永和區永利路18號","121.518005","25.005765","6500400","永和區"
"234042","862-TW","2017/08/12 18:59:49","新北市永和區永貞路308號","121.511841666667","25.0048566666667","6500400","永和區"
"234050","863-TW","2017/08/12 18:59:48","新北市永和區文化路145號","121.510821666667","25.0161016666667","6500400","永和區"
"234026","9371-KE","2017/08/12 18:59:43","新北市永和區安樂路453號","121.5143","25.0049833333333","6500400","永和區"
"234011","9373-KE","2017/08/12 18:59:42","新北市永和區文化路126巷23弄14號","121.51257","25.0165716666667","6500400","永和區"
"249005","172-UM","2017/08/12 18:59:21","新北市八里區長道坑13-1號","121.394765","25.1226266666667","6502300","八里區"
"249001","173-UM","2017/08/12 18:59:55","新北市八里區龍米路二段228-1號","121.432718333333","25.1583833333333","6502300","八里區"
"248016","026-BX","2017/08/12 18:59:38","新北市五股區成泰路三段543巷16號","121.450906666667","25.1022","6501500","五股區"
"248006","077-UY","2017/08/12 18:59:48","新北市五股區中興路一段68號","121.467338333333","25.0730733333333","6501500","五股區"
"248008","095-VK","2017/08/12 18:59:39","新北市五股區中興路一段118巷6弄9號","121.466316666667","25.0746416666667","6501500","五股區"
"248020","225-UY","2017/08/12 18:59:44","新北市五股區凌雲路三段71-12號","121.425181666667","25.12264","6501500","五股區"
"248012","247-BX","2017/08/12 18:59:45","新北市五股區成泰路二段101號","121.438411666667","25.08434","6501500","五股區"
"248014","261-SL","2017/08/12 18:59:43","新北市五股區民義路一段107巷32號","121.432551666667","25.0846116666667","6501500","五股區"
"248004","677-BX","2017/08/12 18:59:39","新北市五股區民義路二段50-28號","121.412453333333","25.1025333333333","6501500","五股區"
"248002","678-BX","2017/08/12 18:59:51","新北市五股區凌雲路一段163號","121.448856666667","25.10255","6501500","五股區"
"248010","682-TV","2017/08/12 18:59:54","新北市五股區水碓五路26號","121.428778333333","25.0709983333333","6501500","五股區"
"234023","9380-KE","2017/08/12 18:59:38","新北市永和區竹林路75巷45號","121.520878333333","25.0143666666667","6500400","永和區"
"234077","969-R7","2017/08/12 18:59:40","新北市永和區中正路318號","121.51789","24.9994183333333","6500400","永和區"
"234074","AAC-211","2017/08/12 18:59:50","新北市永和區豫溪街217巷27號","121.524288333333","25.0101966666667","6500400","永和區"
"234067","AAC-212","2017/08/12 18:59:48","新北市永和區中和路625號","121.512973333333","25.004895","6500400","永和區"
"234003","AAC-295","2017/08/12 18:59:54","新北市永和區保福路一段70號","121.512578333333","25.0099683333333","6500400","永和區"
"232011","375-UM","2017/08/12 18:59:49","新北市坪林區水聳淒坑20-2號","121.711331666667","24.934015","6502000","坪林區"
"244007","080-UY","2017/08/12 18:59:35","新北市林口區太平里23-3號","121.376168333333","25.11554","6501700","林口區"
"244025","742-UY","2017/08/12 18:59:51","新北市林口區文化北路一段436號","121.365106666667","25.0768433333333","6501700","林口區"
"244009","410-SL","2017/08/12 18:59:43","新北市林口區竹林路326巷12-1號","121.392026666667","25.08225","6501700","林口區"
"244009","656-BX","2017/08/12 18:59:44","新北市林口區文化二路一段20巷25弄61號","121.366138333333","25.0675916666667","6501700","林口區"
"244023","657-BX","2017/08/12 18:59:45","新北市林口區民權路24號","121.37158","25.0804966666667","6501700","林口區"
"244013","658-BX","2017/08/12 18:59:47","新北市林口區文化一路一段133號","121.373801666667","25.07177","6501700","林口區"
"244011","701-TV","2017/08/12 18:59:51","新北市林口區仁愛路一段264號","121.394181666667","25.0759566666667","6501700","林口區"
"244019","837-TS","2017/08/12 18:59:53","新北市林口區麗園二街60巷56號","121.381193333333","25.067435","6501700","林口區"
"243013","AAD-798","2017/08/12 18:59:48","新北市泰山區明志路三段239號","121.423495","25.03777","6501600","泰山區"
"243009","297-R6","2017/08/12 18:59:49","新北市泰山區泰林路二段353號","121.428301666667","25.0636683333333","6501600","泰山區"
"243015","380-SR","2017/08/12 18:59:44","新北市泰山區明志路一段203號","121.432651666667","25.06141","6501600","泰山區"
"243014","421-VK","2017/08/12 18:59:40","新北市泰山區黎明路3號","121.421035","25.0632383333333","6501600","泰山區"
"243010","548-UM","2017/08/12 18:59:52","新北市泰山區辭修路24號","121.429018333333","25.0581183333333","6501600","泰山區"
"243011","549-UM","2017/08/12 18:59:36","新北市泰山區明志路二段246-1號","121.427106666667","25.0480616666667","6501600","泰山區"
"243012","646-TV","2017/08/12 18:59:35","新北市泰山區仁德路112號","121.432773333333","25.0569633333333","6501600","泰山區"
"243016","680-BX","2017/08/12 18:59:53","新北市泰山區明志路二段191號","121.427558333333","25.0493733333333","6501600","泰山區"
"222003","436-BY","2017/08/12 18:59:45","新北市深坑區深南路51-1號","121.621363333333","25.0101716666667","6501800","深坑區"
"222002","659-BX","2017/08/12 18:59:44","新北市深坑區文山路一段33號","121.62952","25.00399","6501800","深坑區"
"222001","696-SL","2017/08/12 18:59:41","新北市深坑區北深路一段300號","121.625063333333","25.0066883333333","6501800","深坑區"
"231041","002-UM","2017/08/12 18:59:36","新北市新店區環河路29巷1號","121.537041666667","24.9614083333333","6500600","新店區"
"231056","0291-UT","2017/08/12 18:59:49","新北市新店區二十張路33巷20號","121.539143333333","24.9807933333333","6500600","新店區"
"231058","0293-UT","2017/08/12 18:59:44","新北市新店區中興路一段185號","121.54312","24.9648683333333","6500600","新店區"
"231059","046-UY","2017/08/12 18:59:37","新北市新店區安康路一段266巷4號","121.51996","24.9640583333333","6500600","新店區"
"231061","047-UY","2017/08/12 18:59:38","新北市新店區安康路一段359號","121.517776666667","24.9639866666667","6500600","新店區"
"231060","106-UY","2017/08/12 18:59:54","新北市新店區車子路10-4號","121.50492","24.9545883333333","6500600","新店區"
"231051","107-UY","2017/08/12 18:59:47","新北市新店區百忍街13號","121.534653333333","24.9755766666667","6500600","新店區"
"231048","108-UY","2017/08/12 18:59:47","新北市新店區德正街27巷29弄46-1號","121.54577","24.97254","6500600","新店區"
"231052","187-VK","2017/08/12 18:59:41","新北市新店區湖子內路1-1號","121.541665","24.9300133333333","6500600","新店區"
"231063","268-BY","2017/08/12 18:59:37","新北市新店區車子路109號","121.505241666667","24.9521066666667","6500600","新店區"
"231046","278-BY","2017/08/12 18:59:44","新北市新店區直潭五街28號","121.5341","24.9415966666667","6500600","新店區"
"231050","AAD-862","2017/08/12 18:59:53","新北市新店區新烏路一段11巷1弄2號","121.547308333333","24.95136","6500600","新店區"
"231055","3713-VJ","2017/08/12 18:59:48","新北市新店區新生街13巷42號","121.538933333333","24.966525","6500600","新店區"
"231067","4772-VM","2017/08/12 18:59:45","新北市新店區安康路一段247巷8號","121.524586666667","24.96274","6500600","新店區"
"231065","512-UM","2017/08/12 18:59:45","新北市新店區安祥路147巷86號","121.475525","24.95539","6500600","新店區"
"231054","513-UM","2017/08/12 18:59:48","新北市新店區新店路27-1號","121.539991666667","24.95278","6500600","新店區"
"231064","515-UM","2017/08/12 18:59:39","新北市新店區安忠路15號","121.514716666667","24.9624533333333","6500600","新店區"
"231045","617-UM","2017/08/12 18:59:36","新北市新店區光明街9號","121.5382","24.9594283333333","6500600","新店區"
"231040","619-UM","2017/08/12 18:59:52","新北市新店區三民路130號","121.53482","24.9748016666667","6500600","新店區"
"231042","641-BX","2017/08/12 18:59:40","新北市新店區中正路15號","121.545468333333","24.9694183333333","6500600","新店區"
"231049","719-UM","2017/08/12 18:59:50","新北市新店區二十張路137號","121.535605","24.9791333333333","6500600","新店區"
"231062","720-UM","2017/08/12 18:59:43","新北市新店區柴埕路59號","121.513565","24.96488","6500600","新店區"
"231044","897-TW","2017/08/12 18:59:48","新北市新店區寶中路72號","121.547876666667","24.9806533333333","6500600","新店區"
"231043","899-TW","2017/08/12 18:59:55","新北市新店區北新路二段15號","121.54276","24.9714283333333","6500600","新店區"
"231066","AKT-0513","2017/08/12 18:59:50","新北市新店區安祥路35-2號","121.49072","24.9568366666667","6500600","新店區"
"235066","003-UY","2017/08/12 18:59:48","新北市中和區中山路二段131巷5弄3號","121.502851666667","25.0028883333333","6500300","中和區"
"235064","005-UY","2017/08/12 18:59:48","新北市中和區泰和街12號","121.499861666667","25.000935","6500300","中和區"
"235063","006-UY","2017/08/12 18:59:51","新北市中和區中正路472號","121.489826666667","24.994345","6500300","中和區"
"235056","096-UM","2017/08/12 18:59:33","新北市中和區員山路466巷34號","121.482451666667","25.0062866666667","6500300","中和區"
"235039","097-UM","2017/08/12 18:59:41","新北市中和區宜安路52巷24號","121.512715","24.9975483333333","6500300","中和區"
"235065","098-UM","2017/08/12 18:59:51","新北市中和區中山路二段2巷45弄32號","121.501575","25.0068816666667","6500300","中和區"
"235040","150-BY","2017/08/12 18:59:35","新北市中和區宜安路23巷12號","121.512526666667","24.9954483333333","6500300","中和區"
"235058","151-BY","2017/08/12 18:59:41","新北市中和區連城路384號","121.480661666667","24.99509","6500300","中和區"
"235055","183-VK","2017/08/12 18:59:51","新北市中和區民生街85巷5弄2號","121.469285","25.0039916666667","6500300","中和區"
"235038","185-VK","2017/08/12 18:59:49","新北市中和區大勇街43巷11號","121.517071666667","24.99461","6500300","中和區"
"235049","186-VK","2017/08/12 18:59:51","新北市中和區景安路177巷33號","121.506881666667","24.9946183333333","6500300","中和區"
"235067","255-BX","2017/08/12 18:59:47","新北市中和區中正路839巷5號","121.484318333333","25.002345","6500300","中和區"
"235044","293-VK","2017/08/12 18:59:38","新北市中和區中興街169號","121.500008333333","24.9904833333333","6500300","中和區"
"235072","301-VK","2017/08/12 18:59:54","新北市中和區中山路二段259號","121.49713","25.0023283333333","6500300","中和區"
"235043","352-BY","2017/08/12 18:59:50","新北市中和區成功路79號","121.52609","24.9921766666667","6500300","中和區"
"235051","376-QA","2017/08/12 18:59:38","新北市中和區忠孝街9號","121.509881666667","24.9830033333333","6500300","中和區"
"235068","377-QA","2017/08/12 18:45:52","新北市中和區中正路93號","121.500186666667","24.9935333333333","6500300","中和區"
"235061","378-QA","2017/08/12 18:59:39","新北市中和區民享街89巷9弄6號","121.474943333333","25.0020166666667","6500300","中和區"
"235050","4979-A6","2017/08/12 18:59:43","新北市中和區華新街28號","121.507681666667","24.9846916666667","6500300","中和區"
"235069","4980-A6","2017/08/12 18:59:48","新北市中和區景平路459巷1弄2號","121.500336666667","24.9963866666667","6500300","中和區"
"235042","551-UM","2017/08/12 18:59:50","新北市中和區秀朗路三段100巷2弄16號","121.524876666667","24.9938116666667","6500300","中和區"
"235070","558-UM","2017/08/12 18:59:41","新北市中和區圓通路14號","121.501501666667","24.998","6500300","中和區"
"235045","565-BX","2017/08/12 18:59:47","新北市中和區捷運路6號","121.510266666667","24.9895416666667","6500300","中和區"
"235054","640-BX","2017/08/12 18:59:51","新北市中和區民享街35巷12號","121.474725","25.0040066666667","6500300","中和區"
"235060","647-TV","2017/08/12 18:59:35","新北市中和區民治街5巷1號","121.474978333333","25.0051716666667","6500300","中和區"
"235047","732-UM","2017/08/12 18:59:35","新北市中和區興南路二段52號","121.506455","24.98514","6500300","中和區"
"235046","733-UM","2017/08/12 18:59:46","新北市中和區興南路二段3巷17號","121.508655","24.986375","6500300","中和區"
"235062","800-TS","2017/08/12 18:59:38","新北市中和區中山路二段348巷8號","121.492973333333","25.002985","6500300","中和區"
"235057","801-TS","2017/08/12 18:59:37","新北市中和區民利街12號","121.48067","24.9991933333333","6500300","中和區"
"235041","802-TS","2017/08/12 18:59:47","新北市中和區宜安路118巷16號","121.510745","24.9985733333333","6500300","中和區"
"235052","805-TS","2017/08/12 18:59:35","新北市中和區興南路二段347號","121.50012","24.98011","6500300","中和區"
"235048","896-TW","2017/08/12 18:59:48","新北市中和區華新街109巷15號","121.508806666667","24.9810283333333","6500300","中和區"
"235053","900-TW","2017/08/12 18:59:53","新北市中和區壽德街3號","121.46494","24.99598","6500300","中和區"
"235037","AAC-213","2017/08/12 18:59:49","新北市中和區秀朗路三段128巷25弄6號","121.524041666667","24.9939533333333","6500300","中和區"
"235059","AAC-215","2017/08/12 18:59:45","新北市中和區圓通路367巷18-5號","121.491796666667","24.9884516666667","6500300","中和區"
"220068","013-TV","2017/08/12 18:59:48","新北市板橋區中山路二段463號","121.481863333333","25.0204316666667","6500100","板橋區"
"220065","072-UY","2017/08/12 18:59:47","新北市板橋區民族路287巷12號","121.471165","25.007145","6500100","板橋區"
"220086","073-UY","2017/08/12 18:59:49","新北市板橋區大智街5號","121.456036666667","25.0148116666667","6500100","板橋區"
"220106","075-UY","2017/08/12 18:59:42","新北市板橋區文化路二段124巷28-2號","121.471235","25.0256616666667","6500100","板橋區"
"220069","AAD-861","2017/08/12 18:59:48","新北市板橋區大華街100號","121.459098333333","25.0052416666667","6500100","板橋區"
"220096","120-SR","2017/08/12 18:59:43","新北市板橋區莒光路75號","121.47159","25.0241016666667","6500100","板橋區"
"226004","312-R5","2017/08/12 18:59:07","新北市平溪區靜安路二段482號","121.743023333333","25.0259133333333","6502400","平溪區"
"241031","7418-A5","2017/08/12 15:53:44","新北市平溪區石底里公園街18-3號","121.733536666667","25.0255933333333","6500200","三重區"
"228003","097-TW","2017/08/12 18:59:45","新北市貢寮區和美里龍洞街60-1號","121.914466666667","25.11643","6502600","貢寮區"
"228001","212-TW","2017/08/12 18:59:39","新北市貢寮區仁理村保健街73號","121.923733333333","25.0517016666667","6502600","貢寮區"
"228002","585-TW","2017/08/12 18:59:51","新北市貢寮區福隆里東興街106巷23弄1號","121.946143333333","25.0180983333333","6502600","貢寮區"
"224010","AGQ-8101","2017/08/12 18:59:46","新北市瑞芳區基山街4-4號","121.845151666667","25.10953","6501200","瑞芳區"
"224006","676-BX","2017/08/12 18:59:51","新北市瑞芳區中正路31號","121.807616666667","25.1070233333333","6501200","瑞芳區"
"224011","420-VK","2017/08/12 18:59:37","新北市瑞芳區崙頂路1-6號","121.847031666667","25.1047716666667","6501200","瑞芳區"
"241031","285-BY","2017/08/12 18:59:38","新北市瑞芳區祈堂路53-1號","121.859641666667","25.1108166666667","6500200","三重區"
"224008","275-VK","2017/08/12 18:59:19","新北市瑞芳區瑞芳街82-2號","121.802608333333","25.1100683333333","6501200","瑞芳區"
"224007","273-VK","2017/08/12 18:59:40","新北市瑞芳區中央路48巷168號","121.759298333333","25.1031816666667","6501200","瑞芳區"
"224005","271-BY","2017/08/12 18:59:48","新北市瑞芳區濱二路69號","121.829938333333","25.1199766666667","6501200","瑞芳區"
"227002","642-TC","2017/08/12 18:59:35","新北市雙溪區平林里康福家園10號","121.858793333333","25.0373483333333","6502500","雙溪區"
"227010","400-TW","2017/08/12 18:59:51","新北市雙溪區牡丹里中正路58巷15號","121.86645","25.0412116666667","6502500","雙溪區"
"253006","032-BX","2017/08/12 18:59:40","新北市石門區下員坑28-6號","121.516748333333","25.283065","6502200","石門區"
"253005","295-VK","2017/08/12 18:59:38","新北市石門區中央路14-2號","121.566948333333","25.2916233333333","6502200","石門區"
"208002","742-BX","2017/08/12 18:59:49","新北市金山區信義路30號","121.635318333333","25.21981","6502700","金山區"
"208003","665-BX","2017/08/12 18:59:54","新北市金山區中正路41號","121.634955","25.221955","6502700","金山區"
"208001","761-BX","2017/08/12 18:59:46","新北市金山區中山路79號","121.640463333333","25.218525","6502700","金山區"
"251002","012-UM","2017/08/12 18:59:48","新北市淡水區學府路17號","121.44759","25.1683766666667","6501000","淡水區"
"251014","180-VK","2017/08/12 18:59:42","新北市淡水區小中寮32-1號","121.491791666667","25.2265283333333","6501000","淡水區"
"251010","413-VK","2017/08/12 18:59:44","新北市淡水區淡海路111號","121.422046666667","25.18249","6501000","淡水區"
"251012","441-VK","2017/08/12 18:59:37","新北市淡水區新春街44號","121.43743","25.1816883333333","6501000","淡水區"
"251016","442-VK","2017/08/12 18:59:42","新北市淡水區淡金路三段36號","121.44794","25.1991433333333","6501000","淡水區"
"251005","443-VK","2017/08/12 18:59:45","新北市淡水區崁頂77-20號","121.431241666667","25.2026583333333","6501000","淡水區"
"251001","559-UM","2017/08/12 18:59:37","新北市淡水區自強路58-1號","121.463268333333","25.12759","6501000","淡水區"
"251009","575-R6","2017/08/12 18:59:38","新北市淡水區重建街42號","121.439926666667","25.1713766666667","6501000","淡水區"
"251011","650-BX","2017/08/12 18:59:44","新北市淡水區鄧公路30巷2弄36號","121.454025","25.1690383333333","6501000","淡水區"
"251003","673-BX","2017/08/12 18:59:47","新北市淡水區中山北路一段149巷31號","121.443081666667","25.1778816666667","6501000","淡水區"
"207003","550-UM","2017/08/12 18:59:46","新北市萬里區大鵬里頂社1-2號","121.657465","25.2098183333333","6502800","萬里區"
"207004","225-TW","2017/08/12 18:59:33","新北市萬里區萬里里獅頭路23號","121.693255","25.1782416666667","6502800","萬里區"
"252002","178-VK","2017/08/12 18:59:38","新北市三芝區中正路一段101號","121.504741666667","25.2564966666667","6502100","三芝區"
"252003","249-BX","2017/08/12 18:59:52","新北市三芝區錫板里海尾14-29號","121.476563333333","25.2573966666667","6502100","三芝區"
"252001","292-VK","2017/08/12 18:59:44","新北市三芝區中正路三段24號","121.50253","25.2529166666667","6502100","三芝區"
"237004","078-UY","2017/08/12 18:59:35","新北市三峽區有木194-1號","121.447406666667","24.8453533333333","6500900","三峽區"
"237007","153-BY","2017/08/12 18:59:37","新北市三峽區大埔路136號","121.367668333333","24.9039516666667","6500900","三峽區"
"237013","252-BX","2017/08/12 18:59:51","新北市三峽區光明路69巷25號","121.376713333333","24.9292733333333","6500900","三峽區"
"237012","275-BY","2017/08/12 18:59:49","新北市三峽區三樹路222巷47號","121.382863333333","24.9423016666667","6500900","三峽區"
"237008","302-VK","2017/08/12 18:59:41","新北市三峽區中正路一段415號","121.370218333333","24.9204516666667","6500900","三峽區"
"237014","433-BY","2017/08/12 18:59:32","新北市三峽區大勇路14號","121.367133333333","24.9383183333333","6500900","三峽區"
"237006","5529-G3","2017/08/12 18:59:48","新北市三峽區溪東路231號","121.406606666667","24.9328983333333","6500900","三峽區"
"237011","572-TV","2017/08/12 18:59:42","新北市三峽區介壽路三段59號","121.395531666667","24.9376733333333","6500900","三峽區"
"237016","649-BX","2017/08/12 18:59:37","新北市三峽區安坑38號","121.454818333333","24.9322016666667","6500900","三峽區"
"237010","706-TV","2017/08/12 18:59:43","新北市三峽區國光街350巷23號","121.371533333333","24.940435","6500900","三峽區"
"237005","AKY-6261","2017/08/12 18:59:37","新北市三峽區中山路459巷163-3號","121.348618333333","24.9328983333333","6500900","三峽區"
"236073","105-UM","2017/08/12 18:59:49","新北市土城區青雲路113號","121.458906666667","24.9847733333333","6501300","土城區"
"236043","107-UM","2017/08/12 18:59:52","新北市土城區學府路一段231號","121.451165","24.9840383333333","6501300","土城區"
"236079","166-UM","2017/08/12 18:59:54","新北市土城區中央路四段147號","121.415588333333","24.957165","6501300","土城區"
"236031","253-BX","2017/08/12 18:59:49","新北市土城區千歲路3巷8號","121.440998333333","24.97024","6501300","土城區"
"236027","269-VK","2017/08/12 18:59:46","新北市土城區光明街41號","121.442211666667","24.9738983333333","6501300","土城區"
"236015","270-VK","2017/08/12 18:59:39","新北市土城區延和路13巷3號","121.463678333333","24.9883733333333","6501300","土城區"
"236038","271-VK","2017/08/12 18:59:50","新北市土城區仁愛路54巷17號","121.461825","24.978205","6501300","土城區"
"236023","401-BY","2017/08/12 18:59:54","新北市土城區延吉街217巷7號","121.46884","24.9845983333333","6501300","土城區"
"236059","912-UM","2017/08/12 18:59:43","新北市土城區金城路二段58號","121.452271666667","24.979645","6501300","土城區"
"236049","913-UM","2017/08/12 18:59:50","新北市土城區青雲路322巷2弄4號","121.458071666667","24.97731","6501300","土城區"
"236063","915-UM","2017/08/12 18:59:41","新北市土城區延和路39巷2號","121.466001666667","24.9896283333333","6501300","土城區"
"236055","AAC-216","2017/08/12 18:59:46","新北市土城區學成路143號","121.44892","24.989535","6501300","土城區"
"238023","601-UM","2017/08/12 18:59:46","新北市樹林區工興街15號","121.398181666667","25.0137083333333","6500700","樹林區"
"238019","599-UM","2017/08/12 18:59:38","新北市樹林區東榮街125號","121.414993333333","24.981835","6500700","樹林區"
"238018","571-TV","2017/08/12 18:59:35","新北市樹林區鎮前街313號","121.417573333333","24.9845283333333","6500700","樹林區"
"238022","312-TH","2017/08/12 18:59:47","新北市樹林區東興街16巷2弄2號","121.409701666667","24.9782933333333","6500700","樹林區"
"238021","311-TH","2017/08/12 18:59:40","新北市樹林區西圳街二段110-1號","121.383641666667","24.9575616666667","6500700","樹林區"
"238025","303-VK","2017/08/12 18:59:54","新北市樹林區民和街50號","121.384335","24.9691466666667","6500700","樹林區"
"238017","283-BY","2017/08/12 18:59:40","新北市樹林區光興街50號","121.409871666667","25.0027466666667","6500700","樹林區"
"238014","282-BY","2017/08/12 18:59:46","新北市樹林區潭興街141巷2號","121.42554","24.99955","6500700","樹林區"
"238020","268-VK","2017/08/12 18:59:49","新北市樹林區中正路417號","121.416926666667","25.0077166666667","6500700","樹林區"
"238026","172-UY","2017/08/12 18:59:31","新北市樹林區吉祥街3巷1號","121.39209","24.9729516666667","6500700","樹林區"
"238016","169-UY","2017/08/12 18:59:35","新北市樹林區文化街28-1號","121.41918","24.9879666666667","6500700","樹林區"
"239007","AAC-297","2017/08/12 18:59:50","新北市鶯歌區大湖路85巷3號","121.34197","24.9623983333333","6500800","鶯歌區"
"239006","891-R6","2017/08/12 18:59:44","新北市鶯歌區鶯桃路242巷16號","121.336686666667","24.9599916666667","6500800","鶯歌區"
"239008","527-UM","2017/08/12 18:59:43","新北市鶯歌區國際二路16巷7號","121.337613333333","24.9749166666667","6500800","鶯歌區"
"239005","526-UM","2017/08/12 18:59:45","新北市鶯歌區大湖路361巷36弄20號","121.329883333333","24.9773333333333","6500800","鶯歌區"
"239001","417-VK","2017/08/12 18:59:48","新北市鶯歌區光明街232號","121.341395","24.9559","6500800","鶯歌區"
"239003","360-BY","2017/08/12 18:59:39","新北市鶯歌區鶯桃路485號","121.331721666667","24.966305","6500800","鶯歌區"
"239002","359-BY","2017/08/12 18:59:53","新北市鶯歌區湖山路27巷22號","121.339561666667","24.9743933333333","6500800","鶯歌區"
"239004","193-VK","2017/08/12 18:59:35","新北市鶯歌區二甲路106巷2號","121.333901666667","24.9313416666667","6500800","鶯歌區"
"221008","489-VK","2017/08/12 18:59:35","新北市汐止區康寧街753巷1-1號","121.639113333333","25.073735","6501100","汐止區"
"221036","130-UY","2017/08/12 18:59:44","新北市汐止區忠孝東路280號","121.663715","25.068155","6501100","汐止區"
"221015","131-UY","2017/08/12 18:59:48","新北市汐止區汐萬路一段294號","121.650615","25.074435","6501100","汐止區"
"221010","269-BY","2017/08/12 18:59:50","新北市汐止區康寧街901號","121.651501666667","25.0749733333333","6501100","汐止區"
"241031","276-VK","2017/08/12 12:39:33","新北市汐止區中正路190號","121.658881666667","25.0691066666667","6500200","三重區"
"241031","278-VK","2017/08/12 14:56:56","新北市汐止區汐萬路一段39號","121.654945","25.0690566666667","6500200","三重區"
"221023","279-VK","2017/08/12 02:07:57","新北市汐止區康寧街901號","121.651743333333","25.0751166666667","6501100","汐止區"
"221032","280-BY","2017/08/12 18:59:40","新北市汐止區橫科路367巷26號","121.62332","25.0482766666667","6501100","汐止區"
"221027","281-BY","2017/08/12 18:49:36","新北市汐止區康寧街901號","121.650811666667","25.0752333333333","6501100","汐止區"
"221038","297-VK","2017/08/12 18:59:39","新北市汐止區汐萬路一段312號","121.650661666667","25.075305","6501100","汐止區"
"221029","298-VK","2017/08/12 18:59:51","新北市汐止區樟樹一路256號","121.642411666667","25.067305","6501100","汐止區"
"221021","299-VK","2017/08/12 17:29:43","新北市汐止區汐萬路一段256巷3號","121.652183333333","25.0753183333333","6501100","汐止區"
"221031","353-TW","2017/08/12 18:59:46","新北市汐止區福德二路158號","121.630163333333","25.0651966666667","6501100","汐止區"
"221025","623-UM","2017/08/12 18:59:51","新北市汐止區汐萬路一段256巷3號","121.652528333333","25.07457","6501100","汐止區"
"221033","647-BX","2017/08/12 18:59:53","新北市汐止區南勢街1巷2號","121.626905","25.0373783333333","6501100","汐止區"
"221002","707-TV","2017/08/12 18:59:43","新北市汐止區大同路一段2號","121.620986666667","25.0550316666667","6501100","汐止區"
"221018","753-BX","2017/08/12 18:59:46","新北市汐止區茄苳路59號","121.666658333333","25.0707816666667","6501100","汐止區"
"220079","145-BY","2017/08/12 18:59:41","新北市板橋區民權路202巷9弄1號","121.460305","25.015325","6500100","板橋區"
"220080","200-UY","2017/08/12 18:59:46","新北市板橋區大觀路二段265巷3弄39-1號","121.444433333333","24.99779","6500100","板橋區"
"220082","610-BX","2017/08/12 18:59:53","新北市板橋區篤行路二段136號","121.429806666667","24.9885166666667","6500100","板橋區"
"220101","245-BX","2017/08/12 18:59:51","新北市板橋區莊敬路109號","121.472116666667","25.0260083333333","6500100","板橋區"
"220103","257-TC","2017/08/12 18:59:46","新北市板橋區民生路二段123號","121.470608333333","25.0185183333333","6500100","板橋區"
"220094","267-BY","2017/08/12 18:59:33","新北市板橋區文化路二段76號","121.469491666667","25.0249583333333","6500100","板橋區"
"220072","277-BY","2017/08/12 18:59:50","新北市板橋區篤行路一段33號","121.432043333333","24.99443","6500100","板橋區"
"220071","283-VK","2017/08/12 18:59:44","新北市板橋區忠孝路176巷3號","121.464656666667","25.0021133333333","6500100","板橋區"
"220053","285-VK","2017/08/12 18:59:46","新北市板橋區中山路二段89巷66號","121.473658333333","25.0175683333333","6500100","板橋區"
"220083","286-VK","2017/08/12 18:59:41","新北市板橋區大觀路一段38巷156弄132號","121.443323333333","25.0080483333333","6500100","板橋區"
"220081","287-VK","2017/08/12 18:59:40","新北市板橋區南雅西路二段102號","121.45235","25.0117666666667","6500100","板橋區"
"220090","288-VK","2017/08/12 18:59:42","新北市板橋區四維路177巷1弄2號","121.464036666667","25.0261966666667","6500100","板橋區"
"220061","293-UM","2017/08/12 18:59:56","新北市板橋區富山街87號","121.476661666667","25.0218816666667","6500100","板橋區"
"220055","295-UM","2017/08/12 18:59:45","新北市板橋區中山路一段158巷20號","121.466376666667","25.01119","6500100","板橋區"
"220084","296-UM","2017/08/12 18:59:49","新北市板橋區大觀路二段156巷62號","121.441235","25.0006216666667","6500100","板橋區"
"220075","297-UM","2017/08/12 18:59:37","新北市板橋區館前西路225號","121.454483333333","25.0084816666667","6500100","板橋區"
"220098","299-UM","2017/08/12 18:59:52","新北市板橋區民有街31號","121.465955","25.0254","6500100","板橋區"
"220062","303-R5","2017/08/12 18:59:34","新北市板橋區民享街134號","121.477968333333","25.0163833333333","6500100","板橋區"
"220092","307-R5","2017/08/12 18:59:51","新北市板橋區文化路一段102號","121.464716666667","25.01805","6500100","板橋區"
"220064","486-VK","2017/08/12 18:59:48","新北市板橋區中山路一段283巷2弄25號","121.470591666667","25.0153066666667","6500100","板橋區"
"220089","487-VK","2017/08/12 18:59:44","新北市板橋區仁化街14號","121.474608333333","25.0316166666667","6500100","板橋區"
"220088","491-VK","2017/08/12 18:59:54","新北市板橋區民生路二段224號","121.468993333333","25.0218933333333","6500100","板橋區"
"220035","560-BX","2017/08/12 18:59:41","新北市板橋區中正路325巷23號","121.454205","25.019625","6500100","板橋區"
"220063","609-BX","2017/08/12 18:59:53","新北市板橋區中山路二段265號","121.477775","25.0177316666667","6500100","板橋區"
"220091","637-BX","2017/08/12 18:59:45","新北市板橋區雙十路二段47巷42號","121.475221666667","25.0256116666667","6500100","板橋區"
"220057","686-BX","2017/08/12 18:59:37","新北市板橋區縣民大道一段185巷1號","121.458251666667","25.0072666666667","6500100","板橋區"
"220077","687-BX","2017/08/12 18:59:52","新北市板橋區龍興街2號","121.442723333333","24.999395","6500100","板橋區"
"220093","689-BX","2017/08/12 18:59:39","新北市板橋區民生路三段66號","121.46696","25.025715","6500100","板橋區"
"220054","741-BX","2017/08/12 18:59:44","新北市板橋區後埔街29號","121.460531666667","25.0063716666667","6500100","板橋區"
"220067","829-TW","2017/08/12 18:59:51","新北市板橋區三民路二段正隆巷12弄24號","121.477426666667","25.0137683333333","6500100","板橋區"
"220102","830-TW","2017/08/12 18:59:48","新北市板橋區縣民大道三段133巷35號","121.477046666667","25.0247483333333","6500100","板橋區"
"220074","895-R6","2017/08/12 18:59:37","新北市板橋區西門街59號","121.454386666667","25.0091616666667","6500100","板橋區"
"220073","985-R7","2017/08/12 18:59:40","新北市板橋區中正路169號","121.456581666667","25.0163616666667","6500100","板橋區"
"220097","AAC-210","2017/08/12 18:59:40","新北市板橋區四維路137巷31號","121.463855","25.024635","6500100","板橋區"
"220070","AAC-253","2017/08/12 18:59:50","新北市板橋區四川路一段73號","121.459673333333","25.0059466666667","6500100","板橋區"
