"lineid","car","time","location","longitude","latitude","cityid","cityname"
"234046","148-BY","2017/08/12 19:08:29","新北市永和區永元路71號","121.52223","25.0010683333333","6500400","永和區"
"234013","149-BY","2017/08/12 19:07:02","新北市永和區保福路二段30號","121.51102","25.0117666666667","6500400","永和區"
"234007","207-UY","2017/08/12 19:08:32","新北市永和區中山路一段320號","121.506501666667","25.0069016666667","6500400","永和區"
"234081","298-R6","2017/08/12 19:08:03","新北市永和區永貞路37號","121.521198333333","25.0064933333333","6500400","永和區"
"234038","336-UY","2017/08/12 19:08:55","新北市永和區民樂街59巷16號","121.527976666667","24.9982583333333","6500400","永和區"
"234064","337-UY","2017/08/12 19:08:43","新北市永和區秀朗路二段50號","121.521808333333","25.00213","6500400","永和區"
"234070","552-UM","2017/08/12 19:08:59","新北市永和區豫溪街86號","121.518371666667","25.0099683333333","6500400","永和區"
"234054","553-UM","2017/08/12 19:09:01","新北市永和區中興街133巷12號","121.518486666667","25.0126066666667","6500400","永和區"
"234017","745-BX","2017/08/12 19:08:41","新北市永和區文化路90巷15弄1號","121.513838333333","25.0159133333333","6500400","永和區"
"234030","746-BX","2017/08/12 19:07:06","新北市永和區民生路29號","121.522853333333","24.9983683333333","6500400","永和區"
"234061","AAD-866","2017/08/12 19:08:17","新北市永和區安樂路304巷10弄19號","121.51541","25.0056416666667","6500400","永和區"
"234086","847-RS","2017/08/12 19:06:55","新北市永和區永貞路152號","121.517821666667","25.0044183333333","6500400","永和區"
"234042","862-TW","2017/08/12 19:06:09","新北市永和區永和路一段49巷3弄51號","121.512066666667","25.006315","6500400","永和區"
"234050","863-TW","2017/08/12 19:09:08","新北市永和區仁愛路104巷7弄56號","121.510983333333","25.014195","6500400","永和區"
"234026","9371-KE","2017/08/12 19:06:02","新北市永和區安樂路272巷9弄7號","121.515103333333","25.0046283333333","6500400","永和區"
"234011","9373-KE","2017/08/12 19:09:42","新北市永和區仁愛路88號","121.512493333333","25.0133483333333","6500400","永和區"
"249005","172-UM","2017/08/12 19:09:21","新北市八里區中華路三段145巷5號","121.392073333333","25.134005","6502300","八里區"
"249001","173-UM","2017/08/12 19:09:35","新北市八里區龍米路二段209-26號","121.431381666667","25.1585133333333","6502300","八里區"
"248016","026-BX","2017/08/12 19:06:38","新北市五股區凌雲路一段116巷17號","121.450356666667","25.1022666666667","6501500","五股區"
"248020","225-UY","2017/08/12 19:08:44","新北市五股區凌雲路三段57號","121.425225","25.125065","6501500","五股區"
"248012","247-BX","2017/08/12 19:08:25","新北市五股區中興路四段48巷16號","121.438608333333","25.0834333333333","6501500","五股區"
"248014","261-SL","2017/08/12 19:09:22","新北市五股區民義路一段107巷32號","121.432556666667","25.0845966666667","6501500","五股區"
"248004","677-BX","2017/08/12 19:09:39","新北市五股區民義路一段185-4號","121.431753333333","25.0884483333333","6501500","五股區"
"248002","678-BX","2017/08/12 19:09:31","新北市五股區凌雲路一段158巷6號","121.447766666667","25.10296","6501500","五股區"
"248010","682-TV","2017/08/12 19:08:54","新北市五股區水碓一路23號","121.430636666667","25.0713583333333","6501500","五股區"
"234023","9380-KE","2017/08/12 19:08:38","新北市永和區中興街10巷1號","121.51563","25.0118583333333","6500400","永和區"
"234077","969-R7","2017/08/12 19:08:00","新北市永和區民族街46號","121.518413333333","24.9985233333333","6500400","永和區"
"234074","AAC-211","2017/08/12 19:08:50","新北市永和區竹林路217號","121.52065","25.0087433333333","6500400","永和區"
"234067","AAC-212","2017/08/12 19:09:08","新北市永和區保平路39號","121.51213","25.00715","6500400","永和區"
"234003","AAC-295","2017/08/12 19:09:34","新北市永和區保福路一段94號","121.512068333333","25.010405","6500400","永和區"
"244025","742-UY","2017/08/12 19:07:51","新北市林口區文化北路一段542巷8號","121.368456666667","25.07938","6501700","林口區"
"244009","410-SL","2017/08/12 19:09:23","新北市林口區竹林路366巷2-1號","121.392108333333","25.084825","6501700","林口區"
"244009","656-BX","2017/08/12 19:09:04","新北市林口區忠孝路376巷47號","121.368085","25.070425","6501700","林口區"
"244023","657-BX","2017/08/12 19:09:25","新北市林口區仁愛路二段700號","121.369111666667","25.080815","6501700","林口區"
"244013","658-BX","2017/08/12 19:09:07","新北市林口區麗園二街1巷3號","121.376998333333","25.070095","6501700","林口區"
"244011","701-TV","2017/08/12 19:09:31","新北市林口區竹林路61號","121.387681666667","25.078465","6501700","林口區"
"244019","837-TS","2017/08/12 19:09:33","新北市林口區麗園二街10-6號","121.378343333333","25.0694583333333","6501700","林口區"
"243013","AAD-798","2017/08/12 19:09:13","新北市泰山區漢口街3號","121.423318333333","25.03666","6501600","泰山區"
"243009","297-R6","2017/08/12 19:08:25","新北市泰山區明志路一段122巷13號","121.433038333333","25.0636133333333","6501600","泰山區"
"243015","380-SR","2017/08/12 19:08:58","新北市泰山區明志路一段386號","121.430766666667","25.057255","6501600","泰山區"
"243014","421-VK","2017/08/12 19:09:20","新北市泰山區泰林路二段429號","121.426383333333","25.06417","6501600","泰山區"
"243010","548-UM","2017/08/12 19:09:12","新北市泰山區明志路一段386號","121.430708333333","25.0573616666667","6501600","泰山區"
"243011","549-UM","2017/08/12 19:09:36","新北市泰山區明志路二段336號","121.426158333333","25.0455883333333","6501600","泰山區"
"243012","646-TV","2017/08/12 19:05:54","新北市泰山區明志路一段374號","121.430721666667","25.057815","6501600","泰山區"
"243016","680-BX","2017/08/12 19:09:07","新北市泰山區明志路二段379號","121.425153333333","25.0438633333333","6501600","泰山區"
"222003","436-BY","2017/08/12 19:07:41","新北市深坑區深南路100號","121.62244","25.0127916666667","6501800","深坑區"
"222002","659-BX","2017/08/12 19:09:24","新北市深坑區北深路一段185號","121.631208333333","25.0099933333333","6501800","深坑區"
"222001","696-SL","2017/08/12 19:09:01","新北市深坑區北深路一段300號","121.624236666667","25.0057583333333","6501800","深坑區"
"231041","002-UM","2017/08/12 19:09:16","新北市新店區中央一街22號","121.52786","24.9729966666667","6500600","新店區"
"231058","0293-UT","2017/08/12 19:08:44","新北市新店區光明街138巷3號","121.539598333333","24.9612466666667","6500600","新店區"
"231059","046-UY","2017/08/12 19:08:18","新北市新店區安和路二段142號","121.519666666667","24.9726883333333","6500600","新店區"
"231061","047-UY","2017/08/12 19:08:18","新北市新店區安康路一段113號","121.528501666667","24.96171","6500600","新店區"
"231060","106-UY","2017/08/12 19:09:34","新北市新店區安康路二段250號","121.509131666667","24.9590633333333","6500600","新店區"
"231051","107-UY","2017/08/12 19:09:07","新北市新店區中正路409巷8號","121.53409","24.9775083333333","6500600","新店區"
"231048","108-UY","2017/08/12 19:09:07","新北市新店區德正街31號","121.54465","24.9712583333333","6500600","新店區"
"231052","187-VK","2017/08/12 19:09:01","新北市新店區新烏路二段50巷22號","121.547308333333","24.926955","6500600","新店區"
"231063","268-BY","2017/08/12 19:09:17","新北市新店區車子路134號","121.504951666667","24.9486416666667","6500600","新店區"
"231046","278-BY","2017/08/12 19:09:23","新北市新店區新潭路一段32號","121.523288333333","24.9423466666667","6500600","新店區"
"231050","AAD-862","2017/08/12 19:08:53","新北市新店區竹林路2巷21號","121.550408333333","24.9511466666667","6500600","新店區"
"231055","3713-VJ","2017/08/12 19:09:27","新北市新店區安民街133巷26號","121.515478333333","24.9697","6500600","新店區"
"231067","4772-VM","2017/08/12 19:07:45","新北市新店區安康路一段195巷5號","121.526331666667","24.96244","6500600","新店區"
"231065","512-UM","2017/08/12 19:08:36","新北市新店區安祥路145巷1號","121.474743333333","24.9556766666667","6500600","新店區"
"231054","513-UM","2017/08/12 19:09:39","新北市新店區新店路195號","121.53715","24.9562916666667","6500600","新店區"
"231064","515-UM","2017/08/12 19:06:39","新北市新店區安忠路90-1號","121.511505","24.9580116666667","6500600","新店區"
"231045","617-UM","2017/08/12 19:08:36","新北市新店區北宜路一段172號","121.540756666667","24.953","6500600","新店區"
"231040","619-UM","2017/08/12 19:09:36","新北市新店區三民路98-3號","121.533945","24.9734133333333","6500600","新店區"
"231042","641-BX","2017/08/12 19:09:40","新北市新店區中興路一段115號","121.541388333333","24.9627866666667","6500600","新店區"
"231049","719-UM","2017/08/12 19:09:03","新北市新店區二十張路25巷18弄16號","121.539211666667","24.9816933333333","6500600","新店區"
"231062","720-UM","2017/08/12 19:08:43","新北市新店區安平路11巷2號","121.524258333333","24.9652316666667","6500600","新店區"
"231044","897-TW","2017/08/12 19:07:08","新北市新店區寶中路51號","121.546825","24.9801933333333","6500600","新店區"
"231043","899-TW","2017/08/12 19:08:55","新北市新店區中興路二段252號","121.547368333333","24.9758666666667","6500600","新店區"
"231066","AKT-0513","2017/08/12 19:09:31","新北市新店區安康路三段359巷12弄27號","121.483955","24.94931","6500600","新店區"
"241026","271-UM","2017/08/12 19:09:33","新北市三重區泉州街70巷1號","121.494966666667","25.0548233333333","6500200","三重區"
"241020","412-TH","2017/08/12 19:09:28","新北市三重區忠孝路二段34號","121.485778333333","25.071055","6500200","三重區"
"235066","003-UY","2017/08/12 19:09:28","新北市中和區廣福路12-1號","121.505443333333","25.0028883333333","6500300","中和區"
"235064","005-UY","2017/08/12 19:09:28","新北市中和區泰和街28號","121.4994","25.000575","6500300","中和區"
"235063","006-UY","2017/08/12 19:09:31","新北市中和區中正路632號","121.485528333333","24.9960166666667","6500300","中和區"
"235056","096-UM","2017/08/12 19:09:33","新北市中和區員山路534號","121.47888","25.0098233333333","6500300","中和區"
"235039","097-UM","2017/08/12 19:09:21","新北市中和區安樂路211號","121.514381666667","24.9987283333333","6500300","中和區"
"235065","098-UM","2017/08/12 19:09:11","新北市中和區福祥路136號","121.498696666667","25.006965","6500300","中和區"
"235040","150-BY","2017/08/12 19:08:35","新北市中和區安平路38號","121.509898333333","24.9950333333333","6500300","中和區"
"235058","151-BY","2017/08/12 19:09:41","新北市中和區連城路523巷11弄1號","121.481676666667","24.9942466666667","6500300","中和區"
"235055","183-VK","2017/08/12 19:09:11","新北市中和區民德路25巷11號","121.469945","25.00324","6500300","中和區"
"235038","185-VK","2017/08/12 19:08:49","新北市中和區自強路60號","121.520165","24.9945033333333","6500300","中和區"
"235049","186-VK","2017/08/12 19:09:31","新北市中和區景安路139號","121.505568333333","24.99554","6500300","中和區"
"235067","255-BX","2017/08/12 19:07:07","新北市中和區新生街191號","121.48378","25.0002233333333","6500300","中和區"
"235044","293-VK","2017/08/12 19:09:38","新北市中和區中興街163號","121.49988","24.9908883333333","6500300","中和區"
"235072","301-VK","2017/08/12 19:09:34","新北市中和區永和路39巷2號","121.49801","25.0050333333333","6500300","中和區"
"235043","352-BY","2017/08/12 19:07:50","新北市中和區景平路72號","121.521898333333","24.9908266666667","6500300","中和區"
"235051","376-QA","2017/08/12 19:09:38","新北市中和區仁愛街36巷42號","121.511335","24.9864233333333","6500300","中和區"
"235068","377-QA","2017/08/12 18:45:52","新北市中和區中正路93號","121.500186666667","24.9935333333333","6500300","中和區"
"235061","378-QA","2017/08/12 19:09:12","新北市中和區中山路三段61號","121.476726666667","25.0054766666667","6500300","中和區"
"235050","4979-A6","2017/08/12 19:08:43","新北市中和區復興路261號","121.502891666667","24.9903383333333","6500300","中和區"
"235069","4980-A6","2017/08/12 19:08:48","新北市中和區中和路217巷18弄1號","121.504725","25.000325","6500300","中和區"
"235042","551-UM","2017/08/12 19:09:30","新北市中和區自立路99巷16號","121.52275","24.9946233333333","6500300","中和區"
"235070","558-UM","2017/08/12 19:08:41","新北市中和區中和路255號","121.504951666667","24.9997416666667","6500300","中和區"
"235045","565-BX","2017/08/12 19:09:06","新北市中和區景新街467巷20弄94號","121.514523333333","24.9875216666667","6500300","中和區"
"235054","640-BX","2017/08/12 19:09:31","新北市中和區國光街6巷2號","121.471968333333","25.0002416666667","6500300","中和區"
"235060","647-TV","2017/08/12 19:09:35","新北市中和區民享街89巷4弄16號","121.475128333333","25.0009966666667","6500300","中和區"
"235047","732-UM","2017/08/12 19:09:35","新北市中和區興南路一段91號","121.50965","24.988735","6500300","中和區"
"235046","733-UM","2017/08/12 19:09:06","新北市中和區忠孝街1巷86號","121.508216666667","24.9850116666667","6500300","中和區"
"235062","800-TS","2017/08/12 19:09:14","新北市中和區中山路二段526巷23號","121.485808333333","25.0057166666667","6500300","中和區"
"235057","801-TS","2017/08/12 19:07:57","新北市中和區民利街47巷2弄2號","121.478425","24.9981066666667","6500300","中和區"
"235041","802-TS","2017/08/12 19:08:07","新北市中和區宜安路118巷26號","121.511041666667","24.9988933333333","6500300","中和區"
"235052","805-TS","2017/08/12 19:09:35","新北市中和區興南路二段142巷19弄2號","121.503061666667","24.98348","6500300","中和區"
"235048","896-TW","2017/08/12 19:09:28","新北市中和區華新街152號","121.507661666667","24.9823816666667","6500300","中和區"
"235053","900-TW","2017/08/12 19:09:09","新北市中和區和平路218-1號","121.46402","24.9962783333333","6500300","中和區"
"235071","911-UM","2017/08/12 19:09:25","新北市中和區連城路376-1號","121.48113","24.9951833333333","6500300","中和區"
"235037","AAC-213","2017/08/12 19:09:29","新北市中和區秀朗路三段60巷71號","121.523985","24.99469","6500300","中和區"
"235059","AAC-215","2017/08/12 19:09:25","新北市中和區圓通路294巷13號","121.488685","24.9900233333333","6500300","中和區"
"220068","013-TV","2017/08/12 19:09:28","新北市板橋區翠華街6巷27號","121.481371666667","25.0243233333333","6500100","板橋區"
"220065","072-UY","2017/08/12 19:05:27","新北市板橋區民族路287巷19號","121.470856666667","25.0075266666667","6500100","板橋區"
"220086","073-UY","2017/08/12 19:08:29","新北市板橋區中正路250巷25號","121.456721666667","25.01948","6500100","板橋區"
"220106","075-UY","2017/08/12 19:09:42","新北市板橋區文化路二段317號","121.472178333333","25.0298066666667","6500100","板橋區"
"220069","AAD-861","2017/08/12 19:08:45","新北市板橋區南雅南路一段3巷25-5號","121.456976666667","25.005835","6500100","板橋區"
"220096","120-SR","2017/08/12 19:08:28","新北市板橋區雙十路二段49號","121.476505","25.026225","6500100","板橋區"
"226004","312-R5","2017/08/12 19:09:15","新北市平溪區嶺腳里田子1-3號","121.750495","25.0249233333333","6502400","平溪區"
"241031","7418-A5","2017/08/12 15:53:44","新北市平溪區石底里公園街18-3號","121.733536666667","25.0255933333333","6500200","三重區"
"228003","097-TW","2017/08/12 19:08:45","新北市貢寮區和美里和美街48號","121.917948333333","25.1022166666667","6502600","貢寮區"
"228001","212-TW","2017/08/12 19:08:19","新北市貢寮區真理里新港街10號","121.925565","25.0544266666667","6502600","貢寮區"
"228002","585-TW","2017/08/12 19:08:50","新北市貢寮區福隆里福隆街36號","121.94509","25.0174833333333","6502600","貢寮區"
"224010","AGQ-8101","2017/08/12 19:09:14","新北市瑞芳區基山街64號","121.844881666667","25.1085216666667","6501200","瑞芳區"
"224006","676-BX","2017/08/12 19:06:15","新北市瑞芳區三爪子坑路106巷182號","121.809505","25.1035766666667","6501200","瑞芳區"
"224011","420-VK","2017/08/12 19:08:17","新北市瑞芳區崙頂路3-1號","121.846948333333","25.10472","6501200","瑞芳區"
"241031","285-BY","2017/08/12 19:09:18","新北市瑞芳區長仁路37-2號","121.86429","25.1170383333333","6500200","三重區"
"224008","275-VK","2017/08/12 19:07:13","新北市瑞芳區明燈路三段225號","121.800115","25.1112983333333","6501200","瑞芳區"
"224007","273-VK","2017/08/12 19:08:39","新北市瑞芳區楓子瀨路2-2號","121.774738333333","25.105145","6501200","瑞芳區"
"224005","271-BY","2017/08/12 19:09:28","新北市瑞芳區連福新城25號","121.820286666667","25.1190183333333","6501200","瑞芳區"
"227002","642-TC","2017/08/12 19:09:35","新北市雙溪區平林里外平林10-4號","121.859098333333","25.03813","6502500","雙溪區"
"227010","400-TW","2017/08/12 19:08:51","新北市雙溪區牡丹里中正路34號","121.864636666667","25.0382916666667","6502500","雙溪區"
"253006","032-BX","2017/08/12 19:08:40","新北市石門區八甲11-1號","121.52207","25.2814","6502200","石門區"
"253005","295-VK","2017/08/12 19:09:18","新北市石門區小坑12-8號","121.597946666667","25.2886633333333","6502200","石門區"
"208002","742-BX","2017/08/12 19:09:29","新北市金山區中華路122巷12號","121.633793333333","25.2208166666667","6502700","金山區"
"208003","665-BX","2017/08/12 19:08:13","新北市金山區中正路120號","121.63254","25.2216166666667","6502700","金山區"
"208001","761-BX","2017/08/12 19:07:06","新北市金山區溫泉路2巷4號","121.640251666667","25.2219783333333","6502700","金山區"
"251002","012-UM","2017/08/12 19:07:48","新北市淡水區中山路68號","121.443538333333","25.1705166666667","6501000","淡水區"
"251014","180-VK","2017/08/12 19:07:22","新北市淡水區小中寮15-2號","121.484666666667","25.229745","6501000","淡水區"
"251010","413-VK","2017/08/12 19:09:24","新北市淡水區中正路一段156巷3號","121.421155","25.1804333333333","6501000","淡水區"
"251016","442-VK","2017/08/12 19:09:03","新北市淡水區淡金路三段70巷3號","121.448348333333","25.2010783333333","6501000","淡水區"
"251005","443-VK","2017/08/12 19:09:25","新北市淡水區新民街79號","121.438268333333","25.1767266666667","6501000","淡水區"
"251001","559-UM","2017/08/12 19:07:25","新北市淡水區自強路35號","121.46405","25.1258466666667","6501000","淡水區"
"251009","575-R6","2017/08/12 19:09:38","新北市淡水區清水街160號","121.440956666667","25.17053","6501000","淡水區"
"251011","650-BX","2017/08/12 19:06:18","新北市淡水區中正東路36-1號","121.448806666667","25.16566","6501000","淡水區"
"251003","673-BX","2017/08/12 19:09:34","新北市淡水區中山北路一段96號","121.442485","25.1764316666667","6501000","淡水區"
"207003","550-UM","2017/08/12 19:08:24","新北市萬里區大鵬里萬里加投29-11號","121.646695","25.2091983333333","6502800","萬里區"
"207004","225-TW","2017/08/12 19:09:25","新北市萬里區萬里里瑪鋉下街46-1號","121.69151","25.17932","6502800","萬里區"
"252002","178-VK","2017/08/12 19:09:38","新北市三芝區中正路一段16-1號","121.502848333333","25.25884","6502100","三芝區"
"252003","249-BX","2017/08/12 19:06:28","新北市三芝區錫板里南勢崗5-5號","121.480965","25.2630416666667","6502100","三芝區"
"252001","292-VK","2017/08/12 19:09:34","新北市三芝區埔頭里埔頭14號","121.50019","25.2543866666667","6502100","三芝區"
"237004","078-UY","2017/08/12 19:09:35","新北市三峽區有木153-1號","121.446126666667","24.8473216666667","6500900","三峽區"
"237007","153-BY","2017/08/12 19:09:37","新北市三峽區中正路二段125號","121.366333333333","24.9166116666667","6500900","三峽區"
"237013","252-BX","2017/08/12 19:09:31","新北市三峽區光明路69巷25號","121.376731666667","24.929245","6500900","三峽區"
"237012","275-BY","2017/08/12 19:09:29","新北市三峽區三樹路222巷254弄49號","121.392521666667","24.944175","6500900","三峽區"
"237008","302-VK","2017/08/12 19:08:41","新北市三峽區大同路174巷8號","121.372595","24.92719","6500900","三峽區"
"237014","433-BY","2017/08/12 19:07:32","新北市三峽區中山路246號","121.36215","24.93752","6500900","三峽區"
"237006","5529-G3","2017/08/12 19:09:22","新北市三峽區溪北街109號","121.398361666667","24.935455","6500900","三峽區"
"237011","572-TV","2017/08/12 19:08:42","新北市三峽區介壽路一段207-1號","121.378811666667","24.9304983333333","6500900","三峽區"
"237016","649-BX","2017/08/12 19:09:16","新北市三峽區安坑48-1號","121.458426666667","24.9322616666667","6500900","三峽區"
"237010","706-TV","2017/08/12 19:09:23","新北市三峽區國光街20號","121.375235","24.9372783333333","6500900","三峽區"
"237005","AKY-6261","2017/08/12 19:09:37","新北市三峽區中山路459巷163-3號","121.348623333333","24.932885","6500900","三峽區"
"236073","105-UM","2017/08/12 19:08:52","新北市土城區明德路二段291號","121.444845","24.984185","6501300","土城區"
"236043","107-UM","2017/08/12 19:08:52","新北市土城區學府路一段252號","121.451508333333","24.9845316666667","6501300","土城區"
"236079","166-UM","2017/08/12 19:09:34","新北市土城區龍泉路10-1號","121.409551666667","24.9492983333333","6501300","土城區"
"236027","269-VK","2017/08/12 19:09:07","新北市土城區中正路74巷3弄1號","121.444723333333","24.9749666666667","6501300","土城區"
"236015","270-VK","2017/08/12 19:09:17","新北市土城區學府路一段75巷16弄1號","121.457301666667","24.98753","6501300","土城區"
"236038","271-VK","2017/08/12 19:07:30","新北市土城區清水路137號","121.458271666667","24.9816383333333","6501300","土城區"
"236023","401-BY","2017/08/12 19:07:44","新北市土城區延峰街19號","121.468935","24.98609","6501300","土城區"
"236059","912-UM","2017/08/12 19:07:02","新北市土城區金城路二段234號","121.456596666667","24.9829783333333","6501300","土城區"
"236049","913-UM","2017/08/12 19:09:32","新北市土城區明德路一段398-1號","121.453683333333","24.9789983333333","6501300","土城區"
"236055","AAC-216","2017/08/12 19:09:27","新北市土城區學府路一段197號","121.451886666667","24.9848033333333","6501300","土城區"
"238015","755-BX","2017/08/12 19:06:57","新北市樹林區備內街160巷14號","121.406428333333","24.989555","6500700","樹林區"
"238023","601-UM","2017/08/12 19:09:06","新北市樹林區大慶街120號","121.395941666667","25.0134883333333","6500700","樹林區"
"238019","599-UM","2017/08/12 19:07:18","新北市樹林區東華街73號","121.41558","24.9810583333333","6500700","樹林區"
"238018","571-TV","2017/08/12 19:09:35","新北市樹林區八德街69號","121.419406666667","24.98233","6500700","樹林區"
"238022","312-TH","2017/08/12 19:08:27","新北市樹林區中山路二段151巷6弄1號","121.40671","24.9783516666667","6500700","樹林區"
"238021","311-TH","2017/08/12 19:08:00","新北市樹林區柑園街二段282號","121.373998333333","24.9519983333333","6500700","樹林區"
"238025","303-VK","2017/08/12 19:09:34","新北市樹林區中山路三段147-5號","121.39583","24.972995","6500700","樹林區"
"238017","283-BY","2017/08/12 19:09:40","新北市樹林區光興街86-5號","121.408716666667","25.002595","6500700","樹林區"
"238014","282-BY","2017/08/12 19:07:46","新北市樹林區千歲街92巷7弄17號","121.427406666667","24.9979733333333","6500700","樹林區"
"238020","268-VK","2017/08/12 19:09:29","新北市樹林區俊英街83巷1號","121.425773333333","25.0079766666667","6500700","樹林區"
"238026","172-UY","2017/08/12 19:09:11","新北市樹林區佳園路一段41巷18號","121.393845","24.9710666666667","6500700","樹林區"
"238016","169-UY","2017/08/12 19:09:15","新北市樹林區復興路335巷2弄1號","121.418278333333","24.987575","6500700","樹林區"
"239007","AAC-297","2017/08/12 19:09:30","新北市鶯歌區大湖路326巷46號","121.345915","24.9693033333333","6500800","鶯歌區"
"239006","891-R6","2017/08/12 19:09:24","新北市鶯歌區永智街132號","121.337175","24.9521216666667","6500800","鶯歌區"
"239008","527-UM","2017/08/12 19:08:44","新北市鶯歌區國際二路6巷18號","121.339115","24.97387","6500800","鶯歌區"
"239005","526-UM","2017/08/12 19:09:05","新北市鶯歌區中湖街76號","121.347986666667","24.972855","6500800","鶯歌區"
"239001","417-VK","2017/08/12 19:09:28","新北市鶯歌區永智街16號","121.336905","24.9548416666667","6500800","鶯歌區"
"239003","360-BY","2017/08/12 19:08:39","新北市鶯歌區德昌二街71號","121.33336","24.9581516666667","6500800","鶯歌區"
"239002","359-BY","2017/08/12 19:09:13","新北市鶯歌區湖山路5號","121.34131","24.97316","6500800","鶯歌區"
"239004","193-VK","2017/08/12 19:09:35","新北市鶯歌區中正三路216號","121.331908333333","24.937745","6500800","鶯歌區"
"221008","489-VK","2017/08/12 19:09:00","新北市汐止區康寧街434號","121.630978333333","25.06807","6501100","汐止區"
"221036","130-UY","2017/08/12 19:07:44","新北市汐止區秀峰路9號","121.65927","25.0662233333333","6501100","汐止區"
"221015","131-UY","2017/08/12 19:09:07","新北市汐止區康寧街901號","121.65167","25.0748766666667","6501100","汐止區"
"221010","269-BY","2017/08/12 19:08:50","新北市汐止區康寧街901號","121.65145","25.0750033333333","6501100","汐止區"
"241031","276-VK","2017/08/12 12:39:33","新北市汐止區中正路190號","121.658881666667","25.0691066666667","6500200","三重區"
"241031","278-VK","2017/08/12 14:56:56","新北市汐止區汐萬路一段39號","121.654945","25.0690566666667","6500200","三重區"
"221023","279-VK","2017/08/12 02:07:57","新北市汐止區康寧街901號","121.651743333333","25.0751166666667","6501100","汐止區"
"221032","280-BY","2017/08/12 19:09:20","新北市汐止區新江北路30巷15號","121.65302","25.06924","6501100","汐止區"
"221027","281-BY","2017/08/12 18:49:36","新北市汐止區康寧街901號","121.650811666667","25.0752333333333","6501100","汐止區"
"221038","297-VK","2017/08/12 19:09:39","新北市汐止區汐萬路一段312號","121.650671666667","25.0753066666667","6501100","汐止區"
"221029","298-VK","2017/08/12 19:09:31","新北市汐止區康寧街901號","121.651683333333","25.0749183333333","6501100","汐止區"
"221021","299-VK","2017/08/12 17:29:43","新北市汐止區汐萬路一段256巷3號","121.652183333333","25.0753183333333","6501100","汐止區"
"221031","353-TW","2017/08/12 19:08:52","新北市汐止區福德三路139號","121.633006666667","25.06741","6501100","汐止區"
"221033","647-BX","2017/08/12 19:09:13","新北市汐止區南勢街1巷1號","121.627031666667","25.03737","6501100","汐止區"
"221002","707-TV","2017/08/12 19:09:23","新北市汐止區環河街207號","121.626265","25.0539533333333","6501100","汐止區"
"221018","753-BX","2017/08/12 19:09:07","新北市汐止區汐萬路一段147號","121.653326666667","25.07112","6501100","汐止區"
"220079","145-BY","2017/08/12 19:06:15","新北市板橋區民權路260巷54號","121.459928333333","25.015065","6500100","板橋區"
"220080","200-UY","2017/08/12 19:09:06","新北市板橋區大觀路二段153巷46弄68號","121.449501666667","25.0006366666667","6500100","板橋區"
"220082","610-BX","2017/08/12 19:06:48","新北市板橋區溪北路20號","121.426775","24.9903783333333","6500100","板橋區"
"220101","245-BX","2017/08/12 19:05:11","新北市板橋區莊敬路144-3號","121.471368333333","25.0230433333333","6500100","板橋區"
"220056","255-TC","2017/08/12 19:09:00","新北市板橋區信義路74巷6號","121.456786666667","24.9929633333333","6500100","板橋區"
"220103","257-TC","2017/08/12 19:08:43","新北市板橋區文化路一段188巷9弄110號","121.468553333333","25.0194066666667","6500100","板橋區"
"220094","267-BY","2017/08/12 19:05:53","新北市板橋區光武街87號","121.466998333333","25.026685","6500100","板橋區"
"220072","277-BY","2017/08/12 19:04:09","新北市板橋區金門街379巷15號","121.428845","24.9845133333333","6500100","板橋區"
"220071","283-VK","2017/08/12 19:08:04","新北市板橋區重慶路243號","121.463325","25.0007016666667","6500100","板橋區"
"220053","285-VK","2017/08/12 19:06:36","新北市板橋區懷仁街10巷20號","121.475286666667","25.01975","6500100","板橋區"
"220083","286-VK","2017/08/12 19:06:35","新北市板橋區大觀路一段38巷184號","121.441386666667","25.0046","6500100","板橋區"
"220081","287-VK","2017/08/12 19:03:40","新北市板橋區光華街19巷6號","121.453745","25.012185","6500100","板橋區"
"220090","288-VK","2017/08/12 19:08:22","新北市板橋區裕民街54號","121.461376666667","25.0287033333333","6500100","板橋區"
"220061","293-UM","2017/08/12 19:08:56","新北市板橋區中山路二段268號","121.478993333333","25.0184666666667","6500100","板橋區"
"220055","295-UM","2017/08/12 19:08:45","新北市板橋區新民街9號","121.463978333333","25.009715","6500100","板橋區"
"220084","296-UM","2017/08/12 19:09:41","新北市板橋區溪崑一街21巷7號","121.431091666667","24.991775","6500100","板橋區"
"220075","297-UM","2017/08/12 19:09:17","新北市板橋區南雅南路一段1巷38號","121.457293333333","25.0065533333333","6500100","板橋區"
"220098","299-UM","2017/08/12 19:08:10","新北市板橋區自由路51巷14弄3號","121.464756666667","25.0236133333333","6500100","板橋區"
"220062","303-R5","2017/08/12 19:07:49","新北市板橋區三民路二段245巷85號","121.481455","25.0126083333333","6500100","板橋區"
"220092","307-R5","2017/08/12 19:08:20","新北市板橋區文化路二段225巷68號","121.469063333333","25.0284783333333","6500100","板橋區"
"220064","486-VK","2017/08/12 19:06:48","新北市板橋區板新路38號","121.473948333333","25.0138","6500100","板橋區"
"220089","487-VK","2017/08/12 19:06:24","新北市板橋區文化路二段503號","121.476036666667","25.03445","6500100","板橋區"
"220088","491-VK","2017/08/12 19:06:54","新北市板橋區文化路二段182巷3弄14號","121.47184","25.0276183333333","6500100","板橋區"
"220035","560-BX","2017/08/12 19:06:21","新北市板橋區中正路399巷13弄1號","121.453346666667","25.0225683333333","6500100","板橋區"
"220063","609-BX","2017/08/12 19:05:34","新北市板橋區三民路二段107號","121.479348333333","25.0159783333333","6500100","板橋區"
"220091","637-BX","2017/08/12 19:09:16","新北市板橋區縣民大道247巷41號","121.482043333333","25.026965","6500100","板橋區"
"220057","686-BX","2017/08/12 19:07:17","新北市板橋區重慶路40號","121.461448333333","25.0075216666667","6500100","板橋區"
"220077","687-BX","2017/08/12 19:07:52","新北市板橋區大觀路二段155號","121.445455","25.0007566666667","6500100","板橋區"
"220093","689-BX","2017/08/12 19:08:39","新北市板橋區民生路三段283號","121.464103333333","25.0301883333333","6500100","板橋區"
"220054","741-BX","2017/08/12 19:08:44","新北市板橋區重慶路93巷45號","121.46331","25.00594","6500100","板橋區"
"220067","829-TW","2017/08/12 19:09:03","新北市板橋區三民路二段正隆巷52號","121.476728333333","25.0141183333333","6500100","板橋區"
"220102","830-TW","2017/08/12 19:07:28","新北市板橋區田單街2巷29號","121.48219","25.028025","6500100","板橋區"
"220074","895-R6","2017/08/12 19:09:26","新北市板橋區林園街34號","121.45376","25.0101366666667","6500100","板橋區"
"220073","985-R7","2017/08/12 19:07:20","新北市板橋區民權路257號","121.457103333333","25.0159666666667","6500100","板橋區"
"220097","AAC-210","2017/08/12 19:09:00","新北市板橋區新生街96號","121.458386666667","25.0220766666667","6500100","板橋區"
"220070","AAC-253","2017/08/12 19:05:46","新北市板橋區四川路一段281號","121.45939","25.0018483333333","6500100","板橋區"
