"lineid","car","time","location","longitude","latitude","cityid","cityname"
"234046","148-BY","2017/08/12 19:48:29","新北市永和區成功路一段106巷1弄4號","121.526261666667","25.00252","6500400","永和區"
"234013","149-BY","2017/08/12 19:45:08","新北市永和區仁愛路241號","121.508838333333","25.0119516666667","6500400","永和區"
"234007","207-UY","2017/08/12 19:49:12","新北市中和區中山路二段1號","121.505631666667","25.0059133333333","6500400","永和區"
"234081","298-R6","2017/08/12 19:47:23","新北市永和區林森路62號","121.523825","25.0043966666667","6500400","永和區"
"234038","336-UY","2017/08/12 19:49:01","新北市永和區成功路二段195號","121.52666","24.996315","6500400","永和區"
"234064","337-UY","2017/08/12 19:46:55","新北市永和區中正路368巷12號","121.51824","25.0008183333333","6500400","永和區"
"234070","552-UM","2017/08/12 19:44:03","新北市永和區國光路6號","121.519721666667","25.00854","6500400","永和區"
"234054","553-UM","2017/08/12 19:49:39","新北市永和區竹林路75巷25弄6號","121.52022","25.0143816666667","6500400","永和區"
"234017","745-BX","2017/08/12 19:48:01","新北市永和區永和路二段278號","121.516045","25.015355","6500400","永和區"
"234030","746-BX","2017/08/12 19:47:06","新北市永和區四維街89巷2弄3號","121.524326666667","24.9976716666667","6500400","永和區"
"234061","AAD-866","2017/08/12 19:43:37","新北市永和區中正路264號","121.516821666667","24.9986016666667","6500400","永和區"
"234086","847-RS","2017/08/12 19:48:55","新北市永和區永利路46號","121.51879","25.0053716666667","6500400","永和區"
"234042","862-TW","2017/08/12 19:46:49","新北市永和區中和路305巷16弄2號","121.50728","25.0012233333333","6500400","永和區"
"234050","863-TW","2017/08/12 19:48:50","新北市永和區保安路89號","121.508356666667","25.0145133333333","6500400","永和區"
"234026","9371-KE","2017/08/12 19:49:02","新北市永和區雙和街27號","121.509053333333","25.00204","6500400","永和區"
"234011","9373-KE","2017/08/12 19:49:42","新北市永和區保生路55-1號","121.504508333333","25.0109016666667","6500400","永和區"
"249001","173-UM","2017/08/12 19:49:23","新北市八里區中華路二段250號","121.40547","25.1496666666667","6502300","八里區"
"249004","303-UY","2017/08/12 19:49:18","新北市八里區中山路一段268巷5弄2號","121.414571666667","25.160715","6502300","八里區"
"249002","305-UY","2017/08/12 19:48:17","新北市八里區頂寮五街17號","121.451415","25.1259966666667","6502300","八里區"
"249003","593-UM","2017/08/12 19:49:41","新北市八里區華峰二街3號","121.398243333333","25.14559","6502300","八里區"
"248016","026-BX","2017/08/12 19:49:32","新北市五股區成泰路四段24-5號","121.453555","25.106855","6501500","五股區"
"248008","095-VK","2017/08/12 19:48:19","新北市五股區四維路171巷11號","121.467283333333","25.0751966666667","6501500","五股區"
"248020","225-UY","2017/08/12 19:49:44","新北市五股區中直路37-3號","121.419775","25.1158883333333","6501500","五股區"
"248012","247-BX","2017/08/12 19:47:56","新北市五股區蓬萊路6巷2號","121.435601666667","25.0796583333333","6501500","五股區"
"248014","261-SL","2017/08/12 19:49:09","新北市五股區五福路52巷6號","121.433986666667","25.0898616666667","6501500","五股區"
"248004","677-BX","2017/08/12 19:48:05","新北市五股區成泰路一段220-1號","121.43637","25.0795166666667","6501500","五股區"
"248002","678-BX","2017/08/12 19:49:31","新北市五股區成泰路四段14號","121.453283333333","25.106825","6501500","五股區"
"248010","682-TV","2017/08/12 19:49:34","新北市五股區登林路76-6號","121.43051","25.0695466666667","6501500","五股區"
"234077","969-R7","2017/08/12 19:48:40","新北市永和區民有街21巷48號","121.517478333333","24.997665","6500400","永和區"
"234074","AAC-211","2017/08/12 19:47:57","新北市永和區竹林路211號","121.520773333333","25.0088483333333","6500400","永和區"
"234067","AAC-212","2017/08/12 19:49:08","新北市永和區永貞路406巷22號","121.509665","25.00792","6500400","永和區"
"234003","AAC-295","2017/08/12 19:48:30","新北市永和區福和路338號","121.515283333333","25.0072333333333","6500400","永和區"
"244017","656-BX","2017/08/12 19:49:24","新北市林口區太平里180號","121.367548333333","25.133825","6501700","林口區"
"243013","AAD-798","2017/08/12 19:48:08","新北市泰山區應化街7號","121.423868333333","25.0437133333333","6501600","泰山區"
"243009","297-R6","2017/08/12 19:49:29","新北市泰山區美寧街60號","121.430918333333","25.0646683333333","6501600","泰山區"
"243015","380-SR","2017/08/12 19:49:38","新北市泰山區文程路18巷5號","121.428328333333","25.0489683333333","6501600","泰山區"
"243014","421-VK","2017/08/12 19:49:20","新北市泰山區泰林路二段33-7號","121.43517","25.0564283333333","6501600","泰山區"
"243010","548-UM","2017/08/12 19:48:32","新北市泰山區民生路33號","121.430648333333","25.0521783333333","6501600","泰山區"
"243011","549-UM","2017/08/12 19:49:36","新北市泰山區明志路三段196巷21弄26號","121.422461666667","25.038505","6501600","泰山區"
"243012","646-TV","2017/08/12 19:44:14","新北市泰山區仁愛路96號","121.433248333333","25.0552","6501600","泰山區"
"243016","680-BX","2017/08/12 19:48:13","新北市泰山區中山路三段114號","121.417838333333","25.0321983333333","6501600","泰山區"
"222003","436-BY","2017/08/12 19:33:57","新北市深坑區深南路51-1號","121.621146666667","25.0100466666667","6501800","深坑區"
"222002","659-BX","2017/08/12 19:48:24","新北市深坑區北深路一段361號","121.62227","25.00493","6501800","深坑區"
"222001","696-SL","2017/08/12 19:48:25","新北市深坑區北深路三段47號","121.607871666667","25.0013016666667","6501800","深坑區"
"231041","002-UM","2017/08/12 19:46:16","新北市新店區中央路103號","121.53101","24.974835","6500600","新店區"
"231056","0291-UT","2017/08/12 19:49:29","新北市新店區民權路117號","121.536101666667","24.982885","6500600","新店區"
"231059","046-UY","2017/08/12 19:49:37","新北市新店區吉安街2號","121.517316666667","24.965545","6500600","新店區"
"231061","047-UY","2017/08/12 19:48:58","新北市新店區安民街297號","121.517606666667","24.9735633333333","6500600","新店區"
"231060","106-UY","2017/08/12 19:49:34","新北市新店區安康路二段161號","121.510133333333","24.9593433333333","6500600","新店區"
"231051","107-UY","2017/08/12 19:43:47","新北市新店區中央四街102號","121.525263333333","24.97632","6500600","新店區"
"231048","108-UY","2017/08/12 19:49:07","新北市新店區寶興路65巷2-1號","121.550918333333","24.9717016666667","6500600","新店區"
"231052","187-VK","2017/08/12 19:48:41","新北市新店區新烏路三段92號","121.55326","24.903655","6500600","新店區"
"231057","256-BX","2017/08/12 19:49:10","新北市新店區梅崗三路1號","121.558313333333","24.9313083333333","6500600","新店區"
"231063","268-BY","2017/08/12 19:49:37","新北市新店區車子路11號","121.503056666667","24.9520383333333","6500600","新店區"
"231046","278-BY","2017/08/12 19:49:40","新北市新店區福園街10巷1號","121.532751666667","24.9727483333333","6500600","新店區"
"231050","AAD-862","2017/08/12 19:49:13","新北市新店區郵政路93號","121.554706666667","24.9514416666667","6500600","新店區"
"231067","4772-VM","2017/08/12 19:49:05","新北市新店區精忠路10-1號","121.532631666667","24.9590983333333","6500600","新店區"
"231065","512-UM","2017/08/12 19:48:41","新北市新店區安祥路109巷151弄9號","121.47785","24.958535","6500600","新店區"
"231054","513-UM","2017/08/12 19:48:59","新北市新店區光明街97號","121.539101666667","24.9610766666667","6500600","新店區"
"231064","515-UM","2017/08/12 19:49:39","新北市新店區安和路二段113巷1弄2號","121.51832","24.9702066666667","6500600","新店區"
"231045","617-UM","2017/08/12 19:48:16","新北市新店區北宜路二段523號","121.563723333333","24.9534516666667","6500600","新店區"
"231040","619-UM","2017/08/12 19:49:16","新北市新店區北新路一段96巷23號","121.543001666667","24.9688533333333","6500600","新店區"
"231042","641-BX","2017/08/12 19:48:40","新北市新店區中興路一段266-6號","121.545065","24.9676733333333","6500600","新店區"
"231049","719-UM","2017/08/12 19:49:03","新北市新店區民權路129-1號","121.535391666667","24.98272","6500600","新店區"
"231062","720-UM","2017/08/12 19:49:43","新北市新店區永業路107號","121.528601666667","24.9484083333333","6500600","新店區"
"231044","897-TW","2017/08/12 19:49:28","新北市新店區復興路46號","121.538261666667","24.9866583333333","6500600","新店區"
"231043","899-TW","2017/08/12 19:49:04","新北市新店區中正路225號","121.539486666667","24.9729716666667","6500600","新店區"
"241011","013-R5","2017/08/12 19:47:56","新北市三重區三和路二段173巷19號","121.498413333333","25.0699933333333","6500200","三重區"
"241028","022-UY","2017/08/12 19:48:49","新北市三重區中正南路157號","121.493811666667","25.0560966666667","6500200","三重區"
"241008","059-VK","2017/08/12 19:48:58","新北市三重區永福街147-7號","121.47865","25.0762866666667","6500200","三重區"
"241009","060-VK","2017/08/12 19:49:43","新北市三重區三和路四段396巷4號","121.481113333333","25.0790466666667","6500200","三重區"
"241031","061-VK","2017/08/12 19:47:44","新北市三重區重新路四段248號","121.48615","25.0535116666667","6500200","三重區"
"241015","062-VK","2017/08/12 19:48:36","新北市三重區三和路一段6號","121.50382","25.0645083333333","6500200","三重區"
"241017","063-VK","2017/08/12 19:49:03","新北市三重區重陽路三段27巷1號","121.489641666667","25.0665633333333","6500200","三重區"
"241024","065-VK","2017/08/12 19:49:15","新北市三重區中正北路193巷35弄58號","121.478053333333","25.0713216666667","6500200","三重區"
"241003","091-VK","2017/08/12 19:49:21","新北市三重區五華街93巷73號","121.493486666667","25.0847133333333","6500200","三重區"
"241006","156-TC","2017/08/12 19:49:35","新北市三重區永福街269號","121.481613333333","25.0740616666667","6500200","三重區"
"241025","265-UM","2017/08/12 19:48:27","新北市三重區頂崁街210巷16號","121.476523333333","25.0677116666667","6500200","三重區"
"241016","266-UM","2017/08/12 19:48:46","新北市三重區正德街41巷3號","121.49606","25.0627616666667","6500200","三重區"
"241022","267-UM","2017/08/12 19:47:20","新北市三重區新北大道一段7號","121.489976666667","25.0610833333333","6500200","三重區"
"241018","268-UM","2017/08/12 19:48:38","新北市三重區雙園街110-1號","121.49486","25.067555","6500200","三重區"
"241032","269-UM","2017/08/12 19:48:42","新北市三重區重陽路一段44巷7號","121.486078333333","25.0577416666667","6500200","三重區"
"241013","270-UM","2017/08/12 19:49:00","新北市三重區仁福街64巷23號","121.497636666667","25.075385","6500200","三重區"
"241026","271-UM","2017/08/12 19:49:39","新北市三重區文化南路36-1號","121.500538333333","25.061465","6500200","三重區"
"241007","398-BY","2017/08/12 19:48:32","新北市三重區三和路四段125巷6號","121.485101666667","25.07803","6500200","三重區"
"241020","412-TH","2017/08/12 19:48:40","新北市三重區自強路三段75號","121.48704","25.0739166666667","6500200","三重區"
"241004","475-VK","2017/08/12 19:49:06","新北市三重區五華街74號","121.493411666667","25.0819933333333","6500200","三重區"
"241019","478-VK","2017/08/12 19:49:36","新北市三重區自強路二段74巷23-1號","121.487803333333","25.0696616666667","6500200","三重區"
"241030","480-VK","2017/08/12 19:49:33","新北市三重區環河南路254巷22號","121.490295","25.0510183333333","6500200","三重區"
"241014","543-UM","2017/08/12 19:49:15","新北市三重區長安街75號","121.50156","25.0674183333333","6500200","三重區"
"241023","545-UM","2017/08/12 19:49:41","新北市三重區頂崁街172號","121.477613333333","25.0659216666667","6500200","三重區"
"241001","547-UM","2017/08/12 19:49:04","新北市三重區仁愛街327巷34號","121.493048333333","25.080035","6500200","三重區"
"241035","743-BX","2017/08/12 19:49:38","新北市三重區文化北路31號","121.499458333333","25.0639383333333","6500200","三重區"
"241029","887-TS","2017/08/12 19:48:22","新北市三重區光明路19號","121.491145","25.0586666666667","6500200","三重區"
"241012","941-UM","2017/08/12 19:49:14","新北市三重區仁興街42巷18號","121.49787","25.0753216666667","6500200","三重區"
"241033","AAC-255","2017/08/12 19:49:34","新北市三重區中興南街66號","121.470676666667","25.0439916666667","6500200","三重區"
"235066","003-UY","2017/08/12 19:48:47","新北市中和區南工路20號","121.505475","25.0005266666667","6500300","中和區"
"235064","005-UY","2017/08/12 19:47:48","新北市中和區南山路81巷61-1號","121.504225","24.9978433333333","6500300","中和區"
"235063","006-UY","2017/08/12 19:48:51","新北市中和區連城路263巷4弄1號","121.492121666667","24.9959483333333","6500300","中和區"
"235056","096-UM","2017/08/12 19:49:24","新北市中和區中山路三段114巷46號","121.475841666667","25.0071766666667","6500300","中和區"
"235039","097-UM","2017/08/12 19:49:21","新北市中和區景平路71-3號","121.519301666667","24.991245","6500300","中和區"
"235065","098-UM","2017/08/12 19:49:31","新北市中和區永和路9巷1號","121.499235","25.0040166666667","6500300","中和區"
"235040","150-BY","2017/08/12 19:48:55","新北市中和區安和路39號","121.509666666667","24.9948933333333","6500300","中和區"
"235058","151-BY","2017/08/12 19:48:41","新北市中和區員山路146巷16號","121.48212","24.99674","6500300","中和區"
"235055","183-VK","2017/08/12 19:48:51","新北市中和區中山路三段181巷32號","121.473061666667","25.0048833333333","6500300","中和區"
"235038","185-VK","2017/08/12 19:49:29","新北市中和區自立路139巷8號","121.522568333333","24.99381","6500300","中和區"
"235049","186-VK","2017/08/12 19:49:11","新北市中和區中正路2號","121.503228333333","24.9939566666667","6500300","中和區"
"235067","255-BX","2017/08/12 19:47:47","新北市中和區新生街222號","121.483816666667","24.9984966666667","6500300","中和區"
"235044","293-VK","2017/08/12 19:48:38","新北市中和區興南路一段169號","121.508358333333","24.9867116666667","6500300","中和區"
"235072","301-VK","2017/08/12 19:49:34","新北市中和區圓通路320號","121.486995","24.988385","6500300","中和區"
"235043","352-BY","2017/08/12 19:49:10","新北市中和區華新街230號","121.506048333333","24.98175","6500300","中和區"
"235051","376-QA","2017/08/12 19:49:38","新北市中和區中興街180巷52弄5號","121.498413333333","24.9883283333333","6500300","中和區"
"235068","377-QA","2017/08/12 19:48:32","新北市中和區廟美街54號","121.500328333333","25.0023766666667","6500300","中和區"
"235061","378-QA","2017/08/12 19:49:19","新北市中和區員山路172號","121.481508333333","24.9999633333333","6500300","中和區"
"235050","4979-A6","2017/08/12 19:48:23","新北市中和區景平路241巷82弄5號","121.507171666667","24.9920233333333","6500300","中和區"
"235042","551-UM","2017/08/12 19:49:10","新北市中和區景安路79巷37弄24號","121.507718333333","24.9963516666667","6500300","中和區"
"235070","558-UM","2017/08/12 19:46:21","新北市中和區泰和街48號","121.498996666667","24.9995983333333","6500300","中和區"
"235045","565-BX","2017/08/12 19:48:47","新北市中和區景新街426號","121.513","24.988745","6500300","中和區"
"235054","640-BX","2017/08/12 19:47:51","新北市中和區國光街107巷2弄32號","121.46924","24.9990133333333","6500300","中和區"
"235060","647-TV","2017/08/12 19:49:35","新北市中和區新生街16巷11號","121.482661666667","25.0042516666667","6500300","中和區"
"235047","732-UM","2017/08/12 19:49:15","新北市中和區南山路373號","121.506295","24.9904033333333","6500300","中和區"
"235046","733-UM","2017/08/12 19:48:46","新北市中和區景新街496巷26弄1號","121.513401666667","24.9861433333333","6500300","中和區"
"235057","801-TS","2017/08/12 19:42:17","新北市中和區員山路276號","121.481356666667","25.0019983333333","6500300","中和區"
"235041","802-TS","2017/08/12 19:49:27","新北市中和區中和路400巷21號","121.511693333333","25.0022766666667","6500300","中和區"
"235052","805-TS","2017/08/12 19:49:15","新北市中和區興南路二段119巷6號","121.505791666667","24.9839966666667","6500300","中和區"
"235048","896-TW","2017/08/12 19:48:48","新北市中和區興南路二段49號","121.507346666667","24.98536","6500300","中和區"
"235053","900-TW","2017/08/12 19:48:53","新北市中和區國光街215巷4弄1號","121.466416666667","25.0017533333333","6500300","中和區"
"235071","911-UM","2017/08/12 19:48:50","新北市中和區立德街185號","121.485101666667","25.0090933333333","6500300","中和區"
"235037","AAC-213","2017/08/12 19:48:29","新北市中和區成功路8號","121.526211666667","24.9938816666667","6500300","中和區"
"235059","AAC-215","2017/08/12 19:49:05","新北市中和區圓通路305巷8號","121.494095","24.9897483333333","6500300","中和區"
"220068","013-TV","2017/08/12 19:39:28","新北市板橋區中山路二段416巷52號","121.483096666667","25.0193466666667","6500100","板橋區"
"220065","072-UY","2017/08/12 19:46:27","新北市板橋區國泰街39巷3弄1號","121.468456666667","25.0063666666667","6500100","板橋區"
"220086","073-UY","2017/08/12 19:33:49","新北市板橋區中正路236巷14號","121.456418333333","25.0190716666667","6500100","板橋區"
"220106","075-UY","2017/08/12 19:43:02","新北市板橋區文化路二段426號","121.474216666667","25.0319333333333","6500100","板橋區"
"220069","AAD-861","2017/08/12 19:45:05","新北市板橋區縣民大道一段64巷2號","121.45523","25.0039116666667","6500100","板橋區"
"220096","120-SR","2017/08/12 19:47:03","新北市板橋區民生路二段240巷47號","121.46966","25.0229516666667","6500100","板橋區"
"247020","893-R6","2017/08/12 19:49:08","新北市蘆洲區民義街25號","121.471783333333","25.0889116666667","6501400","蘆洲區"
"247008","339-TH","2017/08/12 19:48:37","新北市蘆洲區信義路119巷1號","121.478388333333","25.08027","6501400","蘆洲區"
"247002","336-TH","2017/08/12 19:49:36","新北市蘆洲區永樂街38巷57弄2號","121.458525","25.0902516666667","6501400","蘆洲區"
"247006","335-TH","2017/08/12 19:49:24","新北市蘆洲區永安南路二段44-1號","121.466383333333","25.0774716666667","6501400","蘆洲區"
"247014","057-VK","2017/08/12 19:48:30","新北市蘆洲區保和街34號","121.470265","25.0864833333333","6501400","蘆洲區"
"247004","056-VK","2017/08/12 19:49:21","新北市蘆洲區中原路61號","121.458886666667","25.0821733333333","6501400","蘆洲區"
"226004","312-R5","2017/08/12 19:49:27","新北市平溪區十分里十分街66巷2號","121.775765","25.042085","6502400","平溪區"
"241031","7418-A5","2017/08/12 15:53:44","新北市平溪區石底里公園街18-3號","121.733536666667","25.0255933333333","6500200","三重區"
"228003","097-TW","2017/08/12 19:49:25","新北市貢寮區真理里美艷山街3-1號","121.925676666667","25.059605","6502600","貢寮區"
"228001","212-TW","2017/08/12 19:49:39","新北市貢寮區真理里新港街95號","121.926801666667","25.05678","6502600","貢寮區"
"224010","AGQ-8101","2017/08/12 19:49:26","新北市瑞芳區汽車路7-4號","121.846626666667","25.1106333333333","6501200","瑞芳區"
"224002","639-TC","2017/08/12 19:44:54","新北市瑞芳區員山子路員山巷10號","121.817483333333","25.1040166666667","6501200","瑞芳區"
"224011","420-VK","2017/08/12 19:49:37","新北市瑞芳區崙頂路3-1號","121.847","25.10468","6501200","瑞芳區"
"227002","642-TC","2017/08/12 19:49:35","新北市雙溪區雙溪里內挖路36號","121.863233333333","25.03668","6502500","雙溪區"
"227010","400-TW","2017/08/12 19:49:11","新北市雙溪區新基里中華路90-1號","121.866021666667","25.0390216666667","6502500","雙溪區"
"208002","742-BX","2017/08/12 19:48:29","新北市金山區中華路372號","121.633456666667","25.2247766666667","6502700","金山區"
"208003","665-BX","2017/08/12 19:33:53","新北市金山區仁愛路37-6號","121.636115","25.2198666666667","6502700","金山區"
"208001","761-BX","2017/08/12 19:43:06","新北市金山區重和里六股林口15號","121.60481","25.22158","6502700","金山區"
"251004","009-UM","2017/08/12 19:49:35","新北市淡水區民權路177巷55號","121.460533333333","25.1337266666667","6501000","淡水區"
"251014","180-VK","2017/08/12 19:49:42","新北市淡水區番社前4-2號","121.473328333333","25.2365716666667","6501000","淡水區"
"251008","181-VK","2017/08/12 19:49:28","新北市淡水區中正路一段24巷2-4號","121.426835","25.177005","6501000","淡水區"
"251012","441-VK","2017/08/12 19:49:17","新北市淡水區埤島6-10號","121.446068333333","25.1945833333333","6501000","淡水區"
"251016","442-VK","2017/08/12 19:46:23","新北市淡水區三塊厝3-2號","121.456271666667","25.209225","6501000","淡水區"
"251005","443-VK","2017/08/12 19:49:25","新北市淡水區中正路1號","121.445321666667","25.1684583333333","6501000","淡水區"
"251001","559-UM","2017/08/12 19:47:17","新北市淡水區中正東路二段103號","121.459503333333","25.1515733333333","6501000","淡水區"
"251006","561-UM","2017/08/12 19:49:30","新北市淡水區水碓街15號","121.443478333333","25.1769783333333","6501000","淡水區"
"251009","575-R6","2017/08/12 19:49:38","新北市淡水區中正路38-1號","121.443701666667","25.1692616666667","6501000","淡水區"
"251011","650-BX","2017/08/12 19:42:47","新北市淡水區淡金路18號","121.457118333333","25.1599166666667","6501000","淡水區"
"207003","550-UM","2017/08/12 19:49:26","新北市萬里區大鵬里萬里加投45-2號","121.641246666667","25.2098666666667","6502800","萬里區"
"207004","225-TW","2017/08/12 19:43:32","新北市萬里區萬里里瑪鋉路139號","121.689308333333","25.177605","6502800","萬里區"
"252002","178-VK","2017/08/12 19:49:19","新北市三芝區三民街31號","121.504593333333","25.2585766666667","6502100","三芝區"
"252001","292-VK","2017/08/12 19:48:44","新北市三芝區公正街9號","121.49976","25.2574916666667","6502100","三芝區"
"237004","078-UY","2017/08/12 19:49:35","新北市三峽區添福151-2號","121.375098333333","24.8990483333333","6500900","三峽區"
"237007","153-BY","2017/08/12 19:47:36","新北市三峽區二鬮路110巷2號","121.359393333333","24.9092083333333","6500900","三峽區"
"237009","210-TH","2017/08/12 19:49:35","新北市三峽區清水街433號","121.36858","24.925645","6500900","三峽區"
"237013","252-BX","2017/08/12 19:49:11","新北市三峽區溪北街45號","121.39701","24.93603","6500900","三峽區"
"237012","275-BY","2017/08/12 19:49:29","新北市三峽區中華路40-1號","121.373191666667","24.9316833333333","6500900","三峽區"
"237008","302-VK","2017/08/12 19:49:01","新北市三峽區大同路154號","121.37314","24.9269383333333","6500900","三峽區"
"237014","433-BY","2017/08/12 19:49:32","新北市三峽區添福13-33號","121.37457","24.9082066666667","6500900","三峽區"
"237006","5529-G3","2017/08/12 19:48:21","新北市三峽區中正路一段336巷15弄2號","121.369963333333","24.9249483333333","6500900","三峽區"
"237016","649-BX","2017/08/12 19:47:56","新北市三峽區介壽路二段138巷1弄21號","121.39653","24.9335083333333","6500900","三峽區"
"237005","AKY-6261","2017/08/12 19:49:37","新北市三峽區民生街97號","121.374291666667","24.93565","6500900","三峽區"
"236073","105-UM","2017/08/12 19:48:10","新北市土城區水源街32巷14號","121.441268333333","24.9758766666667","6501300","土城區"
"236043","107-UM","2017/08/12 19:49:12","新北市土城區裕民路286號","121.455628333333","24.981905","6501300","土城區"
"236079","166-UM","2017/08/12 19:48:54","新北市土城區溪頭路37號","121.412143333333","24.955165","6501300","土城區"
"236031","253-BX","2017/08/12 19:48:09","新北市土城區中央路一段318巷4弄12號","121.443246666667","24.982385","6501300","土城區"
"236027","269-VK","2017/08/12 19:49:26","新北市土城區中央路二段61巷22號","121.443193333333","24.97877","6501300","土城區"
"236038","271-VK","2017/08/12 19:43:50","新北市土城區青雲路281巷16號","121.45995","24.9800433333333","6501300","土城區"
"236023","401-BY","2017/08/12 19:49:04","新北市土城區峰廷街14號","121.468765","24.987535","6501300","土城區"
"236059","912-UM","2017/08/12 19:48:23","新北市土城區中央路二段35號","121.44281","24.9799816666667","6501300","土城區"
"236049","913-UM","2017/08/12 19:48:39","新北市土城區青雲路222號","121.459036666667","24.9811733333333","6501300","土城區"
"236063","915-UM","2017/08/12 19:46:01","新北市土城區延和路105巷7弄1號","121.467206666667","24.9913616666667","6501300","土城區"
"236055","AAC-216","2017/08/12 19:48:40","新北市土城區延和路18巷2號","121.464268333333","24.9881333333333","6501300","土城區"
"242029","986-R7","2017/08/12 19:48:53","新北市新莊區新泰路357巷3弄1號","121.442403333333","25.0414116666667","6500500","新莊區"
"242023","613-BX","2017/08/12 19:49:33","新北市新莊區化成路162號","121.465506666667","25.045325","6500500","新莊區"
"242027","612-BX","2017/08/12 19:48:53","新北市新莊區中平路268號","121.444866666667","25.0500883333333","6500500","新莊區"
"242036","566-BX","2017/08/12 19:49:05","新北市新莊區建安街95號","121.426901666667","25.024425","6500500","新莊區"
"242042","497-BY","2017/08/12 19:48:51","新北市新莊區新北大道七段510號","121.412321666667","25.02906","6500500","新莊區"
"242004","442-UM","2017/08/12 19:47:57","新北市新莊區化成路63巷24弄3號","121.462961666667","25.0458666666667","6500500","新莊區"
"242031","415-TV","2017/08/12 19:39:03","新北市新莊區新泰路213巷14號","121.446126666667","25.0387566666667","6500500","新莊區"
"242002","413-TV","2017/08/12 19:48:18","新北市新莊區新泰路2-11號","121.450188333333","25.0325183333333","6500500","新莊區"
"242039","400-BY","2017/08/12 19:47:28","新北市新莊區民安路299巷24號","121.429296666667","25.0231666666667","6500500","新莊區"
"242061","362-BY","2017/08/12 19:48:55","新北市新莊區中正路400號","121.441911666667","25.0342616666667","6500500","新莊區"
"242058","353-BY","2017/08/12 19:49:31","新北市新莊區八德街45號","121.424931666667","25.022235","6500500","新莊區"
"242019","135-UY","2017/08/12 19:49:33","新北市新莊區中華路一段118號","121.452548333333","25.04053","6500500","新莊區"
"242044","172-VK","2017/08/12 19:49:11","新北市新莊區新北大道七段373號","121.412505","25.0265283333333","6500500","新莊區"
"242007","173-VK","2017/08/12 19:49:18","新北市新莊區福壽街336號","121.457731666667","25.0585383333333","6500500","新莊區"
"242013","175-VK","2017/08/12 19:49:33","新北市新莊區中泰街38巷9號","121.450743333333","25.04733","6500500","新莊區"
"242034","347-TH","2017/08/12 19:47:53","新北市新莊區仁愛街29號","121.444216666667","25.0362016666667","6500500","新莊區"
"242017","348-TH","2017/08/12 19:48:47","新北市新莊區中安街1號","121.452773333333","25.0451433333333","6500500","新莊區"
"242009","351-TH","2017/08/12 19:49:20","新北市新莊區中誠街30號","121.45161","25.048065","6500500","新莊區"
"238015","755-BX","2017/08/12 19:44:41","新北市樹林區日新街89號","121.42165","24.9902516666667","6500700","樹林區"
"238023","601-UM","2017/08/12 19:43:46","新北市樹林區三福街154號","121.405146666667","25.015995","6500700","樹林區"
"238024","5061-A6","2017/08/12 19:47:37","新北市樹林區中山路三段206-1號","121.384191666667","24.9672033333333","6500700","樹林區"
"238022","312-TH","2017/08/12 19:46:07","新北市樹林區國凱街32-2號","121.419706666667","24.97864","6500700","樹林區"
"238021","311-TH","2017/08/12 19:48:20","新北市樹林區佳園路三段219巷41號","121.388196666667","24.9458416666667","6500700","樹林區"
"238025","303-VK","2017/08/12 19:48:54","新北市樹林區大安路593號","121.411815","24.9829683333333","6500700","樹林區"
"238017","283-BY","2017/08/12 19:46:20","新北市樹林區保安街二段45巷13弄1號","121.415516666667","25","6500700","樹林區"
"238014","282-BY","2017/08/12 19:47:06","新北市樹林區千歲街46巷8號","121.42663","24.9966","6500700","樹林區"
"238020","268-VK","2017/08/12 19:49:09","新北市樹林區俊英街111巷1-17號","121.423408333333","25.0093133333333","6500700","樹林區"
"238026","172-UY","2017/08/12 19:44:11","新北市樹林區佳園路二段15巷9弄16號","121.394785","24.9634366666667","6500700","樹林區"
"238016","169-UY","2017/08/12 19:48:43","新北市樹林區東和街12號","121.404601666667","24.9805116666667","6500700","樹林區"
"239007","AAC-297","2017/08/12 19:49:10","新北市鶯歌區二甲路13-16號","121.344906666667","24.9352583333333","6500800","鶯歌區"
"239006","891-R6","2017/08/12 19:47:04","新北市鶯歌區文化路115巷23號","121.357653333333","24.9551166666667","6500800","鶯歌區"
"221008","489-VK","2017/08/12 19:49:35","新北市汐止區康寧街39號","121.618521666667","25.0668216666667","6501100","汐止區"
"221036","130-UY","2017/08/12 19:49:43","新北市汐止區大同路二段534號","121.661371666667","25.0686083333333","6501100","汐止區"
"221015","131-UY","2017/08/12 19:49:28","新北市汐止區大同路二段538號","121.661448333333","25.0686666666667","6501100","汐止區"
"221010","269-BY","2017/08/12 19:49:30","新北市汐止區汐萬路一段343巷13弄14號","121.649998333333","25.0764116666667","6501100","汐止區"
"241031","276-VK","2017/08/12 12:39:33","新北市汐止區中正路190號","121.658881666667","25.0691066666667","6500200","三重區"
"241031","278-VK","2017/08/12 14:56:56","新北市汐止區汐萬路一段39號","121.654945","25.0690566666667","6500200","三重區"
"221023","279-VK","2017/08/12 02:07:57","新北市汐止區康寧街901號","121.651743333333","25.0751166666667","6501100","汐止區"
"221032","280-BY","2017/08/12 19:48:40","新北市汐止區橫科路119號","121.619918333333","25.0504066666667","6501100","汐止區"
"221027","281-BY","2017/08/12 19:49:41","新北市汐止區忠孝東路9號","121.658151666667","25.0658883333333","6501100","汐止區"
"221038","297-VK","2017/08/12 19:46:19","新北市汐止區忠孝東路271號","121.663603333333","25.0682466666667","6501100","汐止區"
"221029","298-VK","2017/08/12 19:49:31","新北市汐止區康寧街901號","121.651503333333","25.07505","6501100","汐止區"
"221021","299-VK","2017/08/12 17:29:43","新北市汐止區汐萬路一段256巷3號","121.652183333333","25.0753183333333","6501100","汐止區"
"221031","353-TW","2017/08/12 19:49:26","新北市汐止區福德二路54巷2弄7號","121.633983333333","25.0677483333333","6501100","汐止區"
"221035","622-UM","2017/08/12 19:48:57","新北市汐止區長江街9號","121.65465","25.071245","6501100","汐止區"
"221025","623-UM","2017/08/12 19:47:50","新北市汐止區秀峰路81巷37號","121.661503333333","25.0648316666667","6501100","汐止區"
"221033","647-BX","2017/08/12 19:48:33","新北市汐止區東勢街76巷32號","121.633431666667","25.0392166666667","6501100","汐止區"
"221018","753-BX","2017/08/12 19:49:26","新北市汐止區汐萬路一段6號","121.656138333333","25.0672833333333","6501100","汐止區"
"220079","145-BY","2017/08/12 19:38:35","新北市板橋區建國街96號","121.459765","25.01727","6500100","板橋區"
"220080","200-UY","2017/08/12 19:30:46","新北市板橋區大觀路二段16號","121.446825","25.0035516666667","6500100","板橋區"
"220082","610-BX","2017/08/12 19:41:28","新北市板橋區大觀路三段240號","121.429271666667","24.9925833333333","6500100","板橋區"
"220101","245-BX","2017/08/12 19:38:31","新北市板橋區莒光路200巷28號","121.473086666667","25.0222933333333","6500100","板橋區"
"220056","255-TC","2017/08/12 19:49:11","新北市板橋區四川路二段89號","121.452908333333","24.9947916666667","6500100","板橋區"
"220103","257-TC","2017/08/12 19:49:11","新北市板橋區陽明街27巷1號","121.465651666667","25.0217516666667","6500100","板橋區"
"220094","267-BY","2017/08/12 19:35:53","新北市板橋區松江街127號","121.469645","25.030915","6500100","板橋區"
"220072","277-BY","2017/08/12 19:42:50","新北市板橋區金門街215巷2弄30號","121.432475","24.9888683333333","6500100","板橋區"
"220071","283-VK","2017/08/12 19:41:44","新北市板橋區忠孝路48巷4弄91號","121.460233333333","25.0006666666667","6500100","板橋區"
"220053","285-VK","2017/08/12 19:33:16","新北市板橋區懷仁街77巷32號","121.477753333333","25.0193083333333","6500100","板橋區"
"220083","286-VK","2017/08/12 19:28:55","新北市板橋區龍興街95巷10號","121.443613333333","25.0026016666667","6500100","板橋區"
"220081","287-VK","2017/08/12 19:48:20","新北市板橋區大觀路一段28巷73號","121.44967","25.0110983333333","6500100","板橋區"
"220090","288-VK","2017/08/12 19:48:18","新北市板橋區龍泉街54巷8弄10號","121.457336666667","25.0268466666667","6500100","板橋區"
"220061","293-UM","2017/08/12 19:48:36","新北市板橋區中山路一段283巷1號","121.470048333333","25.0149083333333","6500100","板橋區"
"220055","295-UM","2017/08/12 19:49:06","新北市板橋區國慶路149巷21弄12號","121.460211666667","24.9973216666667","6500100","板橋區"
"220084","296-UM","2017/08/12 19:37:01","新北市板橋區滿平街84巷120弄28號","121.42605","24.9855716666667","6500100","板橋區"
"220075","297-UM","2017/08/12 19:42:37","新北市板橋區大勇街79號","121.45282","25.0165783333333","6500100","板橋區"
"220098","299-UM","2017/08/12 19:43:11","新北市板橋區裕民街111巷7號","121.459911666667","25.027315","6500100","板橋區"
"220062","303-R5","2017/08/12 19:42:54","新北市板橋區三民路二段35巷27號","121.48109","25.0179633333333","6500100","板橋區"
"220092","307-R5","2017/08/12 19:48:40","新北市板橋區互助街2號","121.46327","25.0278933333333","6500100","板橋區"
"220064","486-VK","2017/08/12 19:38:27","新北市板橋區民族路47號","121.462933333333","25.0095716666667","6500100","板橋區"
"220089","487-VK","2017/08/12 19:47:24","新北市板橋區英士路192號","121.457958333333","25.023675","6500100","板橋區"
"220088","491-VK","2017/08/12 19:33:14","新北市板橋區文化路二段389號","121.473523333333","25.031425","6500100","板橋區"
"220035","560-BX","2017/08/12 19:49:21","新北市板橋區金華街10巷25號","121.456768333333","25.0203416666667","6500100","板橋區"
"220063","609-BX","2017/08/12 19:40:14","新北市板橋區中山路二段469號","121.48198","25.0205766666667","6500100","板橋區"
"220091","637-BX","2017/08/12 19:47:45","新北市板橋區懷德街127巷42-2號","121.480305","25.03153","6500100","板橋區"
"220057","686-BX","2017/08/12 19:43:57","新北市板橋區和平路24巷1-2號","121.460481666667","24.9942","6500100","板橋區"
"220077","687-BX","2017/08/12 19:30:32","新北市板橋區僑中二街116巷2號","121.445735","25.006555","6500100","板橋區"
"220093","689-BX","2017/08/12 19:39:39","新北市板橋區新海路460號","121.457716666667","25.0282516666667","6500100","板橋區"
"220054","741-BX","2017/08/12 19:35:24","新北市板橋區忠孝路79號","121.461906666667","25.0021716666667","6500100","板橋區"
"220067","829-TW","2017/08/12 19:45:51","新北市板橋區長安街291號","121.474506666667","25.0119266666667","6500100","板橋區"
"220102","830-TW","2017/08/12 19:44:49","新北市板橋區松柏街50巷4號","121.475881666667","25.02979","6500100","板橋區"
"220074","895-R6","2017/08/12 19:49:02","新北市板橋區北門街25號","121.456548333333","25.0111083333333","6500100","板橋區"
"220073","985-R7","2017/08/12 19:49:38","新北市板橋區大仁街1-3號","121.456125","25.017025","6500100","板橋區"
"220097","AAC-210","2017/08/12 19:49:09","新北市板橋區文化路一段285巷63號","121.463103333333","25.0199","6500100","板橋區"
"220070","AAC-253","2017/08/12 19:29:46","新北市板橋區四川路一段281號","121.459435","25.0019383333333","6500100","板橋區"
