"lineid","car","time","location","longitude","latitude","cityid","cityname"
"234046","148-BY","2017/08/12 20:09:49","新北市永和區成功路二段93號","121.526805","24.999205","6500400","永和區"
"234013","149-BY","2017/08/12 20:09:48","新北市永和區永貞路424號","121.508238333333","25.0086466666667","6500400","永和區"
"234007","207-UY","2017/08/12 20:09:32","新北市永和區保順路51巷5號","121.502736666667","25.0104833333333","6500400","永和區"
"234081","298-R6","2017/08/12 20:09:45","新北市永和區國中路101號","121.52414","25.0060533333333","6500400","永和區"
"234038","336-UY","2017/08/12 20:09:51","新北市永和區成功路一段93巷23弄9號","121.528538333333","25.003075","6500400","永和區"
"234064","337-UY","2017/08/12 20:09:44","新北市永和區得和路259號","121.521358333333","24.9997816666667","6500400","永和區"
"234070","552-UM","2017/08/12 20:09:43","新北市永和區永寧街62巷2號","121.519075","25.0067866666667","6500400","永和區"
"234054","553-UM","2017/08/12 20:09:41","新北市永和區博愛街20巷2號","121.517713333333","25.015795","6500400","永和區"
"234017","745-BX","2017/08/12 20:09:41","新北市永和區仁愛路23號","121.5145","25.0134216666667","6500400","永和區"
"234030","746-BX","2017/08/12 20:09:46","新北市永和區民有街69號","121.517905","24.9956966666667","6500400","永和區"
"234061","AAD-866","2017/08/12 20:09:37","新北市永和區安樂路58巷5號","121.515308333333","24.9982566666667","6500400","永和區"
"234086","847-RS","2017/08/12 20:09:54","新北市永和區福和路247號","121.517978333333","25.0073966666667","6500400","永和區"
"234042","862-TW","2017/08/12 20:09:49","新北市永和區雙和街16巷20號","121.509863333333","25.0028133333333","6500400","永和區"
"234050","863-TW","2017/08/12 20:09:50","新北市永和區環河西路二段73號","121.506873333333","25.0151233333333","6500400","永和區"
"234026","9371-KE","2017/08/12 20:09:42","新北市永和區保生路55號","121.504551666667","25.0108283333333","6500400","永和區"
"234011","9373-KE","2017/08/12 20:09:42","新北市永和區仁愛路352巷100號","121.500931666667","25.0079116666667","6500400","永和區"
"249005","172-UM","2017/08/12 20:09:41","新北市八里區福德新村1號","121.385855","25.1364966666667","6502300","八里區"
"249001","173-UM","2017/08/12 20:09:43","新北市八里區中華路二段249-1號","121.40399","25.148225","6502300","八里區"
"249004","303-UY","2017/08/12 20:09:38","新北市八里區中山路一段189巷3號","121.41184","25.15818","6502300","八里區"
"249002","305-UY","2017/08/12 20:09:37","新北市八里區龍米路一段61號","121.455928333333","25.1203483333333","6502300","八里區"
"249003","593-UM","2017/08/12 20:09:41","新北市八里區中山路二段540巷3號","121.39715","25.1468316666667","6502300","八里區"
"248016","026-BX","2017/08/12 20:09:52","新北市五股區成泰路三段577巷80弄72號","121.448953333333","25.1047316666667","6501500","五股區"
"248012","247-BX","2017/08/12 20:09:45","新北市五股區民義路一段216號","121.430403333333","25.0895383333333","6501500","五股區"
"248014","261-SL","2017/08/12 20:09:49","新北市五股區五福路12號","121.434365","25.088625","6501500","五股區"
"248004","677-BX","2017/08/12 20:09:39","新北市五股區成泰路一段70-1號","121.435591666667","25.0698983333333","6501500","五股區"
"248002","678-BX","2017/08/12 20:09:51","新北市五股區成泰路三段277號","121.447238333333","25.0940566666667","6501500","五股區"
"248010","682-TV","2017/08/12 20:09:34","新北市五股區成泰路一段7巷20號","121.433071666667","25.06686","6501500","五股區"
"234023","9380-KE","2017/08/12 20:09:38","新北市永和區中正路666巷2號","121.516833333333","25.0089866666667","6500400","永和區"
"234077","969-R7","2017/08/12 20:09:39","新北市永和區民享街23巷5弄1號","121.51592","24.99507","6500400","永和區"
"234074","AAC-211","2017/08/12 20:09:50","新北市永和區豫溪街151號","121.521043333333","25.0103816666667","6500400","永和區"
"234067","AAC-212","2017/08/12 20:09:48","新北市永和區永貞路372號","121.509871666667","25.0068166666667","6500400","永和區"
"234003","AAC-295","2017/08/12 20:09:44","新北市永和區中正路609巷3號","121.516143333333","25.0093166666667","6500400","永和區"
"243013","AAD-798","2017/08/12 20:09:48","新北市泰山區明志路三段74巷23號","121.423905","25.0416683333333","6501600","泰山區"
"243009","297-R6","2017/08/12 20:09:49","新北市泰山區泰林路二段116巷6弄2號","121.4353","25.0595466666667","6501600","泰山區"
"243015","380-SR","2017/08/12 20:09:48","新北市泰山區明志路一段488號","121.430558333333","25.054565","6501600","泰山區"
"243014","421-VK","2017/08/12 20:09:44","新北市泰山區明志路一段56號","121.433541666667","25.0648566666667","6501600","泰山區"
"243010","548-UM","2017/08/12 20:09:52","新北市泰山區明志路二段136巷19號","121.426063333333","25.0519216666667","6501600","泰山區"
"243011","549-UM","2017/08/12 20:09:36","新北市新莊區丹鳳街36號","121.421603333333","25.0295733333333","6501600","泰山區"
"243012","646-TV","2017/08/12 20:09:54","新北市泰山區楓江路39-2號","121.435115","25.06239","6501600","泰山區"
"243016","680-BX","2017/08/12 20:09:53","新北市泰山區明志路三段273號","121.423136666667","25.0369883333333","6501600","泰山區"
"222003","436-BY","2017/08/12 20:09:46","新北市深坑區埔新街60號","121.620253333333","25.002535","6501800","深坑區"
"222002","659-BX","2017/08/12 20:09:44","新北市深坑區北深路三段160號","121.602501666667","25.0034183333333","6501800","深坑區"
"222001","696-SL","2017/08/12 20:09:41","新北市深坑區北深路三段212號","121.601181666667","25.0038116666667","6501800","深坑區"
"231041","002-UM","2017/08/12 20:09:36","新北市新店區中正路470號","121.533918333333","24.98054","6500600","新店區"
"231056","0291-UT","2017/08/12 20:09:48","新北市新店區北新路二段29巷3弄1號","121.54222","24.9729883333333","6500600","新店區"
"231059","046-UY","2017/08/12 20:09:38","新北市新店區安德街60巷35號","121.51119","24.9634766666667","6500600","新店區"
"231061","047-UY","2017/08/12 20:09:38","新北市新店區安興路32號","121.515733333333","24.9703416666667","6500600","新店區"
"231060","106-UY","2017/08/12 20:09:34","新北市新店區安康路三段179-1號","121.488253333333","24.9517966666667","6500600","新店區"
"231051","107-UY","2017/08/12 20:09:47","新北市新店區中央五街30號","121.528785","24.974605","6500600","新店區"
"231048","108-UY","2017/08/12 20:09:47","新北市新店區永華街18號","121.543933333333","24.976145","6500600","新店區"
"231052","187-VK","2017/08/12 20:09:41","新北市新店區新烏路三段141號","121.551216666667","24.9018733333333","6500600","新店區"
"231057","256-BX","2017/08/12 20:09:50","新北市新店區花園一路一段2號","121.553111666667","24.9324133333333","6500600","新店區"
"231063","268-BY","2017/08/12 20:09:37","新北市新店區黎明路55巷1號","121.502416666667","24.9482683333333","6500600","新店區"
"231050","AAD-862","2017/08/12 20:09:33","新北市新店區中生路61號","121.564765","24.9521616666667","6500600","新店區"
"231055","3713-VJ","2017/08/12 20:09:48","新北市新店區中華路42巷10號","121.540361666667","24.968515","6500600","新店區"
"231067","4772-VM","2017/08/12 20:09:45","新北市新店區溪洲路101-1號","121.532461666667","24.96199","6500600","新店區"
"231065","512-UM","2017/08/12 20:09:45","新北市新店區安祥路106巷208號","121.47417","24.9604916666667","6500600","新店區"
"231054","513-UM","2017/08/12 20:09:39","新北市新店區檳榔路22巷1號","121.541368333333","24.96413","6500600","新店區"
"231064","515-UM","2017/08/12 20:09:39","新北市新店區安康路二段118-5號","121.51248","24.963355","6500600","新店區"
"231045","617-UM","2017/08/12 20:09:56","新北市新店區北宜路二段2號","121.54751","24.95188","6500600","新店區"
"231040","619-UM","2017/08/12 20:09:36","新北市新店區中正路110號","121.543015","24.9705883333333","6500600","新店區"
"231042","641-BX","2017/08/12 20:09:40","新北市新店區中興路二段192號","121.54835","24.97346","6500600","新店區"
"231068","718-UY","2017/08/12 20:09:48","新北市新店區北新路二段262號","121.54262","24.9784166666667","6500600","新店區"
"231049","719-UM","2017/08/12 20:09:43","新北市新店區北新路二段139巷5號","121.54223","24.97551","6500600","新店區"
"231062","720-UM","2017/08/12 20:09:43","新北市新店區車子路115-11號","121.50812","24.9546966666667","6500600","新店區"
"231044","897-TW","2017/08/12 20:09:48","新北市新店區寶慶街58巷6號","121.542111666667","24.9870116666667","6500600","新店區"
"231043","899-TW","2017/08/12 20:09:43","新北市新店區民族路192號","121.536191666667","24.9753666666667","6500600","新店區"
"231066","AKT-0513","2017/08/12 20:09:50","新北市新店區柴埕路60巷1號","121.509501666667","24.9644933333333","6500600","新店區"
"241011","013-R5","2017/08/12 20:09:37","新北市三重區仁愛街30號","121.496411666667","25.0717283333333","6500200","三重區"
"241028","022-UY","2017/08/12 20:09:49","新北市三重區仁化街115號","121.494568333333","25.0578033333333","6500200","三重區"
"241008","059-VK","2017/08/12 20:09:39","新北市三重區永福街197巷37弄3號","121.478226666667","25.074395","6500200","三重區"
"241009","060-VK","2017/08/12 20:09:52","新北市三重區永福街62號","121.480903333333","25.077885","6500200","三重區"
"241031","061-VK","2017/08/12 20:09:44","新北市三重區過圳街9-1號","121.4888","25.0601533333333","6500200","三重區"
"241015","062-VK","2017/08/12 20:09:30","新北市三重區福德北路43號","121.502318333333","25.0648766666667","6500200","三重區"
"241017","063-VK","2017/08/12 20:09:42","新北市三重區長壽西街163號","121.49278","25.0665316666667","6500200","三重區"
"241024","065-VK","2017/08/12 20:09:35","新北市三重區中正北路294號","121.480138333333","25.0687233333333","6500200","三重區"
"241002","090-VK","2017/08/12 20:09:38","新北市三重區五華街35巷20號","121.49496","25.0813333333333","6500200","三重區"
"241003","091-VK","2017/08/12 20:09:41","新北市三重區仁愛街444號","121.489266666667","25.0819483333333","6500200","三重區"
"241006","156-TC","2017/08/12 20:09:34","新北市三重區力行路二段61號","121.48214","25.0747766666667","6500200","三重區"
"241005","262-UM","2017/08/12 20:09:36","新北市三重區溪尾街327號","121.48839","25.0848083333333","6500200","三重區"
"241025","265-UM","2017/08/12 20:09:47","新北市三重區中正北路237號","121.475586666667","25.0707283333333","6500200","三重區"
"241016","266-UM","2017/08/12 20:09:46","新北市三重區中正北路25巷26號","121.49384","25.0632216666667","6500200","三重區"
"241022","267-UM","2017/08/12 20:09:40","新北市三重區新北大道一段42號","121.48789","25.0615016666667","6500200","三重區"
"241018","268-UM","2017/08/12 20:09:53","新北市三重區正義北路195號","121.496166666667","25.0682983333333","6500200","三重區"
"241032","269-UM","2017/08/12 20:09:42","新北市三重區捷運路65號","121.483396666667","25.0555716666667","6500200","三重區"
"241013","270-UM","2017/08/12 20:09:44","新北市三重區三和路三段139巷1號","121.492676666667","25.073545","6500200","三重區"
"241026","271-UM","2017/08/12 20:09:39","新北市三重區中央南路109號","121.501555","25.0603266666667","6500200","三重區"
"241007","398-BY","2017/08/12 20:09:51","新北市三重區三和路四段111-2號","121.485791666667","25.0772316666667","6500200","三重區"
"241020","412-TH","2017/08/12 20:09:48","新北市三重區大智街165巷12號","121.490296666667","25.0727033333333","6500200","三重區"
"241004","475-VK","2017/08/12 20:09:47","新北市三重區自強路四段80號","121.490581666667","25.07889","6500200","三重區"
"241019","478-VK","2017/08/12 20:09:36","新北市三重區自強路二段33巷61-1號","121.491063333333","25.069895","6500200","三重區"
"241030","480-VK","2017/08/12 20:09:53","新北市三重區成功路145巷31號","121.487576666667","25.0531033333333","6500200","三重區"
"241014","543-UM","2017/08/12 20:09:55","新北市三重區長樂街101號","121.501431666667","25.0693966666667","6500200","三重區"
"241023","545-UM","2017/08/12 20:09:41","新北市三重區頂崁街233號","121.476988333333","25.0684916666667","6500200","三重區"
"241001","547-UM","2017/08/12 20:09:44","新北市三重區三和路四段89巷24號","121.490096666667","25.0761233333333","6500200","三重區"
"241035","743-BX","2017/08/12 20:09:39","新北市三重區正義北路49號","121.497376666667","25.0639383333333","6500200","三重區"
"241029","887-TS","2017/08/12 20:09:53","新北市三重區光明路32巷23弄1-1號","121.492113333333","25.0586333333333","6500200","三重區"
"241012","941-UM","2017/08/12 20:09:34","新北市三重區仁愛街125巷30號","121.497763333333","25.0758683333333","6500200","三重區"
"241033","AAC-255","2017/08/12 20:09:54","新北市三重區光復路一段61巷27號","121.47356","25.04928","6500200","三重區"
"235066","003-UY","2017/08/12 20:09:47","新北市中和區水源路154巷4號","121.508143333333","25.0032683333333","6500300","中和區"
"235039","097-UM","2017/08/12 20:09:41","新北市中和區大勇街25巷39弄1號","121.514838333333","24.9942216666667","6500300","中和區"
"235065","098-UM","2017/08/12 20:09:51","新北市中和區福祥路67號","121.49923","25.0048883333333","6500300","中和區"
"235040","150-BY","2017/08/12 20:09:35","新北市中和區保健路33巷11號","121.509205","24.9979366666667","6500300","中和區"
"235058","151-BY","2017/08/12 20:09:41","新北市板橋區民生路一段113號","121.47397","25.014595","6500300","中和區"
"235055","183-VK","2017/08/12 20:09:51","新北市中和區民生街23巷3弄2號","121.471113333333","25.0049483333333","6500300","中和區"
"235044","293-VK","2017/08/12 20:09:39","新北市中和區中正路63號","121.50143","24.9932783333333","6500300","中和區"
"235072","301-VK","2017/08/12 20:09:54","新北市新店區安和路一段43號","121.517095","24.9656116666667","6500300","中和區"
"235051","376-QA","2017/08/12 20:09:38","新北市中和區景安路220巷1弄2號","121.503263333333","24.99097","6500300","中和區"
"235068","377-QA","2017/08/12 20:09:53","新北市中和區中山路二段248號","121.49764","25.00256","6500300","中和區"
"235050","4979-A6","2017/08/12 20:09:43","新北市中和區景平路211號","121.510868333333","24.99259","6500300","中和區"
"235069","4980-A6","2017/08/12 20:09:48","新北市中和區圓通路163-1號","121.497856666667","24.9955633333333","6500300","中和區"
"235070","558-UM","2017/08/12 20:09:41","新北市中和區圓通路169號","121.497665","24.9953633333333","6500300","中和區"
"235054","640-BX","2017/08/12 20:09:50","新北市中和區莒光路11號","121.471978333333","25.0057816666667","6500300","中和區"
"235060","647-TV","2017/08/12 20:09:55","新北市板橋區文化路二段656號","121.480656666667","25.0384083333333","6500300","中和區"
"235046","733-UM","2017/08/12 20:09:46","新北市中和區忠孝街31巷54號","121.509703333333","24.98543","6500300","中和區"
"235041","802-TS","2017/08/12 20:09:47","新北市中和區新興街17巷25號","121.512576666667","25.0028616666667","6500300","中和區"
"235048","896-TW","2017/08/12 20:09:48","新北市中和區景新街440號","121.51322","24.988255","6500300","中和區"
"235037","AAC-213","2017/08/12 20:09:49","新北市中和區自立路141巷17號","121.52331","24.9938066666667","6500300","中和區"
"235059","AAC-215","2017/08/12 20:09:44","新北市中和區圓通路335巷39號","121.493891666667","24.989175","6500300","中和區"
"220065","072-UY","2017/08/12 20:09:47","新北市板橋區中山路一段154巷19號","121.465236666667","25.01072","6500100","板橋區"
"220106","075-UY","2017/08/12 20:09:42","新北市板橋區懷德街20號","121.476638333333","25.0330016666667","6500100","板橋區"
"220069","AAD-861","2017/08/12 20:09:52","新北市板橋區大明街23號","121.458578333333","25.0024766666667","6500100","板橋區"
"220096","120-SR","2017/08/12 20:09:43","新北市板橋區莒光路79巷4號","121.471996666667","25.0243716666667","6500100","板橋區"
"247020","893-R6","2017/08/12 20:09:47","新北市蘆洲區民義街70號","121.473185","25.0898333333333","6501400","蘆洲區"
"247010","546-UM","2017/08/12 20:09:43","新北市蘆洲區集賢路378號","121.480491666667","25.08286","6501400","蘆洲區"
"247018","500-BY","2017/08/12 20:09:47","新北市蘆洲區民族路267號","121.476111666667","25.0906883333333","6501400","蘆洲區"
"247008","339-TH","2017/08/12 20:09:37","新北市蘆洲區集賢路300號","121.481515","25.0851116666667","6501400","蘆洲區"
"247024","337-TH","2017/08/12 20:09:48","新北市蘆洲區光榮路120巷13號","121.4654","25.0885616666667","6501400","蘆洲區"
"247002","336-TH","2017/08/12 20:09:36","新北市蘆洲區長安街315號","121.457455","25.0860416666667","6501400","蘆洲區"
"247006","335-TH","2017/08/12 20:09:44","新北市蘆洲區永安南路二段16巷8號","121.467766666667","25.07724","6501400","蘆洲區"
"247014","057-VK","2017/08/12 20:09:50","新北市蘆洲區中山二路265巷1號","121.470068333333","25.0796233333333","6501400","蘆洲區"
"247004","056-VK","2017/08/12 20:09:41","新北市蘆洲區永安南路二段328巷15弄2號","121.456578333333","25.083795","6501400","蘆洲區"
"247022","053-VK","2017/08/12 20:09:49","新北市蘆洲區三民路171巷19號","121.470558333333","25.086975","6501400","蘆洲區"
"247012","007-UY","2017/08/12 20:09:35","新北市蘆洲區中興街15巷40號","121.479871666667","25.0883216666667","6501400","蘆洲區"
"247016","001-UY","2017/08/12 20:09:51","新北市蘆洲區光華路162巷8弄2號","121.46523","25.0826516666667","6501400","蘆洲區"
"241031","7418-A5","2017/08/12 15:53:44","新北市平溪區石底里公園街18-3號","121.733536666667","25.0255933333333","6500200","三重區"
"224010","AGQ-8101","2017/08/12 20:04:06","新北市瑞芳區街頂巷104號","121.844093333333","25.108155","6501200","瑞芳區"
"224011","420-VK","2017/08/12 20:09:37","新北市瑞芳區崙頂路3-1號","121.84707","25.1046566666667","6501200","瑞芳區"
"227010","400-TW","2017/08/12 20:09:51","新北市雙溪區牡丹里中正路64號","121.865516666667","25.0434","6502500","雙溪區"
"208002","742-BX","2017/08/12 20:09:49","新北市金山區中山路451號","121.62955","25.225305","6502700","金山區"
"208003","665-BX","2017/08/12 20:09:33","新北市金山區永興里跳石4號","121.63339","25.2560516666667","6502700","金山區"
"251004","009-UM","2017/08/12 20:09:15","新北市淡水區民生路16巷10號","121.461253333333","25.1372283333333","6501000","淡水區"
"251002","012-UM","2017/08/12 20:09:51","新北市淡水區中正路310號","121.437171666667","25.17239","6501000","淡水區"
"251014","180-VK","2017/08/12 20:09:42","新北市淡水區石頭厝1號","121.458718333333","25.2355183333333","6501000","淡水區"
"251008","181-VK","2017/08/12 20:09:48","新北市淡水區沙崙路126號","121.423506666667","25.1829083333333","6501000","淡水區"
"251010","413-VK","2017/08/12 20:09:44","新北市淡水區新市二路二段200號","121.429526666667","25.1947083333333","6501000","淡水區"
"251012","441-VK","2017/08/12 20:09:40","新北市淡水區淡金路三段224號","121.44898","25.2048116666667","6501000","淡水區"
"251016","442-VK","2017/08/12 20:09:42","新北市淡水區番子田18號","121.457016666667","25.22932","6501000","淡水區"
"251005","443-VK","2017/08/12 20:09:45","新北市淡水區學府路114號","121.45019","25.1722816666667","6501000","淡水區"
"251001","559-UM","2017/08/12 20:09:37","新北市淡水區淡金路二段599號","121.445988333333","25.1924666666667","6501000","淡水區"
"251006","561-UM","2017/08/12 20:09:49","新北市淡水區北新路141巷29號","121.44814","25.1796183333333","6501000","淡水區"
"251009","575-R6","2017/08/12 20:09:38","新北市淡水區清水街9-3號","121.444818333333","25.170335","6501000","淡水區"
"207003","550-UM","2017/08/12 20:09:46","新北市萬里區大鵬里萬里加投166-1號","121.643481666667","25.21542","6502800","萬里區"
"207004","225-TW","2017/08/12 20:09:33","新北市萬里區北基里大勇路13號","121.681891666667","25.1766133333333","6502800","萬里區"
"252002","178-VK","2017/08/12 20:09:38","新北市三芝區三民街39巷36號","121.50543","25.2575483333333","6502100","三芝區"
"252001","292-VK","2017/08/12 20:09:44","新北市三芝區長安街89號","121.499695","25.257475","6502100","三芝區"
"237007","153-BY","2017/08/12 20:09:36","新北市三峽區二鬮路136巷22弄33號","121.357213333333","24.9102066666667","6500900","三峽區"
"237012","275-BY","2017/08/12 20:09:49","新北市三峽區安溪路316號","121.371106666667","24.9304333333333","6500900","三峽區"
"237008","302-VK","2017/08/12 20:09:41","新北市三峽區中正路一段174巷1弄2號","121.37223","24.92869","6500900","三峽區"
"237006","5529-G3","2017/08/12 20:09:42","新北市三峽區嘉添109-11號","121.369511666667","24.9096633333333","6500900","三峽區"
"237005","AKY-6261","2017/08/12 20:09:37","新北市三峽區三樹路98巷74弄91號","121.385063333333","24.9384616666667","6500900","三峽區"
"236073","105-UM","2017/08/12 20:09:49","新北市土城區中央路三段147巷2弄12號","121.43209","24.9649233333333","6501300","土城區"
"236043","107-UM","2017/08/12 20:09:52","新北市土城區學府路一段164巷4弄1號","121.453626666667","24.9872983333333","6501300","土城區"
"236079","166-UM","2017/08/12 20:09:37","新北市土城區民族街32號","121.418703333333","24.9634016666667","6501300","土城區"
"236031","253-BX","2017/08/12 20:09:49","新北市土城區日新街9巷1號","121.44535","24.98708","6501300","土城區"
"236027","269-VK","2017/08/12 20:09:46","新北市土城區中央路一段289號","121.444463333333","24.9842366666667","6501300","土城區"
"236015","270-VK","2017/08/12 20:09:39","新北市土城區廣興街19號","121.45595","24.9916516666667","6501300","土城區"
"236038","271-VK","2017/08/12 20:09:51","新北市土城區延吉街296巷10號","121.464446666667","24.9845866666667","6501300","土城區"
"236023","401-BY","2017/08/12 20:09:44","新北市土城區延吉街137巷25弄5號","121.471463333333","24.985145","6501300","土城區"
"236059","912-UM","2017/08/12 20:09:43","新北市土城區中央路一段363號","121.443175","24.9809533333333","6501300","土城區"
"236049","913-UM","2017/08/12 20:09:53","新北市土城區清水路242號","121.46122","24.98253","6501300","土城區"
"236055","AAC-216","2017/08/12 20:09:46","新北市土城區學府路一段146號","121.454878333333","24.9870933333333","6501300","土城區"
"242021","AAC-296","2017/08/12 20:09:44","新北市新莊區建中街33號","121.448621666667","25.0371883333333","6500500","新莊區"
"242029","986-R7","2017/08/12 20:09:53","新北市新莊區中榮街152巷18號","121.445961666667","25.0534133333333","6500500","新莊區"
"242025","615-BX","2017/08/12 20:09:44","新北市新莊區五工三路78巷6號","121.459186666667","25.0652816666667","6500500","新莊區"
"242023","613-BX","2017/08/12 20:09:53","新北市新莊區化成路604號","121.466196666667","25.054555","6500500","新莊區"
"242027","612-BX","2017/08/12 20:09:53","新北市新莊區幸福路790號","121.446698333333","25.04925","6500500","新莊區"
"242036","566-BX","2017/08/12 20:09:42","新北市新莊區後港一路130巷29號","121.429861666667","25.0262083333333","6500500","新莊區"
"242042","497-BY","2017/08/12 20:09:51","新北市新莊區青山路一段177號","121.400508333333","25.0301416666667","6500500","新莊區"
"242004","442-UM","2017/08/12 20:09:40","新北市新莊區頭興街7巷1號","121.462705","25.05368","6500500","新莊區"
"242046","441-UM","2017/08/12 20:09:44","新北市新莊區裕民街103巷20號","121.419141666667","25.0228166666667","6500500","新莊區"
"242051","440-UM","2017/08/12 20:09:49","新北市新莊區民安西路191號","121.426105","25.0155666666667","6500500","新莊區"
"242031","415-TV","2017/08/12 20:09:43","新北市新莊區公園一路6號","121.443615","25.0346033333333","6500500","新莊區"
"242002","413-TV","2017/08/12 20:09:38","新北市三重區重新路五段637-1號","121.467266666667","25.0433766666667","6500500","新莊區"
"242039","400-BY","2017/08/12 20:09:48","新北市新莊區民安西路113-1號","121.42679","25.0181416666667","6500500","新莊區"
"242061","362-BY","2017/08/12 20:09:35","新北市新莊區瓊林路瓊英巷11弄2號","121.443131666667","25.0276033333333","6500500","新莊區"
"242058","353-BY","2017/08/12 20:09:36","新北市新莊區龍安路282號","121.422365","25.0191133333333","6500500","新莊區"
"242015","132-UY","2017/08/12 20:09:47","新北市新莊區中平路26巷24號","121.44571","25.0432866666667","6500500","新莊區"
"242019","135-UY","2017/08/12 20:09:49","新北市新莊區銘德街27號","121.458591666667","25.0437283333333","6500500","新莊區"
"242044","172-VK","2017/08/12 20:09:51","桃園市龜山區萬壽路一段21巷8號","121.410451666667","25.020375","6500500","新莊區"
"242007","173-VK","2017/08/12 20:09:37","新北市新莊區思源路407號","121.459546666667","25.0521883333333","6500500","新莊區"
"242013","175-VK","2017/08/12 20:09:41","新北市新莊區幸福路678巷5號","121.45059","25.0497","6500500","新莊區"
"242056","176-VK","2017/08/12 20:09:48","新北市新莊區新莊路649巷13弄14號","121.445573333333","25.0318183333333","6500500","新莊區"
"242011","346-TH","2017/08/12 20:09:45","新北市新莊區中信街52號","121.44926","25.0509066666667","6500500","新莊區"
"242034","347-TH","2017/08/12 20:09:53","新北市新莊區建中街84號","121.44722","25.036775","6500500","新莊區"
"242017","348-TH","2017/08/12 20:09:46","新北市新莊區中港一街25號","121.451195","25.045515","6500500","新莊區"
"242053","349-TH","2017/08/12 20:09:43","新北市新莊區西盛街395巷9號","121.428198333333","25.012665","6500500","新莊區"
"242009","351-TH","2017/08/12 20:09:40","新北市新莊區昌平街10號","121.455023333333","25.052655","6500500","新莊區"
"238023","601-UM","2017/08/12 20:09:45","新北市樹林區東興街3號","121.409313333333","24.9803383333333","6500700","樹林區"
"238021","311-TH","2017/08/12 19:51:59","新北市樹林區佳園路三段143號","121.386085","24.94928","6500700","樹林區"
"221008","489-VK","2017/08/12 20:09:35","台北市內湖區康樂街12號","121.61778","25.0679066666667","6501100","汐止區"
"221036","130-UY","2017/08/12 20:09:44","新北市汐止區新台五路二段78-3號","121.662225","25.0659133333333","6501100","汐止區"
"221015","131-UY","2017/08/12 20:09:48","新北市汐止區建成路13號","121.664533333333","25.07253","6501100","汐止區"
"221010","269-BY","2017/08/12 20:09:50","新北市汐止區連峰街225巷36號","121.643038333333","25.081845","6501100","汐止區"
"241031","276-VK","2017/08/12 12:39:33","新北市汐止區中正路190號","121.658881666667","25.0691066666667","6500200","三重區"
"241031","278-VK","2017/08/12 20:09:46","新北市汐止區汐平路二段15號","121.695928333333","25.0643416666667","6500200","三重區"
"221023","279-VK","2017/08/12 02:07:57","新北市汐止區康寧街901號","121.651743333333","25.0751166666667","6501100","汐止區"
"221032","280-BY","2017/08/12 20:09:40","新北市汐止區弘道街8巷5弄1號","121.617201666667","25.047885","6501100","汐止區"
"221027","281-BY","2017/08/12 20:09:41","新北市汐止區中正路133號","121.660078333333","25.0692066666667","6501100","汐止區"
"221038","297-VK","2017/08/12 20:09:39","新北市汐止區大同路三段66-3號","121.668056666667","25.0771583333333","6501100","汐止區"
"221029","298-VK","2017/08/12 20:09:51","新北市汐止區樟樹一路119巷8-6號","121.641266666667","25.0644383333333","6501100","汐止區"
"221021","299-VK","2017/08/12 17:29:43","新北市汐止區汐萬路一段256巷3號","121.652183333333","25.0753183333333","6501100","汐止區"
"221031","353-TW","2017/08/12 20:09:46","新北市汐止區原興路73巷1號","121.632078333333","25.0661666666667","6501100","汐止區"
"221035","622-UM","2017/08/12 20:09:37","新北市汐止區長江街57巷22號","121.65593","25.0722683333333","6501100","汐止區"
"221025","623-UM","2017/08/12 20:09:50","新北市汐止區水源路二段32號","121.65484","25.05724","6501100","汐止區"
"221033","647-BX","2017/08/12 20:09:53","新北市汐止區東勢街201巷104號","121.633518333333","25.0428733333333","6501100","汐止區"
"221018","753-BX","2017/08/12 20:09:46","新北市汐止區招商街156-1號","121.671913333333","25.0667366666667","6501100","汐止區"
"220079","145-BY","2017/08/12 20:09:35","新北市五股區孝義路6號","121.45257","25.106255","6500100","板橋區"
"220080","200-UY","2017/08/12 20:09:46","新北市板橋區大觀路二段163巷1號","121.445623333333","25.0004733333333","6500100","板橋區"
"220101","245-BX","2017/08/12 20:09:31","新北市板橋區雙十路二段47巷9號","121.475996666667","25.026005","6500100","板橋區"
"220103","257-TC","2017/08/12 20:09:46","新北市板橋區自由路26巷1號","121.465838333333","25.02275","6500100","板橋區"
"220071","283-VK","2017/08/12 20:09:52","新北市板橋區五權街2號","121.464185","24.9943016666667","6500100","板橋區"
"220053","285-VK","2017/08/12 20:09:36","新北市板橋區中山路2段267-1號","121.477558333333","25.0180933333333","6500100","板橋區"
"220083","286-VK","2017/08/12 20:09:55","新北市板橋區僑中二街40號","121.445201666667","25.0108533333333","6500100","板橋區"
"220081","287-VK","2017/08/12 19:54:42","新北市板橋區僑中一街70號","121.447485","25.0115033333333","6500100","板橋區"
"220061","293-UM","2017/08/12 20:09:36","新北市板橋區中山路一段210號","121.469958333333","25.01393","6500100","板橋區"
"220055","295-UM","2017/08/12 20:09:25","新北市板橋區仁愛路86巷22-1號","121.460943333333","24.9986133333333","6500100","板橋區"
"220084","296-UM","2017/08/12 20:09:41","新北市板橋區溪崑二街112巷18號","121.425905","24.988925","6500100","板橋區"
"220098","299-UM","2017/08/12 20:09:51","新北市板橋區新海路72巷5弄39號","121.46133","25.0233333333333","6500100","板橋區"
"220062","303-R5","2017/08/12 20:09:54","新北市板橋區中山路二段613號","121.48551","25.0223033333333","6500100","板橋區"
"220092","307-R5","2017/08/12 20:09:40","新北市板橋區文化路一段55號","121.460555","25.0136516666667","6500100","板橋區"
"220089","487-VK","2017/08/12 20:09:44","新北市板橋區互助街73號","121.46031","25.0261533333333","6500100","板橋區"
"220088","491-VK","2017/08/12 20:09:39","新北市板橋區民治街52巷5弄3號","121.479551666667","25.0329983333333","6500100","板橋區"
"220057","686-BX","2017/08/12 20:09:37","新北市板橋區四川路二段130巷1-1號","121.44992","24.993715","6500100","板橋區"
"220093","689-BX","2017/08/12 20:09:39","新北市板橋區長江路二段108號","121.465105","25.031385","6500100","板橋區"
"220067","829-TW","2017/08/12 20:09:51","新北市板橋區三民路一段1巷51弄9號","121.48084","25.0252833333333","6500100","板橋區"
"220102","830-TW","2017/08/12 20:09:48","新北市板橋區文聖街115號","121.477955","25.029085","6500100","板橋區"
"220074","895-R6","2017/08/12 20:09:50","新北市板橋區文化路一段46巷19號","121.460125","25.0116566666667","6500100","板橋區"
"220073","985-R7","2017/08/12 20:09:40","新北市板橋區南雅西路二段2-1號","121.453198333333","25.0087833333333","6500100","板橋區"
"220097","AAC-210","2017/08/12 20:09:40","新北市板橋區國光路234號","121.462921666667","25.0184133333333","6500100","板橋區"
"220070","AAC-253","2017/08/12 20:09:46","新北市土城區四川路16號","121.455463333333","24.99603","6500100","板橋區"
