"lineid","car","time","location","longitude","latitude","cityid","cityname"
"234074","AAC-211","2017/08/12 20:49:50","新北市永和區竹林路52號","121.517728333333","25.0140183333333","6500400","永和區"
"234067","AAC-212","2017/08/12 20:49:48","新北市新店區安和路三段143號","121.516893333333","24.985485","6500400","永和區"
"244024","742-UY","2017/08/12 20:19:51","新北市林口區粉寮路二段160巷28號","121.4052","25.0907533333333","6501700","林口區"
"222003","436-BY","2017/08/12 20:49:46","新北市深坑區阿柔洋51-2號","121.609768333333","24.9984766666667","6501800","深坑區"
"222002","659-BX","2017/08/12 20:49:44","新北市深坑區北深路三段93巷57號","121.60408","25.0005716666667","6501800","深坑區"
"222001","696-SL","2017/08/12 20:49:41","新北市深坑區北深路三段90號","121.607278333333","25.00148","6501800","深坑區"
"231056","0291-UT","2017/08/12 20:49:48","新北市新店區中央七街61巷2號","121.528196666667","24.9764083333333","6500600","新店區"
"231058","0293-UT","2017/08/12 20:49:44","新北市新店區平等街53號","121.536226666667","24.972845","6500600","新店區"
"231059","046-UY","2017/08/12 20:49:37","新北市新店區僑信路102巷41號","121.498953333333","24.94663","6500600","新店區"
"231061","047-UY","2017/08/12 20:49:38","新北市新店區新和街122號","121.521396666667","24.9865583333333","6500600","新店區"
"231060","106-UY","2017/08/12 20:49:34","新北市新店區安康路三段742號","121.47375","24.9419633333333","6500600","新店區"
"231051","107-UY","2017/08/12 20:49:47","新北市新店區中央七街92號","121.526461666667","24.9771416666667","6500600","新店區"
"231048","108-UY","2017/08/12 20:49:47","新北市新店區寶元路二段1巷2號","121.550723333333","24.9840416666667","6500600","新店區"
"231052","187-VK","2017/08/12 20:49:41","新北市新店區櫻花街55巷36號","121.548583333333","24.926575","6500600","新店區"
"231057","256-BX","2017/08/12 20:49:50","新北市新店區花園六路二段9-2號","121.555686666667","24.932855","6500600","新店區"
"231063","268-BY","2017/08/12 20:49:46","新北市新店區如意街11-1號","121.495003333333","24.9483483333333","6500600","新店區"
"231050","AAD-862","2017/08/12 20:49:33","新北市新店區中正路263巷4號","121.538401666667","24.973445","6500600","新店區"
"231065","512-UM","2017/08/12 20:49:45","新北市新店區安祥路104巷6弄40號","121.483276666667","24.9633833333333","6500600","新店區"
"231054","513-UM","2017/08/12 20:49:39","新北市新店區中正路75巷61號","121.543296666667","24.96933","6500600","新店區"
"231064","515-UM","2017/08/12 20:49:39","新北市新店區安民街378號","121.516406666667","24.97638","6500600","新店區"
"231040","619-UM","2017/08/12 20:49:36","新北市新店區中正路272號","121.538893333333","24.9736183333333","6500600","新店區"
"231042","641-BX","2017/08/12 20:49:40","新北市新店區寶高路116號","121.554468333333","24.9760366666667","6500600","新店區"
"231068","718-UY","2017/08/12 20:49:47","新北市新店區寶元路一段102號","121.545018333333","24.983265","6500600","新店區"
"231049","719-UM","2017/08/12 20:49:43","新北市新店區華城路36號","121.528423333333","24.9557666666667","6500600","新店區"
"231062","720-UM","2017/08/12 20:49:43","新北市新店區裕合街215號","121.489168333333","24.9490233333333","6500600","新店區"
"231044","897-TW","2017/08/12 20:49:48","新北市新店區建國路147號","121.538845","24.9786783333333","6500600","新店區"
"231043","899-TW","2017/08/12 20:49:35","新北市新店區建國路29號","121.540211666667","24.97409","6500600","新店區"
"231066","AKT-0513","2017/08/12 20:49:50","新北市新店區安興路112號","121.51469","24.9775916666667","6500600","新店區"
"241011","013-R5","2017/08/12 20:49:36","新北市三重區秀江街119號","121.499726666667","25.0721583333333","6500200","三重區"
"241028","022-UY","2017/08/12 20:49:49","新北市三重區中正南路41巷1號","121.493741666667","25.0599683333333","6500200","三重區"
"241008","059-VK","2017/08/12 20:49:38","新北市三重區永福街72巷11號","121.479478333333","25.07676","6500200","三重區"
"241009","060-VK","2017/08/12 20:49:52","新北市三重區三和路四段388-2號","121.48206","25.079145","6500200","三重區"
"241031","061-VK","2017/08/12 20:49:44","新北市三重區重陽路一段113巷1弄1號","121.487488333333","25.059805","6500200","三重區"
"241015","062-VK","2017/08/12 20:49:50","新北市三重區自強路一段12號","121.49886","25.0682166666667","6500200","三重區"
"241017","063-VK","2017/08/12 20:49:42","新北市三重區民生街1號","121.491975","25.067405","6500200","三重區"
"241024","065-VK","2017/08/12 20:49:35","新北市三重區大勇街49號","121.481321666667","25.071965","6500200","三重區"
"241002","090-VK","2017/08/12 20:49:38","新北市三重區仁義街211巷62號","121.498356666667","25.0828433333333","6500200","三重區"
"241006","156-TC","2017/08/12 20:49:34","新北市三重區車路頭街135-1號","121.484275","25.0761233333333","6500200","三重區"
"241005","262-UM","2017/08/12 20:49:36","新北市三重區五華街141巷25號","121.492043333333","25.0854283333333","6500200","三重區"
"241025","265-UM","2017/08/12 20:49:47","新北市三重區貴陽街14號","121.484206666667","25.061825","6500200","三重區"
"241016","266-UM","2017/08/12 20:49:46","新北市三重區自強路一段99號","121.49573","25.0663066666667","6500200","三重區"
"241022","267-UM","2017/08/12 20:49:40","新北市三重區過圳街27-5號","121.488011666667","25.06243","6500200","三重區"
"241018","268-UM","2017/08/12 20:49:38","新北市三重區正義北路291號","121.494938333333","25.0704333333333","6500200","三重區"
"241032","269-UM","2017/08/12 20:49:41","新北市三重區重陽路一段120巷35號","121.48514","25.06015","6500200","三重區"
"241013","270-UM","2017/08/12 20:49:39","新北市三重區三和路三段105號","121.494331666667","25.072725","6500200","三重區"
"241026","271-UM","2017/08/12 20:49:38","新北市三重區文化南路7號","121.499971666667","25.06237","6500200","三重區"
"241007","398-BY","2017/08/12 20:49:51","新北市三重區三和路四段145巷9號","121.484596666667","25.078315","6500200","三重區"
"241020","412-TH","2017/08/12 20:49:48","新北市三重區忠孝路一段50號","121.49079","25.0719633333333","6500200","三重區"
"241004","475-VK","2017/08/12 20:49:47","新北市三重區分子尾街19號","121.489513333333","25.081","6500200","三重區"
"241019","478-VK","2017/08/12 20:49:36","新北市三重區大智街188號","121.48967","25.07053","6500200","三重區"
"241030","480-VK","2017/08/12 20:49:33","新北市三重區昌隆街26號","121.491983333333","25.0522883333333","6500200","三重區"
"241014","543-UM","2017/08/12 20:49:35","新北市三重區長壽街120巷79號","121.501878333333","25.07035","6500200","三重區"
"241023","545-UM","2017/08/12 20:49:41","新北市三重區重陽路二段18巷4號","121.486395","25.0621433333333","6500200","三重區"
"241001","547-UM","2017/08/12 20:49:44","新北市三重區自強路三段99號","121.48774","25.0752916666667","6500200","三重區"
"241035","743-BX","2017/08/12 20:49:38","新北市三重區三和路三段8號","121.497091666667","25.0700833333333","6500200","三重區"
"241029","887-TS","2017/08/12 20:49:53","新北市三重區重安街83號","121.4926","25.0558916666667","6500200","三重區"
"241012","941-UM","2017/08/12 20:49:54","新北市三重區龍門路274巷45號","121.501206666667","25.075545","6500200","三重區"
"241033","AAC-255","2017/08/12 20:49:34","新北市三重區光復路二段2號","121.472116666667","25.0535166666667","6500200","三重區"
"235069","4980-A6","2017/08/12 20:49:48","新北市中和區連城路469巷44弄30號","121.482685","24.9944666666667","6500300","中和區"
"247020","893-R6","2017/08/12 20:49:47","新北市蘆洲區仁愛街75號","121.471383333333","25.093845","6501400","蘆洲區"
"247010","546-UM","2017/08/12 20:49:43","新北市蘆洲區鷺江街93號","121.476853333333","25.08384","6501400","蘆洲區"
"247018","500-BY","2017/08/12 20:49:47","新北市蘆洲區民權路70號","121.474898333333","25.087315","6501400","蘆洲區"
"247008","339-TH","2017/08/12 20:49:37","新北市蘆洲區中山一路3號","121.479895","25.0805433333333","6501400","蘆洲區"
"247024","337-TH","2017/08/12 20:49:47","新北市蘆洲區長樂路140號","121.462083333333","25.0901866666667","6501400","蘆洲區"
"247002","336-TH","2017/08/12 20:49:36","新北市蘆洲區光明路1號","121.460063333333","25.0865866666667","6501400","蘆洲區"
"247006","335-TH","2017/08/12 20:49:44","新北市蘆洲區永安南路二段18號","121.467718333333","25.0771933333333","6501400","蘆洲區"
"247014","057-VK","2017/08/12 20:49:50","新北市蘆洲區三民路50號","121.475476666667","25.0831616666667","6501400","蘆洲區"
"247004","056-VK","2017/08/12 20:49:41","新北市蘆洲區長安街101號","121.46158","25.0808133333333","6501400","蘆洲區"
"247022","053-VK","2017/08/12 20:49:49","新北市蘆洲區三民路120號","121.471201666667","25.0872483333333","6501400","蘆洲區"
"247012","007-UY","2017/08/12 20:49:35","新北市蘆洲區民權路5號","121.476638333333","25.0857466666667","6501400","蘆洲區"
"247016","001-UY","2017/08/12 20:49:45","新北市蘆洲區正和街10號","121.470273333333","25.082715","6501400","蘆洲區"
"241031","7418-A5","2017/08/12 15:53:44","新北市平溪區石底里公園街18-3號","121.733536666667","25.0255933333333","6500200","三重區"
"224011","420-VK","2017/08/12 20:49:37","新北市瑞芳區明燈路二段66號","121.809275","25.1074683333333","6501200","瑞芳區"
"251002","012-UM","2017/08/12 20:49:51","新北市淡水區英專路46號","121.445718333333","25.1705933333333","6501000","淡水區"
"251014","180-VK","2017/08/12 20:49:42","新北市淡水區公埔子36號","121.461855","25.23229","6501000","淡水區"
"251010","413-VK","2017/08/12 20:49:44","新北市淡水區沙崙路141-1號","121.42326","25.1830516666667","6501000","淡水區"
"251012","441-VK","2017/08/12 20:49:37","新北市淡水區興仁路162號","121.451626666667","25.221","6501000","淡水區"
"251016","442-VK","2017/08/12 20:49:42","新北市淡水區淡金路四段463號","121.451856666667","25.2233016666667","6501000","淡水區"
"251001","559-UM","2017/08/12 20:49:37","新北市淡水區淡金路218號","121.4605","25.1672016666667","6501000","淡水區"
"251007","577-R6","2017/08/12 20:49:54","新北市淡水區鄧公路29巷26號","121.452793333333","25.1701733333333","6501000","淡水區"
"251011","650-BX","2017/08/12 20:49:47","新北市淡水區新民街一段13號","121.432795","25.18469","6501000","淡水區"
"251003","673-BX","2017/08/12 20:49:47","新北市淡水區中山北路一段247巷92號","121.442301666667","25.1793133333333","6501000","淡水區"
"252002","178-VK","2017/08/12 20:49:38","新北市三芝區淡金路二段76-1號","121.503998333333","25.2609316666667","6502100","三芝區"
"242021","AAC-296","2017/08/12 20:49:54","新北市新莊區中華路一段68號","121.452191666667","25.0387866666667","6500500","新莊區"
"242029","986-R7","2017/08/12 20:49:53","新北市新莊區昌平街19號","121.45439","25.0513416666667","6500500","新莊區"
"242048","751-BX","2017/08/12 20:49:42","新北市新莊區中正路601號","121.432788333333","25.0320766666667","6500500","新莊區"
"242025","615-BX","2017/08/12 20:49:44","新北市五股區成泰路三段362號","121.451558333333","25.0986133333333","6500500","新莊區"
"242027","612-BX","2017/08/12 20:49:33","新北市三重區中興南街82號","121.470431666667","25.04291","6500500","新莊區"
"242036","566-BX","2017/08/12 20:49:42","新北市新莊區建安街16巷1號","121.428588333333","25.0264316666667","6500500","新莊區"
"242042","497-BY","2017/08/12 20:49:51","新北市新莊區中正路700-38號","121.417533333333","25.027725","6500500","新莊區"
"242046","441-UM","2017/08/12 20:49:44","新北市新莊區中正路471號","121.442186666667","25.0333866666667","6500500","新莊區"
"242051","440-UM","2017/08/12 20:49:36","新北市新莊區新樹路222號","121.433636666667","25.0203016666667","6500500","新莊區"
"242002","413-TV","2017/08/12 20:49:38","新北市新莊區中港路2號","121.454945","25.0368516666667","6500500","新莊區"
"242039","400-BY","2017/08/12 20:49:48","新北市新莊區瓊林路59-38號","121.441225","25.023585","6500500","新莊區"
"242061","362-BY","2017/08/12 20:49:54","新北市新莊區新樹路266-1號","121.432616666667","25.0140866666667","6500500","新莊區"
"242015","132-UY","2017/08/12 20:49:43","新北市新莊區中和街1號","121.448373333333","25.042915","6500500","新莊區"
"242034","347-TH","2017/08/12 20:49:33","新北市新莊區中正路380號","121.44311","25.034175","6500500","新莊區"
"242017","348-TH","2017/08/12 20:49:46","新北市新莊區中華路一段6號","121.452031666667","25.036535","6500500","新莊區"
"242053","349-TH","2017/08/12 20:49:43","新北市新莊區民安西路189巷10弄24號","121.426423333333","25.0150716666667","6500500","新莊區"
"242009","351-TH","2017/08/12 20:49:40","新北市新莊區思源路347號","121.459805","25.05023","6500500","新莊區"
"238023","601-UM","2017/08/12 20:49:45","新北市樹林區中山路三段204號","121.387196666667","24.968315","6500700","樹林區"
"221036","130-UY","2017/08/12 20:49:44","新北市汐止區新台五路二段87號","121.664696666667","25.066865","6501100","汐止區"
"221015","131-UY","2017/08/12 20:49:48","新北市汐止區大同路二段605號","121.664018333333","25.07061","6501100","汐止區"
"241031","276-VK","2017/08/12 12:39:33","新北市汐止區中正路190號","121.658881666667","25.0691066666667","6500200","三重區"
"221032","280-BY","2017/08/12 20:49:39","新北市汐止區汐萬路一段256巷3號","121.652463333333","25.0745566666667","6501100","汐止區"
"221027","281-BY","2017/08/12 20:49:41","新北市汐止區汐萬路一段256巷1號","121.651741666667","25.0749083333333","6501100","汐止區"
"221038","297-VK","2017/08/12 20:49:39","新北市汐止區汐萬路一段244-1號","121.651273333333","25.0734533333333","6501100","汐止區"
"221029","298-VK","2017/08/12 20:49:51","新北市汐止區樟樹二路339巷18號","121.64202","25.0720216666667","6501100","汐止區"
"221035","622-UM","2017/08/12 20:49:37","新北市汐止區汐萬路一段153號","121.653263333333","25.071005","6501100","汐止區"
"221033","647-BX","2017/08/12 20:49:53","台北市南港區合順街8巷7弄38號","121.620258333333","25.0419","6501100","汐止區"
"221018","753-BX","2017/08/12 20:49:46","新北市汐止區中華街88巷3號","121.668523333333","25.0706066666667","6501100","汐止區"
"220079","145-BY","2017/08/12 20:49:35","新北市新莊區新莊路773號","121.442068333333","25.0327","6500100","板橋區"
"220083","286-VK","2017/08/12 20:49:55","新北市板橋區僑中二街116巷1-2號","121.445581666667","25.00642","6500100","板橋區"
"220067","829-TW","2017/08/12 20:49:31","新北市五股區成泰路三段436號","121.451831666667","25.0992116666667","6500100","板橋區"
"220070","AAC-253","2017/08/12 20:49:46","新北市五股區新五路二段258號","121.440396666667","25.081555","6500100","板橋區"
