"lineid","car","time","location","longitude","latitude","cityid","cityname"
"234044","148-BY","2017/06/09 12:59:36","新北市永和區得和路373巷31弄1號","121.524915","25.0005016666667","6500400","永和區"
"234012","149-BY","2017/06/09 12:59:28","新北市永和區信義路15號","121.514263333333","25.0119","6500400","永和區"
"234005","207-UY","2017/06/09 12:59:34","新北市永和區中山路一段93號","121.511473333333","25.0107266666667","6500400","永和區"
"234078","298-R6","2017/06/09 12:59:32","新北市永和區永貞路21號","121.520976666667","25.0069483333333","6500400","永和區"
"234036","336-UY","2017/06/09 12:59:27","新北市永和區民樂街77巷1號","121.527476666667","24.9967733333333","6500400","永和區"
"234062","337-UY","2017/06/09 12:59:25","新北市永和區秀朗路一段211號","121.519418333333","25.0032233333333","6500400","永和區"
"234084","338-UY","2017/06/09 12:59:21","新北市永和區永寧街129巷1號","121.518205","25.0054516666667","6500400","永和區"
"234068","552-UM","2017/06/09 12:59:25","新北市永和區豫溪街57巷12號","121.517266666667","25.0106733333333","6500400","永和區"
"234052","553-UM","2017/06/09 12:59:26","新北市永和區竹林路66巷15-7號","121.518378333333","25.0133083333333","6500400","永和區"
"234015","745-BX","2017/06/09 12:59:19","新北市永和區永和路二段298號","121.516166666667","25.015755","6500400","永和區"
"234028","746-BX","2017/06/09 12:59:29","新北市永和區四維街46號","121.52508","24.9981533333333","6500400","永和區"
"234060","AAD-866","2017/06/09 12:59:25","新北市永和區福和路313號","121.516098333333","25.0072566666667","6500400","永和區"
"234040","862-TW","2017/06/09 12:59:27","新北市永和區永貞路271號","121.511651666667","25.00484","6500400","永和區"
"234048","863-TW","2017/06/09 12:59:21","新北市永和區文化路147號","121.51077","25.0161933333333","6500400","永和區"
"234025","9371-KE","2017/06/09 12:59:23","新北市永和區水源街2巷15號","121.512025","25.0057566666667","6500400","永和區"
"234010","9373-KE","2017/06/09 12:59:21","新北市永和區文化路9巷22弄28號","121.5146","25.0145583333333","6500400","永和區"
"248019","225-UY","2017/06/09 12:59:34","新北市五股區中興路二段83巷26-6號","121.459976666667","25.075285","6501500","五股區"
"234022","9380-KE","2017/06/09 12:59:39","新北市永和區竹林路75巷45號","121.520878333333","25.0143866666667","6500400","永和區"
"234076","969-R7","2017/06/09 12:59:21","新北市永和區民享街17號","121.515426666667","24.9951916666667","6500400","永和區"
"234072","AAC-211","2017/06/09 12:59:23","新北市永和區環河東路二段100號","121.524093333333","25.0103183333333","6500400","永和區"
"234066","AAC-212","2017/06/09 12:59:32","新北市永和區中和路625號","121.512996666667","25.0049166666667","6500400","永和區"
"234001","AAC-295","2017/06/09 12:57:38","新北市永和區永平路20號","121.513418333333","25.0088016666667","6500400","永和區"
"232008","290-BY","2017/06/09 09:12:37","新北市坪林區鶯子瀨9-8號","121.7098","24.9170066666667","6502000","坪林區"
"244004","248-BX","2017/06/09 12:59:38","新北市林口區粉寮路17巷1號","121.398521666667","25.08074","6501700","林口區"
"231002","002-UM","2017/06/09 12:59:24","新北市新店區安華路28-1號","121.519623333333","24.9608","6500600","新店區"
"231056","0291-UT","2017/06/09 12:59:33","新北市新店區安華路3號","121.518653333333","24.9606766666667","6500600","新店區"
"231059","046-UY","2017/06/09 12:59:38","新北市新店區安華路28-1號","121.519533333333","24.9609083333333","6500600","新店區"
"231030","047-UY","2017/06/09 12:59:31","新北市新店區安華路28-1號","121.51923","24.96091","6500600","新店區"
"231018","107-UY","2017/06/09 12:59:32","新北市新店區安華路30巷1號","121.519476666667","24.9597833333333","6500600","新店區"
"231012","108-UY","2017/06/09 12:59:24","新北市新店區安華路28-1號","121.519416666667","24.961465","6500600","新店區"
"231009","192-VK","2017/06/09 12:57:33","新北市新店區成功路50巷1號","121.544705","24.902885","6500600","新店區"
"231034","268-BY","2017/06/09 12:59:33","新北市新店區安華路28-1號","121.519436666667","24.9606033333333","6500600","新店區"
"231010","278-BY","2017/06/09 12:48:11","新北市新店區安華路28-1號","121.519571666667","24.961145","6500600","新店區"
"231016","AAD-862","2017/06/09 12:59:23","新北市新店區安華路28-1號","121.519761666667","24.961155","6500600","新店區"
"231024","3713-VJ","2017/06/09 12:59:36","新北市新店區安華路28-1號","121.519148333333","24.9606766666667","6500600","新店區"
"231037","4715-K9","2017/06/09 12:59:30","新北市新店區安華路28-1號","121.519426666667","24.9607316666667","6500600","新店區"
"231036","512-UM","2017/06/09 12:59:38","新北市新店區安華路28-1號","121.5192","24.9613066666667","6500600","新店區"
"231023","513-UM","2017/06/09 12:59:37","新北市新店區安華路28-1號","121.519746666667","24.9612983333333","6500600","新店區"
"231035","515-UM","2017/06/09 12:59:20","新北市新店區安華路28-1號","121.519601666667","24.961125","6500600","新店區"
"231006","617-UM","2017/06/09 12:59:38","新北市新店區安華路28-1號","121.519495","24.9610366666667","6500600","新店區"
"231001","619-UM","2017/06/09 12:59:22","新北市新店區安華路28-1號","121.519526666667","24.9609016666667","6500600","新店區"
"231003","641-BX","2017/06/09 12:59:33","新北市新店區安華路28-1號","121.519531666667","24.9605716666667","6500600","新店區"
"231013","719-UM","2017/06/09 12:59:34","新北市新店區安華路28-1號","121.5195","24.961445","6500600","新店區"
"231032","720-UM","2017/06/09 12:59:18","新北市新店區安華路28-1號","121.51929","24.9612316666667","6500600","新店區"
"231005","897-TW","2017/06/09 12:59:36","新北市新店區安華路28-1號","121.519491666667","24.960865","6500600","新店區"
"231004","899-TW","2017/06/09 12:59:25","新北市新店區安華路28-1號","121.519141666667","24.9608966666667","6500600","新店區"
"231038","AKT-0513","2017/06/09 12:59:32","新北市新店區安華路1-1號","121.519491666667","24.96032","6500600","新店區"
"235029","098-UM","2017/06/09 12:59:20","新北市中和區中正路575號","121.48646","24.99451","6500300","中和區"
"235004","150-BY","2017/06/09 12:59:34","新北市中和區和城路一段271巷1號","121.485663333333","24.9919183333333","6500300","中和區"
"235022","151-BY","2017/06/09 12:59:31","新北市中和區中正路521號","121.48834","24.9935133333333","6500300","中和區"
"235002","185-VK","2017/06/09 12:59:27","新北市中和區秀朗路三段10巷14弄24-3號","121.525053333333","24.9971766666667","6500300","中和區"
"235031","255-BX","2017/06/09 12:59:26","新北市中和區中正路897號","121.484268333333","25.004715","6500300","中和區"
"235036","301-VK","2017/06/09 12:59:37","新北市中和區員山路36巷12號","121.483915","24.9911633333333","6500300","中和區"
"235025","378-QA","2017/06/09 12:34:31","新北市中和區員山路36巷16-5號","121.484966666667","24.9920883333333","6500300","中和區"
"235006","551-UM","2017/06/09 12:59:28","新北市中和區和城路一段271巷1號","121.485468333333","24.9918266666667","6500300","中和區"
"235024","647-TV","2017/06/09 12:59:31","新北市中和區員山路36巷16-3號","121.48509","24.9914","6500300","中和區"
"235011","732-UM","2017/06/09 12:59:40","新北市中和區員山路36巷11號","121.48379","24.9907766666667","6500300","中和區"
"235010","733-UM","2017/06/09 12:59:25","新北市中和區員山路36巷13號","121.484095","24.9909116666667","6500300","中和區"
"235035","783-BX","2017/06/09 12:59:33","新北市中和區員山路36巷16-4號","121.485251666667","24.991965","6500300","中和區"
"247002","402-BY","2017/06/09 12:59:33","新北市五股區中興路三段5號","121.44961","25.0789133333333","6501400","蘆洲區"
"223004","660-BX","2017/06/09 09:43:07","新北市石碇區小粗坑(潭邊里)9-2號","121.678703333333","24.9856933333333","6501900","石碇區"
"208004","AAC-292","2017/06/09 12:59:20","新北市金山區磺港里磺港路305號","121.642025","25.2277283333333","6502700","金山區"
"207002","749-BX","2017/06/09 12:56:05","新北市萬里區雙興里大坪路39號","121.62536","25.1714633333333","6502800","萬里區"
"207001","463-BY","2017/06/09 12:59:30","新北市萬里區萬里里獅頭路23號","121.693348333333","25.1781816666667","6502800","萬里區"
"252002","178-VK","2017/06/09 10:00:23","新北市三芝區埔坪里埔頭坑41號","121.504645","25.2645783333333","6502100","三芝區"
"252003","249-BX","2017/06/09 08:39:24","新北市三芝區埔坪里埔頭坑41號","121.504448333333","25.2644416666667","6502100","三芝區"
"252001","292-VK","2017/06/09 07:59:24","新北市三芝區埔坪里埔頭坑41號","121.504553333333","25.264445","6502100","三芝區"
"236006","498-BY","2017/06/09 12:59:16","新北市土城區永寧路35號","121.43022","24.962265","6501300","土城區"
"221015","131-UY","2017/06/09 12:59:20","新北市汐止區汐萬路三段15號","121.643035","25.0916283333333","6501100","汐止區"
"220030","610-BX","2017/06/09 12:00:38","新北市板橋區華東街1-10號","121.448273333333","24.9949033333333","6500100","板橋區"
