"lineid","car","time","location","longitude","latitude","cityid","cityname"
"234044","148-BY","2017/06/09 13:59:32","新北市永和區林森路29巷2號","121.52619","25.0050883333333","6500400","永和區"
"234012","149-BY","2017/06/09 13:59:28","新北市永和區仁愛路273號","121.506103333333","25.00976","6500400","永和區"
"234005","207-UY","2017/06/09 13:59:34","新北市中和區南工路22巷2號","121.50552","25.0007266666667","6500400","永和區"
"234078","298-R6","2017/06/09 13:59:32","新北市永和區林森路112巷12弄34號","121.522843333333","25.00462","6500400","永和區"
"234036","336-UY","2017/06/09 13:59:27","新北市永和區成功路一段130號","121.526773333333","25.002175","6500400","永和區"
"234062","337-UY","2017/06/09 13:59:25","新北市永和區秀朗路一段192巷5號","121.51957","25.0025283333333","6500400","永和區"
"234084","338-UY","2017/06/09 13:59:21","新北市永和區福和路152號","121.52161","25.0078883333333","6500400","永和區"
"234068","552-UM","2017/06/09 13:59:23","新北市永和區永貞路10巷8號","121.520488333333","25.0073083333333","6500400","永和區"
"234052","553-UM","2017/06/09 13:59:26","新北市永和區竹林路39巷46號","121.520203333333","25.0152466666667","6500400","永和區"
"234015","745-BX","2017/06/09 13:59:19","新北市永和區文化路20號","121.515325","25.0150833333333","6500400","永和區"
"234028","746-BX","2017/06/09 13:59:29","新北市永和區民權路49巷3號","121.52039","24.9973466666667","6500400","永和區"
"234060","AAD-866","2017/06/09 13:59:25","新北市永和區中正路151巷14號","121.515593333333","24.9988316666667","6500400","永和區"
"234040","862-TW","2017/06/09 13:59:27","新北市永和區雙和街16巷16號","121.51001","25.0025283333333","6500400","永和區"
"234048","863-TW","2017/06/09 13:59:21","新北市永和區保安路268號","121.505715","25.0122566666667","6500400","永和區"
"234025","9371-KE","2017/06/09 13:59:22","新北市永和區安樂路451號","121.51435","25.004965","6500400","永和區"
"234010","9373-KE","2017/06/09 13:59:21","新北市永和區仁愛路352巷112弄12號","121.5011","25.0085683333333","6500400","永和區"
"248019","225-UY","2017/06/09 13:59:34","新北市五股區凌雲路三段57號","121.425331666667","25.1250166666667","6501500","五股區"
"234022","9380-KE","2017/06/09 13:59:19","新北市永和區永和路二段276巷1號","121.516368333333","25.0153833333333","6500400","永和區"
"234076","969-R7","2017/06/09 13:59:21","新北市永和區民族街81巷62號","121.520266666667","24.99658","6500400","永和區"
"234072","AAC-211","2017/06/09 13:59:23","新北市永和區竹林路201巷24弄1號","121.52224","25.0096916666667","6500400","永和區"
"234066","AAC-212","2017/06/09 13:59:32","新北市永和區保平路268巷32號","121.507433333333","25.0066483333333","6500400","永和區"
"234001","AAC-295","2017/06/09 13:57:18","新北市永和區福和路332號","121.515395","25.00727","6500400","永和區"
"232008","290-BY","2017/06/09 09:12:37","新北市坪林區鶯子瀨9-8號","121.7098","24.9170066666667","6502000","坪林區"
"244004","248-BX","2017/06/09 13:59:38","新北市林口區信義路180號","121.378771666667","25.0801933333333","6501700","林口區"
"222002","659-BX","2017/06/09 13:59:36","新北市深坑區紅葉街61號","121.63232","25.013895","6501800","深坑區"
"231002","002-UM","2017/06/09 13:59:24","新北市新店區中正路678號","121.534023333333","24.9898616666667","6500600","新店區"
"231025","0291-UT","2017/06/09 13:59:33","新北市新店區中正路339號","121.53587","24.97542","6500600","新店區"
"231028","046-UY","2017/06/09 13:59:35","新北市新店區安和路三段47號","121.518006666667","24.9825266666667","6500600","新店區"
"231030","047-UY","2017/06/09 13:59:31","新北市新店區安民街65巷21-2號","121.515191666667","24.9675216666667","6500600","新店區"
"231029","106-UY","2017/06/09 13:59:32","新北市新店區安和路一段1號","121.516698333333","24.9638016666667","6500600","新店區"
"231018","107-UY","2017/06/09 13:59:31","新北市新店區中央路118號","121.531073333333","24.9751916666667","6500600","新店區"
"231012","108-UY","2017/06/09 13:59:24","新北市新店區中興路二段79巷3號","121.546583333333","24.971225","6500600","新店區"
"231020","188-VK","2017/06/09 13:59:24","新北市新店區屈尺路78號","121.546613333333","24.9225866666667","6500600","新店區"
"231026","256-BX","2017/06/09 13:59:18","新北市新店區安康路一段24巷10號","121.532176666667","24.9606966666667","6500600","新店區"
"231034","268-BY","2017/06/09 13:59:33","新北市新店區達觀路8巷5號","121.50393","24.9435966666667","6500600","新店區"
"231016","AAD-862","2017/06/09 13:59:23","新北市新店區北宜路二段295號","121.556158333333","24.9541016666667","6500600","新店區"
"231027","3712-VJ","2017/06/09 13:59:28","新北市新店區北宜路一段39巷20號","121.538833333333","24.9584616666667","6500600","新店區"
"231024","3713-VJ","2017/06/09 13:59:16","新北市新店區北新路一段271巷8號","121.540461666667","24.96679","6500600","新店區"
"231037","4715-K9","2017/06/09 13:59:30","新北市新店區安康路三段207巷24號","121.488253333333","24.950625","6500600","新店區"
"231036","512-UM","2017/06/09 13:59:38","新北市新店區安祥路109巷1弄39號","121.47695","24.9603916666667","6500600","新店區"
"231023","513-UM","2017/06/09 13:59:37","新北市新店區文中路40號","121.539701666667","24.9566116666667","6500600","新店區"
"231035","515-UM","2017/06/09 13:59:19","新北市新店區安和路一段6-6號","121.517441666667","24.9655033333333","6500600","新店區"
"231006","617-UM","2017/06/09 13:59:38","新北市新店區北宜路二段211號","121.553186666667","24.953375","6500600","新店區"
"231001","619-UM","2017/06/09 13:59:22","新北市新店區三民路45號","121.53713","24.970925","6500600","新店區"
"231003","641-BX","2017/06/09 13:59:33","新北市新店區光明街44號","121.538783333333","24.9591166666667","6500600","新店區"
"231013","719-UM","2017/06/09 13:59:34","新北市新店區明德路111號","121.541473333333","24.9793816666667","6500600","新店區"
"231032","720-UM","2017/06/09 13:59:38","新北市新店區秀山路72號","121.531273333333","24.9609083333333","6500600","新店區"
"231005","897-TW","2017/06/09 13:59:36","新北市新店區中興路三段237號","121.542906666667","24.9837566666667","6500600","新店區"
"231004","899-TW","2017/06/09 13:59:25","新北市新店區北新路二段107號","121.542858333333","24.9744533333333","6500600","新店區"
"231038","AKT-0513","2017/06/09 13:59:32","新北市新店區溪洲路101-1號","121.531693333333","24.96253","6500600","新店區"
"235030","003-UY","2017/06/09 13:59:18","新北市中和區水源路6巷6號","121.503436666667","25.00345","6500300","中和區"
"235028","005-UY","2017/06/09 13:59:19","新北市中和區連城路43號","121.498286666667","25.0016966666667","6500300","中和區"
"235027","006-UY","2017/06/09 13:59:34","新北市中和區中正路464號","121.490161666667","24.9942383333333","6500300","中和區"
"235020","096-UM","2017/06/09 13:59:24","新北市中和區中正路1230號","121.479255","25.0109533333333","6500300","中和區"
"235003","097-UM","2017/06/09 13:59:34","新北市中和區景平路64巷13弄22號","121.521451666667","24.9914816666667","6500300","中和區"
"235029","098-UM","2017/06/09 13:59:20","新北市中和區福祥路136號","121.498798333333","25.006885","6500300","中和區"
"235004","150-BY","2017/06/09 13:59:34","新北市中和區保健路46巷17號","121.509211666667","24.9963533333333","6500300","中和區"
"235022","151-BY","2017/06/09 13:59:31","新北市中和區連城路571-1號","121.479211666667","24.994515","6500300","中和區"
"235019","183-VK","2017/06/09 13:59:19","新北市板橋區民族路276巷1弄20號","121.47035","25.0063283333333","6500300","中和區"
"235002","185-VK","2017/06/09 13:59:26","新北市中和區立人街24-4號","121.518945","24.99417","6500300","中和區"
"235013","186-VK","2017/06/09 13:59:17","新北市中和區景安路167巷31號","121.506921666667","24.995095","6500300","中和區"
"235031","255-BX","2017/06/09 13:59:26","新北市中和區新生街268號","121.483436666667","24.9971533333333","6500300","中和區"
"235008","293-VK","2017/06/09 13:59:38","新北市中和區中興街134號","121.499876666667","24.992055","6500300","中和區"
"235036","301-VK","2017/06/09 13:59:17","新北市中和區中山路二段128號","121.502465","25.0035333333333","6500300","中和區"
"235007","352-BY","2017/06/09 13:59:16","新北市中和區成功路1巷4號","121.526478333333","24.9945116666667","6500300","中和區"
"235015","376-QA","2017/06/09 13:59:22","新北市中和區忠孝街11巷6號","121.509985","24.9831216666667","6500300","中和區"
"235032","377-QA","2017/06/09 13:59:28","新北市中和區圓通路230號","121.495045","24.99274","6500300","中和區"
"235025","378-QA","2017/06/09 13:59:29","新北市中和區民治街130巷3號","121.475128333333","25.0026","6500300","中和區"
"235014","4979-A6","2017/06/09 13:59:16","新北市中和區華新街50巷4號","121.507736666667","24.984015","6500300","中和區"
"235033","4980-A6","2017/06/09 13:59:33","新北市中和區中和路179號","121.503343333333","24.9998183333333","6500300","中和區"
"235006","551-UM","2017/06/09 13:59:28","新北市中和區秀朗路三段10巷21弄8號","121.525243333333","24.99612","6500300","中和區"
"235034","558-UM","2017/06/09 13:59:23","新北市中和區南山路41號","121.502078333333","24.9986983333333","6500300","中和區"
"235009","565-BX","2017/06/09 13:59:31","新北市中和區景新街320號","121.511636666667","24.991325","6500300","中和區"
"235018","640-BX","2017/06/09 13:59:38","新北市中和區民享街35巷1號","121.474195","25.0039216666667","6500300","中和區"
"235024","647-TV","2017/06/09 13:59:31","新北市中和區中山路三段150號","121.473531666667","25.00628","6500300","中和區"
"235011","732-UM","2017/06/09 13:59:20","新北市中和區興南路二段94號","121.505386666667","24.9843533333333","6500300","中和區"
"235010","733-UM","2017/06/09 13:59:24","新北市中和區興南路一段135巷20號","121.50918","24.986905","6500300","中和區"
"235035","783-BX","2017/06/09 13:59:33","新北市中和區立德街14號","121.490336666667","25.00658","6500300","中和區"
"235026","800-TS","2017/06/09 13:59:38","新北市中和區中山路二段366巷9號","121.491841666667","25.00427","6500300","中和區"
"235021","801-TS","2017/06/09 13:59:28","新北市中和區民安街25巷2弄1號","121.4805","25.000265","6500300","中和區"
"235005","802-TS","2017/06/09 13:59:22","新北市中和區中安街110號","121.511245","25.0007733333333","6500300","中和區"
"235016","805-TS","2017/06/09 13:59:25","新北市中和區興南路二段261巷6-3號","121.502573333333","24.9796116666667","6500300","中和區"
"235012","896-TW","2017/06/09 13:59:23","新北市中和區華新街57號","121.507938333333","24.9842616666667","6500300","中和區"
"235017","900-TW","2017/06/09 13:59:29","新北市中和區民德路292號","121.467518333333","24.99562","6500300","中和區"
"235001","AAC-213","2017/06/09 13:59:28","新北市中和區秀朗路三段128巷1弄22號","121.52368","24.99159","6500300","中和區"
"235023","AAC-215","2017/06/09 13:59:32","新北市中和區圓通路367巷20弄21號","121.49153","24.9883483333333","6500300","中和區"
"220016","013-TV","2017/06/09 13:59:30","新北市板橋區中山路二段465巷34號","121.481371666667","25.021245","6500100","板橋區"
"220013","072-UY","2017/06/09 13:59:26","新北市板橋區漢生東路340巷10號","121.471411666667","25.007355","6500100","板橋區"
"220034","073-UY","2017/06/09 13:59:29","新北市板橋區中正路241號","121.455923333333","25.018145","6500100","板橋區"
"220105","075-UY","2017/06/09 13:59:31","新北市板橋區文化路二段124巷26號","121.471185","25.0256683333333","6500100","板橋區"
"220045","120-SR","2017/06/09 13:59:34","新北市板橋區莒光路64號","121.471176666667","25.0242033333333","6500100","板橋區"
"247019","893-R6","2017/06/09 13:59:32","新北市蘆洲區民族路422巷84-1號","121.473643333333","25.0938","6501400","蘆洲區"
"247009","546-UM","2017/06/09 13:59:17","新北市蘆洲區集賢路396號","121.48029","25.0824","6501400","蘆洲區"
"247017","500-BY","2017/06/09 13:59:37","新北市蘆洲區民族路327巷13弄1號","121.474836666667","25.0905533333333","6501400","蘆洲區"
"247002","402-BY","2017/06/09 13:59:33","新北市三重區永安北路二段171號","121.483928333333","25.08512","6501400","蘆洲區"
"247005","341-TH","2017/06/09 13:59:38","新北市蘆洲區永安南路二段50-1號","121.465951666667","25.0776683333333","6501400","蘆洲區"
"247007","339-TH","2017/06/09 13:59:35","新北市蘆洲區重陽一街13號","121.481311666667","25.08159","6501400","蘆洲區"
"247001","336-TH","2017/06/09 13:59:27","新北市蘆洲區三民路605號","121.460596666667","25.0936933333333","6501400","蘆洲區"
"247013","057-VK","2017/06/09 13:59:28","新北市蘆洲區保和街87號","121.46889","25.085995","6501400","蘆洲區"
"247003","056-VK","2017/06/09 13:59:22","新北市蘆洲區長榮路52號","121.462908333333","25.0830866666667","6501400","蘆洲區"
"247011","007-UY","2017/06/09 13:59:31","新北市蘆洲區民族路87號","121.479465","25.0861133333333","6501400","蘆洲區"
"247021","002-UY","2017/06/09 13:59:23","新北市蘆洲區中正路261號","121.467433333333","25.0873683333333","6501400","蘆洲區"
"247015","001-UY","2017/06/09 13:59:34","新北市蘆洲區光華路44號","121.46879","25.0831733333333","6501400","蘆洲區"
"223004","660-BX","2017/06/09 09:43:07","新北市石碇區小粗坑(潭邊里)9-2號","121.678703333333","24.9856933333333","6501900","石碇區"
"208004","AAC-292","2017/06/09 13:59:19","新北市金山區山城路29號","121.598348333333","25.2018966666667","6502700","金山區"
"207002","749-BX","2017/06/09 13:59:25","新北市萬里區溪底里溪底路10號","121.614753333333","25.1477183333333","6502800","萬里區"
"207001","463-BY","2017/06/09 13:59:30","新北市萬里區磺潭里清水18號","121.637803333333","25.19772","6502800","萬里區"
"252002","178-VK","2017/06/09 10:00:23","新北市三芝區埔坪里埔頭坑41號","121.504645","25.2645783333333","6502100","三芝區"
"252003","249-BX","2017/06/09 08:39:24","新北市三芝區埔坪里埔頭坑41號","121.504448333333","25.2644416666667","6502100","三芝區"
"252001","292-VK","2017/06/09 07:59:24","新北市三芝區埔坪里埔頭坑41號","121.504553333333","25.264445","6502100","三芝區"
"236067","105-UM","2017/06/09 13:59:28","新北市土城區城林路6巷80號","121.438353333333","24.9797683333333","6501300","土城區"
"236041","107-UM","2017/06/09 13:59:21","新北市土城區中央路一段264-2號","121.44373","24.98381","6501300","土城區"
"236077","166-UM","2017/06/09 13:59:35","新北市土城區中央路三段92-1號","121.43595","24.966715","6501300","土城區"
"236029","253-BX","2017/06/09 13:59:34","新北市土城區城林路6巷80號","121.43853","24.979805","6501300","土城區"
"236025","269-VK","2017/06/09 13:59:32","新北市土城區承天路20號","121.439536666667","24.9634083333333","6501300","土城區"
"236013","270-VK","2017/06/09 13:59:19","新北市土城區城林路6巷80號","121.438485","24.9797783333333","6501300","土城區"
"236035","271-VK","2017/06/09 13:59:30","新北市土城區城林路6巷80號","121.43855","24.98005","6501300","土城區"
"236019","401-BY","2017/06/09 13:59:34","新北市土城區城林路6巷80號","121.43861","24.97981","6501300","土城區"
"236006","498-BY","2017/06/09 13:59:36","新北市土城區中華路一段301號","121.439921666667","24.9792666666667","6501300","土城區"
"236057","912-UM","2017/06/09 13:59:30","新北市土城區永寧路1號","121.430393333333","24.9647933333333","6501300","土城區"
"236046","913-UM","2017/06/09 13:59:36","新北市土城區城林路6巷80號","121.438306666667","24.9797433333333","6501300","土城區"
"236061","915-UM","2017/06/09 13:59:19","新北市土城區城林路6巷80號","121.438366666667","24.9798333333333","6501300","土城區"
"236054","AAC-216","2017/06/09 13:59:29","新北市土城區城林路6巷80號","121.438338333333","24.97976","6501300","土城區"
"221015","131-UY","2017/06/09 13:59:20","台北市南港區研究院路四段21巷2號","121.60375","25.0255533333333","6501100","汐止區"
"221032","280-BY","2017/06/09 13:59:32","新北市汐止區仁愛路10號","121.65939","25.063575","6501100","汐止區"
"220027","145-BY","2017/06/09 13:59:18","新北市板橋區民權路202巷9弄22號","121.45947","25.0156683333333","6500100","板橋區"
"220042","146-RM","2017/06/09 13:59:26","新北市板橋區民生路三段12號","121.467641666667","25.0243933333333","6500100","板橋區"
"220030","610-BX","2017/06/09 13:59:33","新北市板橋區篤行路三段72號","121.42702","24.98537","6500100","板橋區"
"220050","245-BX","2017/06/09 13:59:22","新北市板橋區文化路二段19號","121.46879","25.024625","6500100","板橋區"
"220017","258-TC","2017/06/09 13:59:34","新北市板橋區大華街70號","121.459051666667","25.0058766666667","6500100","板橋區"
"220020","277-BY","2017/06/09 13:59:31","新北市板橋區大觀路三段36巷44號","121.434348333333","24.9967333333333","6500100","板橋區"
"220012","280-UM","2017/06/09 13:59:37","新北市板橋區板新路121巷1號","121.471301666667","25.0150433333333","6500100","板橋區"
"220043","283-UM","2017/06/09 13:59:36","新北市板橋區文化路二段59號","121.46917","25.02516","6500100","板橋區"
"220019","283-VK","2017/06/09 13:59:24","新北市板橋區忠孝路176巷23號","121.465265","25.0017766666667","6500100","板橋區"
"220040","285-UM","2017/06/09 13:59:27","新北市板橋區莒光路165巷14-1號","121.474085","25.0242516666667","6500100","板橋區"
"220001","285-VK","2017/06/09 13:59:24","新北市板橋區中山路二段89巷66號","121.473633333333","25.017625","6500100","板橋區"
"220031","286-VK","2017/06/09 13:59:33","新北市板橋區大觀路一段38巷156弄61號","121.442773333333","25.0068416666667","6500100","板橋區"
"220029","287-VK","2017/06/09 13:59:33","新北市板橋區南雅西路二段141號","121.452276666667","25.0116466666667","6500100","板橋區"
"220039","288-VK","2017/06/09 13:59:19","新北市板橋區四維路177巷1弄2號","121.46402","25.026215","6500100","板橋區"
"220009","293-UM","2017/06/09 13:59:35","新北市板橋區永豐街120巷2弄2號","121.476535","25.0204816666667","6500100","板橋區"
"220032","296-UM","2017/06/09 13:59:26","新北市板橋區龍興街63巷7號","121.44268","25.0013766666667","6500100","板橋區"
"220023","297-UM","2017/06/09 13:59:33","新北市板橋區南興路38-1號","121.45455","25.00753","6500100","板橋區"
"220046","299-UM","2017/06/09 13:59:26","新北市板橋區陽明街162號","121.463416666667","25.0244133333333","6500100","板橋區"
"220004","303-R5","2017/06/09 13:59:29","新北市板橋區信義路71號","121.457165","24.9951916666667","6500100","板橋區"
"220010","305-R5","2017/06/09 13:59:26","新北市板橋區三民路二段245巷51號","121.480661666667","25.01267","6500100","板橋區"
"220041","307-R5","2017/06/09 13:59:22","新北市板橋區漢生東路7號","121.464638333333","25.0173933333333","6500100","板橋區"
"220047","317-R6","2017/06/09 13:59:32","新北市板橋區民有街18號","121.466265","25.0250316666667","6500100","板橋區"
"220028","461-BY","2017/06/09 13:59:19","新北市板橋區大觀路二段文和巷84號","121.444391666667","24.99825","6500100","板橋區"
"220038","487-VK","2017/06/09 13:59:23","新北市板橋區文化路二段26號","121.468886666667","25.0245516666667","6500100","板橋區"
"220037","491-VK","2017/06/09 13:58:48","新北市板橋區民生路二段232-14號","121.468791666667","25.0221833333333","6500100","板橋區"
"220104","560-BX","2017/06/09 13:59:33","新北市板橋區中正路343號","121.454766666667","25.0204933333333","6500100","板橋區"
"220052","561-BX","2017/06/09 13:59:35","新北市板橋區縣民大道二段279號","121.470088333333","25.01785","6500100","板橋區"
"220011","609-BX","2017/06/09 13:59:28","新北市板橋區中山路二段87號","121.474026666667","25.0158966666667","6500100","板橋區"
"220005","686-BX","2017/06/09 13:59:34","新北市板橋區館前東路1號","121.4596","25.0072033333333","6500100","板橋區"
"220025","687-BX","2017/06/09 13:59:32","新北市板橋區大觀路二段174巷137號","121.441206666667","25.0020533333333","6500100","板橋區"
"220002","741-BX","2017/06/09 13:59:24","新北市板橋區四川路一段87巷75號","121.460681666667","25.006215","6500100","板橋區"
"220003","827-TW","2017/06/09 13:59:23","新北市板橋區民安街16號","121.466761666667","25.0115983333333","6500100","板橋區"
"220014","829-TW","2017/06/09 13:59:32","新北市板橋區三民路二段正隆巷12弄24號","121.47741","25.0138383333333","6500100","板橋區"
"220051","830-TW","2017/06/09 13:59:37","新北市板橋區雙十路一段44巷36號","121.47738","25.025095","6500100","板橋區"
"220022","895-R6","2017/06/09 13:59:38","新北市板橋區林園街2號","121.454311666667","25.009265","6500100","板橋區"
"220021","985-R7","2017/06/09 13:59:35","新北市板橋區南門街83號","121.456828333333","25.0078233333333","6500100","板橋區"
"220018","AAC-253","2017/06/09 13:59:32","新北市板橋區四川路一段105號","121.459758333333","25.0052783333333","6500100","板橋區"
