"lineid","car","time","location","longitude","latitude","cityid","cityname"
"232008","290-BY","2017/06/09 09:12:37","新北市坪林區鶯子瀨9-8號","121.7098","24.9170066666667","6502000","坪林區"
"231025","0291-UT","2017/06/09 15:39:33","新北市新店區安德街60巷5-1號","121.509678333333","24.96265","6500600","新店區"
"231028","046-UY","2017/06/09 15:39:38","新北市新店區薏仁坑路自強巷1號","121.497768333333","24.957725","6500600","新店區"
"231030","047-UY","2017/06/09 15:39:31","新北市新店區永安街90號","121.520883333333","24.9856216666667","6500600","新店區"
"231029","106-UY","2017/06/09 15:39:32","新北市新店區安康路三段45號","121.492743333333","24.952645","6500600","新店區"
"231018","107-UY","2017/06/09 15:39:34","新北市新店區民生路156巷35號","121.528131666667","24.9814133333333","6500600","新店區"
"231012","108-UY","2017/06/09 15:39:24","新北市新店區寶元路一段109號","121.545751666667","24.98313","6500600","新店區"
"231022","188-VK","2017/06/09 15:39:24","新北市新店區新烏路一段18號","121.546565","24.951155","6500600","新店區"
"231026","256-BX","2017/06/09 15:39:38","新北市新店區三民路67號","121.536351666667","24.971365","6500600","新店區"
"231034","268-BY","2017/06/09 15:39:33","新北市新店區玫瑰路58巷26號","121.494075","24.9467866666667","6500600","新店區"
"231046","278-BY","2017/06/09 15:39:21","新北市新店區安華路8號","121.519965","24.9617083333333","6500600","新店區"
"231016","AAD-862","2017/06/09 15:39:23","新北市新店區北宜路二段118號","121.556745","24.9538183333333","6500600","新店區"
"231037","4715-K9","2017/06/09 15:39:30","新北市新店區安興路112號","121.514621666667","24.97765","6500600","新店區"
"231023","513-UM","2017/06/09 15:39:37","新北市新店區中興路一段267-4號","121.545098333333","24.96788","6500600","新店區"
"231035","515-UM","2017/06/09 15:39:19","新北市新店區安興路94號","121.51518","24.97634","6500600","新店區"
"231003","641-BX","2017/06/09 15:39:33","新北市新店區寶橋路99號","121.547741666667","24.97652","6500600","新店區"
"231039","718-UY","2017/06/09 15:39:25","新北市新店區寶中路77號","121.547663333333","24.980715","6500600","新店區"
"231013","719-UM","2017/06/09 15:39:30","新北市新店區永業路81巷16號","121.5311","24.9484483333333","6500600","新店區"
"231032","720-UM","2017/06/09 15:39:18","新北市新店區雙城路133號","121.497911666667","24.9388033333333","6500600","新店區"
"231005","897-TW","2017/06/09 15:39:36","新北市新店區民族路229號","121.536678333333","24.9757516666667","6500600","新店區"
"231004","899-TW","2017/06/09 15:39:25","新北市新店區民族路108號","121.538188333333","24.9773466666667","6500600","新店區"
"241011","013-R5","2017/06/09 15:39:18","新北市三重區仁愛街19號","121.496998333333","25.0709116666667","6500200","三重區"
"241028","022-UY","2017/06/09 15:39:38","新北市三重區重新路四段121號","121.484801666667","25.0520333333333","6500200","三重區"
"241015","062-VK","2017/06/09 15:39:20","新北市三重區重新路四段121號","121.485165","25.0521033333333","6500200","三重區"
"241017","063-VK","2017/06/09 15:39:20","新北市三重區新北大道一段8號","121.488666666667","25.0613166666667","6500200","三重區"
"241018","268-UM","2017/06/09 15:39:35","新北市三重區重新路四段121號","121.484841666667","25.0520083333333","6500200","三重區"
"241013","270-UM","2017/06/09 15:39:29","新北市三重區忠孝路二段160號","121.48228","25.068","6500200","三重區"
"241025","271-UM","2017/06/09 15:39:22","新北市三重區重新路四段121號","121.485108333333","25.0523133333333","6500200","三重區"
"241007","398-BY","2017/06/09 15:39:32","新北市三重區重新路四段121號","121.48525","25.05209","6500200","三重區"
"241020","412-TH","2017/06/09 15:39:35","新北市三重區忠孝路二段54號","121.484975","25.0704116666667","6500200","三重區"
"241014","543-UM","2017/06/09 15:37:46","新北市三重區新北大道一段7號","121.489786666667","25.06147","6500200","三重區"
"241023","545-UM","2017/06/09 15:39:23","新北市三重區重新路四段121號","121.484811666667","25.0524866666667","6500200","三重區"
"241006","AAD-863","2017/06/09 15:39:21","新北市三重區重新路四段121號","121.484761666667","25.05202","6500200","三重區"
"241029","942-UM","2017/06/09 15:39:18","新北市三重區大同南路204號","121.496751666667","25.0566216666667","6500200","三重區"
"241033","AAC-255","2017/06/09 15:39:25","新北市三重區重新路五段446號","121.474626666667","25.047425","6500200","三重區"
"235003","097-UM","2017/06/09 15:39:34","新北市三重區後埔街82-1號","121.47897","25.0461566666667","6500300","中和區"
"235033","4980-A6","2017/06/09 15:39:36","新北市中和區中正路752號","121.485358333333","24.9985933333333","6500300","中和區"
"235026","800-TS","2017/06/09 15:39:38","新北市中和區橋和路158號","121.494135","25.0063866666667","6500300","中和區"
"235017","900-TW","2017/06/09 15:20:18","新北市中和區員山路36巷16-2號","121.485156666667","24.9914733333333","6500300","中和區"
"235001","AAC-213","2017/06/09 15:39:28","新北市中和區自立路99巷22弄7號","121.523341666667","24.994155","6500300","中和區"
"235023","AAC-215","2017/06/09 15:39:32","新北市中和區員山路28-26號","121.480971666667","24.986695","6500300","中和區"
"247002","402-BY","2017/06/09 15:39:34","新北市八里區商港路120號","121.392893333333","25.1500083333333","6501400","蘆洲區"
"223004","660-BX","2017/06/09 15:01:20","新北市石碇區小粗坑(潭邊里)9-2號","121.678666666667","24.9855083333333","6501900","石碇區"
"224007","273-VK","2017/06/09 15:39:30","新北市瑞芳區大寮路356-1號","121.784848333333","25.1032516666667","6501200","瑞芳區"
"227003","642-TC","2017/06/09 15:39:23","新北市雙溪區牡丹里中正路58巷24號","121.866186666667","25.0417383333333","6502500","雙溪區"
"252002","178-VK","2017/06/09 10:00:23","新北市三芝區埔坪里埔頭坑41號","121.504645","25.2645783333333","6502100","三芝區"
"252003","249-BX","2017/06/09 08:39:24","新北市三芝區埔坪里埔頭坑41號","121.504448333333","25.2644416666667","6502100","三芝區"
"252001","292-VK","2017/06/09 07:59:24","新北市三芝區埔坪里埔頭坑41號","121.504553333333","25.264445","6502100","三芝區"
"236067","105-UM","2017/06/09 15:39:28","新北市土城區中央路三段108號","121.43548","24.9664066666667","6501300","土城區"
"236077","166-UM","2017/06/09 15:39:35","新北市土城區民族街6巷8-3號","121.419555","24.963125","6501300","土城區"
"236029","253-BX","2017/06/09 15:39:34","新北市土城區中央路一段45巷22弄1號","121.449136666667","24.989925","6501300","土城區"
"236025","269-VK","2017/06/09 15:39:32","新北市土城區中央路一段267巷17號","121.445788333333","24.985075","6501300","土城區"
"236013","270-VK","2017/06/09 15:39:18","新北市土城區廣明街90巷20號","121.45553","24.9945383333333","6501300","土城區"
"236019","401-BY","2017/06/09 15:39:34","新北市土城區延吉街137巷12弄6號","121.470663333333","24.9855016666667","6501300","土城區"
"236057","912-UM","2017/06/09 15:39:30","新北市土城區中央路一段195號","121.445973333333","24.9869966666667","6501300","土城區"
"236046","913-UM","2017/06/09 15:39:36","新北市土城區金城路三段313-3號","121.474768333333","24.9911033333333","6501300","土城區"
"236061","915-UM","2017/06/09 15:39:19","新北市土城區延和路14號","121.46406","24.9880266666667","6501300","土城區"
"236054","AAC-216","2017/06/09 15:39:29","新北市土城區延和路3號","121.46368","24.9877516666667","6501300","土城區"
"221015","131-UY","2017/06/09 15:16:59","新北市汐止區汐萬路一段256巷1號","121.651903333333","25.0748616666667","6501100","汐止區"
"220050","245-BX","2017/06/09 15:39:22","新北市板橋區漢生東路63巷2號","121.465923333333","25.016325","6500100","板橋區"
"220020","277-BY","2017/06/09 15:39:31","新北市板橋區大觀路一段29巷131弄124號","121.452343333333","25.0044583333333","6500100","板橋區"
"220014","829-TW","2017/06/09 15:38:25","新北市板橋區溪城路90-2號","121.429258333333","24.980555","6500100","板橋區"
