"lineid","car","time","location","longitude","latitude","cityid","cityname"
"249005","172-UM","2017/06/09 17:29:26","新北市八里區荖阡里95-2號","121.409471666667","25.1264433333333","6502300","八里區"
"249001","173-UM","2017/06/09 17:29:27","新北市八里區中華路一段1號","121.423288333333","25.15869","6502300","八里區"
"249004","303-UY","2017/06/09 17:29:19","新北市八里區民有街78-3號","121.41468","25.1560233333333","6502300","八里區"
"249002","305-UY","2017/06/09 17:29:26","新北市八里區龍米路二段65巷15弄10號","121.447386666667","25.13996","6502300","八里區"
"249003","593-UM","2017/06/09 17:29:24","新北市八里區中山路二段315號","121.400653333333","25.1477766666667","6502300","八里區"
"232008","290-BY","2017/06/09 09:12:37","新北市坪林區鶯子瀨9-8號","121.7098","24.9170066666667","6502000","坪林區"
"244007","080-UY","2017/06/09 17:29:31","新北市林口區湖北里5鄰24號","121.386298333333","25.09323","6501700","林口區"
"244019","403-UM","2017/06/09 17:29:36","新北市林口區公園路203號","121.372568333333","25.0727483333333","6501700","林口區"
"244013","742-UY","2017/06/09 17:29:21","新北市林口區中山路68號","121.393816666667","25.0785966666667","6501700","林口區"
"244009","410-SL","2017/06/09 17:29:26","新北市林口區中華路123號","121.385896666667","25.0893283333333","6501700","林口區"
"244023","483-VK","2017/06/09 17:29:33","新北市林口區隆林街73號","121.386618333333","25.0753566666667","6501700","林口區"
"244017","485-VK","2017/06/09 17:29:33","新北市林口區粉寮路60-16號","121.404338333333","25.0897733333333","6501700","林口區"
"244011","701-TV","2017/06/09 17:29:26","新北市林口區仁愛路一段285巷116號","121.395493333333","25.07584","6501700","林口區"
"244021","838-TS","2017/06/09 17:29:39","新北市林口區粉寮路一段105號","121.39792","25.0803466666667","6501700","林口區"
"222002","016-RS","2017/06/09 15:59:03","新北市深坑區深坑街75號","121.614705","25.0011716666667","6501800","深坑區"
"241011","013-R5","2017/06/09 17:29:20","新北市三重區河邊北街124巷47號","121.502665","25.0712416666667","6500200","三重區"
"241008","059-VK","2017/06/09 17:29:27","新北市三重區車路頭街135-1號","121.484286666667","25.07612","6500200","三重區"
"241009","060-VK","2017/06/09 17:29:25","新北市三重區車路頭街135號","121.48407","25.0758333333333","6500200","三重區"
"241015","062-VK","2017/06/09 17:29:23","新北市三重區長元街65巷20弄18號","121.50366","25.0661416666667","6500200","三重區"
"241017","063-VK","2017/06/09 17:29:40","新北市三重區大同北路34巷44號","121.49385","25.06215","6500200","三重區"
"241024","065-VK","2017/06/09 17:29:33","新北市三重區國道路一段58巷20號","121.481303333333","25.0720233333333","6500200","三重區"
"241003","091-VK","2017/06/09 17:29:37","新北市三重區集賢路87-1號","121.49373","25.0869066666667","6500200","三重區"
"241005","262-UM","2017/06/09 17:29:22","新北市三重區永安北路二段43巷2號","121.482581666667","25.0826733333333","6500200","三重區"
"241016","266-UM","2017/06/09 17:29:27","新北市三重區信義西街51號","121.495181666667","25.063775","6500200","三重區"
"241032","269-UM","2017/06/09 17:29:34","新北市三重區名源街59號","121.482366666667","25.0594183333333","6500200","三重區"
"241013","270-UM","2017/06/09 17:29:29","新北市三重區仁愛街92巷9號","121.494936666667","25.0737183333333","6500200","三重區"
"241025","271-UM","2017/06/09 17:29:22","新北市三重區中正北路424號","121.4747","25.0709583333333","6500200","三重區"
"241007","398-BY","2017/06/09 17:29:32","新北市三重區三和路四段145巷91號","121.486626666667","25.0789316666667","6500200","三重區"
"241020","412-TH","2017/06/09 17:29:35","新北市三重區忠孝路一段129號","121.48868","25.0720383333333","6500200","三重區"
"241019","478-VK","2017/06/09 17:29:18","新北市三重區自強路二段26巷33號","121.488388333333","25.06892","6500200","三重區"
"241030","480-VK","2017/06/09 17:29:25","新北市三重區新興路36號","121.491873333333","25.0535183333333","6500200","三重區"
"241014","543-UM","2017/06/09 17:29:26","新北市三重區長壽街52-1號","121.500693333333","25.0682216666667","6500200","三重區"
"241023","545-UM","2017/06/09 17:29:23","新北市三重區忠孝路三段84巷47號","121.481231666667","25.064345","6500200","三重區"
"241012","887-TS","2017/06/09 17:29:29","新北市三重區仁興街39巷3號","121.499111666667","25.0756133333333","6500200","三重區"
"241033","AAC-255","2017/06/09 17:29:25","新北市三重區光復路二段42巷38號","121.469573333333","25.05418","6500200","三重區"
"235067","255-BX","2017/06/09 16:21:31","新北市中和區員山路36巷13號","121.484455","24.9912066666667","6500300","中和區"
"235061","378-QA","2017/06/09 17:25:38","新北市中和區和城路一段271巷1號","121.48547","24.9916916666667","6500300","中和區"
"235071","783-BX","2017/06/09 17:29:27","新北市中和區員山路36巷16-3號","121.48518","24.99123","6500300","中和區"
"235062","800-TS","2017/06/09 16:46:32","新北市中和區員山路36巷16-3號","121.485123333333","24.99131","6500300","中和區"
"235017","900-TW","2017/06/09 15:20:18","新北市中和區員山路36巷16-2號","121.485156666667","24.9914733333333","6500300","中和區"
"247020","893-R6","2017/06/09 17:29:28","新北市蘆洲區仁愛街97號","121.470851666667","25.09411","6501400","蘆洲區"
"247010","546-UM","2017/06/09 17:29:25","新北市蘆洲區信義路161號","121.479811666667","25.0818833333333","6501400","蘆洲區"
"247018","500-BY","2017/06/09 17:29:34","新北市蘆洲區水湳街63號","121.471613333333","25.0875816666667","6501400","蘆洲區"
"247006","341-TH","2017/06/09 17:29:18","新北市蘆洲區長安街22巷48號","121.465276666667","25.080435","6501400","蘆洲區"
"247008","339-TH","2017/06/09 17:29:31","新北市蘆洲區信義路34巷34號","121.474943333333","25.0783866666667","6501400","蘆洲區"
"247024","337-TH","2017/06/09 17:29:29","新北市蘆洲區長興路290號","121.46054","25.0892833333333","6501400","蘆洲區"
"247002","336-TH","2017/06/09 17:29:25","新北市蘆洲區永樂街38巷69號","121.458535","25.0905083333333","6501400","蘆洲區"
"247014","057-VK","2017/06/09 17:29:34","新北市蘆洲區三民路38-1號","121.475615","25.0830383333333","6501400","蘆洲區"
"247004","056-VK","2017/06/09 17:29:32","新北市蘆洲區永安南路二段306號","121.457161666667","25.082285","6501400","蘆洲區"
"247012","007-UY","2017/06/09 17:29:30","新北市蘆洲區復興路84號","121.475268333333","25.086755","6501400","蘆洲區"
"247022","002-UY","2017/06/09 17:29:27","新北市蘆洲區三民路293-2號","121.465981666667","25.090625","6501400","蘆洲區"
"247016","001-UY","2017/06/09 17:29:37","新北市蘆洲區中正路185巷31弄22號","121.466755","25.08372","6501400","蘆洲區"
"223004","660-BX","2017/06/09 15:01:20","新北市石碇區小粗坑(潭邊里)9-2號","121.678666666667","24.9855083333333","6501900","石碇區"
"228002","663-BX","2017/06/09 17:29:32","新北市貢寮區福隆里福隆街12號","121.944851666667","25.0162883333333","6502600","貢寮區"
"228001","670-TC","2017/06/09 17:29:25","新北市貢寮區仁理村仁愛路62巷1號","121.925708333333","25.0534416666667","6502600","貢寮區"
"228003","828-UM","2017/06/09 17:28:48","新北市貢寮區仁理村研海街62-2號","121.925776666667","25.0441166666667","6502600","貢寮區"
"224010","AGQ-8101","2017/06/09 17:29:33","新北市瑞芳區逢甲路80號","121.809931666667","25.1087133333333","6501200","瑞芳區"
"224006","676-BX","2017/06/09 17:29:17","新北市瑞芳區傑魚坑路165號","121.789801666667","25.10944","6501200","瑞芳區"
"224009","285-BY","2017/06/09 17:29:22","新北市瑞芳區基山街31巷24號","121.846271666667","25.1104566666667","6501200","瑞芳區"
"224008","275-VK","2017/06/09 17:29:36","新北市瑞芳區九芎橋路69號","121.83357","25.0952416666667","6501200","瑞芳區"
"224005","271-BY","2017/06/09 17:29:31","新北市瑞芳區籠山路12號","121.833278333333","25.1263233333333","6501200","瑞芳區"
"227003","642-TC","2017/06/09 17:29:22","新北市雙溪區上林里新寮子6號","121.838948333333","25.0311216666667","6502500","雙溪區"
"251009","008-UM","2017/06/09 17:23:32","新北市淡水區重建街1巷7號","121.439636666667","25.1737183333333","6501000","淡水區"
"251004","009-UM","2017/06/09 17:29:33","新北市淡水區中正東路二段115號","121.459533333333","25.1505483333333","6501000","淡水區"
"251005","010-UM","2017/06/09 17:29:25","新北市淡水區鄧公路31巷8號","121.451568333333","25.17071","6501000","淡水區"
"251013","180-VK","2017/06/09 17:29:28","新北市淡水區水尾子2號","121.46402","25.1941316666667","6501000","淡水區"
"251008","181-VK","2017/06/09 17:29:17","新北市淡水區大同路120巷18號","121.46315","25.1396716666667","6501000","淡水區"
"251015","182-VK","2017/06/09 17:29:27","新北市淡水區三空泉15號","121.472823333333","25.1636316666667","6501000","淡水區"
"251010","413-VK","2017/06/09 17:29:25","新北市淡水區中正路二段215號","121.426221666667","25.1891883333333","6501000","淡水區"
"251012","441-VK","2017/06/09 17:29:33","新北市淡水區北新路113號","121.448365","25.1783983333333","6501000","淡水區"
"251001","559-UM","2017/06/09 17:29:30","新北市淡水區中山路88號","121.443008333333","25.1705766666667","6501000","淡水區"
"251006","561-UM","2017/06/09 17:29:26","新北市淡水區中山北路一段119巷10號","121.442271666667","25.1770616666667","6501000","淡水區"
"251007","577-R6","2017/06/09 17:21:39","新北市淡水區民生路31號","121.461525","25.13796","6501000","淡水區"
"251011","650-BX","2017/06/09 17:29:23","新北市淡水區坪頂路712號","121.482493333333","25.1585283333333","6501000","淡水區"
"251002","672-BX","2017/06/09 17:29:22","新北市淡水區中正路一段87巷1號","121.42172","25.1793233333333","6501000","淡水區"
"251003","673-BX","2017/06/09 17:29:30","新北市淡水區中山路159-1號","121.440775","25.173005","6501000","淡水區"
"207003","550-UM","2017/06/09 17:29:26","新北市萬里區龜吼里翡翠路18號","121.683276666667","25.1885666666667","6502800","萬里區"
"207004","225-TW","2017/06/09 17:29:28","新北市萬里區萬里里景美路16號","121.686671666667","25.1733833333333","6502800","萬里區"
"252002","178-VK","2017/06/09 17:29:32","新北市三芝區忠孝街1-14號","121.505548333333","25.25397","6502100","三芝區"
"252001","292-VK","2017/06/09 17:29:29","新北市三芝區長安街119號","121.498036666667","25.2596283333333","6502100","三芝區"
"237015","649-BX","2017/06/09 17:29:32","新北市三峽區中山路459巷163-3號","121.348671666667","24.9328683333333","6500900","三峽區"
"242021","AAC-296","2017/06/09 17:29:38","新北市新莊區中正路211號","121.452378333333","25.0361016666667","6500500","新莊區"
"242048","751-BX","2017/06/09 17:29:23","新北市新莊區四維路210號","121.421441666667","25.0200616666667","6500500","新莊區"
"242029","705-TV","2017/06/09 17:29:35","新北市新莊區復興路二段180號","121.458881666667","25.0443633333333","6500500","新莊區"
"242025","615-BX","2017/06/09 17:29:19","新北市新莊區中港路268號","121.453225","25.0439183333333","6500500","新莊區"
"242023","613-BX","2017/06/09 17:29:35","新北市新莊區公園路37號","121.453076666667","25.0401616666667","6500500","新莊區"
"242027","612-BX","2017/06/09 17:29:36","新北市新莊區思源路32號","121.460318333333","25.0404966666667","6500500","新莊區"
"242037","566-BX","2017/06/09 17:29:36","新北市新莊區建國二路1號","121.434885","25.0236916666667","6500500","新莊區"
"242042","497-BY","2017/06/09 17:29:32","新北市新莊區新樹路110巷4號","121.434881666667","25.0266466666667","6500500","新莊區"
"242005","442-UM","2017/06/09 17:29:33","新北市新莊區中港路286號","121.452948333333","25.0442883333333","6500500","新莊區"
"242046","441-UM","2017/06/09 17:29:18","新北市新莊區新樹路67巷2-3號","121.439251666667","25.02998","6500500","新莊區"
"242050","440-UM","2017/06/09 17:29:28","新北市新莊區瓊林南路73-26號","121.435088333333","25.01531","6500500","新莊區"
"242002","413-TV","2017/06/09 17:29:34","新北市新莊區新莊路211號","121.455295","25.0354533333333","6500500","新莊區"
"242039","400-BY","2017/06/09 17:29:39","新北市新莊區民安東路5號","121.427628333333","25.0210366666667","6500500","新莊區"
"242060","362-BY","2017/06/09 17:29:30","新北市新莊區瓊林南路12-2號","121.43627","25.018935","6500500","新莊區"
"242058","353-BY","2017/06/09 17:29:40","新北市新莊區中正路613號","121.432465","25.032005","6500500","新莊區"
"242011","132-UY","2017/06/09 17:29:24","新北市新莊區中港路471號","121.452306666667","25.0491683333333","6500500","新莊區"
"242034","133-UY","2017/06/09 17:29:30","新北市新莊區新莊路471號","121.449173333333","25.0334033333333","6500500","新莊區"
"242019","135-UY","2017/06/09 17:29:21","新北市新莊區中港路76號","121.45547","25.0389666666667","6500500","新莊區"
"242044","172-VK","2017/06/09 17:29:36","新北市新莊區富國路86號","121.420486666667","25.02574","6500500","新莊區"
"242007","173-VK","2017/06/09 17:29:31","新北市新莊區自強街21號","121.454718333333","25.0462233333333","6500500","新莊區"
"242013","175-VK","2017/06/09 17:29:32","新北市新莊區中誠街16巷28號","121.451853333333","25.0488033333333","6500500","新莊區"
"242056","176-VK","2017/06/09 17:29:06","新北市新莊區新豐街56號","121.446951666667","25.0338216666667","6500500","新莊區"
"242032","346-TH","2017/06/09 17:29:30","新北市新莊區新泰路401巷20號","121.44282","25.044035","6500500","新莊區"
"242017","348-TH","2017/06/09 17:29:29","新北市新莊區中華路一段103號","121.452688333333","25.0438533333333","6500500","新莊區"
"242054","349-TH","2017/06/09 17:29:30","新北市新莊區瓊林南路305巷18號","121.435195","25.005085","6500500","新莊區"
"242015","350-TH","2017/06/09 17:29:34","新北市新莊區新泰路152號","121.447781666667","25.0373416666667","6500500","新莊區"
"242009","351-TH","2017/06/09 17:29:34","新北市新莊區中原路99號","121.456231666667","25.0543183333333","6500500","新莊區"
"238015","755-BX","2017/06/09 17:29:24","新北市樹林區大安路271號","121.418941666667","24.9935983333333","6500700","樹林區"
"238023","601-UM","2017/06/09 17:29:34","新北市樹林區中正路433號","121.415038333333","25.0085333333333","6500700","樹林區"
"238019","599-UM","2017/06/09 17:29:33","新北市樹林區太平路1-5號","121.418516666667","24.9846416666667","6500700","樹林區"
"238018","571-TV","2017/06/09 17:29:32","新北市樹林區鎮前街271號","121.420086666667","24.9857116666667","6500700","樹林區"
"238024","5061-A6","2017/06/09 17:29:26","新北市樹林區保安街一段48巷24號","121.426445","24.9951433333333","6500700","樹林區"
"238022","312-TH","2017/06/09 17:29:30","新北市樹林區和平街41號","121.423066666667","24.9818716666667","6500700","樹林區"
"238021","311-TH","2017/06/09 17:29:33","新北市樹林區西圳街一段136號","121.397076666667","24.96334","6500700","樹林區"
"238025","303-VK","2017/06/09 17:29:35","新北市樹林區保安二街106號","121.422633333333","24.9956416666667","6500700","樹林區"
"238014","282-BY","2017/06/09 17:29:20","新北市樹林區長壽街70巷19-1號","121.421913333333","24.994885","6500700","樹林區"
"238020","268-VK","2017/06/09 17:29:35","新北市樹林區千歲街111-1號","121.429268333333","25.00168","6500700","樹林區"
"238026","172-UY","2017/06/09 17:29:20","新北市樹林區味王街14號","121.403023333333","24.97605","6500700","樹林區"
"238016","169-UY","2017/06/09 17:29:28","新北市樹林區長壽街4號","121.423778333333","24.9933216666667","6500700","樹林區"
"239007","AAC-297","2017/06/09 17:29:31","新北市鶯歌區國華路2號","121.342861666667","24.956525","6500800","鶯歌區"
"239006","891-R6","2017/06/09 17:29:37","新北市鶯歌區鳳鳴路45號","121.333461666667","24.9654433333333","6500800","鶯歌區"
"239008","527-UM","2017/06/09 17:29:17","新北市鶯歌區大湖路632號","121.334438333333","24.975005","6500800","鶯歌區"
"239005","526-UM","2017/06/09 17:29:32","桃園市八德區桃鶯路30號","121.326701666667","24.9714166666667","6500800","鶯歌區"
"239001","417-VK","2017/06/09 17:29:19","新北市鶯歌區中正三路126號","121.33658","24.94017","6500800","鶯歌區"
"239003","360-BY","2017/06/09 17:29:29","新北市鶯歌區鶯桃路297-1號","121.334665","24.9603833333333","6500800","鶯歌區"
"239002","359-BY","2017/06/09 17:29:19","新北市鶯歌區育才街96號","121.346918333333","24.95468","6500800","鶯歌區"
"239004","193-VK","2017/06/09 17:29:25","新北市鶯歌區三鶯路29巷34號","121.353608333333","24.939215","6500800","鶯歌區"
"221015","131-UY","2017/06/09 17:29:26","新北市汐止區汐萬路一段256巷1號","121.652003333333","25.074895","6501100","汐止區"
"221010","269-BY","2017/06/09 17:29:21","新北市汐止區汐萬路一段256巷3號","121.652106666667","25.0747783333333","6501100","汐止區"
"221018","753-BX","2017/06/09 17:29:30","新北市汐止區汐萬路一段256巷1號","121.652015","25.07475","6501100","汐止區"
