"lineid","car","time","location","longitude","latitude","cityid","cityname"
"234026","9371-KE","2017/06/09 18:09:24","新北市永和區秀朗路一段10巷19號","121.513416666667","25.0062016666667","6500400","永和區"
"234011","9373-KE","2017/06/09 17:46:44","新北市永和區福和路1號","121.52561","25.0093933333333","6500400","永和區"
"249005","172-UM","2017/06/09 18:09:26","新北市八里區荖阡坑路15-40號","121.401736666667","25.1401366666667","6502300","八里區"
"249001","173-UM","2017/06/09 18:09:27","新北市八里區龍米路二段36號","121.448635","25.140215","6502300","八里區"
"249004","303-UY","2017/06/09 18:09:19","新北市八里區龍米路二段150號","121.435825","25.1569033333333","6502300","八里區"
"249002","305-UY","2017/06/09 18:09:26","新北市八里區龍米路一段386巷8號","121.452086666667","25.1319783333333","6502300","八里區"
"249003","593-UM","2017/06/09 18:07:04","新北市八里區中華路二段205巷20弄20號","121.405648333333","25.1480683333333","6502300","八里區"
"248014","025-BX","2017/06/09 18:09:38","新北市五股區成泰路一段237-9號","121.436606666667","25.0802183333333","6501500","五股區"
"248006","077-UY","2017/06/09 18:09:26","新北市五股區中興路二段82號","121.460833333333","25.0772516666667","6501500","五股區"
"248008","095-VK","2017/06/09 18:09:20","新北市五股區中興路二段182巷15弄16號","121.45809","25.0805333333333","6501500","五股區"
"248018","225-UY","2017/06/09 18:09:32","新北市五股區成泰路三段79號","121.443681666667","25.0899783333333","6501500","五股區"
"248010","682-TV","2017/06/09 18:09:38","新北市五股區成泰路一段231-19號","121.435021666667","25.077635","6501500","五股區"
"232008","290-BY","2017/06/09 09:12:37","新北市坪林區鶯子瀨9-8號","121.7098","24.9170066666667","6502000","坪林區"
"232011","375-UM","2017/06/09 18:09:26","新北市坪林區國中路3號","121.712865","24.9370316666667","6502000","坪林區"
"244007","080-UY","2017/06/09 18:09:31","新北市林口區林口路237號","121.386965","25.0834883333333","6501700","林口區"
"244019","403-UM","2017/06/09 18:09:36","新北市林口區文化一路一段26號","121.370443333333","25.0689216666667","6501700","林口區"
"244013","742-UY","2017/06/09 18:09:21","新北市林口區中山路27號","121.395443333333","25.078295","6501700","林口區"
"244009","410-SL","2017/06/09 18:09:27","新北市林口區竹林路606巷24號","121.38542","25.0829416666667","6501700","林口區"
"244023","483-VK","2017/06/09 18:09:33","新北市林口區隆林街215巷19號","121.383436666667","25.073705","6501700","林口區"
"244017","485-VK","2017/06/09 18:09:34","新北市林口區文化一路一段15巷2號","121.36966","25.068945","6501700","林口區"
"244011","701-TV","2017/06/09 18:09:26","新北市林口區中山路11號","121.396236666667","25.078145","6501700","林口區"
"244025","837-TS","2017/06/09 18:09:23","新北市林口區南勢二街152-3號","121.358873333333","25.0733166666667","6501700","林口區"
"244021","838-TS","2017/06/09 18:09:19","新北市林口區自強五街23號","121.400165","25.0757916666667","6501700","林口區"
"243013","AAD-798","2017/06/09 18:09:22","新北市泰山區犁頭窠16號","121.421165","25.0524883333333","6501600","泰山區"
"222002","016-RS","2017/06/09 17:47:30","新北市深坑區深坑街75號","121.61469","25.0012066666667","6501800","深坑區"
"222003","436-BY","2017/06/09 18:09:36","新北市深坑區腳坑1號","121.61173","24.9968416666667","6501800","深坑區"
"222002","659-BX","2017/06/09 18:09:35","新北市深坑區文化街52號","121.618965","25.00161","6501800","深坑區"
"222001","696-SL","2017/06/09 18:09:28","新北市深坑區北深路二段186號","121.614083333333","25.00221","6501800","深坑區"
"231059","046-UY","2017/06/09 18:09:21","新北市新店區安華路28-1號","121.519531666667","24.96073","6500600","新店區"
"231060","106-UY","2017/06/09 18:09:24","新北市新店區安華路28-1號","121.51962","24.96083","6500600","新店區"
"231051","107-UY","2017/06/09 18:09:37","新北市新店區安華路28-1號","121.51934","24.9613516666667","6500600","新店區"
"231063","268-BY","2017/06/09 18:09:21","新北市新店區安華路28-1號","121.519446666667","24.9605366666667","6500600","新店區"
"231046","278-BY","2017/06/09 18:09:37","新北市新店區直潭七街60號","121.53226","24.939965","6500600","新店區"
"231058","3712-VJ","2017/06/09 18:09:36","新北市新店區安華路28-1號","121.519418333333","24.9607516666667","6500600","新店區"
"231045","617-UM","2017/06/09 18:09:24","新北市新店區安華路28-1號","121.519495","24.9609933333333","6500600","新店區"
"231049","719-UM","2017/06/09 16:28:03","新北市新店區安華路28-1號","121.519616666667","24.96118","6500600","新店區"
"231062","720-UM","2017/06/09 18:09:32","新北市新店區安華路28-1號","121.519351666667","24.9613433333333","6500600","新店區"
"241019","478-VK","2017/06/09 18:09:38","新北市八里區中山路三段386號","121.36844","25.135955","6500200","三重區"
"241033","AAC-255","2017/06/09 18:09:25","新北市三重區中興北街56-1號","121.468901666667","25.051555","6500200","三重區"
"235064","005-UY","2017/06/09 18:09:35","新北市中和區中正路472號","121.489803333333","24.9941566666667","6500300","中和區"
"235063","006-UY","2017/06/09 18:09:24","新北市中和區員山路36巷16-3號","121.485111666667","24.991205","6500300","中和區"
"235065","098-UM","2017/06/09 18:09:26","新北市中和區橋和路120-1號","121.492565","25.0059316666667","6500300","中和區"
"235040","150-BY","2017/06/09 18:09:29","新北市中和區和城路一段271巷1號","121.485435","24.991815","6500300","中和區"
"235058","151-BY","2017/06/09 18:09:27","新北市中和區圓通路367巷33弄35號","121.494828333333","24.9854816666667","6500300","中和區"
"235038","185-VK","2017/06/09 18:09:25","新北市中和區景平路123號","121.51531","24.99216","6500300","中和區"
"235067","255-BX","2017/06/09 18:09:21","新北市中和區和城路一段271巷1號","121.485478333333","24.9919633333333","6500300","中和區"
"235061","378-QA","2017/06/09 18:09:39","新北市中和區員山路36巷16-2號","121.485235","24.991415","6500300","中和區"
"235050","4979-A6","2017/06/09 18:09:29","新北市中和區中正路503號","121.488656666667","24.9939366666667","6500300","中和區"
"235069","4980-A6","2017/06/09 18:09:33","新北市中和區景平路624號","121.50049","24.9974283333333","6500300","中和區"
"235042","551-UM","2017/06/09 18:09:22","新北市中和區中正路171號","121.497885","24.993565","6500300","中和區"
"235070","558-UM","2017/06/09 15:36:07","新北市中和區員山路36巷16-2號","121.48515","24.991505","6500300","中和區"
"235054","640-BX","2017/06/09 18:09:18","新北市中和區員山路36巷16-2號","121.48526","24.991575","6500300","中和區"
"235071","783-BX","2017/06/09 18:09:27","新北市中和區員山路36巷16-2號","121.485305","24.9911116666667","6500300","中和區"
"235062","800-TS","2017/06/09 18:09:29","新北市中和區民樂路81號","121.484553333333","25.0012616666667","6500300","中和區"
"235057","801-TS","2017/06/09 18:09:29","新北市中和區員山路36巷16-3號","121.485138333333","24.9913966666667","6500300","中和區"
"235052","805-TS","2017/06/09 18:09:21","新北市中和區員山路36巷16-2號","121.485195","24.99165","6500300","中和區"
"235017","900-TW","2017/06/09 17:53:04","新北市中和區員山路36巷16-2號","121.485356666667","24.9915216666667","6500300","中和區"
"235037","AAC-213","2017/06/09 18:09:32","新北市中和區錦和路350-1號","121.490366666667","24.993545","6500300","中和區"
"235059","AAC-215","2017/06/09 18:09:27","新北市中和區員山路36巷16-3號","121.484963333333","24.991255","6500300","中和區"
"247006","341-TH","2017/06/09 18:09:18","新北市五股區中直路1號","121.428738333333","25.1089116666667","6501400","蘆洲區"
"247014","057-VK","2017/06/09 18:09:34","新北市八里區中山路三段409號","121.36841","25.1349416666667","6501400","蘆洲區"
"226004","312-R5","2017/06/09 18:09:32","新北市平溪區薯榔里薯榔寮26號","121.71476","25.01953","6502400","平溪區"
"223004","660-BX","2017/06/09 15:01:20","新北市石碇區小粗坑(潭邊里)9-2號","121.678666666667","24.9855083333333","6501900","石碇區"
"228002","663-BX","2017/06/09 18:09:32","新北市貢寮區福連里馬崗街13-3號","122.001575","25.0130383333333","6502600","貢寮區"
"228001","670-TC","2017/06/09 18:09:25","新北市貢寮區真理里新港街26巷55弄2-1號","121.92736","25.0528783333333","6502600","貢寮區"
"228003","828-UM","2017/06/09 18:08:28","新北市貢寮區真理里美艷山街6-2號","121.928876666667","25.0607083333333","6502600","貢寮區"
"224006","676-BX","2017/06/09 18:09:17","新北市瑞芳區三爪子坑路32巷126號","121.80912","25.1061216666667","6501200","瑞芳區"
"224002","639-TC","2017/06/09 18:09:36","新北市瑞芳區三爪子坑路88號","121.809751666667","25.10548","6501200","瑞芳區"
"224009","285-BY","2017/06/09 18:09:21","新北市瑞芳區金光路115號","121.853563333333","25.1062633333333","6501200","瑞芳區"
"224008","275-VK","2017/06/09 18:09:36","新北市瑞芳區逢甲路38號","121.811358333333","25.1083816666667","6501200","瑞芳區"
"224007","273-VK","2017/06/09 18:09:30","新北市瑞芳區大寮路84號","121.780471666667","25.1012533333333","6501200","瑞芳區"
"224005","271-BY","2017/06/09 18:09:31","新北市瑞芳區深澳路67-1號","121.81824","25.1301616666667","6501200","瑞芳區"
"253006","032-BX","2017/06/09 18:09:31","新北市石門區老梅路52巷25弄2-1號","121.54666","25.2874916666667","6502200","石門區"
"253005","295-VK","2017/06/09 18:09:30","新北市石門區福安街20號","121.568776666667","25.2922683333333","6502200","石門區"
"208001","742-BX","2017/06/09 18:09:26","新北市金山區磺港里磺港路114號","121.64615","25.22661","6502700","金山區"
"208003","665-BX","2017/06/09 18:09:28","新北市金山區民生路196號","121.645638333333","25.2217666666667","6502700","金山區"
"251009","008-UM","2017/06/09 17:48:51","新北市淡水區大仁街8號","121.442296666667","25.1747516666667","6501000","淡水區"
"251004","009-UM","2017/06/09 18:06:28","新北市淡水區民族路112巷1號","121.462671666667","25.13509","6501000","淡水區"
"251005","010-UM","2017/06/09 18:09:38","新北市淡水區水源街一段122巷25號","121.447143333333","25.1709616666667","6501000","淡水區"
"251013","180-VK","2017/06/09 18:09:28","新北市淡水區竹圍子12號","121.476271666667","25.19385","6501000","淡水區"
"251008","181-VK","2017/06/09 18:09:17","新北市淡水區淡金路16巷26號","121.459166666667","25.1608566666667","6501000","淡水區"
"251015","182-VK","2017/06/09 18:09:23","新北市淡水區興福寮88巷1號","121.485751666667","25.16507","6501000","淡水區"
"251010","413-VK","2017/06/09 18:09:25","新北市淡水區中正路二段50巷10號","121.419858333333","25.1833266666667","6501000","淡水區"
"251012","441-VK","2017/06/09 18:09:33","新北市淡水區北新路三段157號","121.488971666667","25.1903733333333","6501000","淡水區"
"251001","559-UM","2017/06/09 18:09:30","新北市淡水區自強路108-18號","121.461686666667","25.1310833333333","6501000","淡水區"
"251006","561-UM","2017/06/09 18:09:26","新北市淡水區新民街76巷34弄2號","121.439183333333","25.17755","6501000","淡水區"
"251011","650-BX","2017/06/09 18:09:26","新北市淡水區三空泉9-2號","121.474068333333","25.163445","6501000","淡水區"
"251002","672-BX","2017/06/09 18:09:21","新北市淡水區中正東路一段125號","121.455288333333","25.159265","6501000","淡水區"
"251003","673-BX","2017/06/09 18:09:30","新北市淡水區北新路180號","121.449473333333","25.1787883333333","6501000","淡水區"
"207003","550-UM","2017/06/09 18:09:26","新北市萬里區野柳里港西路10號","121.685088333333","25.20401","6502800","萬里區"
"207004","225-TW","2017/06/09 18:09:28","新北市萬里區中幅里中福路106號","121.676865","25.1693166666667","6502800","萬里區"
"252002","178-VK","2017/06/09 18:09:33","新北市三芝區中山路二段41號","121.502961666667","25.2550866666667","6502100","三芝區"
"252003","249-BX","2017/06/09 18:09:34","新北市三芝區埔頭里埔頭37號","121.498483333333","25.2603183333333","6502100","三芝區"
"252001","292-VK","2017/06/09 18:09:29","新北市三芝區中興街二段2號","121.498351666667","25.2566516666667","6502100","三芝區"
"208002","170-UY","2017/06/09 18:09:24","新北市金山區六股里潭子內11號","121.61363","25.2266783333333","6502700","金山區"
"237004","078-UY","2017/06/09 18:09:32","新北市三峽區五寮52號","121.368578333333","24.865275","6500900","三峽區"
"237007","153-BY","2017/06/09 18:09:40","新北市三峽區中正路二段414號","121.365095","24.9084816666667","6500900","三峽區"
"237009","210-TH","2017/06/09 18:09:22","新北市三峽區大仁路52號","121.365331666667","24.9375266666667","6500900","三峽區"
"237013","252-BX","2017/06/09 18:09:20","新北市三峽區長泰街33巷14弄4號","121.377503333333","24.9314883333333","6500900","三峽區"
"237012","275-BY","2017/06/09 18:09:25","新北市三峽區民生街19巷7弄38號","121.377438333333","24.9354516666667","6500900","三峽區"
"237008","302-VK","2017/06/09 18:09:36","新北市三峽區白雞44-16號","121.378303333333","24.9095316666667","6500900","三峽區"
"237014","433-BY","2017/06/09 18:09:31","新北市三峽區復興路136號","121.371865","24.9380266666667","6500900","三峽區"
"237006","5529-G3","2017/06/09 18:09:19","新北市三峽區介壽路二段138巷1弄2-1號","121.396151666667","24.9340566666667","6500900","三峽區"
"237011","572-TV","2017/06/09 18:09:24","新北市三峽區溪東路252號","121.408693333333","24.931545","6500900","三峽區"
"237015","649-BX","2017/06/09 18:09:32","新北市三峽區紫新路48號","121.422113333333","24.9217866666667","6500900","三峽區"
"237010","706-TV","2017/06/09 18:09:26","新北市三峽區民族街15號","121.369353333333","24.9308933333333","6500900","三峽區"
"237005","AKY-6261","2017/06/09 18:09:34","新北市三峽區文化路65巷7號","121.371918333333","24.9356333333333","6500900","三峽區"
"236072","105-UM","2017/06/09 18:09:25","新北市土城區明德路一段385-1號","121.452378333333","24.9802066666667","6501300","土城區"
"236043","107-UM","2017/06/09 18:09:20","新北市土城區裕生路82巷2號","121.447413333333","24.9856983333333","6501300","土城區"
"236079","166-UM","2017/06/09 18:09:26","新北市土城區永寧路27巷2-1號","121.431113333333","24.9638116666667","6501300","土城區"
"236031","253-BX","2017/06/09 18:09:31","新北市土城區城林路6巷80號","121.438505","24.979795","6501300","土城區"
"236027","269-VK","2017/06/09 18:09:32","新北市土城區承天路18號","121.439485","24.9634583333333","6501300","土城區"
"236015","270-VK","2017/06/09 18:09:31","新北市土城區學府路一段239號","121.450581666667","24.9836033333333","6501300","土城區"
"236039","271-VK","2017/06/09 18:09:30","新北市土城區青雲路449號","121.458708333333","24.9749766666667","6501300","土城區"
"236022","401-BY","2017/06/09 18:09:19","新北市土城區城林路6巷80號","121.438786666667","24.97968","6501300","土城區"
"236059","912-UM","2017/06/09 18:09:28","新北市土城區中央路四段22號","121.420998333333","24.9609616666667","6501300","土城區"
"236050","913-UM","2017/06/09 18:09:27","新北市土城區金城路二段20號","121.449701666667","24.9775966666667","6501300","土城區"
"236063","915-UM","2017/06/09 18:09:39","新北市土城區金城路二段28-6號","121.45067","24.9784066666667","6501300","土城區"
"236055","AAC-216","2017/06/09 18:09:34","新北市土城區中華路二段98號","121.438191666667","24.9744466666667","6501300","土城區"
"242021","AAC-296","2017/06/09 18:09:18","新北市新莊區中華路一段63巷40號","121.450091666667","25.0392516666667","6500500","新莊區"
"242029","705-TV","2017/06/09 18:09:35","新北市新莊區中平路192號","121.444748333333","25.0482433333333","6500500","新莊區"
"242025","615-BX","2017/06/09 18:09:19","新北市新莊區五權一路120號","121.460043333333","25.068165","6500500","新莊區"
"242023","613-BX","2017/06/09 18:09:14","新北市新莊區幸福路914號","121.442683333333","25.04894","6500500","新莊區"
"242027","612-BX","2017/06/09 18:09:35","新北市新莊區幸福路559號","121.454373333333","25.0491833333333","6500500","新莊區"
"242037","566-BX","2017/06/09 18:09:38","新北市新莊區後港一路49巷3弄2號","121.425715","25.026945","6500500","新莊區"
"242042","497-BY","2017/06/09 18:09:32","新北市新莊區天祥街135巷8弄1號","121.413635","25.0292733333333","6500500","新莊區"
"242046","441-UM","2017/06/09 18:09:38","新北市新莊區福營路227巷12號","121.430146666667","25.029205","6500500","新莊區"
"242050","440-UM","2017/06/09 18:09:28","新北市新莊區民本街11巷2弄29號","121.429133333333","25.0200733333333","6500500","新莊區"
"242002","413-TV","2017/06/09 18:09:33","新北市新莊區新莊路90號","121.456716666667","25.036285","6500500","新莊區"
"242060","362-BY","2017/06/09 18:09:30","新北市新莊區新樹路181-2號","121.436056666667","25.0243116666667","6500500","新莊區"
"242058","353-BY","2017/06/09 18:09:19","新北市新莊區新北大道七段782號","121.412975","25.0247516666667","6500500","新莊區"
"242011","132-UY","2017/06/09 18:09:24","新北市新莊區中榮街47號","121.44948","25.0527066666667","6500500","新莊區"
"242034","133-UY","2017/06/09 18:09:28","新北市新莊區景德路256號","121.448818333333","25.0337466666667","6500500","新莊區"
"242019","135-UY","2017/06/09 18:09:23","新北市新莊區公園路210號","121.455601666667","25.0404883333333","6500500","新莊區"
"242044","172-VK","2017/06/09 18:09:36","新北市新莊區中正路726-25號","121.414715","25.02425","6500500","新莊區"
"242007","173-VK","2017/06/09 18:09:31","新北市新莊區中華路二段82號","121.453713333333","25.0468783333333","6500500","新莊區"
"242013","175-VK","2017/06/09 18:09:32","新北市新莊區中港一街143號","121.447846666667","25.0450583333333","6500500","新莊區"
"242056","176-VK","2017/06/09 18:09:26","新北市新莊區豐年街96號","121.446453333333","25.0308683333333","6500500","新莊區"
"242032","346-TH","2017/06/09 18:09:30","新北市新莊區新泰路277巷11號","121.445261666667","25.0402716666667","6500500","新莊區"
"242017","348-TH","2017/06/09 18:09:29","新北市新莊區永樂街10號","121.452006666667","25.0451266666667","6500500","新莊區"
"242054","349-TH","2017/06/09 18:09:30","新北市新莊區西盛街431號","121.427165","25.0120316666667","6500500","新莊區"
"242015","350-TH","2017/06/09 18:09:22","新北市新莊區中平路132巷14號","121.4456","25.0466916666667","6500500","新莊區"
"242009","351-TH","2017/06/09 18:09:28","新北市新莊區幸福路755號","121.448228333333","25.049115","6500500","新莊區"
"238015","755-BX","2017/06/09 18:09:24","新北市樹林區啟智街156巷7號","121.414785","24.9877183333333","6500700","樹林區"
"238023","601-UM","2017/06/09 18:09:34","新北市樹林區龍興街44號","121.4029","25.0154916666667","6500700","樹林區"
"238019","599-UM","2017/06/09 18:09:30","新北市樹林區水源街32巷30號","121.425153333333","24.9811383333333","6500700","樹林區"
"238018","571-TV","2017/06/09 18:09:18","新北市樹林區樹新路106巷7號","121.429933333333","24.9981583333333","6500700","樹林區"
"238022","312-TH","2017/06/09 18:09:30","新北市樹林區太平路150巷11號","121.418015","24.977735","6500700","樹林區"
"238021","311-TH","2017/06/09 18:09:33","新北市樹林區田尾街82號","121.408941666667","24.9581616666667","6500700","樹林區"
"238025","303-VK","2017/06/09 18:09:35","新北市樹林區保安街二段98-2號","121.414293333333","25.0036616666667","6500700","樹林區"
"238014","282-BY","2017/06/09 17:43:00","新北市樹林區保安街一段294巷1號","121.419165","24.9974866666667","6500700","樹林區"
"238020","268-VK","2017/06/09 18:09:35","新北市樹林區俊興街298號","121.41849","25.0176916666667","6500700","樹林區"
"238026","172-UY","2017/06/09 18:09:20","新北市樹林區育德街2號","121.392811666667","24.9705866666667","6500700","樹林區"
"238016","169-UY","2017/06/09 18:09:28","新北市樹林區日新街139號","121.420561666667","24.98866","6500700","樹林區"
"239007","AAC-297","2017/06/09 18:09:32","新北市鶯歌區尖山埔路64號","121.348408333333","24.9510516666667","6500800","鶯歌區"
"239006","891-R6","2017/06/09 18:09:37","新北市鶯歌區鶯桃路367號","121.333728333333","24.963025","6500800","鶯歌區"
"239008","527-UM","2017/06/09 18:09:26","新北市鶯歌區朝陽街55號","121.33795","24.9781433333333","6500800","鶯歌區"
"239005","526-UM","2017/06/09 18:09:36","新北市鶯歌區鶯桃路668巷73號","121.329906666667","24.9717766666667","6500800","鶯歌區"
"239001","417-VK","2017/06/09 18:09:19","新北市鶯歌區高職東街3巷18號","121.339955","24.9423583333333","6500800","鶯歌區"
"239003","360-BY","2017/06/09 18:09:27","新北市鶯歌區福安街32巷34號","121.335306666667","24.9635183333333","6500800","鶯歌區"
"239002","359-BY","2017/06/09 18:09:19","新北市鶯歌區國慶街138號","121.350711666667","24.953415","6500800","鶯歌區"
"239004","193-VK","2017/06/09 18:09:25","新北市鶯歌區尖山路137巷1號","121.34698","24.9485","6500800","鶯歌區"
"221036","130-UY","2017/06/09 18:09:25","新北市汐止區長安路134號","121.67031","25.0775666666667","6501100","汐止區"
"221015","131-UY","2017/06/09 18:09:26","新北市汐止區鄉長路二段63號","121.667001666667","25.0839766666667","6501100","汐止區"
"221010","269-BY","2017/06/09 18:09:20","新北市汐止區祥雲街18巷11號","121.646823333333","25.089555","6501100","汐止區"
"221012","278-VK","2017/06/09 18:09:34","新北市汐止區保一街67號","121.674265","25.0799283333333","6501100","汐止區"
"221023","279-VK","2017/06/09 16:03:35","新北市汐止區康寧街901號","121.651713333333","25.0750083333333","6501100","汐止區"
"221032","280-BY","2017/06/09 18:09:27","新北市汐止區力行街18號","121.617013333333","25.0507633333333","6501100","汐止區"
"221002","281-BY","2017/06/09 18:09:31","新北市汐止區大同路二段460號","121.659908333333","25.0676783333333","6501100","汐止區"
"221038","297-VK","2017/06/09 18:09:23","新北市汐止區南興路83巷7號","121.653305","25.0591466666667","6501100","汐止區"
"221029","298-VK","2017/06/09 18:09:24","新北市汐止區樟樹二路134號","121.639936666667","25.0657","6501100","汐止區"
"221021","299-VK","2017/06/09 18:02:50","新北市汐止區忠孝東路1號","121.657065","25.0642433333333","6501100","汐止區"
"221035","622-UM","2017/06/09 18:09:36","新北市汐止區汐萬路一段39-3號","121.654983333333","25.0692616666667","6501100","汐止區"
"221025","623-UM","2017/06/09 18:09:32","新北市汐止區勤進路16號","121.65967","25.061485","6501100","汐止區"
"221033","647-BX","2017/06/09 18:09:27","新北市汐止區宜興街20巷22號","121.622088333333","25.0407683333333","6501100","汐止區"
"221002","707-TV","2017/06/09 18:09:29","新北市汐止區福德一路207號","121.635166666667","25.0655733333333","6501100","汐止區"
"221018","753-BX","2017/06/09 18:09:30","新北市汐止區忠孝東路384號","121.665566666667","25.070175","6501100","汐止區"
