"lineid","car","time","location","longitude","latitude","cityid","cityname"
"234013","149-BY","2017/06/09 18:19:26","新北市永和區福和路1號","121.526338333333","25.009825","6500400","永和區"
"234007","207-UY","2017/06/09 18:19:26","新北市永和區保生路55-1號","121.504778333333","25.011205","6500400","永和區"
"234017","745-BX","2017/06/09 18:19:33","新北市永和區福和路1號","121.526441666667","25.00987","6500400","永和區"
"234042","862-TW","2017/06/09 18:19:20","新北市永和區福和路1號","121.526365","25.009745","6500400","永和區"
"234026","9371-KE","2017/06/09 18:19:24","新北市永和區豫溪街42巷7號","121.515473333333","25.0094616666667","6500400","永和區"
"234011","9373-KE","2017/06/09 18:19:19","新北市永和區保福路二段156號","121.509168333333","25.0150283333333","6500400","永和區"
"249005","172-UM","2017/06/09 18:19:26","新北市八里區荖阡坑路15-7號","121.4003","25.13994","6502300","八里區"
"249001","173-UM","2017/06/09 18:19:27","新北市八里區龍米路一段135號","121.452155","25.126975","6502300","八里區"
"249004","303-UY","2017/06/09 18:19:19","新北市八里區龍米路二段232巷3號","121.431531666667","25.159025","6502300","八里區"
"249002","305-UY","2017/06/09 18:19:26","新北市八里區龍形二街18號","121.450615","25.132735","6502300","八里區"
"249003","593-UM","2017/06/09 18:19:24","新北市八里區松子腳4-3號","121.402961666667","25.144205","6502300","八里區"
"248014","025-BX","2017/06/09 18:19:38","新北市五股區自強路19巷11號","121.434613333333","25.07368","6501500","五股區"
"248016","026-BX","2017/06/09 18:19:26","新北市五股區成泰路三段477巷18號","121.449858333333","25.0990033333333","6501500","五股區"
"248006","077-UY","2017/06/09 18:19:26","新北市五股區中興路一段158號","121.464283333333","25.07399","6501500","五股區"
"248008","095-VK","2017/06/09 18:19:20","新北市五股區更洲路32巷8弄17號","121.45929","25.0796116666667","6501500","五股區"
"248018","225-UY","2017/06/09 18:19:12","新北市五股區御史路205-1號","121.43136","25.1005233333333","6501500","五股區"
"248012","247-BX","2017/06/09 18:19:17","新北市五股區御成路35號","121.44098","25.0913266666667","6501500","五股區"
"248002","678-BX","2017/06/09 18:19:29","新北市五股區西雲路66號","121.443658333333","25.0916416666667","6501500","五股區"
"248010","682-TV","2017/06/09 18:19:38","新北市五股區成泰路一段139巷2弄4號","121.435125","25.073025","6501500","五股區"
"232008","290-BY","2017/06/09 09:12:37","新北市坪林區鶯子瀨9-8號","121.7098","24.9170066666667","6502000","坪林區"
"232011","375-UM","2017/06/09 18:16:44","新北市坪林區坪雙路一段43號","121.711748333333","24.9424466666667","6502000","坪林區"
"244007","080-UY","2017/06/09 18:19:31","新北市林口區林口路113巷6弄1號","121.3887","25.080595","6501700","林口區"
"244019","403-UM","2017/06/09 18:19:36","新北市林口區文化一路一段100巷12號","121.373728333333","25.07059","6501700","林口區"
"244013","742-UY","2017/06/09 18:19:21","新北市林口區中山路160巷7號","121.39104","25.079395","6501700","林口區"
"244009","410-SL","2017/06/09 18:19:26","新北市林口區民生路166號","121.379835","25.0877266666667","6501700","林口區"
"244023","483-VK","2017/06/09 18:19:33","新北市林口區仁愛路二段131號","121.383186666667","25.0747416666667","6501700","林口區"
"244017","485-VK","2017/06/09 18:19:34","新北市林口區八德路20巷17號","121.367508333333","25.067825","6501700","林口區"
"244011","701-TV","2017/06/09 18:19:26","新北市林口區仁愛路一段272巷2號","121.39363","25.076035","6501700","林口區"
"244025","837-TS","2017/06/09 18:19:23","新北市林口區南勢七街28-12號","121.3558","25.06894","6501700","林口區"
"244021","838-TS","2017/06/09 18:19:39","新北市林口區自強二街13號","121.39797","25.07829","6501700","林口區"
"243013","AAD-798","2017/06/09 18:19:22","新北市泰山區南林路103號","121.415426666667","25.04576","6501600","泰山區"
"222002","016-RS","2017/06/09 17:47:30","新北市深坑區深坑街75號","121.61469","25.0012066666667","6501800","深坑區"
"222003","436-BY","2017/06/09 18:19:19","新北市深坑區文山路二段3號","121.62297","25.0003033333333","6501800","深坑區"
"222002","659-BX","2017/06/09 18:19:35","新北市深坑區雲鄉路3-1號","121.621041666667","25.0001966666667","6501800","深坑區"
"222001","696-SL","2017/06/09 18:19:28","新北市深坑區北深路二段51號","121.618985","25.0040066666667","6501800","深坑區"
"231041","002-UM","2017/06/09 18:19:22","新北市新店區安華路28-1號","121.519738333333","24.9608133333333","6500600","新店區"
"231056","0291-UT","2017/06/09 18:19:35","新北市新店區安康路一段65號","121.530361666667","24.9610516666667","6500600","新店區"
"231059","046-UY","2017/06/09 18:19:21","新北市新店區安華路28-1號","121.519478333333","24.9607016666667","6500600","新店區"
"231060","106-UY","2017/06/09 18:19:24","新北市新店區安華路28-1號","121.519623333333","24.9608316666667","6500600","新店區"
"231051","107-UY","2017/06/09 18:19:37","新北市新店區安華路28-1號","121.519368333333","24.9611316666667","6500600","新店區"
"231048","108-UY","2017/06/09 18:19:28","新北市新店區安華路28-1號","121.519386666667","24.9610933333333","6500600","新店區"
"231057","256-BX","2017/06/09 18:19:31","新北市新店區安華路28-1號","121.519758333333","24.9610933333333","6500600","新店區"
"231063","268-BY","2017/06/09 18:19:21","新北市新店區安華路1-1號","121.519383333333","24.9604366666667","6500600","新店區"
"231046","278-BY","2017/06/09 18:19:37","新北市新店區直潭七街60號","121.532283333333","24.9398966666667","6500600","新店區"
"231050","AAD-862","2017/06/09 18:19:26","新北市新店區安華路28-1號","121.51936","24.9613266666667","6500600","新店區"
"231058","3712-VJ","2017/06/09 18:19:36","新北市新店區環河路29巷1-1號","121.536091666667","24.9611","6500600","新店區"
"231055","3713-VJ","2017/06/09 18:19:35","新北市新店區安康路一段11號","121.533235","24.9604383333333","6500600","新店區"
"231066","4715-K9","2017/06/09 18:19:24","新北市新店區安華路1-1號","121.519448333333","24.9604366666667","6500600","新店區"
"231065","512-UM","2017/06/09 15:55:13","新北市新店區安華路28-1號","121.519201666667","24.9613266666667","6500600","新店區"
"231054","513-UM","2017/06/09 18:19:31","新北市新店區安華路28-1號","121.519643333333","24.961015","6500600","新店區"
"231045","617-UM","2017/06/09 18:19:24","新北市新店區安華路28-1號","121.519466666667","24.9608183333333","6500600","新店區"
"231040","619-UM","2017/06/09 18:19:27","新北市新店區安華路28-1號","121.519533333333","24.9608133333333","6500600","新店區"
"231049","719-UM","2017/06/09 18:19:18","新北市新店區安華路28-1號","121.519536666667","24.9612583333333","6500600","新店區"
"231062","720-UM","2017/06/09 18:19:32","新北市新店區安華路28-1號","121.519391666667","24.9613633333333","6500600","新店區"
"231044","897-TW","2017/06/09 18:19:25","新北市新店區安華路28-1號","121.519676666667","24.96064","6500600","新店區"
"231043","899-TW","2017/06/09 16:06:47","新北市新店區安華路28-1號","121.519225","24.9608533333333","6500600","新店區"
"241019","478-VK","2017/06/09 18:19:18","新北市八里區中山路三段409號","121.36876","25.1355716666667","6500200","三重區"
"235066","003-UY","2017/06/09 18:19:37","新北市中和區中山路二段120號","121.50281","25.003745","6500300","中和區"
"235064","005-UY","2017/06/09 18:19:35","新北市中和區中正路271-2號","121.495761666667","24.9935466666667","6500300","中和區"
"235063","006-UY","2017/06/09 18:19:24","新北市中和區中正路637巷52弄1號","121.485478333333","24.9934416666667","6500300","中和區"
"235039","097-UM","2017/06/09 18:19:27","新北市中和區錦和路350-1號","121.490353333333","24.9935366666667","6500300","中和區"
"235065","098-UM","2017/06/09 18:19:26","新北市中和區莊敬路49巷18號","121.501753333333","25.006155","6500300","中和區"
"235040","150-BY","2017/06/09 18:19:29","新北市中和區中正路305號","121.492526666667","24.9937966666667","6500300","中和區"
"235058","151-BY","2017/06/09 18:19:27","新北市中和區圓通路367巷57弄2號","121.492313333333","24.98364","6500300","中和區"
"235055","183-VK","2017/06/09 18:19:22","新北市中和區員山路36巷16-3號","121.485083333333","24.9912133333333","6500300","中和區"
"235038","185-VK","2017/06/09 18:19:25","新北市中和區大智街57號","121.521235","24.9921016666667","6500300","中和區"
"235049","186-VK","2017/06/09 18:19:32","新北市中和區中正路637巷52弄1號","121.485503333333","24.9934316666667","6500300","中和區"
"235067","255-BX","2017/06/09 18:19:21","新北市中和區和城路一段271巷1號","121.485503333333","24.9919783333333","6500300","中和區"
"235072","301-VK","2017/06/09 18:19:24","新北市中和區和城路一段271巷1號","121.485495","24.991985","6500300","中和區"
"235043","352-BY","2017/06/09 18:19:26","新北市中和區中正路1號","121.503266666667","24.9934616666667","6500300","中和區"
"235051","376-QA","2017/06/09 18:19:07","新北市中和區中正路173號","121.497665","24.9934916666667","6500300","中和區"
"235061","378-QA","2017/06/09 18:19:19","新北市土城區延壽路118-2號","121.469123333333","24.9940516666667","6500300","中和區"
"235050","4979-A6","2017/06/09 18:19:29","新北市中和區捷運路61巷9號","121.508996666667","24.989455","6500300","中和區"
"235069","4980-A6","2017/06/09 18:19:33","新北市中和區連城路127巷13號","121.496598333333","24.9983983333333","6500300","中和區"
"235042","551-UM","2017/06/09 18:19:22","新北市中和區大仁街20巷25弄8號","121.5186","24.9935316666667","6500300","中和區"
"235070","558-UM","2017/06/09 18:19:21","新北市中和區中正路305號","121.492601666667","24.9936666666667","6500300","中和區"
"235045","565-BX","2017/06/09 18:19:30","新北市中和區中正路13號","121.503071666667","24.9933616666667","6500300","中和區"
"235054","640-BX","2017/06/09 18:19:19","新北市土城區延壽路118-4號","121.469116666667","24.994325","6500300","中和區"
"235047","732-UM","2017/06/09 18:19:27","新北市中和區中正路637巷60弄61號","121.485556666667","24.9932633333333","6500300","中和區"
"235071","783-BX","2017/06/09 18:19:27","新北市中和區員山路36巷16-2號","121.485321666667","24.9910933333333","6500300","中和區"
"235062","800-TS","2017/06/09 18:19:29","新北市中和區橋和路117-1號","121.491611666667","25.0058066666667","6500300","中和區"
"235057","801-TS","2017/06/09 18:19:29","新北市中和區員山路72號","121.480853333333","24.993635","6500300","中和區"
"235041","802-TS","2017/06/09 18:19:24","新北市中和區中正路256號","121.495493333333","24.9940033333333","6500300","中和區"
"235052","805-TS","2017/06/09 18:19:21","新北市中和區中正路271-1號","121.495761666667","24.9936866666667","6500300","中和區"
"235017","900-TW","2017/06/09 17:53:04","新北市中和區員山路36巷16-2號","121.485356666667","24.9915216666667","6500300","中和區"
"235037","AAC-213","2017/06/09 18:19:32","新北市中和區景平路149號","121.513826666667","24.99226","6500300","中和區"
"235059","AAC-215","2017/06/09 18:19:27","新北市中和區員山路36巷16-3號","121.485006666667","24.9912266666667","6500300","中和區"
"220068","013-TV","2017/06/09 18:19:28","新北市板橋區民生路二段15-1號","121.472793333333","25.0164066666667","6500100","板橋區"
"247006","341-TH","2017/06/09 18:19:18","新北市八里區中山路三段382號","121.368533333333","25.13586","6501400","蘆洲區"
"247014","057-VK","2017/06/09 18:19:34","新北市八里區荖阡坑路41-3號","121.399536666667","25.13287","6501400","蘆洲區"
"226004","312-R5","2017/06/09 18:19:32","新北市平溪區靜安路二段78號","121.717773333333","25.0227133333333","6502400","平溪區"
"223004","660-BX","2017/06/09 15:01:20","新北市石碇區小粗坑(潭邊里)9-2號","121.678666666667","24.9855083333333","6501900","石碇區"
"228002","663-BX","2017/06/09 18:19:32","新北市貢寮區福連里福興街1-1號","121.989858333333","25.0124","6502600","貢寮區"
"228001","670-TC","2017/06/09 18:19:25","新北市貢寮區真理里新港街26巷55弄2-1號","121.927361666667","25.0528733333333","6502600","貢寮區"
"228003","828-UM","2017/06/09 18:19:08","新北市貢寮區真理里美艷山街61-3號","121.923145","25.0697833333333","6502600","貢寮區"
"224006","676-BX","2017/06/09 18:19:17","新北市瑞芳區民權街3-2號","121.808041666667","25.1074066666667","6501200","瑞芳區"
"224002","639-TC","2017/06/09 18:19:36","新北市瑞芳區三爪子坑路91巷1號","121.811648333333","25.1072666666667","6501200","瑞芳區"
"224009","285-BY","2017/06/09 18:19:35","新北市瑞芳區新山路43號","121.855976666667","25.1082916666667","6501200","瑞芳區"
"224008","275-VK","2017/06/09 18:19:32","新北市瑞芳區逢甲路143號","121.80713","25.1098533333333","6501200","瑞芳區"
"224007","273-VK","2017/06/09 18:19:30","新北市瑞芳區頂埔巷51-3號","121.767396666667","25.1047583333333","6501200","瑞芳區"
"224005","271-BY","2017/06/09 18:19:31","新北市瑞芳區建基新村8號","121.812223333333","25.13221","6501200","瑞芳區"
"227003","642-TC","2017/06/09 18:19:25","新北市雙溪區共和里中山路2號","121.863815","25.0338233333333","6502500","雙溪區"
"227011","400-TW","2017/06/09 18:19:21","新北市雙溪區牡丹里牡丹73號","121.851735","25.059325","6502500","雙溪區"
"253006","032-BX","2017/06/09 18:19:31","新北市石門區老梅路87號","121.546455","25.2892083333333","6502200","石門區"
"253005","295-VK","2017/06/09 18:19:31","新北市石門區中央路3-1號","121.565943333333","25.29147","6502200","石門區"
"208001","742-BX","2017/06/09 18:19:26","新北市金山區中山路16號","121.641551666667","25.2177433333333","6502700","金山區"
"208003","665-BX","2017/06/09 18:19:28","新北市金山區中山路69號","121.641223333333","25.2178916666667","6502700","金山區"
"251009","008-UM","2017/06/09 18:19:31","新北市淡水區下圭柔山91-3號","121.430888333333","25.2096633333333","6501000","淡水區"
"251004","009-UM","2017/06/09 18:06:28","新北市淡水區民族路112巷1號","121.462671666667","25.13509","6501000","淡水區"
"251005","010-UM","2017/06/09 18:19:24","新北市淡水區中正東路35巷21號","121.446638333333","25.168865","6501000","淡水區"
"251013","180-VK","2017/06/09 18:19:28","新北市淡水區行忠路788號","121.47355","25.1996483333333","6501000","淡水區"
"251008","181-VK","2017/06/09 18:19:17","新北市淡水區水源街二段346巷1弄1號","121.464353333333","25.17553","6501000","淡水區"
"251015","182-VK","2017/06/09 18:19:23","新北市淡水區興福寮88巷1號","121.48575","25.1650683333333","6501000","淡水區"
"251010","413-VK","2017/06/09 18:19:25","新北市淡水區淡海路189巷1號","121.420396666667","25.184345","6501000","淡水區"
"251012","441-VK","2017/06/09 18:19:33","新北市淡水區北新路二段77-5號","121.480308333333","25.1856116666667","6501000","淡水區"
"251001","559-UM","2017/06/09 18:19:31","新北市淡水區自強路387號","121.46491","25.1335866666667","6501000","淡水區"
"251006","561-UM","2017/06/09 18:19:26","新北市淡水區新生街51巷22號","121.44062","25.175545","6501000","淡水區"
"251011","650-BX","2017/06/09 18:19:23","新北市淡水區坪頂路39號","121.457188333333","25.1622366666667","6501000","淡水區"
"251002","672-BX","2017/06/09 18:19:21","新北市淡水區中正東路一段34號","121.45247","25.1624466666667","6501000","淡水區"
"251003","673-BX","2017/06/09 18:19:30","新北市淡水區北新路169巷4號","121.450203333333","25.1795066666667","6501000","淡水區"
"207003","550-UM","2017/06/09 18:19:26","新北市萬里區野柳里港東路6-3號","121.686671666667","25.20329","6502800","萬里區"
"207004","225-TW","2017/06/09 18:19:28","新北市萬里區中幅里中福路127-1號","121.675278333333","25.1656966666667","6502800","萬里區"
"252002","178-VK","2017/06/09 18:19:32","新北市三芝區中山路二段39號","121.50292","25.2551483333333","6502100","三芝區"
"252003","249-BX","2017/06/09 18:19:34","新北市三芝區錫板里海尾14-35號","121.477671666667","25.2595283333333","6502100","三芝區"
"252001","292-VK","2017/06/09 18:19:29","新北市三芝區中興街二段2號","121.498318333333","25.2566466666667","6502100","三芝區"
"208002","170-UY","2017/06/09 18:19:24","新北市金山區清泉里清水路60巷4號","121.629793333333","25.23581","6502700","金山區"
"237004","078-UY","2017/06/09 18:19:32","新北市三峽區五寮2號","121.379093333333","24.8746783333333","6500900","三峽區"
"237007","153-BY","2017/06/09 18:19:20","新北市三峽區中正路三段70巷69號","121.355143333333","24.9054916666667","6500900","三峽區"
"237009","210-TH","2017/06/09 18:19:22","新北市三峽區中山路152巷22號","121.365206666667","24.9369266666667","6500900","三峽區"
"237013","252-BX","2017/06/09 18:19:31","新北市三峽區永安街9巷66號","121.37584","24.9294583333333","6500900","三峽區"
"237012","275-BY","2017/06/09 18:19:25","新北市三峽區民生街1巷5-1號","121.378286666667","24.9363766666667","6500900","三峽區"
"237008","302-VK","2017/06/09 18:19:36","新北市三峽區白雞68-333號","121.391598333333","24.9098366666667","6500900","三峽區"
"237014","433-BY","2017/06/09 18:19:30","新北市三峽區復興路110巷2弄1號","121.372905","24.93809","6500900","三峽區"
"237006","5529-G3","2017/06/09 18:19:19","新北市三峽區溪東路303號","121.409473333333","24.93106","6500900","三峽區"
"237011","572-TV","2017/06/09 18:19:24","新北市三峽區溪東路345號","121.41123","24.9295566666667","6500900","三峽區"
"237015","649-BX","2017/06/09 18:19:32","新北市三峽區紫微南路5號","121.425581666667","24.9199216666667","6500900","三峽區"
"237010","706-TV","2017/06/09 18:19:39","新北市三峽區復興路489號","121.361031666667","24.9383133333333","6500900","三峽區"
"237005","AKY-6261","2017/06/09 18:19:34","新北市三峽區忠孝街32號","121.370928333333","24.9338966666667","6500900","三峽區"
"236072","105-UM","2017/06/09 18:19:25","新北市土城區永豐路141-1號","121.467095","24.98299","6501300","土城區"
"236043","107-UM","2017/06/09 18:19:22","新北市土城區裕生路21巷6弄23號","121.448761666667","24.9867783333333","6501300","土城區"
"236079","166-UM","2017/06/09 18:19:26","新北市土城區永安街115巷36號","121.428875","24.9630516666667","6501300","土城區"
"236031","253-BX","2017/06/09 18:19:33","新北市土城區順風路44號","121.440425","24.97697","6501300","土城區"
"236027","269-VK","2017/06/09 18:19:32","新北市土城區承天路67號","121.43961","24.9634333333333","6501300","土城區"
"236015","270-VK","2017/06/09 18:19:31","新北市土城區青雲路39巷7號","121.460273333333","24.9873616666667","6501300","土城區"
"236039","271-VK","2017/06/09 18:19:31","新北市土城區青雲路483巷10弄20號","121.459281666667","24.97295","6501300","土城區"
"236022","401-BY","2017/06/09 18:19:19","新北市土城區學士路123號","121.446626666667","24.9758566666667","6501300","土城區"
"236059","912-UM","2017/06/09 18:19:28","新北市土城區中央路四段294號","121.414201666667","24.9561466666667","6501300","土城區"
"236050","913-UM","2017/06/09 18:19:33","新北市土城區明德路一段361-3號","121.456106666667","24.9777433333333","6501300","土城區"
"236063","915-UM","2017/06/09 18:19:39","新北市土城區金城路三段183-1號","121.46964","24.9887483333333","6501300","土城區"
"236055","AAC-216","2017/06/09 18:19:34","新北市土城區中華路二段193號","121.438213333333","24.9744366666667","6501300","土城區"
"242021","AAC-296","2017/06/09 18:19:38","新北市新莊區新興街1號","121.450653333333","25.036025","6500500","新莊區"
"242025","615-BX","2017/06/09 18:19:19","新北市新莊區五權一路12巷16號","121.45737","25.0645933333333","6500500","新莊區"
"242042","497-BY","2017/06/09 18:19:32","新北市新莊區天祥街71巷14號","121.415581666667","25.0286133333333","6500500","新莊區"
"242046","441-UM","2017/06/09 18:19:18","新北市新莊區福營路334號","121.42178","25.0268133333333","6500500","新莊區"
"242002","413-TV","2017/06/09 18:19:34","新北市新莊區環漢路二段385號","121.45118","25.0326583333333","6500500","新莊區"
"242060","362-BY","2017/06/09 18:19:30","新北市新莊區富國路176巷7號","121.424113333333","25.0241333333333","6500500","新莊區"
"242058","353-BY","2017/06/09 18:19:19","桃園市龜山區萬壽路一段117號","121.408635","25.018995","6500500","新莊區"
"242011","132-UY","2017/06/09 18:19:24","新北市新莊區中港路615巷19號","121.45017","25.0531833333333","6500500","新莊區"
"242034","133-UY","2017/06/09 18:19:28","新北市新莊區瓊林南路61-71號","121.439356666667","25.0186116666667","6500500","新莊區"
"242044","172-VK","2017/06/09 18:19:36","新北市新莊區中山路三段619號","121.41319","25.02515","6500500","新莊區"
"242007","173-VK","2017/06/09 18:19:31","新北市新莊區自治街37號","121.454136666667","25.0480183333333","6500500","新莊區"
"242056","176-VK","2017/06/09 18:19:26","新北市新莊區豐年街68號","121.446433333333","25.0314683333333","6500500","新莊區"
"242032","346-TH","2017/06/09 18:19:30","新北市新莊區新泰路255巷80號","121.443026666667","25.0394333333333","6500500","新莊區"
"242054","349-TH","2017/06/09 18:19:30","新北市新莊區民安西路410巷3弄1號","121.428491666667","25.0095166666667","6500500","新莊區"
"242015","350-TH","2017/06/09 18:19:22","新北市新莊區中平路184巷10弄7號","121.445478333333","25.0483216666667","6500500","新莊區"
"238015","755-BX","2017/06/09 18:19:24","新北市樹林區啟智街84-2號","121.418725","24.9905116666667","6500700","樹林區"
"238023","601-UM","2017/06/09 18:19:34","新北市樹林區三寶街5號","121.40657","25.015695","6500700","樹林區"
"238019","599-UM","2017/06/09 18:19:30","新北市樹林區國凱街122巷1號","121.422843333333","24.980165","6500700","樹林區"
"238018","571-TV","2017/06/09 18:19:38","新北市板橋區大觀路三段271號","121.428825","24.9924916666667","6500700","樹林區"
"238022","312-TH","2017/06/09 18:19:30","新北市樹林區太平路148號","121.418486666667","24.9780483333333","6500700","樹林區"
"238021","311-TH","2017/06/09 18:19:33","新北市樹林區柑園街一段323號","121.391845","24.956365","6500700","樹林區"
"238025","303-VK","2017/06/09 18:19:35","新北市樹林區保安街一段204號","121.421185","24.99582","6500700","樹林區"
"238014","282-BY","2017/06/09 18:19:21","新北市樹林區潭興街61號","121.424263333333","24.9978566666667","6500700","樹林區"
"238020","268-VK","2017/06/09 18:19:35","新北市樹林區三俊街65巷9號","121.413431666667","25.0162833333333","6500700","樹林區"
"238026","172-UY","2017/06/09 18:19:40","新北市樹林區佳園路一段94號","121.393643333333","24.9688716666667","6500700","樹林區"
"238016","169-UY","2017/06/09 18:19:28","新北市樹林區文化街23號","121.419321666667","24.9876216666667","6500700","樹林區"
"239007","AAC-297","2017/06/09 18:19:31","新北市鶯歌區建國路278號","121.346996666667","24.9530916666667","6500800","鶯歌區"
"239006","891-R6","2017/06/09 18:19:16","新北市鶯歌區德昌街84號","121.332656666667","24.9600516666667","6500800","鶯歌區"
"239008","527-UM","2017/06/09 18:19:37","新北市鶯歌區國際一路14號","121.336188333333","24.9765316666667","6500800","鶯歌區"
"239005","526-UM","2017/06/09 18:19:36","新北市鶯歌區鶯桃路668巷23號","121.32896","24.9702233333333","6500800","鶯歌區"
"239001","417-VK","2017/06/09 18:19:39","新北市鶯歌區國中街197號","121.338216666667","24.939165","6500800","鶯歌區"
"239003","360-BY","2017/06/09 18:19:27","新北市鶯歌區福安街58號","121.335603333333","24.965175","6500800","鶯歌區"
"239002","359-BY","2017/06/09 18:19:19","新北市鶯歌區仁愛路1號","121.35358","24.956965","6500800","鶯歌區"
"239004","193-VK","2017/06/09 18:19:29","新北市鶯歌區尖山路173巷31號","121.345378333333","24.94689","6500800","鶯歌區"
"221036","130-UY","2017/06/09 18:19:25","新北市汐止區長安路77巷2號","121.66918","25.0783983333333","6501100","汐止區"
"221015","131-UY","2017/06/09 18:19:27","新北市汐止區鄉長路二段23巷2號","121.666953333333","25.0827766666667","6501100","汐止區"
"221010","269-BY","2017/06/09 18:19:20","新北市汐止區汐萬路三段56號","121.643636666667","25.0925566666667","6501100","汐止區"
"221012","278-VK","2017/06/09 18:19:34","新北市汐止區保長路35巷20號","121.673265","25.07996","6501100","汐止區"
"221023","279-VK","2017/06/09 16:03:35","新北市汐止區康寧街901號","121.651713333333","25.0750083333333","6501100","汐止區"
"221032","280-BY","2017/06/09 18:19:27","新北市汐止區民權街二段109巷32號","121.619925","25.0462233333333","6501100","汐止區"
"221002","281-BY","2017/06/09 18:19:32","新北市汐止區和平街6巷1弄2號","121.66332","25.0712183333333","6501100","汐止區"
"221038","297-VK","2017/06/09 18:19:23","新北市汐止區復興路127號","121.6584","25.0603466666667","6501100","汐止區"
"221029","298-VK","2017/06/09 18:19:24","新北市汐止區樟樹二路330巷72-1號","121.642973333333","25.0699483333333","6501100","汐止區"
"221021","299-VK","2017/06/09 18:02:50","新北市汐止區忠孝東路1號","121.657065","25.0642433333333","6501100","汐止區"
"221035","622-UM","2017/06/09 18:19:36","新北市汐止區大同路二段187巷8弄1號","121.652588333333","25.0656366666667","6501100","汐止區"
"221025","623-UM","2017/06/09 18:19:32","新北市汐止區秀峰路160號","121.660285","25.0622083333333","6501100","汐止區"
"221033","647-BX","2017/06/09 18:19:27","新北市汐止區宜興街72號","121.622683333333","25.0426466666667","6501100","汐止區"
"221002","707-TV","2017/06/09 18:19:28","新北市汐止區福德一路213巷35號","121.635716666667","25.064845","6501100","汐止區"
"221018","753-BX","2017/06/09 18:19:30","新北市汐止區茄苳路115號","121.667705","25.0705883333333","6501100","汐止區"
