"lineid","car","time","location","longitude","latitude","cityid","cityname"
"234046","148-BY","2017/06/09 18:29:27","新北市永和區福和路1號","121.52653","25.009935","6500400","永和區"
"234013","149-BY","2017/06/09 18:29:26","新北市永和區福和路1號","121.526218333333","25.00948","6500400","永和區"
"234007","207-UY","2017/06/09 18:29:26","新北市永和區環河西路二段219號","121.501365","25.0100383333333","6500400","永和區"
"234038","336-UY","2017/06/09 18:29:23","新北市永和區福和路1號","121.526626666667","25.01013","6500400","永和區"
"234086","338-UY","2017/06/09 18:29:24","新北市永和區福和路8巷1號","121.524868333333","25.0088233333333","6500400","永和區"
"234017","745-BX","2017/06/09 18:29:33","新北市永和區福和路1號","121.52637","25.009815","6500400","永和區"
"234030","746-BX","2017/06/09 18:29:28","新北市永和區福和路1號","121.526235","25.0096683333333","6500400","永和區"
"234042","862-TW","2017/06/09 18:29:20","新北市永和區環河東路二段92號","121.524425","25.0106316666667","6500400","永和區"
"234050","863-TW","2017/06/09 18:29:17","新北市永和區福和路1號","121.526666666667","25.009965","6500400","永和區"
"234026","9371-KE","2017/06/09 18:29:24","新北市永和區永貞路417巷30號","121.505713333333","25.0090683333333","6500400","永和區"
"234011","9373-KE","2017/06/09 18:29:19","新北市永和區文化路123號","121.512301666667","25.0153416666667","6500400","永和區"
"249005","172-UM","2017/06/09 18:29:26","新北市八里區中華路三段92號","121.393031666667","25.1390966666667","6502300","八里區"
"249001","173-UM","2017/06/09 18:29:36","新北市八里區龍米路一段109號","121.452938333333","25.1254366666667","6502300","八里區"
"249004","303-UY","2017/06/09 18:29:19","新北市八里區忠孝路86號","121.425993333333","25.1603866666667","6502300","八里區"
"249002","305-UY","2017/06/09 18:29:33","新北市八里區龍形三街26號","121.448013333333","25.1316516666667","6502300","八里區"
"249003","593-UM","2017/06/09 18:29:24","新北市八里區挖子尾街12號","121.415411666667","25.1643483333333","6502300","八里區"
"248014","025-BX","2017/06/09 18:29:38","新北市五股區明德路7巷30號","121.434371666667","25.0708433333333","6501500","五股區"
"248016","026-BX","2017/06/09 18:29:26","新北市五股區凌雲路一段83巷22弄1號","121.44987","25.1007383333333","6501500","五股區"
"248006","077-UY","2017/06/09 18:29:27","新北市五股區四維路25號","121.467113333333","25.0706166666667","6501500","五股區"
"248008","095-VK","2017/06/09 18:29:20","新北市五股區四維路185巷42弄1號","121.463373333333","25.076875","6501500","五股區"
"248018","225-UY","2017/06/09 18:29:32","新北市五股區民義路二段52巷22號","121.415725","25.111185","6501500","五股區"
"248012","247-BX","2017/06/09 18:20:11","新北市五股區御史路1巷104號","121.441041666667","25.0918066666667","6501500","五股區"
"248002","678-BX","2017/06/09 18:29:29","新北市五股區西雲路163號","121.446186666667","25.094445","6501500","五股區"
"248010","682-TV","2017/06/09 18:29:18","新北市五股區水碓路16巷30號","121.43409","25.0729216666667","6501500","五股區"
"234023","9380-KE","2017/06/09 18:29:22","新北市永和區豫溪街217巷7號","121.524655","25.0095933333333","6500400","永和區"
"234077","969-R7","2017/06/09 18:29:32","新北市永和區環河東路二段100號","121.524531666667","25.01054","6500400","永和區"
"234074","AAC-211","2017/06/09 18:29:26","新北市永和區福和路1號","121.526531666667","25.0098616666667","6500400","永和區"
"232008","290-BY","2017/06/09 09:12:37","新北市坪林區鶯子瀨9-8號","121.7098","24.9170066666667","6502000","坪林區"
"232011","375-UM","2017/06/09 18:16:44","新北市坪林區坪雙路一段43號","121.711748333333","24.9424466666667","6502000","坪林區"
"244007","080-UY","2017/06/09 18:29:31","新北市林口區後湖32-1號","121.386418333333","25.095335","6501700","林口區"
"244019","403-UM","2017/06/09 18:29:36","新北市林口區忠孝路580巷15號","121.375206666667","25.0673766666667","6501700","林口區"
"244013","742-UY","2017/06/09 18:29:21","新北市林口區佳林路101巷34號","121.386953333333","25.0799633333333","6501700","林口區"
"244009","410-SL","2017/06/09 18:29:26","新北市林口區文林一街115巷18號","121.378875","25.087655","6501700","林口區"
"244023","483-VK","2017/06/09 18:29:33","新北市林口區仁愛路二段102號","121.383475","25.0750533333333","6501700","林口區"
"244017","485-VK","2017/06/09 18:29:33","新北市林口區文化二路一段2-1號","121.364218333333","25.065915","6501700","林口區"
"244011","701-TV","2017/06/09 18:29:26","新北市林口區中山路150號","121.391155","25.0787266666667","6501700","林口區"
"244025","837-TS","2017/06/09 18:29:23","新北市林口區源泉街62號","121.356776666667","25.0729816666667","6501700","林口區"
"244021","838-TS","2017/06/09 18:29:19","新北市林口區自強二街67號","121.399758333333","25.0768466666667","6501700","林口區"
"243013","AAD-798","2017/06/09 18:29:22","新北市泰山區明志路三段206巷3號","121.423288333333","25.037905","6501600","泰山區"
"243012","646-TV","2017/06/09 18:29:22","新北市泰山區忠孝街14-1號","121.427578333333","25.0649433333333","6501600","泰山區"
"222002","016-RS","2017/06/09 17:47:30","新北市深坑區深坑街75號","121.61469","25.0012066666667","6501800","深坑區"
"222003","436-BY","2017/06/09 18:29:19","新北市深坑區旺耽路35號","121.627483333333","25.0041633333333","6501800","深坑區"
"222002","659-BX","2017/06/09 18:29:35","新北市深坑區雲鄉路133號","121.6227","24.99809","6501800","深坑區"
"222001","696-SL","2017/06/09 18:29:28","新北市深坑區北深路一段199號","121.63039","25.0089683333333","6501800","深坑區"
"231041","002-UM","2017/06/09 18:29:22","新北市新店區安華路28-1號","121.519663333333","24.9608183333333","6500600","新店區"
"231056","0291-UT","2017/06/09 18:29:35","新北市新店區中正路441號","121.533836666667","24.9787133333333","6500600","新店區"
"231059","046-UY","2017/06/09 18:29:21","新北市新店區安華路28-1號","121.519506666667","24.9606716666667","6500600","新店區"
"231061","047-UY","2017/06/09 18:29:28","新北市新店區安華路28-1號","121.519108333333","24.9609033333333","6500600","新店區"
"231060","106-UY","2017/06/09 18:29:23","新北市新店區安華路28-1號","121.519628333333","24.9608133333333","6500600","新店區"
"231051","107-UY","2017/06/09 18:29:37","新北市新店區安華路28-1號","121.519348333333","24.9610816666667","6500600","新店區"
"231048","108-UY","2017/06/09 18:29:28","新北市新店區環河路17號","121.53752","24.9614366666667","6500600","新店區"
"231053","187-VK","2017/06/09 18:29:35","新北市新店區北宜路一段179號","121.544808333333","24.9530366666667","6500600","新店區"
"231057","256-BX","2017/06/09 18:29:31","新北市新店區北新路一段41號","121.538035","24.95938","6500600","新店區"
"231063","268-BY","2017/06/09 18:29:21","新北市新店區安華路1-1號","121.519401666667","24.960445","6500600","新店區"
"231046","278-BY","2017/06/09 18:29:37","新北市新店區直潭七街60號","121.53228","24.9398933333333","6500600","新店區"
"231050","AAD-862","2017/06/09 18:29:26","新北市新店區安華路28-1號","121.519805","24.9612566666667","6500600","新店區"
"231058","3712-VJ","2017/06/09 18:29:36","新北市新店區北新路一段43號","121.538008333333","24.95945","6500600","新店區"
"231055","3713-VJ","2017/06/09 18:29:35","新北市新店區中正路128巷17號","121.542518333333","24.9724","6500600","新店區"
"231066","4715-K9","2017/06/09 18:29:24","新北市新店區安華路1-1號","121.519398333333","24.9604633333333","6500600","新店區"
"231067","4772-VM","2017/06/09 18:29:32","新北市新店區安華路28-1號","121.51927","24.9607083333333","6500600","新店區"
"231065","512-UM","2017/06/09 15:55:13","新北市新店區安華路28-1號","121.519201666667","24.9613266666667","6500600","新店區"
"231054","513-UM","2017/06/09 18:29:31","新北市新店區安華路28-1號","121.519586666667","24.9610166666667","6500600","新店區"
"231064","515-UM","2017/06/09 16:32:53","新北市新店區安華路28-1號","121.519668333333","24.9610316666667","6500600","新店區"
"231045","617-UM","2017/06/09 18:29:24","新北市新店區安華路28-1號","121.519481666667","24.9607716666667","6500600","新店區"
"231040","619-UM","2017/06/09 18:29:27","新北市新店區安華路28-1號","121.519508333333","24.9607683333333","6500600","新店區"
"231042","641-BX","2017/06/09 18:29:30","新北市新店區安華路1-1號","121.519521666667","24.960395","6500600","新店區"
"231049","719-UM","2017/06/09 18:29:18","新北市新店區安華路28-1號","121.519473333333","24.9611083333333","6500600","新店區"
"231062","720-UM","2017/06/09 18:29:32","新北市新店區安華路28-1號","121.519371666667","24.9611233333333","6500600","新店區"
"231044","897-TW","2017/06/09 18:29:25","新北市新店區安華路28-1號","121.519808333333","24.9606566666667","6500600","新店區"
"231043","899-TW","2017/06/09 18:29:19","新北市新店區安華路28-1號","121.519343333333","24.960855","6500600","新店區"
"235066","003-UY","2017/06/09 18:29:37","新北市中和區中山路二段120號","121.50284","25.0037333333333","6500300","中和區"
"235064","005-UY","2017/06/09 18:29:35","新北市中和區圓通路141巷37弄1號","121.498956666667","24.9950366666667","6500300","中和區"
"235063","006-UY","2017/06/09 18:29:24","新北市中和區連城路347巷18弄2號","121.488486666667","24.9946666666667","6500300","中和區"
"235039","097-UM","2017/06/09 18:29:27","新北市中和區景安路72號","121.505685","24.99657","6500300","中和區"
"235065","098-UM","2017/06/09 18:29:26","新北市中和區莊敬路49巷18號","121.501703333333","25.0061266666667","6500300","中和區"
"235040","150-BY","2017/06/09 18:29:29","新北市中和區安平路38號","121.509736666667","24.99496","6500300","中和區"
"235058","151-BY","2017/06/09 18:29:27","新北市中和區圓通路369巷53-5號","121.490938333333","24.98462","6500300","中和區"
"235055","183-VK","2017/06/09 18:29:22","新北市中和區連城路506號","121.477726666667","24.992865","6500300","中和區"
"235038","185-VK","2017/06/09 18:29:25","新北市中和區秀朗路三段128巷17弄5號","121.524265","24.993495","6500300","中和區"
"235049","186-VK","2017/06/09 18:29:32","新北市中和區景安路130號","121.50514","24.99439","6500300","中和區"
"235067","255-BX","2017/06/09 18:29:21","新北市中和區和城路一段271巷1號","121.485491666667","24.9919666666667","6500300","中和區"
"235072","301-VK","2017/06/09 18:29:24","新北市中和區錦和路182號","121.489978333333","24.99536","6500300","中和區"
"235043","352-BY","2017/06/09 18:29:26","新北市中和區景平路301號","121.506661666667","24.9931883333333","6500300","中和區"
"235051","376-QA","2017/06/09 18:29:27","新北市中和區南山路513號","121.507953333333","24.9874716666667","6500300","中和區"
"235061","378-QA","2017/06/09 18:29:19","新北市中和區莒光路175-2號","121.472685","24.9996183333333","6500300","中和區"
"235050","4979-A6","2017/06/09 18:29:29","新北市中和區景新街362巷5號","121.511993333333","24.990135","6500300","中和區"
"235069","4980-A6","2017/06/09 18:29:33","新北市中和區連城路99巷64號","121.497285","24.998395","6500300","中和區"
"235042","551-UM","2017/06/09 18:29:22","新北市中和區自立路56巷14號","121.522771666667","24.9917266666667","6500300","中和區"
"235070","558-UM","2017/06/09 18:29:21","新北市中和區圓通路136-1號","121.49843","24.9959983333333","6500300","中和區"
"235045","565-BX","2017/06/09 18:29:30","新北市中和區復興路22號","121.505331666667","24.9899783333333","6500300","中和區"
"235054","640-BX","2017/06/09 18:29:19","新北市中和區民享街117巷1號","121.474628333333","24.9991966666667","6500300","中和區"
"235060","647-TV","2017/06/09 18:29:16","新北市中和區員山路88號","121.480863333333","24.9943066666667","6500300","中和區"
"235047","732-UM","2017/06/09 18:29:27","新北市中和區復興路276號","121.502796666667","24.9905033333333","6500300","中和區"
"235046","733-UM","2017/06/09 18:29:23","新北市中和區中正路637巷52弄1號","121.485441666667","24.993445","6500300","中和區"
"235071","783-BX","2017/06/09 18:29:27","新北市中和區員山路36巷16-3號","121.485218333333","24.991135","6500300","中和區"
"235062","800-TS","2017/06/09 18:29:29","新北市中和區中山路二段312巷45弄23號","121.49505","25.0048816666667","6500300","中和區"
"235057","801-TS","2017/06/09 18:29:29","新北市中和區民安街53-1號","121.479263333333","24.9999733333333","6500300","中和區"
"235041","802-TS","2017/06/09 18:29:24","新北市中和區安平路36巷55號","121.51048","24.9947316666667","6500300","中和區"
"235052","805-TS","2017/06/09 18:29:21","新北市中和區南山路252號","121.507778333333","24.988775","6500300","中和區"
"235048","896-TW","2017/06/09 18:29:36","新北市中和區中正路271號","121.495798333333","24.993685","6500300","中和區"
"235053","900-TW","2017/06/09 18:29:30","新北市中和區員山路72號","121.480855","24.993605","6500300","中和區"
"235037","AAC-213","2017/06/09 18:29:32","新北市中和區景平路99號","121.517213333333","24.9918166666667","6500300","中和區"
"235059","AAC-215","2017/06/09 18:29:27","新北市中和區員山路36巷16-3號","121.485106666667","24.991205","6500300","中和區"
"220068","013-TV","2017/06/09 18:29:28","新北市板橋區民生路二段15-1號","121.472806666667","25.016405","6500100","板橋區"
"247006","341-TH","2017/06/09 18:29:38","新北市八里區中山路三段372號","121.368866666667","25.1360266666667","6501400","蘆洲區"
"247014","057-VK","2017/06/09 18:29:33","新北市五股區新五路三段13號","121.445018333333","25.0886916666667","6501400","蘆洲區"
"226004","312-R5","2017/06/09 18:29:32","新北市平溪區石底里公園街17號","121.737163333333","25.0249883333333","6502400","平溪區"
"223004","660-BX","2017/06/09 15:01:20","新北市石碇區小粗坑(潭邊里)9-2號","121.678666666667","24.9855083333333","6501900","石碇區"
"228002","663-BX","2017/06/09 18:29:32","新北市貢寮區福連里香蘭街7-3號","121.9766","25.0238616666667","6502600","貢寮區"
"228001","670-TC","2017/06/09 18:29:32","新北市貢寮區仁理村仁義街2號","121.923593333333","25.0521116666667","6502600","貢寮區"
"228003","828-UM","2017/06/09 18:28:28","新北市貢寮區和美里和美街39號","121.91234","25.089385","6502600","貢寮區"
"224006","676-BX","2017/06/09 18:29:37","新北市瑞芳區明燈路二段105號","121.809983333333","25.1078316666667","6501200","瑞芳區"
"224002","639-TC","2017/06/09 18:29:36","新北市瑞芳區三爪子坑路25號","121.813473333333","25.1075483333333","6501200","瑞芳區"
"224009","285-BY","2017/06/09 18:29:21","新北市瑞芳區祈堂路239號","121.856261666667","25.109085","6501200","瑞芳區"
"224008","275-VK","2017/06/09 18:29:35","新北市瑞芳區岳王路37號","121.807873333333","25.1113533333333","6501200","瑞芳區"
"224007","273-VK","2017/06/09 18:29:30","新北市瑞芳區大埔路吉慶公園城4號","121.765495","25.10048","6501200","瑞芳區"
"224005","271-BY","2017/06/09 18:29:31","新北市瑞芳區台電新村31號","121.81282","25.1277016666667","6501200","瑞芳區"
"227003","642-TC","2017/06/09 18:29:36","新北市雙溪區魚行里坤溪35號","121.870508333333","25.0303866666667","6502500","雙溪區"
"227011","400-TW","2017/06/09 18:29:21","新北市雙溪區牡丹里牡丹127號","121.850896666667","25.05951","6502500","雙溪區"
"253006","032-BX","2017/06/09 18:29:31","新北市石門區公地16號","121.545758333333","25.29024","6502200","石門區"
"253005","295-VK","2017/06/09 18:29:30","新北市石門區老崩山2-1號","121.553646666667","25.29165","6502200","石門區"
"208001","742-BX","2017/06/09 18:29:26","新北市金山區溫泉路21巷1號","121.637796666667","25.2228066666667","6502700","金山區"
"208003","665-BX","2017/06/09 18:29:33","新北市金山區中山路339號","121.635108333333","25.2242066666667","6502700","金山區"
"251009","008-UM","2017/06/09 18:29:31","新北市淡水區下圭柔山90-8號","121.431303333333","25.210375","6501000","淡水區"
"251004","009-UM","2017/06/09 18:06:28","新北市淡水區民族路112巷1號","121.462671666667","25.13509","6501000","淡水區"
"251013","180-VK","2017/06/09 18:29:28","新北市淡水區椿子林19-1號","121.480408333333","25.2040016666667","6501000","淡水區"
"251008","181-VK","2017/06/09 18:29:17","新北市淡水區北投子92號","121.46697","25.1774","6501000","淡水區"
"251015","182-VK","2017/06/09 18:29:23","新北市淡水區興福寮88巷216號","121.48595","25.166575","6501000","淡水區"
"251010","413-VK","2017/06/09 18:29:25","新北市淡水區沙崙路181巷1號","121.424145","25.1841816666667","6501000","淡水區"
"251012","441-VK","2017/06/09 18:29:33","新北市淡水區北新路一段163號","121.458973333333","25.1822933333333","6501000","淡水區"
"251001","559-UM","2017/06/09 18:29:30","新北市淡水區自強路419號","121.465541666667","25.1342933333333","6501000","淡水區"
"251006","561-UM","2017/06/09 18:29:26","新北市淡水區崁頂36-7號","121.438728333333","25.1931266666667","6501000","淡水區"
"251011","650-BX","2017/06/09 18:29:23","新北市淡水區學府路32巷27號","121.448483333333","25.1684266666667","6501000","淡水區"
"251002","672-BX","2017/06/09 18:29:21","新北市淡水區竿蓁二街19巷7弄2號","121.453061666667","25.16352","6501000","淡水區"
"251003","673-BX","2017/06/09 18:29:30","新北市淡水區北新路69巷26號","121.446665","25.1800066666667","6501000","淡水區"
"207003","550-UM","2017/06/09 18:29:26","新北市萬里區野柳里港東路66號","121.68782","25.2042066666667","6502800","萬里區"
"207004","225-TW","2017/06/09 18:29:33","新北市萬里區萬里里瑪鋉路252號","121.688985","25.180645","6502800","萬里區"
"252002","178-VK","2017/06/09 18:29:32","新北市三芝區中山路二段39號","121.502881666667","25.2550783333333","6502100","三芝區"
"252003","249-BX","2017/06/09 18:29:34","新北市三芝區後厝里北勢子43號","121.471875","25.25255","6502100","三芝區"
"252001","292-VK","2017/06/09 18:29:29","新北市三芝區中興街二段2號","121.498233333333","25.2566066666667","6502100","三芝區"
"208002","170-UY","2017/06/09 18:29:23","新北市金山區磺港里磺港路169號","121.643518333333","25.22472","6502700","金山區"
"237004","078-UY","2017/06/09 18:29:32","新北市三峽區插角235號","121.412243333333","24.8688916666667","6500900","三峽區"
"237007","153-BY","2017/06/09 18:29:20","新北市三峽區中正路三段7號","121.352013333333","24.9035383333333","6500900","三峽區"
"237009","210-TH","2017/06/09 18:29:22","新北市三峽區大同路227號","121.36725","24.926755","6500900","三峽區"
"237013","252-BX","2017/06/09 18:29:20","新北市三峽區光明路69巷27號","121.376781666667","24.9292933333333","6500900","三峽區"
"237012","275-BY","2017/06/09 18:29:25","新北市三峽區三樹路168巷30號","121.37955","24.9404733333333","6500900","三峽區"
"237008","302-VK","2017/06/09 18:29:36","新北市三峽區白雞129-1號","121.398393333333","24.90557","6500900","三峽區"
"237014","433-BY","2017/06/09 18:29:30","新北市三峽區文化路39號","121.3726","24.9360633333333","6500900","三峽區"
"237006","5529-G3","2017/06/09 18:29:39","新北市三峽區溪東路365號","121.411595","24.9293183333333","6500900","三峽區"
"237011","572-TV","2017/06/09 18:29:24","新北市三峽區介壽路三段20號","121.395983333333","24.9361783333333","6500900","三峽區"
"237015","649-BX","2017/06/09 18:29:32","新北市三峽區紫微路2號","121.426536666667","24.9225833333333","6500900","三峽區"
"237010","706-TV","2017/06/09 18:29:26","新北市三峽區復興路321號","121.364835","24.9388466666667","6500900","三峽區"
"237005","AKY-6261","2017/06/09 18:29:34","新北市三峽區民族街5巷31號","121.36976","24.9322766666667","6500900","三峽區"
"236072","105-UM","2017/06/09 18:29:32","新北市土城區永豐路255巷22號","121.475256666667","24.9731283333333","6501300","土城區"
"236043","107-UM","2017/06/09 18:29:20","新北市土城區學成路99巷11號","121.449991666667","24.9884283333333","6501300","土城區"
"236079","166-UM","2017/06/09 18:29:26","新北市土城區中央路四段27巷10弄2號","121.424688333333","24.961805","6501300","土城區"
"236031","253-BX","2017/06/09 18:29:31","新北市土城區水源街81巷6號","121.439511666667","24.9763","6501300","土城區"
"236027","269-VK","2017/06/09 18:29:32","新北市土城區南天母路18-4號","121.448273333333","24.9530916666667","6501300","土城區"
"236015","270-VK","2017/06/09 18:29:32","新北市土城區青雲路39巷7號","121.460306666667","24.987355","6501300","土城區"
"236039","271-VK","2017/06/09 18:29:30","新北市土城區青雲路451巷13號","121.459538333333","24.9747766666667","6501300","土城區"
"236022","401-BY","2017/06/09 18:29:19","新北市土城區永豐路202巷7號","121.466283333333","24.9832633333333","6501300","土城區"
"236059","912-UM","2017/06/09 18:29:28","新北市土城區中央路四段464號","121.409955","24.9504816666667","6501300","土城區"
"236050","913-UM","2017/06/09 18:29:30","新北市土城區明德路一段319號","121.459191666667","24.9771483333333","6501300","土城區"
"236063","915-UM","2017/06/09 18:29:19","新北市土城區延壽路111巷23號","121.46834","24.993515","6501300","土城區"
"236055","AAC-216","2017/06/09 18:29:34","新北市土城區中華路二段127號","121.439056666667","24.9765216666667","6501300","土城區"
"242042","497-BY","2017/06/09 18:29:35","新北市新莊區天祥街92巷14號","121.415646666667","25.02999","6500500","新莊區"
"242046","441-UM","2017/06/09 18:29:27","新北市新莊區中正路803巷37號","121.422018333333","25.0278233333333","6500500","新莊區"
"242060","362-BY","2017/06/09 18:29:30","新北市新莊區建國二路1號","121.434875","25.0236666666667","6500500","新莊區"
"242058","353-BY","2017/06/09 18:29:28","新北市新莊區中正路887-19號","121.415888333333","25.0240583333333","6500500","新莊區"
"242034","133-UY","2017/06/09 18:29:28","新北市樹林區環河路2-2號","121.425266666667","24.9767333333333","6500500","新莊區"
"242044","172-VK","2017/06/09 18:29:36","新北市新莊區龍安路99號","121.416295","25.02236","6500500","新莊區"
"242056","176-VK","2017/06/09 18:29:36","新北市新莊區瓊泰路63巷21弄12號","121.44261","25.0283","6500500","新莊區"
"242054","349-TH","2017/06/09 18:29:30","新北市新莊區大安路8號","121.432216666667","25.00565","6500500","新莊區"
"242015","350-TH","2017/06/09 18:29:22","新北市新莊區新泰路357巷3弄51號","121.442146666667","25.0400116666667","6500500","新莊區"
"238015","755-BX","2017/06/09 18:29:24","新北市樹林區文化街59號","121.417243333333","24.9888466666667","6500700","樹林區"
"238023","601-UM","2017/06/09 18:29:34","新北市樹林區忠信街2號","121.409625","25.0153033333333","6500700","樹林區"
"238019","599-UM","2017/06/09 18:26:59","新北市樹林區中華路190-16號","121.411765","24.9806616666667","6500700","樹林區"
"238018","571-TV","2017/06/09 18:29:38","新北市樹林區保安街一段20巷28號","121.428206666667","24.994335","6500700","樹林區"
"238024","5061-A6","2017/06/09 18:29:26","新北市樹林區育英街1-1號","121.422656666667","24.989005","6500700","樹林區"
"238021","311-TH","2017/06/09 18:29:33","新北市樹林區柑園街二段152號","121.381926666667","24.95435","6500700","樹林區"
"238025","303-VK","2017/06/09 18:29:35","新北市樹林區保安街一段195號","121.420753333333","24.9961133333333","6500700","樹林區"
"238014","282-BY","2017/06/09 18:29:20","新北市樹林區大安路111巷27號","121.423455","24.997695","6500700","樹林區"
"238020","268-VK","2017/06/09 18:29:35","新北市樹林區中正路642巷19號","121.411493333333","25.01758","6500700","樹林區"
"238026","172-UY","2017/06/09 18:29:20","新北市樹林區佳園路一段75巷192號","121.396991666667","24.9707383333333","6500700","樹林區"
"238016","169-UY","2017/06/09 18:29:28","新北市樹林區文化街23號","121.41929","24.9875616666667","6500700","樹林區"
"239007","AAC-297","2017/06/09 18:29:31","新北市鶯歌區中正一路478號","121.36654","24.956865","6500800","鶯歌區"
"239006","891-R6","2017/06/09 18:29:37","新北市鶯歌區鶯桃路296巷93弄4號","121.336395","24.961955","6500800","鶯歌區"
"239008","527-UM","2017/06/09 18:29:37","新北市鶯歌區國際一路179號","121.336215","24.9765133333333","6500800","鶯歌區"
"239005","526-UM","2017/06/09 18:29:36","新北市鶯歌區鳳吉二街126號","121.328058333333","24.9745733333333","6500800","鶯歌區"
"239001","417-VK","2017/06/09 18:29:19","新北市鶯歌區國中街171-1號","121.337765","24.9387816666667","6500800","鶯歌區"
"239003","360-BY","2017/06/09 18:29:27","新北市鶯歌區福安街58號","121.335623333333","24.96518","6500800","鶯歌區"
"239002","359-BY","2017/06/09 18:29:39","新北市鶯歌區中山路290號","121.34391","24.9571016666667","6500800","鶯歌區"
"239004","193-VK","2017/06/09 18:29:24","新北市鶯歌區尖山路271號","121.34115","24.943725","6500800","鶯歌區"
"221036","130-UY","2017/06/09 18:29:24","新北市汐止區大同路三段123號","121.668996666667","25.0776883333333","6501100","汐止區"
"221015","131-UY","2017/06/09 18:29:27","新北市汐止區鄉友街16號","121.668496666667","25.0807766666667","6501100","汐止區"
"221010","269-BY","2017/06/09 18:29:20","新北市汐止區瑞松街15號","121.64528","25.105245","6501100","汐止區"
"221012","278-VK","2017/06/09 18:29:14","新北市汐止區保長路83號","121.673958333333","25.0787066666667","6501100","汐止區"
"221023","279-VK","2017/06/09 16:03:35","新北市汐止區康寧街901號","121.651713333333","25.0750083333333","6501100","汐止區"
"221032","280-BY","2017/06/09 18:29:27","新北市汐止區福山街60巷2號","121.617738333333","25.04652","6501100","汐止區"
"221002","281-BY","2017/06/09 18:29:31","新北市汐止區和平街46巷12號","121.662535","25.07143","6501100","汐止區"
"221038","297-VK","2017/06/09 18:29:23","新北市汐止區仁愛路311號","121.664715","25.0675116666667","6501100","汐止區"
"221029","298-VK","2017/06/09 18:29:24","新北市汐止區樟樹二路330巷72-1號","121.642895","25.0699366666667","6501100","汐止區"
"221021","299-VK","2017/06/09 18:02:50","新北市汐止區忠孝東路1號","121.657065","25.0642433333333","6501100","汐止區"
"221035","622-UM","2017/06/09 18:29:36","新北市汐止區大同路二段33-1號","121.647688333333","25.0632283333333","6501100","汐止區"
"221025","623-UM","2017/06/09 18:29:32","新北市汐止區仁愛路136-2號","121.663191666667","25.064195","6501100","汐止區"
"221033","647-BX","2017/06/09 18:29:27","新北市汐止區宜興街5號","121.621118333333","25.0414883333333","6501100","汐止區"
"221002","707-TV","2017/06/09 18:29:37","新北市汐止區福德一路135號","121.636991666667","25.0670983333333","6501100","汐止區"
"221018","753-BX","2017/06/09 18:29:30","新北市汐止區茄苳路213號","121.670731666667","25.0688433333333","6501100","汐止區"
"220081","287-VK","2017/06/09 18:29:18","新北市板橋區華東街1-9號","121.44824","24.9949233333333","6500100","板橋區"
"220084","296-UM","2017/06/09 18:29:27","新北市板橋區華東街1-9號","121.448176666667","24.9949416666667","6500100","板橋區"
"220056","303-R5","2017/06/09 18:29:38","新北市板橋區民生路二段36-1號","121.472015","25.0168733333333","6500100","板橋區"
"220054","741-BX","2017/06/09 18:29:36","新北市板橋區民生路二段36-1號","121.472568333333","25.0165416666667","6500100","板橋區"
