"lineid","car","time","location","longitude","latitude","cityid","cityname"
"234046","148-BY","2017/06/09 18:39:27","新北市永和區林森路99號","121.52346","25.0036133333333","6500400","永和區"
"234013","149-BY","2017/06/09 18:39:26","新北市永和區保福路二段105號","121.510203333333","25.0133666666667","6500400","永和區"
"234007","207-UY","2017/06/09 18:39:26","新北市永和區文化路170號","121.511943333333","25.0155416666667","6500400","永和區"
"234081","298-R6","2017/06/09 18:39:21","新北市永和區永亨路127號","121.524476666667","25.0041683333333","6500400","永和區"
"234038","336-UY","2017/06/09 18:39:23","新北市永和區福和路1號","121.526631666667","25.0101133333333","6500400","永和區"
"234064","337-UY","2017/06/09 18:39:31","新北市永和區福和路1號","121.526516666667","25.0099533333333","6500400","永和區"
"234086","338-UY","2017/06/09 18:39:24","新北市中和區景新街273巷32號","121.510813333333","24.9940033333333","6500400","永和區"
"234017","745-BX","2017/06/09 18:39:33","新北市永和區福和路1號","121.526371666667","25.009755","6500400","永和區"
"234030","746-BX","2017/06/09 18:39:28","新北市永和區環河東路三段60號","121.526936666667","25.0060216666667","6500400","永和區"
"234042","862-TW","2017/06/09 18:39:35","新北市永和區永貞路267號","121.511981666667","25.004715","6500400","永和區"
"234050","863-TW","2017/06/09 18:39:37","新北市永和區福和路1號","121.52655","25.0098316666667","6500400","永和區"
"234026","9371-KE","2017/06/09 18:39:24","新北市永和區保平路93巷7號","121.511896666667","25.00656","6500400","永和區"
"234011","9373-KE","2017/06/09 18:39:19","新北市永和區仁愛路31巷2弄1號","121.514213333333","25.012945","6500400","永和區"
"249005","172-UM","2017/06/09 18:38:56","新北市八里區中華路三段34-2號","121.388778333333","25.1254433333333","6502300","八里區"
"249001","173-UM","2017/06/09 18:39:27","新北市八里區龍米路一段199號","121.45144","25.1313133333333","6502300","八里區"
"249004","303-UY","2017/06/09 18:39:19","新北市八里區龍米路三段49號","121.423981666667","25.1589516666667","6502300","八里區"
"249002","305-UY","2017/06/09 18:39:26","新北市八里區龍形一街21號","121.449833333333","25.130385","6502300","八里區"
"248014","025-BX","2017/06/09 18:39:38","新北市五股區中興路四段67-2號","121.436946666667","25.0833533333333","6501500","五股區"
"248016","026-BX","2017/06/09 18:39:26","新北市五股區凌雲路一段133巷27-3號","121.448681666667","25.1008883333333","6501500","五股區"
"248008","095-VK","2017/06/09 18:39:40","新北市五股區中興路一段154號","121.464545","25.0740216666667","6501500","五股區"
"248018","225-UY","2017/06/09 18:39:32","新北市五股區民義路二段58號","121.406461666667","25.1075366666667","6501500","五股區"
"248012","247-BX","2017/06/09 18:20:11","新北市五股區御史路1巷104號","121.441041666667","25.0918066666667","6501500","五股區"
"248002","678-BX","2017/06/09 18:39:29","新北市五股區西雲路222號","121.448238333333","25.0961866666667","6501500","五股區"
"248010","682-TV","2017/06/09 18:39:38","新北市五股區明德路12巷30號","121.43287","25.0722633333333","6501500","五股區"
"234023","9380-KE","2017/06/09 18:39:22","新北市永和區福和路76巷5弄14號","121.522268333333","25.0084183333333","6500400","永和區"
"234077","969-R7","2017/06/09 18:39:32","新北市永和區中正路284號","121.517078333333","24.9989833333333","6500400","永和區"
"234074","AAC-211","2017/06/09 18:39:25","新北市永和區福和路1號","121.526445","25.00996","6500400","永和區"
"234067","AAC-212","2017/06/09 18:39:30","新北市永和區福和路1號","121.526291666667","25.00976","6500400","永和區"
"234003","AAC-295","2017/06/09 18:37:38","新北市永和區福和路1號","121.52633","25.0099066666667","6500400","永和區"
"232008","290-BY","2017/06/09 09:12:37","新北市坪林區鶯子瀨9-8號","121.7098","24.9170066666667","6502000","坪林區"
"232011","375-UM","2017/06/09 18:16:44","新北市坪林區坪雙路一段43號","121.711748333333","24.9424466666667","6502000","坪林區"
"244007","080-UY","2017/06/09 18:39:31","新北市林口區後湖19-6號","121.38775","25.0989033333333","6501700","林口區"
"244019","403-UM","2017/06/09 18:39:36","新北市林口區忠孝路614號","121.377148333333","25.0682666666667","6501700","林口區"
"244013","742-UY","2017/06/09 18:39:21","新北市林口區中山路303號","121.383896666667","25.0803816666667","6501700","林口區"
"244009","410-SL","2017/06/09 18:39:27","新北市林口區寶林路113號","121.383441666667","25.0852933333333","6501700","林口區"
"244023","483-VK","2017/06/09 18:39:38","新北市林口區民享路32號","121.380753333333","25.08051","6501700","林口區"
"244017","485-VK","2017/06/09 18:39:33","新北市林口區文化二路一段269號","121.367508333333","25.07076","6501700","林口區"
"244011","701-TV","2017/06/09 18:39:26","新北市林口區興林路15號","121.389771666667","25.0770516666667","6501700","林口區"
"244025","837-TS","2017/06/09 18:39:23","新北市林口區南勢四街325號","121.356613333333","25.0748233333333","6501700","林口區"
"244021","838-TS","2017/06/09 18:39:27","新北市林口區工六路12號","121.397966666667","25.0790816666667","6501700","林口區"
"243013","AAD-798","2017/06/09 18:39:22","新北市泰山區明志路三段206巷1號","121.423355","25.0379316666667","6501600","泰山區"
"243012","646-TV","2017/06/09 18:39:22","新北市泰山區泰林路二段73巷18號","121.434441666667","25.0582666666667","6501600","泰山區"
"222002","016-RS","2017/06/09 17:47:30","新北市深坑區深坑街75號","121.61469","25.0012066666667","6501800","深坑區"
"222003","436-BY","2017/06/09 18:39:19","新北市深坑區翠谷街81巷8號","121.628026666667","25.0093133333333","6501800","深坑區"
"222002","659-BX","2017/06/09 18:39:35","新北市深坑區文山路一段62巷33號","121.621371666667","25.0004766666667","6501800","深坑區"
"222001","696-SL","2017/06/09 18:39:28","新北市深坑區北深路一段82號","121.636333333333","25.0107233333333","6501800","深坑區"
"231041","002-UM","2017/06/09 18:39:22","新北市新店區安華路28-1號","121.519743333333","24.9609016666667","6500600","新店區"
"231056","0291-UT","2017/06/09 18:39:35","新北市新店區自立街78號","121.537398333333","24.9797516666667","6500600","新店區"
"231059","046-UY","2017/06/09 18:39:21","新北市新店區安華路28-1號","121.519511666667","24.960655","6500600","新店區"
"231061","047-UY","2017/06/09 18:39:28","新北市新店區安華路28-1號","121.519131666667","24.9609416666667","6500600","新店區"
"231060","106-UY","2017/06/09 18:39:23","新北市新店區安華路28-1號","121.519618333333","24.9607366666667","6500600","新店區"
"231051","107-UY","2017/06/09 18:39:37","新北市新店區安康路一段122號","121.526991666667","24.96263","6500600","新店區"
"231048","108-UY","2017/06/09 18:39:28","新北市新店區北新路二段27-3號","121.542796666667","24.9719716666667","6500600","新店區"
"231053","187-VK","2017/06/09 18:39:35","新北市新店區永興路34號","121.543575","24.9388433333333","6500600","新店區"
"231057","256-BX","2017/06/09 18:39:31","新北市新店區新烏路一段215號","121.54931","24.9314466666667","6500600","新店區"
"231063","268-BY","2017/06/09 18:39:21","新北市新店區安華路1-1號","121.519398333333","24.9604616666667","6500600","新店區"
"231046","278-BY","2017/06/09 18:39:37","新北市新店區直潭一街1號","121.535693333333","24.9432183333333","6500600","新店區"
"231050","AAD-862","2017/06/09 18:39:26","新北市新店區安華路28-1號","121.51966","24.9611966666667","6500600","新店區"
"231058","3712-VJ","2017/06/09 18:39:36","新北市新店區新店後街2巷12號","121.538298333333","24.9530883333333","6500600","新店區"
"231055","3713-VJ","2017/06/09 18:39:15","新北市新店區華興街38巷3號","121.537173333333","24.9692483333333","6500600","新店區"
"231066","4715-K9","2017/06/09 18:39:24","新北市新店區安華路28-1號","121.519508333333","24.9605533333333","6500600","新店區"
"231067","4772-VM","2017/06/09 18:39:32","新北市新店區安康路一段355-3號","121.51976","24.9616183333333","6500600","新店區"
"231065","512-UM","2017/06/09 18:39:30","新北市新店區安華路28-1號","121.519295","24.9613933333333","6500600","新店區"
"231054","513-UM","2017/06/09 18:39:31","新北市新店區安華路28-1號","121.51963","24.9610183333333","6500600","新店區"
"231064","515-UM","2017/06/09 16:32:53","新北市新店區安華路28-1號","121.519668333333","24.9610316666667","6500600","新店區"
"231045","617-UM","2017/06/09 18:39:24","新北市新店區安華路28-1號","121.519346666667","24.9608766666667","6500600","新店區"
"231040","619-UM","2017/06/09 18:39:27","新北市新店區安華路28-1號","121.519598333333","24.96076","6500600","新店區"
"231042","641-BX","2017/06/09 18:39:30","新北市新店區安康路一段35-5號","121.531853333333","24.9605866666667","6500600","新店區"
"231049","719-UM","2017/06/09 18:39:18","新北市新店區安康路一段24巷2號","121.532726666667","24.9604","6500600","新店區"
"231062","720-UM","2017/06/09 18:39:32","新北市新店區安華路28-1號","121.519251666667","24.9612366666667","6500600","新店區"
"231044","897-TW","2017/06/09 18:39:26","新北市新店區安華路28-1號","121.519816666667","24.96059","6500600","新店區"
"231043","899-TW","2017/06/09 18:39:19","新北市新店區安華路28-1號","121.51914","24.9609133333333","6500600","新店區"
"235066","003-UY","2017/06/09 18:39:37","新北市中和區水源路28號","121.504473333333","25.0035216666667","6500300","中和區"
"235064","005-UY","2017/06/09 18:39:35","新北市中和區連城路87號","121.496696666667","25.000245","6500300","中和區"
"235063","006-UY","2017/06/09 18:39:24","新北市中和區連城路403號","121.486116666667","24.9962","6500300","中和區"
"235039","097-UM","2017/06/09 18:39:27","新北市中和區安平路161號","121.512458333333","24.9984383333333","6500300","中和區"
"235065","098-UM","2017/06/09 18:39:26","新北市中和區莊敬路49巷20弄32號","121.503323333333","25.00508","6500300","中和區"
"235040","150-BY","2017/06/09 18:39:29","新北市中和區安平路38號","121.509775","24.9949866666667","6500300","中和區"
"235058","151-BY","2017/06/09 18:39:27","新北市中和區圓通路369巷39-30號","121.4897","24.9855983333333","6500300","中和區"
"235055","183-VK","2017/06/09 18:39:22","新北市中和區民生街15號","121.471318333333","25.0059016666667","6500300","中和區"
"235038","185-VK","2017/06/09 18:39:25","新北市中和區立人街14巷40弄7號","121.51904","24.9957566666667","6500300","中和區"
"235049","186-VK","2017/06/09 18:39:32","新北市中和區景平路480號","121.505063333333","24.993685","6500300","中和區"
"235067","255-BX","2017/06/09 18:39:21","新北市中和區新生街132號","121.483523333333","25.00115","6500300","中和區"
"235044","293-VK","2017/06/09 18:39:27","新北市中和區復興路301巷23號","121.501913333333","24.98966","6500300","中和區"
"235072","301-VK","2017/06/09 18:39:24","新北市中和區連城路171巷41弄1號","121.49637","24.996535","6500300","中和區"
"235043","352-BY","2017/06/09 18:39:26","新北市中和區景平路139號","121.514535","24.99227","6500300","中和區"
"235051","376-QA","2017/06/09 18:39:27","新北市中和區興南路二段142巷20弄1號","121.50239","24.9847266666667","6500300","中和區"
"235068","377-QA","2017/06/09 18:39:30","新北市中和區錦和路350-1號","121.490695","24.99367","6500300","中和區"
"235061","378-QA","2017/06/09 18:39:19","新北市中和區民享街90巷26號","121.473273333333","25.0000783333333","6500300","中和區"
"235050","4979-A6","2017/06/09 18:39:29","新北市中和區景新街496巷28弄6號","121.513205","24.9859716666667","6500300","中和區"
"235069","4980-A6","2017/06/09 18:39:33","新北市中和區連城路65巷15號","121.498035","25.000735","6500300","中和區"
"235042","551-UM","2017/06/09 18:39:22","新北市中和區成功路97巷2號","121.526598333333","24.9917566666667","6500300","中和區"
"235070","558-UM","2017/06/09 18:39:01","新北市中和區南華路20號","121.50299","24.9955016666667","6500300","中和區"
"235045","565-BX","2017/06/09 18:39:30","新北市中和區南山路236巷22弄30號","121.504478333333","24.9894933333333","6500300","中和區"
"235054","640-BX","2017/06/09 18:39:19","新北市中和區民享街86巷1號","121.47443","25.000855","6500300","中和區"
"235060","647-TV","2017/06/09 18:39:36","新北市中和區員山路463號","121.480303333333","25.0043683333333","6500300","中和區"
"235047","732-UM","2017/06/09 18:39:34","新北市中和區南山路320巷10弄1號","121.506943333333","24.98647","6500300","中和區"
"235046","733-UM","2017/06/09 18:39:23","新北市中和區中正路173號","121.49761","24.99362","6500300","中和區"
"235071","783-BX","2017/06/09 18:39:27","新北市中和區員山路36巷16-3號","121.4852","24.9911916666667","6500300","中和區"
"235062","800-TS","2017/06/09 18:39:29","新北市中和區中山路二段298號","121.49615","25.002605","6500300","中和區"
"235057","801-TS","2017/06/09 18:39:29","新北市中和區民安街43號","121.479855","25.0002616666667","6500300","中和區"
"235041","802-TS","2017/06/09 18:39:24","新北市中和區保健路50巷68號","121.509076666667","24.9952016666667","6500300","中和區"
"235052","805-TS","2017/06/09 18:39:21","新北市中和區興南路二段341號","121.50177","24.981115","6500300","中和區"
"235048","896-TW","2017/06/09 18:39:36","新北市中和區南山路231號","121.503568333333","24.9932533333333","6500300","中和區"
"235053","900-TW","2017/06/09 18:39:30","新北市中和區民享街457號","121.470425","24.9931716666667","6500300","中和區"
"235037","AAC-213","2017/06/09 18:39:32","新北市中和區景平路111巷61弄21號","121.514925","24.9898633333333","6500300","中和區"
"235059","AAC-215","2017/06/09 18:39:27","新北市中和區錦和路350-1號","121.490468333333","24.9935183333333","6500300","中和區"
"220068","013-TV","2017/06/09 18:39:28","新北市板橋區民生路二段15-1號","121.472796666667","25.0164633333333","6500100","板橋區"
"220065","072-UY","2017/06/09 18:39:21","新北市板橋區民生路二段22號","121.472678333333","25.0166083333333","6500100","板橋區"
"220086","073-UY","2017/06/09 18:39:27","新北市板橋區館前西路164號","121.45256","25.0085966666667","6500100","板橋區"
"247006","341-TH","2017/06/09 18:37:38","新北市八里區荖阡坑路34號","121.401776666667","25.1292916666667","6501400","蘆洲區"
"247014","057-VK","2017/06/09 18:34:23","新北市五股區中興路三段163號","121.449253333333","25.0807133333333","6501400","蘆洲區"
"226004","312-R5","2017/06/09 18:39:32","新北市平溪區平溪里平溪街40號","121.738711666667","25.0259383333333","6502400","平溪區"
"223004","660-BX","2017/06/09 15:01:20","新北市石碇區小粗坑(潭邊里)9-2號","121.678666666667","24.9855083333333","6501900","石碇區"
"228002","663-BX","2017/06/09 18:39:32","新北市貢寮區福隆里東興街6-11號","121.950768333333","25.02109","6502600","貢寮區"
"228001","670-TC","2017/06/09 18:39:25","新北市貢寮區仁理村研海街12-1號","121.923771666667","25.051695","6502600","貢寮區"
"228003","828-UM","2017/06/09 18:38:48","新北市貢寮區和美里龍洞街40號","121.914113333333","25.112155","6502600","貢寮區"
"224006","676-BX","2017/06/09 18:39:37","新北市瑞芳區明燈路三段99號","121.804503333333","25.108255","6501200","瑞芳區"
"224002","639-TC","2017/06/09 18:39:36","新北市瑞芳區靜安路四段59號","121.793828333333","25.1031983333333","6501200","瑞芳區"
"224009","285-BY","2017/06/09 18:39:34","新北市瑞芳區祈堂路86號","121.859046666667","25.109485","6501200","瑞芳區"
"224008","275-VK","2017/06/09 18:39:36","新北市瑞芳區逢甲路284號","121.803565","25.1115166666667","6501200","瑞芳區"
"224007","273-VK","2017/06/09 18:39:30","新北市瑞芳區大埔路67巷3-1號","121.764436666667","25.1014716666667","6501200","瑞芳區"
"224005","271-BY","2017/06/09 18:39:31","新北市瑞芳區瑞濱路127號","121.820085","25.1200766666667","6501200","瑞芳區"
"227003","642-TC","2017/06/09 18:39:25","新北市雙溪區魚行里坤溪3-4號","121.876206666667","25.0207116666667","6502500","雙溪區"
"227011","400-TW","2017/06/09 18:39:21","新北市雙溪區牡丹里下坑11號","121.851005","25.0561783333333","6502500","雙溪區"
"253006","032-BX","2017/06/09 18:39:31","新北市石門區崁子腳16號","121.532755","25.2883","6502200","石門區"
"253005","295-VK","2017/06/09 18:39:37","新北市石門區中山路62號","121.567016666667","25.29065","6502200","石門區"
"208001","742-BX","2017/06/09 18:39:26","新北市金山區文化三路11號","121.635161666667","25.2247983333333","6502700","金山區"
"208003","665-BX","2017/06/09 18:39:28","新北市金山區中山路393號","121.63339","25.2251783333333","6502700","金山區"
"251009","008-UM","2017/06/09 18:39:31","新北市淡水區中山北路二段375號","121.444121666667","25.187545","6501000","淡水區"
"251013","180-VK","2017/06/09 18:39:37","新北市淡水區雲廣坑5-1號","121.474275","25.2130666666667","6501000","淡水區"
"251008","181-VK","2017/06/09 18:39:37","新北市淡水區北投子18號","121.453953333333","25.184085","6501000","淡水區"
"251015","182-VK","2017/06/09 18:39:23","新北市淡水區興福寮66巷303號","121.485538333333","25.161925","6501000","淡水區"
"251010","413-VK","2017/06/09 18:39:25","新北市淡水區沙崙路126號","121.423458333333","25.1828483333333","6501000","淡水區"
"251012","441-VK","2017/06/09 18:39:33","新北市淡水區北新路117號","121.448925","25.1785883333333","6501000","淡水區"
"251001","559-UM","2017/06/09 18:39:30","新北市淡水區自立路1巷29號","121.462136666667","25.1294533333333","6501000","淡水區"
"251011","650-BX","2017/06/09 18:39:32","新北市淡水區鄧公路46號","121.459055","25.1687866666667","6501000","淡水區"
"251002","672-BX","2017/06/09 18:39:21","新北市淡水區中正東路8-8號","121.447896666667","25.1667616666667","6501000","淡水區"
"251003","673-BX","2017/06/09 18:39:30","新北市淡水區中山北路一段212巷38號","121.446096666667","25.1790433333333","6501000","淡水區"
"207003","550-UM","2017/06/09 18:39:26","新北市萬里區大鵬里頂社2-1號","121.661776666667","25.2065233333333","6502800","萬里區"
"207004","225-TW","2017/06/09 18:39:28","新北市萬里區萬里里獅頭路10-1號","121.69204","25.178675","6502800","萬里區"
"252002","178-VK","2017/06/09 18:39:32","新北市三芝區中正路二段37號","121.503996666667","25.2548216666667","6502100","三芝區"
"252003","249-BX","2017/06/09 18:39:34","新北市三芝區後厝里土地公坑73-17號","121.459858333333","25.247155","6502100","三芝區"
"252001","292-VK","2017/06/09 18:39:29","新北市三芝區中興街二段48號","121.499535","25.255035","6502100","三芝區"
"208002","170-UY","2017/06/09 18:39:23","新北市金山區忠孝一路19巷6-1號","121.637996666667","25.2183116666667","6502700","金山區"
"237004","078-UY","2017/06/09 18:39:32","新北市三峽區有木214號","121.438256666667","24.8502033333333","6500900","三峽區"
"237007","153-BY","2017/06/09 18:39:20","新北市三峽區柑樹路2巷38號","121.36178","24.905335","6500900","三峽區"
"237009","210-TH","2017/06/09 18:39:22","新北市三峽區大同路309號","121.363383333333","24.9247583333333","6500900","三峽區"
"237013","252-BX","2017/06/09 18:39:20","新北市三峽區光明路69巷25號","121.37681","24.9291833333333","6500900","三峽區"
"237012","275-BY","2017/06/09 18:39:25","新北市三峽區三樹路340號","121.383965","24.9433366666667","6500900","三峽區"
"237008","302-VK","2017/06/09 18:39:36","新北市三峽區白雞32-3號","121.372155","24.912205","6500900","三峽區"
"237014","433-BY","2017/06/09 18:39:31","新北市三峽區復興路119-3號","121.369735","24.9387616666667","6500900","三峽區"
"237006","5529-G3","2017/06/09 18:39:19","新北市三峽區溪東路300號","121.40984","24.9307783333333","6500900","三峽區"
"237011","572-TV","2017/06/09 18:39:24","新北市三峽區介壽路三段233-5號","121.406573333333","24.94799","6500900","三峽區"
"237015","649-BX","2017/06/09 18:39:32","新北市三峽區安坑13-3號","121.44485","24.9267083333333","6500900","三峽區"
"237010","706-TV","2017/06/09 18:39:26","新北市三峽區復興路267號","121.36658","24.9389216666667","6500900","三峽區"
"237005","AKY-6261","2017/06/09 18:39:34","新北市三峽區民生街104巷2-10號","121.373598333333","24.9361216666667","6500900","三峽區"
"236072","105-UM","2017/06/09 18:39:25","新北市土城區永豐路157巷29弄6-1號","121.468365","24.9814883333333","6501300","土城區"
"236043","107-UM","2017/06/09 18:39:20","新北市土城區學成路94巷9弄18號","121.450258333333","24.9897416666667","6501300","土城區"
"236079","166-UM","2017/06/09 18:39:26","新北市土城區中央路四段52巷32號","121.419578333333","24.9608116666667","6501300","土城區"
"236031","253-BX","2017/06/09 18:39:31","新北市土城區福仁街73號","121.439435","24.9743466666667","6501300","土城區"
"236027","269-VK","2017/06/09 18:39:32","新北市土城區忠義路55巷13號","121.441165","24.9686383333333","6501300","土城區"
"236015","270-VK","2017/06/09 18:39:31","新北市土城區清水路207巷11號","121.459901666667","24.9823766666667","6501300","土城區"
"236039","271-VK","2017/06/09 18:39:33","新北市土城區明德路一段313巷26號","121.459636666667","24.976135","6501300","土城區"
"236022","401-BY","2017/06/09 18:39:19","新北市土城區明德路一段22號","121.46513","24.9849366666667","6501300","土城區"
"236059","912-UM","2017/06/09 18:39:28","新北市土城區中央路四段57號","121.417505","24.95845","6501300","土城區"
"236050","913-UM","2017/06/09 18:39:01","新北市土城區明德路一段43號","121.465163333333","24.984985","6501300","土城區"
"236063","915-UM","2017/06/09 18:39:39","新北市土城區延壽路55巷9弄1號","121.46971","24.9915916666667","6501300","土城區"
"236055","AAC-216","2017/06/09 18:39:34","新北市土城區中華路一段91號","121.444835","24.9873233333333","6501300","土城區"
"242060","362-BY","2017/06/09 18:39:30","新北市新莊區新泰路357巷3弄57號","121.442281666667","25.0392666666667","6500500","新莊區"
"242058","353-BY","2017/06/09 18:39:19","新北市新莊區壽山路31號","121.420143333333","25.02907","6500500","新莊區"
"242034","133-UY","2017/06/09 18:38:48","新北市樹林區中山路三段214號","121.380173333333","24.9679533333333","6500500","新莊區"
"242044","172-VK","2017/06/09 18:39:36","新北市新莊區富國路1號","121.417905","25.0266116666667","6500500","新莊區"
"242054","349-TH","2017/06/09 18:39:35","新北市新莊區樹新路120巷31號","121.430351666667","24.9962616666667","6500500","新莊區"
"238015","755-BX","2017/06/09 18:39:24","新北市樹林區大安路530號","121.413698333333","24.9861866666667","6500700","樹林區"
"238023","601-UM","2017/06/09 18:39:34","新北市樹林區三福街114號","121.406438333333","25.0163216666667","6500700","樹林區"
"238019","599-UM","2017/06/09 18:39:33","新北市樹林區中華路190-16號","121.411735","24.9806216666667","6500700","樹林區"
"238018","571-TV","2017/06/09 18:39:18","新北市樹林區樹新路50巷5弄9號","121.429725","24.997055","6500700","樹林區"
"238024","5061-A6","2017/06/09 18:39:26","新北市樹林區中山路二段72-2號","121.415406666667","24.983905","6500700","樹林區"
"238025","303-VK","2017/06/09 18:39:35","新北市樹林區中山路三段22號","121.395603333333","24.97302","6500700","樹林區"
"238014","282-BY","2017/06/09 18:39:20","新北市樹林區大安路111巷43號","121.423421666667","24.9976383333333","6500700","樹林區"
"238020","268-VK","2017/06/09 18:39:38","新北市樹林區俊安街42-1號","121.419541666667","25.0132783333333","6500700","樹林區"
"238026","172-UY","2017/06/09 18:39:20","新北市樹林區育德街78-1號","121.387573333333","24.968125","6500700","樹林區"
"238016","169-UY","2017/06/09 18:39:28","新北市樹林區文化街23號","121.419278333333","24.9876533333333","6500700","樹林區"
"239007","AAC-297","2017/06/09 18:39:31","新北市鶯歌區成功街20巷1號","121.35849","24.9576683333333","6500800","鶯歌區"
"239006","891-R6","2017/06/09 18:39:16","新北市鶯歌區鶯桃路296巷94弄36號","121.337775","24.9612266666667","6500800","鶯歌區"
"239008","527-UM","2017/06/09 18:39:37","新北市鶯歌區國際一路179號","121.336221666667","24.97649","6500800","鶯歌區"
"239005","526-UM","2017/06/09 18:39:16","新北市鶯歌區鶯桃路二段58號","121.325025","24.9729633333333","6500800","鶯歌區"
"239001","417-VK","2017/06/09 18:39:39","新北市樹林區八德街1-1號","121.341303333333","24.94793","6500800","鶯歌區"
"239003","360-BY","2017/06/09 18:39:27","新北市鶯歌區永和街55號","121.332673333333","24.967545","6500800","鶯歌區"
"239002","359-BY","2017/06/09 18:39:39","新北市鶯歌區中山路284號","121.344103333333","24.9569833333333","6500800","鶯歌區"
"239004","193-VK","2017/06/09 18:39:24","新北市鶯歌區中正三路156巷8-10號","121.332511666667","24.940905","6500800","鶯歌區"
"221036","130-UY","2017/06/09 18:39:24","新北市汐止區南昌街29號","121.663173333333","25.0691766666667","6501100","汐止區"
"221015","131-UY","2017/06/09 18:39:26","新北市汐止區吉祥街12巷12號","121.668895","25.08047","6501100","汐止區"
"221010","269-BY","2017/06/09 18:39:20","新北市汐止區汐萬路二段104號","121.648183333333","25.0841766666667","6501100","汐止區"
"221012","278-VK","2017/06/09 18:39:34","新北市汐止區吉祥街27巷2號","121.667401666667","25.0813633333333","6501100","汐止區"
"221023","279-VK","2017/06/09 16:03:35","新北市汐止區康寧街901號","121.651713333333","25.0750083333333","6501100","汐止區"
"221032","280-BY","2017/06/09 18:39:27","新北市汐止區民權街二段79號","121.619155","25.047985","6501100","汐止區"
"221002","281-BY","2017/06/09 18:39:31","新北市汐止區和平街3-1號","121.663445","25.0706633333333","6501100","汐止區"
"221038","297-VK","2017/06/09 18:39:23","新北市汐止區新台五路二段44號","121.660948333333","25.0656483333333","6501100","汐止區"
"221029","298-VK","2017/06/09 18:39:24","新北市汐止區樟樹一路138號","121.64222","25.064875","6501100","汐止區"
"221021","299-VK","2017/06/09 18:30:50","新北市汐止區新台五路一段131號","121.652513333333","25.06197","6501100","汐止區"
"221035","622-UM","2017/06/09 18:39:36","新北市汐止區大同路二段278號","121.654861666667","25.0662216666667","6501100","汐止區"
"221025","623-UM","2017/06/09 18:39:32","新北市汐止區福安街20巷21號","121.661758333333","25.0642983333333","6501100","汐止區"
"221033","647-BX","2017/06/09 18:39:27","新北市汐止區南勢街1巷1號","121.627016666667","25.037425","6501100","汐止區"
"221002","707-TV","2017/06/09 18:39:28","新北市汐止區中興路22-1號","121.63693","25.0596833333333","6501100","汐止區"
"221018","753-BX","2017/06/09 18:39:30","新北市汐止區茄苳路264號","121.671905","25.0681566666667","6501100","汐止區"
"220079","145-BY","2017/06/09 18:39:34","新北市板橋區大觀路一段35巷1號","121.449398333333","25.0084416666667","6500100","板橋區"
"220082","610-BX","2017/06/09 18:39:28","新北市板橋區華東街1-10號","121.448291666667","24.9949683333333","6500100","板橋區"
"220069","258-TC","2017/06/09 18:39:36","新北市板橋區民生路二段36-1號","121.472501666667","25.0166033333333","6500100","板橋區"
"220072","277-BY","2017/06/09 18:39:34","新北市板橋區華東街1-10號","121.448348333333","24.9950616666667","6500100","板橋區"
"220064","280-UM","2017/06/09 18:39:36","新北市板橋區民生路二段36-1號","121.472626666667","25.0165316666667","6500100","板橋區"
"220094","283-UM","2017/06/09 18:39:27","新北市板橋區民生路二段161巷1號","121.470185","25.020185","6500100","板橋區"
"220053","285-VK","2017/06/09 18:39:38","新北市板橋區民生路二段22號","121.472921666667","25.0165466666667","6500100","板橋區"
"220081","287-VK","2017/06/09 18:39:18","新北市板橋區華東街1-10號","121.448278333333","24.9949766666667","6500100","板橋區"
"220090","288-VK","2017/06/09 18:39:32","新北市板橋區民生路二段161巷9號","121.470348333333","25.0195133333333","6500100","板橋區"
"220061","293-UM","2017/06/09 18:39:31","新北市板橋區民生路二段17號","121.472623333333","25.0165066666667","6500100","板橋區"
"220084","296-UM","2017/06/09 18:39:27","新北市板橋區華東街1-9號","121.44817","24.9949333333333","6500100","板橋區"
"220097","299-UM","2017/06/09 16:28:20","新北市板橋區民生路二段161巷1號","121.470208333333","25.0198716666667","6500100","板橋區"
"220056","303-R5","2017/06/09 18:39:38","新北市板橋區中山路一段2號","121.459778333333","25.0076283333333","6500100","板橋區"
"220080","461-BY","2017/06/09 18:39:24","新北市板橋區華東街1-9號","121.448245","24.9948333333333","6500100","板橋區"
"220035","560-BX","2017/06/09 18:39:27","新北市板橋區華東街308號","121.45275","25.0031083333333","6500100","板橋區"
"220103","561-BX","2017/06/09 18:39:37","新北市板橋區民生路二段120號","121.470383333333","25.019675","6500100","板橋區"
"220063","609-BX","2017/06/09 17:00:03","新北市板橋區民生路二段36-1號","121.472671666667","25.016695","6500100","板橋區"
"220057","686-BX","2017/06/09 18:39:24","新北市板橋區民生路二段17號","121.47254","25.0164266666667","6500100","板橋區"
"220054","741-BX","2017/06/09 18:39:36","新北市板橋區民生路二段36-1號","121.472505","25.0167466666667","6500100","板橋區"
"220074","895-R6","2017/06/09 18:39:36","新北市板橋區華東街1-10號","121.448266666667","24.9949616666667","6500100","板橋區"
"220073","985-R7","2017/06/09 18:39:31","新北市板橋區華東街1-10號","121.448378333333","24.994995","6500100","板橋區"
