"lineid","car","time","location","longitude","latitude","cityid","cityname"
"234046","148-BY","2017/06/09 18:49:27","新北市永和區秀朗路二段126巷30號","121.524606666667","25.0007683333333","6500400","永和區"
"234013","149-BY","2017/06/09 18:49:26","新北市永和區保福路二段118號","121.509816666667","25.0139466666667","6500400","永和區"
"234007","207-UY","2017/06/09 18:49:26","新北市永和區復興街16巷4號","121.515308333333","25.0127","6500400","永和區"
"234081","298-R6","2017/06/09 18:49:29","新北市永和區永利路156號","121.522611666667","25.00297","6500400","永和區"
"234038","336-UY","2017/06/09 18:49:39","新北市永和區成功路二段126號","121.526591666667","24.9976366666667","6500400","永和區"
"234064","337-UY","2017/06/09 18:49:31","新北市永和區福和路8巷1號","121.525013333333","25.0090433333333","6500400","永和區"
"234086","338-UY","2017/06/09 18:49:35","新北市永和區中正路196號","121.515533333333","24.9972933333333","6500400","永和區"
"234070","552-UM","2017/06/09 18:49:27","新北市永和區竹林路96巷2號","121.519316666667","25.0121883333333","6500400","永和區"
"234054","553-UM","2017/06/09 18:49:20","新北市永和區竹林路64號","121.518343333333","25.0134816666667","6500400","永和區"
"234017","745-BX","2017/06/09 18:49:33","新北市永和區永和路二段303號","121.515955","25.01644","6500400","永和區"
"234030","746-BX","2017/06/09 18:49:28","新北市永和區得和路328號","121.52338","24.9994983333333","6500400","永和區"
"234061","AAD-866","2017/06/09 18:49:30","新北市永和區福和路309巷1號","121.51626","25.0069983333333","6500400","永和區"
"234042","862-TW","2017/06/09 18:49:20","新北市永和區永貞路304號","121.511903333333","25.004805","6500400","永和區"
"234050","863-TW","2017/06/09 18:49:17","新北市永和區環河西路一段111號","121.510925","25.0173816666667","6500400","永和區"
"234026","9371-KE","2017/06/09 18:49:24","新北市永和區自由街56號","121.513793333333","25.00606","6500400","永和區"
"234011","9373-KE","2017/06/09 18:49:19","新北市永和區文化路124號","121.513043333333","25.0153866666667","6500400","永和區"
"249005","172-UM","2017/06/09 18:49:26","新北市八里區長道坑17號","121.396858333333","25.1160533333333","6502300","八里區"
"249001","173-UM","2017/06/09 18:49:27","新北市八里區龍米路二段3-1號","121.448875","25.1390583333333","6502300","八里區"
"249004","303-UY","2017/06/09 18:49:19","新北市八里區挖子尾街16號","121.415358333333","25.164375","6502300","八里區"
"248014","025-BX","2017/06/09 18:49:38","新北市五股區成泰路二段252號","121.440505","25.0872533333333","6501500","五股區"
"248016","026-BX","2017/06/09 18:49:26","新北市五股區凌雲路一段133巷17號","121.44926","25.1014783333333","6501500","五股區"
"248006","077-UY","2017/06/09 18:49:30","新北市五股區四維路25號","121.467178333333","25.0708316666667","6501500","五股區"
"248008","095-VK","2017/06/09 18:49:20","新北市五股區中興路一段151巷1弄2號","121.465013333333","25.073105","6501500","五股區"
"248018","225-UY","2017/06/09 18:49:32","新北市五股區民義路二段37號","121.413221666667","25.1003333333333","6501500","五股區"
"248012","247-BX","2017/06/09 18:20:11","新北市五股區御史路1巷104號","121.441041666667","25.0918066666667","6501500","五股區"
"248002","678-BX","2017/06/09 18:49:29","新北市五股區成泰路三段437號","121.449841666667","25.0978183333333","6501500","五股區"
"248010","682-TV","2017/06/09 18:49:18","新北市五股區水碓一路61號","121.431588333333","25.07243","6501500","五股區"
"234023","9380-KE","2017/06/09 18:49:22","新北市永和區竹林路119巷22弄9號","121.522006666667","25.0114483333333","6500400","永和區"
"234077","969-R7","2017/06/09 18:49:32","新北市中和區景平路278巷16弄2號","121.51399","24.9934433333333","6500400","永和區"
"234074","AAC-211","2017/06/09 18:49:25","新北市永和區福和路1號","121.526436666667","25.0099416666667","6500400","永和區"
"234067","AAC-212","2017/06/09 18:49:30","新北市永和區永貞路198號","121.51589","25.0041516666667","6500400","永和區"
"234003","AAC-295","2017/06/09 18:46:58","新北市永和區福和路83號","121.522351666667","25.0078966666667","6500400","永和區"
"232008","290-BY","2017/06/09 09:12:37","新北市坪林區鶯子瀨9-8號","121.7098","24.9170066666667","6502000","坪林區"
"232011","375-UM","2017/06/09 18:49:33","新北市坪林區坪雙路一段1-1號","121.711231666667","24.9405633333333","6502000","坪林區"
"244007","080-UY","2017/06/09 18:49:31","新北市林口區太平里8-1號","121.380406666667","25.1140366666667","6501700","林口區"
"244019","403-UM","2017/06/09 18:49:16","新北市林口區忠孝路621號","121.379268333333","25.0685533333333","6501700","林口區"
"244013","742-UY","2017/06/09 18:49:34","新北市林口區文化一路二段92號","121.381655","25.0788183333333","6501700","林口區"
"244009","410-SL","2017/06/09 18:49:26","新北市林口區竹林路326巷80號","121.392683333333","25.0824433333333","6501700","林口區"
"244023","483-VK","2017/06/09 18:49:33","新北市林口區民權路106號","121.373731666667","25.0828116666667","6501700","林口區"
"244017","485-VK","2017/06/09 18:49:33","新北市林口區文化二路一段20巷25弄33號","121.365961666667","25.0676533333333","6501700","林口區"
"244011","701-TV","2017/06/09 18:49:26","新北市林口區仁愛路一段252號","121.394685","25.0760083333333","6501700","林口區"
"244025","837-TS","2017/06/09 18:49:23","新北市林口區南勢街149號","121.360005","25.0747933333333","6501700","林口區"
"243013","AAD-798","2017/06/09 18:49:22","新北市泰山區明志路三段206巷1號","121.423351666667","25.0379566666667","6501600","泰山區"
"243015","380-SR","2017/06/09 18:49:31","新北市泰山區美寧街57巷37弄2號","121.429235","25.0651066666667","6501600","泰山區"
"243014","421-VK","2017/06/09 09:19:47","新北市泰山區犁頭窠3-1號","121.42223","25.0606033333333","6501600","泰山區"
"243016","539-UM","2017/06/09 18:49:30","新北市泰山區泰林路二段47號","121.435495","25.0574466666667","6501600","泰山區"
"243012","646-TV","2017/06/09 18:49:22","新北市泰山區福興街22號","121.434245","25.0577216666667","6501600","泰山區"
"222002","016-RS","2017/06/09 17:47:30","新北市深坑區深坑街75號","121.61469","25.0012066666667","6501800","深坑區"
"222003","436-BY","2017/06/09 18:49:19","新北市深坑區翠谷街17巷30號","121.625888333333","25.009765","6501800","深坑區"
"222002","659-BX","2017/06/09 18:49:35","新北市深坑區文山路一段62巷3號","121.622945","25.0008783333333","6501800","深坑區"
"222001","696-SL","2017/06/09 18:49:29","新北市深坑區松柏街30巷2號","121.638593333333","25.0112616666667","6501800","深坑區"
"231041","002-UM","2017/06/09 18:49:23","新北市新店區安華路28-1號","121.519746666667","24.9608233333333","6500600","新店區"
"231056","0291-UT","2017/06/09 18:49:35","新北市新店區大豐路68巷5號","121.538911666667","24.9798466666667","6500600","新店區"
"231059","046-UY","2017/06/09 18:49:21","新北市新店區安華路28-1號","121.519501666667","24.960615","6500600","新店區"
"231061","047-UY","2017/06/09 18:49:28","新北市新店區安忠路8號","121.514723333333","24.9632366666667","6500600","新店區"
"231060","106-UY","2017/06/09 18:49:24","新北市新店區安華路28-1號","121.519628333333","24.9606933333333","6500600","新店區"
"231051","107-UY","2017/06/09 18:49:37","新北市新店區中央路57號","121.532793333333","24.9773433333333","6500600","新店區"
"231048","108-UY","2017/06/09 18:49:28","新北市新店區北新路二段39號","121.542783333333","24.9728033333333","6500600","新店區"
"231053","187-VK","2017/06/09 18:49:35","新北市新店區新烏路一段87巷65號","121.546021666667","24.9412083333333","6500600","新店區"
"231063","268-BY","2017/06/09 18:49:21","新北市新店區車子路109號","121.505243333333","24.952105","6500600","新店區"
"231046","278-BY","2017/06/09 18:49:17","新北市新店區直潭路41號","121.53374","24.9426133333333","6500600","新店區"
"231050","AAD-862","2017/06/09 18:49:26","新北市新店區安康路一段102號","121.527421666667","24.962435","6500600","新店區"
"231058","3712-VJ","2017/06/09 18:49:36","新北市新店區能仁街16號","121.540568333333","24.95543","6500600","新店區"
"231055","3713-VJ","2017/06/09 18:49:35","新北市新店區新生街53號","121.539031666667","24.9668833333333","6500600","新店區"
"231066","4715-K9","2017/06/09 18:49:24","新北市新店區安豐路22巷1號","121.501391666667","24.9561116666667","6500600","新店區"
"231067","4772-VM","2017/06/09 18:49:32","新北市新店區安康路一段76巷20-1號","121.528525","24.96324","6500600","新店區"
"231065","512-UM","2017/06/09 18:49:30","新北市新店區安豐路74號","121.496216666667","24.9526866666667","6500600","新店區"
"231054","513-UM","2017/06/09 18:49:31","新北市新店區北新路一段41號","121.538068333333","24.9593716666667","6500600","新店區"
"231064","515-UM","2017/06/09 16:32:53","新北市新店區安華路28-1號","121.519668333333","24.9610316666667","6500600","新店區"
"231045","617-UM","2017/06/09 18:49:24","新北市新店區安康路一段164-1號","121.526043333333","24.9630516666667","6500600","新店區"
"231040","619-UM","2017/06/09 18:49:27","新北市新店區力行路15號","121.537065","24.9659616666667","6500600","新店區"
"231042","641-BX","2017/06/09 18:49:30","新北市新店區中正路71號","121.543471666667","24.9698766666667","6500600","新店區"
"231049","719-UM","2017/06/09 18:49:38","新北市新店區中正路454-5號","121.534468333333","24.9790416666667","6500600","新店區"
"231062","720-UM","2017/06/09 18:49:12","新北市新店區安忠路57巷11弄2號","121.513733333333","24.95756","6500600","新店區"
"231044","897-TW","2017/06/09 18:49:25","新北市新店區北新路一段89號","121.538475","24.9616583333333","6500600","新店區"
"231043","899-TW","2017/06/09 18:49:19","新北市新店區安康路一段104號","121.527361666667","24.9625466666667","6500600","新店區"
"235066","003-UY","2017/06/09 18:49:37","新北市中和區水源路18巷4號","121.50402","25.0031983333333","6500300","中和區"
"235064","005-UY","2017/06/09 18:49:34","新北市中和區景平路533號","121.498806666667","24.9991616666667","6500300","中和區"
"235063","006-UY","2017/06/09 18:49:24","新北市中和區連城路391號","121.486456666667","24.996165","6500300","中和區"
"235039","097-UM","2017/06/09 18:49:27","新北市永和區中正路15號","121.51402","24.9958633333333","6500300","中和區"
"235065","098-UM","2017/06/09 18:49:26","新北市中和區莊敬路33巷48號","121.500461666667","25.0070233333333","6500300","中和區"
"235040","150-BY","2017/06/09 18:49:29","新北市中和區保健路106巷4弄2號","121.512273333333","24.9957033333333","6500300","中和區"
"235058","151-BY","2017/06/09 18:49:27","新北市中和區員山路75號","121.480828333333","24.994005","6500300","中和區"
"235055","183-VK","2017/06/09 18:49:22","新北市中和區中山路三段229巷7號","121.470623333333","25.0063616666667","6500300","中和區"
"235038","185-VK","2017/06/09 18:49:25","新北市中和區自強路62巷7號","121.519446666667","24.994525","6500300","中和區"
"235049","186-VK","2017/06/09 18:49:32","新北市中和區明義街11巷12弄1號","121.503641666667","24.9946333333333","6500300","中和區"
"235067","255-BX","2017/06/09 18:49:34","新北市中和區中山路二段449巷1弄11號","121.483923333333","25.003975","6500300","中和區"
"235044","293-VK","2017/06/09 18:49:27","新北市中和區復興路280巷19號","121.502181666667","24.99162","6500300","中和區"
"235072","301-VK","2017/06/09 18:49:24","新北市中和區連城路87號","121.49668","25.0002666666667","6500300","中和區"
"235043","352-BY","2017/06/09 18:49:26","新北市中和區成功路139號","121.525915","24.9906466666667","6500300","中和區"
"235051","376-QA","2017/06/09 18:49:27","新北市中和區華新街143巷106弄35號","121.506991666667","24.97863","6500300","中和區"
"235068","377-QA","2017/06/09 18:49:30","新北市中和區中正路161巷2號","121.498416666667","24.9934966666667","6500300","中和區"
"235061","378-QA","2017/06/09 18:49:39","新北市中和區民享街30巷9號","121.473538333333","25.00348","6500300","中和區"
"235050","4979-A6","2017/06/09 18:49:29","新北市中和區忠孝街62巷7弄2號","121.513026666667","24.9837366666667","6500300","中和區"
"235069","4980-A6","2017/06/09 18:49:33","新北市中和區南山路52巷21號","121.501271666667","24.9972166666667","6500300","中和區"
"235042","551-UM","2017/06/09 18:49:35","新北市中和區秀朗路三段121巷2號","121.525745","24.99334","6500300","中和區"
"235070","558-UM","2017/06/09 18:48:41","新北市中和區南華路41號","121.503743333333","24.996545","6500300","中和區"
"235045","565-BX","2017/06/09 18:49:30","新北市中和區南山路204號","121.506063333333","24.9903466666667","6500300","中和區"
"235054","640-BX","2017/06/09 18:49:19","新北市中和區民享街54巷6號","121.47368","25.00245","6500300","中和區"
"235060","647-TV","2017/06/09 18:49:16","新北市中和區中山路三段39-2號","121.477685","25.005525","6500300","中和區"
"235047","732-UM","2017/06/09 18:49:27","新北市中和區興南路二段34巷44號","121.504801666667","24.9858383333333","6500300","中和區"
"235046","733-UM","2017/06/09 18:49:23","新北市中和區興南路一段85巷39號","121.510383333333","24.9880433333333","6500300","中和區"
"235071","783-BX","2017/06/09 18:49:27","新北市中和區員山路36巷16-3號","121.485223333333","24.9911766666667","6500300","中和區"
"235062","800-TS","2017/06/09 18:49:29","新北市中和區中山路二段312巷35號","121.495088333333","25.00387","6500300","中和區"
"235057","801-TS","2017/06/09 18:49:29","新北市中和區員山路327巷21號","121.480591666667","25.0016566666667","6500300","中和區"
"235041","802-TS","2017/06/09 18:49:24","新北市中和區景安路79巷29號","121.507151666667","24.9965266666667","6500300","中和區"
"235052","805-TS","2017/06/09 18:49:21","新北市中和區興南路三段1號","121.498416666667","24.9797466666667","6500300","中和區"
"235048","896-TW","2017/06/09 18:49:35","新北市中和區南山路272號","121.507918333333","24.9881483333333","6500300","中和區"
"235053","900-TW","2017/06/09 18:49:30","新北市中和區華安街16巷45號","121.466633333333","24.9977833333333","6500300","中和區"
"235037","AAC-213","2017/06/09 18:49:32","新北市中和區景平路111巷19-1號","121.516268333333","24.9906116666667","6500300","中和區"
"235059","AAC-215","2017/06/09 18:49:27","新北市中和區圓通路393巷11號","121.489908333333","24.98861","6500300","中和區"
"220068","013-TV","2017/06/09 18:49:28","新北市板橋區民生路二段46號","121.472311666667","25.017515","6500100","板橋區"
"220065","072-UY","2017/06/09 18:49:21","新北市板橋區民生路二段30號","121.47266","25.0171033333333","6500100","板橋區"
"220086","073-UY","2017/06/09 18:49:36","新北市板橋區南雅西路二段180巷22號","121.452535","25.0138266666667","6500100","板橋區"
"220106","075-UY","2017/06/09 18:49:21","新北市板橋區民生路二段89-6號","121.470471666667","25.019385","6500100","板橋區"
"220096","120-SR","2017/06/09 18:49:20","新北市板橋區民生路二段120號","121.470351666667","25.0196866666667","6500100","板橋區"
"247006","341-TH","2017/06/09 18:49:16","新北市五股區新五路二段279號","121.442831666667","25.08605","6501400","蘆洲區"
"247014","057-VK","2017/06/09 18:34:23","新北市五股區中興路三段163號","121.449253333333","25.0807133333333","6501400","蘆洲區"
"226004","312-R5","2017/06/09 18:49:32","新北市平溪區嶺腳里嶺腳寮9-1號","121.747471666667","25.0297683333333","6502400","平溪區"
"223004","660-BX","2017/06/09 15:01:20","新北市石碇區小粗坑(潭邊里)9-2號","121.678666666667","24.9855083333333","6501900","石碇區"
"228002","663-BX","2017/06/09 18:49:32","新北市貢寮區福隆里東興街6-11號","121.950755","25.0210733333333","6502600","貢寮區"
"228001","670-TC","2017/06/09 18:49:25","新北市貢寮區仁理村研海街12-1號","121.923831666667","25.051765","6502600","貢寮區"
"228003","828-UM","2017/06/09 18:48:08","新北市貢寮區和美里龍洞街42號","121.912736666667","25.1131833333333","6502600","貢寮區"
"224006","676-BX","2017/06/09 18:49:37","新北市瑞芳區中正路65號","121.806118333333","25.1074366666667","6501200","瑞芳區"
"224009","285-BY","2017/06/09 18:49:21","新北市瑞芳區祈堂路53-1號","121.859535","25.110465","6501200","瑞芳區"
"224008","275-VK","2017/06/09 18:49:36","新北市瑞芳區逢甲路412-2號","121.79791","25.1143516666667","6501200","瑞芳區"
"224007","273-VK","2017/06/09 18:49:30","新北市瑞芳區大埔路259號","121.76236","25.101","6501200","瑞芳區"
"224005","271-BY","2017/06/09 18:49:31","新北市瑞芳區濱二路66-6號","121.831516666667","25.1197483333333","6501200","瑞芳區"
"227003","642-TC","2017/06/09 18:49:25","新北市雙溪區平林里梅竹蹊26號","121.861671666667","25.036045","6502500","雙溪區"
"227011","400-TW","2017/06/09 18:49:21","新北市雙溪區牡丹里聖南14號","121.858745","25.0527733333333","6502500","雙溪區"
"253006","032-BX","2017/06/09 18:49:31","新北市石門區下員坑15-13號","121.512381666667","25.2841166666667","6502200","石門區"
"253005","295-VK","2017/06/09 18:49:30","新北市石門區中山路28-1號","121.565801666667","25.2899783333333","6502200","石門區"
"208001","742-BX","2017/06/09 18:49:26","新北市金山區文化三路62號","121.634325","25.2256083333333","6502700","金山區"
"208003","665-BX","2017/06/09 18:49:28","新北市金山區中山路393號","121.633406666667","25.2251783333333","6502700","金山區"
"251009","008-UM","2017/06/09 18:44:11","新北市淡水區中山北路一段211號","121.44439","25.1791183333333","6501000","淡水區"
"251013","180-VK","2017/06/09 18:49:28","新北市淡水區安子內5-2號","121.48286","25.2143566666667","6501000","淡水區"
"251008","181-VK","2017/06/09 18:49:37","新北市淡水區中山北路三段163號","121.445395","25.19671","6501000","淡水區"
"251015","182-VK","2017/06/09 18:49:25","新北市淡水區糞箕湖50號","121.485375","25.1712366666667","6501000","淡水區"
"251010","413-VK","2017/06/09 18:49:25","新北市淡水區沙崙路9號","121.421096666667","25.18121","6501000","淡水區"
"251012","441-VK","2017/06/09 18:49:33","新北市淡水區新興街1號","121.44396","25.1801133333333","6501000","淡水區"
"251001","559-UM","2017/06/09 18:49:30","新北市淡水區自強路60號","121.463063333333","25.1275483333333","6501000","淡水區"
"251011","650-BX","2017/06/09 18:49:23","新北市淡水區中正東路一段105巷1號","121.453396666667","25.1602766666667","6501000","淡水區"
"251002","672-BX","2017/06/09 18:49:21","新北市淡水區學府路63號","121.448328333333","25.169525","6501000","淡水區"
"251003","673-BX","2017/06/09 18:49:30","新北市淡水區中山北路一段149巷31號","121.443098333333","25.17789","6501000","淡水區"
"207003","550-UM","2017/06/09 18:49:26","新北市萬里區大鵬里頂社1號","121.657023333333","25.2096983333333","6502800","萬里區"
"207004","225-TW","2017/06/09 18:49:28","新北市萬里區萬里里獅頭路23號","121.693251666667","25.1782633333333","6502800","萬里區"
"252002","178-VK","2017/06/09 18:49:32","新北市三芝區中正路一段101-1號","121.504731666667","25.2563933333333","6502100","三芝區"
"252003","249-BX","2017/06/09 18:49:34","新北市三芝區後厝里大片頭83-5號","121.458903333333","25.2439266666667","6502100","三芝區"
"252001","292-VK","2017/06/09 18:49:29","新北市三芝區中正路三段9號","121.502928333333","25.2539633333333","6502100","三芝區"
"208002","170-UY","2017/06/09 18:49:23","新北市金山區信義路62號","121.635683333333","25.2189916666667","6502700","金山區"
"237004","078-UY","2017/06/09 18:49:32","新北市三峽區有木205-1號","121.43903","24.851545","6500900","三峽區"
"237007","153-BY","2017/06/09 18:49:19","新北市三峽區大埔路102號","121.366433333333","24.9068116666667","6500900","三峽區"
"237013","252-BX","2017/06/09 18:49:20","新北市三峽區大同路52號","121.376853333333","24.9291283333333","6500900","三峽區"
"237012","275-BY","2017/06/09 18:49:25","新北市三峽區三樹路340號","121.383975","24.9432966666667","6500900","三峽區"
"237008","302-VK","2017/06/09 18:49:36","新北市三峽區正義街123號","121.368555","24.9168583333333","6500900","三峽區"
"237014","433-BY","2017/06/09 18:49:30","新北市三峽區隆恩街551號","121.357555","24.9401466666667","6500900","三峽區"
"237006","5529-G3","2017/06/09 18:49:19","新北市三峽區溪東路233巷4弄13號","121.407131666667","24.9337566666667","6500900","三峽區"
"237011","572-TV","2017/06/09 18:49:24","新北市三峽區介壽路三段26-1號","121.395893333333","24.9366066666667","6500900","三峽區"
"237015","649-BX","2017/06/09 18:49:32","新北市三峽區建安153號","121.467658333333","24.9106083333333","6500900","三峽區"
"237010","706-TV","2017/06/09 18:49:36","新北市三峽區國光街364巷1號","121.370986666667","24.9398816666667","6500900","三峽區"
"237005","AKY-6261","2017/06/09 18:49:34","新北市三峽區中山路167-1號","121.3644","24.9365116666667","6500900","三峽區"
"236072","105-UM","2017/06/09 18:49:25","新北市土城區明德路一段14號","121.465016666667","24.9851166666667","6501300","土城區"
"236043","107-UM","2017/06/09 18:49:20","新北市土城區裕民路92巷25弄4號","121.449561666667","24.9858366666667","6501300","土城區"
"236079","166-UM","2017/06/09 18:49:26","新北市土城區中央路四段67巷60-13號","121.416986666667","24.95606","6501300","土城區"
"236031","253-BX","2017/06/09 18:49:31","新北市土城區忠義路36巷14號","121.43991","24.96985","6501300","土城區"
"236027","269-VK","2017/06/09 18:49:32","新北市土城區興城路74號","121.441101666667","24.972055","6501300","土城區"
"236015","270-VK","2017/06/09 18:49:31","新北市土城區清水路235巷1弄6號","121.461","24.98303","6501300","土城區"
"236039","271-VK","2017/06/09 18:49:30","新北市土城區明德路一段221巷5號","121.463746666667","24.9781083333333","6501300","土城區"
"236022","401-BY","2017/06/09 18:49:39","新北市土城區延吉街239號","121.46783","24.9848516666667","6501300","土城區"
"236059","912-UM","2017/06/09 18:49:28","新北市土城區中央路三段139號","121.433503333333","24.965485","6501300","土城區"
"236050","913-UM","2017/06/09 18:49:36","新北市土城區青雲路10-1號","121.460166666667","24.9889066666667","6501300","土城區"
"236063","915-UM","2017/06/09 18:49:38","新北市土城區延壽路13巷24號","121.470396666667","24.9910733333333","6501300","土城區"
"236055","AAC-216","2017/06/09 18:49:34","新北市土城區裕民路157-1號","121.452313333333","24.98582","6501300","土城區"
"242034","133-UY","2017/06/09 18:49:28","新北市樹林區太平路247巷30號","121.42196","24.9745383333333","6500500","新莊區"
"242044","172-VK","2017/06/09 18:49:36","新北市泰山區新北大道六段385號","121.421801666667","25.0324366666667","6500500","新莊區"
"242054","349-TH","2017/06/09 18:49:30","新北市板橋區大觀路三段59巷15號","121.434338333333","24.99536","6500500","新莊區"
"238023","601-UM","2017/06/09 18:49:34","新北市樹林區三福街114號","121.40651","25.016355","6500700","樹林區"
"238019","599-UM","2017/06/09 18:49:33","新北市樹林區東榮街165號","121.414041666667","24.9814883333333","6500700","樹林區"
"238018","571-TV","2017/06/09 18:49:18","新北市樹林區鎮前街25號","121.425811666667","24.9924883333333","6500700","樹林區"
"238024","5061-A6","2017/06/09 18:49:26","新北市樹林區太元街51號","121.418661666667","24.9791883333333","6500700","樹林區"
"238022","312-TH","2017/06/09 18:49:30","新北市樹林區中華路377號","121.412353333333","24.9802416666667","6500700","樹林區"
"238025","303-VK","2017/06/09 18:49:35","新北市樹林區中山路三段22號","121.395531666667","24.9729516666667","6500700","樹林區"
"238014","282-BY","2017/06/09 18:49:20","新北市樹林區大安路111巷41號","121.423345","24.9976783333333","6500700","樹林區"
"238020","268-VK","2017/06/09 18:49:35","新北市樹林區俊英街280號","121.42376","25.0133083333333","6500700","樹林區"
"238026","172-UY","2017/06/09 18:49:20","新北市樹林區信和街138號","121.386778333333","24.9743016666667","6500700","樹林區"
"238016","169-UY","2017/06/09 18:49:28","新北市樹林區文化街23號","121.419285","24.9876166666667","6500700","樹林區"
"239007","AAC-297","2017/06/09 18:49:31","新北市鶯歌區中正一路221號","121.354063333333","24.957355","6500800","鶯歌區"
"239006","891-R6","2017/06/09 18:49:37","新北市鶯歌區鶯桃路167號","121.337111666667","24.9553016666667","6500800","鶯歌區"
"239008","527-UM","2017/06/09 18:49:17","新北市鶯歌區國際一路120巷2號","121.33663","24.9758516666667","6500800","鶯歌區"
"239005","526-UM","2017/06/09 18:49:16","新北市鶯歌區鳳吉一街210-1號","121.330256666667","24.976305","6500800","鶯歌區"
"239001","417-VK","2017/06/09 18:49:19","新北市鶯歌區永明街13號","121.338395","24.9552533333333","6500800","鶯歌區"
"239003","360-BY","2017/06/09 18:49:27","新北市鶯歌區鶯桃路534號","121.331303333333","24.967055","6500800","鶯歌區"
"239002","359-BY","2017/06/09 18:49:39","新北市鶯歌區中正一路356號","121.358011666667","24.9569133333333","6500800","鶯歌區"
"239004","193-VK","2017/06/09 18:49:24","新北市鶯歌區中正三路230巷6號","121.330753333333","24.9383266666667","6500800","鶯歌區"
"221036","130-UY","2017/06/09 18:49:24","新北市汐止區忠孝東路314巷19弄14號","121.665026666667","25.068555","6501100","汐止區"
"221015","131-UY","2017/06/09 18:49:26","新北市汐止區鄉長路一段55巷22號","121.66479","25.0763116666667","6501100","汐止區"
"221010","269-BY","2017/06/09 18:49:20","新北市汐止區康寧街901號","121.651546666667","25.0750333333333","6501100","汐止區"
"221012","278-VK","2017/06/09 18:49:34","新北市汐止區康寧街901號","121.650823333333","25.0752466666667","6501100","汐止區"
"221023","279-VK","2017/06/09 16:03:35","新北市汐止區康寧街901號","121.651713333333","25.0750083333333","6501100","汐止區"
"221032","280-BY","2017/06/09 18:49:27","新北市汐止區橫科路121巷52弄3號","121.622656666667","25.0509516666667","6501100","汐止區"
"221002","281-BY","2017/06/09 18:49:31","新北市汐止區汐萬路一段266號","121.651248333333","25.0737083333333","6501100","汐止區"
"221038","297-VK","2017/06/09 18:49:23","新北市汐止區汐萬路一段220號","121.651878333333","25.0727116666667","6501100","汐止區"
"221029","298-VK","2017/06/09 18:49:24","新北市汐止區樟樹一路2巷59號","121.641931666667","25.06303","6501100","汐止區"
"221021","299-VK","2017/06/09 18:42:30","新北市汐止區新興路43號","121.657076666667","25.0632916666667","6501100","汐止區"
"221035","622-UM","2017/06/09 18:49:36","新北市汐止區禮門街10號","121.65675","25.067665","6501100","汐止區"
"221025","623-UM","2017/06/09 18:49:32","新北市汐止區秀峰路6巷2號","121.659156666667","25.06686","6501100","汐止區"
"221033","647-BX","2017/06/09 18:49:27","新北市汐止區南勢街1巷1號","121.627071666667","25.0374883333333","6501100","汐止區"
"221002","707-TV","2017/06/09 18:49:28","新北市汐止區大同路一段166號","121.63436","25.0574666666667","6501100","汐止區"
"221018","753-BX","2017/06/09 18:49:30","新北市汐止區茄苳路66號","121.666583333333","25.0705783333333","6501100","汐止區"
"220079","145-BY","2017/06/09 18:49:34","新北市板橋區民權路202巷5弄1號","121.459818333333","25.0144533333333","6500100","板橋區"
"220093","146-RM","2017/06/09 18:49:21","新北市板橋區民生路二段120號","121.470483333333","25.01947","6500100","板橋區"
"220082","610-BX","2017/06/09 18:49:28","新北市板橋區篤行路二段92-2號","121.431608333333","24.9915933333333","6500100","板橋區"
"220101","245-BX","2017/06/09 18:49:14","新北市板橋區民生路二段180號","121.471005","25.0202383333333","6500100","板橋區"
"220069","258-TC","2017/06/09 18:49:36","新北市板橋區觀光街4巷2弄1號","121.47235","25.0158616666667","6500100","板橋區"
"220072","277-BY","2017/06/09 18:49:34","新北市板橋區金門街31巷19號","121.434263333333","24.9938783333333","6500100","板橋區"
"220064","280-UM","2017/06/09 18:49:36","新北市板橋區民生路二段36-1號","121.472363333333","25.0168166666667","6500100","板橋區"
"220094","283-UM","2017/06/09 18:49:27","新北市板橋區民生路二段120號","121.47045","25.0197733333333","6500100","板橋區"
"220071","283-VK","2017/06/09 18:49:29","新北市板橋區民生路二段15號","121.472648333333","25.0161733333333","6500100","板橋區"
"220091","285-UM","2017/06/09 18:49:35","新北市板橋區民生路二段161巷1號","121.47017","25.02018","6500100","板橋區"
"220053","285-VK","2017/06/09 18:49:38","新北市板橋區民生路二段48號","121.472298333333","25.0178116666667","6500100","板橋區"
"220083","286-VK","2017/06/09 18:49:29","新北市板橋區大觀路二段22巷35號","121.444908333333","25.003575","6500100","板橋區"
"220081","287-VK","2017/06/09 18:49:18","新北市板橋區大觀路一段28巷6號","121.450051666667","25.0087983333333","6500100","板橋區"
"220090","288-VK","2017/06/09 18:49:32","新北市板橋區民生路二段161巷9號","121.470175","25.01955","6500100","板橋區"
"220061","293-UM","2017/06/09 18:49:31","新北市板橋區民生路二段36-1號","121.472365","25.0169266666667","6500100","板橋區"
"220084","296-UM","2017/06/09 18:49:27","新北市板橋區大觀路二段148巷1-1號","121.441718333333","24.9991066666667","6500100","板橋區"
"220075","297-UM","2017/06/09 18:49:17","新北市板橋區華東街308號","121.452781666667","25.003155","6500100","板橋區"
"220097","299-UM","2017/06/09 18:49:32","新北市板橋區民生路二段89-6號","121.470533333333","25.01939","6500100","板橋區"
"220056","303-R5","2017/06/09 18:49:38","新北市板橋區四川路二段97號","121.45261","24.9947483333333","6500100","板橋區"
"220062","305-R5","2017/06/09 15:33:35","新北市板橋區民生路二段15-1號","121.47284","25.0163766666667","6500100","板橋區"
"220092","307-R5","2017/06/09 18:49:24","新北市板橋區民生路二段161巷3號","121.47027","25.0198083333333","6500100","板橋區"
"220098","317-R6","2017/06/09 18:49:35","新北市板橋區民生路二段120號","121.470483333333","25.0195583333333","6500100","板橋區"
"220080","461-BY","2017/06/09 18:49:24","新北市板橋區大觀路二段265巷72弄1號","121.442421666667","24.9968166666667","6500100","板橋區"
"220089","487-VK","2017/06/09 18:49:28","新北市板橋區民生路二段120號","121.470546666667","25.0195633333333","6500100","板橋區"
"220088","491-VK","2017/06/09 18:48:59","新北市板橋區民生路二段161巷1號","121.47014","25.0198816666667","6500100","板橋區"
"220035","560-BX","2017/06/09 18:49:27","新北市板橋區中正路275巷77號","121.452376666667","25.018095","6500100","板橋區"
"220103","561-BX","2017/06/09 18:49:37","新北市板橋區民生路二段120號","121.470533333333","25.0195133333333","6500100","板橋區"
"220063","609-BX","2017/06/09 17:00:03","新北市板橋區民生路二段36-1號","121.472671666667","25.016695","6500100","板橋區"
"220057","686-BX","2017/06/09 18:49:24","新北市板橋區民生路二段17號","121.472575","25.0165033333333","6500100","板橋區"
"220077","687-BX","2017/06/09 18:49:31","新北市板橋區大觀路二段174巷165弄2號","121.44188","25.0033666666667","6500100","板橋區"
"220054","741-BX","2017/06/09 18:49:36","新北市板橋區觀光街4巷2弄1號","121.472386666667","25.0158966666667","6500100","板橋區"
"220055","827-TW","2017/06/09 18:49:24","新北市板橋區民生路二段15-1號","121.472718333333","25.0164283333333","6500100","板橋區"
"220067","829-TW","2017/06/09 18:49:31","新北市板橋區民生路二段17號","121.472553333333","25.0163516666667","6500100","板橋區"
"220102","830-TW","2017/06/09 15:42:26","新北市板橋區民生路二段120號","121.470373333333","25.0196416666667","6500100","板橋區"
"220074","895-R6","2017/06/09 18:49:36","新北市板橋區南雅南路二段1-1號","121.45475","25.0038016666667","6500100","板橋區"
"220073","985-R7","2017/06/09 18:49:31","新北市板橋區館前西路47號","121.457986666667","25.006925","6500100","板橋區"
"220070","AAC-253","2017/06/09 18:49:21","新北市板橋區民生路二段36-1號","121.472561666667","25.0166816666667","6500100","板橋區"
