"lineid","car","time","location","longitude","latitude","cityid","cityname"
"234046","148-BY","2017/06/09 19:59:27","新北市永和區永利路226號","121.523645","25.0025016666667","6500400","永和區"
"234013","149-BY","2017/06/09 19:59:30","新北市永和區仁愛路295號","121.505263333333","25.00923","6500400","永和區"
"234007","207-UY","2017/06/09 19:59:26","新北市永和區保生路22巷8號","121.507145","25.0079883333333","6500400","永和區"
"234081","298-R6","2017/06/09 19:59:21","新北市永和區永利路81巷15號","121.52212","25.0037283333333","6500400","永和區"
"234038","336-UY","2017/06/09 19:59:25","新北市永和區成功路一段130號","121.526753333333","25.0021133333333","6500400","永和區"
"234064","337-UY","2017/06/09 19:59:31","新北市永和區中正路412巷2弄11號","121.518501666667","25.0019716666667","6500400","永和區"
"234086","338-UY","2017/06/09 19:59:36","新北市永和區福和路285號","121.517401666667","25.00744","6500400","永和區"
"234070","552-UM","2017/06/09 19:59:27","新北市永和區福和路278號","121.517771666667","25.0074783333333","6500400","永和區"
"234054","553-UM","2017/06/09 19:59:33","新北市永和區博愛街47巷1號","121.519411666667","25.0159066666667","6500400","永和區"
"234017","745-BX","2017/06/09 19:59:33","新北市永和區文化路5號","121.515511666667","25.0149866666667","6500400","永和區"
"234030","746-BX","2017/06/09 19:59:34","新北市永和區民權路49巷5弄4號","121.520573333333","24.99748","6500400","永和區"
"234061","AAD-866","2017/06/09 19:59:30","新北市永和區中正路283巷64弄2號","121.516105","24.9997116666667","6500400","永和區"
"234042","862-TW","2017/06/09 19:59:29","新北市永和區中和路421巷16弄7號","121.508723333333","25.0011983333333","6500400","永和區"
"234050","863-TW","2017/06/09 19:59:17","新北市永和區保安路123號","121.507618333333","25.0136633333333","6500400","永和區"
"234026","9371-KE","2017/06/09 19:59:24","新北市永和區永貞路267號","121.511828333333","25.0046833333333","6500400","永和區"
"234011","9373-KE","2017/06/09 19:59:19","新北市永和區仁愛路352巷122弄42號","121.500836666667","25.009425","6500400","永和區"
"249005","172-UM","2017/06/09 19:59:26","新北市八里區楓林路1-11號","121.385328333333","25.1313016666667","6502300","八里區"
"249001","173-UM","2017/06/09 19:59:24","新北市八里區中華路二段310號","121.403871666667","25.14846","6502300","八里區"
"249004","303-UY","2017/06/09 19:59:21","新北市八里區中華路一段333-1號","121.413298333333","25.1538416666667","6502300","八里區"
"249002","305-UY","2017/06/09 19:59:26","新北市八里區龍米路一段87巷31-12號","121.453115","25.1230666666667","6502300","八里區"
"249003","593-UM","2017/06/09 19:59:37","新北市八里區訊塘路7號","121.398066666667","25.144735","6502300","八里區"
"248014","025-BX","2017/06/09 19:59:33","新北市五股區五福路22巷2號","121.43445","25.0889183333333","6501500","五股區"
"248016","026-BX","2017/06/09 19:59:26","新北市五股區成泰路三段577巷80弄25號","121.449653333333","25.1045466666667","6501500","五股區"
"248008","095-VK","2017/06/09 19:59:40","新北市五股區四維路30巷17號","121.467938333333","25.0715116666667","6501500","五股區"
"248018","225-UY","2017/06/09 19:59:32","新北市五股區登林路97-1號","121.41682","25.0751366666667","6501500","五股區"
"248012","247-BX","2017/06/09 19:54:35","新北市五股區民義路一段22巷1號","121.43743","25.0837366666667","6501500","五股區"
"248002","678-BX","2017/06/09 19:59:29","新北市五股區成泰路三段436號","121.450855","25.09949","6501500","五股區"
"248010","682-TV","2017/06/09 19:59:18","新北市五股區登林路75號","121.428305","25.0699566666667","6501500","五股區"
"234023","9380-KE","2017/06/09 19:59:22","新北市永和區中正路660-1號","121.516953333333","25.008795","6500400","永和區"
"234077","969-R7","2017/06/09 19:59:32","新北市永和區民有街23巷1號","121.516851666667","24.9964083333333","6500400","永和區"
"234074","AAC-211","2017/06/09 19:59:25","新北市永和區豫溪街207巷1號","121.523498333333","25.0099283333333","6500400","永和區"
"234067","AAC-212","2017/06/09 19:59:30","新北市永和區永貞路406巷22號","121.509665","25.0079","6500400","永和區"
"234003","AAC-295","2017/06/09 19:57:38","新北市永和區中正路637號","121.515373333333","25.0100766666667","6500400","永和區"
"232008","290-BY","2017/06/09 09:12:37","新北市坪林區鶯子瀨9-8號","121.7098","24.9170066666667","6502000","坪林區"
"243013","AAD-798","2017/06/09 19:59:21","新北市泰山區應化街7號","121.423876666667","25.0437266666667","6501600","泰山區"
"243009","297-R6","2017/06/09 19:59:32","新北市泰山區楓江路16巷17號","121.43402","25.0616416666667","6501600","泰山區"
"243015","380-SR","2017/06/09 19:59:31","新北市泰山區明志路二段214巷9號","121.426771666667","25.04879","6501600","泰山區"
"243014","421-VK","2017/06/09 19:59:35","新北市泰山區明志路一段180號","121.433003333333","25.062275","6501600","泰山區"
"243016","539-UM","2017/06/09 19:58:50","新北市泰山區中山路二段841號","121.425705","25.035525","6501600","泰山區"
"243010","548-UM","2017/06/09 19:59:23","新北市泰山區中華街9號","121.427876666667","25.0524766666667","6501600","泰山區"
"243011","549-UM","2017/06/09 19:59:36","新北市泰山區明志路三段182巷58號","121.42273","25.0398216666667","6501600","泰山區"
"243012","646-TV","2017/06/09 19:59:22","新北市泰山區全興路182號","121.433183333333","25.057425","6501600","泰山區"
"222002","016-RS","2017/06/09 17:47:30","新北市深坑區深坑街75號","121.61469","25.0012066666667","6501800","深坑區"
"222003","436-BY","2017/06/09 19:59:39","新北市深坑區埔新街14號","121.620733333333","25.0039616666667","6501800","深坑區"
"222002","659-BX","2017/06/09 19:59:35","新北市深坑區北深路二段81巷8弄3號","121.61829","25.0030316666667","6501800","深坑區"
"222001","696-SL","2017/06/09 19:59:28","新北市深坑區北深路三段143號","121.60367","25.0027516666667","6501800","深坑區"
"231041","002-UM","2017/06/09 19:59:02","新北市新店區中正路358號","121.535641666667","24.9757216666667","6500600","新店區"
"231056","0291-UT","2017/06/09 19:59:35","新北市新店區北新路二段187-1號","121.542736666667","24.9777616666667","6500600","新店區"
"231059","046-UY","2017/06/09 19:59:21","新北市新店區安康路二段147號","121.511261666667","24.959925","6500600","新店區"
"231061","047-UY","2017/06/09 19:59:28","新北市新店區安興路57號","121.516386666667","24.9720666666667","6500600","新店區"
"231060","106-UY","2017/06/09 19:59:23","新北市新店區安康路二段341巷11號","121.497551666667","24.9554616666667","6500600","新店區"
"231051","107-UY","2017/06/09 19:59:37","新北市新店區中央五街22號","121.52939","24.9744633333333","6500600","新店區"
"231048","108-UY","2017/06/09 19:59:27","新北市新店區寶宏路38號","121.549511666667","24.9755883333333","6500600","新店區"
"231053","187-VK","2017/06/09 19:59:35","新北市新店區新烏路三段157號","121.550871666667","24.9015133333333","6500600","新店區"
"231057","256-BX","2017/06/09 19:59:19","新北市新店區花園二路一段11號","121.55551","24.93249","6500600","新店區"
"231063","268-BY","2017/06/09 19:59:21","新北市新店區車子路11號","121.503098333333","24.951965","6500600","新店區"
"231046","278-BY","2017/06/09 19:59:37","新北市新店區環河路190號","121.524616666667","24.9760433333333","6500600","新店區"
"231050","AAD-862","2017/06/09 19:59:26","新北市新店區中生路61號","121.564753333333","24.9521616666667","6500600","新店區"
"231055","3713-VJ","2017/06/09 19:59:35","新北市新店區中華路83巷67號","121.538333333333","24.9672516666667","6500600","新店區"
"231065","512-UM","2017/06/09 19:59:30","新北市新店區安祥路109巷61號","121.477226666667","24.959945","6500600","新店區"
"231054","513-UM","2017/06/09 19:59:31","新北市新店區光明街137號","121.539501666667","24.96199","6500600","新店區"
"231064","515-UM","2017/06/09 19:59:35","新北市新店區光華街3號","121.518026666667","24.9689133333333","6500600","新店區"
"231045","617-UM","2017/06/09 19:59:23","新北市新店區北宜路二段106號","121.555698333333","24.9536283333333","6500600","新店區"
"231040","619-UM","2017/06/09 19:59:29","新北市新店區中正路78號","121.543903333333","24.9703166666667","6500600","新店區"
"231042","641-BX","2017/06/09 19:59:30","新北市新店區中興路二段89號","121.54709","24.97147","6500600","新店區"
"231049","719-UM","2017/06/09 19:59:18","新北市新店區建國路220號","121.537766666667","24.9812616666667","6500600","新店區"
"231062","720-UM","2017/06/09 19:59:37","新北市新店區華城路12-1號","121.528981666667","24.9580283333333","6500600","新店區"
"231044","897-TW","2017/06/09 19:59:28","新北市新店區復興路38號","121.538855","24.9867283333333","6500600","新店區"
"231043","899-TW","2017/06/09 19:59:39","新北市新店區中正路263-4號","121.538258333333","24.9737433333333","6500600","新店區"
"241011","013-R5","2017/06/09 19:59:29","新北市三重區三和路三段37號","121.495833333333","25.0711866666667","6500200","三重區"
"241028","022-UY","2017/06/09 19:59:25","新北市三重區重新路三段94號","121.49283","25.06084","6500200","三重區"
"241008","059-VK","2017/06/09 19:59:31","新北市三重區永福街179巷28號","121.478","25.0747883333333","6500200","三重區"
"241009","060-VK","2017/06/09 19:59:25","新北市三重區三和路四段382巷51號","121.481176666667","25.0786416666667","6500200","三重區"
"241031","061-VK","2017/06/09 19:59:21","新北市三重區重新路四段184巷11-1號","121.487095","25.0548616666667","6500200","三重區"
"241015","062-VK","2017/06/09 19:59:18","新北市三重區三和路二段8號","121.501135","25.0669266666667","6500200","三重區"
"241017","063-VK","2017/06/09 19:59:40","新北市三重區重陽路三段192-3號","121.490258333333","25.0686516666667","6500200","三重區"
"241024","065-VK","2017/06/09 19:59:26","新北市三重區力行路二段2號","121.481861666667","25.07185","6500200","三重區"
"241026","066-VK","2017/06/09 19:59:36","新北市三重區重新路一段90號","121.501498333333","25.0634983333333","6500200","三重區"
"241003","091-VK","2017/06/09 19:59:27","新北市三重區仁愛街445巷32號","121.491243333333","25.0832033333333","6500200","三重區"
"241005","262-UM","2017/06/09 19:59:21","新北市三重區溪尾街323號","121.488008333333","25.084565","6500200","三重區"
"241016","266-UM","2017/06/09 19:59:18","新北市三重區正義北路36巷11號","121.496833333333","25.063425","6500200","三重區"
"241018","268-UM","2017/06/09 19:59:35","新北市三重區大智街49號","121.492748333333","25.0675033333333","6500200","三重區"
"241013","270-UM","2017/06/09 19:59:33","新北市三重區三和路三段125巷27號","121.493673333333","25.07358","6500200","三重區"
"241025","271-UM","2017/06/09 19:59:29","新北市三重區頂崁街210巷33號","121.475531666667","25.0681083333333","6500200","三重區"
"241007","398-BY","2017/06/09 19:59:24","新北市三重區慈愛街125號","121.488531666667","25.079825","6500200","三重區"
"241020","412-TH","2017/06/09 19:59:34","新北市三重區忠孝路一段101號","121.489453333333","25.0721166666667","6500200","三重區"
"241035","462-BY","2017/06/09 19:59:37","新北市三重區大榮街7號","121.498153333333","25.0631483333333","6500200","三重區"
"241004","475-VK","2017/06/09 19:59:29","新北市三重區五華街74號","121.493366666667","25.0820783333333","6500200","三重區"
"241019","478-VK","2017/06/09 19:59:38","新北市三重區自強路二段7號","121.490326666667","25.0691083333333","6500200","三重區"
"241030","480-VK","2017/06/09 19:59:25","新北市三重區重新路四段244巷9號","121.486336666667","25.05341","6500200","三重區"
"241014","543-UM","2017/06/09 19:59:23","新北市三重區三和路二段89號","121.499611666667","25.0683783333333","6500200","三重區"
"241023","545-UM","2017/06/09 19:59:22","新北市三重區頂崁街172號","121.477581666667","25.0659266666667","6500200","三重區"
"241001","547-UM","2017/06/09 19:59:33","新北市三重區仁愛街269巷34號","121.493958333333","25.079445","6500200","三重區"
"241006","AAD-863","2017/06/09 19:59:33","新北市三重區力行路二段95號","121.482838333333","25.07585","6500200","三重區"
"241012","887-TS","2017/06/09 19:59:29","新北市三重區仁興街39巷47號","121.500085","25.07611","6500200","三重區"
"241029","942-UM","2017/06/09 19:59:35","新北市三重區重安街1號","121.48995","25.0580533333333","6500200","三重區"
"241033","AAC-255","2017/06/09 19:59:25","新北市三重區中興北街123-1號","121.469685","25.0490066666667","6500200","三重區"
"235066","003-UY","2017/06/09 19:59:37","新北市中和區中山路二段67號","121.504036666667","25.0045966666667","6500300","中和區"
"235056","096-UM","2017/06/09 19:59:16","新北市中和區中山路三段170巷8弄1號","121.472581666667","25.007555","6500300","中和區"
"235039","097-UM","2017/06/09 19:59:27","新北市中和區大勇街27巷7號","121.517058333333","24.99361","6500300","中和區"
"235065","098-UM","2017/06/09 19:59:25","新北市中和區福美路269號","121.4981","25.004995","6500300","中和區"
"235040","150-BY","2017/06/09 19:59:29","新北市中和區景安路16號","121.507603333333","24.998775","6500300","中和區"
"235058","151-BY","2017/06/09 19:59:27","新北市中和區員山路149號","121.48105","24.9962966666667","6500300","中和區"
"235055","183-VK","2017/06/09 19:59:22","新北市中和區德光路15巷14號","121.47133","25.003695","6500300","中和區"
"235038","185-VK","2017/06/09 19:59:25","新北市中和區大智街55巷30弄4號","121.521036666667","24.9929916666667","6500300","中和區"
"235049","186-VK","2017/06/09 19:59:31","新北市中和區明義街11巷12弄9號","121.503236666667","24.9949083333333","6500300","中和區"
"235067","255-BX","2017/06/09 19:59:21","新北市中和區中正路751巷3弄6號","121.484335","24.9994683333333","6500300","中和區"
"235044","293-VK","2017/06/09 19:59:27","新北市中和區南山路399巷11號","121.506906666667","24.99037","6500300","中和區"
"235072","301-VK","2017/06/09 19:59:24","新北市板橋區光復街202巷6號","121.486156666667","25.02054","6500300","中和區"
"235043","352-BY","2017/06/09 19:59:26","新北市中和區興南路二段159巷18號","121.505265","24.9830583333333","6500300","中和區"
"235051","376-QA","2017/06/09 19:59:27","新北市中和區中興街169號","121.500021666667","24.990535","6500300","中和區"
"235068","377-QA","2017/06/09 19:59:30","新北市中和區中山路二段191號","121.500173333333","25.0025833333333","6500300","中和區"
"235050","4979-A6","2017/06/09 19:59:29","新北市中和區景平路241巷62號","121.507791666667","24.9922366666667","6500300","中和區"
"235069","4980-A6","2017/06/09 19:59:33","新北市中和區景新街34巷2號","121.503256666667","24.9991416666667","6500300","中和區"
"235070","558-UM","2017/06/09 19:59:21","新北市中和區連勝街37號","121.498266666667","24.9977266666667","6500300","中和區"
"235054","640-BX","2017/06/09 19:59:38","新北市中和區莒光路99號","121.472448333333","25.0029516666667","6500300","中和區"
"235047","732-UM","2017/06/09 19:59:27","新北市中和區和平街75號","121.505573333333","24.9920683333333","6500300","中和區"
"235046","733-UM","2017/06/09 19:59:23","新北市中和區興南路一段93巷53號","121.510206666667","24.98738","6500300","中和區"
"235057","801-TS","2017/06/09 19:59:37","新北市中和區員山路150-13號","121.48135","24.9976916666667","6500300","中和區"
"235041","802-TS","2017/06/09 19:59:24","新北市中和區永貞路244號","121.514363333333","25.0036483333333","6500300","中和區"
"235052","805-TS","2017/06/09 19:59:21","新北市中和區華新街144巷9號","121.507573333333","24.9831216666667","6500300","中和區"
"235048","896-TW","2017/06/09 19:59:35","新北市中和區捷運路6號","121.510185","24.9895866666667","6500300","中和區"
"235053","900-TW","2017/06/09 19:59:30","新北市中和區國光街142巷46號","121.467596666667","25.002125","6500300","中和區"
"235037","AAC-213","2017/06/09 19:59:11","新北市中和區立人街33-3號","121.520896666667","24.9941166666667","6500300","中和區"
"235059","AAC-215","2017/06/09 19:59:27","新北市中和區圓通路335巷4弄3號","121.492083333333","24.990255","6500300","中和區"
"220068","013-TV","2017/06/09 19:59:28","新北市板橋區光復街70號","121.48276","25.0184883333333","6500100","板橋區"
"220086","015-TV","2017/06/09 19:59:33","新北市板橋區南雅南路一段8-5號","121.456","25.0064483333333","6500100","板橋區"
"220065","072-UY","2017/06/09 19:59:21","新北市板橋區海山路29號","121.467613333333","25.0090716666667","6500100","板橋區"
"220086","073-UY","2017/06/09 19:59:27","新北市板橋區南雅西路二段7巷25號","121.451921666667","25.0094716666667","6500100","板橋區"
"220106","075-UY","2017/06/09 19:59:21","新北市板橋區民治街96巷27號","121.478328333333","25.0322516666667","6500100","板橋區"
"220096","120-SR","2017/06/09 19:59:27","新北市板橋區民生路二段226巷40號","121.471383333333","25.0222416666667","6500100","板橋區"
"247020","893-R6","2017/06/09 19:59:33","新北市蘆洲區民義街73號","121.473236666667","25.0901133333333","6501400","蘆洲區"
"247018","500-BY","2017/06/09 19:59:25","新北市蘆洲區民族路290巷1號","121.478035","25.0899033333333","6501400","蘆洲區"
"247006","341-TH","2017/06/09 19:59:38","新北市蘆洲區九芎街68號","121.466608333333","25.0791316666667","6501400","蘆洲區"
"247008","339-TH","2017/06/09 19:59:24","新北市蘆洲區中山一路135巷6弄25號","121.474973333333","25.08086","6501400","蘆洲區"
"247024","337-TH","2017/06/09 19:59:21","新北市蘆洲區光榮路120巷12號","121.46542","25.088395","6501400","蘆洲區"
"247002","336-TH","2017/06/09 19:59:33","新北市蘆洲區長安街274巷6弄1號","121.45779","25.0870233333333","6501400","蘆洲區"
"247014","057-VK","2017/06/09 19:59:18","新北市蘆洲區成功路133號","121.472361666667","25.082285","6501400","蘆洲區"
"247004","056-VK","2017/06/09 19:59:18","新北市蘆洲區永康街77號","121.455751666667","25.0851583333333","6501400","蘆洲區"
"247012","007-UY","2017/06/09 19:59:33","新北市蘆洲區中興街15巷42號","121.479828333333","25.0885016666667","6501400","蘆洲區"
"247022","002-UY","2017/06/09 19:59:21","新北市蘆洲區中正路174巷3號","121.467403333333","25.08785","6501400","蘆洲區"
"247016","001-UY","2017/06/09 19:59:21","新北市蘆洲區光華路117號","121.466815","25.08243","6501400","蘆洲區"
"223004","660-BX","2017/06/09 15:01:20","新北市石碇區小粗坑(潭邊里)9-2號","121.678666666667","24.9855083333333","6501900","石碇區"
"228003","828-UM","2017/06/09 19:58:19","新北市貢寮區仁理村仁和路214號","121.923676666667","25.053165","6502600","貢寮區"
"224010","AGQ-8101","2017/06/09 19:59:21","新北市瑞芳區輕便路300號","121.843506666667","25.1088433333333","6501200","瑞芳區"
"227003","642-TC","2017/06/09 19:59:25","新北市雙溪區雙溪里長安街16號","121.864965","25.034675","6502500","雙溪區"
"227011","400-TW","2017/06/09 19:59:21","新北市雙溪區新基里朝陽街3號","121.866296666667","25.0384466666667","6502500","雙溪區"
"208001","742-BX","2017/06/09 19:59:26","新北市金山區南勢41-1號","121.629071666667","25.2199316666667","6502700","金山區"
"208003","665-BX","2017/06/09 19:59:27","新北市金山區永興里忠義路29-1號","121.630621666667","25.26366","6502700","金山區"
"251009","008-UM","2017/06/09 19:14:11","新北市淡水區中正路8巷25號","121.441631666667","25.1702333333333","6501000","淡水區"
"251004","009-UM","2017/06/09 19:59:24","新北市淡水區民族路31-19號","121.461643333333","25.1362716666667","6501000","淡水區"
"251005","010-UM","2017/06/09 19:59:24","新北市淡水區學府路136巷31號","121.451605","25.1727266666667","6501000","淡水區"
"251013","180-VK","2017/06/09 19:59:28","新北市淡水區奎柔山路63號","121.451403333333","25.2062516666667","6501000","淡水區"
"251008","181-VK","2017/06/09 19:59:37","新北市淡水區淡海路63巷10-1號","121.422776666667","25.180805","6501000","淡水區"
"251015","182-VK","2017/06/09 19:59:23","新北市淡水區淡金路二段270-1號","121.447011666667","25.1885033333333","6501000","淡水區"
"251012","441-VK","2017/06/09 19:58:57","新北市淡水區下圭柔山110-10號","121.438883333333","25.2116133333333","6501000","淡水區"
"251001","559-UM","2017/06/09 19:59:30","新北市淡水區新市二路四段265號","121.44574","25.1924766666667","6501000","淡水區"
"251006","561-UM","2017/06/09 19:59:26","新北市淡水區北新路28號","121.445186666667","25.177585","6501000","淡水區"
"251011","650-BX","2017/06/09 19:59:23","新北市淡水區崁頂55-3號","121.442353333333","25.1966516666667","6501000","淡水區"
"251003","673-BX","2017/06/09 19:59:30","新北市淡水區中山北路二段189巷15弄31號","121.443428333333","25.1838383333333","6501000","淡水區"
"207003","550-UM","2017/06/09 19:59:26","新北市萬里區磺潭里公館崙8-2號","121.641428333333","25.2139433333333","6502800","萬里區"
"207004","225-TW","2017/06/09 19:59:28","新北市萬里區北基里忠二街35號","121.685653333333","25.1757166666667","6502800","萬里區"
"252002","178-VK","2017/06/09 19:59:32","新北市三芝區忠孝街116-3號","121.50551","25.2575083333333","6502100","三芝區"
"252001","292-VK","2017/06/09 19:59:29","新北市三芝區公正街9號","121.499736666667","25.2574483333333","6502100","三芝區"
"208002","170-UY","2017/06/09 19:59:23","新北市金山區環金路21號","121.640211666667","25.2175333333333","6502700","金山區"
"237007","153-BY","2017/06/09 19:59:39","新北市三峽區二鬮路136巷20弄19號","121.356755","24.9101733333333","6500900","三峽區"
"237009","210-TH","2017/06/09 19:59:01","新北市三峽區民族街28巷6號","121.36875","24.9305133333333","6500900","三峽區"
"237012","275-BY","2017/06/09 19:59:25","新北市三峽區光明路3巷36號","121.372663333333","24.93162","6500900","三峽區"
"237008","302-VK","2017/06/09 19:59:36","新北市三峽區中正路一段174巷9號","121.371863333333","24.9289016666667","6500900","三峽區"
"237014","433-BY","2017/06/09 19:59:30","新北市三峽區添福11-16號","121.372915","24.90704","6500900","三峽區"
"237006","5529-G3","2017/06/09 19:59:19","新北市三峽區中正路二段260號","121.365248333333","24.91266","6500900","三峽區"
"237015","649-BX","2017/06/09 19:59:32","新北市三峽區介壽路二段138巷1弄162號","121.402908333333","24.9279133333333","6500900","三峽區"
"237005","AKY-6261","2017/06/09 19:59:34","新北市三峽區民生街1巷29號","121.382845","24.93372","6500900","三峽區"
"236072","105-UM","2017/06/09 19:59:24","新北市土城區忠義路45巷2號","121.441155","24.9693816666667","6501300","土城區"
"236043","107-UM","2017/06/09 19:59:25","新北市土城區裕民路185巷9號","121.454025","24.98487","6501300","土城區"
"236079","166-UM","2017/06/09 19:59:26","新北市土城區福安街66號","121.41839","24.96452","6501300","土城區"
"236031","253-BX","2017/06/09 19:59:31","新北市土城區中華路一段203號","121.442941666667","24.9849866666667","6501300","土城區"
"236027","269-VK","2017/06/09 19:59:32","新北市土城區中央路二段89號","121.442428333333","24.9780916666667","6501300","土城區"
"236015","270-VK","2017/06/09 19:59:27","新北市土城區廣福街123號","121.456276666667","24.9928933333333","6501300","土城區"
"236039","271-VK","2017/06/09 19:59:30","新北市土城區國際路93號","121.467431666667","24.9757333333333","6501300","土城區"
"236022","401-BY","2017/06/09 19:59:39","新北市土城區延吉街137巷2弄25號","121.470145","24.985495","6501300","土城區"
"236059","912-UM","2017/06/09 19:59:28","新北市土城區中央路一段139號","121.446751666667","24.9882","6501300","土城區"
"236050","913-UM","2017/06/09 19:59:06","新北市土城區金城路三段137號","121.468231666667","24.9880566666667","6501300","土城區"
"236063","915-UM","2017/06/09 19:59:27","新北市土城區延和路62巷15號","121.46615","24.9884983333333","6501300","土城區"
"236055","AAC-216","2017/06/09 19:59:34","新北市土城區延和路225號","121.470135","24.9894616666667","6501300","土城區"
"242021","AAC-296","2017/06/09 19:59:30","新北市新莊區建中街8-2號","121.449621666667","25.0378166666667","6500500","新莊區"
"242029","705-TV","2017/06/09 19:59:35","新北市新莊區中榮街152巷40號","121.445545","25.0537883333333","6500500","新莊區"
"242025","615-BX","2017/06/09 19:59:35","新北市新莊區五工一路91號","121.460923333333","25.0676233333333","6500500","新莊區"
"242023","613-BX","2017/06/09 19:59:33","新北市新莊區化成路354號","121.465805","25.0492733333333","6500500","新莊區"
"242037","566-BX","2017/06/09 19:59:36","新北市新莊區建安街27號","121.428943333333","25.02591","6500500","新莊區"
"242042","497-BY","2017/06/09 19:59:32","新北市新莊區青山路一段26號","121.410971666667","25.02758","6500500","新莊區"
"242005","442-UM","2017/06/09 19:59:37","新北市新莊區化成路346號","121.465796666667","25.0489783333333","6500500","新莊區"
"242002","413-TV","2017/06/09 19:59:34","新北市新莊區中正路219號","121.450926666667","25.035825","6500500","新莊區"
"242039","400-BY","2017/06/09 19:59:24","新北市新莊區民安路278號","121.427771666667","25.02149","6500500","新莊區"
"242060","362-BY","2017/06/09 19:59:23","新北市新莊區瓊泰路3號","121.444803333333","25.02863","6500500","新莊區"
"242058","353-BY","2017/06/09 19:59:23","新北市新莊區八德街93號","121.42439","25.02146","6500500","新莊區"
"242011","132-UY","2017/06/09 19:59:24","新北市新莊區中港路531巷58號","121.450043333333","25.0517866666667","6500500","新莊區"
"242034","133-UY","2017/06/09 19:59:28","新北市新莊區建中街98號","121.446556666667","25.036555","6500500","新莊區"
"242019","135-UY","2017/06/09 19:59:38","新北市新莊區長青街30號","121.456363333333","25.0423116666667","6500500","新莊區"
"242044","172-VK","2017/06/09 19:59:19","新北市新莊區新北大道七段776巷10號","121.411966666667","25.0252283333333","6500500","新莊區"
"242007","173-VK","2017/06/09 19:59:31","新北市新莊區思源路487號","121.459063333333","25.0562566666667","6500500","新莊區"
"242013","175-VK","2017/06/09 19:59:32","新北市新莊區中誠街53巷38號","121.451295","25.0470266666667","6500500","新莊區"
"242056","176-VK","2017/06/09 19:59:26","新北市新莊區中正路347巷19號","121.447163333333","25.034245","6500500","新莊區"
"242032","346-TH","2017/06/09 19:59:36","新北市新莊區公園一路39號","121.443268333333","25.03559","6500500","新莊區"
"242017","348-TH","2017/06/09 19:59:35","新北市新莊區中港路318號","121.452771666667","25.045735","6500500","新莊區"
"242015","350-TH","2017/06/09 19:59:29","新北市新莊區復興路一段47巷9號","121.446785","25.04259","6500500","新莊區"
"238015","755-BX","2017/06/09 19:59:27","新北市樹林區中山路三段127號","121.396483333333","24.9732433333333","6500700","樹林區"
"238023","601-UM","2017/06/09 19:59:34","新北市樹林區中正路755號","121.410598333333","25.0152016666667","6500700","樹林區"
"238021","311-TH","2017/06/09 19:56:20","新北市樹林區佳園路三段219巷10號","121.385898333333","24.94611","6500700","樹林區"
"221036","130-UY","2017/06/09 19:59:24","新北市汐止區忠孝東路258巷9號","121.663715","25.0672466666667","6501100","汐止區"
"221015","131-UY","2017/06/09 19:59:30","新北市汐止區橋東街7號","121.666678333333","25.0759533333333","6501100","汐止區"
"221010","269-BY","2017/06/09 19:59:20","新北市汐止區連峰街181-1號","121.646053333333","25.0800816666667","6501100","汐止區"
"221025","277-VK","2017/06/09 00:14:26","新北市汐止區汐萬路一段256巷3號","121.65248","25.0744616666667","6501100","汐止區"
"221012","278-VK","2017/06/09 19:59:34","新北市汐止區大同路三段216號","121.675128333333","25.0733233333333","6501100","汐止區"
"221023","279-VK","2017/06/09 16:03:35","新北市汐止區康寧街901號","121.651713333333","25.0750083333333","6501100","汐止區"
"221032","280-BY","2017/06/09 19:59:26","新北市汐止區橫科路18巷16號","121.61766","25.0503166666667","6501100","汐止區"
"221002","281-BY","2017/06/09 19:59:31","新北市汐止區中正路58號","121.661851666667","25.0701033333333","6501100","汐止區"
"221038","297-VK","2017/06/09 19:59:23","新北市汐止區忠孝東路414號","121.665905","25.071355","6501100","汐止區"
"221029","298-VK","2017/06/09 19:59:24","新北市汐止區樟樹一路139巷23號","121.641013333333","25.0660766666667","6501100","汐止區"
"221021","299-VK","2017/06/09 19:59:30","新北市汐止區水源路一段146巷12號","121.655438333333","25.0625066666667","6501100","汐止區"
"221035","622-UM","2017/06/09 19:59:36","新北市汐止區長江街39巷20號","121.655351666667","25.0720383333333","6501100","汐止區"
"221025","623-UM","2017/06/09 19:59:32","新北市汐止區秀峰路104號","121.659988333333","25.0638516666667","6501100","汐止區"
"221033","647-BX","2017/06/09 19:59:27","新北市汐止區東勢街78號","121.633255","25.04038","6501100","汐止區"
"220093","146-RM","2017/06/09 19:59:21","新北市板橋區文化路二段505巷7號","121.475726666667","25.0346566666667","6500100","板橋區"
"220082","610-BX","2017/06/09 19:59:28","新北市板橋區溪崑二街35號","121.428466666667","24.9910733333333","6500100","板橋區"
"220101","245-BX","2017/06/09 19:59:34","新北市板橋區富山街109巷83號","121.475076666667","25.0210516666667","6500100","板橋區"
"220069","258-TC","2017/06/09 19:59:36","新北市板橋區南雅南路二段32號","121.454258333333","25.0030333333333","6500100","板橋區"
"220072","277-BY","2017/06/09 19:59:34","新北市板橋區金門街251號","121.431905","24.9890233333333","6500100","板橋區"
"220064","280-UM","2017/06/09 19:59:36","新北市板橋區長安街331巷99號","121.471796666667","25.0125316666667","6500100","板橋區"
"220094","283-UM","2017/06/09 19:59:28","新北市板橋區雨農路17巷1號","121.462165","25.024615","6500100","板橋區"
"220071","283-VK","2017/06/09 19:59:29","新北市板橋區五權街32巷14號","121.464373333333","24.9930683333333","6500100","板橋區"
"220091","285-UM","2017/06/09 19:59:35","新北市板橋區懷德街174巷18弄2-1號","121.478861666667","25.0297433333333","6500100","板橋區"
"220053","285-VK","2017/06/09 19:59:37","新北市板橋區永豐街51號","121.474086666667","25.0178866666667","6500100","板橋區"
"220083","286-VK","2017/06/09 19:59:29","新北市板橋區僑中二街10巷2號","121.446921666667","25.0109533333333","6500100","板橋區"
"220081","287-VK","2017/06/09 19:59:38","新北市板橋區大觀路一段28巷91-2號","121.450193333333","25.0116083333333","6500100","板橋區"
"220090","288-VK","2017/06/09 19:59:32","新北市板橋區幸福路32巷2弄47號","121.460668333333","25.022365","6500100","板橋區"
"220061","293-UM","2017/06/09 19:59:31","新北市板橋區觀光街5號","121.47176","25.0158216666667","6500100","板橋區"
"220084","296-UM","2017/06/09 19:59:26","新北市板橋區溪崑二街114號","121.42639","24.9884316666667","6500100","板橋區"
"220075","297-UM","2017/06/09 19:59:29","新北市板橋區金華街10巷120號","121.45938","25.0205183333333","6500100","板橋區"
"220097","299-UM","2017/06/09 19:59:32","新北市板橋區復興街135號","121.461116666667","25.0179683333333","6500100","板橋區"
"220056","303-R5","2017/06/09 19:59:18","新北市板橋區四川路二段99巷2弄2-3號","121.452696666667","24.9944483333333","6500100","板橋區"
"220062","305-R5","2017/06/09 19:59:36","新北市板橋區光復街172巷31弄5-2號","121.486465","25.0192016666667","6500100","板橋區"
"220092","307-R5","2017/06/09 19:59:34","新北市板橋區四維路259巷73號","121.460496666667","25.0266233333333","6500100","板橋區"
"220098","317-R6","2017/06/09 19:59:35","新北市板橋區英士路199號","121.458596666667","25.0234633333333","6500100","板橋區"
"220080","461-BY","2017/06/09 19:59:24","新北市板橋區大觀路二段163巷19號","121.446461666667","25.0001316666667","6500100","板橋區"
"220089","487-VK","2017/06/09 19:59:28","新北市板橋區英士路192號","121.458141666667","25.0237033333333","6500100","板橋區"
"220088","491-VK","2017/06/09 19:58:39","新北市板橋區文聖街147號","121.478515","25.028065","6500100","板橋區"
"220035","560-BX","2017/06/09 19:59:26","新北市板橋區新生街23巷1弄1號","121.456115","25.0215083333333","6500100","板橋區"
"220103","561-BX","2017/06/09 19:59:37","新北市板橋區文化路一段421巷29號","121.466001666667","25.0232983333333","6500100","板橋區"
"220057","686-BX","2017/06/09 19:59:38","新北市板橋區信義路16-2號","121.456943333333","24.9958916666667","6500100","板橋區"
"220054","741-BX","2017/06/09 19:59:15","新北市板橋區國泰街75巷28弄84-3號","121.467226666667","25.0041766666667","6500100","板橋區"
"220055","827-TW","2017/06/09 19:59:24","新北市板橋區國慶路149巷38弄2號","121.461238333333","24.9980516666667","6500100","板橋區"
"220067","829-TW","2017/06/09 19:59:31","新北市板橋區中山路一段206巷74號","121.472456666667","25.01341","6500100","板橋區"
"220102","830-TW","2017/06/09 19:59:37","新北市板橋區懷德街76巷11號","121.477605","25.031705","6500100","板橋區"
"220074","895-R6","2017/06/09 19:59:36","新北市板橋區府中路90號","121.456161666667","25.0096366666667","6500100","板橋區"
"220073","985-R7","2017/06/09 19:59:30","新北市板橋區南雅西路二段186號","121.451598333333","25.01428","6500100","板橋區"
"220070","AAC-253","2017/06/09 19:59:21","新北市板橋區民族路179號","121.46865","25.0075033333333","6500100","板橋區"
