"lineid","car","time","location","longitude","latitude","cityid","cityname"
"234046","148-BY","2017/06/09 20:29:27","新北市永和區永元路122號","121.522815","25.0027483333333","6500400","永和區"
"234081","298-R6","2017/06/09 20:29:37","新北市永和區福和路57巷14弄2號","121.522916666667","25.0072","6500400","永和區"
"234038","336-UY","2017/06/09 20:29:23","新北市永和區環河東路四段38號","121.528826666667","24.99894","6500400","永和區"
"234064","337-UY","2017/06/09 20:29:31","新北市永和區中正路433號","121.517061666667","25.00508","6500400","永和區"
"234086","338-UY","2017/06/09 20:29:24","新北市永和區永和路二段234號","121.515783333333","25.014585","6500400","永和區"
"234054","553-UM","2017/06/09 20:29:20","新北市永和區環河東路一段82號","121.519626666667","25.0164416666667","6500400","永和區"
"234017","745-BX","2017/06/09 20:29:33","新北市永和區仁愛路72號","121.512945","25.013245","6500400","永和區"
"234030","746-BX","2017/06/09 20:29:28","新北市永和區民權路47號","121.519936666667","24.9971566666667","6500400","永和區"
"234061","AAD-866","2017/06/09 20:29:34","新北市永和區安樂路194巷18號","121.516331666667","25.0009733333333","6500400","永和區"
"234042","862-TW","2017/06/09 20:29:40","新北市永和區安樂路250-1號","121.514446666667","25.0036266666667","6500400","永和區"
"234050","863-TW","2017/06/09 20:29:37","新北市永和區新生路121巷2弄22號","121.507531666667","25.0148416666667","6500400","永和區"
"249001","173-UM","2017/06/09 20:29:24","新北市八里區中山路三段106號","121.392683333333","25.1434183333333","6502300","八里區"
"249004","303-UY","2017/06/09 20:29:21","新北市八里區中山路一段109號","121.414033333333","25.159775","6502300","八里區"
"249002","305-UY","2017/06/09 20:29:27","新北市八里區龍米路二段125巷13號","121.44589","25.145535","6502300","八里區"
"249003","593-UM","2017/06/09 20:29:35","新北市八里區華峰一街26號","121.399041666667","25.146625","6502300","八里區"
"248002","678-BX","2017/06/09 20:29:29","新北市五股區新五路二段371號","121.44418","25.0883716666667","6501500","五股區"
"234023","9380-KE","2017/06/09 20:29:22","新北市永和區竹林路23號","121.517215","25.0147166666667","6500400","永和區"
"234074","AAC-211","2017/06/09 20:29:25","新北市永和區竹林路119巷30弄2號","121.522095","25.0115583333333","6500400","永和區"
"234067","AAC-212","2017/06/09 20:29:30","新北市永和區保平路232號","121.509338333333","25.0054783333333","6500400","永和區"
"234003","AAC-295","2017/06/09 20:27:18","新北市永和區中正路620號","121.517021666667","25.0078766666667","6500400","永和區"
"232008","290-BY","2017/06/09 09:12:37","新北市坪林區鶯子瀨9-8號","121.7098","24.9170066666667","6502000","坪林區"
"243013","AAD-798","2017/06/09 20:29:21","新北市泰山區貴子路9巷6號","121.425543333333","25.0422166666667","6501600","泰山區"
"243009","297-R6","2017/06/09 20:29:35","新北市泰山區忠孝街16巷15號","121.42815","25.0650766666667","6501600","泰山區"
"243015","380-SR","2017/06/09 20:29:31","新北市泰山區福興街30號","121.434451666667","25.057375","6501600","泰山區"
"243016","539-UM","2017/06/09 20:28:31","新北市泰山區文程路16號","121.428166666667","25.049235","6501600","泰山區"
"243010","548-UM","2017/06/09 20:29:23","新北市泰山區新生路33號","121.42755","25.0452516666667","6501600","泰山區"
"243011","549-UM","2017/06/09 20:29:16","新北市泰山區明志路三段42巷18號","121.424128333333","25.04237","6501600","泰山區"
"243012","646-TV","2017/06/09 20:29:22","新北市泰山區忠孝街19巷3弄3號","121.42734","25.0659183333333","6501600","泰山區"
"222002","016-RS","2017/06/09 17:47:30","新北市深坑區深坑街75號","121.61469","25.0012066666667","6501800","深坑區"
"222003","436-BY","2017/06/09 20:29:20","新北市深坑區深坑街32號","121.615296666667","25.0018133333333","6501800","深坑區"
"222002","659-BX","2017/06/09 20:29:35","新北市深坑區萬福路16巷16-3號","121.60495","25.0073816666667","6501800","深坑區"
"222001","696-SL","2017/06/09 20:29:28","新北市深坑區北深路三段345號","121.59716","25.00506","6501800","深坑區"
"231041","002-UM","2017/06/09 20:29:22","新北市新店區中正路501-5號","121.533606666667","24.983905","6500600","新店區"
"231056","0291-UT","2017/06/09 20:29:35","新北市新店區民族路192號","121.536113333333","24.9753516666667","6500600","新店區"
"231059","046-UY","2017/06/09 20:29:21","新北市新店區安豐路46號","121.500143333333","24.9549566666667","6500600","新店區"
"231061","047-UY","2017/06/09 20:29:28","新北市新店區新和街36號","121.519335","24.9848966666667","6500600","新店區"
"231060","106-UY","2017/06/09 20:29:23","新北市新店區錦秀路70巷2號","121.47885","24.942405","6500600","新店區"
"231051","107-UY","2017/06/09 20:29:36","新北市新店區中央七街98號","121.526266666667","24.9772866666667","6500600","新店區"
"231048","108-UY","2017/06/09 20:29:27","新北市新店區寶慶街58巷10號","121.542043333333","24.9871966666667","6500600","新店區"
"231053","187-VK","2017/06/09 20:29:35","新北市新店區松林路16巷31號","121.546213333333","24.9102333333333","6500600","新店區"
"231057","256-BX","2017/06/09 20:29:19","新北市新店區花園五路二段1號","121.55354","24.9341916666667","6500600","新店區"
"231063","268-BY","2017/06/09 20:29:21","新北市新店區安康路三段51號","121.492498333333","24.95241","6500600","新店區"
"231050","AAD-862","2017/06/09 20:29:26","新北市新店區博愛街27巷1號","121.541555","24.973965","6500600","新店區"
"231067","4772-VM","2017/06/09 20:29:32","新北市新店區溪洲路6巷80-2號","121.533565","24.9631783333333","6500600","新店區"
"231065","512-UM","2017/06/09 20:29:30","新北市新店區安祥路102巷42弄81號","121.486575","24.9630666666667","6500600","新店區"
"231054","513-UM","2017/06/09 20:29:31","新北市新店區檳榔路109號","121.544435","24.9616","6500600","新店區"
"231064","515-UM","2017/06/09 20:29:35","新北市新店區永安街74巷17號","121.519195","24.985915","6500600","新店區"
"231045","617-UM","2017/06/09 20:29:24","新北市新店區新坡一街60號","121.54977","24.9631966666667","6500600","新店區"
"231040","619-UM","2017/06/09 20:29:27","新北市新店區三民路123號","121.534721666667","24.9722866666667","6500600","新店區"
"231042","641-BX","2017/06/09 20:29:30","新北市新店區寶橋路230號","121.551511666667","24.9787883333333","6500600","新店區"
"231068","718-UY","2017/06/09 20:29:19","新北市新店區寶元路一段65號","121.542228333333","24.9858466666667","6500600","新店區"
"231049","719-UM","2017/06/09 20:29:18","新北市新店區華城路36巷1-1號","121.52832","24.9549783333333","6500600","新店區"
"231062","720-UM","2017/06/09 20:29:32","新北市新店區安泰路60巷53-1號","121.483973333333","24.9457133333333","6500600","新店區"
"231044","897-TW","2017/06/09 20:29:30","新北市新店區建國路160號","121.538493333333","24.979425","6500600","新店區"
"231043","899-TW","2017/06/09 20:29:21","新北市新店區民族路14-1號","121.541413333333","24.9788766666667","6500600","新店區"
"241011","013-R5","2017/06/09 20:29:29","新北市三重區龍門路154號","121.498611666667","25.073075","6500200","三重區"
"241028","022-UY","2017/06/09 20:29:25","新北市三重區光興街95號","121.497303333333","25.059915","6500200","三重區"
"241008","059-VK","2017/06/09 20:29:31","新北市三重區下竹圍街91號","121.481115","25.0748216666667","6500200","三重區"
"241009","060-VK","2017/06/09 20:29:25","新北市三重區永福街46巷15弄7號","121.481385","25.0779866666667","6500200","三重區"
"241031","061-VK","2017/06/09 20:29:21","新北市三重區三寧街15號","121.489491666667","25.059775","6500200","三重區"
"241015","062-VK","2017/06/09 20:29:18","新北市三重區文化北路41-2號","121.498923333333","25.06526","6500200","三重區"
"241017","063-VK","2017/06/09 20:29:20","新北市三重區重陽路三段101號","121.490458333333","25.068325","6500200","三重區"
"241024","065-VK","2017/06/09 20:29:26","新北市三重區三民街260號","121.479338333333","25.0679716666667","6500200","三重區"
"241026","066-VK","2017/06/09 20:29:24","新北市三重區環河南路29號","121.503271666667","25.06214","6500200","三重區"
"241002","090-VK","2017/06/09 20:29:36","新北市三重區仁義街211巷64號","121.49865","25.0829333333333","6500200","三重區"
"241003","091-VK","2017/06/09 20:29:28","新北市三重區富華街212號","121.493456666667","25.085185","6500200","三重區"
"241005","262-UM","2017/06/09 20:29:21","新北市三重區碧華街396號","121.491635","25.084795","6500200","三重區"
"241016","266-UM","2017/06/09 20:29:18","新北市三重區正義北路75號","121.4972","25.0647316666667","6500200","三重區"
"241022","267-UM","2017/06/09 20:29:20","新北市三重區重陽路二段19巷6號","121.487453333333","25.0625466666667","6500200","三重區"
"241018","268-UM","2017/06/09 20:29:18","新北市三重區正義北路216巷12號","121.495766666667","25.0674533333333","6500200","三重區"
"241013","270-UM","2017/06/09 20:29:33","新北市三重區溪尾街5巷24號","121.492521666667","25.0745983333333","6500200","三重區"
"241025","271-UM","2017/06/09 20:29:29","新北市三重區頂崁街210巷23弄1號","121.47586","25.0681483333333","6500200","三重區"
"241007","398-BY","2017/06/09 20:29:24","新北市三重區福隆路2號","121.489388333333","25.0774783333333","6500200","三重區"
"241020","412-TH","2017/06/09 20:29:34","新北市三重區三和路三段142號","121.493418333333","25.07256","6500200","三重區"
"241035","462-BY","2017/06/09 20:29:37","新北市三重區正義北路110號","121.496965","25.065215","6500200","三重區"
"241004","475-VK","2017/06/09 20:29:29","新北市三重區溪尾街215號","121.488385","25.0809766666667","6500200","三重區"
"241019","478-VK","2017/06/09 20:29:38","新北市三重區重陽路四段57號","121.492058333333","25.0703783333333","6500200","三重區"
"241030","480-VK","2017/06/09 20:29:25","新北市三重區成功路75號","121.488601666667","25.0511483333333","6500200","三重區"
"241014","543-UM","2017/06/09 20:29:26","新北市三重區長興街109號","121.501973333333","25.0691633333333","6500200","三重區"
"241023","545-UM","2017/06/09 20:29:22","新北市三重區自由街16號","121.479818333333","25.06654","6500200","三重區"
"241001","547-UM","2017/06/09 20:29:33","新北市三重區自強路四段28號","121.488858333333","25.0766033333333","6500200","三重區"
"241006","AAD-863","2017/06/09 20:29:33","新北市三重區車路頭街135-1號","121.484295","25.076155","6500200","三重區"
"241012","887-TS","2017/06/09 20:29:29","新北市三重區龍濱路269號","121.501405","25.0729116666667","6500200","三重區"
"241029","942-UM","2017/06/09 20:29:35","新北市三重區集美街235號","121.492128333333","25.05519","6500200","三重區"
"241033","AAC-255","2017/06/09 20:29:25","新北市三重區五谷王北街86號","121.476563333333","25.05407","6500200","三重區"
"235039","097-UM","2017/06/09 20:29:27","新北市中和區自強路52號","121.520178333333","24.9947533333333","6500300","中和區"
"235065","098-UM","2017/06/09 20:29:25","新北市中和區永和路78號","121.497595","25.005115","6500300","中和區"
"235072","301-VK","2017/06/09 20:29:24","新北市八里區下罟子1-15號","121.389261666667","25.14227","6500300","中和區"
"235068","377-QA","2017/06/09 20:29:30","新北市中和區勝利路35巷22號","121.499058333333","25.0069716666667","6500300","中和區"
"235050","4979-A6","2017/06/09 20:29:29","新北市中和區景新街160巷10號","121.505143333333","24.996875","6500300","中和區"
"235069","4980-A6","2017/06/09 20:29:33","新北市中和區連城路347巷18弄36號","121.487183333333","24.994785","6500300","中和區"
"235037","AAC-213","2017/06/09 20:29:31","新北市中和區自立路147號","121.522551666667","24.9930383333333","6500300","中和區"
"235059","AAC-215","2017/06/09 20:29:27","新北市中和區員山路49-9號","121.480481666667","24.9912883333333","6500300","中和區"
"220065","072-UY","2017/06/09 20:29:20","新北市八里區荖阡坑路4-28號","121.39835","25.14248","6500100","板橋區"
"247020","893-R6","2017/06/09 20:29:32","新北市蘆洲區民族路424號","121.473896666667","25.09178","6501400","蘆洲區"
"247010","546-UM","2017/06/09 20:29:27","新北市蘆洲區信義路222巷61號","121.481221666667","25.0853083333333","6501400","蘆洲區"
"247018","500-BY","2017/06/09 20:29:29","新北市蘆洲區民族路336巷13號","121.477158333333","25.0908466666667","6501400","蘆洲區"
"247006","341-TH","2017/06/09 20:29:37","新北市蘆洲區和平路208號","121.465666666667","25.0821516666667","6501400","蘆洲區"
"247008","339-TH","2017/06/09 20:29:24","新北市蘆洲區重陽二街25號","121.482296666667","25.0848166666667","6501400","蘆洲區"
"247024","337-TH","2017/06/09 20:29:20","新北市蘆洲區長樂路2-18號","121.464778333333","25.0839166666667","6501400","蘆洲區"
"247002","336-TH","2017/06/09 20:29:28","新北市蘆洲區長安街361巷18號","121.456283333333","25.087535","6501400","蘆洲區"
"247014","057-VK","2017/06/09 20:29:38","新北市蘆洲區中山二路64號","121.47356","25.0821816666667","6501400","蘆洲區"
"247004","056-VK","2017/06/09 20:29:18","新北市蘆洲區長安街297號","121.458143333333","25.0848416666667","6501400","蘆洲區"
"247012","007-UY","2017/06/09 20:29:33","新北市蘆洲區中興街117-2號","121.482225","25.08926","6501400","蘆洲區"
"247022","002-UY","2017/06/09 20:29:20","新北市蘆洲區中正路217號","121.468228333333","25.0862416666667","6501400","蘆洲區"
"247016","001-UY","2017/06/09 20:29:21","新北市蘆洲區中山二路150號","121.470963333333","25.08111","6501400","蘆洲區"
"223004","660-BX","2017/06/09 15:01:20","新北市石碇區小粗坑(潭邊里)9-2號","121.678666666667","24.9855083333333","6501900","石碇區"
"251009","008-UM","2017/06/09 20:27:31","新北市淡水區民權路41號","121.459661666667","25.1401983333333","6501000","淡水區"
"251013","180-VK","2017/06/09 20:29:28","新北市淡水區後坑子7號","121.463793333333","25.205445","6501000","淡水區"
"251008","181-VK","2017/06/09 20:29:37","新北市淡水區淡海路171號","121.419715","25.1838933333333","6501000","淡水區"
"251015","182-VK","2017/06/09 20:29:23","新北市淡水區淡金路四段518號","121.452043333333","25.2259566666667","6501000","淡水區"
"251010","413-VK","2017/06/09 20:29:25","新北市淡水區沙崙路181巷15號","121.423978333333","25.1843416666667","6501000","淡水區"
"251012","441-VK","2017/06/09 20:29:17","新北市淡水區興仁路108號","121.451673333333","25.2181133333333","6501000","淡水區"
"251001","559-UM","2017/06/09 20:29:30","新北市淡水區水源街二段189-2號","121.456466666667","25.17613","6501000","淡水區"
"251006","561-UM","2017/06/09 20:29:26","新北市淡水區商工路306號","121.461235","25.1859233333333","6501000","淡水區"
"251002","672-BX","2017/06/09 20:29:26","新北市淡水區中正路86-1號","121.442455","25.1696333333333","6501000","淡水區"
"251003","673-BX","2017/06/09 20:29:30","新北市淡水區新民街64號","121.438796666667","25.1760933333333","6501000","淡水區"
"252002","178-VK","2017/06/09 20:29:32","新北市三芝區民生街2號","121.503706666667","25.2575633333333","6502100","三芝區"
"252001","292-VK","2017/06/09 20:29:37","新北市三芝區中山路一段63號","121.50091","25.2572466666667","6502100","三芝區"
"237005","AKY-6261","2017/06/09 20:29:34","新北市三峽區三樹路98巷93號","121.381978333333","24.93993","6500900","三峽區"
"236015","270-VK","2017/06/09 20:29:27","新北市土城區廣明街61號","121.455055","24.9936266666667","6501300","土城區"
"242021","AAC-296","2017/06/09 20:29:30","新北市新莊區和興街1號","121.447596666667","25.0389266666667","6500500","新莊區"
"242048","751-BX","2017/06/09 20:29:21","新北市新莊區富國路69號","121.419878333333","25.026","6500500","新莊區"
"242029","705-TV","2017/06/09 20:29:35","新北市新莊區昌隆街40號","121.454415","25.05086","6500500","新莊區"
"242025","615-BX","2017/06/09 20:29:36","新北市新莊區五工二路50巷3號","121.461143333333","25.065385","6500500","新莊區"
"242023","613-BX","2017/06/09 20:29:34","新北市新莊區化成路962號","121.46498","25.0631216666667","6500500","新莊區"
"242027","612-BX","2017/06/09 20:29:30","新北市新莊區幸福路4號","121.45942","25.049475","6500500","新莊區"
"242037","566-BX","2017/06/09 20:29:36","新北市新莊區後港一路76巷3弄1號","121.427251666667","25.0259966666667","6500500","新莊區"
"242042","497-BY","2017/06/09 20:29:32","新北市新莊區中正路694巷47號","121.417738333333","25.02906","6500500","新莊區"
"242005","442-UM","2017/06/09 20:29:37","新北市新莊區頭前路70-1號","121.466481666667","25.05267","6500500","新莊區"
"242050","440-UM","2017/06/09 20:29:28","新北市新莊區民安西路189巷33號","121.427258333333","25.01533","6500500","新莊區"
"242002","413-TV","2017/06/09 20:29:34","新北市新莊區中正路80號","121.457765","25.0374","6500500","新莊區"
"242039","400-BY","2017/06/09 20:29:24","新北市新莊區民安路292號","121.428075","25.0217066666667","6500500","新莊區"
"242060","362-BY","2017/06/09 20:29:23","新北市新莊區新樹路244巷44號","121.431316666667","25.0190833333333","6500500","新莊區"
"242058","353-BY","2017/06/09 20:29:21","新北市新莊區四維路181號","121.422215","25.02126","6500500","新莊區"
"242011","132-UY","2017/06/09 20:29:24","新北市新莊區中義街51號","121.449278333333","25.0511433333333","6500500","新莊區"
"242034","133-UY","2017/06/09 20:29:28","新北市新莊區新泰路125號","121.448378333333","25.0361133333333","6500500","新莊區"
"242019","135-UY","2017/06/09 20:29:38","新北市新莊區長青街6-1號","121.457818333333","25.042745","6500500","新莊區"
"242044","172-VK","2017/06/09 20:29:29","新北市新莊區中正路891-45號","121.413873333333","25.022745","6500500","新莊區"
"242007","173-VK","2017/06/09 20:29:31","新北市新莊區思源路287巷1弄9號","121.459408333333","25.04795","6500500","新莊區"
"242013","175-VK","2017/06/09 20:29:32","新北市新莊區中和街184號","121.44737","25.049745","6500500","新莊區"
"242056","176-VK","2017/06/09 20:29:26","新北市新莊區新莊路751巷55號","121.442763333333","25.0313533333333","6500500","新莊區"
"242032","346-TH","2017/06/09 20:29:36","新北市新莊區義豐街25巷10號","121.440646666667","25.0352416666667","6500500","新莊區"
"242017","348-TH","2017/06/09 20:29:35","新北市新莊區中港三街19號","121.450651666667","25.04644","6500500","新莊區"
"242054","349-TH","2017/06/09 20:29:31","新北市新莊區西盛街344巷8號","121.427635","25.0141716666667","6500500","新莊區"
"242015","350-TH","2017/06/09 20:29:29","新北市新莊區中平路36巷5號","121.445131666667","25.043635","6500500","新莊區"
"242009","351-TH","2017/06/09 20:29:26","新北市新莊區昌隆街104號","121.456641666667","25.0508133333333","6500500","新莊區"
"238023","601-UM","2017/06/09 20:29:34","新北市樹林區育德街78-1號","121.38752","24.96827","6500700","樹林區"
"239006","891-R6","2017/06/09 20:28:56","新北市鶯歌區二甲路12-2號","121.345818333333","24.9352933333333","6500800","鶯歌區"
"221036","130-UY","2017/06/09 20:29:24","新北市汐止區新台五路二段126巷13弄1號","121.663693333333","25.06594","6501100","汐止區"
"221015","131-UY","2017/06/09 20:29:30","新北市汐止區建成路142巷25號","121.66255","25.074015","6501100","汐止區"
"221010","269-BY","2017/06/09 20:29:20","新北市汐止區八連路一段330號","121.64097","25.0891016666667","6501100","汐止區"
"221025","277-VK","2017/06/09 00:14:26","新北市汐止區汐萬路一段256巷3號","121.65248","25.0744616666667","6501100","汐止區"
"221012","278-VK","2017/06/09 20:29:34","新北市汐止區大同路三段211號","121.672596666667","25.0767083333333","6501100","汐止區"
"221023","279-VK","2017/06/09 16:03:35","新北市汐止區康寧街901號","121.651713333333","25.0750083333333","6501100","汐止區"
"221032","280-BY","2017/06/09 20:29:26","新北市汐止區弘道街53巷25號","121.618743333333","25.04994","6501100","汐止區"
"221002","281-BY","2017/06/09 20:29:31","新北市汐止區中正路206號","121.658453333333","25.0690166666667","6501100","汐止區"
"221038","297-VK","2017/06/09 20:29:23","新北市汐止區忠孝東路462巷22號","121.666573333333","25.07371","6501100","汐止區"
"221029","298-VK","2017/06/09 20:29:24","新北市汐止區樟樹一路129巷32號","121.640546666667","25.0650983333333","6501100","汐止區"
"221021","299-VK","2017/06/09 20:29:30","新北市汐止區水源路一段293號","121.654451666667","25.0582383333333","6501100","汐止區"
"221035","622-UM","2017/06/09 20:29:36","新北市汐止區長江街101-5號","121.658763333333","25.0731783333333","6501100","汐止區"
"221025","623-UM","2017/06/09 20:29:31","新北市汐止區水源路二段110巷1號","121.65668","25.0554183333333","6501100","汐止區"
"221033","647-BX","2017/06/09 20:29:27","新北市汐止區林森街73巷5號","121.623518333333","25.0409366666667","6501100","汐止區"
"221002","707-TV","2017/06/09 20:29:28","新北市汐止區福德二路31號","121.634918333333","25.067835","6501100","汐止區"
"220072","277-BY","2017/06/09 20:29:34","新北市板橋區金門街121巷27號","121.434141666667","24.9912","6500100","板橋區"
"220083","286-VK","2017/06/09 20:29:29","新北市板橋區僑中二街106巷15-4號","121.445128333333","25.0076566666667","6500100","板橋區"
"220081","287-VK","2017/06/09 20:29:38","新北市板橋區大觀路二段32號","121.445361666667","25.001715","6500100","板橋區"
"220061","293-UM","2017/06/09 20:29:31","新北市板橋區四川路一段316號","121.458323333333","25.0001933333333","6500100","板橋區"
"220097","299-UM","2017/06/09 20:29:32","新北市板橋區文化路一段101巷11號","121.460725","25.0145866666667","6500100","板橋區"
"220089","487-VK","2017/06/09 20:29:28","新北市板橋區四維路268號","121.463316666667","25.0284933333333","6500100","板橋區"
"220035","560-BX","2017/06/09 20:29:06","新北市五股區中直路31號","121.420325","25.1123716666667","6500100","板橋區"
"220103","561-BX","2017/06/09 20:29:37","新北市板橋區漢生東路31號","121.465411666667","25.016995","6500100","板橋區"
"220074","895-R6","2017/06/09 20:29:36","新北市板橋區館前西路53號","121.457771666667","25.0066833333333","6500100","板橋區"
"220070","AAC-253","2017/06/09 20:29:20","新北市板橋區四川路二段245巷35號","121.451656666667","24.9927","6500100","板橋區"
