"lineid","car","time","location","longitude","latitude","cityid","cityname"
"232008","290-BY","2017/06/09 09:12:37","新北市坪林區鶯子瀨9-8號","121.7098","24.9170066666667","6502000","坪林區"
"222002","016-RS","2017/06/09 21:06:46","新北市深坑區深坑街75號","121.614696666667","25.0011033333333","6501800","深坑區"
"241024","743-BX","2017/06/09 22:29:33","新北市三重區正義南路62號","121.498643333333","25.0586633333333","6500200","三重區"
"235026","800-TS","2017/06/09 21:42:32","新北市中和區員山路36巷16-3號","121.485021666667","24.9913533333333","6500300","中和區"
"247001","336-TH","2017/06/09 22:29:21","新北市五股區中興路三段2巷10號","121.448781666667","25.0816483333333","6501400","蘆洲區"
"223004","660-BX","2017/06/09 15:01:20","新北市石碇區小粗坑(潭邊里)9-2號","121.678666666667","24.9855083333333","6501900","石碇區"
"251004","009-UM","2017/06/09 21:45:52","台北市北投區中央北路四段30巷152-1號","121.475335","25.139425","6501000","淡水區"
"251008","181-VK","2017/06/09 22:29:17","新北市淡水區學府路104號","121.449813333333","25.17175","6501000","淡水區"
"251015","182-VK","2017/06/09 22:29:23","新北市淡水區水碓街5號","121.443116666667","25.1770983333333","6501000","淡水區"
"251007","577-R6","2017/06/09 22:06:39","新北市淡水區北新路161號","121.450026666667","25.17929","6501000","淡水區"
"251011","650-BX","2017/06/09 22:29:23","新北市淡水區沙崙路200號","121.424688333333","25.1839033333333","6501000","淡水區"
