"lineid","car","time","location","longitude","latitude","cityid","cityname"
"232008","290-BY","2017/06/09 09:12:37","新北市坪林區鶯子瀨9-8號","121.7098","24.9170066666667","6502000","坪林區"
"222002","016-RS","2017/06/09 21:06:46","新北市深坑區深坑街75號","121.614696666667","25.0011033333333","6501800","深坑區"
"241024","743-BX","2017/06/09 22:49:33","新北市三重區長壽街2號","121.498336666667","25.0677716666667","6500200","三重區"
"235026","800-TS","2017/06/09 21:42:32","新北市中和區員山路36巷16-3號","121.485021666667","24.9913533333333","6500300","中和區"
"247001","336-TH","2017/06/09 22:38:58","新北市五股區中興路三段2巷10號","121.448735","25.081635","6501400","蘆洲區"
"223004","660-BX","2017/06/09 15:01:20","新北市石碇區小粗坑(潭邊里)9-2號","121.678666666667","24.9855083333333","6501900","石碇區"
