"lineid","car","time","location","longitude","latitude","cityid","cityname"
"248005","653-BX","2017/06/10 07:09:37","新北市五股區新五路二段129-1號","121.437648333333","25.0777316666667","6501500","五股區"
"232009","290-BY","2017/06/10 07:09:17","新北市坪林區魚堀44-1號","121.701373333333","24.93299","6502000","坪林區"
"232004","291-BY","2017/06/10 07:08:06","新北市坪林區大粗坑6-1號","121.731728333333","24.94939","6502000","坪林區"
"232010","375-UM","2017/06/10 07:09:34","新北市坪林區水聳淒坑7-8號","121.725293333333","24.9273616666667","6502000","坪林區"
"232016","705-BZ","2017/06/10 07:09:25","新北市坪林區金瓜寮7-7號","121.681131666667","24.9151533333333","6502000","坪林區"
"244005","248-BX","2017/06/10 07:08:30","新北市林口區南勢里79-3號","121.347645","25.0758533333333","6501700","林口區"
"222004","289-BY","2017/06/10 07:08:57","新北市深坑區昇高坑路43號","121.629321666667","24.9964216666667","6501800","深坑區"
"247002","402-BY","2017/06/10 07:09:36","新北市五股區更洲路47-1號","121.454553333333","25.0781766666667","6501400","蘆洲區"
"226005","5620-A6","2017/06/10 07:09:26","新北市平溪區菁桐里菁桐街159號","121.723293333333","25.0237583333333","6502400","平溪區"
"226002","8452-VL","2017/06/10 07:09:30","新北市平溪區石底里石筍尖21號","121.730391666667","25.0257016666667","6502400","平溪區"
"226003","AGD-0702","2017/06/10 07:09:26","新北市平溪區菁桐里菁桐街159號","121.723193333333","25.023735","6502400","平溪區"
"223006","022-BY","2017/06/10 07:06:27","新北市石碇區深按3-1號","121.660343333333","25.0172533333333","6501900","石碇區"
"223002","198-BX","2017/06/10 07:09:26","新北市石碇區北宜路五段崙尾寮巷2-1號","121.647495","24.9521166666667","6501900","石碇區"
"223008","406-TH","2017/06/10 07:09:30","新北市石碇區十八重溪45號","121.67535","25.0126783333333","6501900","石碇區"
"223001","437-BY","2017/06/10 07:09:37","新北市石碇區烏塗窟1號","121.65609","24.9759283333333","6501900","石碇區"
"223007","661-BX","2017/06/10 07:09:23","新北市石碇區十八重溪45號","121.675436666667","25.0125416666667","6501900","石碇區"
"223005","677-TV","2017/06/10 07:09:26","新北市石碇區石崁1號","121.651663333333","25.002085","6501900","石碇區"
"227006","282-VK","2017/06/10 07:09:38","新北市雙溪區新基里自強路5號","121.866338333333","25.03904","6502500","雙溪區"
"251001","155-BY","2017/06/10 07:09:20","新北市淡水區中正東路3號","121.445346666667","25.1689166666667","6501000","淡水區"
"252004","249-BX","2017/06/10 07:09:32","新北市三芝區福德里大湖3號","121.500043333333","25.2282666666667","6502100","三芝區"
"252007","AAC-283","2017/06/10 00:33:02","新北市三芝區埔坪里埔頭坑41號","121.504558333333","25.2644183333333","6502100","三芝區"
"236011","165-UM","2017/06/10 07:09:38","新北市土城區中華路二段198號","121.437658333333","24.9700233333333","6501300","土城區"
"236002","339-SR","2017/06/10 07:09:17","新北市土城區永寧路25號","121.430525","24.9634933333333","6501300","土城區"
