"lineid","car","time","location","longitude","latitude","cityid","cityname"
"234044","148-BY","2017/11/24 12:49:52","新北市永和區秀朗路二段151號","121.524868333333","25.001595","6500400","永和區"
"234012","149-BY","2017/11/24 12:49:53","新北市永和區保福路二段133巷1號","121.509473333333","25.01375","6500400","永和區"
"234005","207-UY","2017/11/24 12:49:46","新北市永和區文化路112號","121.513408333333","25.015285","6500400","永和區"
"234036","336-UY","2017/11/24 12:49:48","新北市永和區環河東路三段54號","121.526838333333","25.00617","6500400","永和區"
"234062","337-UY","2017/11/24 12:49:40","新北市永和區豫溪街217巷21號","121.524723333333","25.0102766666667","6500400","永和區"
"234084","338-UY","2017/11/24 12:49:46","新北市永和區中正路46號","121.513203333333","24.99437","6500400","永和區"
"234068","552-UM","2017/11/24 12:49:36","新北市永和區福和路1號","121.52543","25.0094883333333","6500400","永和區"
"234052","553-UM","2017/11/24 12:49:47","新北市永和區福和路1號","121.52568","25.0092233333333","6500400","永和區"
"234015","745-BX","2017/11/24 12:49:40","新北市永和區忠孝街26巷8號","121.51541","25.0167716666667","6500400","永和區"
"234028","746-BX","2017/11/24 12:49:49","新北市永和區得和路343號","121.523895","24.9996","6500400","永和區"
"234060","AAD-866","2017/11/24 12:49:52","新北市永和區福和路309巷1號","121.516321666667","25.007005","6500400","永和區"
"234078","847-RS","2017/11/24 12:49:57","新北市永和區永利路108號","121.52117","25.0034983333333","6500400","永和區"
"234040","862-TW","2017/11/24 12:49:57","新北市永和區永貞路267號","121.511848333333","25.004755","6500400","永和區"
"234048","863-TW","2017/11/24 12:49:42","新北市永和區保安路2號","121.510861666667","25.0175816666667","6500400","永和區"
"234025","9381-KE","2017/11/24 12:49:48","新北市永和區永和路二段28號","121.514715","25.010315","6500400","永和區"
"234010","9373-KE","2017/11/24 12:49:44","新北市永和區保福路二段165號","121.509118333333","25.0149233333333","6500400","永和區"
"234022","9380-KE","2017/11/24 12:49:44","新北市永和區竹林路119巷53弄12號","121.522341666667","25.0121316666667","6500400","永和區"
"234076","969-R7","2017/11/24 12:49:39","新北市中和區安樂路77號","121.512618333333","24.994245","6500400","永和區"
"234072","AAC-211","2017/11/24 12:49:49","新北市永和區福和路1號","121.526173333333","25.0094916666667","6500400","永和區"
"234001","AAC-295","2017/11/24 12:49:54","新北市永和區中正路742-1號","121.515066666667","25.0102883333333","6500400","永和區"
"231030","047-UY","2017/11/24 12:49:43","新北市新店區安華路28-1號","121.519043333333","24.96094","6500600","新店區"
"231012","108-UY","2017/11/24 04:21:07","新北市新店區安華路28-1號","121.519526666667","24.9613383333333","6500600","新店區"
"231022","187-VK","2017/11/24 12:49:55","新北市新店區安華路28-1號","121.51952","24.9612283333333","6500600","新店區"
"231036","188-VK","2017/11/24 12:49:43","新北市新店區安華路28-1號","121.519393333333","24.9610116666667","6500600","新店區"
"231016","KEA-2219","2017/11/24 12:49:46","新北市新店區安華路28-1號","121.519765","24.9614016666667","6500600","新店區"
"231034","268-BY","2017/11/24 12:49:44","新北市新店區安華路28-1號","121.519423333333","24.9605416666667","6500600","新店區"
"231010","278-BY","2017/11/24 00:52:08","新北市新店區安華路28-1號","121.519678333333","24.9614016666667","6500600","新店區"
"231027","3712-VJ","2017/11/24 12:49:42","新北市新店區安華路1-1號","121.519183333333","24.960575","6500600","新店區"
"231025","3713-VJ","2017/11/24 12:49:43","新北市新店區安華路28-1號","121.519131666667","24.9606816666667","6500600","新店區"
"231038","4715-K9","2017/11/24 12:49:42","新北市新店區安華路1-1號","121.519203333333","24.960435","6500600","新店區"
"231023","513-UM","2017/11/24 12:49:55","新北市新店區安華路28-1號","121.519525","24.9611516666667","6500600","新店區"
"231013","719-UM","2017/11/24 12:49:37","新北市新店區安華路28-1號","121.51949","24.9612566666667","6500600","新店區"
"231032","720-UM","2017/11/24 12:49:50","新北市新店區安華路28-1號","121.518981666667","24.9612166666667","6500600","新店區"
"231004","899-TW","2017/11/24 03:46:00","新北市新店區安華路28-1號","121.518793333333","24.9608983333333","6500600","新店區"
"231037","AKT-0513","2017/11/24 12:49:57","新北市新店區安華路1-1號","121.519473333333","24.9605","6500600","新店區"
"235029","098-UM","2017/11/24 12:49:45","新北市中和區員山路36巷16-3號","121.485153333333","24.9912683333333","6500300","中和區"
"235002","185-VK","2017/11/24 12:49:53","新北市中和區景平路261號","121.50845","24.9929933333333","6500300","中和區"
"235031","255-BX","2017/11/24 12:49:40","新北市中和區新民街90號","121.482113333333","25.007645","6500300","中和區"
"235025","378-QA","2017/11/24 03:46:08","新北市中和區員山路36巷13號","121.48414","24.9912733333333","6500300","中和區"
"223006","022-BY","2017/11/24 12:49:55","新北市坪林區坪碇路335號","121.683831666667","24.9543783333333","6501900","石碇區"
"208004","AAC-292","2017/11/24 12:49:41","新北市金山區磺清路135號","121.639345","25.2277433333333","6502700","金山區"
"207002","749-BX","2017/11/24 12:49:40","新北市萬里區雙興里二坪路32號","121.64505","25.168685","6502800","萬里區"
"207001","662-BX","2017/11/24 12:49:56","新北市萬里區萬里里獅頭路23號","121.69335","25.1781816666667","6502800","萬里區"
"236006","498-BY","2017/11/24 12:49:35","新北市土城區永寧路36-1號","121.428981666667","24.9593483333333","6501300","土城區"
"221012","276-VK","2017/11/24 12:49:38","新北市汐止區中正路133號","121.660068333333","25.069165","6501100","汐止區"
"242001","281-VK","2017/11/24 08:23:02","新北市新莊區環河路636-7號","121.437435","25.0112716666667","6500500","新莊區"
