"lineid","car","time","location","longitude","latitude","cityid","cityname"
"234044","148-BY","2017/11/24 12:59:52","新北市永和區秀朗路二段126巷30號","121.524521666667","25.0007933333333","6500400","永和區"
"234012","149-BY","2017/11/24 12:59:44","新北市永和區信義路14-1號","121.514386666667","25.0120183333333","6500400","永和區"
"234005","207-UY","2017/11/24 12:59:51","新北市永和區中山路一段15號","121.513913333333","25.010345","6500400","永和區"
"234036","336-UY","2017/11/24 12:59:48","新北市永和區成功路二段207號","121.526533333333","24.995985","6500400","永和區"
"234062","337-UY","2017/11/24 12:59:50","新北市永和區秀朗路一段166號","121.518506666667","25.0033466666667","6500400","永和區"
"234084","338-UY","2017/11/24 12:59:46","新北市永和區中正路532號","121.517191666667","25.0051833333333","6500400","永和區"
"234068","552-UM","2017/11/24 12:59:36","新北市永和區竹林路96巷21號","121.518585","25.0118166666667","6500400","永和區"
"234052","553-UM","2017/11/24 12:59:47","新北市永和區竹林路66巷2號","121.518253333333","25.0134066666667","6500400","永和區"
"234015","745-BX","2017/11/24 12:59:40","新北市永和區永和路二段299號","121.516113333333","25.0161916666667","6500400","永和區"
"234028","746-BX","2017/11/24 12:59:45","新北市永和區四維街40號","121.525343333333","24.99807","6500400","永和區"
"234060","AAD-866","2017/11/24 12:59:52","新北市永和區福和路311號","121.516143333333","25.0070383333333","6500400","永和區"
"234078","847-RS","2017/11/24 12:59:37","新北市永和區永貞路25號","121.52101","25.0068166666667","6500400","永和區"
"234040","862-TW","2017/11/24 12:59:37","新北市永和區永貞路267號","121.511791666667","25.00479","6500400","永和區"
"234048","863-TW","2017/11/24 12:59:42","新北市永和區文化路194號","121.510765","25.016245","6500400","永和區"
"234025","9381-KE","2017/11/24 12:59:48","新北市永和區水源街2巷6號","121.512496666667","25.00541","6500400","永和區"
"234010","9373-KE","2017/11/24 12:59:44","新北市永和區仁愛路40巷9弄3號","121.513856666667","25.0140183333333","6500400","永和區"
"248019","225-UY","2017/11/24 12:59:52","新北市五股區中興路二段83巷26-6號","121.46006","25.0753116666667","6501500","五股區"
"234022","9380-KE","2017/11/24 12:59:44","新北市永和區竹林路72巷8號","121.51884","25.0127666666667","6500400","永和區"
"234076","969-R7","2017/11/24 12:59:39","新北市永和區民享街10號","121.51526","24.9953716666667","6500400","永和區"
"234072","AAC-211","2017/11/24 12:59:49","新北市永和區環河東路二段98號","121.524111666667","25.01036","6500400","永和區"
"234066","AAC-212","2017/11/24 12:59:55","新北市永和區中和路625號","121.512973333333","25.0049116666667","6500400","永和區"
"234001","AAC-295","2017/11/24 12:59:54","新北市永和區永平路28號","121.513221666667","25.008825","6500400","永和區"
"231024","0291-UT","2017/11/24 12:59:45","新北市新店區安華路1-1號","121.519288333333","24.9605016666667","6500600","新店區"
"231028","046-UY","2017/11/24 12:59:54","新北市新店區安華路28-1號","121.51967","24.9609383333333","6500600","新店區"
"231030","047-UY","2017/11/24 12:59:43","新北市新店區安華路28-1號","121.519003333333","24.960945","6500600","新店區"
"231029","106-UY","2017/11/24 12:59:52","新北市新店區安華路28-1號","121.519533333333","24.96086","6500600","新店區"
"231018","107-UY","2017/11/24 12:59:44","新北市新店區安華路28-1號","121.519631666667","24.960815","6500600","新店區"
"231012","108-UY","2017/11/24 04:21:07","新北市新店區安華路28-1號","121.519526666667","24.9613383333333","6500600","新店區"
"231022","187-VK","2017/11/24 12:59:55","新北市新店區安華路28-1號","121.519531666667","24.9612883333333","6500600","新店區"
"231036","188-VK","2017/11/24 12:59:43","新北市新店區安華路28-1號","121.519401666667","24.9611133333333","6500600","新店區"
"231016","KEA-2219","2017/11/24 12:59:46","新北市新店區安華路28-1號","121.519693333333","24.961385","6500600","新店區"
"231034","268-BY","2017/11/24 12:59:45","新北市新店區安華路28-1號","121.519366666667","24.9605616666667","6500600","新店區"
"231010","278-BY","2017/11/24 00:52:08","新北市新店區安華路28-1號","121.519678333333","24.9614016666667","6500600","新店區"
"231002","355-BY","2017/11/24 12:59:51","新北市新店區安華路28-1號","121.518915","24.9610066666667","6500600","新店區"
"231027","3712-VJ","2017/11/24 12:59:43","新北市新店區安華路28-1號","121.519105","24.9606083333333","6500600","新店區"
"231025","3713-VJ","2017/11/24 12:59:43","新北市新店區安華路28-1號","121.519105","24.960665","6500600","新店區"
"231038","4715-K9","2017/11/24 12:59:42","新北市新店區安華路3號","121.519185","24.960345","6500600","新店區"
"231023","513-UM","2017/11/24 12:59:55","新北市新店區安華路28-1號","121.519723333333","24.96118","6500600","新店區"
"231035","515-UM","2017/11/24 10:57:24","新北市新店區安華路28-1號","121.519695","24.9612266666667","6500600","新店區"
"231003","616-UM","2017/11/24 12:59:45","新北市新店區安華路28-1號","121.519623333333","24.96061","6500600","新店區"
"231006","617-UM","2017/11/24 12:59:37","新北市新店區安華路28-1號","121.519285","24.9610833333333","6500600","新店區"
"231001","619-UM","2017/11/24 12:59:53","新北市新店區安華路28-1號","121.519515","24.9609066666667","6500600","新店區"
"231013","719-UM","2017/11/24 12:59:57","新北市新店區安華路28-1號","121.519513333333","24.96122","6500600","新店區"
"231032","720-UM","2017/11/24 12:59:50","新北市新店區安華路28-1號","121.51917","24.96131","6500600","新店區"
"231005","897-TW","2017/11/24 12:59:45","新北市新店區安華路28-1號","121.51963","24.9608583333333","6500600","新店區"
"231004","899-TW","2017/11/24 03:46:00","新北市新店區安華路28-1號","121.518793333333","24.9608983333333","6500600","新店區"
"231037","AKT-0513","2017/11/24 12:59:37","新北市新店區安華路1-1號","121.51914","24.96044","6500600","新店區"
"235029","098-UM","2017/11/24 12:59:45","新北市中和區連城路301號","121.489848333333","24.9962983333333","6500300","中和區"
"235022","151-BY","2017/11/24 12:59:50","新北市中和區錦和路350-1號","121.49035","24.9935933333333","6500300","中和區"
"235019","183-VK","2017/11/24 12:57:20","","121.48508","24.9913866666667","6500300","中和區"
"235002","185-VK","2017/11/24 12:59:53","新北市中和區秀朗路三段10巷12弄8號","121.525675","24.99681","6500300","中和區"
"235031","255-BX","2017/11/24 12:59:40","新北市中和區中正路866-2號","121.484355","25.0060483333333","6500300","中和區"
"235025","378-QA","2017/11/24 03:46:08","新北市中和區員山路36巷13號","121.48414","24.9912733333333","6500300","中和區"
"235006","551-UM","2017/11/24 12:59:44","新北市中和區員山路36巷16-2號","121.48533","24.99151","6500300","中和區"
"235034","558-UM","2017/11/24 12:59:45","新北市中和區員山路36巷16-2號","121.485038333333","24.9917966666667","6500300","中和區"
"235026","800-TS","2017/11/24 12:59:44","新北市中和區中正路589巷15號","121.48568","24.99377","6500300","中和區"
"235028","911-UM","2017/11/24 02:41:21","新北市中和區員山路36巷16-3號","121.484788333333","24.9916116666667","6500300","中和區"
"235001","AAC-213","2017/11/24 12:59:54","新北市中和區錦和路350-1號","121.490541666667","24.993575","6500300","中和區"
"223006","022-BY","2017/11/24 12:59:54","新北市坪林區下坑子口6-15號","121.707753333333","24.9431616666667","6501900","石碇區"
"208004","AAC-292","2017/11/24 12:59:41","新北市金山區磺港里磺港路328號","121.647366666667","25.2295033333333","6502700","金山區"
"207002","749-BX","2017/11/24 12:59:40","新北市萬里區雙興里大坪路49號","121.62256","25.173845","6502800","萬里區"
"207001","662-BX","2017/11/24 12:59:36","新北市萬里區萬里里獅頭路23號","121.693431666667","25.1782816666667","6502800","萬里區"
"236006","498-BY","2017/11/24 12:59:55","新北市土城區亞洲路14號","121.436613333333","24.9747883333333","6501300","土城區"
"238016","308-TH","2017/11/24 12:59:44","新北市樹林區八德街648號","121.396498333333","24.96908","6500700","樹林區"
"221012","276-VK","2017/11/24 12:59:38","新北市汐止區大同路二段434號","121.659335","25.0672316666667","6501100","汐止區"
"242001","281-VK","2017/11/24 08:23:02","新北市新莊區環河路636-7號","121.437435","25.0112716666667","6500500","新莊區"
