"lineid","car","time","location","longitude","latitude","cityid","cityname"
"234044","148-BY","2017/11/24 13:09:52","新北市永和區永元路18巷40弄2號","121.524128333333","25.0002933333333","6500400","永和區"
"234012","149-BY","2017/11/24 13:09:44","新北市永和區仁愛路150號","121.510913333333","25.0129916666667","6500400","永和區"
"234005","207-UY","2017/11/24 13:09:46","新北市永和區中山路一段195號","121.509096666667","25.008855","6500400","永和區"
"234036","336-UY","2017/11/24 13:09:48","新北市永和區民樂街69巷5號","121.527555","24.9977933333333","6500400","永和區"
"234062","337-UY","2017/11/24 13:09:40","新北市永和區秀朗路二段47號","121.521661666667","25.002295","6500400","永和區"
"234084","338-UY","2017/11/24 13:09:46","新北市永和區永貞路47-1號","121.519571666667","25.0044483333333","6500400","永和區"
"234068","552-UM","2017/11/24 13:09:57","新北市永和區豫溪街137巷1弄14號","121.518955","25.01045","6500400","永和區"
"234052","553-UM","2017/11/24 13:09:47","新北市永和區中興街133巷14號","121.518366666667","25.0126366666667","6500400","永和區"
"234015","745-BX","2017/11/24 13:09:40","新北市永和區文化路90巷9弄2號","121.51371","25.0158516666667","6500400","永和區"
"234028","746-BX","2017/11/24 13:09:49","新北市永和區四維街105號","121.52394","24.9982533333333","6500400","永和區"
"234060","AAD-866","2017/11/24 13:09:55","新北市永和區秀朗路一段83號","121.515236666667","25.0064833333333","6500400","永和區"
"234078","847-RS","2017/11/24 13:09:57","新北市永和區永貞路39巷9弄4號","121.52219","25.0066983333333","6500400","永和區"
"234040","862-TW","2017/11/24 13:09:57","新北市永和區永貞路334-1號","121.511386666667","25.0056783333333","6500400","永和區"
"234048","863-TW","2017/11/24 13:09:42","新北市永和區文化路135巷9號","121.51064","25.0145233333333","6500400","永和區"
"234025","9381-KE","2017/11/24 13:09:48","新北市永和區福和路362號","121.514703333333","25.0077233333333","6500400","永和區"
"234010","9373-KE","2017/11/24 13:09:44","新北市永和區仁愛路31巷2弄15號","121.513505","25.01289","6500400","永和區"
"248019","225-UY","2017/11/24 13:09:32","新北市五股區成泰路四段3號","121.452706666667","25.1063333333333","6501500","五股區"
"234022","9380-KE","2017/11/24 13:09:44","新北市永和區中興街10巷25號","121.516105","25.0111166666667","6500400","永和區"
"234076","969-R7","2017/11/24 13:09:41","新北市永和區民光街14號","121.515673333333","24.996025","6500400","永和區"
"234072","AAC-211","2017/11/24 13:09:49","新北市永和區竹林路198號","121.520501666667","25.00958","6500400","永和區"
"234066","AAC-212","2017/11/24 13:09:52","新北市永和區保平路39號","121.512055","25.00717","6500400","永和區"
"234001","AAC-295","2017/11/24 13:09:54","新北市永和區和平街2號","121.51427","25.00998","6500400","永和區"
"231024","0291-UT","2017/11/24 13:09:45","新北市新店區安華路28-1號","121.519235","24.9605883333333","6500600","新店區"
"231028","046-UY","2017/11/24 13:09:54","新北市新店區安華路28-1號","121.519723333333","24.9610433333333","6500600","新店區"
"231030","047-UY","2017/11/24 13:09:43","新北市新店區安康路一段359-27號","121.518705","24.9608833333333","6500600","新店區"
"231029","106-UY","2017/11/24 13:09:52","新北市新店區安華路28-1號","121.519558333333","24.96079","6500600","新店區"
"231018","107-UY","2017/11/24 13:09:44","新北市新店區安華路28-1號","121.519636666667","24.96079","6500600","新店區"
"231012","108-UY","2017/11/24 04:21:07","新北市新店區安華路28-1號","121.519526666667","24.9613383333333","6500600","新店區"
"231022","187-VK","2017/11/24 13:09:55","新北市新店區安華路28-1號","121.519615","24.9612966666667","6500600","新店區"
"231036","188-VK","2017/11/24 13:09:43","新北市新店區安華路28-1號","121.51953","24.9605483333333","6500600","新店區"
"231016","KEA-2219","2017/11/24 13:09:46","新北市新店區安華路28-1號","121.519673333333","24.961365","6500600","新店區"
"231026","256-BX","2017/11/24 02:48:17","新北市新店區安華路28-1號","121.519691666667","24.9610833333333","6500600","新店區"
"231034","268-BY","2017/11/24 13:09:45","新北市新店區安華路28-1號","121.51933","24.9605866666667","6500600","新店區"
"231010","278-BY","2017/11/24 00:52:08","新北市新店區安華路28-1號","121.519678333333","24.9614016666667","6500600","新店區"
"231002","355-BY","2017/11/24 13:09:51","新北市新店區安華路28-1號","121.518901666667","24.9609366666667","6500600","新店區"
"231027","3712-VJ","2017/11/24 13:09:43","新北市新店區安華路28-1號","121.519151666667","24.9606916666667","6500600","新店區"
"231025","3713-VJ","2017/11/24 13:09:43","新北市新店區安康路一段355-3號","121.519728333333","24.9615516666667","6500600","新店區"
"231038","4715-K9","2017/11/24 13:09:42","新北市新店區安華路28-1號","121.519311666667","24.960565","6500600","新店區"
"231023","513-UM","2017/11/24 13:09:55","新北市新店區安華路28-1號","121.519755","24.9612916666667","6500600","新店區"
"231035","515-UM","2017/11/24 10:57:24","新北市新店區安華路28-1號","121.519695","24.9612266666667","6500600","新店區"
"231003","616-UM","2017/11/24 13:09:45","新北市新店區安華路28-1號","121.51961","24.9606466666667","6500600","新店區"
"231006","617-UM","2017/11/24 13:09:56","新北市新店區安華路28-1號","121.519451666667","24.9611133333333","6500600","新店區"
"231001","619-UM","2017/11/24 13:09:53","新北市新店區安華路28-1號","121.519471666667","24.9608433333333","6500600","新店區"
"231013","719-UM","2017/11/24 13:09:37","新北市新店區安華路28-1號","121.519526666667","24.9614","6500600","新店區"
"231032","720-UM","2017/11/24 13:09:50","新北市新店區安華路28-1號","121.519331666667","24.9612116666667","6500600","新店區"
"231005","897-TW","2017/11/24 13:09:45","新北市新店區安華路28-1號","121.51963","24.9608916666667","6500600","新店區"
"231004","899-TW","2017/11/24 03:46:00","新北市新店區安華路28-1號","121.518793333333","24.9608983333333","6500600","新店區"
"231037","AKT-0513","2017/11/24 13:09:57","新北市新店區安華路28-1號","121.519356666667","24.9606116666667","6500600","新店區"
"235030","003-UY","2017/11/24 13:09:50","新北市中和區中正路395號","121.489943333333","24.9935833333333","6500300","中和區"
"235029","098-UM","2017/11/24 13:09:45","新北市中和區福祥路135號","121.498186666667","25.0074683333333","6500300","中和區"
"235004","150-BY","2017/11/24 13:09:43","新北市中和區中正路246號","121.495808333333","24.993935","6500300","中和區"
"235022","151-BY","2017/11/24 13:09:50","","121.491691666667","24.9844183333333","6500300","中和區"
"235019","183-VK","2017/11/24 13:09:55","新北市中和區員山路36巷16-3號","121.484976666667","24.99132","6500300","中和區"
"235002","185-VK","2017/11/24 13:09:53","新北市中和區景平路124號","121.519186666667","24.9917966666667","6500300","中和區"
"235031","255-BX","2017/11/24 13:09:40","新北市中和區新生街15號","121.483228333333","25.00428","6500300","中和區"
"235032","377-QA","2017/11/24 02:11:12","新北市中和區員山路36巷16-3號","121.485101666667","24.99115","6500300","中和區"
"235025","378-QA","2017/11/24 03:46:08","新北市中和區員山路36巷13號","121.48414","24.9912733333333","6500300","中和區"
"235035","269-TV","2017/11/24 13:09:50","新北市中和區中山路二段488-1號","121.487405","25.0049183333333","6500300","中和區"
"235014","4979-A6","2017/11/24 13:09:48","新北市中和區中正路585號","121.48597","24.9945683333333","6500300","中和區"
"235033","4980-A6","2017/11/24 13:09:56","新北市中和區圓通路262號","121.493055","24.9908383333333","6500300","中和區"
"235006","551-UM","2017/11/24 13:09:44","新北市中和區景平路352號","121.511448333333","24.9927366666667","6500300","中和區"
"235034","558-UM","2017/11/24 13:09:45","新北市中和區員山路36巷16-8號","121.485405","24.99223","6500300","中和區"
"235018","640-BX","2017/11/24 13:09:41","新北市中和區連城路607號","121.477728333333","24.9929716666667","6500300","中和區"
"235010","733-UM","2017/11/24 13:09:54","新北市中和區員山路36巷13號","121.48412","24.9908633333333","6500300","中和區"
"235026","800-TS","2017/11/24 13:09:44","新北市中和區中山路二段359巷7號","121.489025","25.0036083333333","6500300","中和區"
"235021","801-TS","2017/11/24 13:09:53","新北市中和區員山路36巷16-3號","121.485015","24.9917183333333","6500300","中和區"
"235005","802-TS","2017/11/24 13:09:53","新北市中和區錦和路350-1號","121.490201666667","24.9936066666667","6500300","中和區"
"235016","805-TS","2017/11/24 13:09:55","新北市中和區員山路36巷16-3號","121.484821666667","24.991345","6500300","中和區"
"235017","900-TW","2017/11/24 13:09:43","新北市中和區員山路36巷16-3號","121.484926666667","24.9917533333333","6500300","中和區"
"235028","911-UM","2017/11/24 13:09:47","新北市中和區中正路277號","121.49527","24.9937966666667","6500300","中和區"
"235001","157-BY","2017/11/24 13:09:48","新北市中和區錦和路350-1號","121.490045","24.9935766666667","6500300","中和區"
"235001","AAC-213","2017/11/24 13:09:54","新北市中和區景平路149號","121.51389","24.9920916666667","6500300","中和區"
"235023","AAC-215","2017/11/24 00:27:31","新北市中和區員山路36巷16-3號","121.485031666667","24.9912766666667","6500300","中和區"
"223006","022-BY","2017/11/24 13:09:34","新北市坪林區北宜路八段453號","121.70626","24.9236683333333","6501900","石碇區"
"208004","AAC-292","2017/11/24 13:09:41","新北市金山區中山路170號","121.638356666667","25.221065","6502700","金山區"
"207002","749-BX","2017/11/24 13:06:40","新北市萬里區溪底里香員林路15號","121.633821666667","25.1633366666667","6502800","萬里區"
"207001","662-BX","2017/11/24 13:09:56","新北市萬里區萬里里瑪鋉路98號","121.690535","25.17861","6502800","萬里區"
"236006","498-BY","2017/11/24 13:09:55","新北市土城區亞洲路62號","121.43525","24.973325","6501300","土城區"
"238016","308-TH","2017/11/24 13:09:44","新北市樹林區東豐街49巷22弄11號","121.414631666667","24.9747566666667","6500700","樹林區"
"221012","276-VK","2017/11/24 13:09:38","新北市汐止區汐萬路一段256巷3號","121.653268333333","25.074505","6501100","汐止區"
"242001","281-VK","2017/11/24 13:09:39","新北市新莊區環河路636-7號","121.437266666667","25.011875","6500500","新莊區"
