"lineid","car","time","location","longitude","latitude","cityid","cityname"
"234044","148-BY","2017/11/24 13:39:52","新北市永和區永利路165號","121.525123333333","25.0035583333333","6500400","永和區"
"234012","149-BY","2017/11/24 13:39:53","新北市永和區仁愛路186巷2號","121.509896666667","25.0126083333333","6500400","永和區"
"234005","207-UY","2017/11/24 13:39:46","新北市永和區永和路一段106號","121.513456666667","25.00728","6500400","永和區"
"234036","336-UY","2017/11/24 13:39:48","新北市永和區環河東路四段16號","121.528546666667","24.999925","6500400","永和區"
"234062","337-UY","2017/11/24 13:39:40","新北市永和區秀朗路一段192巷6弄12號","121.519021666667","25.0023483333333","6500400","永和區"
"234084","338-UY","2017/11/24 13:39:46","新北市永和區永亨路157號","121.52584","25.00383","6500400","永和區"
"234068","552-UM","2017/11/24 13:39:57","新北市永和區竹林路112-1號","121.519795","25.0117083333333","6500400","永和區"
"234052","553-UM","2017/11/24 13:39:47","新北市永和區竹林路39巷3號","121.51815","25.0144733333333","6500400","永和區"
"234015","745-BX","2017/11/24 13:39:45","新北市永和區永和路二段423號","121.51527","25.01763","6500400","永和區"
"234028","746-BX","2017/11/24 13:39:49","新北市永和區民權路17號","121.520063333333","24.9980216666667","6500400","永和區"
"234060","AAD-866","2017/11/24 13:39:52","新北市永和區中正路199號","121.517351666667","24.999425","6500400","永和區"
"234078","847-RS","2017/11/24 13:39:46","新北市永和區林森路42號","121.525175","25.004815","6500400","永和區"
"234040","862-TW","2017/11/24 13:39:37","新北市中和區中和路262號","121.508461666667","24.99967","6500400","永和區"
"234048","863-TW","2017/11/24 13:39:49","新北市永和區保安路29號","121.509968333333","25.0163666666667","6500400","永和區"
"234025","9381-KE","2017/11/24 13:39:48","新北市永和區自由街58號","121.513846666667","25.0059016666667","6500400","永和區"
"234010","9373-KE","2017/11/24 13:39:40","","121.510733333333","25.0108783333333","6500400","永和區"
"248019","225-UY","2017/11/24 13:37:32","新北市五股區孝義路102號","121.445338333333","25.1196333333333","6501500","五股區"
"234022","9380-KE","2017/11/24 13:39:44","新北市永和區中正路702巷20弄2號","121.516523333333","25.01044","6500400","永和區"
"234076","969-R7","2017/11/24 13:39:39","新北市永和區民權路46號","121.520126666667","24.9985866666667","6500400","永和區"
"234072","AAC-211","2017/11/24 13:39:49","新北市永和區竹林路213巷41號","121.523326666667","25.00916","6500400","永和區"
"234066","AAC-212","2017/11/24 13:39:56","新北市永和區永平路173巷9號","121.510126666667","25.00824","6500400","永和區"
"234001","AAC-295","2017/11/24 13:39:34","新北市永和區福和路379號","121.514503333333","25.0075333333333","6500400","永和區"
"244004","248-BX","2017/11/24 13:39:51","新北市林口區南勢六街257號","121.356768333333","25.076255","6501700","林口區"
"231024","0291-UT","2017/11/24 13:39:45","新北市新店區華興街15號","121.53777","24.9694616666667","6500600","新店區"
"231028","046-UY","2017/11/24 13:39:54","新北市新店區安和路二段138號","121.519535","24.972365","6500600","新店區"
"231030","047-UY","2017/11/24 13:39:44","新北市新店區安康路一段144號","121.526455","24.9629","6500600","新店區"
"231029","106-UY","2017/11/24 13:39:52","新北市新店區安康路二段216號","121.509836666667","24.9593683333333","6500600","新店區"
"231018","107-UY","2017/11/24 13:39:44","新北市新店區百忍街2號","121.535151666667","24.9755833333333","6500600","新店區"
"231012","108-UY","2017/11/24 13:39:45","新北市新店區德正街27巷29弄135號","121.545756666667","24.973275","6500600","新店區"
"231022","187-VK","2017/11/24 13:39:55","新北市新店區永興路95-3號","121.544476666667","24.932565","6500600","新店區"
"231036","188-VK","2017/11/24 13:39:49","新北市新店區安祥路142號","121.474396666667","24.95547","6500600","新店區"
"231016","KEA-2219","2017/11/24 13:39:52","新北市新店區竹林路23號","121.551423333333","24.9515666666667","6500600","新店區"
"231026","256-BX","2017/11/24 13:39:53","新北市新店區中正路159號","121.54126","24.9718983333333","6500600","新店區"
"231034","268-BY","2017/11/24 13:39:45","新北市新店區車子路134號","121.505175","24.9489516666667","6500600","新店區"
"231010","278-BY","2017/11/24 13:39:43","","121.537065","24.97425","6500600","新店區"
"231002","355-BY","2017/11/24 13:39:51","新北市新店區中央三街127號","121.524148333333","24.97689","6500600","新店區"
"231027","3712-VJ","2017/11/24 13:39:42","","121.540368333333","24.9554783333333","6500600","新店區"
"231025","3713-VJ","2017/11/24 13:39:43","新北市新店區中央六街54號","121.528043333333","24.9756933333333","6500600","新店區"
"231038","4715-K9","2017/11/24 13:39:42","新北市新店區安華路30巷1號","121.519593333333","24.9592883333333","6500600","新店區"
"231023","513-UM","2017/11/24 13:39:55","新北市新店區北宜路一段26號","121.537666666667","24.957","6500600","新店區"
"231035","515-UM","2017/11/24 13:39:50","新北市新店區安忠路73號","121.511236666667","24.95732","6500600","新店區"
"231003","616-UM","2017/11/24 13:39:45","新北市新店區中興路一段289號","121.545521666667","24.968675","6500600","新店區"
"231006","617-UM","2017/11/24 13:39:56","新北市新店區北宜路一段66號","121.538595","24.955935","6500600","新店區"
"231001","619-UM","2017/11/24 13:39:53","新北市新店區中正路366號","121.535375","24.9760233333333","6500600","新店區"
"231013","719-UM","2017/11/24 13:39:57","新北市新店區中正路454-5號","121.534426666667","24.9790716666667","6500600","新店區"
"231032","720-UM","2017/11/24 13:39:50","新北市新店區莒光路27號","121.524796666667","24.9597333333333","6500600","新店區"
"231005","897-TW","2017/11/24 13:39:45","新北市新店區寶中路72號","121.547898333333","24.9806416666667","6500600","新店區"
"231004","899-TW","2017/11/24 13:39:52","新北市新店區北新路二段1號","121.542691666667","24.9712666666667","6500600","新店區"
"231037","AKT-0513","2017/11/24 13:39:57","新北市新店區安康路三段318號","121.486928333333","24.9518583333333","6500600","新店區"
"235030","003-UY","2017/11/24 13:39:50","新北市中和區水源路34巷1號","121.504913333333","25.0035583333333","6500300","中和區"
"235027","006-UY","2017/11/24 13:39:41","新北市中和區連城路389巷7號","121.486578333333","24.99567","6500300","中和區"
"235020","096-UM","2017/11/24 13:39:53","新北市中和區員山路466巷34號","121.482275","25.00633","6500300","中和區"
"235003","097-UM","2017/11/24 13:39:54","新北市中和區大勇街27巷31號","121.516068333333","24.99389","6500300","中和區"
"235029","098-UM","2017/11/24 13:39:45","新北市中和區莊敬路49巷29弄30號","121.500673333333","25.0065383333333","6500300","中和區"
"235004","150-BY","2017/11/24 13:39:43","","121.50944","24.99513","6500300","中和區"
"235022","151-BY","2017/11/24 13:39:50","新北市中和區員山路78-3號","121.481691666667","24.9921983333333","6500300","中和區"
"235019","183-VK","2017/11/24 13:39:37","新北市中和區國光街34號","121.471191666667","25.0004133333333","6500300","中和區"
"235002","185-VK","2017/11/24 13:39:53","新北市中和區大勇街60巷2號","121.518341666667","24.99479","6500300","中和區"
"235013","186-VK","2017/11/24 13:39:50","新北市中和區景平路504巷2號","121.504015","24.9937283333333","6500300","中和區"
"235031","255-BX","2017/11/24 13:39:40","新北市中和區新生街220巷13號","121.482958333333","24.99848","6500300","中和區"
"235008","293-VK","2017/11/24 13:39:45","","121.5029","24.99041","6500300","中和區"
"235036","301-VK","2017/11/24 13:39:39","新北市中和區安邦街8號","121.495603333333","24.9981933333333","6500300","中和區"
"235007","352-BY","2017/11/24 13:39:37","新北市中和區景平路155號","121.5134","24.9922266666667","6500300","中和區"
"235032","377-QA","2017/11/24 13:39:57","新北市中和區中正路211巷22號","121.497001666667","24.9931483333333","6500300","中和區"
"235025","378-QA","2017/11/24 13:39:56","新北市中和區民享街97巷22號","121.475225","25.00014","6500300","中和區"
"235035","269-TV","2017/11/24 13:39:50","新北市中和區永和路446-30號","121.48489","25.0118633333333","6500300","中和區"
"235014","4979-A6","2017/11/24 13:39:48","新北市中和區景新街496巷32弄10號","121.513013333333","24.9853083333333","6500300","中和區"
"235033","4980-A6","2017/11/24 13:39:56","新北市中和區中和路71號","121.5007","25.000955","6500300","中和區"
"235006","551-UM","2017/11/24 13:39:44","","121.526628333333","24.9917883333333","6500300","中和區"
"235034","558-UM","2017/11/24 13:39:45","","121.504603333333","24.9972","6500300","中和區"
"235009","565-BX","2017/11/24 13:39:37","新北市中和區復興路1號","121.506445","24.9896216666667","6500300","中和區"
"235018","640-BX","2017/11/24 13:39:41","","121.47296","25.0012233333333","6500300","中和區"
"235024","647-TV","2017/11/24 13:39:42","","121.47994","25.0056483333333","6500300","中和區"
"235011","732-UM","2017/11/24 13:39:56","新北市中和區興南路二段36號","121.50696","24.98538","6500300","中和區"
"235010","733-UM","2017/11/24 13:39:54","新北市中和區捷運路58號","121.507575","24.9905983333333","6500300","中和區"
"235026","800-TS","2017/11/24 13:39:44","新北市中和區中山路二段312巷18號","121.495228333333","25.0038966666667","6500300","中和區"
"235021","801-TS","2017/11/24 13:39:53","新北市中和區民享街97巷14號","121.475276666667","24.99965","6500300","中和區"
"235005","802-TS","2017/11/24 13:39:53","新北市中和區中安街74號","121.51236","25.00193","6500300","中和區"
"235016","805-TS","2017/11/24 13:39:55","新北市中和區興南路三段52巷2-5號","121.494723333333","24.9760983333333","6500300","中和區"
"235017","900-TW","2017/11/24 13:39:43","新北市中和區莒光路213號","121.469031666667","24.994715","6500300","中和區"
"235028","911-UM","2017/11/24 13:39:47","新北市中和區連城路127巷29號","121.497321666667","24.9976516666667","6500300","中和區"
"235001","157-BY","2017/11/24 13:39:48","新北市中和區興南路二段114巷10弄12號","121.503993333333","24.9849483333333","6500300","中和區"
"235001","AAC-213","2017/11/24 13:39:54","新北市中和區景平路151巷47號","121.514771666667","24.990395","6500300","中和區"
"235023","AAC-215","2017/11/24 13:39:42","","121.485468333333","24.9930883333333","6500300","中和區"
"220016","013-TV","2017/11/23 21:23:58","新北市八里區荖阡坑路2-6號","121.398515","25.144265","6500100","板橋區"
"220013","072-UY","2017/11/24 13:39:51","新北市板橋區漢生東路266號","121.468366666667","25.0134533333333","6500100","板橋區"
"220034","073-UY","2017/11/24 13:39:51","新北市板橋區南雅西路二段180巷5號","121.451905","25.0140516666667","6500100","板橋區"
"220017","AAD-861","2017/11/24 13:39:52","新北市板橋區華東街1-10號","121.448203333333","24.995135","6500100","板橋區"
"247007","341-TH","2017/11/24 13:39:55","新北市蘆洲區環堤大道365號","121.45568","25.0974","6501400","蘆洲區"
"247009","339-TH","2017/11/24 13:39:47","新北市蘆洲區環堤大道365號","121.455446666667","25.0974116666667","6501400","蘆洲區"
"247003","335-TH","2017/11/24 13:39:50","新北市五股區中興路二段182巷15弄13號","121.457143333333","25.0816833333333","6501400","蘆洲區"
"247015","057-VK","2017/11/24 13:39:42","新北市五股區成泰路三段544-1號","121.453815","25.1014216666667","6501400","蘆洲區"
"247017","001-UY","2017/11/24 13:39:45","","121.448216666667","25.0840733333333","6501400","蘆洲區"
"223006","022-BY","2017/11/24 13:39:54","新北市坪林區坪雙路一段58號","121.713515","24.9435683333333","6501900","石碇區"
"207002","749-BX","2017/11/24 13:39:40","","121.645036666667","25.155855","6502800","萬里區"
"207001","662-BX","2017/11/24 13:39:56","新北市萬里區磺潭里公館崙20號","121.637123333333","25.21418","6502800","萬里區"
"208004","170-UY","2017/11/24 13:39:48","新北市金山區南勢湖80號","121.612586666667","25.21267","6502700","金山區"
"236067","105-UM","2017/11/24 13:39:50","新北市土城區城林路6巷80號","121.438381666667","24.9797333333333","6501300","土城區"
"236041","107-UM","2017/11/24 13:39:48","","121.438448333333","24.9799383333333","6501300","土城區"
"236013","270-VK","2017/11/24 13:39:37","新北市土城區城林路6巷80號","121.43839","24.9798583333333","6501300","土城區"
"236035","271-VK","2017/11/24 13:39:43","","121.43848","24.9798416666667","6501300","土城區"
"236006","498-BY","2017/11/24 13:39:55","新北市土城區慶祥街84號","121.436076666667","24.97338","6501300","土城區"
"236077","752-BX","2017/11/24 13:39:38","新北市土城區城林路6巷80號","121.438745","24.9796716666667","6501300","土城區"
"236061","915-UM","2017/11/24 13:39:55","新北市土城區城林路6巷80號","121.438396666667","24.9798266666667","6501300","土城區"
"238016","308-TH","2017/11/24 13:39:44","","121.391206666667","24.9684883333333","6500700","樹林區"
"221012","276-VK","2017/11/24 13:17:10","新北市汐止區汐萬路一段256巷3號","121.653448333333","25.0746666666667","6501100","汐止區"
"220027","145-BY","2017/11/24 13:39:54","新北市板橋區國光路76號","121.458371666667","25.0178483333333","6500100","板橋區"
"220028","200-UY","2017/11/24 13:39:50","新北市板橋區大觀路二段265巷7-7號","121.44431","24.994585","6500100","板橋區"
"220030","610-BX","2017/11/24 13:39:56","新北市板橋區大觀路三段18號","121.434661666667","24.9956933333333","6500100","板橋區"
"220014","257-TC","2017/11/24 13:39:54","新北市板橋區民生路二段120號","121.470473333333","25.0196233333333","6500100","板橋區"
"220004","276-BY","2017/11/24 13:39:54","新北市板橋區四川路二段128號","121.450315","24.99361","6500100","板橋區"
"220020","277-BY","2017/11/24 13:39:39","新北市板橋區大觀路二段443-2號","121.439438333333","24.9951966666667","6500100","板橋區"
"220005","282-UM","2017/11/24 13:39:46","新北市板橋區華東街1-9號","121.448151666667","24.9948566666667","6500100","板橋區"
"220043","283-UM","2017/11/24 13:39:53","新北市板橋區民生路二段120號","121.470563333333","25.019755","6500100","板橋區"
"220019","283-VK","2017/11/24 13:39:55","新北市板橋區四川路二段橋頭6號","121.448308333333","24.9940816666667","6500100","板橋區"
"220001","285-VK","2017/11/24 13:39:53","新北市板橋區民生路二段120號","121.470416666667","25.019965","6500100","板橋區"
"220031","286-VK","2017/11/24 13:39:56","新北市板橋區大觀路二段153巷46弄11-7號","121.44907","24.9973783333333","6500100","板橋區"
"220029","287-VK","2017/11/24 13:39:40","新北市板橋區大觀路二段266號","121.44857","24.9970116666667","6500100","板橋區"
"220009","293-UM","2017/11/24 13:39:47","","121.470381666667","25.0198183333333","6500100","板橋區"
"220032","296-UM","2017/11/24 13:39:50","新北市板橋區大觀路二段153巷46弄11-7號","121.449013333333","24.9973633333333","6500100","板橋區"
"220023","297-UM","2017/11/24 13:39:51","新北市板橋區南雅南路二段120-16號","121.452018333333","24.9992466666667","6500100","板橋區"
"242001","281-VK","2017/11/24 13:39:39","新北市新莊區泰順街33巷8號","121.446155","25.042695","6500500","新莊區"
"220047","317-R6","2017/11/24 13:39:37","新北市板橋區民生路二段161巷3號","121.470113333333","25.019795","6500100","板橋區"
"220012","486-VK","2017/11/24 13:39:32","新北市板橋區縣民大道二段196號","121.469275","25.0171633333333","6500100","板橋區"
"220104","560-BX","2017/11/24 13:39:53","新北市板橋區南雅西路二段145巷10號","121.45154","25.0120233333333","6500100","板橋區"
"220052","561-BX","2017/11/24 13:39:45","新北市板橋區民生路二段120號","121.47049","25.0195883333333","6500100","板橋區"
"220011","609-BX","2017/11/24 13:39:40","","121.469836666667","25.0203116666667","6500100","板橋區"
"220005","686-BX","2017/11/24 13:39:53","新北市板橋區華東街1-10號","121.44822","24.994985","6500100","板橋區"
"220025","687-BX","2017/11/24 13:39:48","新北市板橋區大觀路三段180巷30號","121.429786666667","24.9936016666667","6500100","板橋區"
"220002","741-BX","2017/11/24 13:39:41","","121.44809","24.994935","6500100","板橋區"
"220003","827-TW","2017/11/24 13:39:51","新北市板橋區華東街1-9號","121.448216666667","24.994965","6500100","板橋區"
"220051","830-TW","2017/11/23 15:26:18","新北市板橋區民生路二段179號","121.469595","25.0203166666667","6500100","板橋區"
"220022","895-R6","2017/11/24 13:39:47","新北市板橋區南雅南路一段107號","121.455388333333","25.0050616666667","6500100","板橋區"
"220021","985-R7","2017/11/24 13:39:39","新北市板橋區南雅南路二段142巷2號","121.451655","24.9963133333333","6500100","板橋區"
"220018","AAC-253","2017/11/24 13:39:45","","121.448238333333","24.9948983333333","6500100","板橋區"
