"lineid","car","time","location","longitude","latitude","cityid","cityname"
"234062","337-UY","2017/11/24 14:59:55","新北市永和區福和路1號","121.52645","25.00993","6500400","永和區"
"234025","9381-KE","2017/11/24 14:59:48","新北市永和區保生路40巷1號","121.505746666667","25.0083466666667","6500400","永和區"
"248019","225-UY","2017/11/24 14:59:50","新北市五股區中直路10號","121.427108333333","25.111465","6501500","五股區"
"244004","248-BX","2017/11/24 14:59:53","新北市林口區民族路302-99號","121.370641666667","25.0793816666667","6501700","林口區"
"231024","0291-UT","2017/11/24 14:59:45","新北市新店區中華路83巷67號","121.53837","24.9673216666667","6500600","新店區"
"231028","046-UY","2017/11/24 14:59:53","新北市新店區安豐路49號","121.500001666667","24.9549083333333","6500600","新店區"
"231030","047-UY","2017/11/24 14:59:43","新北市新店區安民街341號","121.516948333333","24.9750216666667","6500600","新店區"
"231029","106-UY","2017/11/24 14:59:52","新北市新店區安康路三段642號","121.476685","24.94458","6500600","新店區"
"231018","107-UY","2017/11/24 14:59:44","新北市新店區中央路202號","121.530348333333","24.9741866666667","6500600","新店區"
"231012","108-UY","2017/11/24 14:59:45","新北市新店區中興路三段205巷7弄1號","121.5432","24.9815316666667","6500600","新店區"
"231022","187-VK","2017/11/24 14:59:55","新北市新店區永福路54號","121.558106666667","24.9287033333333","6500600","新店區"
"231036","188-VK","2017/11/24 14:59:40","新北市新店區安祥路102巷42弄85號","121.486666666667","24.9631083333333","6500600","新店區"
"231016","KEA-2219","2017/11/24 14:59:46","新北市新店區北宜路三段51號","121.571313333333","24.9503433333333","6500600","新店區"
"231026","256-BX","2017/11/24 14:59:52","新北市新店區中正路160號","121.54141","24.971795","6500600","新店區"
"231034","268-BY","2017/11/24 14:59:44","新北市新店區玫瑰路4-1號","121.493526666667","24.9514483333333","6500600","新店區"
"231002","355-BY","2017/11/24 14:59:51","新北市新店區民權路129-1號","121.535453333333","24.9828116666667","6500600","新店區"
"231027","3712-VJ","2017/11/24 14:59:42","新北市新店區薏仁坑路自強巷2號","121.497611666667","24.9589233333333","6500600","新店區"
"231025","3713-VJ","2017/11/24 14:59:43","新北市新店區大同街25號","121.538706666667","24.9806983333333","6500600","新店區"
"231023","513-UM","2017/11/24 14:59:55","新北市新店區檳榔路105號","121.544595","24.96178","6500600","新店區"
"231035","515-UM","2017/11/24 14:59:50","新北市新店區永安街85號","121.519991666667","24.9865716666667","6500600","新店區"
"231003","616-UM","2017/11/24 14:59:45","新北市新店區中興路二段228號","121.547856666667","24.975185","6500600","新店區"
"231006","617-UM","2017/11/24 14:59:36","新北市新店區新坡一街72號","121.548936666667","24.9645683333333","6500600","新店區"
"231001","619-UM","2017/11/24 14:59:53","新北市新店區中正路274號","121.538918333333","24.97371","6500600","新店區"
"231039","718-UY","2017/11/24 14:59:40","新北市新店區中正路111號","121.542483333333","24.9704483333333","6500600","新店區"
"231032","720-UM","2017/11/24 14:59:50","新北市新店區安泰路60巷83號","121.484113333333","24.9445833333333","6500600","新店區"
"231005","897-TW","2017/11/24 14:59:45","新北市新店區復興路68號","121.537778333333","24.9868733333333","6500600","新店區"
"231004","899-TW","2017/11/24 14:59:52","新北市新店區民族路64號","121.53968","24.9784316666667","6500600","新店區"
"231037","AKT-0513","2017/11/24 14:59:57","新北市新店區安民街365巷7弄2號","121.51603","24.9754366666667","6500600","新店區"
"235030","003-UY","2017/11/24 14:59:50","新北市中和區中山路二段6號","121.505125","25.0056533333333","6500300","中和區"
"235020","096-UM","2017/11/24 14:59:53","新北市板橋區漢生東路338號","121.471861666667","25.0075216666667","6500300","中和區"
"235003","097-UM","2017/11/24 14:59:54","新北市永和區中正路5號","121.513793333333","24.99562","6500300","中和區"
"235029","098-UM","2017/11/24 14:59:45","新北市中和區永和路128巷9號","121.497616666667","25.007035","6500300","中和區"
"235004","150-BY","2017/11/24 14:59:43","新北市中和區保健路19巷1號","121.508163333333","24.9983116666667","6500300","中和區"
"235002","185-VK","2017/11/24 14:59:53","新北市中和區自強路56號","121.520208333333","24.9946183333333","6500300","中和區"
"235013","186-VK","2017/11/24 14:59:46","新北市中和區景平路393號","121.502621666667","24.9944316666667","6500300","中和區"
"235031","255-BX","2017/11/24 14:59:40","新北市中和區中正路751巷3弄12號","121.484348333333","24.9993766666667","6500300","中和區"
"235008","293-VK","2017/11/24 14:59:45","新北市中和區板南路100號","121.503895","24.9924766666667","6500300","中和區"
"235007","352-BY","2017/11/24 14:59:54","新北市中和區興南路二段159巷7號","121.505335","24.983025","6500300","中和區"
"235032","377-QA","2017/11/24 14:59:17","新北市中和區福祥路85巷1號","121.49886","25.005685","6500300","中和區"
"235035","269-TV","2017/11/24 14:59:49","新北市中和區建一路92-1號","121.487998333333","25.0006333333333","6500300","中和區"
"235014","4979-A6","2017/11/24 14:59:48","新北市中和區安樂路66號","121.512241666667","24.99322","6500300","中和區"
"235033","4980-A6","2017/11/24 14:59:56","新北市中和區南山路127巷27弄26號","121.50332","24.9980566666667","6500300","中和區"
"235034","558-UM","2017/11/24 14:59:44","新北市中和區連勝街22號","121.498485","24.99811","6500300","中和區"
"235018","640-BX","2017/11/24 14:59:41","新北市中和區莒光路4號","121.472028333333","25.00465","6500300","中和區"
"235010","733-UM","2017/11/24 14:59:54","新北市中和區忠孝街31巷42號","121.50986","24.985035","6500300","中和區"
"235005","802-TS","2017/11/24 14:59:53","新北市板橋區光武街127巷11號","121.465413333333","25.0283916666667","6500300","中和區"
"235012","896-TW","2017/11/24 14:59:45","新北市中和區忠孝街1巷2-1號","121.509153333333","24.98311","6500300","中和區"
"235001","157-BY","2017/11/24 14:59:48","新北市中和區景安路196號","121.50423","24.9914933333333","6500300","中和區"
"235001","AAC-213","2017/11/24 14:59:54","新北市中和區自立路99巷3號","121.522235","24.9948383333333","6500300","中和區"
"235023","AAC-215","2017/11/24 14:59:41","新北市中和區圓通路365號","121.491308333333","24.9896916666667","6500300","中和區"
"220016","013-TV","2017/11/23 21:23:58","新北市八里區荖阡坑路2-6號","121.398515","25.144265","6500100","板橋區"
"220013","072-UY","2017/11/24 14:59:51","新北市板橋區中山路一段154巷21號","121.465373333333","25.0105366666667","6500100","板橋區"
"220105","075-UY","2017/11/24 14:59:47","新北市板橋區懷德街1號","121.476511666667","25.0333233333333","6500100","板橋區"
"220017","AAD-861","2017/11/24 14:59:52","新北市板橋區大明街20巷19弄2號","121.458578333333","25.0033183333333","6500100","板橋區"
"227003","400-TW","2017/11/24 14:48:12","新北市雙溪區三貂里政光路3-1號","121.85082","25.0630916666667","6502500","雙溪區"
"207002","749-BX","2017/11/24 14:59:40","新北市萬里區崁腳里崁腳路73號","121.64762","25.1596483333333","6502800","萬里區"
"207001","662-BX","2017/11/24 14:59:44","新北市萬里區雙興里太和路30-1號","121.654758333333","25.177965","6502800","萬里區"
"208004","170-UY","2017/11/24 14:59:49","新北市金山區法鼓路555號","121.616358333333","25.2385033333333","6502700","金山區"
"236067","105-UM","2017/11/24 14:59:50","新北市土城區明德路二段219號","121.44603","24.9838516666667","6501300","土城區"
"236041","107-UM","2017/11/24 14:59:56","新北市土城區裕民路206號","121.453348333333","24.9845766666667","6501300","土城區"
"236029","253-BX","2017/11/24 14:59:42","新北市土城區福仁街48號","121.439705","24.975145","6501300","土城區"
"236025","269-VK","2017/11/24 14:59:46","新北市土城區中正路67巷26號","121.444371666667","24.9765916666667","6501300","土城區"
"236013","270-VK","2017/11/24 14:59:57","新北市土城區立德路13巷22號","121.461628333333","24.9887883333333","6501300","土城區"
"236035","271-VK","2017/11/24 14:59:43","新北市土城區仁愛路4號","121.459843333333","24.9812366666667","6501300","土城區"
"236019","401-BY","2017/11/24 14:59:44","新北市土城區延吉街170號","121.468346666667","24.985335","6501300","土城區"
"236077","752-BX","2017/11/24 14:59:38","新北市土城區中州路27巷1號","121.41388","24.9576766666667","6501300","土城區"
"236057","912-UM","2017/11/24 14:59:46","新北市土城區金城路二段8-1號","121.448936666667","24.97708","6501300","土城區"
"236046","913-UM","2017/11/24 14:59:55","新北市土城區明德路一段361-3號","121.456128333333","24.9778216666667","6501300","土城區"
"236061","915-UM","2017/11/24 14:59:55","新北市土城區延平街1號","121.468216666667","24.9904483333333","6501300","土城區"
"236054","AAC-216","2017/11/24 14:59:47","新北市土城區學成路138號","121.448953333333","24.989595","6501300","土城區"
"221012","276-VK","2017/11/24 13:17:10","新北市汐止區汐萬路一段256巷3號","121.653448333333","25.0746666666667","6501100","汐止區"
"221002","707-TV","2017/11/24 14:59:50","新北市汐止區新興路84巷1號","121.658036666667","25.0612516666667","6501100","汐止區"
"220030","610-BX","2017/11/24 14:59:56","新北市板橋區大觀路三段100號","121.43276","24.994695","6500100","板橋區"
"220050","245-BX","2017/11/24 14:59:54","新北市板橋區萬板路150號","121.475426666667","25.0235583333333","6500100","板橋區"
"220014","257-TC","2017/11/24 14:59:52","新北市板橋區漢生東路187號","121.469778333333","25.0116783333333","6500100","板橋區"
"220040","267-BY","2017/11/24 14:59:53","新北市板橋區文聖街89巷27號","121.47847","25.0305233333333","6500100","板橋區"
"220020","277-BY","2017/11/24 14:59:39","新北市板橋區金門街103巷6號","121.433511666667","24.992065","6500100","板橋區"
"220005","282-UM","2017/11/24 14:59:46","新北市板橋區四川路二段130巷20號","121.44962","24.994125","6500100","板橋區"
"220043","283-UM","2017/11/24 14:59:53","新北市板橋區文德路19號","121.462266666667","25.0241383333333","6500100","板橋區"
"220019","283-VK","2017/11/24 14:59:55","新北市土城區四川路2號","121.455838333333","24.9962683333333","6500100","板橋區"
"220001","285-VK","2017/11/24 14:59:53","新北市板橋區永豐街113號","121.474343333333","25.0194566666667","6500100","板橋區"
"220031","286-VK","2017/11/24 14:59:36","新北市板橋區僑中二街92巷2號","121.44624","25.0089466666667","6500100","板橋區"
"220029","287-VK","2017/11/24 14:59:50","新北市板橋區僑中一街124巷20弄26號","121.447201666667","25.01392","6500100","板橋區"
"220039","288-VK","2017/11/24 14:59:57","新北市板橋區幸福路32巷2弄47號","121.460681666667","25.0224083333333","6500100","板橋區"
"220009","293-UM","2017/11/24 14:59:47","新北市板橋區中山路一段161號","121.465653333333","25.012065","6500100","板橋區"
"220032","296-UM","2017/11/24 14:59:50","新北市板橋區篤行路二段6-3號","121.431766666667","24.9929816666667","6500100","板橋區"
"220041","299-UM","2017/11/24 14:59:44","新北市板橋區漢生西路89巷4弄12號","121.461291666667","25.018715","6500100","板橋區"
"242001","281-VK","2017/11/24 14:59:41","新北市新莊區碧江街27號","121.45353","25.03371","6500500","新莊區"
"220010","305-R5","2017/11/24 14:59:51","新北市板橋區萬安街20巷2弄13號","121.485275","25.0227216666667","6500100","板橋區"
"220047","317-R6","2017/11/24 14:59:56","新北市板橋區新海路72巷9號","121.462305","25.0220366666667","6500100","板橋區"
"220012","486-VK","2017/11/24 14:59:52","新北市板橋區區運路20號","121.465291666667","25.0093183333333","6500100","板橋區"
"220038","487-VK","2017/11/24 14:59:57","新北市板橋區龍泉街56-1號","121.45707","25.02605","6500100","板橋區"
"220037","491-VK","2017/11/24 14:59:50","新北市板橋區懷德街61號","121.477421666667","25.032495","6500100","板橋區"
"220052","561-BX","2017/11/24 14:59:45","新北市板橋區文化路一段435巷31弄1號","121.466865","25.022975","6500100","板橋區"
"220011","609-BX","2017/11/24 14:59:41","新北市板橋區三民路一段89號","121.479486666667","25.0215216666667","6500100","板橋區"
"220005","686-BX","2017/11/24 14:31:04","新北市板橋區華東街1-10號","121.448265","24.994925","6500100","板橋區"
"220025","687-BX","2017/11/24 14:59:48","新北市板橋區僑中一街124巷61-61號","121.446848333333","25.0186683333333","6500100","板橋區"
"220042","689-BX","2017/11/24 14:59:45","新北市板橋區文化路二段606號","121.477508333333","25.0353333333333","6500100","板橋區"
"220003","827-TW","2017/11/24 14:59:53","新北市板橋區國慶路149巷4弄20-4號","121.462045","24.997055","6500100","板橋區"
"220051","830-TW","2017/11/24 14:59:50","新北市板橋區懷德街78巷20號","121.477801666667","25.0313816666667","6500100","板橋區"
"220045","831-TW","2017/11/24 14:59:43","新北市板橋區莒光路40巷9號","121.470273333333","25.0236966666667","6500100","板橋區"
"220046","AAC-210","2017/11/24 14:59:58","新北市板橋區光正街9巷22弄12號","121.462116666667","25.01676","6500100","板橋區"
"220018","AAC-253","2017/11/24 14:59:49","新北市板橋區成都街9號","121.460343333333","25.0048183333333","6500100","板橋區"
