"lineid","car","time","location","longitude","latitude","cityid","cityname"
"249005","172-UM","2017/11/24 17:29:48","新北市八里區荖阡坑路32-1號","121.404155","25.127775","6502300","八里區"
"249001","173-UM","2017/11/24 17:29:53","新北市八里區大崁腳41-2號","121.425785","25.159315","6502300","八里區"
"249002","305-UY","2017/11/24 17:29:45","新北市八里區烏山頭1-10號","121.447316666667","25.1404733333333","6502300","八里區"
"249003","593-UM","2017/11/24 17:29:50","新北市八里區中山路二段317號","121.400706666667","25.1476766666667","6502300","八里區"
"249004","759-BX","2017/11/24 17:29:56","新北市八里區賢一街218號","121.415431666667","25.1557233333333","6502300","八里區"
"232011","375-UM","2017/11/24 17:29:55","新北市坪林區北宜路八段558號","121.718175","24.90918","6502000","坪林區"
"244013","069-UM","2017/11/24 17:29:54","新北市林口區粉寮路37-1號","121.401058333333","25.0848966666667","6501700","林口區"
"244007","080-UY","2017/11/24 17:29:53","新北市林口區湖子43號","121.385045","25.0943483333333","6501700","林口區"
"244019","403-UM","2017/11/24 17:29:43","新北市林口區公園路223巷9號","121.373515","25.0737933333333","6501700","林口區"
"244023","483-VK","2017/11/24 17:29:41","新北市林口區育林街6號","121.385556666667","25.075145","6501700","林口區"
"244017","485-VK","2017/11/24 17:27:28","新北市林口區中山路1號","121.39696","25.077875","6501700","林口區"
"244009","656-BX","2017/11/24 17:29:49","新北市林口區中湖40-9號","121.383188333333","25.0911916666667","6501700","林口區"
"244025","837-TS","2017/11/24 17:29:44","新北市林口區民族路157號","121.36706","25.0764383333333","6501700","林口區"
"244021","838-TS","2017/11/24 17:29:39","新北市林口區粉寮路二段16號","121.402165","25.0857333333333","6501700","林口區"
"231046","278-BY","2017/11/24 17:29:41","新北市新店區直潭路92號","121.530861666667","24.9376216666667","6500600","新店區"
"241011","013-R5","2017/11/24 17:29:42","新北市三重區河邊北街124巷27號","121.503098333333","25.0713383333333","6500200","三重區"
"241008","059-VK","2017/11/24 17:29:50","新北市三重區車路頭街135-1號","121.48426","25.0759933333333","6500200","三重區"
"241015","062-VK","2017/11/24 17:29:50","","121.503603333333","25.0658316666667","6500200","三重區"
"241017","063-VK","2017/11/24 17:29:56","新北市三重區大同北路34巷46號","121.493725","25.0621466666667","6500200","三重區"
"241024","065-VK","2017/11/24 17:29:45","新北市三重區大勇街82巷15弄30號","121.481231666667","25.071985","6500200","三重區"
"241003","091-VK","2017/11/24 17:29:42","新北市三重區集賢路87-1號","121.49365","25.0868183333333","6500200","三重區"
"241022","156-TC","2017/11/24 17:29:52","新北市三重區新北大道一段7號","121.489703333333","25.061305","6500200","三重區"
"241005","262-UM","2017/11/24 17:29:49","新北市三重區仁愛街519號","121.487206666667","25.0821516666667","6500200","三重區"
"241019","265-UM","2017/11/24 17:29:52","新北市三重區自強路二段24號","121.489571666667","25.0692666666667","6500200","三重區"
"241016","266-UM","2017/11/24 17:29:44","新北市三重區信義西街148號","121.49531","25.0639566666667","6500200","三重區"
"241032","269-UM","2017/11/24 17:29:46","新北市三重區名源街61巷9號","121.481843333333","25.0592933333333","6500200","三重區"
"241025","271-UM","2017/11/24 17:29:46","新北市三重區中正北路392-1號","121.475938333333","25.0702066666667","6500200","三重區"
"241007","398-BY","2017/11/24 17:29:55","新北市三重區溪尾街56號","121.490566666667","25.0775666666667","6500200","三重區"
"241030","480-VK","2017/11/24 17:29:37","新北市三重區新興路5號","121.492705","25.05308","6500200","三重區"
"241014","543-UM","2017/11/24 17:29:39","新北市三重區安和路17號","121.501335","25.06851","6500200","三重區"
"241023","545-UM","2017/11/24 17:29:41","新北市三重區三民街146巷11號","121.481283333333","25.0644566666667","6500200","三重區"
"241012","941-UM","2017/11/24 17:29:45","新北市三重區仁興街39巷14-6號","121.499908333333","25.076135","6500200","三重區"
"241033","AAC-255","2017/11/24 17:29:42","新北市三重區興德路133號","121.470236666667","25.052805","6500200","三重區"
"235061","378-QA","2017/11/24 14:47:16","新北市中和區員山路36巷12號","121.484063333333","24.9907416666667","6500300","中和區"
"247022","893-R6","2017/11/24 17:29:57","新北市蘆洲區三民路224號","121.468715","25.0892983333333","6501400","蘆洲區"
"247012","546-UM","2017/11/24 17:29:46","新北市蘆洲區民族路3號","121.47551","25.0838733333333","6501400","蘆洲區"
"247020","500-BY","2017/11/24 17:29:56","新北市蘆洲區水湳街257號","121.469505","25.09238","6501400","蘆洲區"
"247008","341-TH","2017/11/24 17:29:47","新北市蘆洲區成功路3號","121.473743333333","25.0779733333333","6501400","蘆洲區"
"247010","339-TH","2017/11/24 17:29:44","新北市蘆洲區中山一路58號","121.479168333333","25.0809416666667","6501400","蘆洲區"
"247002","337-TH","2017/11/24 17:29:54","新北市蘆洲區永樂街38巷40號","121.458491666667","25.0901183333333","6501400","蘆洲區"
"247004","335-TH","2017/11/24 17:29:41","新北市蘆洲區長安街249巷42號","121.457593333333","25.0825716666667","6501400","蘆洲區"
"247016","057-VK","2017/11/24 17:29:45","新北市蘆洲區光華路22巷41號","121.468293333333","25.08469","6501400","蘆洲區"
"247006","056-VK","2017/11/24 17:29:48","新北市蘆洲區長安街68巷47號","121.464091666667","25.0812833333333","6501400","蘆洲區"
"247014","007-UY","2017/11/24 17:29:38","新北市蘆洲區三民路33號","121.47544","25.0830366666667","6501400","蘆洲區"
"247024","002-UY","2017/11/24 17:29:50","新北市蘆洲區長興路331號","121.460633333333","25.0903416666667","6501400","蘆洲區"
"247018","001-UY","2017/11/24 17:29:38","新北市蘆洲區民權路144號","121.472823333333","25.08925","6501400","蘆洲區"
"228001","212-TW","2017/11/24 17:29:47","新北市貢寮區仁理村仁愛路62巷1號","121.925895","25.0535033333333","6502600","貢寮區"
"228002","663-BX","2017/11/24 17:29:45","新北市貢寮區福隆里興隆街36號","121.942538333333","25.016575","6502600","貢寮區"
"228003","828-UM","2017/11/24 17:29:44","新北市貢寮區仁理村仁和路2-1號","121.923178333333","25.048635","6502600","貢寮區"
"224010","AGQ-8101","2017/11/24 17:29:30","新北市瑞芳區逢甲路204號","121.806863333333","25.1102183333333","6501200","瑞芳區"
"224006","676-BX","2017/11/24 17:29:52","新北市瑞芳區傑魚坑路169號","121.789711666667","25.109315","6501200","瑞芳區"
"224009","285-BY","2017/11/24 17:29:41","新北市瑞芳區汽車路127號","121.838986666667","25.1100616666667","6501200","瑞芳區"
"224008","275-VK","2017/11/24 17:29:53","新北市瑞芳區九芎橋路35號","121.833188333333","25.0937316666667","6501200","瑞芳區"
"224005","271-BY","2017/11/24 17:29:54","新北市瑞芳區明里路122號","121.863445","25.1226416666667","6501200","瑞芳區"
"227003","400-TW","2017/11/24 17:29:47","新北市雙溪區平林里梅竹蹊59號","121.852613333333","25.0323766666667","6502500","雙溪區"
"251004","009-UM","2017/11/24 17:29:41","新北市淡水區中正東路二段88巷15號","121.458983333333","25.1505166666667","6501000","淡水區"
"251005","010-UM","2017/11/24 17:29:52","新北市淡水區鄧公路31巷5號","121.451518333333","25.1708","6501000","淡水區"
"251013","180-VK","2017/11/24 17:29:53","新北市淡水區大竹圍5-1號","121.466431666667","25.1945466666667","6501000","淡水區"
"251008","181-VK","2017/11/24 17:29:42","新北市淡水區大同路124巷3號","121.463453333333","25.14036","6501000","淡水區"
"251015","182-VK","2017/11/24 17:29:48","新北市淡水區三空泉17-5號","121.473496666667","25.1655316666667","6501000","淡水區"
"251010","413-VK","2017/11/24 17:29:50","新北市淡水區中正路二段206號","121.426248333333","25.1891183333333","6501000","淡水區"
"251012","441-VK","2017/11/24 17:29:46","新北市淡水區北新路111號","121.44813","25.17851","6501000","淡水區"
"251006","561-UM","2017/11/24 17:29:51","新北市淡水區大仁街51號","121.442696666667","25.1759316666667","6501000","淡水區"
"251009","575-R6","2017/11/24 17:29:43","新北市淡水區重建街1巷1號","121.439795","25.1732233333333","6501000","淡水區"
"251007","577-R6","2017/11/24 17:29:55","新北市淡水區民生路56號","121.462033333333","25.1379283333333","6501000","淡水區"
"251011","650-BX","2017/11/24 17:29:38","新北市淡水區坪頂路712號","121.482518333333","25.1584833333333","6501000","淡水區"
"251002","672-BX","2017/11/24 17:29:54","新北市淡水區中正路32巷2號","121.430798333333","25.1752333333333","6501000","淡水區"
"251003","673-BX","2017/11/24 17:29:37","新北市淡水區中山路164號","121.441136666667","25.1737933333333","6501000","淡水區"
"207003","550-UM","2017/11/24 17:29:42","新北市萬里區龜吼里翡翠路17號","121.683386666667","25.1872116666667","6502800","萬里區"
"207004","225-TW","2017/11/24 17:29:45","新北市萬里區萬里里景美路11-2號","121.685381666667","25.173045","6502800","萬里區"
"252002","178-VK","2017/11/24 17:29:45","新北市三芝區忠孝街1-14號","121.505493333333","25.2539266666667","6502100","三芝區"
"252001","292-VK","2017/11/24 17:29:53","新北市三芝區淡金路一段3號","121.49809","25.2595883333333","6502100","三芝區"
"237011","572-TV","2017/11/24 12:57:25","","121.348853333333","24.93274","6500900","三峽區"
"237015","649-BX","2017/11/24 17:29:37","新北市三峽區中山路270號","121.36164","24.9377016666667","6500900","三峽區"
"242032","AAC-296","2017/11/24 17:29:40","新北市新莊區新泰路381巷38號","121.442451666667","25.0437533333333","6500500","新莊區"
"242029","986-R7","2017/11/24 17:29:57","新北市新莊區思源路213號","121.459838333333","25.0460533333333","6500500","新莊區"
"242025","615-BX","2017/11/24 17:29:41","新北市新莊區中港路270號","121.453265","25.0439583333333","6500500","新莊區"
"242023","613-BX","2017/11/24 17:29:47","新北市新莊區公園路59號","121.453773333333","25.0402733333333","6500500","新莊區"
"242027","612-BX","2017/11/24 17:29:53","新北市新莊區思源路92號","121.460071666667","25.0456866666667","6500500","新莊區"
"242039","566-BX","2017/11/24 17:29:49","新北市新莊區民安西路37號","121.42772","25.02091","6500500","新莊區"
"242044","497-BY","2017/11/24 17:29:53","新北市新莊區富國路69號","121.41988","25.02597","6500500","新莊區"
"242002","442-UM","2017/11/24 17:29:50","新北市新莊區思明街1號","121.455323333333","25.0354666666667","6500500","新莊區"
"242048","441-UM","2017/11/24 17:29:38","新北市新莊區龍安路256號","121.42126","25.01959","6500500","新莊區"
"242054","440-UM","2017/11/24 17:29:52","新北市新莊區瓊林南路305巷21號","121.43532","25.0050883333333","6500500","新莊區"
"242034","415-TV","2017/11/24 17:29:39","新北市新莊區新泰路2-2號","121.449721666667","25.03261","6500500","新莊區"
"242005","413-TV","2017/11/24 17:29:53","新北市新莊區中港路284號","121.453011666667","25.0441633333333","6500500","新莊區"
"242041","400-BY","2017/11/24 17:29:51","新北市新莊區建國一路109號","121.434898333333","25.0282366666667","6500500","新莊區"
"242060","362-BY","2017/11/24 17:29:37","新北市新莊區瓊林路182-1號","121.440218333333","25.0219566666667","6500500","新莊區"
"242058","353-BY","2017/11/24 17:29:38","新北市新莊區中正路530號","121.430951666667","25.031605","6500500","新莊區"
"242037","133-UY","2017/11/24 17:29:54","新北市新莊區建國一路168號","121.434918333333","25.02479","6500500","新莊區"
"242021","135-UY","2017/11/24 17:29:45","新北市新莊區中華路一段10號","121.451955","25.03701","6500500","新莊區"
"242046","172-VK","2017/11/24 17:29:51","新北市新莊區新樹路65-5號","121.439471666667","25.0307816666667","6500500","新莊區"
"242009","173-VK","2017/11/24 17:29:51","新北市新莊區中原路189號","121.45263","25.0542816666667","6500500","新莊區"
"242015","175-VK","2017/11/24 17:29:43","新北市新莊區新泰路152號","121.447728333333","25.0373466666667","6500500","新莊區"
"242013","346-TH","2017/11/24 17:29:40","新北市新莊區中誠街18號","121.45192","25.0482366666667","6500500","新莊區"
"242007","347-TH","2017/11/24 17:29:42","新北市新莊區自強街21號","121.454718333333","25.0462416666667","6500500","新莊區"
"242019","348-TH","2017/11/24 17:29:56","新北市新莊區中港路93號","121.455361666667","25.0392716666667","6500500","新莊區"
"242056","349-TH","2017/11/24 17:29:56","新北市新莊區新泰路14號","121.44967","25.0330466666667","6500500","新莊區"
"242050","350-TH","2017/11/24 17:29:58","新北市新莊區新樹路266-6號","121.432621666667","25.0137433333333","6500500","新莊區"
"242011","351-TH","2017/11/24 17:29:50","新北市新莊區中港路491號","121.452028333333","25.0501316666667","6500500","新莊區"
"238015","755-BX","2017/11/24 17:29:52","新北市樹林區大安路271號","121.418971666667","24.9936266666667","6500700","樹林區"
"238023","601-UM","2017/11/24 17:29:51","新北市樹林區中正路439-1號","121.415183333333","25.0088316666667","6500700","樹林區"
"238019","599-UM","2017/11/24 17:29:39","新北市樹林區太平路59號","121.419025","24.98189","6500700","樹林區"
"238018","571-TV","2017/11/24 17:29:51","新北市樹林區鎮前街277-1號","121.41899","24.9854566666667","6500700","樹林區"
"238024","5061-A6","2017/11/24 17:29:52","新北市樹林區鎮前街88號","121.425283333333","24.9919133333333","6500700","樹林區"
"238021","KEA-2217","2017/11/24 17:29:40","新北市樹林區西圳街一段26號","121.4022","24.961365","6500700","樹林區"
"238022","KEA-2213","2017/11/24 17:29:49","新北市樹林區信義街10號","121.422535","24.9817866666667","6500700","樹林區"
"238026","308-TH","2017/11/24 17:29:52","新北市樹林區中山路二段235號","121.402301666667","24.9761583333333","6500700","樹林區"
"238025","303-VK","2017/11/24 17:29:44","新北市樹林區保安街一段195號","121.421021666667","24.9959016666667","6500700","樹林區"
"238017","283-BY","2017/11/24 17:29:44","新北市樹林區光武街32巷2號","121.416366666667","25.0056833333333","6500700","樹林區"
"238014","282-BY","2017/11/24 17:29:42","新北市樹林區長壽街70巷31弄2號","121.421363333333","24.9945933333333","6500700","樹林區"
"238020","268-VK","2017/11/24 17:29:56","新北市樹林區俊英街48-2號","121.42853","25.0032383333333","6500700","樹林區"
"238016","169-UY","2017/11/24 17:29:51","新北市樹林區長壽街4號","121.423786666667","24.9933283333333","6500700","樹林區"
"239007","AAC-297","2017/11/24 17:29:38","新北市鶯歌區國華路2號","121.342863333333","24.9563216666667","6500800","鶯歌區"
"239006","891-R6","2017/11/24 17:29:58","新北市鶯歌區鶯桃路472巷26號","121.33332","24.965975","6500800","鶯歌區"
"239008","527-UM","2017/11/24 17:29:48","新北市鶯歌區大湖路590巷11號","121.336066666667","24.97423","6500800","鶯歌區"
"239005","526-UM","2017/11/24 17:29:36","新北市鶯歌區福隆一街72號","121.324436666667","24.9709866666667","6500800","鶯歌區"
"239001","417-VK","2017/11/24 17:29:52","新北市鶯歌區高職西街1-5號","121.338266666667","24.9418533333333","6500800","鶯歌區"
"239003","360-BY","2017/11/24 17:29:48","新北市鶯歌區永吉街27巷27弄3號","121.337055","24.9567883333333","6500800","鶯歌區"
"239002","359-BY","2017/11/24 17:29:42","新北市鶯歌區育才街92號","121.347266666667","24.9546416666667","6500800","鶯歌區"
"239004","193-VK","2017/11/24 17:29:56","新北市鶯歌區三鶯路135-1號","121.36088","24.9453466666667","6500800","鶯歌區"
"221012","276-VK","2017/11/24 13:17:10","新北市汐止區汐萬路一段256巷3號","121.653448333333","25.0746666666667","6501100","汐止區"
"242001","281-VK","2017/11/24 15:42:52","新北市新莊區環河路636-7號","121.43729","25.0113483333333","6500500","新莊區"
"242017","280-VK","2017/11/24 17:29:45","新北市新莊區復興路一段203號","121.452183333333","25.0435583333333","6500500","新莊區"
"220005","686-BX","2017/11/24 14:31:04","新北市板橋區華東街1-10號","121.448265","24.994925","6500100","板橋區"
"220014","829-TW","2017/11/24 15:43:18","新北市板橋區民生路二段161巷3號","121.470261666667","25.019855","6500100","板橋區"
