"lineid","car","time","location","longitude","latitude","cityid","cityname"
"234013","149-BY","2017/11/24 17:59:53","新北市永和區福和路1號","121.52626","25.0099333333333","6500400","永和區"
"234026","9381-KE","2017/11/24 17:59:57","新北市永和區永和路一段41號","121.512853333333","25.0061866666667","6500400","永和區"
"249005","172-UM","2017/11/24 17:59:28","新北市八里區荖阡坑路20-3號","121.398141666667","25.1367166666667","6502300","八里區"
"249001","173-UM","2017/11/24 17:59:53","新北市八里區龍米路二段36號","121.448626666667","25.1401183333333","6502300","八里區"
"249002","305-UY","2017/11/24 17:59:45","新北市八里區龍米路一段440巷8號","121.451265","25.1338283333333","6502300","八里區"
"249003","593-UM","2017/11/24 17:59:50","新北市八里區中山路二段306號","121.404615","25.1501533333333","6502300","八里區"
"249004","759-BX","2017/11/24 17:59:36","新北市八里區龍米路三段15號","121.427881666667","25.1591766666667","6502300","八里區"
"248006","077-UY","2017/11/24 17:59:51","新北市五股區中興路二段83巷26-6號","121.459963333333","25.0750016666667","6501500","五股區"
"248008","095-VK","2017/11/24 17:59:51","新北市五股區更洲路20號","121.458088333333","25.0789966666667","6501500","五股區"
"248018","225-UY","2017/11/24 17:59:39","新北市五股區中興路二段83巷26-6號","121.45996","25.0752416666667","6501500","五股區"
"248004","677-BX","2017/11/24 17:59:36","新北市五股區中興路二段83巷26-6號","121.459435","25.0754866666667","6501500","五股區"
"248002","678-BX","2017/11/24 17:59:52","新北市五股區中興路二段37巷28號","121.459998333333","25.0748883333333","6501500","五股區"
"232011","375-UM","2017/11/24 17:59:55","新北市坪林區北宜路八段206號","121.70839","24.9347516666667","6502000","坪林區"
"244013","069-UM","2017/11/24 17:59:54","新北市林口區中山路138-1號","121.391691666667","25.07859","6501700","林口區"
"244007","080-UY","2017/11/24 17:59:53","新北市林口區竹林路393號","121.387286666667","25.084115","6501700","林口區"
"244019","403-UM","2017/11/24 17:59:43","新北市林口區忠孝路563-6號","121.373326666667","25.0680616666667","6501700","林口區"
"244023","483-VK","2017/11/24 17:59:41","新北市林口區東湖路75巷19號","121.385185","25.072655","6501700","林口區"
"244017","485-VK","2017/11/24 17:59:44","新北市林口區公園路167號","121.37069","25.071885","6501700","林口區"
"244009","656-BX","2017/11/24 17:59:49","新北市林口區竹林路582巷13號","121.38602","25.08331","6501700","林口區"
"244011","701-TV","2017/11/24 17:59:43","新北市林口區中正路268號","121.389261666667","25.0777033333333","6501700","林口區"
"244025","837-TS","2017/11/24 17:59:44","新北市林口區文化三路一段39巷189號","121.359403333333","25.068285","6501700","林口區"
"244021","838-TS","2017/11/24 17:59:39","新北市林口區新寮38號","121.401153333333","25.065775","6501700","林口區"
"222003","436-BY","2017/11/24 17:59:47","新北市深坑區炮子崙23號","121.607198333333","24.9908966666667","6501800","深坑區"
"222002","659-BX","2017/11/24 17:59:40","新北市深坑區文化街98號","121.616966666667","25.001865","6501800","深坑區"
"231046","278-BY","2017/11/24 17:59:41","新北市新店區康雅崙路31號","121.538125","24.9257783333333","6500600","新店區"
"241024","065-VK","2017/11/24 17:59:45","新北市三重區力行路一段277號","121.48217","25.0716883333333","6500200","三重區"
"241016","266-UM","2017/11/24 17:59:43","新北市三重區重新路三段90號","121.492943333333","25.0608883333333","6500200","三重區"
"241033","AAC-255","2017/11/24 17:59:42","新北市三重區重新路五段561號","121.470436666667","25.04603","6500200","三重區"
"235058","151-BY","2017/11/24 17:59:54","新北市中和區錦和路350-1號","121.490081666667","24.993545","6500300","中和區"
"235038","185-VK","2017/11/24 17:59:48","新北市中和區錦和路350-1號","121.490431666667","24.993565","6500300","中和區"
"235067","255-BX","2017/11/24 17:59:44","新北市中和區和城路一段271巷1號","121.485461666667","24.9919266666667","6500300","中和區"
"235061","378-QA","2017/11/24 14:47:16","新北市中和區員山路36巷12號","121.484063333333","24.9907416666667","6500300","中和區"
"235069","4980-A6","2017/11/24 17:59:42","新北市中和區中正路589巷11號","121.485796666667","24.9939166666667","6500300","中和區"
"235042","551-UM","2017/11/24 17:59:50","新北市中和區錦和路350-1號","121.490575","24.9935733333333","6500300","中和區"
"235062","800-TS","2017/11/24 17:59:56","新北市中和區新生街274號","121.483685","24.9969433333333","6500300","中和區"
"235037","AAC-213","2017/11/24 17:59:46","新北市中和區中正路589巷15號","121.486","24.9935383333333","6500300","中和區"
"235059","AAC-215","2017/11/24 16:55:57","新北市中和區員山路36巷16-3號","121.485028333333","24.9912733333333","6500300","中和區"
"247012","546-UM","2017/11/24 17:59:42","新北市蘆洲區復興路186號","121.477996666667","25.0886166666667","6501400","蘆洲區"
"247002","337-TH","2017/11/24 17:59:54","新北市蘆洲區永平街32巷57弄20號","121.459028333333","25.0932466666667","6501400","蘆洲區"
"247016","057-VK","2017/11/24 17:59:45","新北市蘆洲區光華路110巷38號","121.46592","25.0840816666667","6501400","蘆洲區"
"247024","002-UY","2017/11/24 17:59:50","新北市蘆洲區光復路30巷1號","121.463425","25.0845266666667","6501400","蘆洲區"
"247018","001-UY","2017/11/24 17:59:38","新北市蘆洲區復興路288號","121.480766666667","25.0898533333333","6501400","蘆洲區"
"228001","212-TW","2017/11/24 17:59:55","新北市貢寮區真理里新港街26巷55弄1號","121.927691666667","25.0531316666667","6502600","貢寮區"
"228002","663-BX","2017/11/24 17:59:44","新北市貢寮區福連里香蘭街5號","121.975263333333","25.024155","6502600","貢寮區"
"228003","828-UM","2017/11/24 17:59:44","新北市貢寮區真理里美艷山街6-2號","121.929045","25.06124","6502600","貢寮區"
"224006","676-BX","2017/11/24 17:59:52","新北市瑞芳區傑魚坑路183號","121.78842","25.10829","6501200","瑞芳區"
"224002","639-TC","2017/11/24 17:59:52","新北市瑞芳區三爪子坑路34號","121.810478333333","25.106145","6501200","瑞芳區"
"224009","285-BY","2017/11/24 17:59:41","新北市瑞芳區金光路372號","121.849001666667","25.11092","6501200","瑞芳區"
"224008","275-VK","2017/11/24 17:59:53","新北市瑞芳區明燈路一段45巷100號","121.820985","25.1041583333333","6501200","瑞芳區"
"224007","273-VK","2017/11/24 17:59:56","新北市瑞芳區大寮路58-1號","121.781701666667","25.0983833333333","6501200","瑞芳區"
"224005","271-BY","2017/11/24 17:59:34","新北市瑞芳區深澳路145號","121.820305","25.1333383333333","6501200","瑞芳區"
"253005","032-BX","2017/11/24 17:59:58","新北市石門區中山路62-11號","121.567558333333","25.28965","6502200","石門區"
"253006","295-VK","2017/11/24 17:59:44","新北市石門區大丘田45-1號","121.549826666667","25.27501","6502200","石門區"
"222001","KEA-2212","2017/11/24 17:59:47","新北市深坑區北深路二段187號","121.612256666667","25.00129","6501800","深坑區"
"208002","742-BX","2017/11/24 17:59:53","新北市金山區三界壇路91-1號","121.624853333333","25.2286466666667","6502700","金山區"
"208003","665-BX","2017/11/24 17:59:40","新北市金山區磺港里磺港路312號","121.64421","25.2278","6502700","金山區"
"208001","761-BX","2017/11/24 17:59:55","新北市金山區磺港里磺港路248號","121.6438","25.2250166666667","6502700","金山區"
"251004","009-UM","2017/11/24 17:59:41","新北市淡水區民權路187巷37號","121.461198333333","25.1337316666667","6501000","淡水區"
"251005","010-UM","2017/11/24 17:59:43","新北市淡水區英專路122號","121.445978333333","25.1725733333333","6501000","淡水區"
"251013","180-VK","2017/11/24 17:59:53","新北市淡水區泉洲厝31號","121.47958","25.191025","6501000","淡水區"
"251008","181-VK","2017/11/24 17:59:42","新北市淡水區八勢一街55號","121.461886666667","25.1555316666667","6501000","淡水區"
"251015","182-VK","2017/11/24 17:59:48","新北市淡水區興福寮88巷1號","121.485631666667","25.1650883333333","6501000","淡水區"
"251010","413-VK","2017/11/24 17:59:50","新北市淡水區淡海路51號","121.423196666667","25.1802366666667","6501000","淡水區"
"251012","441-VK","2017/11/24 17:59:26","新北市淡水區北新路三段38巷7號","121.484525","25.1869766666667","6501000","淡水區"
"251001","559-UM","2017/11/24 17:59:47","新北市淡水區民權路92巷35號","121.462601666667","25.1260966666667","6501000","淡水區"
"251006","561-UM","2017/11/24 17:59:51","新北市淡水區真理街5號","121.437865","25.1732866666667","6501000","淡水區"
"251009","575-R6","2017/11/24 17:59:43","新北市淡水區大仁街6巷1號","121.442441666667","25.174615","6501000","淡水區"
"251011","650-BX","2017/11/24 17:59:38","新北市淡水區三空泉5-1號","121.477903333333","25.16209","6501000","淡水區"
"251002","672-BX","2017/11/24 17:59:54","新北市淡水區鼻頭街18-5號","121.446791666667","25.1667066666667","6501000","淡水區"
"251003","673-BX","2017/11/24 17:59:37","新北市淡水區大忠街113巷12號","121.446976666667","25.1774983333333","6501000","淡水區"
"207003","550-UM","2017/11/24 17:59:42","新北市萬里區港東路野柳風景區攤販66號","121.691316666667","25.2058466666667","6502800","萬里區"
"207004","225-TW","2017/11/24 17:59:45","新北市萬里區中幅里中福路48號","121.683358333333","25.174095","6502800","萬里區"
"252002","178-VK","2017/11/24 17:59:45","新北市三芝區中山路二段45號","121.503015","25.254985","6502100","三芝區"
"252001","292-VK","2017/11/24 17:59:53","新北市三芝區中興街一段42-1號","121.498136666667","25.257065","6502100","三芝區"
"237007","153-BY","2017/11/24 17:59:51","新北市三峽區中正路二段88號","121.366463333333","24.9179016666667","6500900","三峽區"
"237009","210-TH","2017/11/24 17:59:47","新北市三峽區中山路106巷45號","121.365966666667","24.93692","6500900","三峽區"
"237013","252-BX","2017/11/24 17:59:57","新北市三峽區介壽路一段53號","121.37563","24.9329166666667","6500900","三峽區"
"237012","275-BY","2017/11/24 17:59:48","新北市三峽區民生街17號","121.376248333333","24.936525","6500900","三峽區"
"237008","302-VK","2017/11/24 17:59:50","新北市三峽區白雞14-1號","121.368081666667","24.9130016666667","6500900","三峽區"
"237014","433-BY","2017/11/24 17:59:53","新北市三峽區復興路101巷1弄28號","121.371011666667","24.9377183333333","6500900","三峽區"
"237006","5529-G3","2017/11/24 17:59:52","新北市三峽區介壽路二段138巷1弄21號","121.396506666667","24.9335733333333","6500900","三峽區"
"237011","572-TV","2017/11/24 17:59:32","新北市三峽區大同路2-1號","121.378365","24.930035","6500900","三峽區"
"237015","649-BX","2017/11/24 17:59:57","新北市三峽區詩朗139號","121.405498333333","24.911005","6500900","三峽區"
"237010","706-TV","2017/11/24 17:59:46","新北市三峽區大同路202-2號","121.368045","24.9271733333333","6500900","三峽區"
"237005","AKY-6261","2017/11/24 17:59:52","新北市三峽區復興路119-3號","121.369616666667","24.938665","6500900","三峽區"
"236072","105-UM","2017/11/24 17:59:56","新北市土城區城林路6巷80號","121.438458333333","24.979715","6501300","土城區"
"236043","107-UM","2017/11/24 17:59:55","新北市土城區裕生路61號","121.447641666667","24.9859716666667","6501300","土城區"
"236031","253-BX","2017/11/24 17:59:36","新北市土城區城林路6巷80號","121.43855","24.979595","6501300","土城區"
"236027","269-VK","2017/11/24 17:59:51","新北市土城區中央路三段92-2號","121.435958333333","24.9666383333333","6501300","土城區"
"236015","270-VK","2017/11/24 17:59:44","新北市土城區城林路6巷80號","121.438468333333","24.9796233333333","6501300","土城區"
"236039","271-VK","2017/11/24 17:59:41","新北市土城區城林路6巷80號","121.43844","24.9797266666667","6501300","土城區"
"236022","401-BY","2017/11/24 17:59:41","新北市土城區城林路6巷80號","121.43867","24.9797233333333","6501300","土城區"
"236079","752-BX","2017/11/24 17:59:50","新北市土城區永寧路32巷10弄8號","121.429076666667","24.9610133333333","6501300","土城區"
"236059","912-UM","2017/11/24 17:59:40","新北市土城區中央路三段180號","121.430788333333","24.9651183333333","6501300","土城區"
"236050","913-UM","2017/11/24 17:59:55","新北市土城區城林路6巷80號","121.43857","24.9796966666667","6501300","土城區"
"236061","915-UM","2017/11/24 17:59:39","新北市土城區城林路6巷80號","121.438605","24.9796716666667","6501300","土城區"
"236055","AAC-216","2017/11/24 17:59:49","新北市土城區城林路6巷80號","121.438466666667","24.979615","6501300","土城區"
"242032","AAC-296","2017/11/24 17:59:40","新北市新莊區新泰路305巷12號","121.44465","25.04096","6500500","新莊區"
"242029","986-R7","2017/11/24 17:59:36","新北市新莊區中平路30號","121.444783333333","25.043445","6500500","新莊區"
"242025","615-BX","2017/11/24 17:59:41","新北市新莊區五工路70-1號","121.457791666667","25.0635866666667","6500500","新莊區"
"242023","613-BX","2017/11/24 17:59:46","新北市新莊區幸福路73號","121.456905","25.04939","6500500","新莊區"
"242027","612-BX","2017/11/24 17:59:53","新北市新莊區思源路375號","121.45973","25.051125","6500500","新莊區"
"242039","566-BX","2017/11/24 17:59:49","新北市新莊區民安西路22號","121.426733333333","25.0214666666667","6500500","新莊區"
"242044","497-BY","2017/11/24 17:59:49","新北市新莊區雙鳳路123號","121.413303333333","25.0280316666667","6500500","新莊區"
"242002","442-UM","2017/11/24 17:59:56","新北市新莊區中正路145-22號","121.458516666667","25.037685","6500500","新莊區"
"242048","441-UM","2017/11/24 17:59:38","新北市新莊區萬安街47巷28號","121.422678333333","25.0241616666667","6500500","新莊區"
"242054","440-UM","2017/11/24 17:59:52","新北市新莊區光華街17號","121.428868333333","25.0108433333333","6500500","新莊區"
"242034","415-TV","2017/11/24 17:59:39","新北市新莊區景德路536號","121.44376","25.033225","6500500","新莊區"
"242005","413-TV","2017/11/24 17:59:53","新北市新莊區思源路177巷31號","121.45915","25.0466583333333","6500500","新莊區"
"242041","400-BY","2017/11/24 17:59:51","新北市新莊區中正路692-8號","121.419951666667","25.028565","6500500","新莊區"
"242060","362-BY","2017/11/24 17:59:57","新北市新莊區新樹路254-1號","121.432843333333","25.0163183333333","6500500","新莊區"
"242058","353-BY","2017/11/24 17:59:38","新北市新莊區新北大道七段239號","121.413026666667","25.02971","6500500","新莊區"
"242037","133-UY","2017/11/24 17:59:35","新北市新莊區建福路28號","121.426348333333","25.0286766666667","6500500","新莊區"
"242021","135-UY","2017/11/24 17:59:53","新北市新莊區建興街41巷1號","121.450076666667","25.0370766666667","6500500","新莊區"
"242046","172-VK","2017/11/24 17:59:51","新北市新莊區福營路165巷51號","121.432991666667","25.0298933333333","6500500","新莊區"
"242009","173-VK","2017/11/24 17:59:51","新北市新莊區中華路二段254號","121.4526","25.05314","6500500","新莊區"
"242015","175-VK","2017/11/24 17:59:43","新北市新莊區新泰路502巷41弄12號","121.443745","25.0467","6500500","新莊區"
"242013","346-TH","2017/11/24 17:59:40","新北市新莊區中和街125巷16號","121.446898333333","25.0486583333333","6500500","新莊區"
"242007","347-TH","2017/11/24 17:59:41","新北市新莊區自信街62號","121.455428333333","25.04821","6500500","新莊區"
"242019","348-TH","2017/11/24 17:59:56","新北市新莊區明中街47巷15號","121.456851666667","25.03866","6500500","新莊區"
"242056","349-TH","2017/11/24 17:59:44","新北市新莊區豐年街124巷18號","121.445523333333","25.0297983333333","6500500","新莊區"
"242050","350-TH","2017/11/24 17:59:38","新北市新莊區民安西路135號","121.426443333333","25.0175783333333","6500500","新莊區"
"242011","351-TH","2017/11/24 17:59:50","新北市新莊區中榮街56巷13弄2號","121.44917","25.053425","6500500","新莊區"
"238015","755-BX","2017/11/24 17:59:52","新北市樹林區啟智街80巷24號","121.418635","24.9925483333333","6500700","樹林區"
"238023","601-UM","2017/11/24 17:59:51","新北市樹林區龍興街29號","121.403076666667","25.01593","6500700","樹林區"
"238019","599-UM","2017/11/24 17:59:59","新北市樹林區水源街56號","121.425636666667","24.9810233333333","6500700","樹林區"
"238018","571-TV","2017/11/24 17:59:51","新北市樹林區鎮前街132號","121.424731666667","24.9905916666667","6500700","樹林區"
"238021","KEA-2217","2017/11/24 17:59:40","新北市樹林區柑園街一段29號","121.404036666667","24.9602166666667","6500700","樹林區"
"238022","KEA-2213","2017/11/24 17:59:49","新北市樹林區太順街86巷25號","121.416423333333","24.97815","6500700","樹林區"
"238026","308-TH","2017/11/24 17:59:52","新北市樹林區中洲街30巷6弄10號","121.397081666667","24.9712166666667","6500700","樹林區"
"238025","303-VK","2017/11/24 17:59:45","新北市樹林區三俊街119號","121.417528333333","25.0156116666667","6500700","樹林區"
"238017","283-BY","2017/11/24 17:59:44","新北市樹林區三德街64號","121.416275","25.0142733333333","6500700","樹林區"
"238014","282-BY","2017/11/24 17:59:42","新北市樹林區大安路179號","121.421225","24.9962","6500700","樹林區"
"238020","268-VK","2017/11/24 17:59:35","新北市新莊區龍安路254巷18-1號","121.420658333333","25.018405","6500700","樹林區"
"238016","169-UY","2017/11/24 17:59:51","新北市樹林區啟智街185巷3-3號","121.415415","24.9874566666667","6500700","樹林區"
"239007","AAC-297","2017/11/24 17:59:58","新北市鶯歌區尖山埔路193號","121.345395","24.9505666666667","6500800","鶯歌區"
"239006","891-R6","2017/11/24 17:59:38","新北市鶯歌區鶯桃路455巷2弄2號","121.331873333333","24.9654433333333","6500800","鶯歌區"
"239008","527-UM","2017/11/24 17:59:48","新北市鶯歌區欣欣街4-3號","121.335458333333","24.977135","6500800","鶯歌區"
"239005","526-UM","2017/11/24 17:59:55","新北市鶯歌區鶯桃路668巷73號","121.329858333333","24.9717383333333","6500800","鶯歌區"
"239001","417-VK","2017/11/24 17:59:52","新北市鶯歌區中正三路曾厝巷7號","121.342006666667","24.9447916666667","6500800","鶯歌區"
"239003","360-BY","2017/11/24 17:59:48","新北市鶯歌區福安街30號","121.334698333333","24.96396","6500800","鶯歌區"
"239002","359-BY","2017/11/24 17:59:42","新北市鶯歌區中山路329巷24弄1號","121.34483","24.9564683333333","6500800","鶯歌區"
"239004","193-VK","2017/11/24 17:59:57","新北市鶯歌區尖山路101巷4弄2號","121.347881666667","24.9485016666667","6500800","鶯歌區"
"221008","489-VK","2017/11/24 17:59:57","新北市汐止區明峰街25號","121.634368333333","25.071365","6501100","汐止區"
"221036","130-UY","2017/11/24 17:59:54","新北市汐止區忠孝東路473巷24-1號","121.665081666667","25.0736183333333","6501100","汐止區"
"221010","269-BY","2017/11/24 17:59:50","新北市汐止區汐萬路二段275巷1弄28號","121.6462","25.0880916666667","6501100","汐止區"
"221012","276-VK","2017/11/24 13:17:10","新北市汐止區汐萬路一段256巷3號","121.653448333333","25.0746666666667","6501100","汐止區"
"221012","278-VK","2017/11/24 17:59:44","新北市汐止區長興街二段28號","121.673205","25.0813366666667","6501100","汐止區"
"221023","279-VK","2017/11/24 17:59:37","新北市汐止區民族六街1巷1號","121.629145","25.0707916666667","6501100","汐止區"
"221032","280-BY","2017/11/24 17:59:58","新北市汐止區橫科路73巷2-1號","121.61939","25.050815","6501100","汐止區"
"221027","281-BY","2017/11/24 17:59:52","新北市汐止區大同路二段376號","121.65792","25.0671166666667","6501100","汐止區"
"221029","298-VK","2017/11/24 17:59:36","新北市汐止區樟樹二路329號","121.641408333333","25.070345","6501100","汐止區"
"221021","299-VK","2017/11/24 17:59:45","新北市汐止區新興路6號","121.656221666667","25.0649016666667","6501100","汐止區"
"221031","353-TW","2017/11/24 17:59:52","新北市汐止區中興路39號","121.634556666667","25.062285","6501100","汐止區"
"221015","567-BX","2017/11/24 17:59:45","新北市汐止區長江街341號","121.66711","25.0819166666667","6501100","汐止區"
"221035","622-UM","2017/11/24 17:59:53","新北市汐止區新江北路30巷20號","121.651913333333","25.0694416666667","6501100","汐止區"
"221025","623-UM","2017/11/24 17:59:44","新北市汐止區秀峰路128-1號","121.659813333333","25.06313","6501100","汐止區"
"221038","646-BX","2017/11/24 17:59:45","新北市汐止區連興街128巷7弄12號","121.653498333333","25.0611816666667","6501100","汐止區"
"221033","647-BX","2017/11/24 17:59:48","新北市汐止區合順街35號","121.620583333333","25.043275","6501100","汐止區"
"221002","707-TV","2017/11/24 17:59:46","新北市汐止區工建路213號","121.635701666667","25.0616733333333","6501100","汐止區"
"221018","753-BX","2017/11/24 17:59:51","新北市汐止區招商街20號","121.666733333333","25.0683816666667","6501100","汐止區"
"242001","281-VK","2017/11/24 15:42:52","新北市新莊區環河路636-7號","121.43729","25.0113483333333","6500500","新莊區"
"220062","305-R5","2017/11/24 17:56:31","新北市板橋區民生路二段120號","121.470601666667","25.019885","6500100","板橋區"
"242017","280-VK","2017/11/24 17:59:49","新北市新莊區中和街60巷19號","121.448825","25.0448466666667","6500500","新莊區"
"220005","686-BX","2017/11/24 14:31:04","新北市板橋區華東街1-10號","121.448265","24.994925","6500100","板橋區"
"220014","829-TW","2017/11/24 15:43:18","新北市板橋區民生路二段161巷3號","121.470261666667","25.019855","6500100","板橋區"
