"lineid","car","time","location","longitude","latitude","cityid","cityname"
"234046","148-BY","2017/11/24 18:59:52","新北市永和區得和路373巷31弄9號","121.524725","25.000625","6500400","永和區"
"234013","149-BY","2017/11/24 18:59:53","新北市永和區中山路一段93號","121.511555","25.01068","6500400","永和區"
"234007","207-UY","2017/11/24 18:59:44","新北市永和區中正路748號","121.514816666667","25.0103366666667","6500400","永和區"
"234038","336-UY","2017/11/24 18:59:45","新北市永和區成功路二段207號","121.52658","24.9958766666667","6500400","永和區"
"234064","337-UY","2017/11/24 18:59:37","新北市永和區秀朗路一段150巷2號","121.518106666667","25.0032016666667","6500400","永和區"
"234086","338-UY","2017/11/24 18:59:55","新北市永和區永寧街121號","121.518056666667","25.0056866666667","6500400","永和區"
"234070","552-UM","2017/11/24 18:59:54","新北市永和區中興街68巷5弄1號","121.517636666667","25.0114633333333","6500400","永和區"
"234054","553-UM","2017/11/24 18:59:46","新北市永和區竹林路66巷5號","121.51819","25.013285","6500400","永和區"
"234017","745-BX","2017/11/24 18:59:41","新北市永和區永和路二段299號","121.516018333333","25.016085","6500400","永和區"
"234030","746-BX","2017/11/24 18:59:56","新北市永和區四維街34號","121.525603333333","24.9980433333333","6500400","永和區"
"234061","AAD-866","2017/11/24 18:59:41","新北市永和區中正路509巷4號","121.516513333333","25.0070983333333","6500400","永和區"
"234081","847-RS","2017/11/24 18:59:53","新北市永和區永亨路66號","121.520835","25.006125","6500400","永和區"
"234042","862-TW","2017/11/24 18:59:42","新北市永和區永貞路271號","121.511705","25.0048","6500400","永和區"
"234050","863-TW","2017/11/24 18:59:42","新北市永和區文化路208號","121.510295","25.0165583333333","6500400","永和區"
"234026","9381-KE","2017/11/24 18:59:57","新北市永和區安樂路300號","121.514445","25.0049116666667","6500400","永和區"
"234011","9373-KE","2017/11/24 18:59:45","新北市永和區文化路90巷32弄9號","121.513493333333","25.01673","6500400","永和區"
"249005","172-UM","2017/11/24 18:59:48","新北市八里區長道坑2號","121.393595","25.1246533333333","6502300","八里區"
"249001","173-UM","2017/11/24 18:59:52","新北市八里區龍米路二段228-1號","121.432673333333","25.1583916666667","6502300","八里區"
"248016","026-BX","2017/11/24 18:59:55","新北市五股區成泰路三段543巷23號","121.450498333333","25.102425","6501500","五股區"
"248008","095-VK","2017/11/24 18:59:51","新北市五股區中興路一段118巷6弄21號","121.46631","25.0750116666667","6501500","五股區"
"248018","225-UY","2017/11/24 18:59:39","新北市五股區民義路二段22巷21號","121.421303333333","25.0978316666667","6501500","五股區"
"248012","247-BX","2017/11/24 18:59:42","新北市五股區工商路38號","121.439346666667","25.083705","6501500","五股區"
"248010","272-BY","2017/11/24 18:59:43","新北市五股區水碓七路32號","121.429018333333","25.0716966666667","6501500","五股區"
"248004","677-BX","2017/11/24 18:59:56","新北市五股區民義路二段91號","121.408011666667","25.1062416666667","6501500","五股區"
"248002","678-BX","2017/11/24 18:59:52","新北市五股區凌雲路一段147號","121.449288333333","25.102265","6501500","五股區"
"234023","9380-KE","2017/11/24 18:59:54","新北市永和區環河東路一段124號","121.520783333333","25.0155","6500400","永和區"
"234077","969-R7","2017/11/24 18:59:51","新北市永和區智光街22號","121.517896666667","24.99929","6500400","永和區"
"234074","AAC-211","2017/11/24 18:59:48","新北市永和區豫溪街217巷29號","121.524228333333","25.0101783333333","6500400","永和區"
"234067","AAC-212","2017/11/24 18:59:44","新北市永和區永和路一段36號","121.513036666667","25.0051783333333","6500400","永和區"
"234003","AAC-295","2017/11/24 18:59:46","新北市永和區和平街48號","121.512731666667","25.0099433333333","6500400","永和區"
"232011","375-UM","2017/11/24 18:59:55","新北市坪林區坪林街10-1號","121.712091666667","24.9356816666667","6502000","坪林區"
"244013","069-UM","2017/11/24 18:59:54","新北市林口區麗園二街1巷3號","121.376991666667","25.0701483333333","6501700","林口區"
"244019","403-UM","2017/11/24 18:59:23","新北市林口區麗園二街76號","121.382056666667","25.067965","6501700","林口區"
"244023","483-VK","2017/11/24 18:59:41","新北市林口區民權路73號","121.371748333333","25.0806366666667","6501700","林口區"
"244017","485-VK","2017/11/24 18:59:44","新北市林口區忠孝路376巷49號","121.368078333333","25.070525","6501700","林口區"
"244009","656-BX","2017/11/24 18:59:56","新北市林口區竹林路432號","121.38889","25.0850983333333","6501700","林口區"
"244011","701-TV","2017/11/24 18:59:43","新北市林口區興林路15號","121.389783333333","25.07713","6501700","林口區"
"244025","837-TS","2017/11/24 18:59:44","新北市林口區忠孝路53號","121.365263333333","25.0749233333333","6501700","林口區"
"243011","267-VK","2017/11/24 18:59:42","新北市泰山區明志路二段265號","121.426985","25.0474983333333","6501600","泰山區"
"243012","AAD-798","2017/11/24 18:59:43","新北市泰山區仁德路106號","121.432515","25.0568783333333","6501600","泰山區"
"243009","297-R6","2017/11/24 18:59:46","新北市泰山區福德街4號","121.432455","25.0622133333333","6501600","泰山區"
"243015","380-SR","2017/11/24 18:59:42","新北市泰山區泰林路二段328號","121.430086666667","25.0631433333333","6501600","泰山區"
"243014","421-VK","2017/11/24 18:59:45","新北市泰山區黎明路23號","121.420891666667","25.0626","6501600","泰山區"
"243013","646-TV","2017/11/24 18:59:47","新北市泰山區明志路三段345號","121.422035","25.0353666666667","6501600","泰山區"
"243016","680-BX","2017/11/24 18:59:52","新北市泰山區明志路二段137號","121.427703333333","25.050685","6501600","泰山區"
"222003","436-BY","2017/11/24 18:59:47","新北市深坑區深南路51-1號","121.62134","25.0101583333333","6501800","深坑區"
"222002","659-BX","2017/11/24 18:59:40","新北市深坑區文山路一段33號","121.629513333333","25.0038133333333","6501800","深坑區"
"231055","0291-UT","2017/11/24 18:59:54","新北市新店區新生街13巷10號","121.539458333333","24.9659633333333","6500600","新店區"
"231059","046-UY","2017/11/24 18:59:48","新北市新店區安康路一段266巷4號","121.519786666667","24.964045","6500600","新店區"
"231061","047-UY","2017/11/24 18:59:47","新北市新店區安康路一段357號","121.518368333333","24.96393","6500600","新店區"
"231060","106-UY","2017/11/24 18:59:44","新北市新店區安忠路205巷8號","121.509313333333","24.95485","6500600","新店區"
"231051","107-UY","2017/11/24 18:59:40","新北市新店區百忍街8號","121.53506","24.975605","6500600","新店區"
"231048","108-UY","2017/11/24 18:59:51","新北市新店區德正街27巷29弄36號","121.545781666667","24.972525","6500600","新店區"
"231053","187-VK","2017/11/24 18:59:56","新北市新店區屈尺路40號","121.548091666667","24.9226616666667","6500600","新店區"
"231065","188-VK","2017/11/24 18:59:54","新北市新店區安祥路147巷1號","121.474853333333","24.9546933333333","6500600","新店區"
"231050","KEA-2219","2017/11/24 18:59:41","新北市新店區新烏路一段11巷7號","121.54733","24.951315","6500600","新店區"
"231063","268-BY","2017/11/24 18:59:49","新北市新店區車子路109號","121.505263333333","24.9521283333333","6500600","新店區"
"231046","278-BY","2017/11/24 18:59:41","新北市新店區直潭五街28號","121.534191666667","24.941375","6500600","新店區"
"231041","355-BY","2017/11/24 18:59:50","新北市新店區環河路74號","121.537043333333","24.9631666666667","6500600","新店區"
"231058","3712-VJ","2017/11/24 18:59:52","新北市新店區中興路一段121號","121.541486666667","24.9630483333333","6500600","新店區"
"231056","3713-VJ","2017/11/24 18:59:48","新北市新店區建國路218號","121.537891666667","24.9811783333333","6500600","新店區"
"231067","4715-K9","2017/11/24 18:59:56","新北市新店區安康路一段263巷26號","121.524005","24.9622216666667","6500600","新店區"
"231054","513-UM","2017/11/24 18:59:50","新北市新店區新店路13號","121.540221666667","24.95287","6500600","新店區"
"231064","515-UM","2017/11/24 18:59:40","新北市新店區安康路一段266巷4號","121.519858333333","24.9640133333333","6500600","新店區"
"231042","616-UM","2017/11/24 18:59:55","新北市新店區中興路一段285-1號","121.545495","24.96864","6500600","新店區"
"231045","617-UM","2017/11/24 18:59:37","新北市新店區北新路一段2-18號","121.538413333333","24.9601366666667","6500600","新店區"
"231040","619-UM","2017/11/24 18:59:54","新北市新店區三民路185號","121.53536","24.97541","6500600","新店區"
"231049","719-UM","2017/11/24 18:59:39","新北市新店區中正路454-5號","121.53441","24.9791183333333","6500600","新店區"
"231062","720-UM","2017/11/24 18:59:52","新北市新店區安德街60巷5號","121.510123333333","24.962835","6500600","新店區"
"231044","897-TW","2017/11/24 18:59:35","新北市新店區寶中路103號","121.54901","24.9802666666667","6500600","新店區"
"231043","899-TW","2017/11/24 18:59:39","新北市新店區中正路111號","121.542438333333","24.9704966666667","6500600","新店區"
"231066","AKT-0513","2017/11/24 18:59:46","新北市新店區安豐路30-1號","121.500916666667","24.9567366666667","6500600","新店區"
"241035","462-BY","2017/11/24 18:59:51","新北市三重區重新路四段121號","121.484841666667","25.05194","6500200","三重區"
"235066","003-UY","2017/11/24 18:59:39","新北市中和區中山路二段131巷4號","121.502726666667","25.00263","6500300","中和區"
"235063","006-UY","2017/11/24 18:59:55","新北市中和區中正路462號","121.49017","24.9943016666667","6500300","中和區"
"235056","096-UM","2017/11/24 18:59:55","新北市中和區新民街94巷10號","121.48128","25.008725","6500300","中和區"
"235039","097-UM","2017/11/24 18:59:47","新北市中和區安樂路217巷53號","121.5131","24.9975683333333","6500300","中和區"
"235065","098-UM","2017/11/24 18:59:46","新北市中和區中山路二段2巷45弄12號","121.50205","25.0067916666667","6500300","中和區"
"235040","150-BY","2017/11/24 18:59:51","新北市中和區宜安路17號","121.513105","24.99574","6500300","中和區"
"235058","151-BY","2017/11/24 18:59:54","新北市中和區連城路569巷9弄12-2號","121.479685","24.9940666666667","6500300","中和區"
"235055","183-VK","2017/11/24 18:59:54","新北市中和區民德路11號","121.468833333333","25.00303","6500300","中和區"
"235038","185-VK","2017/11/24 18:59:48","新北市中和區立人街24-4號","121.518998333333","24.99414","6500300","中和區"
"235049","186-VK","2017/11/24 18:59:43","新北市中和區景新街210巷2弄4號","121.506975","24.994325","6500300","中和區"
"235067","255-BX","2017/11/24 18:59:44","新北市中和區中正路839巷17號","121.483988333333","25.0023383333333","6500300","中和區"
"235044","293-VK","2017/11/24 18:59:50","新北市中和區中興街161巷4弄1號","121.500538333333","24.99089","6500300","中和區"
"235072","301-VK","2017/11/24 18:59:55","新北市中和區中山路二段258號","121.497535","25.0024766666667","6500300","中和區"
"235043","352-BY","2017/11/24 18:59:52","新北市中和區秀朗路三段175巷23號","121.525805","24.9909133333333","6500300","中和區"
"235068","377-QA","2017/11/24 18:59:47","新北市中和區圓通路240巷15號","121.494545","24.9930933333333","6500300","中和區"
"235061","378-QA","2017/11/24 18:57:20","新北市中和區民治街128巷1號","121.475166666667","25.002905","6500300","中和區"
"235050","4979-A6","2017/11/24 18:59:51","新北市中和區南山路272號","121.507935","24.9880533333333","6500300","中和區"
"235069","4980-A6","2017/11/24 18:59:42","新北市中和區中和路217巷20號","121.504783333333","25.00045","6500300","中和區"
"235042","551-UM","2017/11/24 18:59:50","新北市中和區秀朗路三段10巷21弄16號","121.525585","24.995865","6500300","中和區"
"235070","558-UM","2017/11/24 18:59:50","新北市中和區中和路104號","121.502836666667","24.9997883333333","6500300","中和區"
"235045","565-BX","2017/11/24 18:59:47","新北市中和區景新街320號","121.511598333333","24.9913583333333","6500300","中和區"
"235054","640-BX","2017/11/24 18:59:51","新北市中和區民享街6-3號","121.47403","25.0047183333333","6500300","中和區"
"235060","647-TV","2017/11/24 18:59:46","新北市中和區中山路三段175號","121.472963333333","25.0063166666667","6500300","中和區"
"235046","733-UM","2017/11/24 18:59:48","新北市中和區興南路一段135巷17號","121.509398333333","24.9869866666667","6500300","中和區"
"235062","800-TS","2017/11/24 18:59:56","新北市中和區中山路二段359巷2號","121.488441666667","25.0044116666667","6500300","中和區"
"235057","801-TS","2017/11/24 18:59:51","新北市中和區民安街53-6號","121.47931","24.999615","6500300","中和區"
"235041","802-TS","2017/11/24 18:59:36","新北市中和區宜安路135號","121.509565","24.9983733333333","6500300","中和區"
"235052","805-TS","2017/11/24 18:59:43","新北市中和區興南路二段347號","121.500126666667","24.9800916666667","6500300","中和區"
"235048","896-TW","2017/11/24 18:59:49","新北市中和區華新街109巷16號","121.508743333333","24.9810916666667","6500300","中和區"
"235053","900-TW","2017/11/24 18:59:46","新北市中和區壽德街26號","121.466716666667","24.9943733333333","6500300","中和區"
"235064","911-UM","2017/11/24 18:59:38","新北市中和區連城路75巷5號","121.49815","24.99895","6500300","中和區"
"235037","157-BY","2017/11/24 18:59:41","新北市中和區忠孝街11巷1號","121.509833333333","24.983065","6500300","中和區"
"235037","AAC-213","2017/11/24 18:59:46","新北市中和區自立路99巷10號","121.522521666667","24.9947833333333","6500300","中和區"
"235059","AAC-215","2017/11/24 18:59:41","新北市中和區圓通路369巷33-1號","121.491168333333","24.9879483333333","6500300","中和區"
"220068","013-TV","2017/11/23 21:23:58","新北市八里區荖阡坑路2-6號","121.398515","25.144265","6500100","板橋區"
"220065","072-UY","2017/11/24 18:59:42","新北市板橋區民族路287巷1號","121.471116666667","25.0070833333333","6500100","板橋區"
"220086","073-UY","2017/11/24 18:59:43","新北市板橋區中正路250巷40號","121.457033333333","25.0194983333333","6500100","板橋區"
"220106","075-UY","2017/11/24 18:59:46","新北市板橋區文化路二段124巷24號","121.471165","25.0256766666667","6500100","板橋區"
"220069","AAD-861","2017/11/24 18:59:57","新北市板橋區華興街86號","121.456918333333","25.005215","6500100","板橋區"
"228001","212-TW","2017/11/24 18:59:47","新北市貢寮區仁理村仁義街8號","121.923811666667","25.0519666666667","6502600","貢寮區"
"228002","663-BX","2017/11/24 18:59:48","新北市貢寮區福隆里東興街106巷23弄1號","121.946216666667","25.0180833333333","6502600","貢寮區"
"228003","828-UM","2017/11/24 18:59:44","新北市貢寮區和美里龍洞街33號","121.916431666667","25.11086","6502600","貢寮區"
"224010","AGQ-8101","2017/11/24 18:53:10","新北市瑞芳區汽車路9-7號","121.845086666667","25.1098533333333","6501200","瑞芳區"
"224006","676-BX","2017/11/24 18:59:52","新北市瑞芳區中正路2號","121.808953333333","25.10705","6501200","瑞芳區"
"224009","285-BY","2017/11/24 18:59:42","新北市瑞芳區祈堂路53-1號","121.85958","25.1105266666667","6501200","瑞芳區"
"224008","275-VK","2017/11/24 18:59:53","新北市瑞芳區逢甲路274號","121.8048","25.1108883333333","6501200","瑞芳區"
"224007","273-VK","2017/11/24 18:59:56","新北市瑞芳區瑞竹路82號","121.763078333333","25.103545","6501200","瑞芳區"
"224005","271-BY","2017/11/24 18:59:34","新北市瑞芳區瑞濱路185號","121.817241666667","25.1136566666667","6501200","瑞芳區"
"227011","642-TC","2017/11/24 18:59:44","新北市雙溪區牡丹里中正路58巷15號","121.866476666667","25.04122","6502500","雙溪區"
"227003","400-TW","2017/11/24 18:59:42","新北市雙溪區平林里康福家園10號","121.858803333333","25.0373266666667","6502500","雙溪區"
"253005","032-BX","2017/11/24 18:59:38","新北市石門區尖子鹿76號","121.571488333333","25.2968266666667","6502200","石門區"
"253006","295-VK","2017/11/24 18:59:43","新北市石門區八甲11-3號","121.522243333333","25.2810616666667","6502200","石門區"
"222001","KEA-2212","2017/11/24 18:59:47","新北市深坑區北深路一段300號","121.62423","25.005775","6501800","深坑區"
"208002","742-BX","2017/11/24 18:59:39","新北市金山區仁愛路67巷20號","121.634291666667","25.2208783333333","6502700","金山區"
"208003","665-BX","2017/11/24 18:59:40","新北市金山區中正路20號","121.635915","25.22227","6502700","金山區"
"208001","761-BX","2017/11/24 18:59:55","新北市金山區中山路89號","121.640153333333","25.2188266666667","6502700","金山區"
"251013","180-VK","2017/11/24 18:59:53","新北市淡水區安子內12號","121.48151","25.2190966666667","6501000","淡水區"
"251015","182-VK","2017/11/24 18:59:48","新北市淡水區糞箕湖60號","121.485173333333","25.17225","6501000","淡水區"
"251010","413-VK","2017/11/24 18:59:50","新北市淡水區沙崙路97號","121.422243333333","25.1824233333333","6501000","淡水區"
"251012","441-VK","2017/11/24 18:59:46","新北市淡水區沙崙路二段112號","121.432671666667","25.195845","6501000","淡水區"
"251001","559-UM","2017/11/24 18:59:47","新北市淡水區自強路58號","121.463153333333","25.1274816666667","6501000","淡水區"
"251009","575-R6","2017/11/24 18:59:43","新北市淡水區重建街60號","121.439968333333","25.171785","6501000","淡水區"
"251002","672-BX","2017/11/24 18:59:54","新北市淡水區學府路16號","121.447548333333","25.16801","6501000","淡水區"
"251003","673-BX","2017/11/24 18:59:37","新北市淡水區中山北路一段149巷31號","121.443121666667","25.17791","6501000","淡水區"
"207003","550-UM","2017/11/24 18:59:42","新北市萬里區大鵬里頂社24-1號","121.657398333333","25.21036","6502800","萬里區"
"207004","225-TW","2017/11/24 18:59:45","新北市萬里區萬里里獅頭路23號","121.69323","25.1782033333333","6502800","萬里區"
"252002","178-VK","2017/11/24 18:59:45","新北市三芝區中正路一段67-1號","121.503988333333","25.25735","6502100","三芝區"
"252003","249-BX","2017/11/24 18:59:50","新北市三芝區後厝里北勢子42-6號","121.472405","25.2527483333333","6502100","三芝區"
"252001","292-VK","2017/11/24 18:59:52","新北市三芝區中興街二段260號","121.501708333333","25.2530383333333","6502100","三芝區"
"237004","078-UY","2017/11/24 18:59:45","新北市三峽區有木205-1號","121.43906","24.8514533333333","6500900","三峽區"
"237007","153-BY","2017/11/24 18:59:41","新北市三峽區中正路二段42巷84號","121.364393333333","24.9205216666667","6500900","三峽區"
"237013","252-BX","2017/11/24 18:59:37","新北市三峽區光明路69巷27號","121.376833333333","24.9291733333333","6500900","三峽區"
"237012","275-BY","2017/11/24 18:59:48","新北市三峽區三樹路222巷69號","121.384003333333","24.9422783333333","6500900","三峽區"
"237008","302-VK","2017/11/24 18:59:50","新北市三峽區大同路100號","121.374685","24.9271683333333","6500900","三峽區"
"237014","433-BY","2017/11/24 18:59:53","新北市三峽區中山路331號","121.360006666667","24.9386833333333","6500900","三峽區"
"237006","5529-G3","2017/11/24 18:59:52","新北市三峽區溪東路205巷12號","121.404935","24.9338933333333","6500900","三峽區"
"237011","572-TV","2017/11/24 18:55:23","新北市三峽區光明路48號","121.374323333333","24.92961","6500900","三峽區"
"237015","649-BX","2017/11/24 18:59:57","新北市三峽區建安83號","121.453518333333","24.9204866666667","6500900","三峽區"
"237010","706-TV","2017/11/24 18:50:06","新北市三峽區復興路11號","121.374181666667","24.93613","6500900","三峽區"
"237005","AKY-6261","2017/11/24 18:59:48","新北市三峽區中山路459巷163-3號","121.348691666667","24.932895","6500900","三峽區"
"236072","105-UM","2017/11/24 18:59:56","新北市土城區裕民路285號","121.45612","24.9816483333333","6501300","土城區"
"236043","107-UM","2017/11/24 18:59:55","新北市土城區學府路一段229巷13號","121.451756666667","24.9837883333333","6501300","土城區"
"236031","253-BX","2017/11/24 18:59:36","新北市土城區慶利街18號","121.43959","24.9736733333333","6501300","土城區"
"236027","269-VK","2017/11/24 18:59:51","新北市土城區金城路一段129巷33號","121.44491","24.9746216666667","6501300","土城區"
"236015","270-VK","2017/11/24 18:59:44","新北市土城區立德路36號","121.463446666667","24.987455","6501300","土城區"
"236039","271-VK","2017/11/24 18:59:41","新北市土城區明德路一段240巷26弄25號","121.46086","24.9782633333333","6501300","土城區"
"236022","401-BY","2017/11/24 18:59:57","新北市土城區延吉街168巷9號","121.46809","24.9858266666667","6501300","土城區"
"236079","752-BX","2017/11/24 18:59:49","新北市土城區中央路四段220號","121.415645","24.95726","6501300","土城區"
"236059","912-UM","2017/11/24 18:59:40","新北市土城區金城路二段48號","121.4514","24.9789166666667","6501300","土城區"
"236050","913-UM","2017/11/24 18:59:55","新北市土城區明德路一段398-1號","121.453653333333","24.9790866666667","6501300","土城區"
"236063","915-UM","2017/11/24 18:59:39","新北市土城區金城路三段186號","121.468193333333","24.9880066666667","6501300","土城區"
"236055","AAC-216","2017/11/24 18:59:45","新北市土城區學成路130號","121.449153333333","24.9895466666667","6501300","土城區"
"242005","413-TV","2017/11/24 18:59:53","新北市新莊區新泰路357巷3弄57號","121.442206666667","25.03956","6500500","新莊區"
"242037","133-UY","2017/11/24 18:58:14","新北市樹林區中山路三段214號","121.380215","24.9679616666667","6500500","新莊區"
"238023","601-UM","2017/11/24 18:59:31","新北市樹林區工興街15號","121.398385","25.0137733333333","6500700","樹林區"
"238019","599-UM","2017/11/24 18:59:52","新北市樹林區東榮街91巷1弄2號","121.416268333333","24.9823316666667","6500700","樹林區"
"238018","571-TV","2017/11/24 18:59:51","新北市樹林區中華路118巷8號","121.417798333333","24.9807933333333","6500700","樹林區"
"238021","KEA-2217","2017/11/24 18:59:47","新北市樹林區西圳街二段35號","121.387906666667","24.9610566666667","6500700","樹林區"
"238022","KEA-2213","2017/11/24 18:59:49","新北市樹林區東興街14-2號","121.41005","24.9784433333333","6500700","樹林區"
"238026","308-TH","2017/11/24 18:59:52","新北市樹林區佳園路一段73號","121.39358","24.9700933333333","6500700","樹林區"
"238025","303-VK","2017/11/24 18:59:43","新北市樹林區民和街79號","121.379991666667","24.9722016666667","6500700","樹林區"
"238017","283-BY","2017/11/24 18:59:44","新北市樹林區光興街50號","121.40985","25.0027033333333","6500700","樹林區"
"238014","282-BY","2017/11/24 18:59:42","新北市樹林區千歲街61巷6號","121.426345","24.9980333333333","6500700","樹林區"
"238020","268-VK","2017/11/24 18:59:55","新北市樹林區俊英街79號","121.426111666667","25.007535","6500700","樹林區"
"238016","169-UY","2017/11/24 18:59:51","新北市樹林區文化街23號","121.419271666667","24.9876566666667","6500700","樹林區"
"239007","AAC-297","2017/11/24 18:59:38","新北市鶯歌區中山路2巷2號","121.353198333333","24.9574083333333","6500800","鶯歌區"
"239006","891-R6","2017/11/24 18:59:38","新北市鶯歌區鶯桃路67巷9號","121.340973333333","24.9521183333333","6500800","鶯歌區"
"239008","527-UM","2017/11/24 18:59:48","新北市鶯歌區晨曦街10號","121.337295","24.9763866666667","6500800","鶯歌區"
"239005","526-UM","2017/11/24 18:59:55","新北市鶯歌區中湖街34號","121.34717","24.9728","6500800","鶯歌區"
"239001","417-VK","2017/11/24 18:59:52","新北市鶯歌區永智街43巷29號","121.337466666667","24.9537683333333","6500800","鶯歌區"
"239003","360-BY","2017/11/24 18:59:48","新北市鶯歌區鶯桃路599號","121.329288333333","24.968945","6500800","鶯歌區"
"239002","359-BY","2017/11/24 18:59:42","新北市鶯歌區中正一路305號","121.356616666667","24.9570616666667","6500800","鶯歌區"
"239004","193-VK","2017/11/24 18:59:56","新北市鶯歌區中正三路291巷20弄2號","121.329763333333","24.935555","6500800","鶯歌區"
"221008","489-VK","2017/11/24 18:59:44","新北市汐止區康寧街753巷2弄8號","121.63937","25.0739066666667","6501100","汐止區"
"221036","130-UY","2017/11/24 18:59:54","新北市汐止區忠孝東路314巷27號","121.664421666667","25.0681433333333","6501100","汐止區"
"221010","269-BY","2017/11/24 18:59:50","新北市汐止區康寧街901號","121.651468333333","25.0749816666667","6501100","汐止區"
"221012","276-VK","2017/11/24 13:17:10","新北市汐止區汐萬路一段256巷3號","121.653448333333","25.0746666666667","6501100","汐止區"
"221012","278-VK","2017/11/24 18:59:23","新北市汐止區康寧街901號","121.650875","25.0752633333333","6501100","汐止區"
"221023","279-VK","2017/11/24 18:59:37","新北市汐止區康寧街901號","121.650991666667","25.0752116666667","6501100","汐止區"
"221032","280-BY","2017/11/24 18:59:38","新北市汐止區橫科路367巷24弄5號","121.623476666667","25.0482616666667","6501100","汐止區"
"221027","281-BY","2017/11/24 18:59:52","新北市汐止區康寧街901號","121.651471666667","25.0749816666667","6501100","汐止區"
"221029","298-VK","2017/11/24 18:59:36","新北市汐止區樟樹一路254號","121.642453333333","25.06719","6501100","汐止區"
"221021","299-VK","2017/11/24 18:59:45","新北市汐止區康寧街901號","121.651416666667","25.0750683333333","6501100","汐止區"
"221031","353-TW","2017/11/24 18:59:52","新北市汐止區福德一路300巷13號","121.630755","25.06383","6501100","汐止區"
"221015","567-BX","2017/11/24 18:59:44","新北市汐止區汐萬路一段256巷3號","121.652941666667","25.0743816666667","6501100","汐止區"
"221035","622-UM","2017/11/24 18:59:53","新北市汐止區汐萬路一段256巷3號","121.652533333333","25.0746483333333","6501100","汐止區"
"221025","623-UM","2017/11/24 18:59:44","新北市汐止區康寧街901號","121.651535","25.0749133333333","6501100","汐止區"
"221038","646-BX","2017/11/24 18:59:45","新北市汐止區康寧街901號","121.650751666667","25.0752916666667","6501100","汐止區"
"221033","647-BX","2017/11/24 18:59:48","新北市汐止區南勢街1巷1號","121.627088333333","25.0374433333333","6501100","汐止區"
"221002","707-TV","2017/11/24 18:59:46","新北市汐止區大同路一段2號","121.62109","25.0550366666667","6501100","汐止區"
"221018","753-BX","2017/11/24 18:59:51","新北市汐止區汐萬路一段256巷3號","121.653313333333","25.0746016666667","6501100","汐止區"
"220079","145-BY","2017/11/24 18:59:58","新北市板橋區民權路202巷9弄22號","121.459428333333","25.015725","6500100","板橋區"
"220080","200-UY","2017/11/24 18:59:52","新北市板橋區大觀路二段文和巷79號","121.444156666667","24.99832","6500100","板橋區"
"220082","610-BX","2017/11/24 18:59:41","新北市板橋區篤行路二段136號","121.429831666667","24.9884766666667","6500100","板橋區"
"220101","245-BX","2017/11/24 18:59:53","新北市板橋區文化路二段182巷11號","121.471983333333","25.0267583333333","6500100","板橋區"
"220067","257-TC","2017/11/24 18:59:54","新北市板橋區三民路二段正隆巷44號","121.476981666667","25.0138316666667","6500100","板橋區"
"220091","267-BY","2017/11/24 18:59:37","新北市板橋區莒光路165巷22號","121.474135","25.0246383333333","6500100","板橋區"
"220056","276-BY","2017/11/24 18:59:50","新北市板橋區信義路148號","121.458766666667","24.9917466666667","6500100","板橋區"
"220072","277-BY","2017/11/24 18:59:50","新北市板橋區篤行路一段18號","121.432098333333","24.994945","6500100","板橋區"
"220057","282-UM","2017/11/24 18:59:43","新北市板橋區館前西路44號","121.458623333333","25.0069916666667","6500100","板橋區"
"220094","283-UM","2017/11/24 18:59:40","新北市板橋區文化路二段76號","121.469535","25.0250416666667","6500100","板橋區"
"220071","283-VK","2017/11/24 18:59:53","新北市板橋區忠孝路154巷49號","121.464458333333","25.0008916666667","6500100","板橋區"
"220053","285-VK","2017/11/24 18:59:52","新北市板橋區中山路二段89巷39號","121.473685","25.0171016666667","6500100","板橋區"
"220083","286-VK","2017/11/24 18:59:41","新北市板橋區大觀路一段38巷156弄61-1號","121.442296666667","25.0069483333333","6500100","板橋區"
"220081","287-VK","2017/11/24 18:59:39","新北市板橋區光華街19巷6號","121.453723333333","25.012135","6500100","板橋區"
"220090","288-VK","2017/11/24 18:59:45","新北市板橋區四維路169號","121.464661666667","25.0260216666667","6500100","板橋區"
"220061","293-UM","2017/11/24 18:59:54","新北市板橋區富山街109巷70號","121.475343333333","25.0213216666667","6500100","板橋區"
"220084","296-UM","2017/11/24 18:59:42","新北市板橋區龍興街18號","121.442921666667","24.999975","6500100","板橋區"
"220075","297-UM","2017/11/24 18:59:37","新北市板橋區後菜園街49號","121.456005","25.0099916666667","6500100","板橋區"
"220092","299-UM","2017/11/24 18:59:55","新北市板橋區漢生東路63巷1號","121.46578","25.0163766666667","6500100","板橋區"
"242001","281-VK","2017/11/24 15:42:52","新北市新莊區環河路636-7號","121.43729","25.0113483333333","6500500","新莊區"
"220062","305-R5","2017/11/24 18:59:54","新北市板橋區民享街104號","121.477391666667","25.0159116666667","6500100","板橋區"
"220098","317-R6","2017/11/24 18:59:41","新北市板橋區民有街17號","121.466188333333","25.0249366666667","6500100","板橋區"
"220064","486-VK","2017/11/24 18:59:35","新北市板橋區中山路一段244號","121.471313333333","25.0144016666667","6500100","板橋區"
"220089","487-VK","2017/11/24 18:59:56","新北市板橋區文化路二段26號","121.468898333333","25.0245416666667","6500100","板橋區"
"220088","491-VK","2017/11/24 18:59:54","新北市板橋區民生路二段148號","121.471276666667","25.0197233333333","6500100","板橋區"
"220035","560-BX","2017/11/24 18:59:46","新北市板橋區中正路341巷37號","121.453983333333","25.01983","6500100","板橋區"
"220103","561-BX","2017/11/24 18:59:48","新北市板橋區介壽街119號","121.470581666667","25.0186866666667","6500100","板橋區"
"220063","609-BX","2017/11/24 18:59:38","新北市板橋區民生路一段52號","121.474085","25.0148366666667","6500100","板橋區"
"220005","686-BX","2017/11/24 18:51:16","新北市板橋區華東街1-9號","121.448245","24.9948466666667","6500100","板橋區"
"220077","687-BX","2017/11/24 18:59:38","新北市板橋區龍興街2號","121.442673333333","24.999345","6500100","板橋區"
"220093","689-BX","2017/11/24 18:59:43","新北市板橋區文化路一段479巷42號","121.467963333333","25.0235466666667","6500100","板橋區"
"220054","741-BX","2017/11/24 18:59:50","新北市板橋區四川路一段87巷66號","121.460698333333","25.00569","6500100","板橋區"
"220055","827-TW","2017/11/24 18:59:51","新北市板橋區中山路一段168-2號","121.467408333333","25.0117883333333","6500100","板橋區"
"220014","829-TW","2017/11/24 15:43:18","新北市板橋區民生路二段161巷3號","121.470261666667","25.019855","6500100","板橋區"
"220102","830-TW","2017/11/24 18:59:49","新北市板橋區縣民大道三段133巷35號","121.477073333333","25.0246266666667","6500100","板橋區"
"220096","831-TW","2017/11/24 18:59:44","新北市板橋區莒光路75號","121.471613333333","25.0241183333333","6500100","板橋區"
"220074","895-R6","2017/11/24 18:59:41","新北市板橋區林園街7-1號","121.454028333333","25.0093266666667","6500100","板橋區"
"220073","985-R7","2017/11/24 18:59:54","新北市板橋區民權路217號","121.457693333333","25.0151883333333","6500100","板橋區"
"220097","AAC-210","2017/11/24 18:59:44","新北市板橋區四維路137巷23號","121.46401","25.024775","6500100","板橋區"
"220070","AAC-253","2017/11/24 18:59:44","新北市板橋區四川路一段265號","121.459505","25.0021383333333","6500100","板橋區"
