"lineid","car","time","location","longitude","latitude","cityid","cityname"
"234046","148-BY","2017/11/24 19:39:51","新北市永和區永元路107號","121.522555","25.0023833333333","6500400","永和區"
"234013","149-BY","2017/11/24 19:39:53","新北市永和區永平路210號","121.50943","25.01023","6500400","永和區"
"234007","207-UY","2017/11/24 19:39:51","新北市中和區中和路438號","121.511818333333","25.00343","6500400","永和區"
"234038","336-UY","2017/11/24 19:39:45","新北市永和區民樂街31巷4號","121.527801666667","25.0013966666667","6500400","永和區"
"234064","337-UY","2017/11/24 19:39:37","新北市永和區秀朗路一段192巷6弄14號","121.519078333333","25.0022983333333","6500400","永和區"
"234086","338-UY","2017/11/24 19:39:55","新北市永和區永亨路122號","121.524448333333","25.0040316666667","6500400","永和區"
"234070","552-UM","2017/11/24 19:39:54","新北市永和區永和路二段179號","121.515365","25.0132566666667","6500400","永和區"
"234054","553-UM","2017/11/24 19:39:46","新北市永和區竹林路39巷12號","121.518421666667","25.0144866666667","6500400","永和區"
"234017","745-BX","2017/11/24 19:39:53","新北市永和區永和路二段425巷75弄5號","121.51347","25.0170816666667","6500400","永和區"
"234030","746-BX","2017/11/24 19:39:35","新北市永和區民生路37巷3號","121.523143333333","24.9981733333333","6500400","永和區"
"234061","AAD-866","2017/11/24 19:39:41","新北市永和區中正路458號","121.51747","25.00299","6500400","永和區"
"234081","847-RS","2017/11/24 19:39:53","新北市永和區林森路46巷1號","121.524978333333","25.0047366666667","6500400","永和區"
"234042","862-TW","2017/11/24 19:39:42","新北市永和區中和路305巷2弄2號","121.50669","25.0000233333333","6500400","永和區"
"234050","863-TW","2017/11/24 19:39:42","新北市永和區保福路二段162巷2號","121.509003333333","25.0151916666667","6500400","永和區"
"234026","9381-KE","2017/11/24 19:39:37","新北市中和區中和路380號","121.510676666667","25.0021483333333","6500400","永和區"
"234011","9373-KE","2017/11/24 19:39:45","新北市永和區保生路55號","121.504673333333","25.01066","6500400","永和區"
"249002","305-UY","2017/11/24 19:39:44","新北市八里區頂寮二街33-1號","121.450316666667","25.1251533333333","6502300","八里區"
"249003","593-UM","2017/11/24 19:39:54","新北市八里區華峰三街31號","121.399343333333","25.1458633333333","6502300","八里區"
"248014","025-BX","2017/11/24 19:39:38","新北市五股區工商路166號","121.433541666667","25.088075","6501500","五股區"
"248016","026-BX","2017/11/24 19:39:44","新北市五股區成泰路三段514號","121.452241666667","25.10236","6501500","五股區"
"248008","095-VK","2017/11/24 19:39:51","新北市五股區四維路118巷13號","121.469215","25.074195","6501500","五股區"
"248018","225-UY","2017/11/24 19:35:39","新北市五股區外寮路1-1號","121.425738333333","25.07677","6501500","五股區"
"248012","247-BX","2017/11/24 19:39:42","新北市五股區民義路一段48號","121.437055","25.0846716666667","6501500","五股區"
"248010","272-BY","2017/11/24 19:39:43","新北市五股區自強路90巷72號","121.430676666667","25.0712483333333","6501500","五股區"
"248004","677-BX","2017/11/24 19:39:56","新北市五股區成泰路二段55號","121.437945","25.0834816666667","6501500","五股區"
"248002","678-BX","2017/11/24 19:39:52","新北市五股區成泰路三段577巷49號","121.450681666667","25.1031433333333","6501500","五股區"
"234023","9380-KE","2017/11/24 19:39:54","新北市永和區豫溪街57巷8弄6號","121.517606666667","25.0103866666667","6500400","永和區"
"234077","969-R7","2017/11/24 19:39:51","新北市永和區民權路1巷10號","121.520831666667","24.9982966666667","6500400","永和區"
"234074","AAC-211","2017/11/24 19:39:40","新北市永和區竹林路213巷44號","121.523286666667","25.0091083333333","6500400","永和區"
"234067","AAC-212","2017/11/24 19:39:44","新北市永和區中山路一段191巷16弄2號","121.50965","25.0079566666667","6500400","永和區"
"234003","AAC-295","2017/11/24 19:39:44","新北市永和區自由街70-8號","121.513436666667","25.0053733333333","6500400","永和區"
"244023","483-VK","2017/11/24 19:39:41","新北市林口區文化北路二段286號","121.373775","25.0867616666667","6501700","林口區"
"243011","267-VK","2017/11/24 19:39:41","新北市泰山區明志路三段209號","121.42413","25.0383783333333","6501600","泰山區"
"243012","AAD-798","2017/11/24 19:39:43","新北市泰山區仁愛路100巷29號","121.433571666667","25.055015","6501600","泰山區"
"243009","297-R6","2017/11/24 19:39:46","新北市泰山區美寧街60號","121.430913333333","25.06464","6501600","泰山區"
"243015","380-SR","2017/11/24 19:39:42","新北市泰山區明志路二段214巷16弄15號","121.426858333333","25.0496583333333","6501600","泰山區"
"243014","421-VK","2017/11/24 19:39:45","新北市泰山區泰林路二段37號","121.43552","25.0574633333333","6501600","泰山區"
"243010","KEA-2215","2017/11/24 19:39:49","新北市泰山區明志路二段7巷4號","121.430543333333","25.053415","6501600","泰山區"
"243013","646-TV","2017/11/24 19:39:47","新北市泰山區應化街13號","121.4238","25.0437","6501600","泰山區"
"243016","680-BX","2017/11/24 19:39:52","新北市泰山區中山路三段79號","121.418258333333","25.0320533333333","6501600","泰山區"
"222003","436-BY","2017/11/24 19:31:13","新北市深坑區深南路51-1號","121.621103333333","25.0100333333333","6501800","深坑區"
"222002","659-BX","2017/11/24 19:39:40","新北市深坑區北深路一段177號","121.63243","25.010835","6501800","深坑區"
"231059","046-UY","2017/11/24 19:39:48","新北市新店區安和路二段232號","121.516641666667","24.9774016666667","6500600","新店區"
"231061","047-UY","2017/11/24 19:39:47","新北市新店區安民街259號","121.517286666667","24.9726216666667","6500600","新店區"
"231060","106-UY","2017/11/24 19:39:44","新北市新店區安康路二段161號","121.510245","24.959335","6500600","新店區"
"231051","107-UY","2017/11/24 19:39:40","新北市新店區中央四街60號","121.527263333333","24.9752633333333","6500600","新店區"
"231048","108-UY","2017/11/24 19:39:51","新北市新店區五峰路61巷1號","121.548443333333","24.9697083333333","6500600","新店區"
"231053","187-VK","2017/11/24 19:39:56","新北市新店區廣興路101-1號","121.536958333333","24.912135","6500600","新店區"
"231065","188-VK","2017/11/24 19:39:54","新北市新店區安祥路109巷85弄9號","121.478055","24.960275","6500600","新店區"
"231050","KEA-2219","2017/11/24 19:39:41","新北市新店區郵政路70號","121.555371666667","24.9517716666667","6500600","新店區"
"231057","256-BX","2017/11/24 19:39:40","新北市新店區橘園一路11號","121.547965","24.934085","6500600","新店區"
"231063","268-BY","2017/11/24 19:39:48","新北市新店區達觀路41號","121.502295","24.938485","6500600","新店區"
"231046","278-BY","2017/11/24 19:39:41","新北市新店區自由街31號","121.535098333333","24.9741366666667","6500600","新店區"
"231041","355-BY","2017/11/24 19:39:50","新北市新店區中正路487號","121.53379","24.982115","6500600","新店區"
"231058","3712-VJ","2017/11/24 19:39:52","新北市新店區中正路126號","121.542101666667","24.9712633333333","6500600","新店區"
"231056","3713-VJ","2017/11/24 19:39:48","新北市新店區柴埕路59號","121.513501666667","24.9649066666667","6500600","新店區"
"231054","513-UM","2017/11/24 19:39:50","新北市新店區北宜路一段39巷5號","121.53866","24.9576916666667","6500600","新店區"
"231064","515-UM","2017/11/24 19:39:40","新北市新店區安和路一段52巷2號","121.51763","24.9662516666667","6500600","新店區"
"231042","616-UM","2017/11/24 19:39:55","新北市新店區中興路一段216號","121.543956666667","24.965665","6500600","新店區"
"231045","617-UM","2017/11/24 19:39:37","新北市新店區北宜路二段150-2號","121.558091666667","24.9540366666667","6500600","新店區"
"231040","619-UM","2017/11/24 19:39:54","新北市新店區中正路75巷71號","121.543103333333","24.9688283333333","6500600","新店區"
"231049","719-UM","2017/11/24 19:39:59","新北市新店區二十張路59號","121.537581666667","24.98068","6500600","新店區"
"231062","720-UM","2017/11/24 19:39:52","新北市新店區永業路23號","121.53319","24.95571","6500600","新店區"
"231044","897-TW","2017/11/24 19:39:58","新北市新店區復興路107號","121.534438333333","24.9878833333333","6500600","新店區"
"231043","899-TW","2017/11/24 19:39:39","新北市新店區中正路141號","121.541661666667","24.9715533333333","6500600","新店區"
"231066","AKT-0513","2017/11/24 19:39:46","新北市新店區安康路三段165巷5號","121.489726666667","24.9513433333333","6500600","新店區"
"241011","013-R5","2017/11/24 19:39:34","新北市三重區秀江街226號","121.497006666667","25.0714516666667","6500200","三重區"
"241028","022-UY","2017/11/24 19:39:41","新北市三重區中正南路147號","121.49392","25.0565833333333","6500200","三重區"
"241008","059-VK","2017/11/24 19:39:50","新北市三重區永福街68號","121.479033333333","25.07687","6500200","三重區"
"241009","060-VK","2017/11/24 19:39:50","新北市三重區三和路四段400巷24號","121.480325","25.0791083333333","6500200","三重區"
"241031","061-VK","2017/11/24 19:39:39","新北市三重區重新路四段244巷10號","121.486276666667","25.0534916666667","6500200","三重區"
"241015","062-VK","2017/11/24 19:39:58","新北市三重區福德北路46號","121.502001666667","25.06547","6500200","三重區"
"241017","063-VK","2017/11/24 19:39:56","新北市三重區重陽路三段5巷30號","121.491311666667","25.065385","6500200","三重區"
"241026","066-VK","2017/11/24 19:39:42","新北市三重區文化南路65巷14號","121.499596666667","25.0607066666667","6500200","三重區"
"241022","156-TC","2017/11/24 19:39:38","新北市三重區三民街157巷22號","121.484126666667","25.064995","6500200","三重區"
"241019","265-UM","2017/11/24 19:39:56","新北市三重區六張街194巷1弄2號","121.488573333333","25.06806","6500200","三重區"
"241018","268-UM","2017/11/24 19:39:45","新北市三重區大智街61號","121.492695","25.0679283333333","6500200","三重區"
"241013","270-UM","2017/11/24 19:39:50","新北市三重區仁愛街117號","121.495646666667","25.0745366666667","6500200","三重區"
"241025","271-UM","2017/11/24 19:39:48","新北市三重區忠孝路三段84巷1號","121.48015","25.0645616666667","6500200","三重區"
"241007","398-BY","2017/11/24 19:39:40","新北市三重區仁美街63號","121.486658333333","25.0783483333333","6500200","三重區"
"241020","413-TH","2017/11/24 19:39:56","新北市三重區自強路三段45號","121.487008333333","25.07273","6500200","三重區"
"241035","462-BY","2017/11/24 19:39:51","新北市三重區正義北路110號","121.496956666667","25.06524","6500200","三重區"
"241030","480-VK","2017/11/24 19:39:37","新北市三重區新興路7號","121.492635","25.05314","6500200","三重區"
"241014","543-UM","2017/11/24 19:39:51","新北市三重區河邊北街72-6號","121.504326666667","25.0686366666667","6500200","三重區"
"241023","545-UM","2017/11/24 19:39:41","新北市三重區忠孝路三段99巷4號","121.480066666667","25.0641","6500200","三重區"
"241001","547-UM","2017/11/24 19:39:48","新北市三重區仁愛街315巷51號","121.494263333333","25.0802","6500200","三重區"
"241006","AAD-863","2017/11/24 19:39:58","新北市三重區聯華街80號","121.485865","25.075315","6500200","三重區"
"241012","941-UM","2017/11/24 19:39:45","新北市三重區河邊北街256巷39號","121.500455","25.075815","6500200","三重區"
"241029","942-UM","2017/11/24 19:39:55","新北市三重區同安街145號","121.493131666667","25.0560616666667","6500200","三重區"
"235066","003-UY","2017/11/24 19:39:39","新北市中和區中和路196巷11號","121.505196666667","24.9991033333333","6500300","中和區"
"235063","006-UY","2017/11/24 19:39:50","新北市中和區連城路203巷3號","121.494868333333","24.9976333333333","6500300","中和區"
"235056","096-UM","2017/11/24 19:39:49","新北市中和區中山路三段114巷17號","121.475603333333","25.0079533333333","6500300","中和區"
"235039","097-UM","2017/11/24 19:39:47","新北市中和區秀峰街119巷8弄2號","121.51948","24.98974","6500300","中和區"
"235065","098-UM","2017/11/24 19:39:46","新北市中和區永和路62號","121.498898333333","25.004455","6500300","中和區"
"235040","150-BY","2017/11/24 19:39:45","新北市中和區安平路40號","121.510016666667","24.9952616666667","6500300","中和區"
"235058","151-BY","2017/11/24 19:39:54","新北市中和區連城路525-2號","121.481475","24.995025","6500300","中和區"
"235055","183-VK","2017/11/24 19:39:39","新北市中和區中山路三段181巷14號","121.472925","25.0055983333333","6500300","中和區"
"235038","185-VK","2017/11/24 19:39:48","新北市中和區自立路15巷8號","121.522896666667","24.9958183333333","6500300","中和區"
"235049","186-VK","2017/11/24 19:39:43","新北市中和區景新街212號","121.507013333333","24.99524","6500300","中和區"
"235067","255-BX","2017/11/24 19:39:44","新北市中和區連城路340巷14弄18號","121.482956666667","24.997215","6500300","中和區"
"235044","293-VK","2017/11/24 19:39:50","新北市中和區南山路292號","121.507836666667","24.987365","6500300","中和區"
"235072","301-VK","2017/11/24 19:39:55","新北市中和區中正路432巷34號","121.490885","24.9958066666667","6500300","中和區"
"235043","352-BY","2017/11/24 19:39:52","新北市中和區興南路一段156號","121.508251666667","24.9868383333333","6500300","中和區"
"235068","377-QA","2017/11/24 19:39:48","新北市中和區廟美街5號","121.50073","25.00149","6500300","中和區"
"235061","378-QA","2017/11/24 19:39:49","新北市中和區民安街12號","121.480705","25.000845","6500300","中和區"
"235071","269-TV","2017/11/24 19:39:56","新北市中和區中正路839巷29號","121.483661666667","25.00235","6500300","中和區"
"235050","4979-A6","2017/11/24 19:39:51","新北市中和區中正路305號","121.492465","24.993865","6500300","中和區"
"235042","551-UM","2017/11/24 19:39:50","新北市中和區保健路29巷2號","121.508956666667","24.998115","6500300","中和區"
"235070","558-UM","2017/11/24 19:39:50","新北市中和區圓通路51號","121.50088","24.9973516666667","6500300","中和區"
"235045","565-BX","2017/11/24 19:39:47","新北市中和區景新街467巷15弄1號","121.51384","24.98825","6500300","中和區"
"235054","640-BX","2017/11/24 19:39:51","新北市中和區國光街107巷4弄20號","121.470023333333","24.9991483333333","6500300","中和區"
"235060","647-TV","2017/11/24 19:39:46","新北市中和區新生街114巷35號","121.482475","25.00231","6500300","中和區"
"235046","733-UM","2017/11/24 19:39:47","新北市中和區四維街7號","121.513485","24.9873016666667","6500300","中和區"
"235057","801-TS","2017/11/24 19:39:51","新北市中和區員山路270號","121.481323333333","25.001805","6500300","中和區"
"235041","802-TS","2017/11/24 19:39:56","新北市永和區安樂路250-2號","121.514606666667","25.0037716666667","6500300","中和區"
"235052","805-TS","2017/11/24 19:39:43","新北市中和區華新街192巷2-1號","121.506763333333","24.9823866666667","6500300","中和區"
"235048","896-TW","2017/11/24 19:39:48","新北市中和區忠孝街1巷2-1號","121.509123333333","24.98303","6500300","中和區"
"235053","900-TW","2017/11/24 19:39:46","新北市中和區國光街184巷24號","121.467535","25.0020916666667","6500300","中和區"
"235064","911-UM","2017/11/24 19:39:38","新北市中和區南山路81巷56號","121.503803333333","24.9982416666667","6500300","中和區"
"235037","157-BY","2017/11/24 19:39:41","新北市中和區南山路255號","121.503823333333","24.9928183333333","6500300","中和區"
"235037","AAC-213","2017/11/24 19:39:46","新北市中和區秀朗路三段10巷29弄11號","121.525115","24.9959816666667","6500300","中和區"
"235059","AAC-215","2017/11/24 19:39:55","新北市中和區圓通路311號","121.493151666667","24.9908283333333","6500300","中和區"
"220068","013-TV","2017/11/23 21:23:58","新北市八里區荖阡坑路2-6號","121.398515","25.144265","6500100","板橋區"
"220065","072-UY","2017/11/24 19:39:42","新北市板橋區民族路222巷15號","121.468698333333","25.00676","6500100","板橋區"
"220086","073-UY","2017/11/24 19:39:42","新北市板橋區林園街4-1號","121.45424","25.0094983333333","6500100","板橋區"
"220106","075-UY","2017/11/24 19:39:49","新北市板橋區文化路二段426號","121.474075","25.031765","6500100","板橋區"
"220069","AAD-861","2017/11/24 19:39:57","新北市板橋區縣民大道一段64巷3號","121.455481666667","25.003725","6500100","板橋區"
"247008","341-TH","2017/11/24 19:39:48","新北市蘆洲區中山一路176號","121.474215","25.081115","6501400","蘆洲區"
"247004","335-TH","2017/11/24 19:39:44","新北市蘆洲區中華街6巷26號","121.462856666667","25.0821516666667","6501400","蘆洲區"
"228001","212-TW","2017/11/24 19:39:47","新北市貢寮區真理里延平街83號","121.924575","25.0561583333333","6502600","貢寮區"
"228003","828-UM","2017/11/24 19:39:44","新北市貢寮區真理里美艷山街15-3號","121.923723333333","25.0680066666667","6502600","貢寮區"
"224002","639-TC","2017/11/24 19:39:52","新北市瑞芳區民享新村3號","121.817385","25.1055016666667","6501200","瑞芳區"
"227011","642-TC","2017/11/24 19:39:44","新北市雙溪區新基里新基北街18號","121.867215","25.0386483333333","6502500","雙溪區"
"227003","400-TW","2017/11/24 19:39:44","新北市雙溪區雙溪里內挖路41號","121.86339","25.0363716666667","6502500","雙溪區"
"222001","KEA-2212","2017/11/24 19:39:47","新北市深坑區北深路二段204號","121.612978333333","25.0015266666667","6501800","深坑區"
"208002","742-BX","2017/11/24 19:39:39","新北市金山區三民街16號","121.634746666667","25.2227016666667","6502700","金山區"
"208003","665-BX","2017/11/24 19:39:40","新北市金山區仁愛路1巷1號","121.638611666667","25.2201016666667","6502700","金山區"
"208001","761-BX","2017/11/24 19:39:55","新北市金山區重和里六股林口25號","121.603321666667","25.2192166666667","6502700","金山區"
"251004","009-UM","2017/11/24 19:39:45","新北市淡水區民權路77號","121.459656666667","25.1387433333333","6501000","淡水區"
"251005","010-UM","2017/11/24 19:39:43","新北市淡水區原德路108巷2號","121.443378333333","25.1735416666667","6501000","淡水區"
"251013","180-VK","2017/11/24 19:39:52","新北市淡水區店子後9號","121.460118333333","25.2189866666667","6501000","淡水區"
"251008","181-VK","2017/11/24 19:39:39","新北市淡水區中正路382號","121.429101666667","25.17558","6501000","淡水區"
"251015","182-VK","2017/11/24 19:39:47","新北市淡水區泉洲厝27-1號","121.483791666667","25.19103","6501000","淡水區"
"251010","413-VK","2017/11/24 19:39:50","新北市淡水區崁頂三路177號","121.429743333333","25.2016266666667","6501000","淡水區"
"251012","441-VK","2017/11/24 19:39:46","新北市淡水區埤島6-10號","121.445836666667","25.1945116666667","6501000","淡水區"
"251001","559-UM","2017/11/24 19:39:52","新北市淡水區民權路97-2號","121.459853333333","25.138105","6501000","淡水區"
"251006","561-UM","2017/11/24 19:39:51","新北市淡水區中山北路一段168號","121.444321666667","25.1787983333333","6501000","淡水區"
"251009","575-R6","2017/11/24 19:39:43","新北市淡水區中山北路一段188-5號","121.44444","25.17913","6501000","淡水區"
"251007","577-R6","2017/11/24 19:39:55","新北市淡水區中正東路一段111巷16號","121.454826666667","25.1609033333333","6501000","淡水區"
"251011","650-BX","2017/11/24 19:39:57","新北市淡水區八勢一街30巷1號","121.460875","25.1560316666667","6501000","淡水區"
"207003","550-UM","2017/11/24 19:39:42","新北市萬里區大鵬里下社28號","121.649038333333","25.21715","6502800","萬里區"
"207004","225-TW","2017/11/24 19:39:45","新北市萬里區萬里里瑪鋉路5-1號","121.686866666667","25.1752983333333","6502800","萬里區"
"252002","178-VK","2017/11/24 19:39:45","新北市三芝區中正路一段18巷34-1號","121.503936666667","25.259185","6502100","三芝區"
"252001","292-VK","2017/11/24 19:39:52","新北市三芝區公正街66號","121.499796666667","25.25748","6502100","三芝區"
"237004","078-UY","2017/11/24 19:39:45","新北市三峽區金敏189號","121.394143333333","24.8739633333333","6500900","三峽區"
"237007","153-BY","2017/11/24 19:39:41","新北市三峽區二鬮路136巷20弄83號","121.358106666667","24.908925","6500900","三峽區"
"237009","210-TH","2017/11/24 19:39:47","新北市三峽區中園街44號","121.368185","24.9263483333333","6500900","三峽區"
"237013","252-BX","2017/11/24 19:39:37","新北市三峽區介壽路二段70號","121.392111666667","24.93541","6500900","三峽區"
"237012","275-BY","2017/11/24 19:39:48","新北市三峽區民生街3號","121.374568333333","24.9354366666667","6500900","三峽區"
"237008","302-VK","2017/11/24 19:39:50","新北市三峽區安溪路351號","121.369946666667","24.9260733333333","6500900","三峽區"
"237014","433-BY","2017/11/24 19:39:53","新北市三峽區添福14-39號","121.371813333333","24.9003266666667","6500900","三峽區"
"237006","5529-G3","2017/11/24 19:39:52","新北市三峽區中正路一段336巷15弄2號","121.36995","24.92495","6500900","三峽區"
"237015","649-BX","2017/11/24 19:39:57","新北市三峽區成福路17-1號","121.417078333333","24.9284266666667","6500900","三峽區"
"237005","AKY-6261","2017/11/24 19:39:48","新北市三峽區中山路118號","121.365728333333","24.935855","6500900","三峽區"
"236072","105-UM","2017/11/24 19:39:36","新北市土城區學士路14號","121.453566666667","24.9829416666667","6501300","土城區"
"236043","107-UM","2017/11/24 19:39:55","新北市土城區學士路10號","121.45388","24.983155","6501300","土城區"
"236031","253-BX","2017/11/24 19:39:56","新北市土城區福祥街64號","121.441566666667","24.981515","6501300","土城區"
"236027","269-VK","2017/11/24 19:39:51","新北市土城區中央路二段61巷26號","121.443303333333","24.9788033333333","6501300","土城區"
"236039","271-VK","2017/11/24 19:39:41","新北市土城區清水路98巷3弄45號","121.458616666667","24.9808583333333","6501300","土城區"
"236022","401-BY","2017/11/24 19:39:41","新北市土城區峰廷街3號","121.469155","24.9873216666667","6501300","土城區"
"236079","752-BX","2017/11/24 19:39:49","新北市土城區中州路27巷52號","121.412858333333","24.956785","6501300","土城區"
"236050","913-UM","2017/11/24 19:39:55","新北市土城區明德路一段69巷1號","121.465513333333","24.983915","6501300","土城區"
"236063","915-UM","2017/11/24 19:39:39","新北市土城區延平街77號","121.4675","24.9932966666667","6501300","土城區"
"236055","AAC-216","2017/11/24 19:39:49","新北市土城區學府路一段133號","121.45387","24.98636","6501300","土城區"
"242032","AAC-296","2017/11/24 19:39:57","新北市新莊區新泰路213巷41號","121.44438","25.038295","6500500","新莊區"
"242027","612-BX","2017/11/24 19:39:43","新北市新莊區三和路12-21號","121.442215","25.0385483333333","6500500","新莊區"
"242005","413-TV","2017/11/24 19:39:53","新北市新莊區化成路29巷42號","121.463468333333","25.0438883333333","6500500","新莊區"
"242037","133-UY","2017/11/24 19:39:54","新北市新莊區民安路211號","121.426418333333","25.0222166666667","6500500","新莊區"
"242013","346-TH","2017/11/24 19:39:46","新北市新莊區中誠街119號","121.449446666667","25.0475116666667","6500500","新莊區"
"242019","348-TH","2017/11/24 19:39:53","新北市新莊區新泰路357巷3弄53號","121.442398333333","25.0398683333333","6500500","新莊區"
"238015","755-BX","2017/11/24 19:39:56","新北市樹林區日新街79號","121.421838333333","24.9906016666667","6500700","樹林區"
"238023","601-UM","2017/11/24 19:39:51","新北市樹林區三福街60號","121.405316666667","25.0162333333333","6500700","樹林區"
"238018","571-TV","2017/11/24 19:39:51","新北市樹林區中山路三段210-2號","121.381748333333","24.96565","6500700","樹林區"
"238024","5061-A6","2017/11/24 19:39:56","新北市樹林區佳園路一段72巷7號","121.392943333333","24.97003","6500700","樹林區"
"238021","KEA-2217","2017/11/24 19:39:47","新北市樹林區柑園街二段203巷22號","121.375786666667","24.9506683333333","6500700","樹林區"
"238022","KEA-2213","2017/11/24 19:39:49","新北市樹林區國凱街32-2號","121.419676666667","24.9785916666667","6500700","樹林區"
"238025","303-VK","2017/11/24 19:39:43","新北市樹林區中山路二段46-2號","121.416715","24.9846716666667","6500700","樹林區"
"238017","283-BY","2017/11/24 19:39:44","新北市樹林區保安街二段45巷21弄7號","121.414808333333","24.9998883333333","6500700","樹林區"
"238014","282-BY","2017/11/24 19:39:42","新北市樹林區千歲街57號","121.425653333333","24.996725","6500700","樹林區"
"238020","268-VK","2017/11/24 19:39:55","新北市樹林區俊英街112號","121.42733","25.0054666666667","6500700","樹林區"
"239006","891-R6","2017/11/24 19:39:38","新北市鶯歌區中正一路478號","121.366908333333","24.9569666666667","6500800","鶯歌區"
"239002","359-BY","2017/11/24 19:39:42","新北市鶯歌區大湖路18號","121.342916666667","24.9609766666667","6500800","鶯歌區"
"221008","489-VK","2017/11/24 19:39:44","新北市汐止區康寧街83巷28號","121.620595","25.0672816666667","6501100","汐止區"
"221036","130-UY","2017/11/24 19:39:54","新北市汐止區汐萬路一段256巷1號","121.651795","25.0748666666667","6501100","汐止區"
"221010","269-BY","2017/11/24 19:39:50","新北市汐止區汐萬路二段23巷1號","121.649596666667","25.0807366666667","6501100","汐止區"
"221012","276-VK","2017/11/24 13:17:10","新北市汐止區汐萬路一段256巷3號","121.653448333333","25.0746666666667","6501100","汐止區"
"221012","278-VK","2017/11/24 19:39:43","新北市汐止區大同路三段392號","121.68152","25.0715566666667","6501100","汐止區"
"221023","279-VK","2017/11/24 19:39:37","新北市汐止區中興路286巷1號","121.62824","25.0695616666667","6501100","汐止區"
"221032","280-BY","2017/11/24 19:39:58","新北市汐止區橫科路407巷25弄17-5號","121.627711666667","25.0503916666667","6501100","汐止區"
"221027","281-BY","2017/11/24 19:39:52","新北市汐止區忠孝東路9號","121.65837","25.065925","6501100","汐止區"
"221029","298-VK","2017/11/24 19:39:36","新北市汐止區康寧街901號","121.651641666667","25.0749166666667","6501100","汐止區"
"221021","299-VK","2017/11/24 19:39:45","新北市汐止區南興路6巷2號","121.651768333333","25.0633216666667","6501100","汐止區"
"221031","353-TW","2017/11/24 19:39:52","新北市汐止區康寧街708-1號","121.640038333333","25.0726533333333","6501100","汐止區"
"221015","567-BX","2017/11/24 19:39:44","新北市汐止區康寧街901號","121.65165","25.074965","6501100","汐止區"
"221025","623-UM","2017/11/24 19:39:42","新北市汐止區福安街20巷8號","121.662335","25.0648366666667","6501100","汐止區"
"221038","646-BX","2017/11/24 19:39:47","新北市汐止區忠孝東路227號","121.662441666667","25.067035","6501100","汐止區"
"221033","647-BX","2017/11/24 19:39:48","新北市汐止區南勢街1巷5號","121.62675","25.0375433333333","6501100","汐止區"
"221002","707-TV","2017/11/24 19:39:46","新北市汐止區大同路一段219巷27號","121.63326","25.0584266666667","6501100","汐止區"
"221018","753-BX","2017/11/24 19:39:51","新北市汐止區汐萬路一段312號","121.650383333333","25.0750033333333","6501100","汐止區"
"220079","145-BY","2017/11/24 19:40:01","新北市板橋區建國街54巷12號","121.459355","25.0168166666667","6500100","板橋區"
"220080","200-UY","2017/11/24 19:39:49","新北市板橋區大觀路二段37巷69號","121.449855","25.002465","6500100","板橋區"
"220082","610-BX","2017/11/24 19:39:43","新北市板橋區大觀路三段265號","121.429088333333","24.992405","6500100","板橋區"
"220101","245-BX","2017/11/24 19:39:46","新北市板橋區莊敬路240號","121.473478333333","25.021415","6500100","板橋區"
"220067","257-TC","2017/11/24 19:39:54","新北市板橋區長安街138巷1弄9號","121.473165","25.0097433333333","6500100","板橋區"
"220091","267-BY","2017/11/24 19:39:57","新北市板橋區懷德街139巷3號","121.479455","25.03062","6500100","板橋區"
"220056","276-BY","2017/11/24 19:39:53","新北市板橋區四川路二段47巷3弄1號","121.45426","24.9947766666667","6500100","板橋區"
"220072","277-BY","2017/11/24 19:39:50","新北市板橋區金門街167號","121.432768333333","24.9899533333333","6500100","板橋區"
"220057","282-UM","2017/11/24 19:39:42","新北市板橋區和平路18號","121.460061666667","24.9944133333333","6500100","板橋區"
"220094","283-UM","2017/11/24 19:39:40","新北市板橋區宏國路93號","121.469765","25.03233","6500100","板橋區"
"220071","283-VK","2017/11/24 19:39:53","新北市板橋區信義路182號","121.459481666667","24.99142","6500100","板橋區"
"220053","285-VK","2017/11/24 19:39:40","新北市板橋區中山路二段148巷30號","121.477205","25.016155","6500100","板橋區"
"220083","286-VK","2017/11/24 19:39:42","新北市板橋區龍興街65巷24號","121.443133333333","25.0016116666667","6500100","板橋區"
"220081","287-VK","2017/11/24 19:39:40","新北市板橋區大觀路一段29巷179弄20號","121.449038333333","25.00471","6500100","板橋區"
"220090","288-VK","2017/11/24 19:39:53","新北市板橋區長江路一段50號","121.458813333333","25.0289933333333","6500100","板橋區"
"220061","293-UM","2017/11/24 19:39:50","新北市板橋區中山路一段267號","121.468796666667","25.01354","6500100","板橋區"
"220084","296-UM","2017/11/24 19:39:42","新北市板橋區滿平二街3號","121.425463333333","24.98641","6500100","板橋區"
"220075","297-UM","2017/11/24 19:39:37","新北市板橋區金華街3號","121.455585","25.0200816666667","6500100","板橋區"
"220092","299-UM","2017/11/24 19:39:55","新北市板橋區文化路一段387巷23號","121.465953333333","25.0222716666667","6500100","板橋區"
"242001","281-VK","2017/11/24 15:42:52","新北市新莊區環河路636-7號","121.43729","25.0113483333333","6500500","新莊區"
"220062","305-R5","2017/11/24 19:39:55","新北市板橋區三民路二段29巷16號","121.481986666667","25.0180716666667","6500100","板橋區"
"220098","317-R6","2017/11/24 19:39:41","新北市板橋區四維路269巷64號","121.46069","25.0272416666667","6500100","板橋區"
"220064","486-VK","2017/11/24 19:39:58","新北市板橋區中山路一段8號","121.460018333333","25.0077016666667","6500100","板橋區"
"220089","487-VK","2017/11/24 19:39:36","新北市板橋區國光路190號","121.461215","25.0182833333333","6500100","板橋區"
"242017","280-VK","2017/11/24 19:39:43","新北市新莊區三和路12-16號","121.442341666667","25.0373283333333","6500500","新莊區"
"220088","491-VK","2017/11/24 19:39:54","新北市板橋區文化路二段560號","121.476425","25.03434","6500100","板橋區"
"220035","560-BX","2017/11/24 19:39:55","新北市板橋區新生街88巷1號","121.458118333333","25.0215783333333","6500100","板橋區"
"220103","561-BX","2017/11/24 19:39:48","新北市板橋區文化路一段280-1號","121.467118333333","25.0210183333333","6500100","板橋區"
"220063","609-BX","2017/11/24 19:39:38","新北市板橋區中山路二段531巷28號","121.48289","25.0221883333333","6500100","板橋區"
"220005","686-BX","2017/11/24 18:51:16","新北市板橋區華東街1-9號","121.448245","24.9948466666667","6500100","板橋區"
"220077","687-BX","2017/11/24 19:39:57","新北市板橋區僑中一街98號","121.446815","25.0116466666667","6500100","板橋區"
"220093","689-BX","2017/11/24 19:39:43","新北市板橋區長江路一段44號","121.458595","25.02911","6500100","板橋區"
"220054","741-BX","2017/11/24 19:39:42","新北市板橋區忠孝路237號","121.466168333333","25.0029716666667","6500100","板橋區"
"220055","827-TW","2017/11/24 19:39:51","新北市板橋區國慶路149巷7-3號","121.461198333333","24.996955","6500100","板橋區"
"220014","829-TW","2017/11/24 15:43:18","新北市板橋區民生路二段161巷3號","121.470261666667","25.019855","6500100","板橋區"
"220102","830-TW","2017/11/24 19:39:48","新北市板橋區雙十路二段52號","121.475576666667","25.0278116666667","6500100","板橋區"
"220096","831-TW","2017/11/24 19:39:49","新北市板橋區民生路二段236號","121.468533333333","25.022995","6500100","板橋區"
"220074","895-R6","2017/11/24 19:39:40","新北市板橋區館前西路150-4號","121.455608333333","25.008575","6500100","板橋區"
"220073","985-R7","2017/11/24 19:39:54","新北市板橋區國光路31巷32號","121.457876666667","25.0184683333333","6500100","板橋區"
"220097","AAC-210","2017/11/24 19:39:44","新北市板橋區漢生西路89巷2弄12-2號","121.46177","25.01964","6500100","板橋區"
"220070","AAC-253","2017/11/24 19:39:46","新北市板橋區民族路256號","121.469341666667","25.0071416666667","6500100","板橋區"
