"lineid","car","time","location","longitude","latitude","cityid","cityname"
"234046","148-BY","2017/11/24 19:59:51","新北市永和區成功路一段4號","121.526961666667","25.0055466666667","6500400","永和區"
"234013","149-BY","2017/11/24 19:59:53","新北市永和區保生路55號","121.504728333333","25.0106066666667","6500400","永和區"
"234007","207-UY","2017/11/24 19:59:44","新北市永和區保生路22巷15號","121.507038333333","25.0081133333333","6500400","永和區"
"234038","336-UY","2017/11/24 19:59:45","新北市永和區成功路二段177-1號","121.526583333333","24.9967816666667","6500400","永和區"
"234064","337-UY","2017/11/24 19:59:57","新北市永和區中正路412巷2弄11號","121.518506666667","25.0020066666667","6500400","永和區"
"234086","338-UY","2017/11/24 19:59:55","新北市永和區福和路41-1號","121.52352","25.0080416666667","6500400","永和區"
"234070","552-UM","2017/11/24 19:59:54","新北市永和區國光路39-1號","121.51905","25.00826","6500400","永和區"
"234054","553-UM","2017/11/24 19:59:46","新北市永和區環河東路一段122號","121.520663333333","25.015475","6500400","永和區"
"234017","745-BX","2017/11/24 19:59:56","新北市永和區文化路69號","121.513978333333","25.01505","6500400","永和區"
"234030","746-BX","2017/11/24 19:59:35","新北市永和區民生路22巷19號","121.521513333333","24.9969583333333","6500400","永和區"
"234061","AAD-866","2017/11/24 19:59:41","新北市永和區中正路283巷12號","121.517165","25.0010366666667","6500400","永和區"
"234081","847-RS","2017/11/24 19:59:53","新北市永和區國中路12號","121.524296666667","25.0049083333333","6500400","永和區"
"234042","862-TW","2017/11/24 19:59:42","新北市永和區中和路421巷5弄1號","121.508691666667","25.001095","6500400","永和區"
"234050","863-TW","2017/11/24 19:59:42","新北市永和區保安路151號","121.506871666667","25.0130883333333","6500400","永和區"
"234026","9381-KE","2017/11/24 19:59:57","新北市永和區水源街40號","121.510758333333","25.00447","6500400","永和區"
"234011","9373-KE","2017/11/24 19:59:45","新北市永和區仁愛路352巷118號","121.500316666667","25.0084016666667","6500400","永和區"
"249005","172-UM","2017/11/24 19:59:48","新北市八里區楓林路3-1號","121.3825","25.130475","6502300","八里區"
"249001","173-UM","2017/11/24 19:59:45","新北市八里區中華路二段312號","121.403773333333","25.14839","6502300","八里區"
"249002","305-UY","2017/11/24 19:59:24","新北市八里區頂寮二街3號","121.450951666667","25.1238983333333","6502300","八里區"
"249003","593-UM","2017/11/24 19:59:54","新北市八里區訊塘路2號","121.398433333333","25.14458","6502300","八里區"
"248014","025-BX","2017/11/24 19:59:58","新北市五股區五福路14巷10號","121.434875","25.0887033333333","6501500","五股區"
"248016","026-BX","2017/11/24 19:59:44","新北市五股區成泰路三段577巷80弄50號","121.449668333333","25.1049016666667","6501500","五股區"
"248008","095-VK","2017/11/24 19:59:51","新北市五股區四維路30巷34弄1號","121.468635","25.07146","6501500","五股區"
"248018","225-UY","2017/11/24 19:59:39","新北市五股區登林路124號","121.411888333333","25.0774533333333","6501500","五股區"
"248012","247-BX","2017/11/24 19:59:42","新北市五股區民義路一段112-10號","121.435358333333","25.0852266666667","6501500","五股區"
"248010","272-BY","2017/11/24 19:59:43","新北市五股區登林路貿商巷2弄2號","121.430581666667","25.0696166666667","6501500","五股區"
"248004","677-BX","2017/11/24 19:59:56","新北市五股區成泰路一段8巷2-3號","121.434878333333","25.06686","6501500","五股區"
"248002","678-BX","2017/11/24 19:59:52","新北市五股區成泰路三段487號","121.450761666667","25.09938","6501500","五股區"
"234023","9380-KE","2017/11/24 19:59:54","新北市永和區中正路702巷7號","121.516293333333","25.010265","6500400","永和區"
"234077","969-R7","2017/11/24 19:59:51","新北市永和區民有街7號","121.51621","24.99695","6500400","永和區"
"234074","AAC-211","2017/11/24 19:59:40","新北市永和區豫溪街185號","121.522491666667","25.0103733333333","6500400","永和區"
"234067","AAC-212","2017/11/24 19:59:44","新北市永和區永貞路354號","121.51031","25.0064316666667","6500400","永和區"
"234003","AAC-295","2017/11/24 19:59:52","新北市永和區中正路647號","121.515185","25.0101966666667","6500400","永和區"
"243011","267-VK","2017/11/24 19:59:41","新北市泰山區明志路三段182巷24號","121.42348","25.0393566666667","6501600","泰山區"
"243012","AAD-798","2017/11/24 19:59:43","新北市泰山區全興路107號","121.433638333333","25.0568166666667","6501600","泰山區"
"243009","297-R6","2017/11/24 19:59:57","新北市泰山區泰林路二段164巷30號","121.434483333333","25.0610966666667","6501600","泰山區"
"243015","380-SR","2017/11/24 19:59:42","新北市泰山區明志路二段212號","121.427076666667","25.0490983333333","6501600","泰山區"
"243014","421-VK","2017/11/24 19:59:48","新北市泰山區泰林路二段156號","121.433986666667","25.0602216666667","6501600","泰山區"
"243010","KEA-2215","2017/11/24 19:59:50","新北市泰山區中華街10巷1號","121.42785","25.0525216666667","6501600","泰山區"
"243013","646-TV","2017/11/24 19:59:56","新北市泰山區應化街13號","121.423851666667","25.0436983333333","6501600","泰山區"
"243016","680-BX","2017/11/24 19:59:52","新北市泰山區中山路三段6號","121.420926666667","25.0321233333333","6501600","泰山區"
"222003","436-BY","2017/11/24 19:59:57","新北市深坑區埔新街10號","121.620715","25.003985","6501800","深坑區"
"222002","659-BX","2017/11/24 19:59:39","新北市深坑區北深路二段81巷17號","121.618566666667","25.00255","6501800","深坑區"
"231055","0291-UT","2017/11/24 19:59:54","新北市新店區中華路83巷67號","121.538356666667","24.9672566666667","6500600","新店區"
"231059","046-UY","2017/11/24 19:59:48","新北市新店區安康路二段147號","121.511283333333","24.95983","6500600","新店區"
"231061","047-UY","2017/11/24 19:59:47","新北市新店區安興路43號","121.516503333333","24.9714283333333","6500600","新店區"
"231060","106-UY","2017/11/24 19:59:44","新北市新店區安康路二段454號","121.494403333333","24.9542716666667","6500600","新店區"
"231051","107-UY","2017/11/24 19:59:40","新北市新店區中央五街22號","121.529328333333","24.97448","6500600","新店區"
"231048","108-UY","2017/11/24 19:59:51","新北市新店區寶橋路162號","121.549106666667","24.9770483333333","6500600","新店區"
"231053","187-VK","2017/11/24 19:59:56","新北市新店區新烏路三段286號","121.54983","24.8986266666667","6500600","新店區"
"231065","188-VK","2017/11/24 19:59:54","新北市新店區安祥路109巷8號","121.475465","24.95884","6500600","新店區"
"231050","KEA-2219","2017/11/24 19:59:41","新北市新店區北新路一段90號","121.541908333333","24.9686366666667","6500600","新店區"
"231057","256-BX","2017/11/24 19:59:40","新北市新店區花園二路一段11號","121.555503333333","24.932515","6500600","新店區"
"231063","268-BY","2017/11/24 19:59:48","新北市新店區黎明路57巷2號","121.502406666667","24.9477066666667","6500600","新店區"
"231046","278-BY","2017/11/24 19:59:41","新北市新店區安興路131巷2號","121.515856666667","24.9793483333333","6500600","新店區"
"231041","355-BY","2017/11/24 19:59:50","新北市新店區中正路354號","121.535801666667","24.9756533333333","6500600","新店區"
"231056","3713-VJ","2017/11/24 19:59:48","新北市新店區北新路三段89號","121.541506666667","24.9817683333333","6500600","新店區"
"231067","4715-K9","2017/11/24 19:59:56","新北市新店區秀山路11巷14號","121.531885","24.9593633333333","6500600","新店區"
"231054","513-UM","2017/11/24 19:59:50","新北市新店區光明街169號","121.539726666667","24.9625716666667","6500600","新店區"
"231064","515-UM","2017/11/24 19:59:40","新北市新店區碧安街36號","121.517493333333","24.9689816666667","6500600","新店區"
"231042","616-UM","2017/11/24 19:59:55","新北市新店區中興路一段290號","121.545856666667","24.9691016666667","6500600","新店區"
"231045","617-UM","2017/11/24 19:59:37","新北市新店區北宜路二段150-2號","121.558003333333","24.9540916666667","6500600","新店區"
"231040","619-UM","2017/11/24 19:59:54","新北市新店區中正路59號","121.544263333333","24.970015","6500600","新店區"
"231068","718-UY","2017/11/24 19:59:54","新北市新店區安華路28-1號","121.519246666667","24.9610633333333","6500600","新店區"
"231049","719-UM","2017/11/24 19:59:57","新北市新店區明德路28-3號","121.541526666667","24.9776216666667","6500600","新店區"
"231062","720-UM","2017/11/24 19:59:52","新北市新店區華城路6-1號","121.529353333333","24.958695","6500600","新店區"
"231044","897-TW","2017/11/24 19:59:55","新北市新店區北新路三段238號","121.539965","24.9867116666667","6500600","新店區"
"231043","899-TW","2017/11/24 19:59:39","新北市新店區中正路263-3號","121.538351666667","24.9738533333333","6500600","新店區"
"231066","AKT-0513","2017/11/24 19:59:51","新北市新店區柴埕路52巷3號","121.511848333333","24.9644433333333","6500600","新店區"
"241011","013-R5","2017/11/24 19:59:54","新北市三重區三和路三段35巷13號","121.49631","25.0712483333333","6500200","三重區"
"241028","022-UY","2017/11/24 19:59:41","新北市三重區中正南路30號","121.493661666667","25.060235","6500200","三重區"
"241008","059-VK","2017/11/24 19:59:37","新北市三重區永福街197巷8號","121.478098333333","25.0746066666667","6500200","三重區"
"241009","060-VK","2017/11/24 19:59:50","新北市三重區三和路四段388-2號","121.482041666667","25.0790666666667","6500200","三重區"
"241031","061-VK","2017/11/24 19:59:39","新北市三重區重新路四段144巷22號","121.487071666667","25.0553016666667","6500200","三重區"
"241015","062-VK","2017/11/24 19:59:58","新北市三重區三和路二段37-5號","121.501113333333","25.0674033333333","6500200","三重區"
"241017","063-VK","2017/11/24 19:59:35","新北市三重區自強路一段314號","121.491176666667","25.0684383333333","6500200","三重區"
"241024","065-VK","2017/11/24 19:59:45","新北市三重區大勇街52號","121.480835","25.0715066666667","6500200","三重區"
"241026","066-VK","2017/11/24 19:59:42","新北市三重區仁慈街7號","121.501748333333","25.0630366666667","6500200","三重區"
"241003","091-VK","2017/11/24 19:59:42","新北市三重區仁愛街445巷5號","121.490163333333","25.0824283333333","6500200","三重區"
"241022","156-TC","2017/11/24 19:59:38","新北市三重區過圳街19號","121.488696666667","25.06059","6500200","三重區"
"241005","262-UM","2017/11/24 19:59:37","新北市三重區溪尾街327號","121.488295","25.0849366666667","6500200","三重區"
"241019","265-UM","2017/11/24 19:59:36","新北市三重區重陽路四段40號","121.491378333333","25.0699866666667","6500200","三重區"
"241016","266-UM","2017/11/24 19:59:46","新北市三重區正義北路36巷14號","121.496578333333","25.0633283333333","6500200","三重區"
"241018","268-UM","2017/11/24 19:59:46","新北市三重區自強路一段155-1號","121.493746666667","25.0672466666667","6500200","三重區"
"241032","269-UM","2017/11/24 19:59:38","新北市三重區捷運路37巷41-2號","121.48377","25.0561566666667","6500200","三重區"
"241013","270-UM","2017/11/24 19:59:50","新北市三重區三和路三段125巷42號","121.494166666667","25.0737666666667","6500200","三重區"
"241025","271-UM","2017/11/24 19:59:48","新北市三重區頂崁街210巷11號","121.4765","25.06781","6500200","三重區"
"241007","398-BY","2017/11/24 19:59:53","新北市三重區溪尾街124-1號","121.489508333333","25.0793016666667","6500200","三重區"
"241020","413-TH","2017/11/24 19:59:56","新北市三重區大智街179巷13號","121.490358333333","25.072655","6500200","三重區"
"241035","462-BY","2017/11/24 19:59:51","新北市三重區大榮街9號","121.498211666667","25.06319","6500200","三重區"
"241004","475-VK","2017/11/24 19:59:49","新北市三重區五華街74號","121.493368333333","25.0820516666667","6500200","三重區"
"241030","480-VK","2017/11/24 19:59:57","新北市三重區重新路四段248-1號","121.486285","25.0534733333333","6500200","三重區"
"241014","543-UM","2017/11/24 19:59:51","新北市三重區介壽路1號","121.499083333333","25.0688766666667","6500200","三重區"
"241023","545-UM","2017/11/24 19:59:41","新北市三重區頂崁街172號","121.4776","25.0659233333333","6500200","三重區"
"241001","547-UM","2017/11/24 19:59:48","新北市三重區福隆路47號","121.490968333333","25.0776433333333","6500200","三重區"
"241006","AAD-863","2017/11/24 19:59:38","新北市三重區力行路二段93號","121.482645","25.0758016666667","6500200","三重區"
"241012","941-UM","2017/11/24 19:59:45","新北市三重區仁厚街41號","121.500163333333","25.0764533333333","6500200","三重區"
"241029","942-UM","2017/11/24 19:59:38","新北市三重區重安街12號","121.490228333333","25.05829","6500200","三重區"
"241033","AAC-255","2017/11/24 19:59:51","新北市三重區中興北街77號","121.469558333333","25.0478383333333","6500200","三重區"
"235066","003-UY","2017/11/24 19:59:59","新北市中和區中山路二段13號","121.50516","25.00559","6500300","中和區"
"235056","096-UM","2017/11/24 19:59:49","新北市中和區中山路三段170巷6弄1號","121.472688333333","25.0072083333333","6500300","中和區"
"235039","097-UM","2017/11/24 19:59:47","新北市中和區大勇街25巷17號","121.515676666667","24.9937116666667","6500300","中和區"
"235065","098-UM","2017/11/24 19:59:46","新北市中和區福美路253號","121.498761666667","25.0050733333333","6500300","中和區"
"235040","150-BY","2017/11/24 19:59:45","新北市中和區保健路10巷1弄2號","121.507875","24.99779","6500300","中和區"
"235058","151-BY","2017/11/24 19:59:54","新北市中和區員山路150巷2弄19號","121.48171","24.9978616666667","6500300","中和區"
"235038","185-VK","2017/11/24 19:59:53","新北市中和區自強路50號","121.520168333333","24.9949266666667","6500300","中和區"
"235049","186-VK","2017/11/24 19:59:43","新北市中和區景平路538號","121.502666666667","24.9946516666667","6500300","中和區"
"235067","255-BX","2017/11/24 19:59:44","新北市中和區新生街233巷2號","121.48409","24.99907","6500300","中和區"
"235044","293-VK","2017/11/24 19:59:50","新北市中和區中正路63號","121.50141","24.9933083333333","6500300","中和區"
"235043","352-BY","2017/11/24 19:59:52","新北市中和區興南路二段159巷7號","121.505288333333","24.9832383333333","6500300","中和區"
"235068","377-QA","2017/11/24 19:59:47","新北市中和區中山路二段250巷5號","121.497443333333","25.00296","6500300","中和區"
"235050","4979-A6","2017/11/24 19:59:51","新北市中和區景平路155巷4號","121.513503333333","24.9916983333333","6500300","中和區"
"235069","4980-A6","2017/11/24 19:59:42","新北市中和區景新街34巷2弄5號","121.50299","24.9990466666667","6500300","中和區"
"235042","551-UM","2017/11/24 19:59:50","新北市永和區中正路4號","121.51228","24.993605","6500300","中和區"
"235070","558-UM","2017/11/24 19:59:50","新北市中和區連勝街29-2號","121.498476666667","24.9979733333333","6500300","中和區"
"235054","640-BX","2017/11/24 19:59:51","新北市中和區莒光路163號","121.47271","25.00027","6500300","中和區"
"235060","647-TV","2017/11/24 19:59:45","新北市中和區新生街30巷23號","121.482253333333","25.0037466666667","6500300","中和區"
"235046","733-UM","2017/11/24 19:59:47","新北市中和區興南路一段93巷58弄1號","121.510675","24.9859166666667","6500300","中和區"
"235041","802-TS","2017/11/24 19:59:56","新北市中和區安平路38號","121.50993","24.994985","6500300","中和區"
"235052","805-TS","2017/11/24 19:59:43","新北市中和區忠孝街2-9號","121.509283333333","24.98297","6500300","中和區"
"235048","896-TW","2017/11/24 19:59:48","新北市中和區景新街401號","121.512663333333","24.9897483333333","6500300","中和區"
"235037","157-BY","2017/11/24 19:59:41","新北市中和區中興街233巷10號","121.501463333333","24.9894583333333","6500300","中和區"
"235037","AAC-213","2017/11/24 19:59:46","新北市中和區自立路147號","121.522601666667","24.992985","6500300","中和區"
"235059","AAC-215","2017/11/24 19:59:40","新北市中和區圓通路335巷4弄19號","121.492538333333","24.9899683333333","6500300","中和區"
"220068","013-TV","2017/11/23 21:23:58","新北市八里區荖阡坑路2-6號","121.398515","25.144265","6500100","板橋區"
"220065","072-UY","2017/11/24 19:59:42","新北市板橋區民族路65號","121.465346666667","25.0088416666667","6500100","板橋區"
"220106","075-UY","2017/11/24 19:59:49","新北市板橋區民治街82巷25號","121.478643333333","25.0325983333333","6500100","板橋區"
"220069","AAD-861","2017/11/24 19:59:57","新北市板橋區貴興路67號","121.457105","25.0030983333333","6500100","板橋區"
"247020","500-BY","2017/11/24 19:59:57","新北市蘆洲區民義街59號","121.472935","25.0898683333333","6501400","蘆洲區"
"247008","341-TH","2017/11/24 19:59:48","新北市蘆洲區中山一路95巷20弄25號","121.476426666667","25.0804166666667","6501400","蘆洲區"
"247010","339-TH","2017/11/24 19:59:39","新北市蘆洲區集賢路232號","121.482221666667","25.0861533333333","6501400","蘆洲區"
"247002","337-TH","2017/11/24 19:59:51","新北市蘆洲區長安街268號","121.457466666667","25.0868466666667","6501400","蘆洲區"
"247004","335-TH","2017/11/24 19:59:45","新北市蘆洲區永安南路二段328巷17弄16號","121.455728333333","25.0839533333333","6501400","蘆洲區"
"247016","057-VK","2017/11/24 19:59:50","新北市蘆洲區光華路19號","121.469578333333","25.083185","6501400","蘆洲區"
"247006","056-VK","2017/11/24 19:59:46","新北市蘆洲區九芎街61號","121.46708","25.078885","6501400","蘆洲區"
"247014","007-UY","2017/11/24 19:59:48","新北市蘆洲區中山二路273號","121.469535","25.07942","6501400","蘆洲區"
"247024","002-UY","2017/11/24 19:59:51","新北市蘆洲區光榮路120巷13號","121.46552","25.0884933333333","6501400","蘆洲區"
"228003","828-UM","2017/11/24 19:59:44","新北市貢寮區仁理村仁和路102號","121.922866666667","25.0507316666667","6502600","貢寮區"
"224010","AGQ-8101","2017/11/24 19:59:50","新北市瑞芳區輕便路308號","121.84312","25.1086","6501200","瑞芳區"
"227011","642-TC","2017/11/24 19:59:44","新北市雙溪區新基里新基南街25號","121.866273333333","25.038125","6502500","雙溪區"
"227003","400-TW","2017/11/24 19:59:49","新北市雙溪區雙溪里長安街16號","121.865055","25.0345866666667","6502500","雙溪區"
"222001","KEA-2212","2017/11/24 19:59:49","新北市深坑區北深路三段165-1號","121.602061666667","25.003425","6501800","深坑區"
"208002","742-BX","2017/11/24 19:59:59","新北市金山區中正路141巷8號","121.632181666667","25.2207783333333","6502700","金山區"
"208003","665-BX","2017/11/24 19:59:40","新北市金山區香園9號","121.634758333333","25.2505666666667","6502700","金山區"
"208001","761-BX","2017/11/24 19:59:55","新北市金山區南勢41號","121.629053333333","25.2198366666667","6502700","金山區"
"251004","009-UM","2017/11/24 19:59:45","新北市淡水區民族路50巷11號","121.461261666667","25.1358016666667","6501000","淡水區"
"251005","010-UM","2017/11/24 19:59:43","新北市淡水區學府路136巷98號","121.453556666667","25.17284","6501000","淡水區"
"251013","180-VK","2017/11/24 19:59:52","新北市淡水區奎柔山路35號","121.450058333333","25.2063666666667","6501000","淡水區"
"251008","181-VK","2017/11/24 19:59:45","新北市淡水區淡海路72巷2號","121.423283333333","25.1809716666667","6501000","淡水區"
"251015","182-VK","2017/11/24 19:59:47","新北市淡水區埤島80-7號","121.449008333333","25.18908","6501000","淡水區"
"251010","413-VK","2017/11/24 19:59:50","新北市淡水區崁頂115號","121.432423333333","25.2044483333333","6501000","淡水區"
"251012","441-VK","2017/11/24 19:59:46","新北市淡水區下圭柔山114-2號","121.446143333333","25.208555","6501000","淡水區"
"251006","561-UM","2017/11/24 19:59:51","新北市淡水區北新路8號","121.444455","25.1773783333333","6501000","淡水區"
"251009","575-R6","2017/11/24 19:59:43","新北市淡水區英專路28巷18號","121.445903333333","25.1698483333333","6501000","淡水區"
"251011","650-BX","2017/11/24 19:59:37","新北市淡水區崁頂55-3號","121.442338333333","25.1966266666667","6501000","淡水區"
"207003","550-UM","2017/11/24 19:59:42","新北市萬里區磺潭里公館崙5號","121.641898333333","25.2142333333333","6502800","萬里區"
"207004","225-TW","2017/11/24 19:59:45","新北市萬里區北基里忠二街35號","121.685603333333","25.1757666666667","6502800","萬里區"
"252002","178-VK","2017/11/24 19:59:45","新北市三芝區忠孝街116-3號","121.505513333333","25.2576066666667","6502100","三芝區"
"252001","292-VK","2017/11/24 19:59:53","新北市三芝區公正街66號","121.499788333333","25.2574666666667","6502100","三芝區"
"237007","153-BY","2017/11/24 19:59:41","新北市三峽區二鬮路108號","121.360201666667","24.9089383333333","6500900","三峽區"
"237009","210-TH","2017/11/24 19:59:47","新北市三峽區仁愛街6號","121.36844","24.93387","6500900","三峽區"
"237012","275-BY","2017/11/24 19:59:48","新北市三峽區中華路3巷8號","121.3748","24.9312883333333","6500900","三峽區"
"237006","5529-G3","2017/11/24 19:59:52","新北市三峽區中正路二段176巷79-2號","121.364371666667","24.9132233333333","6500900","三峽區"
"237015","649-BX","2017/11/24 19:59:36","新北市三峽區介壽路二段138巷1弄166-2號","121.40325","24.9276183333333","6500900","三峽區"
"237005","AKY-6261","2017/11/24 19:59:48","新北市三峽區民生街1巷3號","121.383045","24.9328433333333","6500900","三峽區"
"236072","105-UM","2017/11/24 19:59:56","新北市土城區忠義路77號","121.443115","24.9649833333333","6501300","土城區"
"236043","107-UM","2017/11/24 19:59:55","新北市土城區學府路一段145號","121.453575","24.98618","6501300","土城區"
"236031","253-BX","2017/11/24 19:59:36","新北市土城區中央路一段250巷1號","121.444131666667","24.9846666666667","6501300","土城區"
"236027","269-VK","2017/11/24 19:59:51","新北市土城區中央路一段289-1號","121.44423","24.98418","6501300","土城區"
"236015","270-VK","2017/11/24 19:59:44","新北市土城區廣福街128號","121.456345","24.9928533333333","6501300","土城區"
"236039","271-VK","2017/11/24 19:59:41","新北市土城區國際路68號","121.46662","24.9773133333333","6501300","土城區"
"236022","401-BY","2017/11/24 19:59:41","新北市土城區延吉街165巷7號","121.470448333333","24.98532","6501300","土城區"
"236079","752-BX","2017/11/24 19:59:49","新北市土城區福安街106號","121.417238333333","24.9638816666667","6501300","土城區"
"236059","912-UM","2017/11/24 19:59:40","新北市土城區中央路一段122號","121.446481666667","24.9879383333333","6501300","土城區"
"236050","913-UM","2017/11/24 19:59:55","新北市土城區金城路三段315號","121.47516","24.9912416666667","6501300","土城區"
"236063","915-UM","2017/11/24 19:59:39","新北市土城區延和路18巷10號","121.464508333333","24.988065","6501300","土城區"
"236055","AAC-216","2017/11/24 19:59:49","新北市土城區青雲路38號","121.45985","24.9884166666667","6501300","土城區"
"242032","AAC-296","2017/11/24 19:59:56","新北市新莊區公園一路33號","121.443315","25.0354116666667","6500500","新莊區"
"242029","986-R7","2017/11/24 19:59:53","新北市新莊區中平路268號","121.444813333333","25.0501166666667","6500500","新莊區"
"242025","615-BX","2017/11/24 19:59:20","新北市新莊區五工二路86巷35號","121.460516666667","25.0673383333333","6500500","新莊區"
"242023","613-BX","2017/11/24 19:59:46","新北市新莊區化成路406號","121.465933333333","25.0506933333333","6500500","新莊區"
"242027","612-BX","2017/11/24 19:59:58","新北市新莊區立信一街75號","121.443078333333","25.05003","6500500","新莊區"
"242039","566-BX","2017/11/24 19:59:49","新北市新莊區民安路301號","121.429548333333","25.02247","6500500","新莊區"
"242044","497-BY","2017/11/24 19:59:55","新北市新莊區中正路742-5號","121.413121666667","25.0226916666667","6500500","新莊區"
"242002","442-UM","2017/11/24 19:59:49","新北市新莊區中正路217號","121.451053333333","25.0357066666667","6500500","新莊區"
"242048","441-UM","2017/11/24 19:59:41","新北市新莊區富國路109巷2號","121.423798333333","25.0251083333333","6500500","新莊區"
"242054","440-UM","2017/11/24 19:59:44","新北市新莊區西盛街418號","121.427198333333","25.012225","6500500","新莊區"
"242034","415-TV","2017/11/24 19:59:38","新北市新莊區建中街94號","121.446735","25.03657","6500500","新莊區"
"242005","413-TV","2017/11/24 19:59:53","新北市新莊區化成路364巷18號","121.466471666667","25.04931","6500500","新莊區"
"242041","400-BY","2017/11/24 19:59:46","新北市新莊區壽山路164號","121.413226666667","25.03122","6500500","新莊區"
"242060","362-BY","2017/11/24 19:59:42","新北市新莊區瓊泰路9號","121.444573333333","25.0285783333333","6500500","新莊區"
"242058","353-BY","2017/11/24 19:59:44","新北市新莊區八德街106號","121.424158333333","25.0211466666667","6500500","新莊區"
"242037","133-UY","2017/11/24 19:59:54","新北市新莊區建安街27號","121.429056666667","25.0260283333333","6500500","新莊區"
"242021","135-UY","2017/11/24 19:59:50","新北市新莊區建中街32巷21號","121.448711666667","25.0382483333333","6500500","新莊區"
"242009","173-VK","2017/11/24 19:59:11","新北市新莊區幸福路785號","121.446668333333","25.0490616666667","6500500","新莊區"
"242015","175-VK","2017/11/24 19:59:53","新北市新莊區復興路一段45號","121.447013333333","25.042215","6500500","新莊區"
"242013","346-TH","2017/11/24 19:59:46","新北市新莊區幸福路672號","121.450958333333","25.0494233333333","6500500","新莊區"
"242007","347-TH","2017/11/24 19:59:56","新北市新莊區思源路710號","121.459758333333","25.0582116666667","6500500","新莊區"
"242019","348-TH","2017/11/24 19:59:53","新北市新莊區長青街35巷3號","121.456775","25.042005","6500500","新莊區"
"242056","349-TH","2017/11/24 19:59:56","新北市新莊區中正路347巷21號","121.447185","25.034155","6500500","新莊區"
"242050","350-TH","2017/11/24 19:59:38","新北市新莊區民本街33巷8號","121.428406666667","25.0185783333333","6500500","新莊區"
"238015","755-BX","2017/11/24 19:59:36","新北市樹林區中山路三段210-2號","121.380755","24.966825","6500700","樹林區"
"238021","KEA-2217","2017/11/24 19:59:47","新北市樹林區佳園路三段113巷3號","121.387035","24.9505633333333","6500700","樹林區"
"238025","303-VK","2017/11/24 19:59:43","新北市樹林區育德街78-1號","121.38743","24.9682866666667","6500700","樹林區"
"238020","268-VK","2017/11/24 19:59:35","新北市樹林區中山路三段214號","121.379886666667","24.967605","6500700","樹林區"
"221008","489-VK","2017/11/24 19:59:44","台北市內湖區康樂街125巷8號","121.619898333333","25.0733516666667","6501100","汐止區"
"221036","130-UY","2017/11/24 19:59:54","新北市汐止區新台五路二段85巷16號","121.66435","25.06745","6501100","汐止區"
"221010","269-BY","2017/11/24 19:59:55","新北市汐止區連峰街225巷8號","121.64463","25.081035","6501100","汐止區"
"221012","276-VK","2017/11/24 13:17:10","新北市汐止區汐萬路一段256巷3號","121.653448333333","25.0746666666667","6501100","汐止區"
"221012","278-VK","2017/11/24 19:59:43","新北市汐止區大同路三段332號","121.679348333333","25.0711033333333","6501100","汐止區"
"221023","279-VK","2017/11/24 19:59:57","新北市汐止區明峰街198號","121.627853333333","25.069535","6501100","汐止區"
"221032","280-BY","2017/11/24 19:59:58","新北市汐止區橫科路18巷33弄1號","121.61747","25.0497133333333","6501100","汐止區"
"221027","281-BY","2017/11/24 19:59:52","新北市汐止區中正路74號","121.661615","25.069835","6501100","汐止區"
"221029","298-VK","2017/11/24 19:59:36","新北市汐止區樟樹一路137巷26號","121.641028333333","25.06589","6501100","汐止區"
"221021","299-VK","2017/11/24 19:59:45","新北市汐止區新台五路一段210-1號","121.655566666667","25.0630633333333","6501100","汐止區"
"221031","353-TW","2017/11/24 19:59:52","新北市汐止區福德一路174號","121.635861666667","25.0660983333333","6501100","汐止區"
"221015","567-BX","2017/11/24 19:59:44","新北市汐止區忠孝東路473巷22號","121.665295","25.0735133333333","6501100","汐止區"
"221035","622-UM","2017/11/24 19:59:53","新北市汐止區長江街57巷2號","121.656285","25.0716816666667","6501100","汐止區"
"221025","623-UM","2017/11/24 19:59:44","新北市汐止區秀峰路107號","121.660255","25.0634416666667","6501100","汐止區"
"221038","646-BX","2017/11/24 19:59:45","新北市汐止區忠孝東路487-8號","121.66618","25.073985","6501100","汐止區"
"221033","647-BX","2017/11/24 19:59:48","新北市汐止區東勢街201巷104號","121.633455","25.0429683333333","6501100","汐止區"
"221018","753-BX","2017/11/24 19:59:51","新北市汐止區茄福街25號","121.672675","25.067045","6501100","汐止區"
"220080","200-UY","2017/11/24 19:59:45","新北市板橋區大觀路二段179巷4號","121.44512","24.9999166666667","6500100","板橋區"
"220082","610-BX","2017/11/24 19:59:49","新北市板橋區金門街192-4號","121.43265","24.9905283333333","6500100","板橋區"
"220101","245-BX","2017/11/24 19:59:40","新北市板橋區莒光路180巷23號","121.473103333333","25.0228083333333","6500100","板橋區"
"220067","257-TC","2017/11/24 19:59:54","新北市板橋區漢生東路171-1號","121.46959","25.0118833333333","6500100","板橋區"
"220091","267-BY","2017/11/24 19:59:37","新北市板橋區文聖街89巷28號","121.478295","25.0302933333333","6500100","板橋區"
"220072","277-BY","2017/11/24 19:59:50","新北市板橋區金門街121巷15號","121.433811666667","24.9914783333333","6500100","板橋區"
"220057","282-UM","2017/11/24 19:59:43","新北市板橋區四川路二段2號","121.456605","24.9966166666667","6500100","板橋區"
"220094","283-UM","2017/11/24 19:59:40","新北市板橋區陽明街239號","121.463188333333","25.0245483333333","6500100","板橋區"
"220071","283-VK","2017/11/24 19:59:53","新北市中和區和平路200巷31號","121.464993333333","24.9946033333333","6500100","板橋區"
"220053","285-VK","2017/11/24 19:59:52","新北市板橋區永豐街95號","121.473735","25.01919","6500100","板橋區"
"220083","286-VK","2017/11/24 19:59:52","新北市板橋區大觀路一段38巷156弄210號","121.44504","25.0106233333333","6500100","板橋區"
"220081","287-VK","2017/11/24 19:59:40","新北市板橋區僑中一街124巷20弄38號","121.447631666667","25.0138616666667","6500100","板橋區"
"220090","288-VK","2017/11/24 19:59:45","新北市板橋區綠堤街35-4號","121.455558333333","25.0262733333333","6500100","板橋區"
"220061","293-UM","2017/11/24 19:59:51","新北市板橋區中山路一段283巷2弄14號","121.470443333333","25.014825","6500100","板橋區"
"220084","296-UM","2017/11/24 19:59:55","新北市板橋區溪崑二街112巷33弄2號","121.425545","24.9891016666667","6500100","板橋區"
"220092","299-UM","2017/11/24 19:59:55","新北市板橋區英士路153號","121.459575","25.02369","6500100","板橋區"
"242001","281-VK","2017/11/24 15:42:52","新北市新莊區環河路636-7號","121.43729","25.0113483333333","6500500","新莊區"
"220062","305-R5","2017/11/24 19:59:54","新北市板橋區萬安街85巷2弄11號","121.484721666667","25.0245533333333","6500100","板橋區"
"220098","317-R6","2017/11/24 19:59:41","新北市板橋區雨農路27巷6號","121.461416666667","25.0238633333333","6500100","板橋區"
"220064","486-VK","2017/11/24 19:59:38","新北市板橋區館前東路108-1號","121.463203333333","25.0075633333333","6500100","板橋區"
"220089","487-VK","2017/11/24 19:59:56","新北市板橋區英士路192-1號","121.458526666667","25.0234716666667","6500100","板橋區"
"242017","280-VK","2017/11/24 19:59:43","新北市新莊區中華路二段3巷27號","121.45317","25.0463433333333","6500500","新莊區"
"220088","491-VK","2017/11/24 19:59:48","新北市板橋區懷德街191巷2號","121.480016666667","25.029425","6500100","板橋區"
"220035","560-BX","2017/11/24 19:59:46","新北市板橋區新生街89巷18號","121.457536666667","25.022545","6500100","板橋區"
"220103","561-BX","2017/11/24 19:59:48","新北市板橋區陽明街29巷1弄14號","121.464543333333","25.0217583333333","6500100","板橋區"
"220063","609-BX","2017/11/24 19:59:38","新北市板橋區中山路二段64號","121.47427","25.0159133333333","6500100","板橋區"
"220005","686-BX","2017/11/24 18:51:16","新北市板橋區華東街1-9號","121.448245","24.9948466666667","6500100","板橋區"
"220093","689-BX","2017/11/24 19:59:54","新北市板橋區長江路三段68號","121.473848333333","25.03409","6500100","板橋區"
"220054","741-BX","2017/11/24 19:59:42","新北市板橋區忠孝路201巷30號","121.465006666667","25.0034483333333","6500100","板橋區"
"220055","827-TW","2017/11/24 19:59:51","新北市板橋區國慶路149巷38弄6號","121.461368333333","24.99808","6500100","板橋區"
"220014","829-TW","2017/11/24 15:43:18","新北市板橋區民生路二段161巷3號","121.470261666667","25.019855","6500100","板橋區"
"220102","830-TW","2017/11/24 19:59:48","新北市板橋區懷德街66巷21號","121.477003333333","25.0318933333333","6500100","板橋區"
"220096","831-TW","2017/11/24 19:59:44","新北市板橋區莒光路133巷16號","121.47285","25.0244716666667","6500100","板橋區"
"220074","895-R6","2017/11/24 19:59:40","新北市板橋區民權路67號","121.461668333333","25.011665","6500100","板橋區"
"220073","985-R7","2017/11/24 19:59:54","新北市板橋區館前西路168-1號","121.452135","25.0086166666667","6500100","板橋區"
"220097","AAC-210","2017/11/24 19:59:50","新北市板橋區文化路一段221巷14號","121.463163333333","25.0178016666667","6500100","板橋區"
"220070","AAC-253","2017/11/24 19:59:45","新北市板橋區成都街22號","121.460911666667","25.004835","6500100","板橋區"
