"lineid","car","time","location","longitude","latitude","cityid","cityname"
"234074","AAC-211","2017/11/24 20:49:52","新北市永和區環河東路二段26號","121.522476666667","25.0128266666667","6500400","永和區"
"243014","421-VK","2017/11/24 20:49:45","新北市泰山區橫窠雅10-16號","121.414885","25.0671733333333","6501600","泰山區"
"222003","436-BY","2017/11/24 20:49:37","新北市深坑區北深路二段21號","121.620393333333","25.0044966666667","6501800","深坑區"
"222002","659-BX","2017/11/24 20:49:40","新北市深坑區北深路三段93巷39號","121.604638333333","25.0004083333333","6501800","深坑區"
"231059","046-UY","2017/11/24 20:49:48","新北市新店區吉祥街9巷36號","121.498726666667","24.94682","6500600","新店區"
"231061","047-UY","2017/11/24 20:49:47","新北市新店區新和街93巷10號","121.52076","24.9867133333333","6500600","新店區"
"231060","106-UY","2017/11/24 20:49:44","新北市新店區安康路三段738號","121.473986666667","24.9418833333333","6500600","新店區"
"231051","107-UY","2017/11/24 20:49:40","新北市新店區中央路7號","121.533433333333","24.9786633333333","6500600","新店區"
"231048","108-UY","2017/11/24 20:49:51","新北市新店區寶元路一段109號","121.5457","24.983125","6500600","新店區"
"231053","187-VK","2017/11/24 20:49:56","新北市新店區新烏路一段145號","121.549385","24.9216516666667","6500600","新店區"
"231065","188-VK","2017/11/24 20:49:54","新北市新店區安祥路69巷1號","121.482146666667","24.961905","6500600","新店區"
"231050","KEA-2219","2017/11/24 20:49:41","新北市新店區中正路247巷5號","121.538831666667","24.9729216666667","6500600","新店區"
"231057","256-BX","2017/11/24 20:49:40","新北市新店區新烏路161號","121.545598333333","24.9326516666667","6500600","新店區"
"231063","268-BY","2017/11/24 20:49:48","新北市新店區如意街11號","121.49512","24.9483983333333","6500600","新店區"
"231058","3712-VJ","2017/11/24 20:49:51","新北市新店區平等街48巷8號","121.535811666667","24.9731066666667","6500600","新店區"
"231056","3713-VJ","2017/11/24 20:49:48","新北市新店區溪園路397號","121.523483333333","24.97799","6500600","新店區"
"231054","513-UM","2017/11/24 20:49:50","新北市新店區中正路75巷71號","121.543143333333","24.9690716666667","6500600","新店區"
"231064","515-UM","2017/11/24 20:49:40","新北市新店區安民街377號","121.516211666667","24.9762466666667","6500600","新店區"
"231042","616-UM","2017/11/24 20:49:55","新北市新店區寶高路120巷1-1號","121.554561666667","24.975945","6500600","新店區"
"231045","617-UM","2017/11/24 20:49:56","新北市新店區中興路一段159號","121.54242","24.9639866666667","6500600","新店區"
"231040","619-UM","2017/11/24 20:49:54","新北市新店區中正路270號","121.538963333333","24.9735633333333","6500600","新店區"
"231068","718-UY","2017/11/24 20:49:54","新北市新店區寶元路一段107號","121.545526666667","24.98288","6500600","新店區"
"231049","719-UM","2017/11/24 20:49:39","新北市新店區安光路2號","121.514183333333","24.9634433333333","6500600","新店區"
"231062","720-UM","2017/11/24 20:49:52","新北市新店區裕合街287號","121.489183333333","24.9486783333333","6500600","新店區"
"231044","897-TW","2017/11/24 20:49:55","新北市新店區民族路237號","121.536501666667","24.975685","6500600","新店區"
"231043","899-TW","2017/11/24 20:49:39","新北市新店區建國路62號","121.540615","24.9757833333333","6500600","新店區"
"231066","AKT-0513","2017/11/24 20:49:46","新北市新店區安興路112號","121.514561666667","24.9776183333333","6500600","新店區"
"241011","013-R5","2017/11/24 20:49:54","新北市三重區秀江街119號","121.499696666667","25.072195","6500200","三重區"
"241028","022-UY","2017/11/24 20:49:41","新北市三重區中正南路41巷1號","121.493831666667","25.0598616666667","6500200","三重區"
"241008","059-VK","2017/11/24 20:49:57","新北市三重區永福街72巷11號","121.479405","25.0768016666667","6500200","三重區"
"241009","060-VK","2017/11/24 20:49:50","新北市三重區三和路四段388-2號","121.482028333333","25.07911","6500200","三重區"
"241031","061-VK","2017/11/24 20:49:39","新北市三重區重陽路一段113巷1弄1號","121.487491666667","25.059805","6500200","三重區"
"241015","062-VK","2017/11/24 20:49:38","新北市三重區自強路一段8號","121.49882","25.06831","6500200","三重區"
"241017","063-VK","2017/11/24 20:49:55","新北市三重區自強路一段256號","121.492635","25.0675666666667","6500200","三重區"
"241024","065-VK","2017/11/24 20:49:45","新北市三重區大勇街82巷15弄30號","121.481156666667","25.071965","6500200","三重區"
"241026","066-VK","2017/11/24 20:49:42","新北市三重區和平街3號","121.500215","25.062335","6500200","三重區"
"241002","090-VK","2017/11/24 20:49:49","新北市三重區仁義街167巷55號","121.498936666667","25.0823583333333","6500200","三重區"
"241022","156-TC","2017/11/24 20:49:38","新北市三重區過圳街27-5號","121.487976666667","25.0623733333333","6500200","三重區"
"241005","262-UM","2017/11/24 20:49:37","新北市三重區五華街141巷2號","121.491065","25.0847733333333","6500200","三重區"
"241019","265-UM","2017/11/24 20:49:36","新北市三重區三張街82號","121.488805","25.0702333333333","6500200","三重區"
"241016","266-UM","2017/11/24 20:49:46","新北市三重區自強路一段147-1號","121.493961666667","25.0667983333333","6500200","三重區"
"241018","268-UM","2017/11/24 20:49:54","新北市三重區正義北路271號","121.495356666667","25.0700233333333","6500200","三重區"
"241032","269-UM","2017/11/24 20:49:39","新北市三重區重陽路一段120巷48號","121.48499","25.0601233333333","6500200","三重區"
"241013","270-UM","2017/11/24 20:49:50","新北市三重區仁賢街12-1號","121.495658333333","25.0748533333333","6500200","三重區"
"241025","271-UM","2017/11/24 20:49:48","新北市三重區貴陽街18-1號","121.484235","25.0618916666667","6500200","三重區"
"241007","398-BY","2017/11/24 20:49:39","新北市三重區慈愛街10號","121.484528333333","25.0784216666667","6500200","三重區"
"241020","413-TH","2017/11/24 20:49:56","新北市三重區忠孝路一段101號","121.48947","25.0720866666667","6500200","三重區"
"241004","475-VK","2017/11/24 20:49:49","新北市三重區分子尾街19號","121.489523333333","25.080985","6500200","三重區"
"241030","480-VK","2017/11/24 20:49:36","新北市三重區昌隆街26號","121.492018333333","25.0522683333333","6500200","三重區"
"241014","543-UM","2017/11/24 20:49:51","新北市三重區萬全街71號","121.501408333333","25.0702883333333","6500200","三重區"
"241023","545-UM","2017/11/24 20:49:41","新北市三重區忠孝路三段84巷1號","121.480243333333","25.0644","6500200","三重區"
"241001","547-UM","2017/11/24 20:49:48","新北市三重區自強路三段97號","121.487596666667","25.0752083333333","6500200","三重區"
"241006","AAD-863","2017/11/24 20:49:38","新北市三重區車路頭街139巷14號","121.484311666667","25.076195","6500200","三重區"
"241012","941-UM","2017/11/24 20:49:45","新北市三重區仁信街29號","121.501248333333","25.0755333333333","6500200","三重區"
"241029","942-UM","2017/11/24 20:49:38","新北市三重區重安街18號","121.490321666667","25.0581433333333","6500200","三重區"
"241033","AAC-255","2017/11/24 20:49:51","新北市三重區光復路二段1號","121.472293333333","25.0533433333333","6500200","三重區"
"235069","4980-A6","2017/11/24 20:49:42","新北市中和區新生街285號","121.48385","24.9975666666667","6500300","中和區"
"247022","893-R6","2017/11/24 20:49:40","新北市蘆洲區三民路118號","121.471453333333","25.0871266666667","6501400","蘆洲區"
"247012","546-UM","2017/11/24 20:49:42","新北市蘆洲區復興路340巷20-1號","121.483118333333","25.08941","6501400","蘆洲區"
"247020","500-BY","2017/11/24 20:49:57","新北市蘆洲區仁愛街66號","121.471568333333","25.0938933333333","6501400","蘆洲區"
"247008","341-TH","2017/11/24 20:49:48","新北市蘆洲區永安北路二段12巷1號","121.481291666667","25.0807033333333","6501400","蘆洲區"
"247010","339-TH","2017/11/24 20:49:39","新北市蘆洲區鷺江街74號","121.477075","25.0838083333333","6501400","蘆洲區"
"247002","337-TH","2017/11/24 20:49:51","新北市蘆洲區長安街222號","121.458073333333","25.0852883333333","6501400","蘆洲區"
"247004","335-TH","2017/11/24 20:49:44","新北市蘆洲區長安街101號","121.461635","25.0808083333333","6501400","蘆洲區"
"247016","057-VK","2017/11/24 20:49:51","新北市蘆洲區中山二路193號","121.470766666667","25.0806916666667","6501400","蘆洲區"
"247006","056-VK","2017/11/24 20:49:46","新北市蘆洲區永安南路二段16巷8號","121.467768333333","25.0772233333333","6501400","蘆洲區"
"247014","007-UY","2017/11/24 20:49:48","新北市蘆洲區三民路33號","121.475458333333","25.083015","6501400","蘆洲區"
"247024","002-UY","2017/11/24 20:49:50","新北市蘆洲區長樂路140號","121.462021666667","25.0901766666667","6501400","蘆洲區"
"222001","KEA-2212","2017/11/24 20:49:47","新北市深坑區北深路三段133號","121.603976666667","25.0024933333333","6501800","深坑區"
"251013","180-VK","2017/11/24 20:49:52","新北市淡水區行忠路171-1號","121.456445","25.2010183333333","6501000","淡水區"
"251015","182-VK","2017/11/24 20:49:47","新北市淡水區淡金路四段542巷17號","121.452696666667","25.2270866666667","6501000","淡水區"
"251010","413-VK","2017/11/24 20:49:50","新北市淡水區沙崙路145號","121.423321666667","25.1830983333333","6501000","淡水區"
"251012","441-VK","2017/11/24 20:49:46","新北市淡水區淡金路四段516號","121.452033333333","25.22589","6501000","淡水區"
"251001","559-UM","2017/11/24 20:49:47","新北市淡水區淡金路218號","121.460561666667","25.1672133333333","6501000","淡水區"
"251007","577-R6","2017/11/24 20:49:51","新北市淡水區學府路102巷34號","121.452181666667","25.171745","6501000","淡水區"
"251011","650-BX","2017/11/24 20:49:37","新北市淡水區新民街一段13-1號","121.433066666667","25.18466","6501000","淡水區"
"251002","672-BX","2017/11/24 20:49:54","新北市淡水區英專路36號","121.445615","25.1701583333333","6501000","淡水區"
"251003","673-BX","2017/11/24 20:49:57","新北市淡水區中山北路一段247巷74號","121.442793333333","25.1794283333333","6501000","淡水區"
"252002","178-VK","2017/11/24 20:49:45","新北市三芝區淡金路二段89-1號","121.504045","25.26085","6502100","三芝區"
"242032","AAC-296","2017/11/24 20:49:46","新北市新莊區環河路462號","121.440198333333","25.0196733333333","6500500","新莊區"
"242029","986-R7","2017/11/24 20:49:53","新北市新莊區中華路二段119號","121.452818333333","25.05027","6500500","新莊區"
"242025","615-BX","2017/11/24 20:49:40","新北市新莊區環河路636-7號","121.43717","25.0118","6500500","新莊區"
"242027","612-BX","2017/11/24 20:49:43","新北市新莊區環漢路三段531號","121.435373333333","25.0009383333333","6500500","新莊區"
"242039","566-BX","2017/11/24 20:49:49","新北市新莊區瓊林北路1號","121.439841666667","25.0227116666667","6500500","新莊區"
"242048","441-UM","2017/11/24 20:49:41","新北市新莊區建國一路109號","121.434916666667","25.027955","6500500","新莊區"
"242060","362-BY","2017/11/24 20:49:39","新北市新莊區新崑路189號","121.43424","25.0000233333333","6500500","新莊區"
"242037","133-UY","2017/11/24 20:49:54","新北市新莊區中正路449-1號","121.44308","25.0337416666667","6500500","新莊區"
"242046","172-VK","2017/11/24 20:49:50","新北市板橋區大觀路三段59巷15號","121.434245","24.9953933333333","6500500","新莊區"
"242007","347-TH","2017/11/24 20:49:56","新北市新莊區新莊路15號","121.459606666667","25.0372016666667","6500500","新莊區"
"221036","130-UY","2017/11/24 20:49:54","新北市汐止區仁愛路329號","121.664126666667","25.0679483333333","6501100","汐止區"
"221012","276-VK","2017/11/24 13:17:10","新北市汐止區汐萬路一段256巷3號","121.653448333333","25.0746666666667","6501100","汐止區"
"221032","280-BY","2017/11/24 20:49:38","新北市汐止區大同路二段179號","121.651725","25.0643216666667","6501100","汐止區"
"221027","281-BY","2017/11/24 20:49:52","新北市汐止區汐萬路一段117號","121.654203333333","25.0709683333333","6501100","汐止區"
"221031","353-TW","2017/11/24 20:49:52","新北市汐止區福德一路7號","121.63909","25.06999","6501100","汐止區"
"221035","622-UM","2017/11/24 20:49:53","新北市汐止區康寧街901號","121.65131","25.07506","6501100","汐止區"
"221038","646-BX","2017/11/24 20:49:45","新北市汐止區汐萬路一段256巷3號","121.652065","25.074805","6501100","汐止區"
"221033","647-BX","2017/11/24 20:49:48","新北市汐止區合順街18巷8弄5號","121.62029","25.041995","6501100","汐止區"
"221002","707-TV","2017/11/24 20:49:46","新北市汐止區福德二路169號","121.63079","25.0651666666667","6501100","汐止區"
"220082","610-BX","2017/11/24 20:49:40","新北市林口區太平里180號","121.367095","25.135135","6500100","板橋區"
"242001","281-VK","2017/11/24 15:42:52","新北市新莊區環河路636-7號","121.43729","25.0113483333333","6500500","新莊區"
"220062","305-R5","2017/11/24 20:49:54","新北市板橋區民生路三段115號","121.466503333333","25.02555","6500100","板橋區"
"220064","486-VK","2017/11/24 20:49:38","新北市八里區下罟子17號","121.380725","25.1436316666667","6500100","板橋區"
"242017","280-VK","2017/11/24 20:49:43","新北市新莊區新泰路2-4號","121.449731666667","25.032745","6500500","新莊區"
"220005","686-BX","2017/11/24 18:51:16","新北市板橋區華東街1-9號","121.448245","24.9948466666667","6500100","板橋區"
"220014","829-TW","2017/11/24 15:43:18","新北市板橋區民生路二段161巷3號","121.470261666667","25.019855","6500100","板橋區"
"220070","AAC-253","2017/11/24 20:49:44","新北市八里區中山路三段382號","121.368543333333","25.13579","6500100","板橋區"
