"lineid","car","time","location","longitude","latitude","cityid","cityname"
"231059","046-UY","2017/11/24 21:09:48","新北市新店區僑信路14號","121.499718333333","24.9526083333333","6500600","新店區"
"231061","047-UY","2017/11/24 21:09:47","新北市新店區永平街26號","121.51655","24.9837983333333","6500600","新店區"
"231060","106-UY","2017/11/24 21:09:44","新北市新店區安康路二段353號","121.49588","24.9549133333333","6500600","新店區"
"231051","107-UY","2017/11/24 21:09:40","新北市新店區中正路663巷7弄15號","121.532868333333","24.99014","6500600","新店區"
"231048","108-UY","2017/11/24 21:09:51","新北市新店區寶強路45號","121.543473333333","24.979485","6500600","新店區"
"231065","188-VK","2017/11/24 21:09:54","新北市新店區安祥路69巷89弄27號","121.482508333333","24.96054","6500600","新店區"
"231050","KEA-2219","2017/11/24 21:09:41","新北市新店區三民路29巷2弄2號","121.537738333333","24.9699266666667","6500600","新店區"
"231063","268-BY","2017/11/24 21:09:48","新北市新店區玫瑰路58巷1號","121.495425","24.9465766666667","6500600","新店區"
"231067","4715-K9","2017/11/24 21:09:36","新北市新店區安德街155號","121.508371666667","24.9595833333333","6500600","新店區"
"231054","513-UM","2017/11/24 21:09:50","新北市新店區大新街7巷21號","121.544186666667","24.9679266666667","6500600","新店區"
"231042","616-UM","2017/11/24 21:09:55","新北市新店區寶興路60巷4號","121.54986","24.971905","6500600","新店區"
"231040","619-UM","2017/11/24 21:09:54","新北市新店區北新路一段100號","121.542183333333","24.9694","6500600","新店區"
"241011","013-R5","2017/11/24 21:09:56","新北市三重區龍濱路183號","121.502131666667","25.0706333333333","6500200","三重區"
"241028","022-UY","2017/11/24 21:09:41","新北市三重區正義南路60-1號","121.498263333333","25.0606466666667","6500200","三重區"
"241008","059-VK","2017/11/24 21:09:37","新北市三重區自強路一段62號","121.497273333333","25.0667433333333","6500200","三重區"
"241009","060-VK","2017/11/24 21:09:50","新北市三重區忠孝路二段122號","121.483021666667","25.0688133333333","6500200","三重區"
"241031","061-VK","2017/11/24 21:09:39","新北市三重區重新路五段428號","121.475218333333","25.0475033333333","6500200","三重區"
"241015","062-VK","2017/11/24 21:09:38","新北市三重區福德北路69號","121.502011666667","25.0656433333333","6500200","三重區"
"241017","063-VK","2017/11/24 21:09:55","新北市三重區國隆路31號","121.492476666667","25.0645366666667","6500200","三重區"
"241024","065-VK","2017/11/24 21:09:45","新北市三重區大勇街82巷15弄30號","121.481153333333","25.0719816666667","6500200","三重區"
"241026","066-VK","2017/11/24 21:09:42","新北市三重區文化南路42號","121.500403333333","25.0602266666667","6500200","三重區"
"241002","090-VK","2017/11/24 21:09:49","新北市三重區五華街19號","121.49502","25.0804066666667","6500200","三重區"
"241003","091-VK","2017/11/24 21:09:42","新北市三重區仁義街224號","121.495005","25.084655","6500200","三重區"
"241022","156-TC","2017/11/24 21:09:38","新北市三重區中正北路64巷24號","121.486065","25.0637033333333","6500200","三重區"
"241005","262-UM","2017/11/24 21:09:37","新北市三重區三信路11號","121.488166666667","25.0861716666667","6500200","三重區"
"241019","265-UM","2017/11/24 21:09:36","新北市三重區自強路二段74巷19號","121.487986666667","25.06992","6500200","三重區"
"241016","266-UM","2017/11/24 21:09:46","新北市三重區信義西街138號","121.49555","25.0643733333333","6500200","三重區"
"241018","268-UM","2017/11/24 21:09:45","新北市三重區正義北路332-1號","121.494423333333","25.070475","6500200","三重區"
"241032","269-UM","2017/11/24 21:09:38","新北市三重區光復路二段175號","121.472343333333","25.0615533333333","6500200","三重區"
"241013","270-UM","2017/11/24 21:09:50","新北市三重區仁愛街141巷10號","121.495918333333","25.0752716666667","6500200","三重區"
"241025","271-UM","2017/11/24 21:09:48","新北市三重區中正北路208巷10弄6號","121.482508333333","25.066945","6500200","三重區"
"241007","398-BY","2017/11/24 21:09:39","新北市三重區三和路四段145巷85號","121.486433333333","25.0787316666667","6500200","三重區"
"241020","413-TH","2017/11/24 21:09:56","新北市三重區忠孝路二段34號","121.485838333333","25.0709366666667","6500200","三重區"
"241004","475-VK","2017/11/24 21:09:49","新北市三重區仁愛街420號","121.49041","25.0813983333333","6500200","三重區"
"241030","480-VK","2017/11/24 21:09:56","新北市三重區五谷王北街20巷15弄1號","121.475048333333","25.04848","6500200","三重區"
"241014","543-UM","2017/11/24 21:09:51","新北市三重區三和路二段37-9號","121.501311666667","25.06761","6500200","三重區"
"241023","545-UM","2017/11/24 21:09:41","新北市三重區忠孝路三段50巷41弄64號","121.482433333333","25.0637833333333","6500200","三重區"
"241001","547-UM","2017/11/24 21:09:48","新北市三重區福隆路44號","121.49228","25.07853","6500200","三重區"
"241006","AAD-863","2017/11/24 21:09:58","新北市三重區明志街135號","121.489253333333","25.0632466666667","6500200","三重區"
"241012","941-UM","2017/11/24 21:09:45","新北市三重區河邊北街236號","121.502058333333","25.07557","6500200","三重區"
"241029","942-UM","2017/11/24 21:09:38","新北市三重區正義南路107號","121.498218333333","25.0585516666667","6500200","三重區"
"241033","AAC-255","2017/11/24 21:09:51","新北市三重區大有街25號","121.467406666667","25.0644066666667","6500200","三重區"
"247022","893-R6","2017/11/24 21:09:49","新北市蘆洲區三民路263號","121.468285","25.0894166666667","6501400","蘆洲區"
"247012","546-UM","2017/11/24 21:09:42","新北市蘆洲區三民路70號","121.4754","25.0838733333333","6501400","蘆洲區"
"247020","500-BY","2017/11/24 21:09:57","新北市蘆洲區民族路436巷24號","121.472733333333","25.09291","6501400","蘆洲區"
"247008","341-TH","2017/11/24 21:09:48","新北市蘆洲區民生街26號","121.474958333333","25.0788783333333","6501400","蘆洲區"
"247010","339-TH","2017/11/24 21:09:39","新北市蘆洲區鷺江街46號","121.477275","25.0831783333333","6501400","蘆洲區"
"247002","337-TH","2017/11/24 21:09:51","新北市蘆洲區永平街6號","121.459468333333","25.0903583333333","6501400","蘆洲區"
"247004","335-TH","2017/11/24 21:09:47","新北市蘆洲區永安南路二段286號","121.457626666667","25.08132","6501400","蘆洲區"
"247016","057-VK","2017/11/24 21:09:50","新北市蘆洲區和平路196號","121.465998333333","25.0817866666667","6501400","蘆洲區"
"247006","056-VK","2017/11/24 21:09:46","新北市蘆洲區永安南路二段16巷18號","121.468058333333","25.07792","6501400","蘆洲區"
"247014","007-UY","2017/11/24 21:09:48","新北市蘆洲區復興路30-7號","121.472703333333","25.0846766666667","6501400","蘆洲區"
"247024","002-UY","2017/11/24 21:09:50","新北市蘆洲區長興路50巷1號","121.463813333333","25.0838133333333","6501400","蘆洲區"
"247018","001-UY","2017/11/24 21:09:49","新北市蘆洲區民族路408巷14號","121.474925","25.0920133333333","6501400","蘆洲區"
"251004","009-UM","2017/11/24 21:09:54","新北市淡水區民生路117巷27號","121.464861666667","25.1395416666667","6501000","淡水區"
"251005","010-UM","2017/11/24 21:09:43","新北市淡水區英專路2巷27號","121.446363333333","25.1694316666667","6501000","淡水區"
"251013","180-VK","2017/11/24 21:09:52","新北市淡水區行忠路521號","121.465368333333","25.19924","6501000","淡水區"
"251015","182-VK","2017/11/24 21:09:47","新北市淡水區淡金路四段542巷60號","121.454976666667","25.22661","6501000","淡水區"
"251010","413-VK","2017/11/24 21:09:50","新北市淡水區中正路一段63巷11號","121.422251666667","25.1769983333333","6501000","淡水區"
"251012","441-VK","2017/11/24 21:09:46","新北市淡水區淡金路五段168號","121.456878333333","25.2393366666667","6501000","淡水區"
"251001","559-UM","2017/11/24 21:09:47","新北市淡水區新市一路三段101巷16弄3號","121.44668","25.1838433333333","6501000","淡水區"
"251009","575-R6","2017/11/24 21:09:43","新北市淡水區民族路112巷57號","121.462091666667","25.134355","6501000","淡水區"
"251011","650-BX","2017/11/24 21:09:37","新北市淡水區新民街120巷45弄10號","121.43802","25.1797833333333","6501000","淡水區"
"251002","672-BX","2017/11/24 21:09:54","新北市淡水區學府路172巷21號","121.448171666667","25.175225","6501000","淡水區"
"251003","673-BX","2017/11/24 21:09:37","新北市淡水區新春街95-1號","121.439503333333","25.182645","6501000","淡水區"
"221012","276-VK","2017/11/24 13:17:10","新北市汐止區汐萬路一段256巷3號","121.653448333333","25.0746666666667","6501100","汐止區"
"221035","622-UM","2017/11/24 21:09:53","新北市汐止區汐萬路一段256巷1號","121.651996666667","25.074795","6501100","汐止區"
"220082","610-BX","2017/11/24 21:09:40","新北市林口區太平里180號","121.367698333333","25.13384","6500100","板橋區"
"242001","281-VK","2017/11/24 15:42:52","新北市新莊區環河路636-7號","121.43729","25.0113483333333","6500500","新莊區"
"220062","305-R5","2017/11/24 20:58:49","新北市板橋區民生路二段120號","121.47033","25.019735","6500100","板橋區"
"220064","486-VK","2017/11/24 21:09:37","新北市林口區太平里180號","121.36665","25.1340416666667","6500100","板橋區"
"220005","686-BX","2017/11/24 18:51:16","新北市板橋區華東街1-9號","121.448245","24.9948466666667","6500100","板橋區"
"220014","829-TW","2017/11/24 15:43:18","新北市板橋區民生路二段161巷3號","121.470261666667","25.019855","6500100","板橋區"
"220070","AAC-253","2017/11/24 21:09:44","新北市林口區太平里180號","121.366988333333","25.133705","6500100","板橋區"
