"lineid","car","time","location","longitude","latitude","cityid","cityname"
"248005","653-BX","2017/08/21 08:59:22","新北市五股區明德路8號","121.433338333333","25.0717033333333","6501500","五股區"
"232005","290-BY","2017/08/21 08:59:18","新北市坪林區魚堀14號","121.704746666667","24.9082566666667","6502000","坪林區"
"232001","291-BY","2017/08/21 08:58:22","新北市坪林區坪雙路一段106號","121.723878333333","24.946995","6502000","坪林區"
"232012","705-BZ","2017/08/21 08:59:22","新北市坪林區北宜路八段6號","121.7012","24.9357616666667","6502000","坪林區"
"232017","758-BX","2017/08/21 08:59:13","新北市坪林區坪雙路二段38號","121.735513333333","24.9662066666667","6502000","坪林區"
"244006","080-UY","2017/08/21 08:59:11","新北市林口區林口路222號","121.386963333333","25.0835633333333","6501700","林口區"
"244001","248-BX","2017/08/21 08:59:06","新北市林口區竹林路320巷2號","121.39065","25.0822566666667","6501700","林口區"
"244018","403-UM","2017/08/21 08:59:17","新北市林口區忠孝路542巷6號","121.372756666667","25.067225","6501700","林口區"
"244008","410-SL","2017/08/21 08:59:12","新北市林口區福林路54號","121.378935","25.0888816666667","6501700","林口區"
"244016","656-BX","2017/08/21 08:59:26","新北市林口區文化二路一段82號","121.366205","25.06951","6501700","林口區"
"244022","657-BX","2017/08/21 08:59:06","新北市林口區隆林街123巷22號","121.384665","25.0740033333333","6501700","林口區"
"244012","658-BX","2017/08/21 08:59:21","新北市林口區中山路256號","121.385246666667","25.0797283333333","6501700","林口區"
"244010","701-TV","2017/08/21 08:59:19","新北市林口區新寮1-59號","121.39294","25.0767716666667","6501700","林口區"
"244024","837-TS","2017/08/21 08:59:25","新北市林口區南勢二街156號","121.35899","25.074465","6501700","林口區"
"222005","289-BY","2017/08/21 08:44:27","新北市深坑區土庫尖路75-1號","121.631181666667","25.0182166666667","6501800","深坑區"
"231007","189-VK","2017/08/21 08:59:14","新北市新店區新潭路三段220號","121.503856666667","24.9048133333333","6500600","新店區"
"231008","192-VK","2017/08/21 08:59:26","新北市新店區松林路6號","121.546768333333","24.9116283333333","6500600","新店區"
"226005","5620-A6","2017/08/21 08:59:16","新北市平溪區南山里南山坪118-1號","121.783283333333","25.0441966666667","6502400","平溪區"
"226001","7418-A5","2017/08/21 08:59:10","新北市平溪區石底里公園街18-3號","121.733446666667","25.02571","6502400","平溪區"
"226003","AGD-0702","2017/08/21 08:59:12","新北市平溪區新寮里新寮路2號","121.79245","25.0590216666667","6502400","平溪區"
"223002","198-BX","2017/08/21 08:58:49","新北市石碇區北宜路五段大湖巷6號","121.633381666667","24.942675","6501900","石碇區"
"223003","205-TH","2017/08/21 08:43:13","新北市石碇區北宜路六段直潭巷6號","121.6588","24.93508","6501900","石碇區"
"223008","406-TH","2017/08/21 08:59:11","新北市石碇區碇南路二段松柏崎巷35號","121.677616666667","25.0214266666667","6501900","石碇區"
"223001","437-BY","2017/08/21 08:59:12","新北市石碇區北宜路六段直潭巷26號","121.659978333333","24.93438","6501900","石碇區"
"223004","660-BX","2017/08/21 08:59:24","新北市石碇區崩山51-2號","121.681715","24.969405","6501900","石碇區"
"223007","661-BX","2017/08/21 08:59:14","新北市石碇區碇南路二段松柏崎巷12號","121.675845","25.0180616666667","6501900","石碇區"
"223005","677-TV","2017/08/21 08:59:11","新北市石碇區崩山53號","121.682388333333","24.9688483333333","6501900","石碇區"
"227005","282-VK","2017/08/21 08:58:18","新北市雙溪區泰平里溪尾寮3號","121.818413333333","24.97024","6502500","雙溪區"
"253003","6232-TK","2017/08/21 08:59:07","新北市石門區尖子鹿8-1號","121.575221666667","25.2799616666667","6502200","石門區"
"253001","6251-TK","2017/08/21 08:59:26","新北市石門區八甲60-5號","121.526145","25.271","6502200","石門區"
"253002","637-UY","2017/08/21 08:59:16","新北市石門區尖山湖19號","121.558611666667","25.2470166666667","6502200","石門區"
"253004","8270-PC","2017/08/21 08:58:17","新北市石門區草埔尾34-5號","121.602946666667","25.26517","6502200","石門區"
"252006","073-UM","2017/08/21 08:59:19","新北市三芝區古庄里四棧橋20號","121.488758333333","25.261245","6502100","三芝區"
"252004","249-BX","2017/08/21 08:59:12","新北市三芝區興華里田心子14號","121.49219","25.2049783333333","6502100","三芝區"
"237001","159-UY","2017/08/21 08:59:04","新北市三峽區學府路16號","121.372093333333","24.947135","6500900","三峽區"
"236007","165-UM","2017/08/21 08:59:20","新北市土城區中央路三段38號","121.438556666667","24.9687233333333","6501300","土城區"
"236001","339-SR","2017/08/21 08:59:05","新北市土城區和平路73號","121.44395","24.9711866666667","6501300","土城區"
"236005","498-BY","2017/08/21 08:59:15","新北市土城區承天路10號","121.437158333333","24.9649066666667","6501300","土城區"
"242020","AAC-296","2017/08/21 08:59:26","新北市新莊區建中街32巷2號","121.449073333333","25.037725","6500500","新莊區"
"242028","986-R7","2017/08/21 08:59:21","新北市新莊區中平路396號","121.444616666667","25.053875","6500500","新莊區"
"242047","751-BX","2017/08/21 08:59:13","新北市新莊區民安路207巷10弄2號","121.42669","25.0227883333333","6500500","新莊區"
"242022","705-TV","2017/08/21 08:59:20","新北市新莊區化成路812號","121.464976666667","25.05961","6500500","新莊區"
"242024","615-BX","2017/08/21 08:59:09","新北市新莊區五工路68巷19-1號","121.458903333333","25.0644416666667","6500500","新莊區"
"242026","612-BX","2017/08/21 08:59:14","新北市新莊區幸福路838號","121.444898333333","25.0490866666667","6500500","新莊區"
"242035","566-BX","2017/08/21 08:59:19","新北市新莊區民安路207巷30弄26號","121.428221666667","25.0240033333333","6500500","新莊區"
"242040","497-BY","2017/08/21 08:59:16","新北市新莊區壽山路69號","121.410133333333","25.03267","6500500","新莊區"
"242052","442-UM","2017/08/21 08:59:15","新北市新莊區西盛街423號","121.427281666667","25.0121983333333","6500500","新莊區"
"242045","441-UM","2017/08/21 08:59:18","新北市新莊區中正路829巷121號","121.422486666667","25.0278566666667","6500500","新莊區"
"242049","440-UM","2017/08/21 08:59:17","新北市新莊區民安西路212巷5弄26號","121.424928333333","25.013935","6500500","新莊區"
"242030","415-TV","2017/08/21 08:59:17","新北市新莊區公園一路140號","121.446393333333","25.0382216666667","6500500","新莊區"
"242001","413-TV","2017/08/21 08:59:07","新北市三重區重新路五段673號","121.46614","25.04268","6500500","新莊區"
"242038","400-BY","2017/08/21 08:59:20","新北市新莊區龍安路499號","121.42609","25.01809","6500500","新莊區"
"242059","362-BY","2017/08/21 08:59:23","新北市新莊區瓊林路204-16號","121.436983333333","25.021455","6500500","新莊區"
"242057","353-BY","2017/08/21 08:59:17","新北市新莊區八德街31號","121.424935","25.0223466666667","6500500","新莊區"
"242003","132-UY","2017/08/21 08:59:19","新北市新莊區化成路63巷20-1號","121.463491666667","25.0459316666667","6500500","新莊區"
"242033","133-UY","2017/08/21 08:59:21","新北市新莊區建中街90巷7弄16號","121.445615","25.0376566666667","6500500","新莊區"
"242018","135-UY","2017/08/21 08:59:22","新北市新莊區博愛路5巷2號","121.45634","25.0432633333333","6500500","新莊區"
"242006","173-VK","2017/08/21 08:59:12","新北市新莊區福壽街94巷16號","121.458943333333","25.0500166666667","6500500","新莊區"
"242012","175-VK","2017/08/21 08:59:10","新北市新莊區中信街63巷4弄1號","121.449015","25.0502183333333","6500500","新莊區"
"242055","176-VK","2017/08/21 08:59:22","新北市新莊區新豐街20巷11號","121.447641666667","25.0343716666667","6500500","新莊區"
"242010","346-TH","2017/08/21 08:59:18","新北市新莊區中和街204巷7弄2號","121.448371666667","25.0504733333333","6500500","新莊區"
"242043","347-TH","2017/08/21 08:59:15","新北市新莊區龍安路85號","121.416028333333","25.0222283333333","6500500","新莊區"
"242016","348-TH","2017/08/21 08:59:21","新北市新莊區中港二街45號","121.4505","25.0459216666667","6500500","新莊區"
"242014","350-TH","2017/08/21 08:59:24","新北市新莊區中和街35號","121.448111666667","25.0441916666667","6500500","新莊區"
"242008","351-TH","2017/08/21 08:59:15","新北市新莊區昌盛街105號","121.456281666667","25.0499866666667","6500500","新莊區"
"220082","282-UM","2017/08/21 08:59:23","新北市五股區凌雲路二段18巷62-2號","121.443356666667","25.1065916666667","6500100","板橋區"
