"lineid","car","time","location","longitude","latitude","cityid","cityname"
"248005","653-BX","2017/08/21 09:09:22","新北市五股區水碓路19號","121.433245","25.0726516666667","6501500","五股區"
"232005","290-BY","2017/08/21 09:09:18","新北市坪林區魚堀10號","121.706126666667","24.9049333333333","6502000","坪林區"
"232017","758-BX","2017/08/21 09:08:53","新北市坪林區坪雙路一段115號","121.72973","24.94826","6502000","坪林區"
"244006","080-UY","2017/08/21 09:09:11","新北市林口區林口路113巷6弄1號","121.38872","25.0805766666667","6501700","林口區"
"244018","403-UM","2017/08/21 09:09:17","新北市林口區文化一路一段126號","121.37544","25.072865","6501700","林口區"
"244008","410-SL","2017/08/21 09:09:12","新北市林口區文林一街12巷52號","121.377741666667","25.085875","6501700","林口區"
"244016","656-BX","2017/08/21 09:09:26","新北市林口區文化二路一段68巷11號","121.366415","25.0688833333333","6501700","林口區"
"244022","657-BX","2017/08/21 09:09:26","新北市林口區仁愛路二段135號","121.38301","25.074645","6501700","林口區"
"244012","658-BX","2017/08/21 09:09:21","新北市林口區佳林路157號","121.38526","25.0792633333333","6501700","林口區"
"244010","701-TV","2017/08/21 09:09:19","新北市林口區仁愛路一段246號","121.395716666667","25.0757633333333","6501700","林口區"
"244024","837-TS","2017/08/21 09:09:25","新北市林口區文化三路一段447巷29號","121.367708333333","25.0750966666667","6501700","林口區"
"222005","289-BY","2017/08/21 08:44:27","新北市深坑區土庫尖路75-1號","121.631181666667","25.0182166666667","6501800","深坑區"
"231007","189-VK","2017/08/21 09:09:14","新北市新店區新潭路三段256號","121.50815","24.90395","6500600","新店區"
"231008","192-VK","2017/08/21 09:09:06","新北市新店區廣興路66巷3號","121.53881","24.9136616666667","6500600","新店區"
"226005","5620-A6","2017/08/21 09:09:16","新北市平溪區十分里十分街214號","121.779131666667","25.0448066666667","6502400","平溪區"
"226001","7418-A5","2017/08/21 09:09:10","新北市平溪區東勢里芊蓁林33號","121.750415","25.0167533333333","6502400","平溪區"
"226003","AGD-0702","2017/08/21 09:09:12","新北市平溪區十分里十分街259號","121.778231666667","25.0449566666667","6502400","平溪區"
"223002","198-BX","2017/08/21 09:09:19","新北市石碇區北宜路五段43號","121.631735","24.95018","6501900","石碇區"
"223003","205-TH","2017/08/21 09:09:26","新北市石碇區北宜路六段水底寮巷18號","121.662703333333","24.941595","6501900","石碇區"
"223008","406-TH","2017/08/21 09:09:11","新北市石碇區光明路8號","121.679396666667","25.0268383333333","6501900","石碇區"
"223001","437-BY","2017/08/21 09:09:20","新北市石碇區北宜路六段水底寮巷23號","121.663326666667","24.9415183333333","6501900","石碇區"
"223004","660-BX","2017/08/21 09:09:24","新北市石碇區碇坪路二段71號","121.685523333333","24.9653633333333","6501900","石碇區"
"223007","661-BX","2017/08/21 09:09:14","新北市石碇區碇南路二段鹿窟巷2號","121.673268333333","25.0307666666667","6501900","石碇區"
"223005","677-TV","2017/08/21 09:09:24","新北市石碇區碇坪路二段86號","121.685646666667","24.9618066666667","6501900","石碇區"
"227005","282-VK","2017/08/21 09:09:18","新北市雙溪區泰平里料角坑9號","121.812561666667","24.9743766666667","6502500","雙溪區"
"253003","6232-TK","2017/08/21 09:09:27","新北市石門區尖子鹿16號","121.576426666667","25.2791116666667","6502200","石門區"
"253001","6251-TK","2017/08/21 09:09:06","新北市石門區下員坑50-2號","121.519171666667","25.27297","6502200","石門區"
"253002","637-UY","2017/08/21 09:02:36","新北市石門區尖山湖19號","121.558571666667","25.2469816666667","6502200","石門區"
"253004","8270-PC","2017/08/21 09:09:22","新北市石門區草埔尾16號","121.602805","25.263435","6502200","石門區"
"252004","249-BX","2017/08/21 09:09:12","新北市三芝區興華里田心子21號","121.493451666667","25.2000683333333","6502100","三芝區"
"237001","159-UY","2017/08/21 09:09:04","新北市三峽區學府路120號","121.374391666667","24.94897","6500900","三峽區"
"236007","165-UM","2017/08/21 09:09:20","新北市土城區金安街48巷2號","121.42072","24.9653816666667","6501300","土城區"
"236001","339-SR","2017/08/21 09:09:05","新北市土城區中正路1號","121.442323333333","24.97508","6501300","土城區"
"236005","498-BY","2017/08/21 09:09:15","新北市土城區中央路三段82號","121.436163333333","24.9673316666667","6501300","土城區"
"242020","AAC-296","2017/08/21 09:09:26","新北市新莊區中正路210號","121.44905","25.03548","6500500","新莊區"
"242028","986-R7","2017/08/21 09:09:25","新北市新莊區中原路118號","121.45024","25.0543133333333","6500500","新莊區"
"242047","751-BX","2017/08/21 09:09:11","新北市新莊區四維路150巷9號","121.422276666667","25.0232983333333","6500500","新莊區"
"242022","705-TV","2017/08/21 09:09:26","新北市新莊區化成路752-7號","121.465415","25.05816","6500500","新莊區"
"242024","615-BX","2017/08/21 09:09:09","新北市新莊區五工二路62巷15號","121.461106666667","25.0661","6500500","新莊區"
"242026","612-BX","2017/08/21 09:09:14","新北市新莊區幸福路70號","121.456916666667","25.049405","6500500","新莊區"
"242035","566-BX","2017/08/21 09:09:12","新北市新莊區建安街25巷5號","121.429255","25.026135","6500500","新莊區"
"242040","497-BY","2017/08/21 09:09:19","新北市新莊區中正路694巷68號","121.417633333333","25.0292683333333","6500500","新莊區"
"242052","442-UM","2017/08/21 09:09:15","新北市新莊區民安西路271號","121.426253333333","25.01263","6500500","新莊區"
"242045","441-UM","2017/08/21 09:09:18","新北市新莊區裕民街103巷16號","121.419036666667","25.0228716666667","6500500","新莊區"
"242049","440-UM","2017/08/21 09:09:07","新北市新莊區民安西路173巷33號","121.427403333333","25.0159483333333","6500500","新莊區"
"242030","415-TV","2017/08/21 09:09:17","新北市新莊區中正路356號","121.443856666667","25.0342733333333","6500500","新莊區"
"242001","413-TV","2017/08/21 09:09:27","新北市新莊區中正路55-3號","121.461896666667","25.0398983333333","6500500","新莊區"
"242038","400-BY","2017/08/21 09:09:20","新北市新莊區成功街6巷2號","121.425731666667","25.02178","6500500","新莊區"
"242059","362-BY","2017/08/21 09:09:23","新北市新莊區瓊泰路39號","121.443791666667","25.0285533333333","6500500","新莊區"
"242057","353-BY","2017/08/21 09:09:17","新北市新莊區八德街111號","121.42411","25.02089","6500500","新莊區"
"242003","132-UY","2017/08/21 09:09:15","新北市新莊區化成路159號","121.465788333333","25.049215","6500500","新莊區"
"242033","133-UY","2017/08/21 09:09:24","新北市新莊區建中街81巷5號","121.44734","25.0363433333333","6500500","新莊區"
"242018","135-UY","2017/08/21 09:09:22","新北市新莊區銘德街33號","121.458388333333","25.0436933333333","6500500","新莊區"
"242006","173-VK","2017/08/21 09:09:12","新北市新莊區福壽街56巷15號","121.459046666667","25.0489216666667","6500500","新莊區"
"242012","175-VK","2017/08/21 09:09:10","新北市新莊區中平路302巷14號","121.445378333333","25.052075","6500500","新莊區"
"242055","176-VK","2017/08/21 09:09:11","新北市新莊區豐年街40號","121.446401666667","25.0321283333333","6500500","新莊區"
"242010","346-TH","2017/08/21 09:09:18","新北市新莊區中信街18號","121.450906666667","25.050825","6500500","新莊區"
"242043","347-TH","2017/08/21 09:09:27","新北市新莊區中正路746巷29號","121.410635","25.024615","6500500","新莊區"
"242016","348-TH","2017/08/21 09:09:20","新北市新莊區中和街62號","121.447676666667","25.0459266666667","6500500","新莊區"
"242014","350-TH","2017/08/21 09:09:24","新北市新莊區中平路82巷20號","121.445688333333","25.04494","6500500","新莊區"
"242008","351-TH","2017/08/21 09:09:15","新北市新莊區幸福路564巷2弄2號","121.454495","25.0495616666667","6500500","新莊區"
"220082","282-UM","2017/08/21 09:09:23","新北市新莊區中原路399號","121.442258333333","25.0535816666667","6500100","板橋區"
