"lineid","car","time","location","longitude","latitude","cityid","cityname"
"231007","189-VK","2017/08/21 11:29:14","新北市新店區安康路一段83-2號","121.529546666667","24.9614116666667","6500600","新店區"
"231008","192-VK","2017/08/21 11:22:46","新北市新店區成功路126號","121.533758333333","24.894845","6500600","新店區"
"227005","282-VK","2017/08/21 11:27:18","新北市雙溪區魚行里丁子蘭坑22號","121.855328333333","25.0110766666667","6502500","雙溪區"
"253001","6251-TK","2017/08/21 09:50:06","新北市石門區崁子腳35-2號","121.539905","25.2696366666667","6502200","石門區"
"252006","073-UM","2017/08/21 09:15:01","新北市三芝區埔坪里埔頭坑41號","121.504451666667","25.2644366666667","6502100","三芝區"
"252006","AAC-283","2017/08/21 10:47:31","新北市三芝區埔坪里埔頭坑41號","121.504486666667","25.2643933333333","6502100","三芝區"
"249003","3G-OBU6","2017/08/21 11:28:55","桃園市楊梅區電研路100-24號","121.166176666667","24.9536266666667","6502300","八里區"
