"lineid","car","time","location","longitude","latitude","cityid","cityname"
"231008","192-VK","2017/08/21 11:49:26","新北市新店區新烏路二段212-1號","121.547495","24.9160366666667","6500600","新店區"
"235031","255-BX","2017/08/21 11:49:22","新北市中和區員山路36巷16號","121.484295","24.991685","6500300","中和區"
"227005","282-VK","2017/08/21 11:47:38","新北市雙溪區魚行里丁子蘭坑47號","121.865991666667","24.9990016666667","6502500","雙溪區"
"253001","6251-TK","2017/08/21 09:50:06","新北市石門區崁子腳35-2號","121.539905","25.2696366666667","6502200","石門區"
"252006","073-UM","2017/08/21 09:15:01","新北市三芝區埔坪里埔頭坑41號","121.504451666667","25.2644366666667","6502100","三芝區"
"252006","AAC-283","2017/08/21 10:47:31","新北市三芝區埔坪里埔頭坑41號","121.504486666667","25.2643933333333","6502100","三芝區"
"249003","3G-OBU6","2017/08/21 11:40:40","桃園市楊梅區電研路100-24號","121.16617","24.9536333333333","6502300","八里區"
