"lineid","car","time","location","longitude","latitude","cityid","cityname"
"234044","148-BY","2017/08/21 12:48:57","新北市永和區得和路373巷31弄8號","121.52468","25.000795","6500400","永和區"
"234012","149-BY","2017/08/21 12:49:01","新北市永和區保福路二段70號","121.510583333333","25.01293","6500400","永和區"
"234005","207-UY","2017/08/21 12:49:10","新北市永和區永和路二段216號","121.515673333333","25.013885","6500400","永和區"
"234078","298-R6","2017/08/21 12:49:04","新北市永和區永利路146號","121.522125","25.00289","6500400","永和區"
"234036","336-UY","2017/08/21 12:49:11","新北市中和區秀朗路三段93號","121.526468333333","24.9953466666667","6500400","永和區"
"234062","337-UY","2017/08/21 12:49:03","新北市永和區環河東路二段98號","121.524121666667","25.0104","6500400","永和區"
"234084","338-UY","2017/08/21 12:49:05","新北市永和區中正路5號","121.513933333333","24.9955383333333","6500400","永和區"
"234052","553-UM","2017/08/21 12:49:02","新北市永和區竹林路72巷2號","121.519023333333","25.0130483333333","6500400","永和區"
"234015","745-BX","2017/08/21 12:49:08","新北市永和區忠孝街26巷4號","121.515336666667","25.01666","6500400","永和區"
"234028","746-BX","2017/08/21 12:48:56","新北市永和區得和路336號","121.52343","24.9994783333333","6500400","永和區"
"234060","AAD-866","2017/08/21 12:49:01","新北市永和區福和路313號","121.516145","25.0070983333333","6500400","永和區"
"234068","847-RS","2017/08/21 12:48:56","新北市永和區中興街104號","121.519148333333","25.01225","6500400","永和區"
"234040","862-TW","2017/08/21 12:49:02","新北市永和區永貞路271號","121.51171","25.0047483333333","6500400","永和區"
"234048","863-TW","2017/08/21 12:49:01","新北市永和區保安路2號","121.51089","25.017475","6500400","永和區"
"234025","9371-KE","2017/08/21 12:49:06","新北市永和區永平路12巷12號","121.513873333333","25.0092583333333","6500400","永和區"
"234010","9373-KE","2017/08/21 12:49:03","新北市永和區保安路69號","121.509001666667","25.0153633333333","6500400","永和區"
"248015","026-BX","2017/08/21 12:49:06","新北市五股區中興路二段83巷26-3號","121.45992","25.0753966666667","6501500","五股區"
"248007","095-VK","2017/08/21 12:49:15","新北市五股區中興路二段83巷26-6號","121.460021666667","25.0751033333333","6501500","五股區"
"248019","225-UY","2017/08/21 12:49:11","新北市五股區中興路二段83巷26-3號","121.459916666667","25.0755833333333","6501500","五股區"
"234022","9380-KE","2017/08/21 12:49:05","新北市永和區竹林路119巷47號","121.522068333333","25.0118933333333","6500400","永和區"
"234076","969-R7","2017/08/21 12:49:11","新北市永和區中正路52號","121.513176666667","24.9945783333333","6500400","永和區"
"234072","AAC-211","2017/08/21 12:48:59","新北市永和區福和路1號","121.526513333333","25.0097883333333","6500400","永和區"
"234066","AAC-212","2017/08/21 12:49:14","新北市永和區永和路一段1號","121.512876666667","25.0051683333333","6500400","永和區"
"234001","AAC-295","2017/08/21 12:49:05","新北市永和區中正路657號","121.5149","25.0101466666667","6500400","永和區"
"243001","297-R6","2017/08/21 12:27:36","新北市泰山區黎明路25號","121.42179","25.0608883333333","6501600","泰山區"
"243007","380-SR","2017/08/21 12:09:12","新北市泰山區黎明路25號","121.422071666667","25.0608016666667","6501600","泰山區"
"243008","680-BX","2017/08/21 04:22:39","新北市泰山區黎明路25號","121.422038333333","25.0606616666667","6501600","泰山區"
"231002","002-UM","2017/08/21 12:49:12","新北市新店區安華路28-1號","121.519566666667","24.9608683333333","6500600","新店區"
"231028","046-UY","2017/08/21 12:49:08","新北市新店區安華路28-1號","121.51968","24.9608983333333","6500600","新店區"
"231030","047-UY","2017/08/21 12:48:59","新北市新店區安華路28-1號","121.51923","24.9609416666667","6500600","新店區"
"231018","107-UY","2017/08/21 12:49:01","新北市新店區安華路28-1號","121.519435","24.9613733333333","6500600","新店區"
"231011","108-UY","2017/08/21 12:49:07","新北市新店區安華路28-1號","121.51942","24.96099","6500600","新店區"
"231035","110-UY","2017/08/21 12:48:56","新北市新店區安華路28-1號","121.519276666667","24.9611266666667","6500600","新店區"
"231019","187-VK","2017/08/21 12:49:07","新北市新店區安華路28-1號","121.519563333333","24.9611133333333","6500600","新店區"
"231010","278-BY","2017/08/21 12:49:03","新北市新店區安華路15-2號","121.521068333333","24.9612366666667","6500600","新店區"
"231014","AAD-862","2017/08/21 12:49:12","新北市新店區安華路28-1號","121.519846666667","24.96123","6500600","新店區"
"231038","4715-K9","2017/08/21 12:49:06","新北市新店區安華路28-1號","121.51943","24.9605583333333","6500600","新店區"
"231036","512-UM","2017/08/21 12:49:01","新北市新店區安華路28-1號","121.51928","24.9613833333333","6500600","新店區"
"231023","513-UM","2017/08/21 12:49:00","新北市新店區安華路28-1號","121.519608333333","24.961095","6500600","新店區"
"231001","619-UM","2017/08/21 12:49:04","新北市新店區安華路28-1號","121.519548333333","24.9607666666667","6500600","新店區"
"231013","719-UM","2017/08/21 12:49:09","新北市新店區安華路28-1號","121.519495","24.9611783333333","6500600","新店區"
"231005","897-TW","2017/08/21 12:49:03","新北市新店區安華路28-1號","121.519503333333","24.9608116666667","6500600","新店區"
"231006","898-TW","2017/08/21 12:49:00","新北市新店區安華路28-1號","121.519391666667","24.960845","6500600","新店區"
"231037","AKT-0513","2017/08/21 12:49:02","新北市新店區安華路28-1號","121.51954","24.9605666666667","6500600","新店區"
"235028","005-UY","2017/08/21 12:49:04","新北市中和區員山路36巷16-3號","121.485125","24.9914766666667","6500300","中和區"
"235022","151-BY","2017/08/21 12:32:36","新北市中和區員山路36巷16-2號","121.485251666667","24.9915666666667","6500300","中和區"
"235002","185-VK","2017/08/21 12:49:14","新北市中和區中正路589巷15號","121.485908333333","24.9936516666667","6500300","中和區"
"235031","255-BX","2017/08/21 12:49:06","新北市中和區中正路1155號","121.481891666667","25.0081583333333","6500300","中和區"
"235025","378-QA","2017/08/21 03:56:49","新北市中和區員山路36巷13號","121.484051666667","24.9914366666667","6500300","中和區"
"235016","805-TS","2017/08/21 12:48:58","新北市中和區員山路36巷16號","121.484483333333","24.9914666666667","6500300","中和區"
"235035","911-UM","2017/08/21 12:49:09","新北市中和區員山路36巷16-2號","121.485333333333","24.991755","6500300","中和區"
"253001","6251-TK","2017/08/21 09:50:06","新北市石門區崁子腳35-2號","121.539905","25.2696366666667","6502200","石門區"
"207002","749-BX","2017/08/21 12:46:32","新北市萬里區雙興里二坪路6號","121.651308333333","25.1737716666667","6502800","萬里區"
"252006","073-UM","2017/08/21 12:49:07","新北市三芝區埔坪里埔頭坑41號","121.504491666667","25.264385","6502100","三芝區"
"207001","662-BX","2017/08/21 12:49:14","新北市萬里區萬里里獅頭路23號","121.69328","25.1782966666667","6502800","萬里區"
"252006","AAC-283","2017/08/21 10:47:31","新北市三芝區埔坪里埔頭坑41號","121.504486666667","25.2643933333333","6502100","三芝區"
"236005","498-BY","2017/08/21 12:49:01","新北市土城區永平街51號","121.427483333333","24.9591683333333","6501300","土城區"
"221032","280-BY","2017/08/21 12:48:53","新北市汐止區大同路二段689號","121.665185","25.0723866666667","6501100","汐止區"
"221033","647-BX","2017/08/21 12:49:10","新北市汐止區汐萬路一段310號","121.650326666667","25.07489","6501100","汐止區"
"221002","753-BX","2017/08/21 12:49:03","新北市汐止區康寧街901號","121.65164","25.0749033333333","6501100","汐止區"
"249003","3G-OBU6","2017/08/21 11:40:40","桃園市楊梅區電研路100-24號","121.16617","24.9536333333333","6502300","八里區"
