"lineid","car","time","location","longitude","latitude","cityid","cityname"
"234044","148-BY","2017/08/21 14:18:57","新北市永和區成功路一段18巷20號","121.526273333333","25.0052283333333","6500400","永和區"
"234012","149-BY","2017/08/21 14:19:01","新北市永和區保生路52號","121.505648333333","25.0086116666667","6500400","永和區"
"234005","207-UY","2017/08/21 14:18:50","新北市永和區永貞路372號","121.510033333333","25.0068383333333","6500400","永和區"
"234078","298-R6","2017/08/21 14:19:03","新北市永和區國中路130號","121.523593333333","25.0069983333333","6500400","永和區"
"234036","336-UY","2017/08/21 14:18:50","新北市永和區成功路一段29巷7號","121.527811666667","25.0048633333333","6500400","永和區"
"234062","337-UY","2017/08/21 14:19:03","新北市永和區得和路106號","121.518035","25.0000216666667","6500400","永和區"
"234084","338-UY","2017/08/21 14:19:04","新北市永和區福和路287號","121.517308333333","25.00731","6500400","永和區"
"234052","553-UM","2017/08/21 14:19:02","新北市永和區博愛街17號","121.517283333333","25.015905","6500400","永和區"
"234028","746-BX","2017/08/21 14:18:56","新北市永和區民權路55號","121.519955","24.9968983333333","6500400","永和區"
"234060","AAD-866","2017/08/21 14:19:02","新北市永和區安樂路166號","121.514686666667","25.0008816666667","6500400","永和區"
"234068","847-RS","2017/08/21 14:18:56","新北市永和區永亨路7號","121.519425","25.00575","6500400","永和區"
"234040","862-TW","2017/08/21 14:19:02","新北市中和區安平路222號","121.513961666667","25.00022","6500400","永和區"
"234048","863-TW","2017/08/21 14:19:01","新北市永和區新生路27號","121.509245","25.016635","6500400","永和區"
"234025","9371-KE","2017/08/21 14:19:06","新北市中和區安樂路247號","121.514093333333","24.9996383333333","6500400","永和區"
"234010","9373-KE","2017/08/21 14:18:57","新北市永和區環河西路二段245-1號","121.500525","25.0090433333333","6500400","永和區"
"248015","026-BX","2017/08/21 14:18:45","新北市五股區成洲五路12號","121.452335","25.101565","6501500","五股區"
"248019","225-UY","2017/08/21 14:05:43","新北市五股區凌雲路三段57號","121.425213333333","25.1250633333333","6501500","五股區"
"248011","247-BX","2017/08/21 14:18:52","新北市五股區中興路四段54號","121.437916666667","25.0830866666667","6501500","五股區"
"248009","272-BY","2017/08/21 14:18:57","新北市五股區水碓一路23號","121.430608333333","25.0713033333333","6501500","五股區"
"248003","677-BX","2017/08/21 14:18:53","新北市五股區五福路49號","121.432983333333","25.08966","6501500","五股區"
"248001","678-BX","2017/08/21 14:18:55","新北市五股區成泰路三段625-2號","121.452658333333","25.1043883333333","6501500","五股區"
"234076","969-R7","2017/08/21 14:19:02","新北市永和區民權路53號","121.520291666667","24.9966","6500400","永和區"
"234072","AAC-211","2017/08/21 14:18:59","新北市永和區竹林路119巷22弄3號","121.521536666667","25.0116","6500400","永和區"
"234066","AAC-212","2017/08/21 14:18:54","新北市永和區保平路214巷12弄2號","121.509083333333","25.006835","6500400","永和區"
"234001","AAC-295","2017/08/21 14:19:05","新北市永和區中正路700號","121.516385","25.0099116666667","6500400","永和區"
"243005","AAD-798","2017/08/21 14:19:02","新北市泰山區明志路三段145巷11弄2號","121.42587","25.0396683333333","6501600","泰山區"
"243001","297-R6","2017/08/21 14:19:02","新北市泰山區和平街13巷37號","121.43452","25.06612","6501600","泰山區"
"243007","380-SR","2017/08/21 14:19:00","新北市泰山區公園路67-1號","121.426636666667","25.0552166666667","6501600","泰山區"
"243006","421-VK","2017/08/21 14:19:06","新北市泰山區泰林路二段236號","121.432328333333","25.0620866666667","6501600","泰山區"
"243002","548-UM","2017/08/21 14:19:02","新北市泰山區明志路二段7巷4號","121.43054","25.05341","6501600","泰山區"
"243003","549-UM","2017/08/21 14:18:55","新北市泰山區貴子路64號","121.426736666667","25.0413516666667","6501600","泰山區"
"243004","646-TV","2017/08/21 14:18:57","新北市泰山區仁義路220巷14號","121.43276","25.0535883333333","6501600","泰山區"
"243008","680-BX","2017/08/21 14:19:00","新北市泰山區工專路72號","121.42256","25.04052","6501600","泰山區"
"231002","002-UM","2017/08/21 14:18:52","新北市新店區中正路485號","121.53376","24.9819133333333","6500600","新店區"
"231028","046-UY","2017/08/21 14:18:48","新北市新店區安和路二段88號","121.518493333333","24.968805","6500600","新店區"
"231030","047-UY","2017/08/21 14:18:59","新北市新店區安德街60巷5號","121.509901666667","24.9627183333333","6500600","新店區"
"231029","106-UY","2017/08/21 14:18:57","新北市新店區安康路二段159巷6號","121.510205","24.9592333333333","6500600","新店區"
"231018","107-UY","2017/08/21 14:19:01","新北市新店區中央四街74號","121.52663","24.975565","6500600","新店區"
"231011","108-UY","2017/08/21 14:19:07","新北市新店區五峰路59-8號","121.547595","24.9699783333333","6500600","新店區"
"231035","110-UY","2017/08/21 14:18:56","新北市新店區光華街5巷15號","121.517735","24.9684066666667","6500600","新店區"
"231019","187-VK","2017/08/21 14:18:57","新北市新店區桂山路35號","121.558808333333","24.9028833333333","6500600","新店區"
"231014","AAD-862","2017/08/21 14:18:52","新北市新店區北宜路二段392巷4號","121.565523333333","24.95335","6500600","新店區"
"231027","3712-VJ","2017/08/21 14:19:02","新北市新店區光明街286巷14號","121.540803333333","24.9635066666667","6500600","新店區"
"231025","4716-K9","2017/08/21 14:19:10","新北市新店區二十張路105巷6號","121.536571666667","24.9795216666667","6500600","新店區"
"231038","4715-K9","2017/08/21 14:18:46","新北市新店區溪洲路6巷20號","121.533858333333","24.962695","6500600","新店區"
"231036","512-UM","2017/08/21 14:19:01","新北市新店區安祥路109巷90弄28號","121.477141666667","24.959285","6500600","新店區"
"231023","513-UM","2017/08/21 14:19:06","新北市新店區光明街71號","121.538791666667","24.960585","6500600","新店區"
"231003","616-UM","2017/08/21 14:19:06","新北市新店區中興路一段214號","121.543818333333","24.9656333333333","6500600","新店區"
"231001","619-UM","2017/08/21 14:19:04","新北市新店區北新路一段303號","121.541315","24.9674566666667","6500600","新店區"
"231034","645-TV","2017/08/21 14:19:05","新北市新店區黎明路3號","121.503515","24.9524366666667","6500600","新店區"
"231039","718-UY","2017/08/21 14:18:57","新北市新店區中興路三段6號","121.546745","24.9771183333333","6500600","新店區"
"231013","719-UM","2017/08/21 14:18:49","新北市新店區大豐路32號","121.54039","24.9799766666667","6500600","新店區"
"231031","720-UM","2017/08/21 14:18:50","新北市新店區溪洲路121號","121.531338333333","24.9625466666667","6500600","新店區"
"231005","897-TW","2017/08/21 14:18:49","新北市新店區中興路三段238號","121.543301666667","24.9836233333333","6500600","新店區"
"231006","898-TW","2017/08/21 14:19:00","新北市新店區北宜路二段452號","121.57005","24.9564366666667","6500600","新店區"
"231004","899-TW","2017/08/21 14:18:55","新北市新店區北新路二段42號","121.54292","24.9718116666667","6500600","新店區"
"231037","AKT-0513","2017/08/21 14:19:02","新北市新店區薏仁坑路2-1號","121.50092","24.95811","6500600","新店區"
"235028","005-UY","2017/08/21 14:19:04","新北市中和區景平路634-9號","121.498801666667","24.99951","6500300","中和區"
"235027","006-UY","2017/08/21 14:18:58","新北市中和區連勝街121巷9號","121.495501666667","24.9944833333333","6500300","中和區"
"235020","096-UM","2017/08/21 14:19:03","新北市中和區中山路三段102號","121.476938333333","25.0059966666667","6500300","中和區"
"235003","097-UM","2017/08/21 14:19:06","新北市中和區秀峰街119巷6弄6號","121.519446666667","24.9900933333333","6500300","中和區"
"235029","098-UM","2017/08/21 14:18:51","新北市中和區中山路二段2巷5弄7號","121.504386666667","25.0061416666667","6500300","中和區"
"235004","150-BY","2017/08/21 14:18:50","新北市中和區保健路106巷44號","121.511215","24.9945483333333","6500300","中和區"
"235022","151-BY","2017/08/21 14:19:02","新北市中和區連城路477巷6弄21號","121.482396666667","24.9948133333333","6500300","中和區"
"235019","183-VK","2017/08/21 14:19:04","新北市中和區中山路三段209號","121.471906666667","25.00623","6500300","中和區"
"235002","185-VK","2017/08/21 14:18:54","新北市中和區大仁街20巷34號","121.51934","24.9931683333333","6500300","中和區"
"235013","186-VK","2017/08/21 14:18:49","新北市中和區景新街230號","121.508253333333","24.9942183333333","6500300","中和區"
"235031","255-BX","2017/08/21 14:19:06","新北市中和區新生街189號","121.4838","25.00035","6500300","中和區"
"235008","293-VK","2017/08/21 14:18:53","新北市中和區中興街222-5號","121.500611666667","24.98954","6500300","中和區"
"235036","301-VK","2017/08/21 14:19:01","新北市中和區莊敬路49巷20弄18號","121.502633333333","25.00593","6500300","中和區"
"235007","352-BY","2017/08/21 14:18:52","新北市中和區景平路296號","121.512998333333","24.992505","6500300","中和區"
"235015","376-QA","2017/08/21 14:18:59","新北市中和區興南路一段56巷30號","121.510168333333","24.991435","6500300","中和區"
"235032","377-QA","2017/08/21 14:18:57","新北市中和區連勝街8號","121.498905","24.9986916666667","6500300","中和區"
"235025","378-QA","2017/08/21 14:19:05","新北市中和區員山路144號","121.481221666667","24.996585","6500300","中和區"
"235014","4979-A6","2017/08/21 14:18:18","新北市中和區景安路208巷2號","121.503771666667","24.991035","6500300","中和區"
"235033","4980-A6","2017/08/21 14:18:53","新北市中和區景平路736巷3弄2號","121.497178333333","25.0036316666667","6500300","中和區"
"235006","551-UM","2017/08/21 14:18:53","新北市永和區中正路129巷2號","121.515916666667","24.9980816666667","6500300","中和區"
"235034","558-UM","2017/08/21 14:19:07","新北市中和區中和路106號","121.502903333333","24.99975","6500300","中和區"
"235009","565-BX","2017/08/21 14:19:07","新北市中和區景新街437巷24號","121.514496666667","24.9893716666667","6500300","中和區"
"235018","640-BX","2017/08/21 14:19:01","新北市中和區民德路150號","121.468616666667","25.0002483333333","6500300","中和區"
"235024","647-TV","2017/08/21 14:19:00","新北市中和區民有街45號","121.475943333333","25.0048333333333","6500300","中和區"
"235011","732-UM","2017/08/21 14:19:00","新北市中和區景平路239巷59弄17號","121.508896666667","24.99177","6500300","中和區"
"235010","733-UM","2017/08/21 14:18:55","新北市中和區華新街113巷2弄2號","121.50735","24.98201","6500300","中和區"
"235026","800-TS","2017/08/21 14:18:49","新北市中和區中山路二段380巷14-1號","121.490815","25.0049783333333","6500300","中和區"
"235021","801-TS","2017/08/21 14:19:08","新北市中和區民利街38號","121.479673333333","24.9989716666667","6500300","中和區"
"235005","802-TS","2017/08/21 14:18:55","新北市中和區安平路100號","121.511603333333","24.9972066666667","6500300","中和區"
"235016","805-TS","2017/08/21 14:18:58","新北市中和區興南路二段142巷17弄1號","121.503363333333","24.983265","6500300","中和區"
"235012","896-TW","2017/08/21 14:18:52","新北市中和區華新街109巷1-2號","121.509031666667","24.9823916666667","6500300","中和區"
"235017","900-TW","2017/08/21 14:19:06","新北市中和區華安街19巷2號","121.467058333333","24.9979216666667","6500300","中和區"
"235035","911-UM","2017/08/21 14:19:09","新北市中和區連城路372號","121.48189","24.9953966666667","6500300","中和區"
"235001","AAC-213","2017/08/21 14:18:55","新北市中和區自立路15巷12號","121.523731666667","24.9957716666667","6500300","中和區"
"235023","AAC-215","2017/08/21 14:18:59","新北市中和區圓通路252巷36弄1號","121.492375","24.993015","6500300","中和區"
"220016","013-TV","2017/08/21 14:19:06","新北市板橋區翠華街6巷109號","121.481845","25.025195","6500100","板橋區"
"220013","072-UY","2017/08/21 14:18:59","新北市板橋區民族路129巷12弄5號","121.468101666667","25.00843","6500100","板橋區"
"220034","073-UY","2017/08/21 14:18:53","新北市板橋區中正路216巷32號","121.456995","25.0187383333333","6500100","板橋區"
"220105","075-UY","2017/08/21 14:19:04","新北市板橋區雙十路三段66巷1號","121.470526666667","25.0319833333333","6500100","板橋區"
"220017","AAD-861","2017/08/21 14:18:58","新北市板橋區貴興路7號","121.457736666667","25.0044083333333","6500100","板橋區"
"220051","120-SR","2017/08/21 14:19:03","新北市板橋區田單街23號","121.482185","25.02906","6500100","板橋區"
"247019","893-R6","2017/08/21 14:19:06","新北市蘆洲區仁愛街35巷12號","121.471475","25.0926783333333","6501400","蘆洲區"
"247009","546-UM","2017/08/21 14:18:50","新北市蘆洲區三民路26巷32號","121.477936666667","25.083115","6501400","蘆洲區"
"247017","500-BY","2017/08/21 14:18:55","新北市蘆洲區民權路108號","121.473788333333","25.0882683333333","6501400","蘆洲區"
"247007","339-TH","2017/08/21 14:18:56","新北市蘆洲區中山一路197巷6弄20號","121.474178333333","25.0803633333333","6501400","蘆洲區"
"247023","337-TH","2017/08/21 14:18:52","新北市蘆洲區長榮路707號","121.460953333333","25.09278","6501400","蘆洲區"
"247001","336-TH","2017/08/21 14:18:57","新北市蘆洲區永樂街60號","121.457323333333","25.088455","6501400","蘆洲區"
"247013","057-VK","2017/08/21 14:19:04","新北市蘆洲區中山一路206號","121.473343333333","25.080865","6501400","蘆洲區"
"247003","056-VK","2017/08/21 14:19:00","新北市蘆洲區長安街172巷11號","121.459523333333","25.0835833333333","6501400","蘆洲區"
"247005","053-VK","2017/08/21 14:18:53","新北市蘆洲區長安街22巷22號","121.46465","25.0798416666667","6501400","蘆洲區"
"247011","007-UY","2017/08/21 14:18:57","新北市蘆洲區民權路3巷20號","121.475546666667","25.0851983333333","6501400","蘆洲區"
"247021","002-UY","2017/08/21 14:19:00","新北市蘆洲區民族路405號","121.469078333333","25.0898466666667","6501400","蘆洲區"
"247015","001-UY","2017/08/21 14:18:55","新北市蘆洲區中正路185巷31弄32號","121.466925","25.0834733333333","6501400","蘆洲區"
"253001","6251-TK","2017/08/21 09:50:06","新北市石門區崁子腳35-2號","121.539905","25.2696366666667","6502200","石門區"
"208004","AAC-292","2017/08/21 14:18:54","新北市金山區重和里林口28-3號","121.59673","25.20929","6502700","金山區"
"207002","749-BX","2017/08/21 14:18:52","新北市萬里區溪底里瑞泉路3號","121.608953333333","25.1438116666667","6502800","萬里區"
"252005","073-UM","2017/08/21 14:18:46","新北市三芝區橫山里橫山31-1號","121.544216666667","25.2579366666667","6502100","三芝區"
"207001","662-BX","2017/08/21 14:18:54","新北市萬里區磺潭里清水18號","121.637896666667","25.197715","6502800","萬里區"
"252006","AAC-283","2017/08/21 10:47:31","新北市三芝區埔坪里埔頭坑41號","121.504486666667","25.2643933333333","6502100","三芝區"
"236064","105-UM","2017/08/21 14:18:59","新北市土城區明德路一段128巷2號","121.463211666667","24.9790283333333","6501300","土城區"
"236040","107-UM","2017/08/21 14:19:05","新北市土城區裕生路21巷6弄2-1號","121.448738333333","24.987015","6501300","土城區"
"236074","166-UM","2017/08/21 14:18:57","新北市土城區中央路三段235巷7號","121.429226666667","24.9638216666667","6501300","土城區"
"236028","253-BX","2017/08/21 14:19:00","新北市土城區順風路30號","121.44012","24.977065","6501300","土城區"
"236024","269-VK","2017/08/21 14:19:05","新北市土城區承天路67號","121.439515","24.96351","6501300","土城區"
"236012","270-VK","2017/08/21 14:18:54","新北市土城區青雲路39巷7號","121.46031","24.987545","6501300","土城區"
"236032","271-VK","2017/08/21 14:18:56","新北市土城區青雲路483巷10弄3號","121.459386666667","24.9734616666667","6501300","土城區"
"236016","401-BY","2017/08/21 14:18:50","新北市土城區金城路二段200號","121.454866666667","24.9818016666667","6501300","土城區"
"236005","498-BY","2017/08/21 14:19:01","新北市土城區中華路一段60號","121.445265","24.9882766666667","6501300","土城區"
"236056","912-UM","2017/08/21 14:19:07","新北市土城區中央路四段196-1號","121.416248333333","24.95764","6501300","土城區"
"236044","913-UM","2017/08/21 14:19:02","新北市土城區明德路一段280-1號","121.45727","24.9775","6501300","土城區"
"236060","915-UM","2017/08/21 14:18:46","新北市土城區延壽路44巷17號","121.471698333333","24.9930533333333","6501300","土城區"
"236052","AAC-216","2017/08/21 14:18:51","新北市土城區中華路二段102號","121.438091666667","24.97435","6501300","土城區"
"220027","145-BY","2017/08/21 14:19:06","新北市板橋區民權路260巷65號","121.46031","25.0150866666667","6500100","板橋區"
"220028","200-UY","2017/08/21 14:19:05","新北市板橋區大觀路二段3巷73號","121.449843333333","25.00359","6500100","板橋區"
"220030","610-BX","2017/08/21 14:18:49","新北市板橋區溪崑二街63號","121.42804","24.9904483333333","6500100","板橋區"
"220050","245-BX","2017/08/21 14:18:54","新北市板橋區雙十路二段49號","121.476495","25.0262116666667","6500100","板橋區"
"220052","257-TC","2017/08/21 14:18:47","新北市板橋區文化路一段188巷7號","121.466358333333","25.01943","6500100","板橋區"
"220043","267-BY","2017/08/21 14:19:08","新北市板橋區吳鳳路82號","121.466958333333","25.031285","6500100","板橋區"
"220004","276-BY","2017/08/21 14:19:01","新北市板橋區和平路12號","121.459225","24.99441","6500100","板橋區"
"220020","277-BY","2017/08/21 14:19:10","新北市板橋區金門街372巷34號","121.427523333333","24.984845","6500100","板橋區"
"220019","283-VK","2017/08/21 14:18:59","新北市板橋區重慶路327巷19弄3-2號","121.464753333333","24.9988666666667","6500100","板橋區"
"220001","285-VK","2017/08/21 14:19:06","新北市板橋區富山街53巷3弄1號","121.47738","25.0202716666667","6500100","板橋區"
"220029","287-VK","2017/08/21 14:18:53","新北市板橋區南雅南路一段131號","121.455031666667","25.0044383333333","6500100","板橋區"
"220039","288-VK","2017/08/21 14:18:58","新北市板橋區四維路349巷15號","121.4617","25.0295566666667","6500100","板橋區"
"220009","293-UM","2017/08/21 14:18:55","新北市板橋區光復街29號","121.481461666667","25.0190816666667","6500100","板橋區"
"220032","296-UM","2017/08/21 14:18:55","新北市板橋區溪崑二街22巷9號","121.428185","24.9914783333333","6500100","板橋區"
"220023","297-UM","2017/08/21 14:19:07","新北市板橋區福德街40號","121.455911666667","25.0082633333333","6500100","板橋區"
"220010","303-R5","2017/08/21 14:18:58","新北市板橋區三民路二段居仁巷28號","121.480078333333","25.01312","6500100","板橋區"
"220041","307-R5","2017/08/21 14:18:51","新北市板橋區松江街49號","121.468466666667","25.0274216666667","6500100","板橋區"
"220047","317-R6","2017/08/21 14:19:04","新北市板橋區民有街94號","121.464885","25.0276383333333","6500100","板橋區"
"220012","486-VK","2017/08/21 14:18:56","新北市板橋區縣民大道二段22號","121.464461666667","25.0138233333333","6500100","板橋區"
"220038","487-VK","2017/08/21 14:18:59","新北市板橋區文化路二段51號","121.469096666667","25.0251516666667","6500100","板橋區"
"220037","491-VK","2017/08/21 14:18:47","新北市板橋區文化路二段182巷3弄55號","121.47246","25.0288966666667","6500100","板橋區"
"220104","560-BX","2017/08/21 14:19:05","新北市板橋區瑞安街29號","121.455618333333","25.0230183333333","6500100","板橋區"
"220003","568-UM","2017/08/21 14:19:04","新北市板橋區新民街5號","121.46391","25.0096316666667","6500100","板橋區"
"220011","609-BX","2017/08/21 14:18:54","新北市板橋區三民路二段正泰2巷2號","121.478771666667","25.0145166666667","6500100","板橋區"
"220031","630-UY","2017/08/21 14:19:09","新北市板橋區龍興街73巷9號","121.443375","25.0022733333333","6500100","板橋區"
"220040","637-BX","2017/08/21 14:18:53","新北市板橋區三民路一段1巷39號","121.480215","25.0249966666667","6500100","板橋區"
"220005","686-BX","2017/08/21 14:19:02","新北市板橋區重慶路290號","121.463563333333","24.9989483333333","6500100","板橋區"
"220025","687-BX","2017/08/21 14:18:52","新北市板橋區大觀路二段231號","121.443948333333","24.9992133333333","6500100","板橋區"
"220042","689-BX","2017/08/21 14:19:04","新北市板橋區文化路一段305號","121.465233333333","25.0191533333333","6500100","板橋區"
"220002","741-BX","2017/08/21 14:19:03","新北市板橋區重慶路71-2號","121.461986666667","25.0069116666667","6500100","板橋區"
"220014","829-TW","2017/08/21 14:19:05","新北市板橋區長安街138巷1弄52號","121.473995","25.0100733333333","6500100","板橋區"
"220045","831-TW","2017/08/21 14:19:02","新北市板橋區大同街26巷14號","121.478103333333","25.0268666666667","6500100","板橋區"
"220022","895-R6","2017/08/21 14:18:56","新北市板橋區林園街2號","121.454158333333","25.0092366666667","6500100","板橋區"
"220021","985-R7","2017/08/21 14:18:59","新北市板橋區中正路166號","121.45645","25.0170283333333","6500100","板橋區"
"220046","AAC-210","2017/08/21 14:19:04","新北市板橋區漢生西路89巷5弄7號","121.460881666667","25.019685","6500100","板橋區"
"220018","AAC-253","2017/08/21 14:18:59","新北市板橋區忠孝路40號","121.460391666667","25.0019083333333","6500100","板橋區"
"249003","3G-OBU6","2017/08/21 11:40:40","桃園市楊梅區電研路100-24號","121.16617","24.9536333333333","6502300","八里區"
