"lineid","car","time","location","longitude","latitude","cityid","cityname"
"244023","483-VK","2017/08/21 14:49:08","新北市林口區粉寮69號","121.40498","25.09086","6501700","林口區"
"231030","047-UY","2017/08/21 15:58:54","新北市新店區永平街10號","121.517136666667","24.9835383333333","6500600","新店區"
"231018","107-UY","2017/08/21 15:58:40","新北市新店區中正路663巷7弄15號","121.53289","24.99016","6500600","新店區"
"231011","108-UY","2017/08/21 15:58:47","新北市新店區中正路435號","121.534101666667","24.9783483333333","6500600","新店區"
"231035","110-UY","2017/08/21 15:58:36","新北市新店區安民街322巷12號","121.518255","24.9742","6500600","新店區"
"231046","278-BY","2017/08/21 15:58:51","新北市新店區安華路28-1號","121.51974","24.9611266666667","6500600","新店區"
"231014","AAD-862","2017/08/21 15:58:52","新北市新店區中正路232號","121.539905","24.9729033333333","6500600","新店區"
"231038","4715-K9","2017/08/21 15:58:46","新北市新店區安康路二段228巷2弄2號","121.5095","24.959425","6500600","新店區"
"231003","616-UM","2017/08/21 15:58:46","新北市新店區中興路二段188號","121.548141666667","24.9729916666667","6500600","新店區"
"231034","645-TV","2017/08/21 15:58:45","新北市新店區吉祥街7巷2號","121.497375","24.9473666666667","6500600","新店區"
"231013","719-UM","2017/08/21 15:58:39","新北市新店區永業路81巷3弄1號","121.529958333333","24.9492866666667","6500600","新店區"
"231037","AKT-0513","2017/08/21 15:58:41","新北市新店區吉安街14號","121.516726666667","24.9658083333333","6500600","新店區"
"241011","013-R5","2017/08/21 15:58:37","新北市三重區雙園街1巷1號","121.496873333333","25.068035","6500200","三重區"
"241028","022-UY","2017/08/21 15:58:44","新北市三重區電信街93號","121.495646666667","25.0583766666667","6500200","三重區"
"241008","059-VK","2017/08/21 15:58:49","新北市三重區捷運路73號","121.482545","25.0557633333333","6500200","三重區"
"241031","061-VK","2017/08/21 15:58:35","新北市三重區重新路四段121號","121.484745","25.0520516666667","6500200","三重區"
"241015","062-VK","2017/08/21 15:58:46","新北市三重區重新路四段121號","121.48522","25.0518233333333","6500200","三重區"
"241017","063-VK","2017/08/21 15:58:49","新北市三重區大仁街36巷73號","121.489736666667","25.0638566666667","6500200","三重區"
"241024","065-VK","2017/08/21 15:58:49","新北市三重區力行路一段38巷8號","121.48524","25.0665466666667","6500200","三重區"
"241026","066-VK","2017/08/21 15:58:43","新北市三重區電信街93號","121.495608333333","25.05828","6500200","三重區"
"241006","156-TC","2017/08/21 15:58:42","新北市三重區永福街64-1號","121.48058","25.0776616666667","6500200","三重區"
"241005","262-UM","2017/08/21 15:58:37","新北市三重區溪尾街300-2號","121.487498333333","25.083665","6500200","三重區"
"241022","267-UM","2017/08/21 15:58:51","新北市三重區忠孝路三段40巷51號","121.483111666667","25.0655833333333","6500200","三重區"
"241018","268-UM","2017/08/21 15:58:47","新北市三重區中正北路33號","121.491446666667","25.06281","6500200","三重區"
"241013","270-UM","2017/08/21 15:58:51","新北市三重區三和路三段16巷1號","121.496693333333","25.0700833333333","6500200","三重區"
"241025","271-UM","2017/08/21 15:58:44","新北市三重區三民街206號","121.48094","25.0661816666667","6500200","三重區"
"241007","398-BY","2017/08/21 15:58:42","新北市三重區忠孝路三段2號","121.4819","25.067615","6500200","三重區"
"241020","412-TH","2017/08/21 15:58:54","新北市三重區力行路一段187號","121.483566666667","25.0697416666667","6500200","三重區"
"241019","478-VK","2017/08/21 15:58:52","新北市三重區自強路三段83號","121.487336666667","25.0748316666667","6500200","三重區"
"241014","543-UM","2017/08/21 15:58:50","新北市三重區重新路四段121號","121.485143333333","25.0518033333333","6500200","三重區"
"241023","545-UM","2017/08/21 15:58:46","新北市三重區三民街175巷14號","121.483798333333","25.0656066666667","6500200","三重區"
"241001","547-UM","2017/08/21 15:58:50","新北市三重區新北大道一段250號","121.479905","25.0612733333333","6500200","三重區"
"241012","941-UM","2017/08/21 15:58:48","新北市三重區正義北路107巷2號","121.497296666667","25.0657316666667","6500200","三重區"
"241029","942-UM","2017/08/21 15:58:45","新北市三重區大同南路242號","121.496908333333","25.0559266666667","6500200","三重區"
"241033","AAC-255","2017/08/21 15:58:48","新北市三重區重新路五段449號","121.474146666667","25.0471566666667","6500200","三重區"
"235026","800-TS","2017/08/21 15:58:49","新北市中和區立德街28號","121.489743333333","25.006785","6500300","中和區"
"235023","AAC-215","2017/08/21 15:58:39","新北市中和區員山路72號","121.480861666667","24.9934716666667","6500300","中和區"
"224007","273-VK","2017/08/21 15:58:41","新北市瑞芳區楓子瀨路7-1號","121.768061666667","25.10148","6501200","瑞芳區"
"224005","271-BY","2017/08/21 10:11:03","新北市瑞芳區大寮路356-1號","121.784755","25.1035216666667","6501200","瑞芳區"
"227001","642-TC","2017/08/21 15:58:31","新北市雙溪區平林里外平林60號","121.84593","25.0348066666667","6502500","雙溪區"
"227008","400-TW","2017/08/21 15:58:45","新北市雙溪區三港里雙澳路39號","121.872853333333","25.0522033333333","6502500","雙溪區"
"253001","6251-TK","2017/08/21 09:50:06","新北市石門區崁子腳35-2號","121.539905","25.2696366666667","6502200","石門區"
"251008","181-VK","2017/08/21 15:58:37","新北市淡水區中正路二段31號","121.419486666667","25.18228","6501000","淡水區"
"252006","AAC-283","2017/08/21 15:52:25","新北市三芝區埔坪里埔頭坑41號","121.504485","25.2644216666667","6502100","三芝區"
"236064","105-UM","2017/08/21 15:58:39","新北市土城區福安街100-11號","121.417513333333","24.9645266666667","6501300","土城區"
"236040","107-UM","2017/08/21 15:58:39","新北市土城區學府路二段222號","121.445046666667","24.977105","6501300","土城區"
"236074","166-UM","2017/08/21 15:58:37","新北市土城區金安街39號","121.420875","24.9646066666667","6501300","土城區"
"236024","269-VK","2017/08/21 15:58:45","新北市土城區城林路6巷80號","121.438258333333","24.9795216666667","6501300","土城區"
"236056","912-UM","2017/08/21 15:58:47","新北市土城區中央路一段186-4號","121.445468333333","24.9861916666667","6501300","土城區"
"236052","AAC-216","2017/08/21 15:58:51","新北市土城區中華路二段62號","121.438905","24.9765316666667","6501300","土城區"
"238002","755-BX","2017/08/21 15:58:52","新北市樹林區啟智街80巷8號","121.419086666667","24.9923066666667","6500700","樹林區"
"238010","601-UM","2017/08/21 15:58:35","新北市樹林區龍興街32巷28號","121.401863333333","25.0156183333333","6500700","樹林區"
"238006","599-UM","2017/08/21 15:58:50","新北市樹林區水源街32巷45號","121.42532","24.9804966666667","6500700","樹林區"
"238005","571-TV","2017/08/21 15:58:42","新北市樹林區博愛街179號","121.42479","24.98933","6500700","樹林區"
"238011","5061-A6","2017/08/21 15:58:40","新北市樹林區山佳街57-1號","121.392921666667","24.9724116666667","6500700","樹林區"
"238009","312-TH","2017/08/21 15:58:55","新北市樹林區太順街71號","121.416936666667","24.978475","6500700","樹林區"
"238008","311-TH","2017/08/21 15:58:49","新北市樹林區柑園街二段149巷27號","121.38258","24.953295","6500700","樹林區"
"238012","303-VK","2017/08/21 15:58:53","新北市樹林區保安二街61號","121.4245","24.9946","6500700","樹林區"
"238004","283-BY","2017/08/21 15:58:34","新北市樹林區中正路433-1號","121.414963333333","25.0081016666667","6500700","樹林區"
"238001","282-BY","2017/08/21 15:58:49","新北市樹林區保安二街40巷26號","121.425776666667","24.995","6500700","樹林區"
"238007","268-VK","2017/08/21 01:56:53","新北市樹林區中山路三段204號","121.386786666667","24.968345","6500700","樹林區"
"238013","172-UY","2017/08/21 15:58:55","新北市樹林區佳園路一段71號","121.393263333333","24.9702666666667","6500700","樹林區"
"238003","169-UY","2017/08/21 15:58:51","新北市樹林區日新街172巷16號","121.419581666667","24.9884183333333","6500700","樹林區"
"220032","296-UM","2017/08/21 15:58:55","新北市林口區太平里180號","121.368408333333","25.1342766666667","6500100","板橋區"
"220018","AAC-253","2017/08/21 15:58:39","新北市八里區商港路48號","121.395846666667","25.1456383333333","6500100","板橋區"
