"lineid","car","time","location","longitude","latitude","cityid","cityname"
"249005","172-UM","2017/08/21 17:28:40","新北市八里區荖阡坑路69號","121.406386666667","25.126975","6502300","八里區"
"249001","173-UM","2017/08/21 17:28:35","新北市八里區中華路一段305-7號","121.416216666667","25.155255","6502300","八里區"
"249004","303-UY","2017/08/21 17:28:43","新北市八里區民有街79號","121.414256666667","25.1557966666667","6502300","八里區"
"249002","305-UY","2017/08/21 17:28:50","新北市八里區烏山頭1-10號","121.44744","25.1402066666667","6502300","八里區"
"249003","593-UM","2017/08/21 17:28:49","新北市八里區中山路二段317號","121.400605","25.1476816666667","6502300","八里區"
"244007","080-UY","2017/08/21 17:28:31","新北市林口區建國路2號","121.38747","25.09282","6501700","林口區"
"244019","403-UM","2017/08/21 17:28:36","新北市林口區文化二路一段382號","121.374308333333","25.0765233333333","6501700","林口區"
"244009","410-SL","2017/08/21 17:28:40","新北市林口區中華路225號","121.38502","25.090055","6501700","林口區"
"244023","483-VK","2017/08/21 14:49:08","新北市林口區粉寮69號","121.40498","25.09086","6501700","林口區"
"244017","656-BX","2017/08/21 17:28:38","新北市林口區粉寮路一段135號","121.398985","25.0811183333333","6501700","林口區"
"244023","657-BX","2017/08/21 17:28:41","新北市林口區興林一街96巷25號","121.391086666667","25.0717033333333","6501700","林口區"
"244013","658-BX","2017/08/21 17:28:49","新北市林口區粉寮路二段221號","121.404225","25.090635","6501700","林口區"
"244011","701-TV","2017/08/21 17:28:30","新北市林口區仁愛路一段386號","121.387358333333","25.07672","6501700","林口區"
"244025","837-TS","2017/08/21 17:28:38","新北市林口區民族路157號","121.367028333333","25.0764283333333","6501700","林口區"
"244020","838-TS","2017/08/21 17:28:43","新北市林口區粉寮路二段46-1號","121.403496666667","25.0869816666667","6501700","林口區"
"231046","278-BY","2017/08/21 17:28:51","新北市新店區直潭路92號","121.53089","24.9375966666667","6500600","新店區"
"241011","013-R5","2017/08/21 17:28:36","新北市三重區河邊北街110巷45號","121.50295","25.0706866666667","6500200","三重區"
"241009","060-VK","2017/08/21 17:28:35","新北市三重區車路頭街137號","121.484108333333","25.0762233333333","6500200","三重區"
"241015","062-VK","2017/08/21 17:28:46","新北市三重區長元街65巷8弄18號","121.503418333333","25.06652","6500200","三重區"
"241017","063-VK","2017/08/21 17:28:29","新北市三重區中正北路25巷25弄11號","121.493738333333","25.0628083333333","6500200","三重區"
"241024","065-VK","2017/08/21 17:28:49","新北市三重區中正北路191巷3弄3號","121.4776","25.0698483333333","6500200","三重區"
"241002","090-VK","2017/08/21 17:28:31","新北市三重區自強路五段91號","121.495335","25.082205","6500200","三重區"
"241003","091-VK","2017/08/21 17:28:32","新北市三重區富福街19號","121.490421666667","25.0833716666667","6500200","三重區"
"241005","262-UM","2017/08/21 17:28:37","新北市三重區永安北路二段43巷27號","121.483153333333","25.0827533333333","6500200","三重區"
"241016","266-UM","2017/08/21 17:28:40","新北市三重區大同北路54巷1號","121.49426","25.063525","6500200","三重區"
"241022","267-UM","2017/08/21 17:28:31","新北市三重區重陽路二段58號","121.487358333333","25.06368","6500200","三重區"
"241018","268-UM","2017/08/21 17:28:46","新北市三重區大同北路60巷29號","121.49351","25.0637033333333","6500200","三重區"
"241032","269-UM","2017/08/21 17:28:47","新北市三重區中華路2巷12號","121.482626666667","25.0601233333333","6500200","三重區"
"241013","270-UM","2017/08/21 17:28:32","新北市三重區仁愛街112巷10號","121.494511666667","25.0741733333333","6500200","三重區"
"241025","271-UM","2017/08/21 17:28:44","新北市三重區三民街315號","121.477746666667","25.0691","6500200","三重區"
"241007","398-BY","2017/08/21 17:28:44","新北市三重區三和路四段145巷77號","121.486175","25.07876","6500200","三重區"
"241020","412-TH","2017/08/21 17:28:34","新北市三重區忠孝路二段2號","121.487058333333","25.0714666666667","6500200","三重區"
"241019","478-VK","2017/08/21 17:28:32","新北市三重區自強路二段24號","121.489623333333","25.0692383333333","6500200","三重區"
"241030","480-VK","2017/08/21 17:28:40","新北市三重區集美街117號","121.489946666667","25.0526433333333","6500200","三重區"
"241014","543-UM","2017/08/21 17:28:30","新北市三重區長壽街48號","121.500491666667","25.0681716666667","6500200","三重區"
"241023","545-UM","2017/08/21 17:28:46","新北市三重區三民街146巷3弄2號","121.481655","25.0645666666667","6500200","三重區"
"241012","941-UM","2017/08/21 17:28:48","新北市三重區仁興街28巷46號","121.498343333333","25.074925","6500200","三重區"
"241033","AAC-255","2017/08/21 17:28:28","新北市三重區興德路133號","121.470161666667","25.0528466666667","6500200","三重區"
"235067","255-BX","2017/08/21 16:36:38","新北市中和區員山路36巷13號","121.484348333333","24.9913616666667","6500300","中和區"
"235062","800-TS","2017/08/21 17:04:18","新北市中和區員山路36巷16-3號","121.48506","24.99141","6500300","中和區"
"235023","AAC-215","2017/08/21 16:48:05","新北市中和區員山路36巷16-3號","121.484963333333","24.9912783333333","6500300","中和區"
"247020","893-R6","2017/08/21 17:28:43","新北市蘆洲區仁愛街102號","121.470258333333","25.0946316666667","6501400","蘆洲區"
"247010","546-UM","2017/08/21 17:28:29","新北市蘆洲區中山一路120巷17號","121.477828333333","25.08192","6501400","蘆洲區"
"247018","500-BY","2017/08/21 17:28:39","新北市蘆洲區民義街24號","121.471386666667","25.0885766666667","6501400","蘆洲區"
"247008","339-TH","2017/08/21 17:28:47","新北市蘆洲區信義路34巷68號","121.47524","25.0777416666667","6501400","蘆洲區"
"247024","337-TH","2017/08/21 17:28:37","新北市蘆洲區長興路318號","121.46174","25.0922366666667","6501400","蘆洲區"
"247002","336-TH","2017/08/21 17:28:40","新北市蘆洲區環堤大道204號","121.45718","25.0912233333333","6501400","蘆洲區"
"247014","057-VK","2017/08/21 17:28:35","新北市蘆洲區三民路38-1號","121.475568333333","25.08299","6501400","蘆洲區"
"247004","056-VK","2017/08/21 17:28:40","新北市蘆洲區永安南路二段306號","121.45715","25.0822","6501400","蘆洲區"
"247006","053-VK","2017/08/21 17:28:38","新北市蘆洲區長安街68巷29號","121.463821666667","25.0809866666667","6501400","蘆洲區"
"247012","007-UY","2017/08/21 17:28:46","新北市蘆洲區三民路88號","121.47352","25.0854733333333","6501400","蘆洲區"
"247022","002-UY","2017/08/21 17:28:49","新北市蘆洲區中正路314號","121.46457","25.0910533333333","6501400","蘆洲區"
"247016","001-UY","2017/08/21 17:28:44","新北市蘆洲區光華路22巷49號","121.468183333333","25.08488","6501400","蘆洲區"
"228003","097-TW","2017/08/21 17:28:40","新北市貢寮區仁理村研海街29號","121.929305","25.03183","6502600","貢寮區"
"228002","585-TW","2017/08/21 17:28:32","新北市貢寮區福隆里興隆街38號","121.940873333333","25.017555","6502600","貢寮區"
"228001","670-TC","2017/08/21 17:28:35","新北市貢寮區仁理村仁愛路39號","121.925015","25.053325","6502600","貢寮區"
"224010","AGQ-8101","2017/08/21 17:27:04","新北市瑞芳區逢甲路11號","121.809918333333","25.108445","6501200","瑞芳區"
"224006","676-BX","2017/08/21 17:28:35","新北市瑞芳區傑魚坑路185號","121.788328333333","25.1079983333333","6501200","瑞芳區"
"224009","285-BY","2017/08/21 17:28:41","新北市瑞芳區汽車路13-1號","121.84577","25.1108016666667","6501200","瑞芳區"
"224008","275-VK","2017/08/21 17:28:40","新北市瑞芳區九芎橋路35號","121.833203333333","25.093785","6501200","瑞芳區"
"224005","271-BY","2017/08/21 17:28:31","新北市瑞芳區洞頂路297號","121.85969","25.1235933333333","6501200","瑞芳區"
"227001","642-TC","2017/08/21 17:28:31","新北市雙溪區平林里外平林74-1號","121.844218333333","25.0332266666667","6502500","雙溪區"
"227008","400-TW","2017/08/21 17:28:44","新北市雙溪區三貂里定福路1-2號","121.850803333333","25.0634466666667","6502500","雙溪區"
"251009","008-UM","2017/08/21 17:03:46","新北市淡水區中正路320號","121.436518333333","25.172775","6501000","淡水區"
"251004","009-UM","2017/08/21 17:28:42","新北市淡水區中正東路二段88巷15號","121.459153333333","25.1506766666667","6501000","淡水區"
"251002","012-UM","2017/08/21 17:28:42","新北市淡水區中正路261號","121.431628333333","25.1748283333333","6501000","淡水區"
"251007","179-VK","2017/08/21 17:28:40","新北市淡水區民生路60號","121.4621","25.1379433333333","6501000","淡水區"
"251008","181-VK","2017/08/21 17:28:37","新北市淡水區大同路120巷18號","121.463153333333","25.1396866666667","6501000","淡水區"
"251013","182-VK","2017/08/21 17:28:45","新北市淡水區大竹圍5號","121.466563333333","25.1952133333333","6501000","淡水區"
"251010","413-VK","2017/08/21 17:28:34","新北市淡水區中正路二段206號","121.426228333333","25.1890683333333","6501000","淡水區"
"251012","441-VK","2017/08/21 17:28:38","新北市淡水區北新路98號","121.447295","25.1783716666667","6501000","淡水區"
"251015","442-VK","2017/08/21 17:28:48","新北市淡水區三空泉15號","121.472805","25.16358","6501000","淡水區"
"251005","443-VK","2017/08/21 17:28:41","新北市淡水區鄧公路31巷2號","121.451153333333","25.170635","6501000","淡水區"
"251006","561-UM","2017/08/21 17:28:39","新北市淡水區大仁街9號","121.44226","25.1748883333333","6501000","淡水區"
"251011","650-BX","2017/08/21 17:28:41","新北市淡水區坪頂路718號","121.482545","25.1585066666667","6501000","淡水區"
"251003","766-UM","2017/08/21 17:28:46","新北市淡水區中山路157-3號","121.440736666667","25.1728933333333","6501000","淡水區"
"207003","550-UM","2017/08/21 17:28:40","新北市萬里區龜吼里美崙路96號","121.684365","25.1853383333333","6502800","萬里區"
"207004","225-TW","2017/08/21 17:28:47","新北市萬里區萬里里景美路11-2號","121.685426666667","25.172965","6502800","萬里區"
"252002","178-VK","2017/08/21 17:28:36","新北市三芝區忠孝街1-14號","121.505541666667","25.2539333333333","6502100","三芝區"
"252001","292-VK","2017/08/21 17:28:46","新北市三芝區長安街119號","121.498056666667","25.2596583333333","6502100","三芝區"
"242021","AAC-296","2017/08/21 17:28:33","新北市新莊區中正路130號","121.452883333333","25.0363133333333","6500500","新莊區"
"242029","986-R7","2017/08/21 17:28:36","新北市新莊區幸福路10號","121.459203333333","25.04952","6500500","新莊區"
"242048","751-BX","2017/08/21 17:28:39","新北市新莊區四維路210號","121.421458333333","25.0200966666667","6500500","新莊區"
"242023","705-TV","2017/08/21 17:28:46","新北市新莊區公園路150號","121.453175","25.0401066666667","6500500","新莊區"
"242025","615-BX","2017/08/21 17:28:30","新北市新莊區中港路268號","121.453216666667","25.0439233333333","6500500","新莊區"
"242027","612-BX","2017/08/21 17:28:47","新北市新莊區思源路137號","121.460001666667","25.04372","6500500","新莊區"
"242036","566-BX","2017/08/21 17:28:33","新北市新莊區建國二路5-3號","121.434833333333","25.023685","6500500","新莊區"
"242042","497-BY","2017/08/21 17:28:43","新北市新莊區建國一路136號","121.434896666667","25.0284166666667","6500500","新莊區"
"242053","442-UM","2017/08/21 17:28:34","新北市新莊區環河路48-5號","121.436403333333","25.00913","6500500","新莊區"
"242046","441-UM","2017/08/21 17:28:33","新北市新莊區新樹路67巷32號","121.440325","25.03015","6500500","新莊區"
"242050","440-UM","2017/08/21 17:28:34","新北市新莊區瓊林南路59-8號","121.435378333333","25.0165166666667","6500500","新莊區"
"242031","415-TV","2017/08/21 17:28:32","新北市新莊區新泰路401巷14號","121.442973333333","25.0440733333333","6500500","新莊區"
"242002","413-TV","2017/08/21 17:28:38","新北市新莊區新莊路241號","121.45474","25.035005","6500500","新莊區"
"242039","400-BY","2017/08/21 17:28:45","新北市新莊區民安東路31號","121.428533333333","25.0209933333333","6500500","新莊區"
"242060","362-BY","2017/08/21 17:28:37","新北市新莊區瓊林路59-88號","121.43955","25.0211983333333","6500500","新莊區"
"242058","353-BY","2017/08/21 17:28:40","新北市新莊區中正路516-5號","121.433223333333","25.0323283333333","6500500","新莊區"
"242004","132-UY","2017/08/21 17:28:44","新北市新莊區中港路286號","121.453071666667","25.044315","6500500","新莊區"
"242034","133-UY","2017/08/21 17:28:46","新北市新莊區新莊路479號","121.449006666667","25.0333483333333","6500500","新莊區"
"242019","135-UY","2017/08/21 17:28:47","新北市新莊區中港路61號","121.455373333333","25.0385016666667","6500500","新莊區"
"242007","173-VK","2017/08/21 17:28:31","新北市新莊區中華路二段5號","121.453573333333","25.045245","6500500","新莊區"
"242013","175-VK","2017/08/21 17:28:40","新北市新莊區中誠街16巷28號","121.451876666667","25.04881","6500500","新莊區"
"242056","176-VK","2017/08/21 17:28:49","新北市新莊區新莊路644號","121.442758333333","25.0330216666667","6500500","新莊區"
"242011","346-TH","2017/08/21 17:28:42","新北市新莊區中華路二段87號","121.452523333333","25.04911","6500500","新莊區"
"242044","347-TH","2017/08/21 17:28:46","新北市新莊區富國路89號","121.420565","25.0257433333333","6500500","新莊區"
"242017","348-TH","2017/08/21 17:28:42","新北市新莊區復興路一段212號","121.452863333333","25.0437716666667","6500500","新莊區"
"242015","350-TH","2017/08/21 17:28:39","新北市新莊區新泰路185號","121.447446666667","25.0376633333333","6500500","新莊區"
"242009","351-TH","2017/08/21 17:28:35","新北市新莊區中原路141號","121.454423333333","25.054395","6500500","新莊區"
"238015","755-BX","2017/08/21 17:28:48","新北市樹林區大安路267號","121.418956666667","24.993715","6500700","樹林區"
"238023","601-UM","2017/08/21 17:28:35","新北市樹林區中正路433號","121.414898333333","25.0085316666667","6500700","樹林區"
"238019","599-UM","2017/08/21 17:28:33","新北市樹林區八德街82號","121.420105","24.9813","6500700","樹林區"
"238018","571-TV","2017/08/21 17:28:42","新北市樹林區鎮前街269巷31號","121.41937","24.9849133333333","6500700","樹林區"
"238024","5061-A6","2017/08/21 17:28:42","新北市樹林區鎮前街142號","121.424618333333","24.9904633333333","6500700","樹林區"
"238022","312-TH","2017/08/21 17:28:35","新北市樹林區和平街21號","121.422201666667","24.98143","6500700","樹林區"
"238021","311-TH","2017/08/21 17:28:32","新北市樹林區西圳街一段22號","121.40281","24.9611766666667","6500700","樹林區"
"238025","303-VK","2017/08/21 17:28:41","新北市樹林區保安街一段276號","121.419711666667","24.9968633333333","6500700","樹林區"
"238017","283-BY","2017/08/21 17:28:38","新北市樹林區光武街30巷2號","121.416406666667","25.005585","6500700","樹林區"
"238001","282-BY","2017/08/21 17:28:49","新北市樹林區長壽街70巷35弄2號","121.421308333333","24.9949666666667","6500700","樹林區"
"238020","268-VK","2017/08/21 01:56:53","新北市樹林區中山路三段204號","121.386786666667","24.968345","6500700","樹林區"
"238026","172-UY","2017/08/21 17:28:46","新北市樹林區中山路三段39號","121.401133333333","24.9753333333333","6500700","樹林區"
"238016","169-UY","2017/08/21 17:28:42","新北市樹林區中山路一段103號","121.423121666667","24.99086","6500700","樹林區"
"239007","AAC-297","2017/08/21 17:28:43","新北市鶯歌區中山路273號","121.345005","24.9569983333333","6500800","鶯歌區"
"239006","891-R6","2017/08/21 17:28:48","新北市鶯歌區鶯桃路472巷26號","121.333273333333","24.9658633333333","6500800","鶯歌區"
"239008","527-UM","2017/08/21 17:28:48","新北市鶯歌區大湖路622號","121.334725","24.9747366666667","6500800","鶯歌區"
"239005","526-UM","2017/08/21 17:28:47","新北市鶯歌區福隆一街66號","121.324581666667","24.97116","6500800","鶯歌區"
"239001","417-VK","2017/08/21 17:28:47","新北市鶯歌區中正三路128號","121.336573333333","24.9401183333333","6500800","鶯歌區"
"239003","360-BY","2017/08/21 17:28:27","新北市鶯歌區鶯桃路266號","121.335638333333","24.9597733333333","6500800","鶯歌區"
"239002","359-BY","2017/08/21 17:28:34","新北市鶯歌區育才街30-2號","121.348746666667","24.9550333333333","6500800","鶯歌區"
"239004","193-VK","2017/08/21 17:28:37","新北市三峽區復興路553號","121.3566","24.9404633333333","6500800","鶯歌區"
"221032","280-BY","2017/08/21 17:28:46","新北市汐止區汐萬路一段256巷1號","121.651985","25.0748716666667","6501100","汐止區"
