"lineid","car","time","location","longitude","latitude","cityid","cityname"
"234026","9371-KE","2017/08/21 17:58:40","新北市永和區永和路一段45-1號","121.512798333333","25.0062483333333","6500400","永和區"
"234011","9373-KE","2017/08/21 17:58:36","新北市永和區福和路1號","121.525391666667","25.0093966666667","6500400","永和區"
"249005","172-UM","2017/08/21 17:58:40","新北市八里區荖阡坑路20-3號","121.398043333333","25.13655","6502300","八里區"
"249001","173-UM","2017/08/21 17:58:35","新北市八里區龍米路二段36號","121.448675","25.1401916666667","6502300","八里區"
"249004","303-UY","2017/08/21 17:58:43","新北市八里區中山路一段1號","121.42311","25.158965","6502300","八里區"
"249002","305-UY","2017/08/21 17:58:31","新北市八里區龍米路一段259號","121.450753333333","25.1336433333333","6502300","八里區"
"249003","593-UM","2017/08/21 17:58:49","新北市八里區中山路二段56巷1號","121.406933333333","25.1539483333333","6502300","八里區"
"248016","026-BX","2017/08/21 17:58:36","新北市五股區中興路二段83巷26-6號","121.459991666667","25.0751866666667","6501500","五股區"
"248006","077-UY","2017/08/21 17:58:42","新北市五股區中興路二段83巷26-6號","121.459993333333","25.075185","6501500","五股區"
"248008","095-VK","2017/08/21 17:58:32","新北市五股區更洲路10號","121.45832","25.0788333333333","6501500","五股區"
"248018","225-UY","2017/08/21 17:58:42","新北市五股區中興路二段83巷26-6號","121.459988333333","25.075245","6501500","五股區"
"248014","261-SL","2017/08/21 17:58:37","新北市五股區中興路二段182巷2號","121.45739","25.0781433333333","6501500","五股區"
"248010","272-BY","2017/08/21 17:58:46","新北市五股區中興路二段83巷26-6號","121.45981","25.0750733333333","6501500","五股區"
"248004","677-BX","2017/08/21 16:20:34","新北市五股區中興路二段37巷28號","121.460105","25.0749566666667","6501500","五股區"
"248002","678-BX","2017/08/21 17:58:30","新北市五股區中興路二段37巷28號","121.460096666667","25.0749533333333","6501500","五股區"
"232011","375-UM","2017/08/21 17:58:37","新北市坪林區水柳腳38號","121.709838333333","24.9351966666667","6502000","坪林區"
"244007","080-UY","2017/08/21 17:58:32","新北市林口區竹林路273號","121.38958","25.0811383333333","6501700","林口區"
"244019","403-UM","2017/08/21 17:58:36","新北市林口區忠孝路512-1號","121.371676666667","25.0691833333333","6501700","林口區"
"244009","410-SL","2017/08/21 17:58:40","新北市林口區竹林路578號","121.38631","25.0832","6501700","林口區"
"244023","483-VK","2017/08/21 14:49:08","新北市林口區粉寮69號","121.40498","25.09086","6501700","林口區"
"244017","656-BX","2017/08/21 17:58:37","新北市林口區文化二路一段256號","121.370621666667","25.07346","6501700","林口區"
"244023","657-BX","2017/08/21 17:58:41","新北市林口區東湖路93巷74號","121.385553333333","25.0707683333333","6501700","林口區"
"244013","658-BX","2017/08/21 17:58:49","新北市林口區中山路87號","121.389903333333","25.0787783333333","6501700","林口區"
"244011","701-TV","2017/08/21 17:58:30","新北市林口區中正路122號","121.393386666667","25.077225","6501700","林口區"
"244025","837-TS","2017/08/21 17:58:38","新北市林口區三民路75號","121.358658333333","25.0679","6501700","林口區"
"244020","838-TS","2017/08/21 17:58:43","新北市林口區新寮37-1號","121.401388333333","25.0656816666667","6501700","林口區"
"243015","380-SR","2017/08/21 17:44:54","新北市泰山區犁頭窠3-1號","121.422098333333","25.0605183333333","6501600","泰山區"
"222003","436-BY","2017/08/21 17:58:35","新北市深坑區炮子崙9號","121.60422","24.9861033333333","6501800","深坑區"
"222002","659-BX","2017/08/21 17:58:44","新北市深坑區文化街102號","121.616688333333","25.0017666666667","6501800","深坑區"
"231046","278-BY","2017/08/21 17:58:31","新北市新店區康雅崙路45號","121.535748333333","24.9272066666667","6500600","新店區"
"241016","266-UM","2017/08/21 17:58:40","新北市三重區新北大道一段66號","121.48723","25.0614316666667","6500200","三重區"
"241024","462-BY","2017/08/21 17:58:40","新北市三重區國道路一段42號","121.483176666667","25.073","6500200","三重區"
"241033","AAC-255","2017/08/21 17:58:48","新北市三重區重新路五段559號","121.470463333333","25.0460083333333","6500200","三重區"
"235064","005-UY","2017/08/21 17:58:41","新北市中和區員山路36巷16-3號","121.485101666667","24.9913533333333","6500300","中和區"
"235063","006-UY","2017/08/21 17:58:37","新北市中和區員山路36巷16-3號","121.484906666667","24.9912433333333","6500300","中和區"
"235065","098-UM","2017/08/21 17:58:40","新北市中和區連城路469巷33號","121.48353","24.994655","6500300","中和區"
"235058","151-BY","2017/08/21 17:58:38","新北市中和區中正路589巷15號","121.485888333333","24.99358","6500300","中和區"
"235038","185-VK","2017/08/21 17:58:38","新北市中和區中正路637巷52弄1號","121.485438333333","24.9934433333333","6500300","中和區"
"235067","255-BX","2017/08/21 17:58:41","新北市中和區和城路一段271巷1號","121.485423333333","24.9917966666667","6500300","中和區"
"235061","378-QA","2017/08/21 15:28:42","新北市中和區員山路36巷13號","121.48424","24.99159","6500300","中和區"
"235062","800-TS","2017/08/21 17:58:46","新北市中和區員山路36巷16-2號","121.485143333333","24.99156","6500300","中和區"
"235023","AAC-215","2017/08/21 16:48:05","新北市中和區員山路36巷16-3號","121.484963333333","24.9912783333333","6500300","中和區"
"247020","893-R6","2017/08/21 17:58:43","新北市蘆洲區民義街35巷10號","121.471606666667","25.0895933333333","6501400","蘆洲區"
"247018","500-BY","2017/08/21 17:58:39","新北市蘆洲區復興路218號","121.479048333333","25.0892183333333","6501400","蘆洲區"
"247024","337-TH","2017/08/21 17:58:37","新北市蘆洲區光復路30巷31-1號","121.463571666667","25.0844566666667","6501400","蘆洲區"
"247002","336-TH","2017/08/21 17:58:40","新北市蘆洲區永平街32巷57弄22號","121.458963333333","25.0932866666667","6501400","蘆洲區"
"247006","053-VK","2017/08/21 17:58:38","新北市蘆洲區中華街13號","121.463731666667","25.0817166666667","6501400","蘆洲區"
"247012","007-UY","2017/08/21 17:58:50","新北市蘆洲區民族路162號","121.479646666667","25.0863383333333","6501400","蘆洲區"
"247016","001-UY","2017/08/21 17:58:44","新北市蘆洲區中正路185巷31弄2號","121.466255","25.0842433333333","6501400","蘆洲區"
"228003","097-TW","2017/08/21 17:58:40","新北市貢寮區真理里美艷山街6-2號","121.9289","25.0606633333333","6502600","貢寮區"
"228002","585-TW","2017/08/21 17:58:32","新北市貢寮區福隆里桂安街15號","121.962818333333","25.0209333333333","6502600","貢寮區"
"228001","670-TC","2017/08/21 17:58:35","新北市貢寮區仁理村仁愛路106巷36號","121.928755","25.053445","6502600","貢寮區"
"224006","676-BX","2017/08/21 17:58:35","新北市瑞芳區傑魚坑路183號","121.788483333333","25.10826","6501200","瑞芳區"
"224002","639-TC","2017/08/21 17:58:42","新北市瑞芳區三爪子坑路127號","121.810276666667","25.1068683333333","6501200","瑞芳區"
"224011","420-VK","2017/08/21 17:58:36","新北市瑞芳區中山路22號","121.804048333333","25.1061916666667","6501200","瑞芳區"
"224009","285-BY","2017/08/21 17:58:34","新北市瑞芳區山尖路2號","121.854721666667","25.1161633333333","6501200","瑞芳區"
"224008","275-VK","2017/08/21 17:58:40","新北市瑞芳區明燈路一段45巷100號","121.82104","25.1040933333333","6501200","瑞芳區"
"224007","273-VK","2017/08/21 17:58:41","新北市瑞芳區大寮路84號","121.780453333333","25.10131","6501200","瑞芳區"
"224005","271-BY","2017/08/21 17:58:31","新北市瑞芳區建基路一段50巷51號","121.818048333333","25.1281666666667","6501200","瑞芳區"
"253006","032-BX","2017/08/21 17:58:43","新北市石門區大丘田45-2號","121.549746666667","25.2748516666667","6502200","石門區"
"253005","295-VK","2017/08/21 17:58:35","新北市石門區中山路62-11號","121.56747","25.28961","6502200","石門區"
"208002","742-BX","2017/08/21 17:58:44","新北市金山區三界壇路50號","121.623003333333","25.2292283333333","6502700","金山區"
"208003","665-BX","2017/08/21 17:58:42","新北市金山區磺港里磺港路304號","121.6438","25.2269816666667","6502700","金山區"
"208001","761-BX","2017/08/21 17:58:33","新北市金山區磺港里社寮16-1號","121.638546666667","25.22639","6502700","金山區"
"251009","008-UM","2017/08/21 17:58:27","新北市淡水區大仁街8號","121.442365","25.1746116666667","6501000","淡水區"
"251004","009-UM","2017/08/21 17:58:42","新北市淡水區民權路185-10號","121.459276666667","25.1336566666667","6501000","淡水區"
"251002","012-UM","2017/08/21 17:58:36","新北市淡水區中正東路1號","121.447238333333","25.16723","6501000","淡水區"
"251008","181-VK","2017/08/21 17:58:37","新北市淡水區八勢一街38號","121.461708333333","25.15522","6501000","淡水區"
"251013","182-VK","2017/08/21 17:58:45","新北市淡水區泉洲厝31號","121.479496666667","25.1910283333333","6501000","淡水區"
"251010","413-VK","2017/08/21 17:58:34","新北市淡水區中正路一段87巷1號","121.421761666667","25.1791633333333","6501000","淡水區"
"251012","441-VK","2017/08/21 17:58:38","新北市淡水區北新路三段16-7號","121.483551666667","25.1860133333333","6501000","淡水區"
"251015","442-VK","2017/08/21 17:58:43","新北市淡水區興福寮88巷1號","121.485396666667","25.1649983333333","6501000","淡水區"
"251005","443-VK","2017/08/21 17:58:39","新北市淡水區英專路118號","121.445901666667","25.1723933333333","6501000","淡水區"
"251001","559-UM","2017/08/21 17:58:37","新北市淡水區民權路94巷1號","121.46316","25.1247816666667","6501000","淡水區"
"251006","561-UM","2017/08/21 17:58:39","新北市淡水區新生街20-5號","121.438858333333","25.1738933333333","6501000","淡水區"
"251011","650-BX","2017/08/21 17:58:41","新北市淡水區三空泉5-1號","121.478026666667","25.1620283333333","6501000","淡水區"
"251003","766-UM","2017/08/21 17:58:46","新北市淡水區大忠街73號","121.445623333333","25.177185","6501000","淡水區"
"207003","550-UM","2017/08/21 17:58:40","新北市萬里區港東路野柳風景區攤販66號","121.691333333333","25.2058466666667","6502800","萬里區"
"207004","225-TW","2017/08/21 17:58:47","新北市萬里區中幅里中福路48號","121.683278333333","25.174085","6502800","萬里區"
"252002","178-VK","2017/08/21 17:58:36","新北市三芝區中山路一段131號","121.502213333333","25.2565533333333","6502100","三芝區"
"252001","292-VK","2017/08/21 17:58:46","新北市三芝區中興街一段30號","121.49772","25.25782","6502100","三芝區"
"237004","078-UY","2017/08/21 17:58:34","新北市三峽區大埔路66號","121.366403333333","24.9077933333333","6500900","三峽區"
"237007","153-BY","2017/08/21 17:58:41","新北市三峽區中正路二段269號","121.365876666667","24.9116333333333","6500900","三峽區"
"237009","210-TH","2017/08/21 17:58:32","新北市三峽區中山路106巷2號","121.366105","24.9360616666667","6500900","三峽區"
"237013","252-BX","2017/08/21 17:58:38","新北市三峽區介壽路一段232號","121.378485","24.9304666666667","6500900","三峽區"
"237012","275-BY","2017/08/21 17:58:50","新北市三峽區民生街27巷30號","121.376088333333","24.9360466666667","6500900","三峽區"
"237008","302-VK","2017/08/21 17:58:43","新北市三峽區正義街157號","121.36812","24.9150283333333","6500900","三峽區"
"237014","433-BY","2017/08/21 17:58:33","新北市三峽區復興路101巷1弄79號","121.371036666667","24.9376133333333","6500900","三峽區"
"237006","5529-G3","2017/08/21 17:58:42","新北市三峽區介壽路二段136巷45弄31號","121.393865","24.933165","6500900","三峽區"
"237011","572-TV","2017/08/21 17:58:42","新北市三峽區中正路一段46-1號","121.375526666667","24.9306016666667","6500900","三峽區"
"237015","649-BX","2017/08/21 17:58:41","新北市三峽區紫微路87號","121.404158333333","24.9091016666667","6500900","三峽區"
"237010","706-TV","2017/08/21 17:58:42","新北市三峽區仁愛街37號","121.36845","24.9329683333333","6500900","三峽區"
"237005","AKY-6261","2017/08/21 17:58:43","新北市三峽區復興路235號","121.368178333333","24.9387566666667","6500900","三峽區"
"236069","105-UM","2017/08/21 17:58:33","新北市土城區城林路6巷80號","121.438418333333","24.9797116666667","6501300","土城區"
"236042","107-UM","2017/08/21 17:58:39","新北市土城區裕生路82巷2號","121.447531666667","24.98594","6501300","土城區"
"236078","166-UM","2017/08/21 17:58:30","新北市土城區永寧路32巷1號","121.429116666667","24.9600183333333","6501300","土城區"
"236030","253-BX","2017/08/21 17:58:36","新北市土城區城林路6巷80號","121.438373333333","24.979755","6501300","土城區"
"236026","269-VK","2017/08/21 17:58:39","新北市土城區承天路65號","121.43957","24.9636466666667","6501300","土城區"
"236014","270-VK","2017/08/21 17:58:31","新北市土城區城林路6巷80號","121.438453333333","24.9797933333333","6501300","土城區"
"236036","271-VK","2017/08/21 17:58:37","新北市土城區城林路6巷80號","121.438563333333","24.979575","6501300","土城區"
"236020","401-BY","2017/08/21 17:58:42","新北市土城區城林路6巷80號","121.438731666667","24.97971","6501300","土城區"
"236058","912-UM","2017/08/21 17:58:45","新北市土城區中央路三段47號","121.439005","24.9697866666667","6501300","土城區"
"236048","913-UM","2017/08/21 17:58:41","新北市土城區城林路6巷80號","121.438196666667","24.97951","6501300","土城區"
"236062","915-UM","2017/08/21 17:58:45","新北市土城區中華路二段2號","121.439463333333","24.9795266666667","6501300","土城區"
"236053","AAC-216","2017/08/21 17:58:36","新北市土城區城林路6巷80號","121.438455","24.979595","6501300","土城區"
"242021","AAC-296","2017/08/21 17:58:33","新北市新莊區中華路一段6號","121.452018333333","25.036625","6500500","新莊區"
"242029","986-R7","2017/08/21 17:58:37","新北市新莊區中平路16號","121.44474","25.042895","6500500","新莊區"
"242048","751-BX","2017/08/21 17:58:39","新北市新莊區萬安街47巷9號","121.422221666667","25.0244916666667","6500500","新莊區"
"242023","705-TV","2017/08/21 17:58:46","新北市新莊區福壽街58號","121.458265","25.0489483333333","6500500","新莊區"
"242025","615-BX","2017/08/21 17:58:30","新北市新莊區五工路58號","121.458625","25.06296","6500500","新莊區"
"242027","612-BX","2017/08/21 17:58:30","新北市新莊區幸福路21號","121.459008333333","25.0493216666667","6500500","新莊區"
"242036","566-BX","2017/08/21 17:58:33","新北市新莊區中正路671號","121.42655","25.0299566666667","6500500","新莊區"
"242042","497-BY","2017/08/21 17:57:51","新北市新莊區中正路857號","121.41987","25.0281633333333","6500500","新莊區"
"242053","442-UM","2017/08/21 17:58:35","新北市新莊區光華街4號","121.428651666667","25.01063","6500500","新莊區"
"242046","441-UM","2017/08/21 17:58:33","新北市新莊區福營路161號","121.432033333333","25.0313666666667","6500500","新莊區"
"242050","440-UM","2017/08/21 17:58:34","新北市新莊區龍安路500號","121.42665","25.0170733333333","6500500","新莊區"
"242031","415-TV","2017/08/21 17:58:32","新北市新莊區新泰路305巷14號","121.444573333333","25.0409366666667","6500500","新莊區"
"242002","413-TV","2017/08/21 17:58:38","新北市新莊區中正路145-18號","121.458268333333","25.037635","6500500","新莊區"
"242039","400-BY","2017/08/21 17:58:45","新北市新莊區民安西路24巷12弄2號","121.426311666667","25.0210383333333","6500500","新莊區"
"242060","362-BY","2017/08/21 17:58:37","新北市新莊區新樹路254-1號","121.432823333333","25.0163083333333","6500500","新莊區"
"242058","353-BY","2017/08/21 17:58:40","新北市新莊區新北大道七段219號","121.413833333333","25.03017","6500500","新莊區"
"242004","132-UY","2017/08/21 17:58:45","新北市新莊區福樂街80巷22號","121.45882","25.046655","6500500","新莊區"
"242034","133-UY","2017/08/21 17:58:47","新北市新莊區福海街18號","121.445268333333","25.0337533333333","6500500","新莊區"
"242019","135-UY","2017/08/21 17:58:42","新北市新莊區明中街43巷9號","121.457591666667","25.0389116666667","6500500","新莊區"
"242007","173-VK","2017/08/21 17:58:48","新北市新莊區自信街65巷14號","121.455576666667","25.048715","6500500","新莊區"
"242013","175-VK","2017/08/21 17:58:40","新北市新莊區中和街125巷8號","121.447068333333","25.0486","6500500","新莊區"
"242056","176-VK","2017/08/21 17:58:49","新北市新莊區豐年街124巷22號","121.445453333333","25.0299483333333","6500500","新莊區"
"242011","346-TH","2017/08/21 17:58:42","新北市新莊區中港路629-1號","121.450783333333","25.0539116666667","6500500","新莊區"
"242044","347-TH","2017/08/21 17:58:35","新北市新莊區雙鳳路107號","121.414021666667","25.02799","6500500","新莊區"
"242017","348-TH","2017/08/21 17:58:43","新北市新莊區中港路339巷38號","121.450591666667","25.0451166666667","6500500","新莊區"
"242015","350-TH","2017/08/21 17:58:31","新北市新莊區中平路87巷8號","121.444246666667","25.0459083333333","6500500","新莊區"
"242009","351-TH","2017/08/21 17:58:35","新北市新莊區中華路二段210巷20號","121.453625","25.05233","6500500","新莊區"
"238015","755-BX","2017/08/21 17:58:28","新北市樹林區啟智街78號","121.419773333333","24.991825","6500700","樹林區"
"238023","601-UM","2017/08/21 17:58:35","新北市樹林區龍興街33號","121.403021666667","25.0158616666667","6500700","樹林區"
"238019","599-UM","2017/08/21 17:58:33","新北市樹林區八德街255號","121.421736666667","24.9783633333333","6500700","樹林區"
"238018","571-TV","2017/08/21 17:58:41","新北市新莊區新崑路57號","121.431715","24.999245","6500700","樹林區"
"238022","312-TH","2017/08/21 17:58:35","新北市樹林區太順街49巷2號","121.417908333333","24.97916","6500700","樹林區"
"238021","311-TH","2017/08/21 17:58:32","新北市樹林區柑園街一段64號","121.402565","24.960285","6500700","樹林區"
"238025","303-VK","2017/08/21 17:58:41","新北市樹林區三俊街12號","121.411086666667","25.015345","6500700","樹林區"
"238017","283-BY","2017/08/21 17:58:34","新北市樹林區俊德街3號","121.414901666667","25.0149166666667","6500700","樹林區"
"238001","282-BY","2017/08/21 17:58:49","新北市樹林區保安街一段219號","121.420436666667","24.9963333333333","6500700","樹林區"
"238020","268-VK","2017/08/21 01:56:53","新北市樹林區中山路三段204號","121.386786666667","24.968345","6500700","樹林區"
"238026","172-UY","2017/08/21 17:58:46","新北市樹林區中山路三段116號","121.392573333333","24.9720483333333","6500700","樹林區"
"238016","169-UY","2017/08/21 17:58:42","新北市樹林區啟智街151巷2號","121.416745","24.98806","6500700","樹林區"
"239007","AAC-297","2017/08/21 17:58:43","新北市鶯歌區鶯桃路31-4號","121.343206666667","24.9506","6500800","鶯歌區"
"239006","891-R6","2017/08/21 17:58:48","新北市鶯歌區鶯桃路455巷6弄6號","121.331823333333","24.9647366666667","6500800","鶯歌區"
"239008","527-UM","2017/08/21 17:58:28","新北市鶯歌區明圓街8號","121.336948333333","24.9783783333333","6500800","鶯歌區"
"239005","526-UM","2017/08/21 17:58:27","新北市鶯歌區大湖路361巷81-1號","121.333065","24.9739433333333","6500800","鶯歌區"
"239001","417-VK","2017/08/21 17:58:27","新北市鶯歌區中正三路273巷4號","121.332655","24.9380883333333","6500800","鶯歌區"
"239003","360-BY","2017/08/21 17:58:40","新北市鶯歌區鶯桃路320號","121.334023333333","24.9619183333333","6500800","鶯歌區"
"239002","359-BY","2017/08/21 17:58:34","新北市鶯歌區中山路249巷10號","121.34687","24.9565183333333","6500800","鶯歌區"
"221008","489-VK","2017/08/21 17:58:34","新北市汐止區明峰街23號","121.634406666667","25.07141","6501100","汐止區"
"221036","130-UY","2017/08/21 17:58:40","新北市汐止區橋東街3號","121.666661666667","25.0760983333333","6501100","汐止區"
"221015","131-UY","2017/08/21 17:58:35","新北市汐止區鄉長路二段25-1號","121.668285","25.08269","6501100","汐止區"
"221031","277-VK","2017/08/21 17:58:32","新北市汐止區中興路96巷1-3號","121.63518","25.0625066666667","6501100","汐止區"
"221012","278-VK","2017/08/21 17:58:33","新北市汐止區長興街二段20號","121.672981666667","25.081195","6501100","汐止區"
"221023","279-VK","2017/08/21 17:58:34","新北市汐止區明峰街131號","121.630076666667","25.0707133333333","6501100","汐止區"
"221032","280-BY","2017/08/21 17:58:46","新北市汐止區橫科路73巷18-1號","121.619408333333","25.0514183333333","6501100","汐止區"
"221027","281-BY","2017/08/21 17:58:35","新北市汐止區汐萬路一段10號","121.656123333333","25.0674283333333","6501100","汐止區"
"221038","297-VK","2017/08/21 17:58:45","新北市汐止區連興街128巷5號","121.653408333333","25.0615966666667","6501100","汐止區"
"221029","298-VK","2017/08/21 17:58:42","新北市汐止區樟樹二路338號","121.641535","25.0705066666667","6501100","汐止區"
"221021","299-VK","2017/08/21 17:58:45","新北市汐止區新興路2號","121.656286666667","25.0650716666667","6501100","汐止區"
"221035","622-UM","2017/08/21 17:58:29","新北市汐止區新江北路30巷17號","121.652016666667","25.06934","6501100","汐止區"
"221025","623-UM","2017/08/21 17:58:37","新北市汐止區仁愛路10號","121.659345","25.0635916666667","6501100","汐止區"
"221010","646-BX","2017/08/21 17:58:38","新北市汐止區汐萬路二段122巷7號","121.648333333333","25.0857733333333","6501100","汐止區"
"221002","707-TV","2017/08/21 17:58:27","新北市汐止區中興路62號","121.63552","25.0614616666667","6501100","汐止區"
"221018","753-BX","2017/08/21 17:58:34","新北市汐止區招商街11巷1號","121.666513333333","25.0688566666667","6501100","汐止區"
