"lineid","car","time","location","longitude","latitude","cityid","cityname"
"234007","207-UY","2017/08/21 18:07:35","新北市永和區保生路55號","121.504716666667","25.0107816666667","6500400","永和區"
"234081","298-R6","2017/08/21 18:28:33","新北市永和區環河東路二段100號","121.52452","25.010525","6500400","永和區"
"234086","338-UY","2017/08/21 18:28:39","新北市永和區豫溪街217巷29號","121.52457","25.0104366666667","6500400","永和區"
"234017","745-BX","2017/08/21 18:28:47","新北市永和區福和路1號","121.526461666667","25.0098233333333","6500400","永和區"
"234042","862-TW","2017/08/21 18:28:42","新北市永和區福和路1號","121.526455","25.0096683333333","6500400","永和區"
"234026","9371-KE","2017/08/21 18:28:40","新北市永和區中正路655號","121.514976666667","25.010155","6500400","永和區"
"234011","9373-KE","2017/08/21 18:28:36","新北市永和區文化路113巷8弄5號","121.512551666667","25.0146883333333","6500400","永和區"
"249005","172-UM","2017/08/21 18:28:40","新北市八里區中華路三段51號","121.39525","25.141735","6502300","八里區"
"249001","173-UM","2017/08/21 18:28:35","新北市八里區龍米路一段116-6號","121.453268333333","25.124935","6502300","八里區"
"249004","303-UY","2017/08/21 18:28:43","新北市八里區忠孝路82號","121.426085","25.1603933333333","6502300","八里區"
"249002","305-UY","2017/08/21 18:28:34","新北市八里區龍形三街26號","121.448005","25.131645","6502300","八里區"
"248016","026-BX","2017/08/21 18:28:35","新北市五股區凌雲路一段83巷22弄1號","121.449846666667","25.10075","6501500","五股區"
"248006","077-UY","2017/08/21 18:28:42","新北市五股區中興路二段37巷11弄16號","121.460948333333","25.0738566666667","6501500","五股區"
"248008","095-VK","2017/08/21 18:28:32","新北市五股區四維路185巷60號","121.462163333333","25.078305","6501500","五股區"
"248018","225-UY","2017/08/21 18:27:42","新北市五股區御史路300號","121.416848333333","25.109845","6501500","五股區"
"248012","247-BX","2017/08/21 18:28:26","新北市五股區御成路145號","121.440908333333","25.094305","6501500","五股區"
"248014","261-SL","2017/08/21 18:28:37","新北市五股區自強路90巷35號","121.43188","25.0716866666667","6501500","五股區"
"248010","272-BY","2017/08/21 18:28:46","新北市五股區明德路10號","121.433388333333","25.0717433333333","6501500","五股區"
"248004","677-BX","2017/08/21 18:28:36","新北市五股區工商路87號","121.437893333333","25.08514","6501500","五股區"
"248002","678-BX","2017/08/21 18:28:30","新北市五股區西雲路167號","121.446663333333","25.09474","6501500","五股區"
"234074","AAC-211","2017/08/21 18:28:37","新北市永和區福和路1號","121.526646666667","25.0098483333333","6500400","永和區"
"232011","375-UM","2017/08/21 18:28:37","新北市坪林區坪雙路一段43號","121.711811666667","24.94248","6502000","坪林區"
"244007","080-UY","2017/08/21 18:28:31","新北市林口區後湖2號","121.389146666667","25.0970716666667","6501700","林口區"
"244019","403-UM","2017/08/21 18:28:36","新北市林口區文化一路一段100巷12號","121.37383","25.070675","6501700","林口區"
"244009","410-SL","2017/08/21 18:28:40","新北市林口區民生路131巷2-2號","121.377851666667","25.0890933333333","6501700","林口區"
"244023","483-VK","2017/08/21 14:49:08","新北市林口區粉寮69號","121.40498","25.09086","6501700","林口區"
"244017","656-BX","2017/08/21 18:28:38","新北市林口區文化二路一段56號","121.36513","25.0680683333333","6501700","林口區"
"244023","657-BX","2017/08/21 18:28:41","新北市林口區文化一路二段68號","121.381281666667","25.0779183333333","6501700","林口區"
"244013","658-BX","2017/08/21 18:28:29","新北市林口區佳林路101巷15號","121.386948333333","25.08003","6501700","林口區"
"244011","701-TV","2017/08/21 18:28:30","新北市林口區中正路283號","121.38983","25.07762","6501700","林口區"
"244025","837-TS","2017/08/21 18:28:38","新北市林口區南勢四街326號","121.35739","25.076125","6501700","林口區"
"244020","838-TS","2017/08/21 18:28:43","新北市林口區自強二街50號","121.399205","25.07705","6501700","林口區"
"243013","AAD-798","2017/08/21 18:28:37","新北市泰山區明志路三段166號","121.424213333333","25.0393233333333","6501600","泰山區"
"243015","380-SR","2017/08/21 17:44:54","新北市泰山區犁頭窠3-1號","121.422098333333","25.0605183333333","6501600","泰山區"
"243012","646-TV","2017/08/21 18:28:41","新北市泰山區泰林路二段440號","121.426436666667","25.064205","6501600","泰山區"
"222003","436-BY","2017/08/21 18:28:39","新北市深坑區旺耽路12-1號","121.628718333333","25.005045","6501800","深坑區"
"222002","659-BX","2017/08/21 18:28:33","新北市深坑區雲鄉路167號","121.621756666667","24.9980033333333","6501800","深坑區"
"222001","696-SL","2017/08/21 18:28:41","新北市深坑區北深路一段199號","121.630388333333","25.00894","6501800","深坑區"
"231041","002-UM","2017/08/21 18:28:38","新北市新店區安華路28-1號","121.519758333333","24.960875","6500600","新店區"
"231059","046-UY","2017/08/21 18:28:46","新北市新店區安華路28-1號","121.519648333333","24.9609516666667","6500600","新店區"
"231061","047-UY","2017/08/21 18:28:31","新北市新店區安華路28-1號","121.51914","24.9610483333333","6500600","新店區"
"231060","106-UY","2017/08/21 18:28:28","新北市新店區安華路28-1號","121.51992","24.9607383333333","6500600","新店區"
"231051","107-UY","2017/08/21 18:28:44","新北市新店區安康路一段355-3號","121.519328333333","24.9616166666667","6500600","新店區"
"231047","108-UY","2017/08/21 18:28:34","新北市新店區安華路28-1號","121.519041666667","24.9607316666667","6500600","新店區"
"231052","187-VK","2017/08/21 18:28:42","新北市新店區北宜路一段196-1號","121.543146666667","24.9529466666667","6500600","新店區"
"231057","256-BX","2017/08/21 18:28:33","新北市新店區北宜路一段88號","121.538723333333","24.95567","6500600","新店區"
"231046","278-BY","2017/08/21 18:28:31","新北市新店區直潭七街60號","121.532236666667","24.93969","6500600","新店區"
"231050","AAD-862","2017/08/21 18:28:37","新北市新店區安華路28-1號","121.519951666667","24.9612333333333","6500600","新店區"
"231058","3712-VJ","2017/08/21 18:28:31","新北市新店區北宜路一段2號","121.537923333333","24.9588583333333","6500600","新店區"
"231055","3713-VJ","2017/08/21 18:28:37","新北市新店區中正路128巷11號","121.542573333333","24.9720466666667","6500600","新店區"
"231056","4716-K9","2017/08/21 18:28:45","新北市新店區中正路418巷3號","121.53468","24.97832","6500600","新店區"
"231067","4772-VM","2017/08/21 18:28:37","新北市新店區安華路28-1號","121.51921","24.960625","6500600","新店區"
"231065","512-UM","2017/08/21 18:28:42","新北市新店區安華路28-1號","121.519456666667","24.96126","6500600","新店區"
"231054","513-UM","2017/08/21 18:28:37","新北市新店區安華路28-1號","121.519623333333","24.9611466666667","6500600","新店區"
"231042","616-UM","2017/08/21 18:28:44","新北市新店區安華路1-1號","121.519493333333","24.960325","6500600","新店區"
"231040","619-UM","2017/08/21 18:28:33","新北市新店區安華路28-1號","121.519546666667","24.9606466666667","6500600","新店區"
"231063","645-TV","2017/08/21 18:28:42","新北市新店區安華路1-1號","121.519761666667","24.96018","6500600","新店區"
"231049","719-UM","2017/08/21 18:28:34","新北市新店區安華路28-1號","121.51935","24.9611633333333","6500600","新店區"
"231064","719-UY","2017/08/21 17:00:02","新北市新店區安華路28-1號","121.519333333333","24.9612133333333","6500600","新店區"
"231062","720-UM","2017/08/21 18:28:38","新北市新店區安華路28-1號","121.519125","24.9612483333333","6500600","新店區"
"231044","897-TW","2017/08/21 18:28:38","新北市新店區安華路28-1號","121.51971","24.9609133333333","6500600","新店區"
"231045","898-TW","2017/08/21 18:28:33","新北市新店區安華路28-1號","121.519165","24.9607266666667","6500600","新店區"
"231043","899-TW","2017/08/21 18:28:39","新北市新店區安華路28-1號","121.518906666667","24.961035","6500600","新店區"
"231066","AKT-0513","2017/08/21 18:28:36","新北市新店區安華路28-1號","121.519521666667","24.9606066666667","6500600","新店區"
"235064","005-UY","2017/08/21 18:28:41","新北市中和區圓通路167巷13號","121.497903333333","24.99462","6500300","中和區"
"235063","006-UY","2017/08/21 18:28:37","新北市中和區中正路506號","121.488693333333","24.9944516666667","6500300","中和區"
"235066","031-BX","2017/08/21 18:28:30","新北市中和區中山路二段122號","121.50264","25.0036433333333","6500300","中和區"
"235056","096-UM","2017/08/21 18:28:45","新北市中和區員山路611巷1號","121.477825","25.011235","6500300","中和區"
"235039","097-UM","2017/08/21 18:28:39","新北市中和區安和路91號","121.507515","24.99547","6500300","中和區"
"235065","098-UM","2017/08/21 18:28:40","新北市中和區莊敬路49巷18號","121.5016","25.0061166666667","6500300","中和區"
"235040","150-BY","2017/08/21 18:28:44","新北市中和區中正路169號","121.498125","24.993645","6500300","中和區"
"235058","151-BY","2017/08/21 18:28:38","新北市中和區圓通路369巷39-25號","121.489995","24.985345","6500300","中和區"
"235055","183-VK","2017/08/21 18:28:44","新北市土城區延壽路32-5號","121.471021666667","24.9911916666667","6500300","中和區"
"235038","185-VK","2017/08/21 18:28:38","新北市中和區秀朗路三段128巷17弄5號","121.524261666667","24.9934883333333","6500300","中和區"
"235049","186-VK","2017/08/21 18:28:35","新北市中和區景安路179-3號","121.505061666667","24.993875","6500300","中和區"
"235067","255-BX","2017/08/21 18:28:41","新北市中和區員山路36巷16-6號","121.48529","24.9920716666667","6500300","中和區"
"235072","301-VK","2017/08/21 18:28:33","新北市中和區連城路243號","121.493648333333","24.9971966666667","6500300","中和區"
"235043","352-BY","2017/08/21 18:28:42","新北市中和區景平路329巷2弄4號","121.505681666667","24.9930583333333","6500300","中和區"
"235051","376-QA","2017/08/21 18:28:44","新北市中和區興南路二段149號","121.505028333333","24.983565","6500300","中和區"
"235068","377-QA","2017/08/21 18:28:44","新北市中和區錦和路203巷13號","121.491411666667","24.9905316666667","6500300","中和區"
"235061","378-QA","2017/08/21 18:28:44","新北市中和區民享街116巷1號","121.47417","24.998685","6500300","中和區"
"235050","4979-A6","2017/08/21 18:28:37","新北市中和區景新街362巷10號","121.511963333333","24.99015","6500300","中和區"
"235069","4980-A6","2017/08/21 18:28:42","新北市中和區連城路89巷6號","121.49688","24.9995433333333","6500300","中和區"
"235042","551-UM","2017/08/21 18:28:36","新北市中和區自立路56巷21號","121.522408333333","24.99162","6500300","中和區"
"235070","558-UM","2017/08/21 18:28:37","新北市中和區圓通路164號","121.49748","24.9948983333333","6500300","中和區"
"235045","565-BX","2017/08/21 18:28:44","新北市中和區復興路41號","121.505038333333","24.98991","6500300","中和區"
"235054","640-BX","2017/08/21 18:28:45","新北市中和區民享街116號","121.474486666667","24.999015","6500300","中和區"
"235060","647-TV","2017/08/21 18:28:30","新北市中和區員山路150-31號","121.48129","24.99829","6500300","中和區"
"235047","732-UM","2017/08/21 18:28:29","新北市中和區南山路403號","121.506888333333","24.9899166666667","6500300","中和區"
"235046","733-UM","2017/08/21 18:28:29","新北市中和區中正路571巷2弄11號","121.486171666667","24.99348","6500300","中和區"
"235062","800-TS","2017/08/21 18:28:46","新北市中和區景平路746號","121.496646666667","25.00433","6500300","中和區"
"235057","801-TS","2017/08/21 18:28:31","新北市中和區民安街67號","121.478446666667","24.9997133333333","6500300","中和區"
"235052","805-TS","2017/08/21 18:28:40","新北市中和區興南路二段133號","121.505226666667","24.984205","6500300","中和區"
"235048","896-TW","2017/08/21 18:28:34","新北市中和區中正路277-6號","121.495118333333","24.9937566666667","6500300","中和區"
"235053","900-TW","2017/08/21 18:28:30","新北市中和區連城路583巷15號","121.479223333333","24.9934333333333","6500300","中和區"
"235037","AAC-213","2017/08/21 18:28:30","新北市中和區景德街71號","121.516746666667","24.9914166666667","6500300","中和區"
"235059","AAC-215","2017/08/21 16:48:05","新北市中和區員山路36巷16-3號","121.484963333333","24.9912783333333","6500300","中和區"
"220068","013-TV","2017/08/21 18:28:28","新北市板橋區民生路二段16號","121.472955","25.01646","6500100","板橋區"
"220086","073-UY","2017/08/21 18:28:41","新北市板橋區華東街1-10號","121.448253333333","24.9950816666667","6500100","板橋區"
"226004","205-ST","2017/08/21 18:28:42","新北市平溪區靜安路二段200號","121.723615","25.02205","6502400","平溪區"
"228003","097-TW","2017/08/21 18:28:40","新北市貢寮區和美里和美街39號","121.91234","25.0894116666667","6502600","貢寮區"
"228002","585-TW","2017/08/21 18:28:32","新北市貢寮區福連里福連街1號","121.988236666667","25.0155316666667","6502600","貢寮區"
"228001","670-TC","2017/08/21 18:28:35","新北市貢寮區仁理村仁義街4號","121.923683333333","25.052105","6502600","貢寮區"
"224006","676-BX","2017/08/21 18:28:35","新北市瑞芳區明燈路二段103號","121.809926666667","25.1078816666667","6501200","瑞芳區"
"224002","639-TC","2017/08/21 18:28:42","新北市瑞芳區正貿新村21號","121.81311","25.10578","6501200","瑞芳區"
"224011","420-VK","2017/08/21 18:28:16","新北市瑞芳區崙頂路1-6號","121.847048333333","25.10473","6501200","瑞芳區"
"224009","285-BY","2017/08/21 18:28:37","新北市瑞芳區五號路22號","121.854971666667","25.1101966666667","6501200","瑞芳區"
"224008","275-VK","2017/08/21 18:28:40","新北市瑞芳區岳王路1巷19號","121.80614","25.1104683333333","6501200","瑞芳區"
"224007","273-VK","2017/08/21 18:28:41","新北市瑞芳區大埔路吉慶公園城55號","121.765095","25.0996516666667","6501200","瑞芳區"
"224005","271-BY","2017/08/21 18:28:31","新北市瑞芳區建基新村1號","121.813118333333","25.1296116666667","6501200","瑞芳區"
"227001","642-TC","2017/08/21 17:39:56","新北市雙溪區共和里東榮街52號","121.866303333333","25.0336","6502500","雙溪區"
"227008","400-TW","2017/08/21 18:28:42","新北市雙溪區牡丹里牡丹137-1號","121.851146666667","25.058955","6502500","雙溪區"
"253006","032-BX","2017/08/21 18:28:43","新北市石門區公地20-1號","121.54579","25.2901566666667","6502200","石門區"
"253005","295-VK","2017/08/21 18:28:35","新北市石門區中央路1-25號","121.55948","25.2910183333333","6502200","石門區"
"208002","742-BX","2017/08/21 18:28:38","新北市金山區民生路45號","121.642136666667","25.2210583333333","6502700","金山區"
"208003","665-BX","2017/08/21 18:28:42","新北市金山區中山路147號","121.639003333333","25.220245","6502700","金山區"
"208001","761-BX","2017/08/21 18:28:33","新北市金山區慈護街35號","121.639393333333","25.2197966666667","6502700","金山區"
"251004","009-UM","2017/08/21 18:28:42","新北市淡水區民族路31巷21-3號","121.462088333333","25.136515","6501000","淡水區"
"251002","012-UM","2017/08/21 18:28:36","新北市淡水區竿蓁二街21號","121.453226666667","25.16305","6501000","淡水區"
"251008","181-VK","2017/08/21 18:28:37","新北市淡水區北投子93-2號","121.465673333333","25.1763183333333","6501000","淡水區"
"251013","182-VK","2017/08/21 18:28:45","新北市淡水區椿子林19-5號","121.48114","25.2029916666667","6501000","淡水區"
"251010","413-VK","2017/08/21 18:28:34","新北市淡水區沙崙路181巷1號","121.424138333333","25.1842066666667","6501000","淡水區"
"251012","441-VK","2017/08/21 18:28:38","新北市淡水區北新路一段275號","121.461206666667","25.1823933333333","6501000","淡水區"
"251015","442-VK","2017/08/21 18:28:43","新北市淡水區興福寮88巷216號","121.485973333333","25.1665666666667","6501000","淡水區"
"251005","443-VK","2017/08/21 18:28:38","新北市淡水區中正東路35巷13號","121.446543333333","25.1687366666667","6501000","淡水區"
"251001","559-UM","2017/08/21 18:28:37","新北市淡水區自強路118號","121.463896666667","25.1327383333333","6501000","淡水區"
"251006","561-UM","2017/08/21 18:28:39","新北市淡水區新生街51巷22號","121.440618333333","25.1755316666667","6501000","淡水區"
"251011","650-BX","2017/08/21 18:28:41","新北市淡水區中正東路38號","121.44961","25.1654783333333","6501000","淡水區"
"251003","766-UM","2017/08/21 18:28:46","新北市淡水區北新路169巷57號","121.448545","25.18068","6501000","淡水區"
"207003","550-UM","2017/08/21 18:28:40","新北市萬里區野柳里港東路72號","121.68798","25.20471","6502800","萬里區"
"207004","225-TW","2017/08/21 18:28:47","新北市萬里區萬里里瑪鋉路91號","121.68897","25.17718","6502800","萬里區"
"252002","178-VK","2017/08/21 18:28:36","新北市三芝區中山路二段43號","121.502953333333","25.2550383333333","6502100","三芝區"
"252003","249-BX","2017/08/21 18:28:45","新北市三芝區後厝里北勢子20-6號","121.47295","25.2535033333333","6502100","三芝區"
"252001","292-VK","2017/08/21 18:28:46","新北市三芝區中興街二段2號","121.498373333333","25.2567316666667","6502100","三芝區"
"237004","078-UY","2017/08/21 18:28:34","新北市三峽區五寮6號","121.376223333333","24.8717816666667","6500900","三峽區"
"237007","153-BY","2017/08/21 18:28:40","新北市三峽區中正路三段170巷9號","121.352565","24.9040083333333","6500900","三峽區"
"237009","210-TH","2017/08/21 18:28:32","新北市三峽區民族街178-2號","121.368455","24.9279733333333","6500900","三峽區"
"237013","252-BX","2017/08/21 18:28:38","新北市三峽區永安街75號","121.37546","24.929525","6500900","三峽區"
"237012","275-BY","2017/08/21 18:28:31","新北市三峽區三樹路112號","121.378311666667","24.9393183333333","6500900","三峽區"
"237008","302-VK","2017/08/21 18:28:43","新北市三峽區白雞68-265號","121.390918333333","24.90881","6500900","三峽區"
"237014","433-BY","2017/08/21 18:28:38","新北市三峽區民生街119-3號","121.373638333333","24.935255","6500900","三峽區"
"237006","5529-G3","2017/08/21 18:28:42","新北市三峽區溪東路367號","121.411683333333","24.9294066666667","6500900","三峽區"
"237011","572-TV","2017/08/21 18:28:42","新北市三峽區溪東路424號","121.415166666667","24.9276466666667","6500900","三峽區"
"237015","649-BX","2017/08/21 18:28:41","新北市三峽區竹崙路109號","121.43338","24.913875","6500900","三峽區"
"237010","706-TV","2017/08/21 18:28:22","新北市三峽區復興路487號","121.36127","24.938465","6500900","三峽區"
"237005","AKY-6261","2017/08/21 18:28:43","新北市三峽區民族街5巷42號","121.369686666667","24.93162","6500900","三峽區"
"236069","105-UM","2017/08/21 18:28:46","新北市土城區永豐路255巷27弄21號","121.476123333333","24.973055","6501300","土城區"
"236042","107-UM","2017/08/21 18:28:39","新北市土城區裕民路61巷16號","121.449873333333","24.9885116666667","6501300","土城區"
"236078","166-UM","2017/08/21 18:28:30","新北市土城區中央路四段27巷1號","121.42442","24.9624533333333","6501300","土城區"
"236030","253-BX","2017/08/21 18:28:36","新北市土城區福仁街30巷10號","121.439431666667","24.9759616666667","6501300","土城區"
"236026","269-VK","2017/08/21 18:28:39","新北市土城區南天母路18-3號","121.44821","24.95311","6501300","土城區"
"236014","270-VK","2017/08/21 18:28:31","新北市土城區立清街69號","121.460313333333","24.9873333333333","6501300","土城區"
"236036","271-VK","2017/08/21 18:28:37","新北市土城區青雲路483巷13弄1號","121.459851666667","24.9735616666667","6501300","土城區"
"236020","401-BY","2017/08/21 18:28:42","新北市土城區永豐路202巷7-1號","121.466266666667","24.98323","6501300","土城區"
"236058","912-UM","2017/08/21 18:28:25","新北市土城區中央路四段466號","121.409973333333","24.9506083333333","6501300","土城區"
"236048","913-UM","2017/08/21 18:28:41","新北市土城區明德路一段323號","121.45892","24.9768733333333","6501300","土城區"
"236062","915-UM","2017/08/21 18:28:26","新北市土城區延壽路109巷9號","121.468483333333","24.9932383333333","6501300","土城區"
"236053","AAC-216","2017/08/21 18:28:39","新北市土城區中華路二段115號","121.439158333333","24.976955","6501300","土城區"
"242042","497-BY","2017/08/21 18:28:31","新北市新莊區天祥街72巷11號","121.416226666667","25.0299666666667","6500500","新莊區"
"242053","442-UM","2017/08/21 18:28:34","新北市新莊區瓊林南路599-1號","121.43302","25.0059233333333","6500500","新莊區"
"242046","441-UM","2017/08/21 18:28:33","新北市新莊區中正路803巷1號","121.42165","25.0280733333333","6500500","新莊區"
"242002","413-TV","2017/08/21 18:28:38","新北市新莊區中正路461號","121.44236","25.0341116666667","6500500","新莊區"
"242060","362-BY","2017/08/21 18:28:37","新北市新莊區四維路11號","121.423953333333","25.0240733333333","6500500","新莊區"
"242058","353-BY","2017/08/21 18:28:40","新北市新莊區龍安路2號","121.414125","25.02303","6500500","新莊區"
"242056","176-VK","2017/08/21 18:28:29","新北市新莊區瓊林路59-90號","121.441051666667","25.0222533333333","6500500","新莊區"
"242011","346-TH","2017/08/21 18:28:42","新北市新莊區中榮街80號","121.448143333333","25.0528816666667","6500500","新莊區"
"242044","347-TH","2017/08/21 18:28:35","新北市新莊區中正路新旺巷28號","121.416105","25.0229966666667","6500500","新莊區"
"238015","755-BX","2017/08/21 18:28:28","新北市樹林區啟智街185巷3-3號","121.415323333333","24.987365","6500700","樹林區"
"238023","601-UM","2017/08/21 18:28:35","新北市樹林區三福街47巷24號","121.407528333333","25.0150633333333","6500700","樹林區"
"238019","599-UM","2017/08/21 18:28:33","新北市樹林區中華路190號","121.411925","24.980555","6500700","樹林區"
"238018","571-TV","2017/08/21 18:28:41","新北市樹林區保安街一段20巷40號","121.42843","24.994765","6500700","樹林區"
"238021","311-TH","2017/08/21 18:28:32","新北市樹林區柑園街二段175號","121.380453333333","24.95292","6500700","樹林區"
"238025","303-VK","2017/08/21 18:28:41","新北市樹林區中山路三段22號","121.395611666667","24.9729516666667","6500700","樹林區"
"238017","283-BY","2017/08/21 18:28:34","新北市樹林區保安街二段277-1號","121.412746666667","25.0058116666667","6500700","樹林區"
"238020","268-VK","2017/08/21 01:56:53","新北市樹林區中山路三段204號","121.386786666667","24.968345","6500700","樹林區"
"238026","172-UY","2017/08/21 18:28:46","新北市樹林區八德街1082號","121.391033333333","24.9689","6500700","樹林區"
"238016","169-UY","2017/08/21 18:28:42","新北市樹林區文化街28號","121.419368333333","24.9877416666667","6500700","樹林區"
"239007","AAC-297","2017/08/21 18:28:43","新北市鶯歌區中正一路332號","121.357403333333","24.9570133333333","6500800","鶯歌區"
"239008","527-UM","2017/08/21 18:28:28","新北市鶯歌區國際一路14號","121.336173333333","24.976535","6500800","鶯歌區"
"239005","526-UM","2017/08/21 18:28:47","新北市鶯歌區鶯桃路668巷23號","121.328966666667","24.9702883333333","6500800","鶯歌區"
"239001","417-VK","2017/08/21 18:28:47","新北市鶯歌區國中街195號","121.338265","24.93917","6500800","鶯歌區"
"239003","360-BY","2017/08/21 18:28:27","新北市鶯歌區福安街13巷1號","121.33559","24.9653433333333","6500800","鶯歌區"
"239004","193-VK","2017/08/21 18:28:37","新北市鶯歌區尖山路190號","121.344086666667","24.94748","6500800","鶯歌區"
"221008","489-VK","2017/08/21 18:28:34","新北市汐止區康寧街901號","121.651408333333","25.075045","6501100","汐止區"
"221036","130-UY","2017/08/21 18:28:40","新北市汐止區長興街一段47號","121.67022","25.0791033333333","6501100","汐止區"
"221015","131-UY","2017/08/21 18:28:35","新北市汐止區吉祥街26號","121.667821666667","25.08105","6501100","汐止區"
"221031","277-VK","2017/08/21 18:28:32","新北市汐止區大同路一段215-1號","121.633771666667","25.0574233333333","6501100","汐止區"
"221012","278-VK","2017/08/21 18:28:33","新北市汐止區保長路51巷1號","121.673223333333","25.0789216666667","6501100","汐止區"
"221023","279-VK","2017/08/21 18:28:30","新北市汐止區康寧街474巷7-2號","121.632256666667","25.0679016666667","6501100","汐止區"
"221032","280-BY","2017/08/21 18:28:46","新北市汐止區福山街62巷8號","121.61817","25.0465983333333","6501100","汐止區"
"221027","281-BY","2017/08/21 18:28:42","新北市汐止區和平街46巷12號","121.662543333333","25.0714516666667","6501100","汐止區"
"221038","297-VK","2017/08/21 18:28:45","新北市汐止區忠孝東路303號","121.6642","25.06895","6501100","汐止區"
"221029","298-VK","2017/08/21 18:28:42","新北市汐止區樟樹一路217號","121.642851666667","25.069485","6501100","汐止區"
"221021","299-VK","2017/08/21 18:28:45","新北市汐止區新台五路一段125號","121.651743333333","25.061675","6501100","汐止區"
"221035","622-UM","2017/08/21 18:28:28","新北市汐止區大同路二段103巷1-1號","121.649288333333","25.063745","6501100","汐止區"
"221025","623-UM","2017/08/21 18:28:38","新北市汐止區仁愛路108號","121.66244","25.0634766666667","6501100","汐止區"
"221010","646-BX","2017/08/21 18:28:38","新北市汐止區祥雲街12號","121.646256666667","25.08976","6501100","汐止區"
"221033","647-BX","2017/08/21 18:28:42","新北市汐止區宜興街57號","121.622878333333","25.0426983333333","6501100","汐止區"
"221002","707-TV","2017/08/21 18:28:48","新北市汐止區福德一路164號","121.636123333333","25.0663666666667","6501100","汐止區"
"221018","753-BX","2017/08/21 18:28:33","新北市汐止區茄苳路213號","121.67067","25.0688666666667","6501100","汐止區"
"220080","200-UY","2017/08/21 18:28:36","新北市板橋區華東街1-9號","121.448241666667","24.9948533333333","6500100","板橋區"
"220082","610-BX","2017/08/21 18:28:45","新北市板橋區華東街1-10號","121.44827","24.9949333333333","6500100","板橋區"
"220056","276-BY","2017/08/21 18:28:44","新北市板橋區中山路一段156號","121.464775","25.011635","6500100","板橋區"
"220035","560-BX","2017/08/21 18:28:28","新北市板橋區四川路二段130巷25弄10號","121.44883","24.9946816666667","6500100","板橋區"
"220077","687-BX","2017/08/21 18:28:45","新北市板橋區華東街1-10號","121.448288333333","24.9949333333333","6500100","板橋區"
"220054","741-BX","2017/08/21 18:28:39","新北市板橋區民生路二段15-1號","121.472753333333","25.01645","6500100","板橋區"
