"lineid","car","time","location","longitude","latitude","cityid","cityname"
"234046","148-BY","2017/08/21 18:38:44","新北市永和區林森路81號","121.523933333333","25.003875","6500400","永和區"
"234013","149-BY","2017/08/21 18:38:45","新北市永和區保福路二段105號","121.510221666667","25.0132983333333","6500400","永和區"
"234007","207-UY","2017/08/21 18:07:35","新北市永和區保生路55號","121.504716666667","25.0107816666667","6500400","永和區"
"234081","298-R6","2017/08/21 18:38:33","新北市永和區林森路65號","121.524205","25.0040133333333","6500400","永和區"
"234064","337-UY","2017/08/21 18:38:39","新北市永和區福和路1號","121.526511666667","25.0101","6500400","永和區"
"234086","338-UY","2017/08/21 18:38:39","新北市永和區安樂路250-2號","121.514548333333","25.0037416666667","6500400","永和區"
"234054","553-UM","2017/08/21 18:38:32","新北市永和區福和路1號","121.525843333333","25.0097366666667","6500400","永和區"
"234017","745-BX","2017/08/21 18:38:27","新北市永和區福和路1號","121.526511666667","25.0099516666667","6500400","永和區"
"234030","746-BX","2017/08/21 18:38:34","新北市永和區得和路326號","121.523268333333","24.999555","6500400","永和區"
"234061","AAD-866","2017/08/21 18:38:37","新北市永和區福和路1號","121.525901666667","25.00952","6500400","永和區"
"234070","847-RS","2017/08/21 18:38:38","新北市永和區豫溪街217巷29號","121.524568333333","25.0104783333333","6500400","永和區"
"234042","862-TW","2017/08/21 18:38:42","新北市永和區永和路一段84號","121.512993333333","25.006705","6500400","永和區"
"234050","863-TW","2017/08/21 18:38:27","新北市永和區環河東路二段102號","121.524575","25.01053","6500400","永和區"
"234026","9371-KE","2017/08/21 18:38:40","新北市永和區永貞路415號","121.50729","25.0093983333333","6500400","永和區"
"234011","9373-KE","2017/08/21 18:38:36","新北市永和區永和路二段231巷10號","121.514908333333","25.0141383333333","6500400","永和區"
"249005","172-UM","2017/08/21 18:38:40","新北市八里區中華路三段34-2號","121.388988333333","25.125395","6502300","八里區"
"249001","173-UM","2017/08/21 18:38:35","新北市八里區龍米路一段213號","121.451423333333","25.1314833333333","6502300","八里區"
"249004","303-UY","2017/08/21 18:38:43","新北市八里區龍米路三段50號","121.424756666667","25.15926","6502300","八里區"
"249002","305-UY","2017/08/21 18:38:31","新北市八里區龍形一街33巷8-3號","121.449315","25.1300316666667","6502300","八里區"
"248016","026-BX","2017/08/21 18:38:35","新北市五股區凌雲路一段149巷5-1號","121.448923333333","25.1017483333333","6501500","五股區"
"248006","077-UY","2017/08/21 18:38:42","新北市五股區中興路二段83巷26-6號","121.46006","25.0751383333333","6501500","五股區"
"248008","095-VK","2017/08/21 18:38:32","新北市五股區中興路一段150巷6號","121.464631666667","25.0742133333333","6501500","五股區"
"248018","225-UY","2017/08/21 18:38:02","新北市五股區民義路二段122號","121.404153333333","25.1140583333333","6501500","五股區"
"248012","247-BX","2017/08/21 18:38:46","新北市五股區御史路1巷1號","121.442221666667","25.0903016666667","6501500","五股區"
"248014","261-SL","2017/08/21 18:38:37","新北市五股區成泰路一段190號","121.435498333333","25.0776733333333","6501500","五股區"
"248010","272-BY","2017/08/21 18:38:46","新北市五股區水碓三路120號","121.431753333333","25.0735833333333","6501500","五股區"
"248004","677-BX","2017/08/21 18:38:36","新北市五股區六合街19號","121.431115","25.0886533333333","6501500","五股區"
"248002","678-BX","2017/08/21 18:38:30","新北市五股區西雲路221號","121.448821666667","25.0969166666667","6501500","五股區"
"234023","9380-KE","2017/08/21 18:38:42","新北市永和區福和路76巷5弄9號","121.522288333333","25.00833","6500400","永和區"
"234077","969-R7","2017/08/21 18:38:42","新北市永和區中正路336號","121.517693333333","24.9999633333333","6500400","永和區"
"234074","AAC-211","2017/08/21 18:38:37","新北市永和區福和路1號","121.526591666667","25.0099516666667","6500400","永和區"
"234067","AAC-212","2017/08/21 18:38:43","新北市永和區中正路504號","121.517338333333","25.004385","6500400","永和區"
"234003","AAC-295","2017/08/21 18:38:37","新北市永和區福和路1號","121.526503333333","25.0099516666667","6500400","永和區"
"232011","375-UM","2017/08/21 18:38:37","新北市坪林區坪雙路一段43號","121.71181","24.9424933333333","6502000","坪林區"
"244007","080-UY","2017/08/21 18:38:31","新北市林口區後湖60-1號","121.384846666667","25.10803","6501700","林口區"
"244019","403-UM","2017/08/21 18:38:36","新北市林口區忠孝路559號","121.372778333333","25.0683333333333","6501700","林口區"
"244009","410-SL","2017/08/21 18:38:40","新北市林口區文化三路二段291-11號","121.378126666667","25.0866266666667","6501700","林口區"
"244023","483-VK","2017/08/21 14:49:08","新北市林口區粉寮69號","121.40498","25.09086","6501700","林口區"
"244017","656-BX","2017/08/21 18:38:38","新北市林口區文化二路一段166號","121.36885","25.07184","6501700","林口區"
"244023","657-BX","2017/08/21 18:38:41","新北市林口區民享路70號","121.380885","25.0810316666667","6501700","林口區"
"244013","658-BX","2017/08/21 18:38:29","新北市林口區中山路303號","121.383865","25.0802816666667","6501700","林口區"
"244011","701-TV","2017/08/21 18:38:30","新北市林口區新寮1-63號","121.392958333333","25.0767383333333","6501700","林口區"
"244025","837-TS","2017/08/21 18:38:38","新北市林口區南勢六街248號","121.35598","25.0748633333333","6501700","林口區"
"244020","838-TS","2017/08/21 18:38:43","新北市林口區工六路52號","121.399216666667","25.0780616666667","6501700","林口區"
"243013","AAD-798","2017/08/21 18:38:37","新北市泰山區明志路三段206巷3號","121.423306666667","25.0379133333333","6501600","泰山區"
"243015","380-SR","2017/08/21 18:38:40","新北市泰山區犁頭窠3-1號","121.422258333333","25.0604366666667","6501600","泰山區"
"243010","548-UM","2017/08/21 18:38:27","新北市泰山區黎明路25號","121.421968333333","25.06082","6501600","泰山區"
"243012","646-TV","2017/08/21 18:38:41","新北市泰山區泰林路二段73巷29號","121.434406666667","25.0578266666667","6501600","泰山區"
"243016","680-BX","2017/08/21 16:19:11","新北市泰山區黎明路25號","121.422088333333","25.0607066666667","6501600","泰山區"
"222003","436-BY","2017/08/21 18:38:35","新北市深坑區翠谷街39號","121.62674","25.009455","6501800","深坑區"
"222002","659-BX","2017/08/21 18:38:33","新北市深坑區雲鄉路46號","121.62222","24.999675","6501800","深坑區"
"222001","696-SL","2017/08/21 18:38:41","新北市深坑區北深路一段84號","121.636251666667","25.010745","6501800","深坑區"
"231041","002-UM","2017/08/21 18:38:38","新北市新店區安華路28-1號","121.519581666667","24.960675","6500600","新店區"
"231059","046-UY","2017/08/21 18:38:46","新北市新店區安華路28-1號","121.519551666667","24.9608966666667","6500600","新店區"
"231061","047-UY","2017/08/21 18:38:31","新北市新店區安華路28-1號","121.519246666667","24.9609666666667","6500600","新店區"
"231060","106-UY","2017/08/21 18:38:28","新北市新店區安華路28-1號","121.519945","24.9607466666667","6500600","新店區"
"231051","107-UY","2017/08/21 18:38:44","新北市新店區安康路一段355-3號","121.519738333333","24.9617033333333","6500600","新店區"
"231047","108-UY","2017/08/21 18:38:34","新北市新店區安康路一段3-1號","121.535561666667","24.9609883333333","6500600","新店區"
"231052","187-VK","2017/08/21 18:38:42","新北市新店區新烏路一段87巷9號","121.546266666667","24.9420583333333","6500600","新店區"
"231057","256-BX","2017/08/21 18:38:34","新北市新店區新烏路一段215號","121.549261666667","24.9314916666667","6500600","新店區"
"231046","278-BY","2017/08/21 18:38:31","新北市新店區直潭一街14號","121.536071666667","24.94257","6500600","新店區"
"231050","AAD-862","2017/08/21 18:38:37","新北市新店區安華路28-1號","121.51989","24.9611516666667","6500600","新店區"
"231058","3712-VJ","2017/08/21 18:38:43","新北市新店區國校路70號","121.538408333333","24.9531683333333","6500600","新店區"
"231055","3713-VJ","2017/08/21 18:38:37","新北市新店區華興街34號","121.537145","24.9689683333333","6500600","新店區"
"231056","4716-K9","2017/08/21 18:38:45","新北市新店區自立街37號","121.537378333333","24.979685","6500600","新店區"
"231067","4772-VM","2017/08/21 18:38:37","新北市新店區安華路1-1號","121.519118333333","24.96055","6500600","新店區"
"231065","512-UM","2017/08/21 18:38:42","新北市新店區安華路28-1號","121.519136666667","24.9611483333333","6500600","新店區"
"231054","513-UM","2017/08/21 18:38:37","新北市新店區安華路28-1號","121.51963","24.96112","6500600","新店區"
"231042","616-UM","2017/08/21 18:38:44","新北市新店區北新路一段89號","121.538535","24.961695","6500600","新店區"
"231040","619-UM","2017/08/21 18:38:33","新北市新店區安華路28-1號","121.519485","24.9606816666667","6500600","新店區"
"231063","645-TV","2017/08/21 18:38:42","新北市新店區安華路1-1號","121.519671666667","24.9601083333333","6500600","新店區"
"231049","719-UM","2017/08/21 18:38:34","新北市新店區安康路一段126號","121.52679","24.9627283333333","6500600","新店區"
"231064","719-UY","2017/08/21 18:38:43","新北市新店區安康路一段359-27號","121.51892","24.9613183333333","6500600","新店區"
"231062","720-UM","2017/08/21 18:38:38","新北市新店區安華路28-1號","121.519126666667","24.961355","6500600","新店區"
"231044","897-TW","2017/08/21 18:38:38","新北市新店區環河路29巷1號","121.536218333333","24.9611483333333","6500600","新店區"
"231045","898-TW","2017/08/21 18:38:33","新北市新店區安華路28-1號","121.519378333333","24.96078","6500600","新店區"
"231043","899-TW","2017/08/21 18:38:39","新北市新店區安華路28-1號","121.519241666667","24.960875","6500600","新店區"
"231066","AKT-0513","2017/08/21 18:38:36","新北市新店區安華路1-1號","121.519403333333","24.9604766666667","6500600","新店區"
"235064","005-UY","2017/08/21 18:38:41","新北市中和區連城路141號","121.495955","24.9986833333333","6500300","中和區"
"235063","006-UY","2017/08/21 18:38:37","新北市中和區連城路401號","121.486225","24.99593","6500300","中和區"
"235066","031-BX","2017/08/21 18:38:30","新北市中和區水源路26號","121.504418333333","25.0035233333333","6500300","中和區"
"235056","096-UM","2017/08/21 18:38:45","新北市中和區員山路611巷1號","121.477853333333","25.011295","6500300","中和區"
"235039","097-UM","2017/08/21 18:38:39","新北市中和區安平路186號","121.513008333333","24.99907","6500300","中和區"
"235065","098-UM","2017/08/21 18:38:40","新北市中和區莊敬路49巷20弄24號","121.502931666667","25.0056233333333","6500300","中和區"
"235040","150-BY","2017/08/21 18:38:44","新北市中和區宜安路60號","121.511671666667","24.9969266666667","6500300","中和區"
"235058","151-BY","2017/08/21 18:38:38","新北市中和區圓通路332號","121.484375","24.98607","6500300","中和區"
"235055","183-VK","2017/08/21 18:38:45","新北市中和區民生街93-2號","121.46858","25.0047366666667","6500300","中和區"
"235038","185-VK","2017/08/21 18:38:38","新北市中和區立人街14巷40弄7號","121.51904","24.9957883333333","6500300","中和區"
"235049","186-VK","2017/08/21 18:38:35","新北市中和區景安路179號","121.505161666667","24.994075","6500300","中和區"
"235067","255-BX","2017/08/21 18:38:41","新北市中和區新生街38號","121.483201666667","25.003575","6500300","中和區"
"235044","293-VK","2017/08/21 18:38:43","新北市中和區復興路301巷27號","121.50204","24.98966","6500300","中和區"
"235072","301-VK","2017/08/21 18:38:33","新北市中和區連城路97號","121.496503333333","24.9998816666667","6500300","中和區"
"235043","352-BY","2017/08/21 18:38:42","新北市中和區景平路173號","121.51212","24.9925683333333","6500300","中和區"
"235051","376-QA","2017/08/21 18:38:44","新北市中和區興南路二段114巷10弄38號","121.504091666667","24.9849883333333","6500300","中和區"
"235068","377-QA","2017/08/21 18:38:44","新北市中和區板南路202號","121.499418333333","24.99299","6500300","中和區"
"235061","378-QA","2017/08/21 18:38:44","新北市中和區民享街90巷19號","121.474023333333","25.0001033333333","6500300","中和區"
"235050","4979-A6","2017/08/21 18:38:17","新北市中和區忠孝街122-2號","121.512293333333","24.98608","6500300","中和區"
"235069","4980-A6","2017/08/21 18:38:42","新北市中和區連城路65巷15號","121.498055","25.00068","6500300","中和區"
"235042","551-UM","2017/08/21 18:38:36","新北市中和區成功路97巷5弄15號","121.526486666667","24.9921616666667","6500300","中和區"
"235070","558-UM","2017/08/21 18:38:15","新北市中和區南華路37號","121.503243333333","24.996145","6500300","中和區"
"235045","565-BX","2017/08/21 18:38:41","新北市中和區復興路49巷4號","121.504523333333","24.9897433333333","6500300","中和區"
"235054","640-BX","2017/08/21 18:38:45","新北市中和區民享街93巷2號","121.474946666667","25.000455","6500300","中和區"
"235060","647-TV","2017/08/21 18:38:30","新北市中和區中山路二段561號","121.480718333333","25.0056616666667","6500300","中和區"
"235047","732-UM","2017/08/21 18:38:49","新北市中和區南山路320巷10弄2號","121.506985","24.98644","6500300","中和區"
"235046","733-UM","2017/08/21 18:38:29","新北市中和區捷運路129號","121.507153333333","24.9906016666667","6500300","中和區"
"235062","800-TS","2017/08/21 18:38:46","新北市中和區中山路二段312巷14號","121.495293333333","25.0038","6500300","中和區"
"235057","801-TS","2017/08/21 18:38:44","新北市中和區民安街42巷32號","121.479211666667","25.0010833333333","6500300","中和區"
"235041","802-TS","2017/08/21 18:38:30","新北市中和區景安路175-3號","121.505165","24.99416","6500300","中和區"
"235052","805-TS","2017/08/21 18:38:40","新北市中和區興南路三段52巷2-5號","121.494318333333","24.9757683333333","6500300","中和區"
"235048","896-TW","2017/08/21 18:38:34","新北市中和區南山路231號","121.503481666667","24.993225","6500300","中和區"
"235053","900-TW","2017/08/21 18:38:30","新北市土城區延壽路55巷1號","121.469823333333","24.9921533333333","6500300","中和區"
"235037","AAC-213","2017/08/21 18:38:30","新北市中和區景德街82號","121.516456666667","24.9914616666667","6500300","中和區"
"235059","AAC-215","2017/08/21 18:38:25","新北市中和區錦和路350-1號","121.490545","24.9935616666667","6500300","中和區"
"220068","013-TV","2017/08/21 18:38:28","新北市板橋區民生路二段16號","121.472995","25.0164783333333","6500100","板橋區"
"220065","072-UY","2017/08/21 18:38:29","新北市板橋區民生路二段36-1號","121.472615","25.0166416666667","6500100","板橋區"
"220086","073-UY","2017/08/21 18:38:41","新北市板橋區華東街300號","121.452741666667","25.002745","6500100","板橋區"
"226004","205-ST","2017/08/21 18:38:42","新北市平溪區平溪里平溪街56號","121.736256666667","25.027445","6502400","平溪區"
"228003","097-TW","2017/08/21 18:38:40","新北市貢寮區和美里龍洞街46號","121.913823333333","25.1122533333333","6502600","貢寮區"
"228002","585-TW","2017/08/21 18:38:32","新北市貢寮區福隆里東興街6-11號","121.950766666667","25.0210716666667","6502600","貢寮區"
"228001","670-TC","2017/08/21 18:38:35","新北市貢寮區仁理村保健街73號","121.923716666667","25.0517066666667","6502600","貢寮區"
"224010","AGQ-8101","2017/08/21 18:38:24","新北市瑞芳區烏勢巷116號","121.846261666667","25.1080166666667","6501200","瑞芳區"
"224006","676-BX","2017/08/21 18:38:46","新北市瑞芳區明燈路三段84號","121.805765","25.1082733333333","6501200","瑞芳區"
"224002","639-TC","2017/08/21 18:38:42","新北市瑞芳區三爪子坑路64-8號","121.809685","25.1054616666667","6501200","瑞芳區"
"224011","420-VK","2017/08/21 18:38:36","新北市瑞芳區崙頂路3-1號","121.847016666667","25.1047033333333","6501200","瑞芳區"
"224009","285-BY","2017/08/21 18:38:34","新北市瑞芳區五號路308號","121.856855","25.1114433333333","6501200","瑞芳區"
"224008","275-VK","2017/08/21 18:38:40","新北市瑞芳區岳王路162號","121.808","25.1112766666667","6501200","瑞芳區"
"224007","273-VK","2017/08/21 18:38:41","新北市瑞芳區大埔路67巷3-1號","121.764408333333","25.1015816666667","6501200","瑞芳區"
"224005","271-BY","2017/08/21 18:38:31","新北市瑞芳區建基路一段48號","121.81819","25.12684","6501200","瑞芳區"
"227001","642-TC","2017/08/21 17:39:56","新北市雙溪區共和里東榮街52號","121.866303333333","25.0336","6502500","雙溪區"
"227008","400-TW","2017/08/21 18:38:39","新北市雙溪區牡丹里牡丹216號","121.850715","25.05648","6502500","雙溪區"
"253006","032-BX","2017/08/21 18:38:43","新北市石門區楓林28-5號","121.542678333333","25.28985","6502200","石門區"
"253005","295-VK","2017/08/21 18:38:44","新北市石門區石門街3號","121.565855","25.2910866666667","6502200","石門區"
"208002","742-BX","2017/08/21 18:38:38","新北市金山區環金路59號","121.638566666667","25.2174733333333","6502700","金山區"
"208003","665-BX","2017/08/21 18:38:42","新北市金山區中山路276-3號","121.635003333333","25.2243183333333","6502700","金山區"
"208001","761-BX","2017/08/21 18:38:46","新北市金山區文化三路24號","121.635793333333","25.2245316666667","6502700","金山區"
"251004","009-UM","2017/08/21 18:38:42","新北市淡水區中正東路二段161巷8弄13號","121.46191","25.1451016666667","6501000","淡水區"
"251002","012-UM","2017/08/21 18:38:36","新北市淡水區中正東路40號","121.450021666667","25.165295","6501000","淡水區"
"251008","181-VK","2017/08/21 18:38:37","新北市淡水區北投子20號","121.453975","25.1838","6501000","淡水區"
"251013","182-VK","2017/08/21 18:38:24","新北市淡水區小坑子頭5-1號","121.480895","25.2086933333333","6501000","淡水區"
"251010","413-VK","2017/08/21 18:38:34","新北市淡水區沙崙路141號","121.423268333333","25.1829183333333","6501000","淡水區"
"251012","441-VK","2017/08/21 18:38:38","新北市淡水區北新路188號","121.44981","25.1790633333333","6501000","淡水區"
"251015","442-VK","2017/08/21 18:38:43","新北市淡水區興福寮66巷26號","121.486228333333","25.16223","6501000","淡水區"
"251001","559-UM","2017/08/21 18:38:37","新北市淡水區自強路415巷2號","121.465515","25.134235","6501000","淡水區"
"251006","561-UM","2017/08/21 18:38:41","新北市淡水區崁頂27號","121.439848333333","25.193015","6501000","淡水區"
"251011","650-BX","2017/08/21 18:38:41","新北市淡水區鄧公路30巷2弄20號","121.45307","25.1690733333333","6501000","淡水區"
"251003","766-UM","2017/08/21 18:38:46","新北市淡水區北新路69巷52號","121.446836666667","25.1801533333333","6501000","淡水區"
"207003","550-UM","2017/08/21 18:38:40","新北市萬里區大鵬里頂社2-1號","121.660356666667","25.207225","6502800","萬里區"
"207004","225-TW","2017/08/21 18:38:47","新北市萬里區萬里里獅頭路12-4號","121.69263","25.179345","6502800","萬里區"
"252002","178-VK","2017/08/21 18:38:36","新北市三芝區民生街54巷4號","121.503886666667","25.2554616666667","6502100","三芝區"
"252003","249-BX","2017/08/21 18:38:45","新北市三芝區後厝里北勢子54號","121.467285","25.2500866666667","6502100","三芝區"
"252001","292-VK","2017/08/21 18:38:26","新北市三芝區中興街二段56號","121.499605","25.254885","6502100","三芝區"
"237004","078-UY","2017/08/21 18:38:34","新北市三峽區插角82號","121.406176666667","24.8708533333333","6500900","三峽區"
"237007","153-BY","2017/08/21 18:38:40","新北市三峽區柑樹路6巷3號","121.362883333333","24.905385","6500900","三峽區"
"237009","210-TH","2017/08/21 18:38:32","新北市三峽區大同路240巷45弄2號","121.365491666667","24.9262483333333","6500900","三峽區"
"237013","252-BX","2017/08/21 18:38:38","新北市三峽區光明路69巷25號","121.37673","24.9292533333333","6500900","三峽區"
"237012","275-BY","2017/08/21 18:38:30","新北市三峽區三樹路236-1號","121.379276666667","24.9430066666667","6500900","三峽區"
"237008","302-VK","2017/08/21 18:38:43","新北市三峽區白雞77號","121.402458333333","24.9101533333333","6500900","三峽區"
"237014","433-BY","2017/08/21 18:38:33","新北市三峽區和平街67號","121.37008","24.9368233333333","6500900","三峽區"
"237006","5529-G3","2017/08/21 18:38:42","新北市三峽區溪東路315巷26號","121.411033333333","24.9310383333333","6500900","三峽區"
"237011","572-TV","2017/08/21 18:38:42","新北市三峽區溪東路203號","121.404363333333","24.9334866666667","6500900","三峽區"
"237015","649-BX","2017/08/21 18:38:41","新北市三峽區竹崙路90-1號","121.432536666667","24.918","6500900","三峽區"
"237010","706-TV","2017/08/21 18:38:42","新北市三峽區復興路323號","121.364821666667","24.93876","6500900","三峽區"
"237005","AKY-6261","2017/08/21 18:38:43","新北市三峽區民生街151巷6號","121.373286666667","24.9347533333333","6500900","三峽區"
"236069","105-UM","2017/08/21 18:38:33","新北市土城區永豐路157巷29弄6-1號","121.46839","24.9815116666667","6501300","土城區"
"236042","107-UM","2017/08/21 18:38:39","新北市土城區學成路108巷11號","121.450233333333","24.9897066666667","6501300","土城區"
"236078","166-UM","2017/08/21 18:38:30","新北市土城區大暖路9號","121.422615","24.9612566666667","6501300","土城區"
"236030","253-BX","2017/08/21 18:38:36","新北市土城區福仁街77號","121.439338333333","24.97421","6501300","土城區"
"236026","269-VK","2017/08/21 18:38:39","新北市土城區千歲路26號","121.441745","24.9688416666667","6501300","土城區"
"236014","270-VK","2017/08/21 18:38:31","新北市土城區青雲路183巷2號","121.45934","24.9827283333333","6501300","土城區"
"236036","271-VK","2017/08/21 18:38:37","新北市土城區明德路一段313巷11弄3號","121.459993333333","24.9758983333333","6501300","土城區"
"236020","401-BY","2017/08/21 18:38:42","新北市土城區延吉街311號","121.465966666667","24.9843483333333","6501300","土城區"
"236058","912-UM","2017/08/21 18:38:45","新北市土城區中央路四段59號","121.417371666667","24.95835","6501300","土城區"
"236048","913-UM","2017/08/21 18:38:41","新北市土城區明德路一段36號","121.465228333333","24.9845566666667","6501300","土城區"
"236062","915-UM","2017/08/21 18:38:46","新北市土城區延壽路55巷9弄4號","121.469595","24.99162","6501300","土城區"
"236053","AAC-216","2017/08/21 18:38:36","新北市土城區中華路一段95號","121.444755","24.98726","6501300","土城區"
"242046","441-UM","2017/08/21 18:38:33","新北市新莊區中正路829巷22弄47號","121.420495","25.0265383333333","6500500","新莊區"
"242002","413-TV","2017/08/21 18:38:38","新北市新莊區新泰路357巷3弄55號","121.441815","25.039765","6500500","新莊區"
"242060","362-BY","2017/08/21 18:38:37","新北市新莊區民安路157號","121.42563","25.0235","6500500","新莊區"
"242044","347-TH","2017/08/21 18:38:35","新北市新莊區中正路692-8號","121.419763333333","25.0282666666667","6500500","新莊區"
"238015","755-BX","2017/08/21 18:38:30","新北市樹林區大安路571號","121.411978333333","24.9836266666667","6500700","樹林區"
"238023","601-UM","2017/08/21 18:38:35","新北市樹林區三福街114號","121.406448333333","25.01624","6500700","樹林區"
"238019","599-UM","2017/08/21 18:38:33","新北市樹林區中華路190號","121.411921666667","24.98048","6500700","樹林區"
"238018","571-TV","2017/08/21 18:38:42","新北市樹林區樹新路50巷5弄28號","121.429495","24.9968016666667","6500700","樹林區"
"238025","303-VK","2017/08/21 18:38:41","新北市樹林區中山路三段22號","121.395673333333","24.97302","6500700","樹林區"
"238020","268-VK","2017/08/21 01:56:53","新北市樹林區中山路三段204號","121.386786666667","24.968345","6500700","樹林區"
"238026","172-UY","2017/08/21 18:38:26","新北市樹林區中山路三段186號","121.387501666667","24.969205","6500700","樹林區"
"238016","169-UY","2017/08/21 18:38:42","新北市樹林區文化街28號","121.419286666667","24.9877966666667","6500700","樹林區"
"239007","AAC-297","2017/08/21 18:38:43","新北市鶯歌區中正一路建德巷38號","121.364505","24.9578083333333","6500800","鶯歌區"
"239008","527-UM","2017/08/21 18:38:48","新北市鶯歌區國際一路179號","121.336218333333","24.97653","6500800","鶯歌區"
"239005","526-UM","2017/08/21 18:38:47","新北市鶯歌區鳳吉三街31巷1號","121.327463333333","24.9740433333333","6500800","鶯歌區"
"239001","417-VK","2017/08/21 18:38:47","新北市鶯歌區二橋街52號","121.336735","24.9388866666667","6500800","鶯歌區"
"239003","360-BY","2017/08/21 18:38:47","新北市鶯歌區永和街114號","121.334428333333","24.9690116666667","6500800","鶯歌區"
"239004","193-VK","2017/08/21 18:38:37","新北市鶯歌區尖山路卓厝巷1-3號","121.341568333333","24.946295","6500800","鶯歌區"
"221008","489-VK","2017/08/21 18:38:34","新北市汐止區康寧街901號","121.651373333333","25.0750316666667","6501100","汐止區"
"221036","130-UY","2017/08/21 18:38:40","新北市汐止區信義路1號","121.662603333333","25.0692283333333","6501100","汐止區"
"221015","131-UY","2017/08/21 18:38:35","新北市汐止區吉祥街12巷4-1號","121.668466666667","25.080265","6501100","汐止區"
"221031","277-VK","2017/08/21 18:38:32","新北市汐止區光復街7巷34號","121.64096","25.0600316666667","6501100","汐止區"
"221012","278-VK","2017/08/21 18:38:33","新北市汐止區鄉長路一段297號","121.669413333333","25.0792516666667","6501100","汐止區"
"221023","279-VK","2017/08/21 18:38:30","新北市汐止區明峰街20號","121.634653333333","25.0714833333333","6501100","汐止區"
"221032","280-BY","2017/08/21 18:38:46","新北市汐止區民權街二段93號","121.619013333333","25.0474716666667","6501100","汐止區"
"221027","281-BY","2017/08/21 18:38:35","新北市汐止區和平街13號","121.66303","25.070695","6501100","汐止區"
"221038","297-VK","2017/08/21 18:38:45","新北市汐止區秀峰路6巷2號","121.659181666667","25.0666566666667","6501100","汐止區"
"221029","298-VK","2017/08/21 18:38:42","新北市汐止區樟樹一路131號","121.64219","25.0650266666667","6501100","汐止區"
"221021","299-VK","2017/08/21 18:38:45","新北市汐止區水源路一段111號","121.656555","25.0630716666667","6501100","汐止區"
"221035","622-UM","2017/08/21 18:38:48","新北市汐止區大同路二段266號","121.65451","25.0662583333333","6501100","汐止區"
"221025","623-UM","2017/08/21 18:38:37","新北市汐止區仁愛路121巷1號","121.66279","25.06393","6501100","汐止區"
"221010","646-BX","2017/08/21 18:38:38","新北市汐止區瑞松街10號","121.645141666667","25.1048716666667","6501100","汐止區"
"221033","647-BX","2017/08/21 18:38:42","新北市汐止區宜興街53號","121.622548333333","25.0427166666667","6501100","汐止區"
"221002","707-TV","2017/08/21 18:38:48","新北市汐止區中興路31-3號","121.636291666667","25.0602683333333","6501100","汐止區"
"221018","753-BX","2017/08/21 18:38:33","新北市汐止區茄苳路250巷30號","121.671828333333","25.0675633333333","6501100","汐止區"
"220079","145-BY","2017/08/21 18:38:44","新北市板橋區大觀路二段力行3巷77-6號","121.448055","24.9988383333333","6500100","板橋區"
"220080","200-UY","2017/08/21 18:38:36","新北市板橋區華東街1-9號","121.448191666667","24.994885","6500100","板橋區"
"220082","610-BX","2017/08/21 18:38:45","新北市板橋區華東街1-10號","121.448275","24.9949333333333","6500100","板橋區"
"220075","256-TC","2017/08/21 18:38:42","新北市板橋區華東街1-9號","121.448115","24.9948483333333","6500100","板橋區"
"220094","267-BY","2017/08/21 18:38:29","新北市板橋區民生路二段161巷1號","121.470063333333","25.0201616666667","6500100","板橋區"
"220056","276-BY","2017/08/21 18:38:44","新北市板橋區四川路二段59號","121.453525","24.9951833333333","6500100","板橋區"
"220072","277-BY","2017/08/21 18:38:34","新北市板橋區華東街1-10號","121.448303333333","24.9950866666667","6500100","板橋區"
"220071","283-VK","2017/08/21 18:38:26","新北市板橋區民生路二段17號","121.472438333333","25.0164833333333","6500100","板橋區"
"220053","285-VK","2017/08/21 18:38:49","新北市新莊區中正路育農巷23號","121.45799","25.038565","6500100","板橋區"
"220081","287-VK","2017/08/21 18:38:38","新北市板橋區華東街1-10號","121.44824","24.995035","6500100","板橋區"
"220061","293-UM","2017/08/21 18:38:45","新北市板橋區民生路二段56-1號","121.47235","25.01703","6500100","板橋區"
"220084","296-UM","2017/08/21 18:38:29","新北市板橋區華東街1-9號","121.448115","24.9949683333333","6500100","板橋區"
"220062","303-R5","2017/08/21 18:38:46","新北市板橋區民生路二段36-1號","121.47245","25.016695","6500100","板橋區"
"220064","486-VK","2017/08/21 17:01:14","新北市板橋區民生路二段36-1號","121.472536666667","25.016615","6500100","板橋區"
"220035","560-BX","2017/08/21 18:38:48","新北市板橋區南雅西路二段145巷6號","121.451588333333","25.0118616666667","6500100","板橋區"
"220057","686-BX","2017/08/21 18:38:39","新北市板橋區民生路二段36-1號","121.472548333333","25.01668","6500100","板橋區"
"220077","687-BX","2017/08/21 18:38:45","新北市板橋區華東街1-10號","121.448303333333","24.99497","6500100","板橋區"
"220054","741-BX","2017/08/21 18:38:39","新北市板橋區民生路二段22號","121.472698333333","25.016585","6500100","板橋區"
"220074","895-R6","2017/08/21 18:38:33","新北市板橋區華東街1-9號","121.448173333333","24.99498","6500100","板橋區"
"220073","985-R7","2017/08/21 18:38:28","新北市板橋區華東街1-10號","121.44834","24.99492","6500100","板橋區"
"220097","AAC-210","2017/08/21 18:38:35","新北市板橋區民生路二段161巷1號","121.469965","25.0199583333333","6500100","板橋區"
"220070","AAC-253","2017/08/21 18:38:34","新北市板橋區民生路二段36-1號","121.472618333333","25.01668","6500100","板橋區"
