"lineid","car","time","location","longitude","latitude","cityid","cityname"
"234046","148-BY","2017/08/21 18:48:44","新北市永和區得和路373巷31弄12號","121.524428333333","25.00047","6500400","永和區"
"234013","149-BY","2017/08/21 18:48:45","新北市永和區保福路二段133巷1號","121.509625","25.01377","6500400","永和區"
"234007","207-UY","2017/08/21 18:48:36","新北市永和區文化路114號","121.513316666667","25.0152816666667","6500400","永和區"
"234081","298-R6","2017/08/21 18:48:34","新北市永和區永利路81巷5號","121.52157","25.0040033333333","6500400","永和區"
"234038","336-UY","2017/08/21 18:48:38","新北市永和區成功路二段77號","121.526858333333","24.9994883333333","6500400","永和區"
"234064","337-UY","2017/08/21 18:48:39","新北市永和區環河東路二段92號","121.524418333333","25.010605","6500400","永和區"
"234086","338-UY","2017/08/21 18:48:39","新北市永和區中正路78號","121.51367","24.9952066666667","6500400","永和區"
"234054","553-UM","2017/08/21 18:48:32","新北市永和區竹林路64號","121.518178333333","25.0135433333333","6500400","永和區"
"234017","745-BX","2017/08/21 18:48:47","新北市永和區忠孝街26巷8號","121.515385","25.01673","6500400","永和區"
"234030","746-BX","2017/08/21 18:48:34","新北市永和區得和路327號","121.523475","24.9996733333333","6500400","永和區"
"234061","AAD-866","2017/08/21 18:48:37","新北市永和區福和路311-1號","121.516246666667","25.00699","6500400","永和區"
"234070","847-RS","2017/08/21 18:48:37","新北市永和區中興街100號","121.51905","25.0120816666667","6500400","永和區"
"234042","862-TW","2017/08/21 18:48:42","新北市永和區永貞路267號","121.511905","25.0047433333333","6500400","永和區"
"234050","863-TW","2017/08/21 18:48:47","新北市永和區保安路2號","121.510875","25.017455","6500400","永和區"
"234011","9373-KE","2017/08/21 18:48:36","新北市永和區文化路126巷15弄2號","121.513085","25.0158383333333","6500400","永和區"
"249005","172-UM","2017/08/21 18:48:40","新北市八里區長道坑17號","121.39627","25.1155616666667","6502300","八里區"
"249001","173-UM","2017/08/21 18:48:35","新北市八里區龍米路二段16號","121.448955","25.139165","6502300","八里區"
"249004","303-UY","2017/08/21 18:48:43","新北市八里區中山路一段268巷2號","121.414233333333","25.160095","6502300","八里區"
"248016","026-BX","2017/08/21 18:48:35","新北市五股區凌雲路一段149巷13-1號","121.448588333333","25.1008833333333","6501500","五股區"
"248006","077-UY","2017/08/21 18:48:41","新北市五股區四維路38號","121.467276666667","25.0716533333333","6501500","五股區"
"248008","095-VK","2017/08/21 18:48:32","新北市五股區中興路一段147號","121.465193333333","25.07358","6501500","五股區"
"248018","225-UY","2017/08/21 18:48:42","新北市五股區民義路二段85號","121.408283333333","25.10611","6501500","五股區"
"248012","247-BX","2017/08/21 18:48:26","新北市五股區成泰路二段147巷34-6號","121.436523333333","25.08886","6501500","五股區"
"248014","261-SL","2017/08/21 18:48:37","新北市五股區民義路一段107巷21號","121.432928333333","25.0849983333333","6501500","五股區"
"248010","272-BY","2017/08/21 18:48:46","新北市五股區水碓九路35號","121.42875","25.0720333333333","6501500","五股區"
"248004","677-BX","2017/08/21 18:48:36","新北市五股區民義路二段12-1號","121.421033333333","25.0963233333333","6501500","五股區"
"248002","678-BX","2017/08/21 18:48:30","新北市五股區成泰路三段449號","121.450203333333","25.0980216666667","6501500","五股區"
"234023","9380-KE","2017/08/21 18:48:43","新北市永和區竹林路119巷22弄17號","121.52162","25.0115166666667","6500400","永和區"
"234077","969-R7","2017/08/21 18:48:42","新北市永和區中正路2巷29弄2-2號","121.513873333333","24.993815","6500400","永和區"
"234074","AAC-211","2017/08/21 18:48:37","新北市永和區福和路1號","121.526616666667","25.0099483333333","6500400","永和區"
"234067","AAC-212","2017/08/21 18:48:43","新北市永和區永和路一段22號","121.513053333333","25.0047583333333","6500400","永和區"
"234003","AAC-295","2017/08/21 18:48:37","新北市永和區中正路610-1號","121.517058333333","25.0072633333333","6500400","永和區"
"232011","375-UM","2017/08/21 18:48:37","新北市坪林區坪雙路一段21號","121.711763333333","24.9411583333333","6502000","坪林區"
"244007","080-UY","2017/08/21 18:48:31","新北市林口區太平里22號","121.376415","25.1158033333333","6501700","林口區"
"244019","403-UM","2017/08/21 18:48:36","新北市林口區忠孝路594巷16號","121.375983333333","25.0673383333333","6501700","林口區"
"244009","410-SL","2017/08/21 18:48:40","新北市林口區寶林路105號","121.383638333333","25.0851733333333","6501700","林口區"
"244023","483-VK","2017/08/21 14:49:08","新北市林口區粉寮69號","121.40498","25.09086","6501700","林口區"
"244017","656-BX","2017/08/21 18:48:37","新北市林口區文化二路一段20巷7號","121.365168333333","25.0672383333333","6501700","林口區"
"244023","657-BX","2017/08/21 18:48:41","新北市林口區民權路151號","121.373773333333","25.083455","6501700","林口區"
"244013","658-BX","2017/08/21 18:48:29","新北市林口區文化一路二段92號","121.382051666667","25.0785533333333","6501700","林口區"
"244011","701-TV","2017/08/21 18:48:30","新北市林口區粉寮路一段5號","121.396236666667","25.07603","6501700","林口區"
"244025","837-TS","2017/08/21 18:48:38","新北市林口區南勢一街6號","121.360476666667","25.0748033333333","6501700","林口區"
"243013","AAD-798","2017/08/21 18:48:37","新北市泰山區明志路三段206巷3號","121.42331","25.0379283333333","6501600","泰山區"
"243015","380-SR","2017/08/21 18:48:31","新北市泰山區美寧街54號","121.4305","25.064565","6501600","泰山區"
"243010","548-UM","2017/08/21 18:48:47","新北市泰山區黎明路37號","121.421425","25.059815","6501600","泰山區"
"243012","646-TV","2017/08/21 18:48:41","新北市泰山區泰林路二段73巷33號","121.434283333333","25.0578816666667","6501600","泰山區"
"243016","680-BX","2017/08/21 18:48:30","新北市泰山區明志路一段408號","121.430778333333","25.0570533333333","6501600","泰山區"
"222003","436-BY","2017/08/21 18:48:35","新北市深坑區翠谷街17巷36號","121.625516666667","25.0098766666667","6501800","深坑區"
"222002","659-BX","2017/08/21 18:48:33","新北市深坑區文山路一段64號","121.623586666667","25.0007066666667","6501800","深坑區"
"222001","696-SL","2017/08/21 18:48:41","新北市深坑區松柏街30巷1號","121.638663333333","25.0112516666667","6501800","深坑區"
"231041","002-UM","2017/08/21 18:48:38","新北市新店區安華路28-1號","121.519673333333","24.960745","6500600","新店區"
"231059","046-UY","2017/08/21 18:48:26","新北市新店區安華路28-1號","121.519533333333","24.9607183333333","6500600","新店區"
"231061","047-UY","2017/08/21 18:48:31","新北市新店區安忠路57巷26弄62號","121.51192","24.9568666666667","6500600","新店區"
"231060","106-UY","2017/08/21 18:48:28","新北市新店區安華路28-1號","121.519945","24.9606983333333","6500600","新店區"
"231051","107-UY","2017/08/21 18:48:44","新北市新店區環河路114巷4-1號","121.537043333333","24.9647133333333","6500600","新店區"
"231047","108-UY","2017/08/21 18:48:34","新北市新店區德正街21巷2號","121.543976666667","24.9721366666667","6500600","新店區"
"231052","187-VK","2017/08/21 18:48:42","新北市新店區新烏路一段87巷63號","121.546258333333","24.9412066666667","6500600","新店區"
"231046","278-BY","2017/08/21 18:48:31","新北市新店區直潭路41號","121.533716666667","24.942545","6500600","新店區"
"231050","AAD-862","2017/08/21 18:48:37","新北市新店區安康路一段79巷3號","121.529956666667","24.961195","6500600","新店區"
"231058","3712-VJ","2017/08/21 18:48:31","新北市新店區北宜路一段109巷18-1號","121.540833333333","24.9550433333333","6500600","新店區"
"231055","3713-VJ","2017/08/21 18:48:37","新北市新店區新生街12號","121.540095","24.9661666666667","6500600","新店區"
"231056","4716-K9","2017/08/21 18:48:46","新北市新店區建國路194號","121.537766666667","24.98037","6500600","新店區"
"231067","4772-VM","2017/08/21 18:48:37","新北市新店區安康路一段76巷28-2號","121.528176666667","24.963075","6500600","新店區"
"231065","512-UM","2017/08/21 18:45:55","新北市新店區安康路二段362號","121.501755","24.95742","6500600","新店區"
"231054","513-UM","2017/08/21 18:48:37","新北市新店區環河路2號","121.538455","24.961765","6500600","新店區"
"231042","616-UM","2017/08/21 18:48:44","新北市新店區北新路一段126巷27號","121.543218333333","24.9695383333333","6500600","新店區"
"231040","619-UM","2017/08/21 18:48:33","新北市新店區環河路100號","121.536888333333","24.9639533333333","6500600","新店區"
"231063","645-TV","2017/08/21 18:48:42","新北市新店區車子路109號","121.50524","24.9521","6500600","新店區"
"231049","719-UM","2017/08/21 18:48:34","新北市新店區中正路454-5號","121.534448333333","24.97901","6500600","新店區"
"231064","719-UY","2017/08/21 18:48:43","新北市新店區安華路28-1號","121.51948","24.9611416666667","6500600","新店區"
"231062","720-UM","2017/08/21 18:48:38","新北市新店區安忠路81巷6號","121.51159","24.9566933333333","6500600","新店區"
"231044","897-TW","2017/08/21 18:48:38","新北市新店區寶中路49-1號","121.546218333333","24.9796966666667","6500600","新店區"
"231045","898-TW","2017/08/21 18:48:33","新北市新店區安華路28-1號","121.519611666667","24.9612766666667","6500600","新店區"
"231043","899-TW","2017/08/21 18:48:39","新北市新店區安康路一段201-1號","121.526191666667","24.9629416666667","6500600","新店區"
"231066","AKT-0513","2017/08/21 18:48:36","新北市新店區安豐路22巷5-4號","121.50174","24.95595","6500600","新店區"
"235064","005-UY","2017/08/21 18:48:40","新北市中和區連城路109巷23號","121.49684","24.99877","6500300","中和區"
"235063","006-UY","2017/08/21 18:46:54","新北市中和區連城路347巷4弄23號","121.487255","24.995575","6500300","中和區"
"235066","031-BX","2017/08/21 18:48:30","新北市中和區水源路18巷9號","121.503985","25.0028983333333","6500300","中和區"
"235056","096-UM","2017/08/21 18:48:45","新北市中和區員山路611巷1號","121.477826666667","25.01136","6500300","中和區"
"235039","097-UM","2017/08/21 18:48:39","新北市永和區中正路5號","121.513798333333","24.9956383333333","6500300","中和區"
"235065","098-UM","2017/08/21 18:48:40","新北市中和區莊敬路33巷22弄8號","121.500728333333","25.0063916666667","6500300","中和區"
"235040","150-BY","2017/08/21 18:48:44","新北市中和區安平路78-1號","121.511278333333","24.9965133333333","6500300","中和區"
"235058","151-BY","2017/08/21 18:48:38","新北市中和區連城路532號","121.475723333333","24.9915683333333","6500300","中和區"
"235055","183-VK","2017/08/21 18:48:44","新北市中和區民生街21-4號","121.4709","25.0056433333333","6500300","中和區"
"235038","185-VK","2017/08/21 18:48:38","新北市中和區自強路62巷7號","121.519418333333","24.994515","6500300","中和區"
"235049","186-VK","2017/08/21 18:48:35","新北市中和區景安路163號","121.505281666667","24.9945783333333","6500300","中和區"
"235067","255-BX","2017/08/21 18:48:41","新北市中和區中正路877巷2-2號","121.484203333333","25.0039816666667","6500300","中和區"
"235044","293-VK","2017/08/21 18:48:43","新北市中和區復興路280巷19號","121.502251666667","24.9915083333333","6500300","中和區"
"235072","301-VK","2017/08/21 18:48:33","新北市中和區中山路二段131-6號","121.50231","25.0031483333333","6500300","中和區"
"235043","352-BY","2017/08/21 18:48:42","新北市中和區成功路139號","121.52604","24.9904733333333","6500300","中和區"
"235051","376-QA","2017/08/21 18:48:45","新北市中和區華新街143巷60號","121.506093333333","24.979425","6500300","中和區"
"235068","377-QA","2017/08/21 18:48:44","新北市中和區中正路211巷13弄5號","121.49703","24.9930433333333","6500300","中和區"
"235061","378-QA","2017/08/21 18:48:38","新北市中和區民享街30巷4號","121.473641666667","25.0035233333333","6500300","中和區"
"235050","4979-A6","2017/08/21 18:48:37","新北市中和區忠孝街62巷46號","121.513165","24.98389","6500300","中和區"
"235069","4980-A6","2017/08/21 18:48:42","新北市中和區南山路50號","121.501956666667","24.997535","6500300","中和區"
"235042","551-UM","2017/08/21 18:48:36","新北市中和區秀朗路三段175巷9號","121.52522","24.9915333333333","6500300","中和區"
"235070","558-UM","2017/08/21 18:48:35","新北市中和區南山路167號","121.502921666667","24.9953166666667","6500300","中和區"
"235045","565-BX","2017/08/21 18:48:41","新北市中和區南山路206號","121.506145","24.99032","6500300","中和區"
"235054","640-BX","2017/08/21 18:48:32","新北市中和區民享街54巷1號","121.473791666667","25.0023816666667","6500300","中和區"
"235060","647-TV","2017/08/21 18:48:30","新北市中和區中山路三段19號","121.479431666667","25.0060116666667","6500300","中和區"
"235047","732-UM","2017/08/21 18:48:29","新北市中和區興南路二段74巷10號","121.505123333333","24.9849033333333","6500300","中和區"
"235046","733-UM","2017/08/21 18:48:29","新北市中和區仁愛街36巷44號","121.511365","24.9862733333333","6500300","中和區"
"235062","800-TS","2017/08/21 18:48:26","新北市中和區中山路二段280號","121.49641","25.002455","6500300","中和區"
"235057","801-TS","2017/08/21 18:48:31","新北市中和區民安街22巷8-1號","121.480206666667","25.0010183333333","6500300","中和區"
"235041","802-TS","2017/08/21 18:48:30","新北市中和區宜安路161號","121.508863333333","24.9989683333333","6500300","中和區"
"235052","805-TS","2017/08/21 18:48:40","新北市中和區興南路二段399巷98弄11號","121.499951666667","24.9773766666667","6500300","中和區"
"235048","896-TW","2017/08/21 18:48:34","新北市中和區南山路300號","121.507911666667","24.9871516666667","6500300","中和區"
"235053","900-TW","2017/08/21 18:48:30","新北市中和區華福街6號","121.465441666667","24.9967566666667","6500300","中和區"
"235037","AAC-213","2017/08/21 18:48:30","新北市中和區景平路2號","121.52464","24.9902816666667","6500300","中和區"
"235059","AAC-215","2017/08/21 18:48:47","新北市中和區圓通路391-1號","121.490016666667","24.9891666666667","6500300","中和區"
"220068","013-TV","2017/08/21 18:48:28","新北市板橋區民生路二段36-1號","121.472545","25.01661","6500100","板橋區"
"220065","072-UY","2017/08/21 18:48:29","新北市板橋區民生路二段36-1號","121.472521666667","25.016725","6500100","板橋區"
"220086","073-UY","2017/08/21 18:48:41","新北市板橋區南雅西路二段184號","121.451578333333","25.0142066666667","6500100","板橋區"
"220106","075-UY","2017/08/21 18:48:40","新北市板橋區民生路二段120號","121.470308333333","25.0197083333333","6500100","板橋區"
"220069","AAD-861","2017/08/21 18:48:40","新北市板橋區中山路二段23號","121.472293333333","25.0153266666667","6500100","板橋區"
"220102","120-SR","2017/08/21 18:48:39","新北市板橋區民生路二段120號","121.470503333333","25.01956","6500100","板橋區"
"226004","205-ST","2017/08/21 18:48:42","新北市平溪區平溪里平溪街42號","121.738586666667","25.0261466666667","6502400","平溪區"
"228003","097-TW","2017/08/21 18:48:40","新北市貢寮區和美里龍洞街40號","121.914015","25.112215","6502600","貢寮區"
"228002","585-TW","2017/08/21 18:48:32","新北市貢寮區福隆里東興街6-11號","121.950756666667","25.02109","6502600","貢寮區"
"228001","670-TC","2017/08/21 18:48:35","新北市貢寮區仁理村研海街12-1號","121.923758333333","25.0516533333333","6502600","貢寮區"
"224006","676-BX","2017/08/21 18:48:46","新北市瑞芳區明燈路三段85號","121.804963333333","25.1082433333333","6501200","瑞芳區"
"224002","639-TC","2017/08/21 18:48:42","新北市瑞芳區靜安路四段56巷6號","121.793638333333","25.1025666666667","6501200","瑞芳區"
"224011","420-VK","2017/08/21 18:48:36","新北市瑞芳區崙頂路1-6號","121.84706","25.1047233333333","6501200","瑞芳區"
"224009","285-BY","2017/08/21 18:48:34","新北市瑞芳區祈堂路2號","121.859733333333","25.1117216666667","6501200","瑞芳區"
"224008","275-VK","2017/08/21 18:48:46","新北市瑞芳區裕民新城6號","121.80153","25.1118883333333","6501200","瑞芳區"
"224007","273-VK","2017/08/21 18:48:44","新北市瑞芳區大埔路80號","121.762315","25.1012466666667","6501200","瑞芳區"
"224005","271-BY","2017/08/21 18:48:31","新北市瑞芳區建基路一段4號","121.82057","25.1208733333333","6501200","瑞芳區"
"227001","642-TC","2017/08/21 17:39:56","新北市雙溪區共和里東榮街52號","121.866303333333","25.0336","6502500","雙溪區"
"227008","400-TW","2017/08/21 18:48:32","新北市雙溪區牡丹里聖南26號","121.856623333333","25.0530933333333","6502500","雙溪區"
"253006","032-BX","2017/08/21 18:48:43","新北市石門區下員坑28-6號","121.517031666667","25.283045","6502200","石門區"
"253005","295-VK","2017/08/21 18:48:35","新北市石門區中山路28-3號","121.565791666667","25.2899283333333","6502200","石門區"
"208002","742-BX","2017/08/21 18:48:38","新北市金山區信義路60號","121.635716666667","25.2190166666667","6502700","金山區"
"208003","665-BX","2017/08/21 18:48:42","新北市金山區中山路346號","121.633465","25.2253666666667","6502700","金山區"
"208001","761-BX","2017/08/21 18:48:33","新北市金山區文化三路66巷2弄1號","121.634305","25.2256866666667","6502700","金山區"
"251004","009-UM","2017/08/21 18:48:42","新北市淡水區中正東路二段143巷2弄1號","121.460573333333","25.1473166666667","6501000","淡水區"
"251002","012-UM","2017/08/21 18:48:36","新北市淡水區學府路71號","121.448458333333","25.1698366666667","6501000","淡水區"
"251013","182-VK","2017/08/21 18:48:45","新北市淡水區安子內5號","121.483928333333","25.21466","6501000","淡水區"
"251010","413-VK","2017/08/21 18:48:34","新北市淡水區沙崙路17號","121.421226666667","25.18135","6501000","淡水區"
"251012","441-VK","2017/08/21 18:48:38","新北市淡水區北新路2號","121.444331666667","25.1776533333333","6501000","淡水區"
"251015","442-VK","2017/08/21 18:48:43","新北市淡水區興福寮100號","121.486801666667","25.1643083333333","6501000","淡水區"
"251001","559-UM","2017/08/21 18:48:37","新北市淡水區自強路108-17號","121.461706666667","25.1308616666667","6501000","淡水區"
"251011","650-BX","2017/08/21 18:48:41","新北市淡水區鄧公路19-1號","121.450323333333","25.17005","6501000","淡水區"
"251003","766-UM","2017/08/21 18:48:46","新北市淡水區中山北路一段151號","121.443098333333","25.177335","6501000","淡水區"
"207003","550-UM","2017/08/21 18:48:40","新北市萬里區大鵬里頂社24-5號","121.65853","25.2085766666667","6502800","萬里區"
"207004","225-TW","2017/08/21 18:48:47","新北市萬里區萬里里獅頭路23號","121.693185","25.1782533333333","6502800","萬里區"
"252002","178-VK","2017/08/21 18:48:46","新北市三芝區中正路一段77號","121.504226666667","25.2570133333333","6502100","三芝區"
"252003","249-BX","2017/08/21 18:48:45","新北市三芝區後厝里大片頭85-9號","121.458588333333","25.2436583333333","6502100","三芝區"
"252001","292-VK","2017/08/21 18:48:46","新北市三芝區中正路三段9號","121.502961666667","25.2539866666667","6502100","三芝區"
"237004","078-UY","2017/08/21 18:48:34","新北市三峽區有木24號","121.42725","24.8629966666667","6500900","三峽區"
"237007","153-BY","2017/08/21 18:48:40","新北市三峽區大埔路305號","121.368628333333","24.902675","6500900","三峽區"
"237009","210-TH","2017/08/21 18:48:32","新北市三峽區民權街200號","121.367633333333","24.9291516666667","6500900","三峽區"
"237013","252-BX","2017/08/21 18:48:38","新北市三峽區光明路69巷27號","121.376735","24.9293383333333","6500900","三峽區"
"237012","275-BY","2017/08/21 18:48:31","新北市三峽區三樹路358號","121.383975","24.9433583333333","6500900","三峽區"
"237008","302-VK","2017/08/21 18:48:43","新北市三峽區白雞33-60號","121.370918333333","24.9131316666667","6500900","三峽區"
"237014","433-BY","2017/08/21 18:48:33","新北市三峽區復興路480巷32-2號","121.359718333333","24.9400983333333","6500900","三峽區"
"237006","5529-G3","2017/08/21 18:48:42","新北市三峽區溪東路233巷4弄19號","121.407266666667","24.93376","6500900","三峽區"
"237011","572-TV","2017/08/21 18:48:42","新北市三峽區介壽路三段112號","121.397238333333","24.94143","6500900","三峽區"
"237015","649-BX","2017/08/21 18:48:41","新北市三峽區安坑1-2號","121.434911666667","24.9244266666667","6500900","三峽區"
"237010","706-TV","2017/08/21 18:48:42","新北市三峽區復興路239號","121.367806666667","24.938925","6500900","三峽區"
"237005","AKY-6261","2017/08/21 18:48:43","新北市三峽區新興街13號","121.372705","24.9356133333333","6500900","三峽區"
"236069","105-UM","2017/08/21 18:48:33","新北市土城區明德路一段51號","121.465201666667","24.98491","6501300","土城區"
"236042","107-UM","2017/08/21 18:48:39","新北市土城區裕民路92巷25弄6號","121.449675","24.9858316666667","6501300","土城區"
"236078","166-UM","2017/08/21 18:48:47","新北市土城區中央路四段125巷2弄1號","121.416716666667","24.9571333333333","6501300","土城區"
"236030","253-BX","2017/08/21 18:48:36","新北市土城區忠義路26巷19號","121.439768333333","24.9698466666667","6501300","土城區"
"236026","269-VK","2017/08/21 18:48:39","新北市土城區農豐街10號","121.442715","24.9743283333333","6501300","土城區"
"236014","270-VK","2017/08/21 18:48:31","新北市土城區清水路235巷3弄2號","121.460991666667","24.9834233333333","6501300","土城區"
"236036","271-VK","2017/08/21 18:48:37","新北市土城區明德路一段219號","121.463216666667","24.978495","6501300","土城區"
"236020","401-BY","2017/08/21 18:48:42","新北市土城區延安街35巷2號","121.468065","24.98424","6501300","土城區"
"236058","912-UM","2017/08/21 18:48:45","新北市土城區中央路三段161號","121.431876666667","24.965355","6501300","土城區"
"236048","913-UM","2017/08/21 18:48:41","新北市土城區廣福街68巷18弄1號","121.459411666667","24.99045","6501300","土城區"
"236062","915-UM","2017/08/21 18:48:45","新北市土城區延和路248-1號","121.469708333333","24.989775","6501300","土城區"
"236053","AAC-216","2017/08/21 18:48:36","新北市土城區裕民路142號","121.451796666667","24.9861266666667","6501300","土城區"
"242002","413-TV","2017/08/21 18:48:38","新北市新莊區新泰路357巷3弄57號","121.441908333333","25.0392216666667","6500500","新莊區"
"242060","362-BY","2017/08/21 18:48:37","新北市新莊區景德路640號","121.441161666667","25.03289","6500500","新莊區"
"242044","347-TH","2017/08/21 18:48:35","新北市泰山區中山路二段187-3號","121.435643333333","25.0480116666667","6500500","新莊區"
"238023","601-UM","2017/08/21 18:48:35","新北市樹林區三福街114號","121.406415","25.0162683333333","6500700","樹林區"
"238019","599-UM","2017/08/21 18:48:33","新北市樹林區東榮街147巷27弄5號","121.41482","24.981025","6500700","樹林區"
"238018","571-TV","2017/08/21 18:48:42","新北市樹林區鎮前街3號","121.426011666667","24.9928183333333","6500700","樹林區"
"238022","312-TH","2017/08/21 18:48:35","新北市樹林區中華路379巷78弄16號","121.41289","24.97708","6500700","樹林區"
"238025","303-VK","2017/08/21 18:48:43","新北市樹林區中山路三段50號","121.39413","24.97246","6500700","樹林區"
"238020","268-VK","2017/08/21 01:56:53","新北市樹林區中山路三段204號","121.386786666667","24.968345","6500700","樹林區"
"238026","172-UY","2017/08/21 18:48:26","新北市樹林區中和街8號","121.391646666667","24.9731416666667","6500700","樹林區"
"238016","169-UY","2017/08/21 18:48:42","新北市樹林區文化街28號","121.419278333333","24.987855","6500700","樹林區"
"239007","AAC-297","2017/08/21 18:48:43","新北市鶯歌區成功街20巷9號","121.358836666667","24.9577616666667","6500800","鶯歌區"
"239008","527-UM","2017/08/21 18:48:28","新北市鶯歌區晨曦街37號","121.338131666667","24.9770933333333","6500800","鶯歌區"
"239005","526-UM","2017/08/21 18:48:27","新北市鶯歌區鳳吉二街46號","121.326443333333","24.9735833333333","6500800","鶯歌區"
"239001","417-VK","2017/08/21 18:48:47","新北市鶯歌區正義新村13號","121.34294","24.9492716666667","6500800","鶯歌區"
"239003","360-BY","2017/08/21 18:48:27","新北市鶯歌區鶯桃路566號","121.330743333333","24.967725","6500800","鶯歌區"
"239004","193-VK","2017/08/21 18:48:40","新北市鶯歌區中正三路237號","121.334306666667","24.9389233333333","6500800","鶯歌區"
"221008","489-VK","2017/08/21 18:48:34","新北市汐止區康寧街901號","121.651396666667","25.0749766666667","6501100","汐止區"
"221036","130-UY","2017/08/21 18:48:40","新北市汐止區水碓街51號","121.665205","25.0693666666667","6501100","汐止區"
"221015","131-UY","2017/08/21 18:48:35","新北市汐止區鄉長路一段55巷17號","121.664835","25.0762583333333","6501100","汐止區"
"221031","277-VK","2017/08/21 18:48:32","新北市汐止區福德一路274號","121.63216","25.0639116666667","6501100","汐止區"
"221012","278-VK","2017/08/21 18:48:33","新北市汐止區汐萬路一段256巷3號","121.652528333333","25.0745633333333","6501100","汐止區"
"221023","279-VK","2017/08/21 18:48:30","新北市汐止區汐萬路一段256巷1號","121.65186","25.074805","6501100","汐止區"
"221032","280-BY","2017/08/21 18:48:46","新北市汐止區橫科路121巷11弄5號","121.62192","25.05067","6501100","汐止區"
"221027","281-BY","2017/08/21 18:48:35","新北市汐止區汐萬路一段256巷3號","121.652206666667","25.0746566666667","6501100","汐止區"
"221038","297-VK","2017/08/21 18:48:25","新北市汐止區汐萬路一段256巷3號","121.653373333333","25.0746983333333","6501100","汐止區"
"221029","298-VK","2017/08/21 18:48:42","新北市汐止區樟樹一路2巷59號","121.641455","25.0628383333333","6501100","汐止區"
"221021","299-VK","2017/08/21 18:48:25","新北市汐止區新台五路一段236號","121.657033333333","25.06335","6501100","汐止區"
"221035","622-UM","2017/08/21 18:48:48","新北市汐止區中正路312號","121.656093333333","25.0679016666667","6501100","汐止區"
"221025","623-UM","2017/08/21 18:48:36","新北市汐止區仁愛路85號","121.661466666667","25.062955","6501100","汐止區"
"221010","646-BX","2017/08/21 18:48:38","新北市汐止區汐萬路三段209號","121.642518333333","25.0998483333333","6501100","汐止區"
"221033","647-BX","2017/08/21 18:48:42","新北市汐止區南勢街3號","121.627218333333","25.0373833333333","6501100","汐止區"
"221002","707-TV","2017/08/21 18:48:48","新北市汐止區大同路一段205號","121.633565","25.05731","6501100","汐止區"
"221018","753-BX","2017/08/21 18:48:38","新北市汐止區茄興街12號","121.673523333333","25.06722","6501100","汐止區"
"220079","145-BY","2017/08/21 18:48:44","新北市板橋區民權路202巷1弄2號","121.459498333333","25.014195","6500100","板橋區"
"220080","200-UY","2017/08/21 18:48:38","新北市板橋區大觀路二段265巷72弄15號","121.441805","24.9969766666667","6500100","板橋區"
"220082","610-BX","2017/08/21 18:48:45","新北市板橋區篤行路三段15號","121.429056666667","24.9873733333333","6500100","板橋區"
"220101","245-BX","2017/08/21 16:54:30","新北市板橋區民生路二段120號","121.470543333333","25.0196366666667","6500100","板橋區"
"220075","256-TC","2017/08/21 18:48:42","新北市板橋區大觀路一段28巷106-3號","121.45112","25.0107666666667","6500100","板橋區"
"220103","257-TC","2017/08/21 16:50:05","新北市板橋區民生路二段161巷3號","121.47022","25.01977","6500100","板橋區"
"220094","267-BY","2017/08/21 18:48:29","新北市板橋區民生路二段120號","121.470375","25.0197716666667","6500100","板橋區"
"220056","276-BY","2017/08/21 18:48:44","新北市土城區四川路9號","121.45557","24.9960016666667","6500100","板橋區"
"220072","277-BY","2017/08/21 18:48:33","新北市板橋區金門街25巷16號","121.434078333333","24.9943283333333","6500100","板橋區"
"220071","283-VK","2017/08/21 18:48:46","新北市板橋區民生路二段36-1號","121.472031666667","25.0168716666667","6500100","板橋區"
"220053","285-VK","2017/08/21 18:41:28","新北市新莊區中港路288巷50號","121.454425","25.044805","6500100","板橋區"
"220081","287-VK","2017/08/21 18:48:38","新北市板橋區南雅西路二段145巷10號","121.451583333333","25.01192","6500100","板橋區"
"220090","288-VK","2017/08/21 18:48:32","新北市板橋區民生路二段161巷9號","121.470151666667","25.0196116666667","6500100","板橋區"
"220061","293-UM","2017/08/21 18:48:45","新北市板橋區民生路二段56-1號","121.472443333333","25.0171633333333","6500100","板橋區"
"220084","296-UM","2017/08/21 18:48:29","新北市板橋區大觀路二段148巷26號","121.441976666667","24.9997833333333","6500100","板橋區"
"220062","303-R5","2017/08/21 18:48:26","新北市板橋區觀光街12巷1弄2號","121.471876666667","25.01689","6500100","板橋區"
"220092","307-R5","2017/08/21 18:48:35","新北市板橋區民生路二段120號","121.47058","25.01968","6500100","板橋區"
"220098","317-R6","2017/08/21 18:48:30","新北市板橋區民生路二段120號","121.47041","25.0197366666667","6500100","板橋區"
"220064","486-VK","2017/08/21 17:01:14","新北市板橋區民生路二段36-1號","121.472536666667","25.016615","6500100","板橋區"
"220089","487-VK","2017/08/21 18:48:38","新北市板橋區民生路二段120號","121.470378333333","25.0196966666667","6500100","板橋區"
"220088","491-VK","2017/08/21 18:48:42","新北市板橋區民生路二段161巷1號","121.470185","25.019845","6500100","板橋區"
"220035","560-BX","2017/08/21 18:48:28","新北市板橋區中正路275巷77號","121.452345","25.0181183333333","6500100","板橋區"
"220055","568-UM","2017/08/21 18:48:48","新北市板橋區民生路二段15-1號","121.472685","25.0162883333333","6500100","板橋區"
"220063","609-BX","2017/08/21 18:48:38","新北市板橋區中山路二段37號","121.473143333333","25.015735","6500100","板橋區"
"220083","630-UY","2017/08/21 18:48:41","新北市板橋區大觀路二段18號","121.4468","25.0034966666667","6500100","板橋區"
"220091","637-BX","2017/08/21 18:48:37","新北市板橋區民生路二段161巷1號","121.47013","25.0201016666667","6500100","板橋區"
"220057","686-BX","2017/08/21 18:48:39","新北市板橋區民生路二段36-1號","121.472413333333","25.0167066666667","6500100","板橋區"
"220077","687-BX","2017/08/21 18:48:45","新北市板橋區大觀路二段174巷165弄2號","121.441915","25.0034466666667","6500100","板橋區"
"220093","689-BX","2017/08/21 18:48:26","新北市板橋區民生路二段120號","121.470356666667","25.0199966666667","6500100","板橋區"
"220054","741-BX","2017/08/21 18:48:39","新北市板橋區民生路二段36-1號","121.472311666667","25.0168916666667","6500100","板橋區"
"220067","829-TW","2017/08/21 18:48:33","新北市板橋區民生路二段17號","121.472586666667","25.0164966666667","6500100","板橋區"
"220096","831-TW","2017/08/21 16:29:11","新北市板橋區民生路二段161巷5號","121.470073333333","25.0196533333333","6500100","板橋區"
"220074","895-R6","2017/08/21 18:48:43","新北市板橋區館前西路120號","121.456778333333","25.0077533333333","6500100","板橋區"
"220073","985-R7","2017/08/21 18:48:28","新北市板橋區館前西路47號","121.457953333333","25.0069116666667","6500100","板橋區"
"220097","AAC-210","2017/08/21 18:48:35","新北市板橋區民生路二段120號","121.470338333333","25.0198266666667","6500100","板橋區"
"220070","AAC-253","2017/08/21 18:48:34","新北市板橋區民生路二段36-1號","121.472236666667","25.0168716666667","6500100","板橋區"
