"lineid","car","time","location","longitude","latitude","cityid","cityname"
"234046","148-BY","2017/08/21 19:08:44","新北市永和區永元路52巷28號","121.523465","25.0008966666667","6500400","永和區"
"234013","149-BY","2017/08/21 19:08:45","新北市永和區保福路二段20號","121.510943333333","25.0114733333333","6500400","永和區"
"234007","207-UY","2017/08/21 19:08:36","新北市永和區永貞路375號","121.508296666667","25.0082383333333","6500400","永和區"
"234081","298-R6","2017/08/21 19:08:34","新北市永和區永貞路39巷6弄2號","121.521735","25.0065416666667","6500400","永和區"
"234038","336-UY","2017/08/21 19:08:38","新北市永和區環河東路4段84-1號","121.528345","24.9979916666667","6500400","永和區"
"234064","337-UY","2017/08/21 19:08:39","新北市永和區秀朗路二段33號","121.521236666667","25.0024383333333","6500400","永和區"
"234086","338-UY","2017/08/21 19:08:39","新北市永和區永寧街135巷2號","121.51813","25.0046816666667","6500400","永和區"
"234054","553-UM","2017/08/21 19:08:32","新北市永和區中興街133巷12號","121.518455","25.0125833333333","6500400","永和區"
"234017","745-BX","2017/08/21 19:08:27","新北市永和區忠孝街48號","121.514313333333","25.01576","6500400","永和區"
"234030","746-BX","2017/08/21 19:08:34","新北市永和區厚德街84號","121.523703333333","24.9988733333333","6500400","永和區"
"234061","AAD-866","2017/08/21 19:08:37","新北市永和區安樂路304巷10弄21號","121.515583333333","25.0056816666667","6500400","永和區"
"234070","847-RS","2017/08/21 19:08:38","新北市永和區豫溪街135號","121.519698333333","25.0101633333333","6500400","永和區"
"234042","862-TW","2017/08/21 19:08:42","新北市永和區保平路111巷2弄12號","121.510623333333","25.0060916666667","6500400","永和區"
"234050","863-TW","2017/08/21 19:08:47","新北市永和區文化路135巷26弄2號","121.510543333333","25.0144933333333","6500400","永和區"
"234026","9371-KE","2017/08/21 19:08:40","新北市永和區安樂路270號","121.514621666667","25.0040733333333","6500400","永和區"
"234011","9373-KE","2017/08/21 19:08:36","新北市永和區仁愛路141巷30弄5號","121.511973333333","25.0115366666667","6500400","永和區"
"249005","172-UM","2017/08/21 19:08:40","新北市八里區中華路三段131巷8號","121.392346666667","25.1347583333333","6502300","八里區"
"249001","173-UM","2017/08/21 19:08:35","新北市八里區龍米路二段203-4號","121.432635","25.1582466666667","6502300","八里區"
"248016","026-BX","2017/08/21 19:08:35","新北市五股區成泰路三段559巷36弄3號","121.450741666667","25.102805","6501500","五股區"
"248006","077-UY","2017/08/21 19:08:42","新北市五股區四維路112號","121.467708333333","25.07371","6501500","五股區"
"248018","225-UY","2017/08/21 19:08:22","新北市五股區民義路二段22巷4號","121.420313333333","25.09698","6501500","五股區"
"248012","247-BX","2017/08/21 19:08:26","新北市五股區中興路四段48巷16號","121.438595","25.083435","6501500","五股區"
"248010","272-BY","2017/08/21 19:08:46","新北市五股區水碓一路23號","121.430725","25.0713533333333","6501500","五股區"
"248004","677-BX","2017/08/21 19:08:35","新北市五股區民義路一段217號","121.429898333333","25.089705","6501500","五股區"
"248002","678-BX","2017/08/21 19:08:30","新北市五股區凌雲路一段158巷6號","121.447876666667","25.1029733333333","6501500","五股區"
"234023","9380-KE","2017/08/21 19:08:43","新北市永和區中興街10巷11號","121.51558","25.0112683333333","6500400","永和區"
"234077","969-R7","2017/08/21 19:08:42","新北市永和區民權路38號","121.520221666667","24.9988083333333","6500400","永和區"
"234074","AAC-211","2017/08/21 19:08:37","新北市永和區福和路139號","121.521016666667","25.0076933333333","6500400","永和區"
"234067","AAC-212","2017/08/21 19:08:43","新北市永和區保平路33號","121.512231666667","25.0071716666667","6500400","永和區"
"234003","AAC-295","2017/08/21 19:08:45","新北市永和區保福路一段57號","121.51267","25.0095733333333","6500400","永和區"
"244019","403-UM","2017/08/21 19:08:36","新北市林口區麗園二街38巷69號","121.380056666667","25.067945","6501700","林口區"
"244009","410-SL","2017/08/21 19:08:40","新北市林口區竹林路446巷1弄2號","121.388578333333","25.0858133333333","6501700","林口區"
"244023","483-VK","2017/08/21 14:49:08","新北市林口區粉寮69號","121.40498","25.09086","6501700","林口區"
"244023","657-BX","2017/08/21 19:08:41","新北市林口區文化三路一段617巷18號","121.370625","25.07753","6501700","林口區"
"244013","658-BX","2017/08/21 19:08:29","新北市林口區麗園一街11巷3號","121.377358333333","25.0704433333333","6501700","林口區"
"244011","701-TV","2017/08/21 19:08:30","新北市林口區中正路296巷11弄2號","121.388026666667","25.0782216666667","6501700","林口區"
"243013","AAD-798","2017/08/21 19:08:40","新北市泰山區漢口街11巷1號","121.423776666667","25.0364966666667","6501600","泰山區"
"243009","297-R6","2017/08/21 19:08:40","新北市泰山區明志路一段122巷7號","121.433116666667","25.0634916666667","6501600","泰山區"
"243015","380-SR","2017/08/21 19:08:31","新北市泰山區明志路一段431號","121.430796666667","25.0565666666667","6501600","泰山區"
"243014","421-VK","2017/08/21 19:08:28","新北市泰山區泰林路二段385巷1號","121.427506666667","25.0642316666667","6501600","泰山區"
"243010","548-UM","2017/08/21 19:08:47","新北市泰山區明志路一段483巷1弄1號","121.431071666667","25.0555066666667","6501600","泰山區"
"243011","549-UM","2017/08/21 19:08:30","新北市泰山區明志路二段362號","121.425555","25.045155","6501600","泰山區"
"243012","646-TV","2017/08/21 19:08:41","新北市泰山區吳厝窠1號","121.427908333333","25.0585466666667","6501600","泰山區"
"243016","680-BX","2017/08/21 19:08:36","新北市泰山區明志路二段379號","121.425163333333","25.0438633333333","6501600","泰山區"
"222003","436-BY","2017/08/21 19:08:35","新北市深坑區深南路142號","121.622953333333","25.0141116666667","6501800","深坑區"
"222002","659-BX","2017/08/21 19:08:33","新北市深坑區烏月路1號","121.633418333333","25.0081483333333","6501800","深坑區"
"222001","696-SL","2017/08/21 19:08:41","新北市深坑區北深路一段300號","121.62398","25.0056883333333","6501800","深坑區"
"231041","002-UM","2017/08/21 19:08:41","新北市新店區溪園路401號","121.52392","24.978065","6500600","新店區"
"231059","046-UY","2017/08/21 19:08:46","新北市新店區安和路二段142號","121.519666666667","24.972675","6500600","新店區"
"231061","047-UY","2017/08/21 19:08:31","新北市新店區安康路一段102號","121.527475","24.96242","6500600","新店區"
"231060","106-UY","2017/08/21 19:08:28","新北市新店區安康路二段330號","121.503735","24.9577416666667","6500600","新店區"
"231051","107-UY","2017/08/21 19:08:44","新北市新店區中正路406號","121.534418333333","24.9775683333333","6500600","新店區"
"231047","108-UY","2017/08/21 19:08:34","新北市新店區中興路二段67巷14號","121.546041666667","24.9711566666667","6500600","新店區"
"231052","187-VK","2017/08/21 19:08:43","新北市新店區自強路23巷1號","121.546116666667","24.9267033333333","6500600","新店區"
"231046","278-BY","2017/08/21 19:08:31","新北市新店區直潭二街23號","121.5355","24.942085","6500600","新店區"
"231050","AAD-862","2017/08/21 19:08:37","新北市新店區竹林路2巷29弄7號","121.550425","24.9502583333333","6500600","新店區"
"231058","3712-VJ","2017/08/21 19:08:31","新北市新店區檳榔路29巷10號","121.542133333333","24.9638033333333","6500600","新店區"
"231056","4716-K9","2017/08/21 19:08:24","新北市新店區二十張路46巷15號","121.536925","24.9815483333333","6500600","新店區"
"231067","4772-VM","2017/08/21 19:08:37","新北市新店區安康路一段195巷11號","121.526648333333","24.962265","6500600","新店區"
"231065","512-UM","2017/08/21 19:08:45","新北市新店區安祥路138號","121.474481666667","24.9559583333333","6500600","新店區"
"231054","513-UM","2017/08/21 19:08:37","新北市新店區新店路121號","121.53712","24.95424","6500600","新店區"
"231042","616-UM","2017/08/21 19:08:44","新北市新店區中興路一段168號","121.542791666667","24.964355","6500600","新店區"
"231040","619-UM","2017/08/21 19:08:33","新北市新店區三民路98-3號","121.534006666667","24.9734483333333","6500600","新店區"
"231063","645-TV","2017/08/21 19:08:42","新北市新店區車子路139號","121.505176666667","24.9479166666667","6500600","新店區"
"231049","719-UM","2017/08/21 19:08:34","新北市新店區二十張路25巷16號","121.539238333333","24.98202","6500600","新店區"
"231064","719-UY","2017/08/21 19:08:43","新北市新店區安忠路56巷6號","121.512993333333","24.95945","6500600","新店區"
"231062","720-UM","2017/08/21 19:08:38","新北市新店區安平路8-1號","121.523996666667","24.963905","6500600","新店區"
"231044","897-TW","2017/08/21 19:08:38","新北市新店區寶中路47號","121.54533","24.97922","6500600","新店區"
"231045","898-TW","2017/08/21 19:08:33","新北市新店區北宜路一段123-2號","121.540646666667","24.95351","6500600","新店區"
"231043","899-TW","2017/08/21 19:08:39","新北市新店區寶橋路132號","121.547375","24.9760216666667","6500600","新店區"
"231066","AKT-0513","2017/08/21 19:08:36","新北市新店區安康路三段359巷12弄27號","121.483966666667","24.9492016666667","6500600","新店區"
"241026","066-VK","2017/08/21 19:08:43","新北市三重區泉州街74號","121.494706666667","25.05465","6500200","三重區"
"241020","412-TH","2017/08/21 19:08:34","新北市三重區忠孝路二段34號","121.48594","25.070985","6500200","三重區"
"241029","942-UM","2017/08/21 19:08:31","新北市三重區重安街75巷1號","121.491671666667","25.05606","6500200","三重區"
"235064","005-UY","2017/08/21 19:08:40","新北市中和區泰和街30巷15號","121.499115","25.0009166666667","6500300","中和區"
"235063","006-UY","2017/08/21 19:08:40","新北市中和區連城路347巷4弄32號","121.486856666667","24.995625","6500300","中和區"
"235066","031-BX","2017/08/21 19:08:30","新北市中和區廣福路44號","121.50418","25.002185","6500300","中和區"
"235056","096-UM","2017/08/21 19:08:45","新北市中和區中正路1214號","121.479846666667","25.01064","6500300","中和區"
"235039","097-UM","2017/08/21 19:08:39","新北市中和區安樂路255號","121.514153333333","24.9998516666667","6500300","中和區"
"235065","098-UM","2017/08/21 19:08:40","新北市中和區勝利路35巷1弄36號","121.5005","25.0078316666667","6500300","中和區"
"235040","150-BY","2017/08/21 19:08:24","新北市中和區保健路61巷7號","121.509673333333","24.9974883333333","6500300","中和區"
"235058","151-BY","2017/08/21 19:08:38","新北市中和區連城路523巷7弄2號","121.481728333333","24.9948366666667","6500300","中和區"
"235055","183-VK","2017/08/21 19:08:44","新北市中和區德光路77巷2弄2號","121.46948","25.0034966666667","6500300","中和區"
"235038","185-VK","2017/08/21 19:08:38","新北市中和區自強路64號","121.52008","24.9943916666667","6500300","中和區"
"235049","186-VK","2017/08/21 19:08:35","新北市中和區明仁街2號","121.505783333333","24.9954933333333","6500300","中和區"
"235067","255-BX","2017/08/21 19:08:41","新北市中和區中正路751巷3弄11號","121.484405","24.99915","6500300","中和區"
"235044","293-VK","2017/08/21 19:08:42","新北市中和區中興街161巷4弄1號","121.500631666667","24.9908583333333","6500300","中和區"
"235072","301-VK","2017/08/21 19:08:33","新北市中和區福美路298-1號","121.49727","25.0049666666667","6500300","中和區"
"235043","352-BY","2017/08/21 19:08:42","新北市中和區景平路96號","121.520555","24.9913666666667","6500300","中和區"
"235051","376-QA","2017/08/21 19:08:44","新北市中和區忠孝街31巷29號","121.509868333333","24.9843266666667","6500300","中和區"
"235068","377-QA","2017/08/21 19:08:44","新北市中和區圓通路173號","121.497655","24.9951733333333","6500300","中和區"
"235061","378-QA","2017/08/21 19:08:44","新北市中和區中山路三段112號","121.47632","25.0057966666667","6500300","中和區"
"235050","4979-A6","2017/08/21 19:08:37","新北市中和區復興路249巷11弄3號","121.5035","24.9896733333333","6500300","中和區"
"235069","4980-A6","2017/08/21 19:08:42","新北市中和區廣福路120號","121.501581666667","25.0011416666667","6500300","中和區"
"235042","551-UM","2017/08/21 19:08:36","新北市中和區自立路117巷1號","121.52229","24.9945133333333","6500300","中和區"
"235070","558-UM","2017/08/21 19:08:35","新北市中和區安和路215號","121.505833333333","24.9991333333333","6500300","中和區"
"235045","565-BX","2017/08/21 19:08:41","新北市中和區景新街467巷20弄21號","121.515156666667","24.987345","6500300","中和區"
"235054","640-BX","2017/08/21 19:08:45","新北市中和區民享街86巷25號","121.473138333333","25.000485","6500300","中和區"
"235060","647-TV","2017/08/21 19:08:30","新北市中和區民治街13巷2號","121.47526","25.004045","6500300","中和區"
"235047","732-UM","2017/08/21 19:08:32","新北市中和區興南路二段55號","121.5071","24.985385","6500300","中和區"
"235046","733-UM","2017/08/21 19:08:29","新北市中和區興南路二段31巷5號","121.507948333333","24.9855416666667","6500300","中和區"
"235062","800-TS","2017/08/21 19:08:26","新北市中和區中山路二段526巷26號","121.485875","25.0057883333333","6500300","中和區"
"235057","801-TS","2017/08/21 19:08:31","新北市中和區民利街98號","121.477653333333","24.997805","6500300","中和區"
"235041","802-TS","2017/08/21 19:08:30","新北市中和區安平路115號","121.511205","24.9979016666667","6500300","中和區"
"235052","805-TS","2017/08/21 19:08:40","新北市中和區興南路二段142巷19弄13號","121.502831666667","24.9834566666667","6500300","中和區"
"235048","896-TW","2017/08/21 19:08:34","新北市中和區華新街133號","121.506658333333","24.981785","6500300","中和區"
"235053","900-TW","2017/08/21 19:08:30","新北市中和區和平路200巷1-7號","121.464475","24.9951816666667","6500300","中和區"
"235071","911-UM","2017/08/21 19:08:26","新北市中和區連城路469巷79弄16號","121.48381","24.9937366666667","6500300","中和區"
"235037","AAC-213","2017/08/21 19:08:30","新北市中和區秀朗路三段50巷29弄1號","121.524036666667","24.995005","6500300","中和區"
"235059","AAC-215","2017/08/21 19:08:45","新北市中和區圓通路296巷31弄1號","121.488561666667","24.9904","6500300","中和區"
"220068","013-TV","2017/08/21 19:08:33","新北市板橋區中山路二段443巷72號","121.480855","25.02206","6500100","板橋區"
"220065","072-UY","2017/08/21 19:08:34","新北市板橋區民族路247巷7弄14號","121.47088","25.0077983333333","6500100","板橋區"
"220086","073-UY","2017/08/21 19:08:41","新北市板橋區中正路222號","121.455786666667","25.0185816666667","6500100","板橋區"
"220106","075-UY","2017/08/21 19:08:40","新北市板橋區文化路二段282號","121.47159","25.02909","6500100","板橋區"
"220069","AAD-861","2017/08/21 19:08:40","新北市板橋區華興街73-1號","121.457118333333","25.0050533333333","6500100","板橋區"
"220102","120-SR","2017/08/21 19:08:39","新北市板橋區萬板路818巷9號","121.482926666667","25.0268583333333","6500100","板橋區"
"226004","312-R5","2017/08/21 19:08:36","新北市平溪區嶺腳里嶺腳寮13號","121.747796666667","25.029885","6502400","平溪區"
"228003","097-TW","2017/08/21 19:08:40","新北市貢寮區和美里和美街32-7號","121.912565","25.0849166666667","6502600","貢寮區"
"228002","585-TW","2017/08/21 19:08:32","新北市貢寮區福隆里福隆街32-1號","121.94508","25.0173933333333","6502600","貢寮區"
"228001","670-TC","2017/08/21 19:08:35","新北市貢寮區真理里新港街10號","121.92546","25.05432","6502600","貢寮區"
"224006","676-BX","2017/08/21 19:08:35","新北市瑞芳區三爪子坑路106巷112-1號","121.808446666667","25.1043933333333","6501200","瑞芳區"
"224011","420-VK","2017/08/21 19:08:36","新北市瑞芳區崙頂路3-1號","121.847001666667","25.1047083333333","6501200","瑞芳區"
"224009","285-BY","2017/08/21 19:08:34","新北市瑞芳區長仁路40號","121.864498333333","25.1181216666667","6501200","瑞芳區"
"224008","275-VK","2017/08/21 19:08:40","新北市瑞芳區明燈路三段151號","121.802988333333","25.1095866666667","6501200","瑞芳區"
"224007","273-VK","2017/08/21 19:08:41","新北市瑞芳區瑞竹路92號","121.76291","25.1037633333333","6501200","瑞芳區"
"224005","271-BY","2017/08/21 19:08:43","新北市瑞芳區連福新城25號","121.820283333333","25.119","6501200","瑞芳區"
"227001","642-TC","2017/08/21 17:39:56","新北市雙溪區共和里東榮街52號","121.866303333333","25.0336","6502500","雙溪區"
"227008","400-TW","2017/08/21 19:05:12","新北市雙溪區牡丹里中正路25號","121.864803333333","25.03765","6502500","雙溪區"
"253006","032-BX","2017/08/21 19:08:43","新北市石門區海灣新城6號","121.525275","25.2850233333333","6502200","石門區"
"253005","295-VK","2017/08/21 19:08:35","新北市石門區小坑9號","121.594063333333","25.2902433333333","6502200","石門區"
"208002","742-BX","2017/08/21 19:08:41","新北市金山區仁愛路67巷18號","121.634328333333","25.2209783333333","6502700","金山區"
"208003","665-BX","2017/08/21 19:08:42","新北市金山區中正路135號","121.632398333333","25.2215066666667","6502700","金山區"
"208001","761-BX","2017/08/21 19:08:32","新北市金山區金包里街14巷23弄1號","121.640536666667","25.22139","6502700","金山區"
"251009","008-UM","2017/08/21 19:08:46","新北市淡水區清水街192號","121.440533333333","25.170885","6501000","淡水區"
"251002","012-UM","2017/08/21 19:08:36","新北市淡水區中山路77號","121.442593333333","25.1704","6501000","淡水區"
"251007","179-VK","2017/08/21 19:08:40","新北市淡水區民生路145巷54號","121.467905","25.1387633333333","6501000","淡水區"
"251013","182-VK","2017/08/21 19:08:45","新北市淡水區安子內12號","121.481531666667","25.21912","6501000","淡水區"
"251010","413-VK","2017/08/21 19:08:34","新北市淡水區中正路一段156巷3號","121.421196666667","25.1803383333333","6501000","淡水區"
"251015","442-VK","2017/08/21 19:08:43","新北市淡水區南勢埔47巷29號","121.484331666667","25.1785766666667","6501000","淡水區"
"251005","443-VK","2017/08/21 19:08:38","新北市淡水區新民街296-1號","121.435058333333","25.182555","6501000","淡水區"
"251001","559-UM","2017/08/21 19:08:37","新北市淡水區自強路6號","121.464538333333","25.12466","6501000","淡水區"
"251011","650-BX","2017/08/21 19:08:41","新北市淡水區中正東路二段143巷2弄1號","121.460713333333","25.1473833333333","6501000","淡水區"
"251003","766-UM","2017/08/21 19:08:46","新北市淡水區中山北路一段94號","121.442426666667","25.1762733333333","6501000","淡水區"
"207003","550-UM","2017/08/21 19:08:40","新北市萬里區大鵬里萬里加投24-2號","121.648613333333","25.20685","6502800","萬里區"
"207004","225-TW","2017/08/21 19:08:27","新北市萬里區萬里里瑪鋉下街52號","121.691595","25.17951","6502800","萬里區"
"252002","178-VK","2017/08/21 19:08:36","新北市三芝區中正路一段16-1號","121.50295","25.2587633333333","6502100","三芝區"
"252003","249-BX","2017/08/21 19:08:45","新北市三芝區錫板里海尾14-15號","121.477198333333","25.2583883333333","6502100","三芝區"
"252001","292-VK","2017/08/21 19:08:46","新北市三芝區長勤街45巷2號","121.50034","25.25512","6502100","三芝區"
"237004","078-UY","2017/08/21 19:08:34","新北市三峽區有木206號","121.439118333333","24.8514966666667","6500900","三峽區"
"237007","153-BY","2017/08/21 19:08:40","新北市三峽區中正路二段42巷84號","121.364291666667","24.9205733333333","6500900","三峽區"
"237009","210-TH","2017/08/21 19:08:32","新北市三峽區文化路145號","121.368581666667","24.9358466666667","6500900","三峽區"
"237013","252-BX","2017/08/21 19:08:38","新北市三峽區光明路69巷27號","121.376806666667","24.9292283333333","6500900","三峽區"
"237012","275-BY","2017/08/21 19:08:31","新北市三峽區三樹路222巷70號","121.382895","24.9422983333333","6500900","三峽區"
"237008","302-VK","2017/08/21 19:08:43","新北市三峽區大同路174巷6號","121.372615","24.927105","6500900","三峽區"
"237014","433-BY","2017/08/21 19:08:33","新北市三峽區隆恩街246號","121.357511666667","24.9410266666667","6500900","三峽區"
"237006","5529-G3","2017/08/21 19:08:42","新北市三峽區溪東路1號","121.399198333333","24.935435","6500900","三峽區"
"237011","572-TV","2017/08/21 19:08:42","新北市三峽區介壽路三段7號","121.395565","24.9362716666667","6500900","三峽區"
"237015","649-BX","2017/08/21 19:08:41","新北市三峽區建安112號","121.457663333333","24.9220983333333","6500900","三峽區"
"237010","706-TV","2017/08/21 19:07:42","新北市三峽區國光街36號","121.374896666667","24.93767","6500900","三峽區"
"237005","AKY-6261","2017/08/21 19:08:43","新北市三峽區中山路459巷163-3號","121.348693333333","24.932925","6500900","三峽區"
"236069","105-UM","2017/08/21 19:08:33","新北市土城區明德路二段209號","121.446378333333","24.98374","6501300","土城區"
"236078","166-UM","2017/08/21 19:08:30","新北市土城區中央路四段281-13號","121.411781666667","24.95295","6501300","土城區"
"236030","253-BX","2017/08/21 19:08:36","新北市土城區城林路6巷80號","121.438558333333","24.979615","6501300","土城區"
"236026","269-VK","2017/08/21 19:08:39","新北市土城區中正路56巷2號","121.443875","24.9752966666667","6501300","土城區"
"236014","270-VK","2017/08/21 19:08:31","新北市土城區青雲路6-2號","121.460213333333","24.9893083333333","6501300","土城區"
"236036","271-VK","2017/08/21 19:08:37","新北市土城區清水路145號","121.45838","24.981755","6501300","土城區"
"236020","401-BY","2017/08/21 19:08:42","新北市土城區延峰街36巷5號","121.46952","24.9845216666667","6501300","土城區"
"236058","912-UM","2017/08/21 19:08:45","新北市土城區青雲路145號","121.458498333333","24.9842066666667","6501300","土城區"
"236048","913-UM","2017/08/21 19:08:41","新北市土城區明德路一段398-1號","121.453678333333","24.979035","6501300","土城區"
"236053","AAC-216","2017/08/21 19:08:36","新北市土城區學成路7號","121.453343333333","24.98648","6501300","土城區"
"242002","413-TV","2017/08/21 19:08:38","新北市新莊區新泰路357巷3弄57號","121.441898333333","25.0392466666667","6500500","新莊區"
"238015","755-BX","2017/08/21 19:08:36","新北市樹林區備內街158巷25號","121.407973333333","24.9899833333333","6500700","樹林區"
"238023","601-UM","2017/08/21 19:08:35","新北市樹林區大慶街140號","121.39647","25.013435","6500700","樹林區"
"238019","599-UM","2017/08/21 19:08:33","新北市樹林區東榮街36號","121.417463333333","24.9833483333333","6500700","樹林區"
"238018","571-TV","2017/08/21 19:08:41","新北市樹林區八德街37-3號","121.418968333333","24.9830083333333","6500700","樹林區"
"238022","312-TH","2017/08/21 19:08:35","新北市樹林區中山路二段151巷15弄3號","121.408068333333","24.9772","6500700","樹林區"
"238021","311-TH","2017/08/21 19:08:32","新北市樹林區柑園街二段276巷26號","121.372581666667","24.9533833333333","6500700","樹林區"
"238025","303-VK","2017/08/21 19:08:41","新北市樹林區中山路三段55號","121.400853333333","24.9751433333333","6500700","樹林區"
"238017","283-BY","2017/08/21 19:08:34","新北市樹林區大安路455號","121.41503","24.9880683333333","6500700","樹林區"
"238020","268-VK","2017/08/21 01:56:53","新北市樹林區中山路三段204號","121.386786666667","24.968345","6500700","樹林區"
"238026","172-UY","2017/08/21 19:08:26","新北市樹林區佳園路一段67號","121.393503333333","24.97047","6500700","樹林區"
"238016","169-UY","2017/08/21 19:08:43","新北市樹林區復興路335巷6弄12號","121.41795","24.9873316666667","6500700","樹林區"
"239007","AAC-297","2017/08/21 19:08:43","新北市鶯歌區中山路138巷13號","121.351136666667","24.9590733333333","6500800","鶯歌區"
"239006","891-R6","2017/08/21 19:08:28","新北市鶯歌區鶯桃路201號","121.337351666667","24.9587583333333","6500800","鶯歌區"
"239008","527-UM","2017/08/21 19:08:28","新北市鶯歌區國際二路10巷27號","121.33855","24.9745433333333","6500800","鶯歌區"
"239005","526-UM","2017/08/21 19:08:27","新北市鶯歌區大湖路361巷42號","121.330663333333","24.9775916666667","6500800","鶯歌區"
"239001","417-VK","2017/08/21 19:08:27","新北市鶯歌區鶯桃路166號","121.33727","24.9552416666667","6500800","鶯歌區"
"239003","360-BY","2017/08/21 19:08:27","新北市鶯歌區八德路10號","121.332695","24.95491","6500800","鶯歌區"
"239004","193-VK","2017/08/21 19:08:37","新北市鶯歌區中正三路282巷20號","121.326818333333","24.936885","6500800","鶯歌區"
"221008","489-VK","2017/08/21 19:08:37","新北市汐止區康寧街452號","121.631443333333","25.0681516666667","6501100","汐止區"
"221036","130-UY","2017/08/21 19:08:40","新北市汐止區仁愛路324號","121.664353333333","25.0679","6501100","汐止區"
"221015","131-UY","2017/08/21 19:08:35","新北市汐止區汐萬路一段256巷3號","121.652423333333","25.0745616666667","6501100","汐止區"
"221031","277-VK","2017/08/21 19:08:32","新北市汐止區福德二路132巷1弄10號","121.630178333333","25.0655116666667","6501100","汐止區"
"221012","278-VK","2017/08/21 19:08:33","新北市汐止區康寧街901號","121.650825","25.0752783333333","6501100","汐止區"
"221023","279-VK","2017/08/21 19:08:30","新北市汐止區康寧街901號","121.650953333333","25.075195","6501100","汐止區"
"221032","280-BY","2017/08/21 19:08:46","新北市汐止區橫科路357巷23號","121.623261666667","25.048305","6501100","汐止區"
"221027","281-BY","2017/08/21 18:57:04","新北市汐止區康寧街901號","121.650878333333","25.0752683333333","6501100","汐止區"
"221038","297-VK","2017/08/21 19:08:45","新北市汐止區汐萬路一段312號","121.650668333333","25.0752633333333","6501100","汐止區"
"221029","298-VK","2017/08/21 19:08:42","新北市汐止區汐萬路一段312號","121.650321666667","25.0755083333333","6501100","汐止區"
"221021","299-VK","2017/08/21 19:08:25","新北市汐止區康寧街901號","121.651348333333","25.0750116666667","6501100","汐止區"
"221025","623-UM","2017/08/21 19:08:36","新北市汐止區康寧街901號","121.651555","25.075005","6501100","汐止區"
"221010","646-BX","2017/08/21 19:08:38","新北市汐止區康寧街901號","121.651396666667","25.075015","6501100","汐止區"
"221033","647-BX","2017/08/21 19:08:42","新北市汐止區南勢街3號","121.627091666667","25.0373516666667","6501100","汐止區"
"221002","707-TV","2017/08/21 19:08:27","台北市南港區南港路一段30巷2號","121.618818333333","25.0551866666667","6501100","汐止區"
"221018","753-BX","2017/08/21 19:08:33","新北市汐止區汐萬路一段256巷3號","121.6525","25.0745816666667","6501100","汐止區"
"220079","145-BY","2017/08/21 19:08:44","新北市板橋區民權路260巷35號","121.45912","25.0153016666667","6500100","板橋區"
"220080","200-UY","2017/08/21 19:08:36","新北市板橋區大觀路二段7巷93號","121.450043333333","25.003015","6500100","板橋區"
"220082","610-BX","2017/08/21 19:08:25","新北市板橋區溪崑二街16巷14-1號","121.428363333333","24.9921433333333","6500100","板橋區"
"220101","245-BX","2017/08/21 19:08:47","新北市板橋區民生路二段226巷10弄13號","121.471111666667","25.021265","6500100","板橋區"
"220075","256-TC","2017/08/21 19:08:42","新北市板橋區南雅南路一段1巷21號","121.457071666667","25.0068183333333","6500100","板橋區"
"220103","257-TC","2017/08/21 19:08:41","新北市板橋區介壽街84巷23號","121.46959","25.0180683333333","6500100","板橋區"
"220094","267-BY","2017/08/21 19:08:38","新北市板橋區光武街125巷2號","121.466088333333","25.0285366666667","6500100","板橋區"
"220056","276-BY","2017/08/21 19:08:44","新北市板橋區信義路74巷1弄15號","121.457648333333","24.9927466666667","6500100","板橋區"
"220072","277-BY","2017/08/21 19:08:33","新北市板橋區金門街369巷57弄7號","121.429376666667","24.984105","6500100","板橋區"
"220071","283-VK","2017/08/21 19:08:46","新北市板橋區重慶路254號","121.462978333333","25.0008966666667","6500100","板橋區"
"220053","285-VK","2017/08/21 19:08:49","新北市板橋區懷仁街10巷6號","121.475705","25.019925","6500100","板橋區"
"220081","287-VK","2017/08/21 19:08:38","新北市板橋區南雅西路二段156巷55號","121.452396666667","25.0126883333333","6500100","板橋區"
"220090","288-VK","2017/08/21 19:08:32","新北市板橋區四維路279巷30號","121.461681666667","25.0281716666667","6500100","板橋區"
"220061","293-UM","2017/08/21 19:08:45","新北市板橋區中山路二段256號","121.4788","25.01835","6500100","板橋區"
"220084","296-UM","2017/08/21 19:08:29","新北市板橋區大觀路二段443-2號","121.439981666667","24.9951683333333","6500100","板橋區"
"220062","303-R5","2017/08/21 19:08:46","新北市板橋區三民路二段245巷53號","121.480701666667","25.012575","6500100","板橋區"
"220092","307-R5","2017/08/21 19:08:35","新北市板橋區文化路二段2號","121.468638333333","25.0238216666667","6500100","板橋區"
"220098","317-R6","2017/08/21 19:08:30","新北市板橋區四維路103巷26號","121.46467","25.02417","6500100","板橋區"
"220064","486-VK","2017/08/21 19:08:44","新北市板橋區板新路87號","121.47329","25.01393","6500100","板橋區"
"220089","487-VK","2017/08/21 19:08:38","新北市板橋區長江路三段126號","121.475348333333","25.0345516666667","6500100","板橋區"
"220088","491-VK","2017/08/21 19:08:42","新北市板橋區文化路二段182巷1弄12號","121.471268333333","25.0277383333333","6500100","板橋區"
"220035","560-BX","2017/08/21 19:08:28","新北市板橋區中正路399巷13弄8號","121.453166666667","25.0223316666667","6500100","板橋區"
"220055","568-UM","2017/08/21 19:08:28","新北市板橋區中山路一段156號","121.464718333333","25.01151","6500100","板橋區"
"220063","609-BX","2017/08/21 19:08:38","新北市板橋區三民路二段140-3號","121.4791","25.0158183333333","6500100","板橋區"
"220083","630-UY","2017/08/21 19:08:41","新北市板橋區龍興街99巷2號","121.444178333333","25.0029433333333","6500100","板橋區"
"220091","637-BX","2017/08/21 19:08:37","新北市板橋區萬板路558-1號","121.480798333333","25.0264833333333","6500100","板橋區"
"220057","686-BX","2017/08/21 19:08:39","新北市板橋區重慶路177號","121.462725","25.002535","6500100","板橋區"
"220077","687-BX","2017/08/21 19:08:45","新北市板橋區大觀路二段269號","121.442953333333","24.99886","6500100","板橋區"
"220093","689-BX","2017/08/21 19:08:26","新北市板橋區民生路三段266號","121.463925","25.0304616666667","6500100","板橋區"
"220054","741-BX","2017/08/21 19:08:42","新北市板橋區重慶路127巷20號","121.46366","25.0048983333333","6500100","板橋區"
"220067","829-TW","2017/08/21 19:08:33","新北市板橋區民享街116巷6號","121.478155","25.015565","6500100","板橋區"
"220096","831-TW","2017/08/21 19:08:41","新北市板橋區雙十路二段4-5號","121.476953333333","25.02573","6500100","板橋區"
"220074","895-R6","2017/08/21 19:08:33","新北市板橋區府中路118號","121.455525","25.0095733333333","6500100","板橋區"
"220073","985-R7","2017/08/21 19:08:28","新北市板橋區中正路203號","121.456231666667","25.01743","6500100","板橋區"
"220097","AAC-210","2017/08/21 19:08:35","新北市板橋區新生街96號","121.458403333333","25.02207","6500100","板橋區"
"220070","AAC-253","2017/08/21 19:08:34","新北市板橋區四川路一段236號","121.45926","25.0016816666667","6500100","板橋區"
