"lineid","car","time","location","longitude","latitude","cityid","cityname"
"234046","148-BY","2017/08/21 19:18:44","新北市永和區秀朗路二段148巷3弄1號","121.525498333333","25.0011966666667","6500400","永和區"
"234013","149-BY","2017/08/21 19:18:48","新北市永和區仁愛路99號","121.512778333333","25.0128416666667","6500400","永和區"
"234007","207-UY","2017/08/21 19:18:41","新北市永和區中山路一段334號","121.5062","25.0063666666667","6500400","永和區"
"234081","298-R6","2017/08/21 19:18:53","新北市永和區福和路7巷11弄2號","121.525496666667","25.0071183333333","6500400","永和區"
"234038","336-UY","2017/08/21 19:18:38","新北市永和區民樂街45巷1號","121.52746","24.9995","6500400","永和區"
"234064","337-UY","2017/08/21 19:18:39","新北市永和區永元路17巷6弄4號","121.521406666667","25.0006216666667","6500400","永和區"
"234086","338-UY","2017/08/21 19:18:54","新北市永和區永利路4巷22號","121.517506666667","25.00506","6500400","永和區"
"234054","553-UM","2017/08/21 19:18:52","新北市永和區中興街36號","121.516388333333","25.0117266666667","6500400","永和區"
"234017","745-BX","2017/08/21 19:18:51","新北市永和區文化路90巷54號","121.512691666667","25.01681","6500400","永和區"
"234030","746-BX","2017/08/21 19:18:54","新北市永和區民生路69號","121.522658333333","24.9972616666667","6500400","永和區"
"234061","AAD-866","2017/08/21 19:18:37","新北市永和區永貞路180號","121.516438333333","25.0044266666667","6500400","永和區"
"234070","847-RS","2017/08/21 19:18:49","新北市永和區中正路666巷29號","121.517875","25.0091116666667","6500400","永和區"
"234042","862-TW","2017/08/21 19:18:56","新北市永和區保平路151巷2弄3號","121.509958333333","25.0055116666667","6500400","永和區"
"234050","863-TW","2017/08/21 19:15:47","新北市永和區保福路二段78號","121.51041","25.0132533333333","6500400","永和區"
"234026","9371-KE","2017/08/21 19:18:44","新北市永和區中正路97號","121.5148","24.9975266666667","6500400","永和區"
"234011","9373-KE","2017/08/21 19:18:56","新北市永和區保福路二段23巷19號","121.51014","25.011265","6500400","永和區"
"249005","172-UM","2017/08/21 19:18:40","新北市八里區中華路三段185號","121.392245","25.1288666666667","6502300","八里區"
"249001","173-UM","2017/08/21 19:18:35","新北市八里區中華路一段307號","121.416481666667","25.1554983333333","6502300","八里區"
"249003","593-UM","2017/08/21 19:18:35","新北市八里區中山路二段466巷36弄20號","121.397723333333","25.1498683333333","6502300","八里區"
"248018","225-UY","2017/08/21 19:18:42","新北市五股區民義路一段220巷5-2號","121.42847","25.0926783333333","6501500","五股區"
"248012","247-BX","2017/08/21 19:18:46","新北市五股區中興路四段48巷16號","121.438605","25.0834116666667","6501500","五股區"
"248010","272-BY","2017/08/21 19:18:46","新北市五股區水碓一路23號","121.43069","25.0713033333333","6501500","五股區"
"248004","677-BX","2017/08/21 19:18:55","新北市五股區五福路38號","121.433963333333","25.0892583333333","6501500","五股區"
"248002","678-BX","2017/08/21 19:18:50","新北市五股區凌雲路一段158巷6號","121.447861666667","25.1029766666667","6501500","五股區"
"234023","9380-KE","2017/08/21 19:18:42","新北市永和區竹林路117-1號","121.52003","25.011535","6500400","永和區"
"234077","969-R7","2017/08/21 19:18:42","新北市永和區民族街44號","121.518433333333","24.998755","6500400","永和區"
"234074","AAC-211","2017/08/21 19:18:57","新北市永和區竹林路85號","121.519561666667","25.01228","6500400","永和區"
"234067","AAC-212","2017/08/21 19:18:46","新北市永和區保平路30巷3號","121.511753333333","25.0075066666667","6500400","永和區"
"234003","AAC-295","2017/08/21 19:18:57","新北市永和區中山路一段105號","121.511053333333","25.0103533333333","6500400","永和區"
"244019","403-UM","2017/08/21 19:18:37","新北市林口區麗園二街42巷8號","121.38188","25.06711","6501700","林口區"
"244009","410-SL","2017/08/21 19:18:40","新北市林口區林口路78號","121.389288333333","25.0806316666667","6501700","林口區"
"244023","483-VK","2017/08/21 14:49:08","新北市林口區粉寮69號","121.40498","25.09086","6501700","林口區"
"244023","657-BX","2017/08/21 19:18:41","新北市林口區仁愛路二段267巷8號","121.373176666667","25.0773183333333","6501700","林口區"
"244013","658-BX","2017/08/21 19:18:49","新北市林口區麗園一街4巷1號","121.3765","25.0713583333333","6501700","林口區"
"244011","701-TV","2017/08/21 19:18:50","新北市林口區中山路270號","121.383096666667","25.08086","6501700","林口區"
"243013","AAD-798","2017/08/21 19:18:37","新北市泰山區明志路三段165號","121.424586666667","25.0395166666667","6501600","泰山區"
"243009","297-R6","2017/08/21 19:18:51","新北市泰山區和平街15號","121.434413333333","25.0646683333333","6501600","泰山區"
"243015","380-SR","2017/08/21 19:18:50","新北市泰山區公園路40號","121.428883333333","25.0544","6501600","泰山區"
"243014","421-VK","2017/08/21 19:18:48","新北市泰山區泰林路二段222號","121.432598333333","25.0619483333333","6501600","泰山區"
"243010","548-UM","2017/08/21 19:18:47","新北市泰山區明志路二段13號","121.430045","25.0535766666667","6501600","泰山區"
"243011","549-UM","2017/08/21 19:18:50","新北市泰山區中央路11巷5號","121.42645","25.0427166666667","6501600","泰山區"
"243012","646-TV","2017/08/21 19:18:41","新北市泰山區仁愛路100巷31號","121.433641666667","25.0550016666667","6501600","泰山區"
"243016","680-BX","2017/08/21 19:18:50","新北市泰山區工專路6號","121.423978333333","25.03949","6501600","泰山區"
"222003","436-BY","2017/08/21 19:18:35","新北市深坑區深南路204號","121.626666666667","25.0160266666667","6501800","深坑區"
"222002","659-BX","2017/08/21 19:18:53","新北市深坑區紅葉街21號","121.632948333333","25.0124416666667","6501800","深坑區"
"222001","696-SL","2017/08/21 19:18:41","新北市深坑區北深路二段82號","121.617535","25.0035633333333","6501800","深坑區"
"231041","002-UM","2017/08/21 19:18:38","新北市新店區溪園路245-6號","121.525328333333","24.983205","6500600","新店區"
"231059","046-UY","2017/08/21 19:18:46","新北市新店區安和路三段37號","121.517876666667","24.9818683333333","6500600","新店區"
"231061","047-UY","2017/08/21 19:18:51","新北市新店區安康路一段273號","121.52402","24.9634566666667","6500600","新店區"
"231060","106-UY","2017/08/21 19:18:47","新北市新店區安康路二段115-1號","121.512515","24.96162","6500600","新店區"
"231051","107-UY","2017/08/21 19:18:44","新北市新店區百忍街68號","121.532915","24.9768016666667","6500600","新店區"
"231047","108-UY","2017/08/21 19:18:54","新北市新店區中興路一段282-5號","121.546248333333","24.9681916666667","6500600","新店區"
"231052","187-VK","2017/08/21 19:18:42","新北市新店區自強路153號","121.546003333333","24.92186","6500600","新店區"
"231046","278-BY","2017/08/21 19:18:51","新北市新店區華城路16號","121.529166666667","24.9576266666667","6500600","新店區"
"231050","AAD-862","2017/08/21 19:18:37","新北市新店區竹林路97巷17號","121.55448","24.9494016666667","6500600","新店區"
"231058","3712-VJ","2017/08/21 19:18:51","新北市新店區檳榔路36巷17號","121.541183333333","24.96326","6500600","新店區"
"231067","4772-VM","2017/08/21 19:18:57","新北市新店區安康路二段414巷2號","121.495885","24.9577616666667","6500600","新店區"
"231065","512-UM","2017/08/21 19:18:45","新北市新店區安祥路109巷5號","121.47578","24.9589883333333","6500600","新店區"
"231054","513-UM","2017/08/21 19:18:37","新北市新店區國校路65巷1號","121.538376666667","24.9540566666667","6500600","新店區"
"231042","616-UM","2017/08/21 19:18:44","新北市新店區中興路一段24號","121.538653333333","24.958305","6500600","新店區"
"231040","619-UM","2017/08/21 19:18:53","新北市新店區三民路34號","121.536618333333","24.9712983333333","6500600","新店區"
"231063","645-TV","2017/08/21 19:18:42","新北市新店區達觀路8巷5號","121.503761666667","24.9432666666667","6500600","新店區"
"231049","719-UM","2017/08/21 19:18:54","新北市新店區明德路66號","121.541541666667","24.979515","6500600","新店區"
"231064","719-UY","2017/08/21 19:18:43","新北市新店區安忠路90-5號","121.511415","24.9577983333333","6500600","新店區"
"231062","720-UM","2017/08/21 19:18:38","新北市新店區莒光路70號","121.52292","24.9550133333333","6500600","新店區"
"231044","897-TW","2017/08/21 19:18:46","新北市新店區中興路三段322號","121.54207","24.9861433333333","6500600","新店區"
"231045","898-TW","2017/08/21 19:18:53","新北市新店區北宜路一段260號","121.545696666667","24.9528016666667","6500600","新店區"
"231043","899-TW","2017/08/21 19:18:39","新北市新店區北新路二段107號","121.54295","24.9744466666667","6500600","新店區"
"231066","AKT-0513","2017/08/21 19:18:55","新北市新店區安康路三段355巷13號","121.48482","24.9504783333333","6500600","新店區"
"241009","060-VK","2017/08/21 19:18:54","新北市三重區溪尾街230巷54號","121.485843333333","25.0810366666667","6500200","三重區"
"241031","061-VK","2017/08/21 19:18:35","新北市三重區重新路四段216號","121.48591","25.0543133333333","6500200","三重區"
"241017","063-VK","2017/08/21 19:18:49","新北市三重區大同北路158號","121.492273333333","25.06556","6500200","三重區"
"241026","066-VK","2017/08/21 19:18:43","新北市三重區泉州街84巷20號","121.495926666667","25.05449","6500200","三重區"
"241022","267-UM","2017/08/21 19:18:55","新北市三重區中正北路58號","121.486923333333","25.0643783333333","6500200","三重區"
"241020","412-TH","2017/08/21 19:18:53","新北市三重區大智街183號","121.489455","25.0729783333333","6500200","三重區"
"241035","743-BX","2017/08/21 19:18:50","新北市三重區新北大道一段7號","121.48959","25.0614783333333","6500200","三重區"
"241029","942-UM","2017/08/21 19:18:51","新北市三重區集美街235號","121.492158333333","25.0553183333333","6500200","三重區"
"235064","005-UY","2017/08/21 19:18:40","新北市中和區中和路40巷14號","121.499475","25.0012616666667","6500300","中和區"
"235063","006-UY","2017/08/21 19:18:40","新北市中和區連城路347巷4弄32號","121.48686","24.9956266666667","6500300","中和區"
"235066","031-BX","2017/08/21 19:18:50","新北市中和區中和路102號","121.502643333333","24.99969","6500300","中和區"
"235056","096-UM","2017/08/21 19:18:45","新北市中和區員山路566號","121.479071666667","25.01067","6500300","中和區"
"235039","097-UM","2017/08/21 19:18:39","新北市中和區景平路64巷13弄16號","121.522025","24.991405","6500300","中和區"
"235065","098-UM","2017/08/21 19:18:40","新北市中和區中山路二段136巷70號","121.500591666667","25.004425","6500300","中和區"
"235040","150-BY","2017/08/21 19:18:44","新北市中和區保健路50巷1號","121.510441666667","24.9968366666667","6500300","中和區"
"235058","151-BY","2017/08/21 19:18:58","新北市中和區連城路469巷22弄2號","121.483305","24.9950833333333","6500300","中和區"
"235055","183-VK","2017/08/21 19:18:44","新北市中和區德光路132號","121.468006666667","25.0032266666667","6500300","中和區"
"235038","185-VK","2017/08/21 19:18:38","新北市中和區大仁街20巷37號","121.518938333333","24.9932316666667","6500300","中和區"
"235049","186-VK","2017/08/21 19:18:55","新北市中和區景新街229號","121.507875","24.9946566666667","6500300","中和區"
"235067","255-BX","2017/08/21 19:18:41","新北市中和區新生街195號","121.483838333333","25.0002016666667","6500300","中和區"
"235044","293-VK","2017/08/21 19:18:42","新北市中和區中興街228巷6號","121.500646666667","24.9897766666667","6500300","中和區"
"235072","301-VK","2017/08/21 19:18:33","新北市中和區連城路263號","121.491596666667","24.9965233333333","6500300","中和區"
"235043","352-BY","2017/08/21 19:18:42","新北市中和區景平路239號","121.509701666667","24.9928283333333","6500300","中和區"
"235051","376-QA","2017/08/21 19:18:47","新北市中和區捷運路6號","121.5102","24.9894916666667","6500300","中和區"
"235068","377-QA","2017/08/21 19:18:44","新北市中和區安邦街83號","121.496896666667","24.9966283333333","6500300","中和區"
"235061","378-QA","2017/08/21 19:18:44","新北市中和區員山路314巷2號","121.481738333333","25.0028133333333","6500300","中和區"
"235050","4979-A6","2017/08/21 19:18:57","新北市中和區景安路200巷3弄1號","121.503651666667","24.9914133333333","6500300","中和區"
"235069","4980-A6","2017/08/21 19:18:42","新北市中和區景平路736巷1弄6號","121.497278333333","25.0039866666667","6500300","中和區"
"235042","551-UM","2017/08/21 19:18:36","新北市中和區大勇街60巷16號","121.518733333333","24.9946233333333","6500300","中和區"
"235070","558-UM","2017/08/21 19:18:54","新北市中和區中和路51號","121.500463333333","25.0011416666667","6500300","中和區"
"235045","565-BX","2017/08/21 19:18:41","新北市中和區景新街437巷8號","121.51376","24.989165","6500300","中和區"
"235054","640-BX","2017/08/21 19:18:45","新北市中和區民德路148號","121.468673333333","25.0002783333333","6500300","中和區"
"235060","647-TV","2017/08/21 19:18:50","新北市中和區民有街11號","121.475705","25.00556","6500300","中和區"
"235047","732-UM","2017/08/21 19:18:49","新北市中和區和平街38巷3號","121.509261666667","24.9907766666667","6500300","中和區"
"235046","733-UM","2017/08/21 19:18:49","新北市中和區華新街196號","121.506826666667","24.98201","6500300","中和區"
"235062","800-TS","2017/08/21 19:18:46","新北市中和區中山路二段258號","121.497398333333","25.0024283333333","6500300","中和區"
"235057","801-TS","2017/08/21 19:18:51","新北市中和區民利街87號","121.478138333333","24.99808","6500300","中和區"
"235041","802-TS","2017/08/21 19:18:50","新北市中和區宜安路171號","121.508485","24.999175","6500300","中和區"
"235052","805-TS","2017/08/21 19:18:40","新北市中和區興南路二段128巷6號","121.504051666667","24.983715","6500300","中和區"
"235048","896-TW","2017/08/21 19:18:54","新北市中和區忠孝街39-13號","121.512065","24.9843466666667","6500300","中和區"
"235053","900-TW","2017/08/21 19:18:50","新北市中和區民德路260號","121.467735","24.9969316666667","6500300","中和區"
"235071","911-UM","2017/08/21 19:18:46","新北市中和區中正路637巷38號","121.485418333333","24.9946083333333","6500300","中和區"
"235037","AAC-213","2017/08/21 19:18:50","新北市中和區秀朗路三段95號","121.526523333333","24.9951266666667","6500300","中和區"
"235059","AAC-215","2017/08/21 19:18:45","新北市中和區圓通路286巷2號","121.491436666667","24.9909983333333","6500300","中和區"
"220068","013-TV","2017/08/21 19:18:48","新北市板橋區三民路一段1巷49號","121.480783333333","25.0248183333333","6500100","板橋區"
"220065","072-UY","2017/08/21 19:18:49","新北市板橋區民族路129巷10號","121.4677","25.008415","6500100","板橋區"
"220086","073-UY","2017/08/21 19:18:41","新北市板橋區國光路67巷39號","121.46022","25.0191083333333","6500100","板橋區"
"220106","075-UY","2017/08/21 19:18:40","新北市板橋區雙十路三段10巷9號","121.472103333333","25.03084","6500100","板橋區"
"220069","AAD-861","2017/08/21 19:18:52","新北市板橋區華興街26號","121.45913","25.0046533333333","6500100","板橋區"
"220102","120-SR","2017/08/21 19:18:39","新北市板橋區文聖街207號","121.479685","25.026435","6500100","板橋區"
"226004","312-R5","2017/08/21 19:18:56","新北市平溪區靜安路三段152號","121.7744","25.0381883333333","6502400","平溪區"
"228003","097-TW","2017/08/21 19:18:40","新北市貢寮區和美里和美街33號","121.91381","25.0829883333333","6502600","貢寮區"
"228002","585-TW","2017/08/21 19:18:52","新北市貢寮區雙玉里田寮洋街21號","121.928108333333","25.0234266666667","6502600","貢寮區"
"228001","670-TC","2017/08/21 19:18:55","新北市貢寮區真理里新港街10號","121.925526666667","25.0543483333333","6502600","貢寮區"
"224010","AGQ-8101","2017/08/21 19:18:50","新北市瑞芳區基山街76號","121.844615","25.10866","6501200","瑞芳區"
"224006","676-BX","2017/08/21 19:18:53","新北市瑞芳區傑魚坑路200-1號","121.801338333333","25.10674","6501200","瑞芳區"
"224011","420-VK","2017/08/21 19:18:36","新北市瑞芳區崙頂路3-1號","121.847003333333","25.1046666666667","6501200","瑞芳區"
"224009","285-BY","2017/08/21 19:18:54","新北市瑞芳區洞頂路101巷18號","121.860511666667","25.1216383333333","6501200","瑞芳區"
"224008","275-VK","2017/08/21 19:18:40","新北市瑞芳區一坑路148號","121.802035","25.1088683333333","6501200","瑞芳區"
"224005","271-BY","2017/08/21 19:18:51","新北市瑞芳區三爪子坑路43號","121.81314","25.10744","6501200","瑞芳區"
"227001","642-TC","2017/08/21 17:39:56","新北市雙溪區共和里東榮街52號","121.866303333333","25.0336","6502500","雙溪區"
"227008","400-TW","2017/08/21 19:18:52","新北市雙溪區新基里新基北街40號","121.868541666667","25.038095","6502500","雙溪區"
"253006","032-BX","2017/08/21 19:18:43","新北市石門區崁子腳25-1號","121.535148333333","25.2908733333333","6502200","石門區"
"253005","295-VK","2017/08/21 19:18:55","新北市石門區阿里荖18-2號","121.60752","25.28053","6502200","石門區"
"208002","742-BX","2017/08/21 19:18:49","新北市金山區中正路82號","121.633646666667","25.2218","6502700","金山區"
"208003","665-BX","2017/08/21 19:18:42","新北市金山區中山路165號","121.638771666667","25.2205883333333","6502700","金山區"
"208001","761-BX","2017/08/21 19:18:53","新北市金山區慈護街13號","121.639766666667","25.2203316666667","6502700","金山區"
"251009","008-UM","2017/08/21 19:12:46","新北市淡水區中正路55號","121.441811666667","25.1695533333333","6501000","淡水區"
"251002","012-UM","2017/08/21 19:18:36","新北市淡水區中正路354號","121.434461666667","25.17411","6501000","淡水區"
"251007","179-VK","2017/08/21 19:18:40","新北市淡水區民生路117巷46號","121.464918333333","25.1401116666667","6501000","淡水區"
"251013","182-VK","2017/08/21 19:18:45","新北市淡水區安子內12號","121.481573333333","25.2191016666667","6501000","淡水區"
"251010","413-VK","2017/08/21 19:18:54","新北市淡水區沙崙路30號","121.421523333333","25.1814633333333","6501000","淡水區"
"251015","442-VK","2017/08/21 19:18:43","新北市淡水區南勢埔32巷2號","121.484431666667","25.1803133333333","6501000","淡水區"
"251005","443-VK","2017/08/21 19:18:38","新北市淡水區原德路11號","121.442136666667","25.17124","6501000","淡水區"
"251001","559-UM","2017/08/21 19:18:37","新北市淡水區自強路201巷39號","121.46207","25.1268166666667","6501000","淡水區"
"251011","650-BX","2017/08/21 19:18:41","新北市淡水區中正東路二段143巷2弄1號","121.460718333333","25.1473316666667","6501000","淡水區"
"251003","766-UM","2017/08/21 19:18:46","新北市淡水區中山路159-6號","121.440898333333","25.17325","6501000","淡水區"
"207003","550-UM","2017/08/21 19:18:40","新北市萬里區大鵬里萬里加投79-3號","121.647383333333","25.2123433333333","6502800","萬里區"
"207004","225-TW","2017/08/21 19:18:47","新北市萬里區萬里里成功新村65號","121.688318333333","25.1745633333333","6502800","萬里區"
"252002","178-VK","2017/08/21 19:18:36","新北市三芝區忠孝街15號","121.506061666667","25.25523","6502100","三芝區"
"252003","249-BX","2017/08/21 19:18:45","新北市三芝區埔頭里埔頭39-1號","121.498993333333","25.26049","6502100","三芝區"
"252001","292-VK","2017/08/21 19:18:46","新北市三芝區長勤街9巷9弄2號","121.501808333333","25.2550333333333","6502100","三芝區"
"237004","078-UY","2017/08/21 19:18:54","新北市三峽區有木206號","121.4391","24.851505","6500900","三峽區"
"237007","153-BY","2017/08/21 19:18:40","新北市三峽區二鬮路178號","121.359081666667","24.9068166666667","6500900","三峽區"
"237009","210-TH","2017/08/21 19:18:52","新北市三峽區忠孝街27-3號","121.371321666667","24.93451","6500900","三峽區"
"237013","252-BX","2017/08/21 19:18:38","新北市三峽區光明路75巷34-1號","121.377845","24.9284433333333","6500900","三峽區"
"237012","275-BY","2017/08/21 19:18:50","新北市三峽區三樹路222巷254弄42號","121.39256","24.9441666666667","6500900","三峽區"
"237008","302-VK","2017/08/21 19:18:43","新北市三峽區光明路106巷14號","121.37629","24.9273333333333","6500900","三峽區"
"237014","433-BY","2017/08/21 19:18:53","新北市三峽區中山路257巷39號","121.3621","24.936505","6500900","三峽區"
"237006","5529-G3","2017/08/21 19:18:42","新北市三峽區大同路24號","121.377816666667","24.9293466666667","6500900","三峽區"
"237011","572-TV","2017/08/21 19:18:42","新北市三峽區介壽路一段159-1號","121.376838333333","24.9312016666667","6500900","三峽區"
"237015","649-BX","2017/08/21 19:18:41","新北市三峽區建安83號","121.453531666667","24.9205533333333","6500900","三峽區"
"237010","706-TV","2017/08/21 19:18:42","新北市三峽區復興路51號","121.373298333333","24.93675","6500900","三峽區"
"237005","AKY-6261","2017/08/21 19:18:43","新北市三峽區中山路459巷24號","121.357566666667","24.9388733333333","6500900","三峽區"
"236069","105-UM","2017/08/21 19:18:53","新北市土城區中央路一段71號","121.447851666667","24.98954","6501300","土城區"
"236078","166-UM","2017/08/21 19:18:50","新北市土城區龍泉路58-1號","121.413991666667","24.9439916666667","6501300","土城區"
"236030","253-BX","2017/08/21 19:18:36","新北市土城區城林路6巷80號","121.438515","24.9795966666667","6501300","土城區"
"236026","269-VK","2017/08/21 19:18:39","新北市土城區中正路65號","121.444441666667","24.9755983333333","6501300","土城區"
"236014","270-VK","2017/08/21 19:18:51","新北市土城區學府路一段23巷27號","121.457696666667","24.986935","6501300","土城區"
"236036","271-VK","2017/08/21 19:18:37","新北市土城區清水路98巷3弄1號","121.45754","24.9813383333333","6501300","土城區"
"236020","401-BY","2017/08/21 19:18:42","新北市土城區明峰街45號","121.467146666667","24.9863016666667","6501300","土城區"
"236058","912-UM","2017/08/21 19:18:53","新北市土城區金城路一段25-1號","121.43986","24.9692","6501300","土城區"
"236048","913-UM","2017/08/21 19:18:41","新北市土城區明德路一段398-1號","121.453638333333","24.9790833333333","6501300","土城區"
"242002","413-TV","2017/08/21 19:18:38","新北市新莊區新泰路357巷3弄57號","121.44186","25.0393","6500500","新莊區"
"238015","755-BX","2017/08/21 19:18:56","新北市樹林區備內街9-1號","121.412791666667","24.9869416666667","6500700","樹林區"
"238023","601-UM","2017/08/21 19:18:55","新北市樹林區三興路41號","121.395925","25.0145883333333","6500700","樹林區"
"238019","599-UM","2017/08/21 19:18:53","新北市樹林區鎮前街385號","121.415613333333","24.9837733333333","6500700","樹林區"
"238018","571-TV","2017/08/21 19:18:41","新北市樹林區太平路56巷1號","121.418825","24.9818483333333","6500700","樹林區"
"238024","5061-A6","2017/08/21 19:18:42","新北市樹林區中山路二段249巷30號","121.403523333333","24.9754433333333","6500700","樹林區"
"238022","312-TH","2017/08/21 19:18:55","新北市樹林區中山路二段151巷6弄15號","121.406151666667","24.9781083333333","6500700","樹林區"
"238021","311-TH","2017/08/21 19:18:52","新北市樹林區柑園街二段342巷32號","121.371053333333","24.9522283333333","6500700","樹林區"
"238025","303-VK","2017/08/21 19:18:41","新北市樹林區中山路一段201號","121.42114","24.98747","6500700","樹林區"
"238017","283-BY","2017/08/21 19:18:54","新北市樹林區光興街88號","121.407686666667","25.002765","6500700","樹林區"
"238001","282-BY","2017/08/21 19:18:48","新北市樹林區中正路22-1號","121.427715","24.9994366666667","6500700","樹林區"
"238020","268-VK","2017/08/21 01:56:53","新北市樹林區中山路三段204號","121.386786666667","24.968345","6500700","樹林區"
"238026","172-UY","2017/08/21 19:18:46","新北市樹林區佳園路三段36號","121.387941666667","24.95381","6500700","樹林區"
"238016","169-UY","2017/08/21 19:18:42","新北市樹林區備前街52號","121.416875","24.986155","6500700","樹林區"
"239007","AAC-297","2017/08/21 19:18:43","新北市鶯歌區大湖路余厝巷11號","121.341978333333","24.961525","6500800","鶯歌區"
"239006","891-R6","2017/08/21 19:18:48","新北市鶯歌區鶯桃路91巷20弄2號","121.338748333333","24.95312","6500800","鶯歌區"
"239008","527-UM","2017/08/21 19:18:48","新北市鶯歌區大湖路560號","121.33695","24.97326","6500800","鶯歌區"
"239005","526-UM","2017/08/21 19:18:47","新北市鶯歌區中湖街152巷3號","121.34979","24.9735783333333","6500800","鶯歌區"
"239001","417-VK","2017/08/21 19:18:47","新北市鶯歌區鶯桃路95巷15號","121.338546666667","24.9535133333333","6500800","鶯歌區"
"239003","360-BY","2017/08/21 19:18:47","新北市鶯歌區文昌街27-6號","121.349945","24.951575","6500800","鶯歌區"
"239004","193-VK","2017/08/21 19:18:37","新北市鶯歌區二甲路111號","121.333705","24.9314333333333","6500800","鶯歌區"
"221008","489-VK","2017/08/21 19:18:54","新北市汐止區康寧街330號","121.627486666667","25.0673283333333","6501100","汐止區"
"221036","130-UY","2017/08/21 19:18:39","新北市汐止區汐萬路一段256巷3號","121.652551666667","25.0745166666667","6501100","汐止區"
"221015","131-UY","2017/08/21 19:18:35","新北市汐止區康寧街901號","121.651621666667","25.0749583333333","6501100","汐止區"
"221031","277-VK","2017/08/21 19:18:52","新北市汐止區福德三路127號","121.633585","25.0675566666667","6501100","汐止區"
"221012","278-VK","2017/08/21 19:18:53","新北市汐止區汐萬路一段312號","121.650615","25.0753666666667","6501100","汐止區"
"221023","279-VK","2017/08/21 19:18:50","新北市汐止區康寧街901號","121.65099","25.0751833333333","6501100","汐止區"
"221027","281-BY","2017/08/21 18:57:04","新北市汐止區康寧街901號","121.650878333333","25.0752683333333","6501100","汐止區"
"221038","297-VK","2017/08/21 19:18:45","新北市汐止區汐萬路一段312號","121.650613333333","25.0753166666667","6501100","汐止區"
"221029","298-VK","2017/08/21 19:18:42","新北市汐止區康寧街901號","121.65142","25.074965","6501100","汐止區"
"221021","299-VK","2017/08/21 19:18:44","新北市汐止區康寧街901號","121.65138","25.0750716666667","6501100","汐止區"
"221010","646-BX","2017/08/21 19:18:38","新北市汐止區康寧街901號","121.651445","25.07505","6501100","汐止區"
"221033","647-BX","2017/08/21 19:18:42","新北市汐止區南勢街1巷1號","121.627035","25.037465","6501100","汐止區"
"221002","707-TV","2017/08/21 19:18:47","新北市汐止區大同路一段215-1號","121.633881666667","25.0573033333333","6501100","汐止區"
"221018","753-BX","2017/08/21 19:18:53","新北市汐止區康寧街901號","121.65156","25.0749283333333","6501100","汐止區"
"220079","145-BY","2017/08/21 19:18:44","新北市板橋區民權路202巷17弄17-3號","121.459968333333","25.016605","6500100","板橋區"
"220080","200-UY","2017/08/21 19:18:36","新北市板橋區大觀路二段19巷124號","121.450315","25.0026383333333","6500100","板橋區"
"220082","610-BX","2017/08/21 19:18:45","新北市板橋區溪崑二街138號","121.426011666667","24.9875633333333","6500100","板橋區"
"220101","245-BX","2017/08/21 19:18:55","新北市板橋區萬板路165號","121.474048333333","25.02342","6500100","板橋區"
"220075","256-TC","2017/08/21 19:18:42","新北市板橋區南雅西路一段10巷7弄1號","121.45467","25.0045316666667","6500100","板橋區"
"220103","257-TC","2017/08/21 19:18:55","新北市板橋區文化路一段188巷11號","121.466516666667","25.0193383333333","6500100","板橋區"
"220094","267-BY","2017/08/21 19:18:49","新北市板橋區光武街110巷50號","121.467315","25.03024","6500100","板橋區"
"220056","276-BY","2017/08/21 19:18:44","新北市板橋區信義路201號","121.459301666667","24.9916533333333","6500100","板橋區"
"220072","277-BY","2017/08/21 19:18:53","新北市板橋區金門街337巷7弄23號","121.430583333333","24.98526","6500100","板橋區"
"220071","283-VK","2017/08/21 19:18:46","新北市板橋區重慶路353巷7號","121.464815","24.9981","6500100","板橋區"
"220053","285-VK","2017/08/21 19:18:49","新北市板橋區富山街5號","121.47861","25.021555","6500100","板橋區"
"220081","287-VK","2017/08/21 19:18:46","新北市板橋區南雅西路一段82號","121.453391666667","25.0056866666667","6500100","板橋區"
"220090","288-VK","2017/08/21 19:18:52","新北市板橋區長江路一段106巷13弄35號","121.461368333333","25.0297766666667","6500100","板橋區"
"220061","293-UM","2017/08/21 19:18:45","新北市板橋區光復街16號","121.481425","25.019","6500100","板橋區"
"220084","296-UM","2017/08/21 19:18:50","新北市板橋區溪崑二街16巷11號","121.428001666667","24.99192","6500100","板橋區"
"220062","303-R5","2017/08/21 19:18:46","新北市板橋區三民路二段居仁巷2弄17號","121.479756666667","25.0128933333333","6500100","板橋區"
"220092","307-R5","2017/08/21 19:18:55","新北市板橋區光武街48巷25號","121.467635","25.0269783333333","6500100","板橋區"
"220098","317-R6","2017/08/21 19:18:50","新北市板橋區民有街80號","121.465113333333","25.0270483333333","6500100","板橋區"
"220064","486-VK","2017/08/21 19:18:55","新北市板橋區板新路174號","121.469931666667","25.0158616666667","6500100","板橋區"
"220089","487-VK","2017/08/21 19:18:41","新北市板橋區文化路二段133號","121.470041666667","25.02669","6500100","板橋區"
"220088","491-VK","2017/08/21 19:18:40","新北市板橋區雙十路二段149號","121.474756666667","25.0282266666667","6500100","板橋區"
"220035","560-BX","2017/08/21 19:18:48","新北市板橋區新生街23巷19號","121.456553333333","25.02259","6500100","板橋區"
"220055","568-UM","2017/08/21 19:18:48","新北市板橋區民族路90號","121.464023333333","25.009045","6500100","板橋區"
"220063","609-BX","2017/08/21 19:18:55","新北市板橋區三民路二段99號","121.479265","25.0162433333333","6500100","板橋區"
"220083","630-UY","2017/08/21 19:18:41","新北市板橋區大觀路二段174巷188號","121.44235","25.0037166666667","6500100","板橋區"
"220091","637-BX","2017/08/21 19:18:37","新北市板橋區萬板路478號","121.479976666667","25.0261883333333","6500100","板橋區"
"220057","686-BX","2017/08/21 19:18:39","新北市板橋區國慶路256號","121.463498333333","24.9981516666667","6500100","板橋區"
"220077","687-BX","2017/08/21 19:18:45","新北市板橋區大觀路一段28巷10號","121.449998333333","25.0088466666667","6500100","板橋區"
"220093","689-BX","2017/08/21 19:18:52","新北市板橋區文化路一段383號","121.467291666667","25.0217566666667","6500100","板橋區"
"220054","741-BX","2017/08/21 19:18:39","新北市板橋區重慶路71-4號","121.462111666667","25.0068616666667","6500100","板橋區"
"220067","829-TW","2017/08/21 19:18:53","新北市板橋區長安街180號","121.473931666667","25.0113083333333","6500100","板橋區"
"220096","831-TW","2017/08/21 19:18:41","新北市板橋區大同街14-4號","121.477493333333","25.027","6500100","板橋區"
"220074","895-R6","2017/08/21 19:18:52","新北市板橋區中正路自強新村45-2號","121.454808333333","25.0138116666667","6500100","板橋區"
"220073","985-R7","2017/08/21 19:18:48","新北市板橋區英士路190巷2號","121.458141666667","25.0224116666667","6500100","板橋區"
"220097","AAC-210","2017/08/21 19:18:54","新北市板橋區漢生西路89巷3弄8號","121.461446666667","25.019375","6500100","板橋區"
"220070","AAC-253","2017/08/21 19:18:54","新北市板橋區忠孝路2號","121.459496666667","25.001705","6500100","板橋區"
