"lineid","car","time","location","longitude","latitude","cityid","cityname"
"244023","483-VK","2017/08/21 14:49:08","新北市林口區粉寮69號","121.40498","25.09086","6501700","林口區"
"231063","645-TV","2017/08/21 21:38:21","新北市新店區如意街51號","121.493181666667","24.947355","6500600","新店區"
"241026","066-VK","2017/08/21 21:38:23","新北市三重區光復路二段188號","121.471221666667","25.062705","6500200","三重區"
"241005","262-UM","2017/08/21 21:38:37","新北市三重區仁華街6號","121.483403333333","25.0811883333333","6500200","三重區"
"241032","269-UM","2017/08/21 21:38:22","新北市林口區汕頭32號","121.366526666667","25.1349933333333","6500200","三重區"
"235026","800-TS","2017/08/21 21:33:57","新北市中和區員山路36巷16-3號","121.484956666667","24.9916983333333","6500300","中和區"
"224011","420-VK","2017/08/21 21:38:22","新北市瑞芳區中正路62號","121.806298333333","25.107505","6501200","瑞芳區"
"251009","008-UM","2017/08/21 21:37:52","新北市淡水區民族路31巷38號","121.462561666667","25.1368283333333","6501000","淡水區"
"251004","009-UM","2017/08/21 21:38:42","新北市淡水區民權路34號","121.459923333333","25.1374183333333","6501000","淡水區"
"251002","012-UM","2017/08/21 21:38:30","新北市淡水區學府路176號","121.446535","25.175615","6501000","淡水區"
"251008","181-VK","2017/08/21 21:38:36","新北市淡水區水源街二段62號","121.451028333333","25.1741716666667","6501000","淡水區"
"251010","413-VK","2017/08/21 21:38:33","新北市淡水區沙崙路242號","121.425883333333","25.18496","6501000","淡水區"
"251012","441-VK","2017/08/21 21:38:38","新北市淡水區興仁路159號","121.450241666667","25.21956","6501000","淡水區"
"251015","442-VK","2017/08/21 21:38:42","新北市淡水區淡金路二段15號","121.446201666667","25.1892","6501000","淡水區"
"251005","443-VK","2017/08/21 21:38:38","新北市淡水區水源街一段75號","121.444828333333","25.1723016666667","6501000","淡水區"
"251001","559-UM","2017/08/21 21:38:37","新北市淡水區新市二路三段172巷19號","121.436981666667","25.1919283333333","6501000","淡水區"
"251006","561-UM","2017/08/21 21:38:21","新北市淡水區中正路63號","121.44134","25.1690766666667","6501000","淡水區"
"251011","650-BX","2017/08/21 21:38:40","新北市淡水區新民街214號","121.436146666667","25.1801016666667","6501000","淡水區"
"251003","766-UM","2017/08/21 21:38:26","新北市淡水區新春街81號","121.438756666667","25.18235","6501000","淡水區"
"242019","135-UY","2017/08/21 21:38:28","新北市八里區中山路三段409號","121.368345","25.134895","6500500","新莊區"
"220070","AAC-253","2017/08/21 21:38:34","新北市三重區頂崁街23號","121.476481666667","25.056645","6500100","板橋區"
