"lineid","car","time","location","longitude","latitude","cityid","cityname"
"234066","AAC-212","2017/08/21 22:10:12","新北市永和區福和路1號","121.526408333333","25.00957","6500400","永和區"
"244023","483-VK","2017/08/21 14:49:08","新北市林口區粉寮69號","121.40498","25.09086","6501700","林口區"
"235026","800-TS","2017/08/21 21:33:57","新北市中和區員山路36巷16-3號","121.484956666667","24.9916983333333","6500300","中和區"
"251004","009-UM","2017/08/21 22:29:22","新北市淡水區民族路33號","121.462273333333","25.1357866666667","6501000","淡水區"
"251007","179-VK","2017/08/21 22:29:40","新北市淡水區北新路180號","121.449485","25.17878","6501000","淡水區"
"251008","181-VK","2017/08/21 22:29:36","新北市淡水區學府路104號","121.449906666667","25.1719016666667","6501000","淡水區"
"251015","442-VK","2017/08/21 22:29:22","新北市淡水區水碓街5號","121.443131666667","25.1770933333333","6501000","淡水區"
"251006","561-UM","2017/08/21 22:29:21","新北市淡水區沙崙路200號","121.424605","25.1838666666667","6501000","淡水區"
