"lineid","car","time","location","longitude","latitude","cityid","cityname"
"235026","911-UM","2017/07/05 13:49:32","新北市中和區新生街242巷1弄1號","121.483345","24.9978416666667","6500300","中和區"
"236038","271-VK","2017/07/05 13:49:15","新北市土城區南天母路32號","121.445691666667","24.955325","6501300","土城區"
"221010","276-VK","2017/07/05 13:04:00","新北市汐止區汐萬路一段256巷3號","121.653446666667","25.0745716666667","6501100","汐止區"
"242054","280-VK","2017/07/05 13:49:28","新北市新莊區中港路255巷6號","121.453436666667","25.0430683333333","6500500","新莊區"
"208003","TL-1","2017/07/05 13:49:25","新北市永和區國光路39-6號","121.519406666667","25.0081316666667","6502700","金山區"
