"lineid","car","time","location","longitude","latitude","cityid","cityname"
"235026","911-UM","2017/07/05 14:19:12","新北市新店區薏仁坑路自強巷1號","121.497028333333","24.957985","6500300","中和區"
"236038","271-VK","2017/07/05 14:19:15","新北市土城區南天母路27-2號","121.44482","24.9576033333333","6501300","土城區"
"221010","276-VK","2017/07/05 13:04:00","新北市汐止區汐萬路一段256巷3號","121.653446666667","25.0745716666667","6501100","汐止區"
"242054","280-VK","2017/07/05 14:19:28","新北市新莊區瓊林南路61-71號","121.439831666667","25.0184116666667","6500500","新莊區"
"208003","TL-1","2017/07/05 14:19:24","新北市永和區國光路39-6號","121.519406666667","25.0081316666667","6502700","金山區"
