"lineid","car","time","location","longitude","latitude","cityid","cityname"
"224011","AGQ-8101","2017/07/05 18:19:07","新北市瑞芳區金光路334號","121.848503333333","25.1099516666667","6501200","瑞芳區"
"251013","180-VK","2017/07/05 18:19:26","新北市淡水區破瓦厝子1-7號","121.476286666667","25.1999566666667","6501000","淡水區"
"251015","182-VK","2017/07/05 18:19:26","新北市淡水區興福寮88巷1號","121.48563","25.1650666666667","6501000","淡水區"
"221010","276-VK","2017/07/05 13:04:00","新北市汐止區汐萬路一段256巷3號","121.653446666667","25.0745716666667","6501100","汐止區"
"242054","280-VK","2017/07/05 15:18:18","新北市新莊區環河路636-7號","121.437298333333","25.0112583333333","6500500","新莊區"
