"lineid","car","time","location","longitude","latitude","cityid","cityname"
"224011","AGQ-8101","2017/07/05 19:22:27","新北市瑞芳區山尖路209號","121.84928","25.11145","6501200","瑞芳區"
"251013","180-VK","2017/07/05 19:29:26","新北市淡水區大牛稠4號","121.469628333333","25.220095","6501000","淡水區"
"251015","182-VK","2017/07/05 19:29:26","新北市淡水區北新路三段38巷7號","121.484528333333","25.1869483333333","6501000","淡水區"
"221010","276-VK","2017/07/05 13:04:00","新北市汐止區汐萬路一段256巷3號","121.653446666667","25.0745716666667","6501100","汐止區"
"242054","280-VK","2017/07/05 15:18:18","新北市新莊區環河路636-7號","121.437298333333","25.0112583333333","6500500","新莊區"
