"lineid","car","time","location","longitude","latitude","cityid","cityname"
"224011","AGQ-8101","2017/07/05 20:00:07","新北市瑞芳區金光路372號","121.848716666667","25.1106633333333","6501200","瑞芳區"
"251013","180-VK","2017/07/05 20:06:26","新北市淡水區奎柔山路250號","121.455946666667","25.2052566666667","6501000","淡水區"
"251015","182-VK","2017/07/05 20:09:26","新北市淡水區商工路147號","121.447271666667","25.1886533333333","6501000","淡水區"
"221010","276-VK","2017/07/05 13:04:00","新北市汐止區汐萬路一段256巷3號","121.653446666667","25.0745716666667","6501100","汐止區"
"242054","280-VK","2017/07/05 15:18:18","新北市新莊區環河路636-7號","121.437298333333","25.0112583333333","6500500","新莊區"
