"lineid","car","time","location","longitude","latitude","cityid","cityname"
"234066","AAC-212","2017/09/01 11:59:27","新北市永和區福和路1號","121.526258333333","25.009705","6500400","永和區"
"231009","192-VK","2017/09/01 11:59:22","新北市新店區自強路157-1號","121.546031666667","24.92169","6500600","新店區"
"227005","282-VK","2017/09/01 11:59:24","新北市雙溪區魚行里丁子蘭坑47號","121.865978333333","24.9990066666667","6502500","雙溪區"
"252007","AAC-283","2017/09/01 09:19:31","新北市三芝區埔坪里埔頭坑41號","121.50452","25.26439","6502100","三芝區"
"221012","276-VK","2017/09/01 11:59:24","新北市汐止區康寧街901號","121.651013333333","25.075165","6501100","汐止區"
