"lineid","car","time","location","longitude","latitude","cityid","cityname"
"234084","338-UY","2017/09/01 12:19:11","新北市永和區豫溪街217巷1號","121.524873333333","25.0093066666667","6500400","永和區"
"234068","552-UM","2017/09/01 12:19:20","新北市永和區福和路1號","121.525763333333","25.0094083333333","6500400","永和區"
"234040","862-TW","2017/09/01 12:19:18","新北市永和區福和路1號","121.52642","25.0096883333333","6500400","永和區"
"234066","AAC-212","2017/09/01 12:00:53","新北市永和區福和路1號","121.526255","25.0096733333333","6500400","永和區"
"231009","192-VK","2017/09/01 12:19:22","新北市新店區新烏路一段58號","121.546166666667","24.9496616666667","6500600","新店區"
"252007","AAC-283","2017/09/01 09:19:31","新北市三芝區埔坪里埔頭坑41號","121.50452","25.26439","6502100","三芝區"
"221012","276-VK","2017/09/01 12:19:24","新北市汐止區中正路232號","121.657908333333","25.0688033333333","6501100","汐止區"
