"lineid","car","time","location","longitude","latitude","cityid","cityname"
"234044","148-BY","2017/09/01 13:49:25","新北市永和區永利路135號","121.524175","25.0032616666667","6500400","永和區"
"234012","149-BY","2017/09/01 13:49:11","新北市永和區保生路55號","121.504723333333","25.0105866666667","6500400","永和區"
"234005","207-UY","2017/09/01 13:49:18","新北市中和區中和路380號","121.510643333333","25.0021633333333","6500400","永和區"
"234078","298-R6","2017/09/01 13:49:27","新北市永和區林森路62號","121.524015","25.0040966666667","6500400","永和區"
"234036","336-UY","2017/09/01 13:49:13","新北市永和區成功路二段171號","121.526625","24.9969466666667","6500400","永和區"
"234062","337-UY","2017/09/01 13:49:19","新北市永和區中正路368巷27號","121.518475","25.00082","6500400","永和區"
"234084","338-UY","2017/09/01 13:49:18","新北市永和區永利路46號","121.518708333333","25.00525","6500400","永和區"
"234068","552-UM","2017/09/01 13:49:19","新北市永和區福和路232號","121.519193333333","25.0076933333333","6500400","永和區"
"234052","553-UM","2017/09/01 13:49:22","新北市永和區竹林路75巷1-1號","121.519095","25.0133083333333","6500400","永和區"
"234015","745-BX","2017/09/01 13:49:24","新北市永和區文化路36號","121.514946666667","25.01504","6500400","永和區"
"234028","746-BX","2017/09/01 13:49:13","新北市永和區民生路67巷21號","121.523906666667","24.9972566666667","6500400","永和區"
"234060","AAD-866","2017/09/01 13:49:20","新北市永和區中正路226號","121.516066666667","24.9978083333333","6500400","永和區"
"234040","862-TW","2017/09/01 13:49:18","新北市永和區中和路373號","121.508136666667","24.9996916666667","6500400","永和區"
"234048","863-TW","2017/09/01 13:49:21","新北市永和區保安路142巷1號","121.508441666667","25.0151","6500400","永和區"
"234025","9371-KE","2017/09/01 13:49:17","新北市永和區自由街58號","121.513936666667","25.00599","6500400","永和區"
"234010","9373-KE","2017/09/01 13:49:21","新北市永和區仁愛路352巷92弄18號","121.501388333333","25.00829","6500400","永和區"
"248019","261-SL","2017/09/01 13:49:11","新北市五股區凌雲路三段35-1號","121.430661666667","25.1167133333333","6501500","五股區"
"234022","9380-KE","2017/09/01 13:49:19","新北市永和區復興街16巷10號","121.515688333333","25.01245","6500400","永和區"
"234076","969-R7","2017/09/01 13:49:15","新北市永和區民權路58巷3號","121.51963","24.99831","6500400","永和區"
"234072","AAC-211","2017/09/01 13:49:20","新北市永和區豫溪街185號","121.522466666667","25.0103683333333","6500400","永和區"
"234066","AAC-212","2017/09/01 13:49:15","新北市永和區永貞路355巷24號","121.508651666667","25.0073116666667","6500400","永和區"
"234001","AAC-295","2017/09/01 13:49:24","新北市永和區永和路一段105號","121.513831666667","25.00785","6500400","永和區"
"244004","248-BX","2017/09/01 13:49:26","新北市林口區南勢街236號","121.359035","25.0753116666667","6501700","林口區"
"244002","658-BX","2017/09/01 13:49:17","新北市林口區文化北路一段472號","121.365408333333","25.0777016666667","6501700","林口區"
"231028","001-UM","2017/09/01 13:49:12","新北市新店區安和路三段9巷1號","121.51801","24.9806633333333","6500600","新店區"
"231002","002-UM","2017/09/01 13:49:22","新北市新店區溪園路249號","121.523713333333","24.981975","6500600","新店區"
"231030","047-UY","2017/09/01 13:49:18","新北市新店區安康路一段222號","121.523726666667","24.9635816666667","6500600","新店區"
"231029","106-UY","2017/09/01 13:49:23","新北市新店區安康路二段125-1號","121.512366666667","24.9608866666667","6500600","新店區"
"231018","107-UY","2017/09/01 13:49:17","新北市新店區中正路382巷25號","121.535518333333","24.9782433333333","6500600","新店區"
"231012","108-UY","2017/09/01 13:49:24","新北市新店區中興路二段67巷17號","121.545875","24.971215","6500600","新店區"
"231022","187-VK","2017/09/01 13:49:19","新北市新店區湖子內路22號","121.54231","24.93079","6500600","新店區"
"231026","256-BX","2017/09/01 13:49:26","新北市新店區平等街48巷27號","121.534915","24.97319","6500600","新店區"
"231010","278-BY","2017/09/01 13:49:13","新北市新店區三民路60巷11號","121.5355","24.9727216666667","6500600","新店區"
"231016","AAD-862","2017/09/01 13:49:16","新北市新店區竹林路72巷15號","121.554175","24.95067","6500600","新店區"
"231027","3712-VJ","2017/09/01 13:49:20","新北市新店區北宜路一段39巷20號","121.538775","24.958365","6500600","新店區"
"231024","3713-VJ","2017/09/01 13:49:19","新北市新店區新生街20巷2號","121.53981","24.9665116666667","6500600","新店區"
"231025","4716-K9","2017/09/01 13:49:25","新北市新店區中央六街56號","121.527875","24.97569","6500600","新店區"
"231038","4715-K9","2017/09/01 13:49:16","新北市新店區安華路1-1號","121.519813333333","24.9602816666667","6500600","新店區"
"231036","512-UM","2017/09/01 13:49:10","新北市新店區安祥路110巷21號","121.47342","24.9559833333333","6500600","新店區"
"231023","513-UM","2017/09/01 13:49:07","新北市新店區國校路45號","121.538","24.9551166666667","6500600","新店區"
"231035","515-UM","2017/09/01 13:49:17","新北市新店區安忠路23號","121.514506666667","24.96136","6500600","新店區"
"231003","616-UM","2017/09/01 13:49:25","新北市新店區中興路一段123號","121.541833333333","24.9631666666667","6500600","新店區"
"231006","617-UM","2017/09/01 13:49:28","新北市新店區北宜路一段256號","121.545575","24.9528266666667","6500600","新店區"
"231001","619-UM","2017/09/01 13:49:26","新北市新店區三民路84號","121.534443333333","24.9726616666667","6500600","新店區"
"231034","645-TV","2017/09/01 13:49:26","新北市新店區達觀路14巷1號","121.503641666667","24.9411516666667","6500600","新店區"
"231013","719-UM","2017/09/01 13:49:14","新北市新店區北新路三段65巷30號","121.540276666667","24.9810466666667","6500600","新店區"
"231032","720-UM","2017/09/01 13:49:20","新北市新店區莒光路44巷21弄11-3號","121.518535","24.9520966666667","6500600","新店區"
"231005","897-TW","2017/09/01 13:49:18","新北市新店區寶中路137號","121.549865","24.9791416666667","6500600","新店區"
"231004","899-TW","2017/09/01 13:49:13","新北市新店區寶橋路132號","121.547348333333","24.9760116666667","6500600","新店區"
"231037","AKT-0513","2017/09/01 13:49:15","新北市新店區安康路三段355巷41號","121.48501","24.9494833333333","6500600","新店區"
"235030","003-UY","2017/09/01 13:49:30","新北市中和區水源路16號","121.504063333333","25.00349","6500300","中和區"
"235027","006-UY","2017/09/01 13:49:21","新北市中和區錦和路196巷4號","121.489826666667","24.9950233333333","6500300","中和區"
"235028","031-BX","2017/09/01 13:49:21","新北市中和區泰和街42號","121.499176666667","24.9998583333333","6500300","中和區"
"235020","096-UM","2017/09/01 13:49:22","新北市中和區中正路1180號","121.481195","25.010095","6500300","中和區"
"235003","097-UM","2017/09/01 13:49:10","新北市中和區景平路278巷16弄24號","121.514405","24.9937583333333","6500300","中和區"
"235004","150-BY","2017/09/01 13:49:17","新北市中和區宜安路65號","121.511285","24.9969833333333","6500300","中和區"
"235022","151-BY","2017/09/01 13:49:27","新北市中和區員山路109號","121.480855","24.9947183333333","6500300","中和區"
"235019","183-VK","2017/09/01 03:54:51","新北市中和區員山路36巷16-3號","121.485025","24.9913466666667","6500300","中和區"
"235002","185-VK","2017/09/01 13:49:18","新北市中和區立人街36號","121.518233333333","24.9941066666667","6500300","中和區"
"235013","186-VK","2017/09/01 13:49:26","新北市中和區景安路177巷11號","121.50586","24.9942983333333","6500300","中和區"
"235008","293-VK","2017/09/01 13:49:24","新北市中和區復興路280巷18弄6號","121.502348333333","24.9916483333333","6500300","中和區"
"235036","301-VK","2017/09/01 13:49:25","新北市中和區中山路二段131-6號","121.502383333333","25.00322","6500300","中和區"
"235007","352-BY","2017/09/01 13:49:16","新北市中和區成功路48號","121.526053333333","24.9928416666667","6500300","中和區"
"235015","376-QA","2017/09/01 13:49:24","新北市中和區忠孝街106巷52號","121.51366","24.9842383333333","6500300","中和區"
"235032","377-QA","2017/09/01 13:49:11","新北市中和區中正路211巷38-5號","121.497621666667","24.992555","6500300","中和區"
"235025","378-QA","2017/09/01 13:49:27","新北市中和區民治街128巷8號","121.47481","25.0029133333333","6500300","中和區"
"235014","4979-A6","2017/09/01 13:49:23","新北市中和區忠孝街58巷16弄13號","121.512215","24.98268","6500300","中和區"
"235033","4980-A6","2017/09/01 13:49:10","新北市中和區南山路52巷13號","121.501466666667","24.997285","6500300","中和區"
"235006","551-UM","2017/09/01 13:49:24","新北市中和區秀朗路三段70巷6號","121.526356666667","24.994655","6500300","中和區"
"235070","558-UM","2017/09/01 13:49:20","新北市中和區南華路16號","121.5027","24.9955216666667","6500300","中和區"
"235009","565-BX","2017/09/01 13:49:20","新北市中和區南山路395號","121.506676666667","24.99018","6500300","中和區"
"235018","640-BX","2017/09/01 13:49:08","新北市中和區民享街56號","121.473933333333","25.0024483333333","6500300","中和區"
"235024","647-TV","2017/09/01 13:49:24","新北市中和區中山路三段168號","121.472885","25.0063666666667","6500300","中和區"
"235011","732-UM","2017/09/01 13:49:09","新北市中和區興南路二段34巷57弄3號","121.50499","24.98588","6500300","中和區"
"235010","733-UM","2017/09/01 13:49:25","新北市中和區仁愛街36巷51號","121.51149","24.986205","6500300","中和區"
"235026","800-TS","2017/09/01 13:48:39","新北市中和區中山路二段340巷24號","121.493691666667","25.0034366666667","6500300","中和區"
"235021","801-TS","2017/09/01 13:49:11","新北市中和區民安街42巷5-2號","121.47844","25.00153","6500300","中和區"
"235005","802-TS","2017/09/01 13:49:20","新北市中和區永貞路239巷2號","121.512926666667","25.0037633333333","6500300","中和區"
"235016","805-TS","2017/09/01 13:49:10","新北市中和區興南路二段399巷37號","121.500656666667","24.9775966666667","6500300","中和區"
"235012","896-TW","2017/09/01 13:49:18","新北市中和區南山路228號","121.506505","24.9902183333333","6500300","中和區"
"235017","900-TW","2017/09/01 13:49:14","新北市中和區華安街16巷21號","121.466071666667","24.997405","6500300","中和區"
"235001","AAC-213","2017/09/01 13:49:15","新北市中和區秀朗路三段175巷7號","121.525068333333","24.9914733333333","6500300","中和區"
"235023","AAC-215","2017/09/01 13:49:14","新北市中和區圓通路391-2號","121.489975","24.98916","6500300","中和區"
"220016","013-TV","2017/09/01 13:49:28","新北市板橋區民生路二段56-6號","121.470775","25.018895","6500100","板橋區"
"220013","072-UY","2017/09/01 13:49:22","新北市板橋區縣民大道二段68-1號","121.463536666667","25.013065","6500100","板橋區"
"220105","075-UY","2017/09/01 13:49:24","新北市板橋區民生路二段120號","121.470396666667","25.01959","6500100","板橋區"
"220017","AAD-861","2017/09/01 13:49:25","新北市板橋區華東街268號","121.452636666667","25.0011683333333","6500100","板橋區"
"247007","339-TH","2017/09/01 13:49:11","新北市蘆洲區重陽街112號","121.482596666667","25.08543","6501400","蘆洲區"
"247013","057-VK","2017/09/01 13:49:14","新北市蘆洲區中正路107號","121.469615","25.0840733333333","6501400","蘆洲區"
"247003","056-VK","2017/09/01 13:49:25","新北市蘆洲區長安街108巷5弄6號","121.461256666667","25.0821416666667","6501400","蘆洲區"
"247005","053-VK","2017/09/01 13:49:14","新北市蘆洲區中山二路264號","121.46917","25.0786883333333","6501400","蘆洲區"
"247015","001-UY","2017/09/01 13:49:19","新北市蘆洲區中正路90號","121.470236666667","25.0836416666667","6501400","蘆洲區"
"227003","400-TW","2017/09/01 01:25:26","新北市雙溪區三貂里政光路3-1號","121.850825","25.0629833333333","6502500","雙溪區"
"208004","AAC-292","2017/09/01 13:49:27","新北市金山區山城路90巷17號","121.59891","25.2001983333333","6502700","金山區"
"207002","749-BX","2017/09/01 13:49:27","新北市萬里區崁腳里崁腳路173號","121.645136666667","25.1546716666667","6502800","萬里區"
"207001","662-BX","2017/09/01 13:48:58","新北市金山區月眉2號","121.634946666667","25.213865","6502800","萬里區"
"252007","AAC-283","2017/09/01 09:19:31","新北市三芝區埔坪里埔頭坑41號","121.50452","25.26439","6502100","三芝區"
"236067","105-UM","2017/09/01 13:49:12","新北市土城區城林路6巷80號","121.438343333333","24.9797316666667","6501300","土城區"
"236041","107-UM","2017/09/01 13:49:23","新北市土城區城林路6巷80號","121.438593333333","24.9796633333333","6501300","土城區"
"236077","166-UM","2017/09/01 13:49:21","新北市土城區中華路二段198號","121.437498333333","24.9700133333333","6501300","土城區"
"236025","269-VK","2017/09/01 13:49:11","新北市土城區中華路二段2號","121.439455","24.9795233333333","6501300","土城區"
"236013","270-VK","2017/09/01 13:49:09","新北市土城區城林路6巷80號","121.438431666667","24.9798166666667","6501300","土城區"
"236035","271-VK","2017/09/01 13:49:19","新北市土城區城林路6巷80號","121.438448333333","24.9796516666667","6501300","土城區"
"236019","401-BY","2017/09/01 13:49:22","新北市土城區城林路6巷80號","121.438595","24.9796533333333","6501300","土城區"
"236006","498-BY","2017/09/01 13:49:26","新北市土城區員福街22號","121.441458333333","24.97865","6501300","土城區"
"236029","752-BX","2017/09/01 13:49:20","新北市土城區城林路6巷80號","121.438756666667","24.97971","6501300","土城區"
"236057","912-UM","2017/09/01 13:49:13","新北市土城區城林路6巷80號","121.438388333333","24.9798816666667","6501300","土城區"
"236046","913-UM","2017/09/01 13:44:11","新北市土城區城林路6巷80號","121.43829","24.9797933333333","6501300","土城區"
"236061","915-UM","2017/09/01 13:49:19","新北市土城區城林路6巷80號","121.438423333333","24.97981","6501300","土城區"
"236054","AAC-216","2017/09/01 13:49:26","新北市土城區城林路6巷80號","121.43835","24.9797783333333","6501300","土城區"
"221012","276-VK","2017/09/01 13:20:49","新北市汐止區汐萬路一段256巷3號","121.653405","25.07462","6501100","汐止區"
"220027","145-BY","2017/09/01 13:49:13","新北市板橋區國光路1號","121.456558333333","25.017395","6500100","板橋區"
"220028","200-UY","2017/09/01 13:49:30","新北市板橋區大觀路二段265巷128號","121.442278333333","24.9961666666667","6500100","板橋區"
"220030","610-BX","2017/09/01 13:49:26","新北市板橋區篤行路三段24號","121.428651666667","24.9869766666667","6500100","板橋區"
"220050","245-BX","2017/09/01 02:58:00","新北市板橋區民生路二段161巷1號","121.470065","25.0198783333333","6500100","板橋區"
"220023","256-TC","2017/09/01 13:49:23","新北市板橋區大觀路一段28巷106-1號","121.450773333333","25.0108316666667","6500100","板橋區"
"220004","276-BY","2017/09/01 13:49:22","新北市板橋區四川路二段14號","121.455933333333","24.9962183333333","6500100","板橋區"
"220020","277-BY","2017/09/01 13:49:19","新北市板橋區金門街21號","121.433528333333","24.99465","6500100","板橋區"
"220043","283-UM","2017/09/01 13:49:24","新北市板橋區民生路二段120號","121.470375","25.0201783333333","6500100","板橋區"
"220019","283-VK","2017/09/01 13:49:25","新北市板橋區忠孝路176巷5弄2號","121.464741666667","25.002","6500100","板橋區"
"220001","285-VK","2017/09/01 13:49:26","新北市板橋區民生路二段56-6號","121.470773333333","25.0189516666667","6500100","板橋區"
"220031","286-VK","2017/09/01 13:49:21","新北市板橋區大觀路二段22巷20號","121.445663333333","25.0036466666667","6500100","板橋區"
"220029","287-VK","2017/09/01 13:49:13","新北市板橋區南雅西路二段123巷8號","121.451636666667","25.01074","6500100","板橋區"
"220039","288-VK","2017/09/01 13:49:19","新北市板橋區民生路二段120號","121.470376666667","25.0198566666667","6500100","板橋區"
"220009","293-UM","2017/09/01 13:49:28","新北市板橋區民生路二段56-6號","121.47075","25.0188266666667","6500100","板橋區"
"220032","296-UM","2017/09/01 13:49:27","新北市板橋區大觀路二段150巷72號","121.441461666667","25.001135","6500100","板橋區"
"220041","299-UM","2017/09/01 13:49:14","新北市板橋區民生路二段120號","121.47056","25.01982","6500100","板橋區"
"220010","303-R5","2017/09/01 13:49:08","新北市板橋區民生路二段123號","121.470631666667","25.01871","6500100","板橋區"
"220047","317-R6","2017/09/01 13:49:27","新北市板橋區民生路二段188號","121.470413333333","25.0203266666667","6500100","板橋區"
"220034","461-BY","2017/09/01 13:49:26","新北市板橋區大智街71巷22弄1號","121.453158333333","25.0147866666667","6500100","板橋區"
"220012","486-VK","2017/09/01 13:49:19","新北市板橋區民生路二段36-1號","121.472111666667","25.0167383333333","6500100","板橋區"
"220038","487-VK","2017/09/01 13:49:19","新北市板橋區民生路二段175號","121.469881666667","25.020265","6500100","板橋區"
"220037","491-VK","2017/09/01 13:49:15","新北市板橋區民生路二段188號","121.469955","25.0203916666667","6500100","板橋區"
"220104","560-BX","2017/09/01 13:49:22","新北市板橋區中正路325巷41號","121.453495","25.019395","6500100","板橋區"
"220052","561-BX","2017/09/01 13:49:18","新北市板橋區民生路二段120號","121.470328333333","25.0197216666667","6500100","板橋區"
"220011","609-BX","2017/09/01 13:49:01","新北市板橋區民生路二段161巷1號","121.470258333333","25.0199766666667","6500100","板橋區"
"220040","637-BX","2017/09/01 13:49:14","新北市板橋區民生路二段161巷1號","121.469973333333","25.0200733333333","6500100","板橋區"
"220005","686-BX","2017/09/01 13:49:20","新北市板橋區縣民大道一段64巷2號","121.455106666667","25.0041083333333","6500100","板橋區"
"220025","687-BX","2017/09/01 13:49:24","新北市板橋區金門街128號","121.432845","24.9911516666667","6500100","板橋區"
"220042","689-BX","2017/09/01 13:49:24","新北市板橋區民生路二段188號","121.470271666667","25.0202783333333","6500100","板橋區"
"220002","741-BX","2017/09/01 13:49:11","新北市板橋區館前西路29號","121.458448333333","25.0068733333333","6500100","板橋區"
"220003","827-TW","2017/09/01 13:49:14","新北市板橋區華東街268號","121.452568333333","25.0008383333333","6500100","板橋區"
"220014","829-TW","2017/09/01 13:49:23","新北市板橋區介壽街119號","121.470621666667","25.0187683333333","6500100","板橋區"
"220045","831-TW","2017/09/01 01:44:21","新北市板橋區民生路二段161巷5號","121.470285","25.0197316666667","6500100","板橋區"
"220022","895-R6","2017/09/01 13:49:29","新北市板橋區南門街59號","121.457203333333","25.0082933333333","6500100","板橋區"
"220021","985-R7","2017/09/01 13:49:12","新北市板橋區館前西路120號","121.45671","25.007605","6500100","板橋區"
"220046","AAC-210","2017/09/01 13:49:18","新北市板橋區民生路二段161巷1號","121.470225","25.0201116666667","6500100","板橋區"
"220018","AAC-253","2017/09/01 13:49:06","新北市板橋區南雅南路二段4巷2號","121.454188333333","25.00375","6500100","板橋區"
