"lineid","car","time","location","longitude","latitude","cityid","cityname"
"244002","658-BX","2017/09/01 15:19:17","新北市林口區文化二路一段413號","121.372081666667","25.074605","6501700","林口區"
"231028","001-UM","2017/09/01 15:19:12","新北市新店區僑信路96巷41號","121.498736666667","24.9469433333333","6500600","新店區"
"231002","002-UM","2017/09/01 15:19:09","新北市新店區中正路700巷1號","121.53392","24.9912016666667","6500600","新店區"
"231030","047-UY","2017/09/01 14:40:18","新北市新店區安民街277號","121.517438333333","24.9731816666667","6500600","新店區"
"231029","106-UY","2017/09/01 15:19:23","新北市新店區安康路三段738號","121.473913333333","24.9419866666667","6500600","新店區"
"231018","107-UY","2017/09/01 15:19:17","新北市新店區中央七街63號","121.527855","24.9763566666667","6500600","新店區"
"231012","108-UY","2017/09/01 15:19:13","新北市新店區順安街74號","121.541065","24.9866166666667","6500600","新店區"
"231022","187-VK","2017/09/01 15:19:19","新北市新店區永福路90號","121.561161666667","24.9285816666667","6500600","新店區"
"231026","256-BX","2017/09/01 15:19:18","新北市新店區中正路247巷2號","121.538896666667","24.973025","6500600","新店區"
"231024","3713-VJ","2017/09/01 15:19:27","新北市新店區新明街10號","121.541033333333","24.9682","6500600","新店區"
"231025","4716-K9","2017/09/01 15:19:25","新北市新店區中央路151號","121.5294","24.97227","6500600","新店區"
"231036","512-UM","2017/09/01 15:19:10","新北市新店區安祥路69巷19號","121.481876666667","24.9613","6500600","新店區"
"231023","513-UM","2017/09/01 15:19:27","新北市新店區行政街24號","121.543021666667","24.965645","6500600","新店區"
"231035","515-UM","2017/09/01 15:19:17","新北市新店區安和路三段61號","121.517953333333","24.983145","6500600","新店區"
"231003","616-UM","2017/09/01 15:19:16","新北市新店區寶高路13號","121.552223333333","24.9777766666667","6500600","新店區"
"231006","617-UM","2017/09/01 15:19:08","新北市新店區新坡一街105-1號","121.547608333333","24.9631883333333","6500600","新店區"
"231001","619-UM","2017/09/01 15:19:26","新北市新店區光明街306號","121.540525","24.964965","6500600","新店區"
"231034","645-TV","2017/09/01 15:19:18","新北市新店區如意街1巷2號","121.495733333333","24.949515","6500600","新店區"
"231039","718-UY","2017/09/01 15:19:23","新北市新店區寶元路一段63巷50號","121.542323333333","24.9866266666667","6500600","新店區"
"231032","720-UM","2017/09/01 15:19:21","新北市新店區和成街14巷1號","121.488041666667","24.9477566666667","6500600","新店區"
"231005","897-TW","2017/09/01 15:19:18","新北市新店區民族路59號","121.539865","24.9784566666667","6500600","新店區"
"231004","899-TW","2017/09/01 15:19:13","新北市新店區博愛街13巷24號","121.540218333333","24.9740483333333","6500600","新店區"
"231037","AKT-0513","2017/09/01 15:19:03","新北市新店區安興路85-48號","121.51327","24.9754066666667","6500600","新店區"
"235030","003-UY","2017/09/01 15:19:10","新北市中和區保平路326巷7號","121.506876666667","25.0044366666667","6500300","中和區"
"235003","097-UM","2017/09/01 15:19:10","新北市中和區安樂路217巷20弄15號","121.513491666667","24.998845","6500300","中和區"
"235032","377-QA","2017/09/01 15:19:15","新北市中和區錦和路154號","121.489523333333","24.997285","6500300","中和區"
"235014","4979-A6","2017/09/01 15:19:23","新北市中和區景安路177巷8號","121.50576","24.9940166666667","6500300","中和區"
"235033","4980-A6","2017/09/01 15:19:10","新北市中和區中正路550號","121.487098333333","24.994635","6500300","中和區"
"235006","551-UM","2017/09/01 15:19:24","新北市中和區景新街385號","121.512351666667","24.9901316666667","6500300","中和區"
"235070","558-UM","2017/09/01 15:19:20","新北市中和區中正路296號","121.494413333333","24.9939666666667","6500300","中和區"
"235012","896-TW","2017/09/01 15:19:17","新北市中和區景新街379號","121.512355","24.9902666666667","6500300","中和區"
"235001","AAC-213","2017/09/01 15:19:15","新北市中和區中正路810號","121.484831666667","25.0031466666667","6500300","中和區"
"235023","AAC-215","2017/09/01 15:19:14","新北市中和區圓通路316號","121.486505","24.9878016666667","6500300","中和區"
"220013","072-UY","2017/09/01 15:19:22","新北市板橋區館前西路46巷3號","121.45874","25.007085","6500100","板橋區"
"220051","120-SR","2017/09/01 15:19:21","新北市板橋區文化路一段190號","121.465988333333","25.0198483333333","6500100","板橋區"
"247002","336-TH","2017/09/01 15:17:41","新北市五股區中興路三段163號","121.449306666667","25.080495","6501400","蘆洲區"
"227003","400-TW","2017/09/01 01:25:26","新北市雙溪區三貂里政光路3-1號","121.850825","25.0629833333333","6502500","雙溪區"
"207001","662-BX","2017/09/01 15:19:18","新北市萬里區大鵬里萬里加投11號","121.65049","25.207055","6502800","萬里區"
"252007","AAC-283","2017/09/01 09:19:31","新北市三芝區埔坪里埔頭坑41號","121.50452","25.26439","6502100","三芝區"
"236067","105-UM","2017/09/01 15:19:12","新北市土城區裕民路185巷36弄10號","121.45435","24.98452","6501300","土城區"
"236041","107-UM","2017/09/01 15:19:23","新北市土城區裕民路185巷7號","121.453918333333","24.9848166666667","6501300","土城區"
"236077","166-UM","2017/09/01 15:19:21","新北市土城區中央路四段418-2號","121.41116","24.9528583333333","6501300","土城區"
"236025","269-VK","2017/09/01 15:19:14","新北市土城區中央路二段61巷20號","121.44303","24.9788133333333","6501300","土城區"
"236013","270-VK","2017/09/01 15:19:09","新北市土城區學府路一段42號","121.457905","24.98847","6501300","土城區"
"236035","271-VK","2017/09/01 15:19:19","新北市土城區國際路67號","121.466806666667","24.9764166666667","6501300","土城區"
"236019","401-BY","2017/09/01 15:19:22","新北市土城區金城路三段200-5號","121.468825","24.98771","6501300","土城區"
"236029","752-BX","2017/09/01 15:19:20","新北市土城區中華路一段215號","121.442488333333","24.9844333333333","6501300","土城區"
"236057","912-UM","2017/09/01 15:19:12","新北市土城區千歲路11號","121.440755","24.9695833333333","6501300","土城區"
"236046","913-UM","2017/09/01 15:19:28","新北市土城區明德路一段51號","121.465243333333","24.9849633333333","6501300","土城區"
"236061","915-UM","2017/09/01 15:19:18","新北市土城區延平街61號","121.467805","24.9926433333333","6501300","土城區"
"236054","AAC-216","2017/09/01 15:19:26","新北市土城區學府路一段254號","121.45145","24.9844666666667","6501300","土城區"
"221010","269-BY","2017/09/01 15:16:01","新北市汐止區汐萬路一段256巷3號","121.652066666667","25.0747833333333","6501100","汐止區"
"221012","276-VK","2017/09/01 13:20:49","新北市汐止區汐萬路一段256巷3號","121.653405","25.07462","6501100","汐止區"
"220050","245-BX","2017/09/01 15:19:15","新北市板橋區縣民大道三段38號","121.471808333333","25.01919","6500100","板橋區"
"220031","286-VK","2017/09/01 15:19:22","新北市板橋區僑中二街102巷41號","121.444478333333","25.0084583333333","6500100","板橋區"
"220038","487-VK","2017/09/01 15:19:19","新北市板橋區四維路199號","121.46405","25.026965","6500100","板橋區"
"220052","561-BX","2017/09/01 15:19:17","新北市板橋區漢生西路26號","121.463546666667","25.0182183333333","6500100","板橋區"
"220042","689-BX","2017/09/01 15:19:25","新北市板橋區新海路150號","121.460423333333","25.0237766666667","6500100","板橋區"
