"lineid","car","time","location","longitude","latitude","cityid","cityname"
"244002","658-BX","2017/09/01 15:29:17","新北市林口區民生路131巷2-2號","121.377866666667","25.0891","6501700","林口區"
"231028","001-UM","2017/09/01 15:29:12","新北市新店區僑信路29巷27號","121.499425","24.950895","6500600","新店區"
"231002","002-UM","2017/09/01 15:29:09","新北市新店區環河路152號","121.535028333333","24.9672316666667","6500600","新店區"
"231030","047-UY","2017/09/01 14:40:18","新北市新店區安民街277號","121.517438333333","24.9731816666667","6500600","新店區"
"231029","106-UY","2017/09/01 15:29:23","新北市新店區安康路三段628號","121.478805","24.9459233333333","6500600","新店區"
"231018","107-UY","2017/09/01 15:29:17","新北市新店區中央八街110號","121.525973333333","24.9779466666667","6500600","新店區"
"231012","108-UY","2017/09/01 15:29:13","新北市新店區寶慶街58巷2號","121.542186666667","24.9866666666667","6500600","新店區"
"231022","187-VK","2017/09/01 15:29:19","新北市新店區金興路28-2號","121.55129","24.93046","6500600","新店區"
"231026","256-BX","2017/09/01 15:29:18","新北市新店區三民路117巷7弄1號","121.534105","24.9711066666667","6500600","新店區"
"231024","3713-VJ","2017/09/01 15:29:07","新北市新店區安康路二段18號","121.51603","24.9637983333333","6500600","新店區"
"231025","4716-K9","2017/09/01 15:29:25","新北市新店區安和路三段1-1號","121.517313333333","24.9796566666667","6500600","新店區"
"231038","4715-K9","2017/09/01 15:29:16","新北市新店區安華路28-1號","121.519425","24.960585","6500600","新店區"
"231036","512-UM","2017/09/01 15:29:30","新北市新店區安祥路69巷52弄2號","121.481985","24.9598366666667","6500600","新店區"
"231023","513-UM","2017/09/01 15:29:27","新北市新店區北新路一段96巷23號","121.542805","24.968715","6500600","新店區"
"231035","515-UM","2017/09/01 15:29:17","新北市新店區安興路69-1號","121.515831666667","24.9752016666667","6500600","新店區"
"231003","616-UM","2017/09/01 15:29:16","新北市新店區寶高路120巷1-1號","121.55456","24.9759666666667","6500600","新店區"
"231006","617-UM","2017/09/01 15:29:28","新北市新店區安康路一段164號","121.526078333333","24.9630683333333","6500600","新店區"
"231034","645-TV","2017/09/01 15:29:18","新北市新店區富貴街10巷1號","121.49413","24.9495933333333","6500600","新店區"
"231039","718-UY","2017/09/01 15:29:26","新北市新店區寶元路一段84巷2號","121.544411666667","24.9838716666667","6500600","新店區"
"231032","720-UM","2017/09/01 15:29:20","新北市新店區裕合街105號","121.489946666667","24.9495583333333","6500600","新店區"
"231005","897-TW","2017/09/01 15:29:27","新北市新店區建國路297號","121.537113333333","24.986175","6500600","新店區"
"231004","899-TW","2017/09/01 15:29:13","新北市新店區民族路108號","121.53816","24.9772433333333","6500600","新店區"
"231037","AKT-0513","2017/09/01 15:29:15","新北市新店區安興路112號","121.51465","24.9776783333333","6500600","新店區"
"241017","063-VK","2017/09/01 15:29:19","新北市三重區重新路四段121號","121.484891666667","25.051965","6500200","三重區"
"241013","270-UM","2017/09/01 15:29:09","新北市三重區重新路四段121號","121.484815","25.05248","6500200","三重區"
"235014","4979-A6","2017/09/01 15:29:23","新北市中和區景新街160巷18號","121.50486","24.9967016666667","6500300","中和區"
"235033","4980-A6","2017/09/01 15:29:10","新北市中和區員山路347號","121.481123333333","25.00171","6500300","中和區"
"235006","551-UM","2017/09/01 15:29:24","新北市中和區圓通路146-1號","121.498036666667","24.99579","6500300","中和區"
"235001","AAC-213","2017/09/01 15:29:14","新北市三重區五谷王北街141巷1號","121.478636666667","25.0523516666667","6500300","中和區"
"235023","AAC-215","2017/09/01 15:29:13","新北市中和區員山路8-7號","121.484276666667","24.9822233333333","6500300","中和區"
"247002","336-TH","2017/09/01 15:17:41","新北市五股區中興路三段163號","121.449306666667","25.080495","6501400","蘆洲區"
"227003","400-TW","2017/09/01 01:25:26","新北市雙溪區三貂里政光路3-1號","121.850825","25.0629833333333","6502500","雙溪區"
"252007","AAC-283","2017/09/01 09:19:31","新北市三芝區埔坪里埔頭坑41號","121.50452","25.26439","6502100","三芝區"
"236067","105-UM","2017/09/01 15:29:11","新北市土城區學士路377號","121.44531","24.9766483333333","6501300","土城區"
"236041","107-UM","2017/09/01 15:29:23","新北市土城區學府路一段166-1號","121.454073333333","24.98669","6501300","土城區"
"236077","166-UM","2017/09/01 15:29:21","新北市土城區中州路76號","121.411991666667","24.95834","6501300","土城區"
"236025","269-VK","2017/09/01 15:29:20","新北市土城區明德路二段102巷5號","121.445458333333","24.9844383333333","6501300","土城區"
"236013","270-VK","2017/09/01 15:29:09","新北市土城區廣明街24號","121.455785","24.9924833333333","6501300","土城區"
"236035","271-VK","2017/09/01 15:29:19","新北市土城區明德路一段48巷13號","121.464658333333","24.983635","6501300","土城區"
"236019","401-BY","2017/09/01 15:29:22","新北市土城區金城路三段200-5號","121.46876","24.9877133333333","6501300","土城區"
"236029","752-BX","2017/09/01 15:29:19","新北市土城區日新街9巷2號","121.445275","24.987125","6501300","土城區"
"236057","912-UM","2017/09/01 15:29:12","新北市土城區中央路二段314號","121.440446666667","24.9730166666667","6501300","土城區"
"236046","913-UM","2017/09/01 15:29:10","新北市土城區青雲路239號","121.459065","24.9812233333333","6501300","土城區"
"236061","915-UM","2017/09/01 15:29:18","新北市土城區金城路三段73巷9弄2號","121.46624","24.9876666666667","6501300","土城區"
"236054","AAC-216","2017/09/01 15:29:06","新北市土城區延和路34號","121.464875","24.9885933333333","6501300","土城區"
"221010","269-BY","2017/09/01 15:16:01","新北市汐止區汐萬路一段256巷3號","121.652066666667","25.0747833333333","6501100","汐止區"
"221012","276-VK","2017/09/01 13:20:49","新北市汐止區汐萬路一段256巷3號","121.653405","25.07462","6501100","汐止區"
"220050","245-BX","2017/09/01 15:29:15","新北市板橋區漢生東路73巷2號","121.466186666667","25.01612","6500100","板橋區"
"220031","286-VK","2017/09/01 15:29:20","新北市板橋區僑中二街106巷15號","121.445161666667","25.00755","6500100","板橋區"
"220038","487-VK","2017/09/01 15:29:19","新北市板橋區四維路297號","121.463233333333","25.0284383333333","6500100","板橋區"
"220052","561-BX","2017/09/01 15:29:18","新北市板橋區漢生東路43巷25號","121.466365","25.0175816666667","6500100","板橋區"
