"lineid","car","time","location","longitude","latitude","cityid","cityname"
"234067","AAC-212","2017/09/01 16:16:31","新北市永和區福和路1號","121.526398333333","25.0096783333333","6500400","永和區"
"244002","658-BX","2017/09/01 16:19:17","新北市林口區粉寮69號","121.40506","25.0908333333333","6501700","林口區"
"231030","047-UY","2017/09/01 14:40:18","新北市新店區安民街277號","121.517438333333","24.9731816666667","6500600","新店區"
"231018","107-UY","2017/09/01 16:19:17","新北市新店區中正路694巷15號","121.535396666667","24.9908683333333","6500600","新店區"
"231046","278-BY","2017/09/01 16:19:19","新北市新店區灣潭路3-3號","121.538151666667","24.9508983333333","6500600","新店區"
"231035","515-UM","2017/09/01 16:19:17","新北市新店區車子路10-3號","121.504666666667","24.9546083333333","6500600","新店區"
"241011","013-R5","2017/09/01 16:19:16","新北市三重區龍濱路285號","121.501141666667","25.0733533333333","6500200","三重區"
"241028","022-UY","2017/09/01 16:19:13","新北市三重區正義南路181巷1號","121.499046666667","25.0571616666667","6500200","三重區"
"241008","059-VK","2017/09/01 16:19:26","新北市三重區永福街122-2號","121.479028333333","25.075305","6500200","三重區"
"241009","060-VK","2017/09/01 16:19:19","新北市三重區碧華街81號","121.485191666667","25.0814966666667","6500200","三重區"
"241031","061-VK","2017/09/01 16:19:12","新北市三重區重新路四段85巷19號","121.48534","25.0559466666667","6500200","三重區"
"241015","062-VK","2017/09/01 16:19:23","新北市三重區福德北路58號","121.501853333333","25.0658366666667","6500200","三重區"
"241017","063-VK","2017/09/01 16:19:19","新北市三重區大同北路91號","121.494671666667","25.0636516666667","6500200","三重區"
"241024","065-VK","2017/09/01 16:19:25","新北市三重區中正北路145巷14號","121.484133333333","25.0677933333333","6500200","三重區"
"241026","066-VK","2017/09/01 16:19:24","新北市三重區正義南路50號","121.49822","25.0608","6500200","三重區"
"241002","090-VK","2017/09/01 16:19:21","新北市三重區仁義街101巷22號","121.498981666667","25.0798833333333","6500200","三重區"
"241003","091-VK","2017/09/01 16:19:26","新北市三重區仁義街220巷33號","121.494141666667","25.0834916666667","6500200","三重區"
"241005","262-UM","2017/09/01 16:19:09","新北市三重區溪尾街300-2號","121.487435","25.0836966666667","6500200","三重區"
"241016","266-UM","2017/09/01 16:19:13","新北市三重區大仁街86號","121.492881666667","25.0654416666667","6500200","三重區"
"241022","267-UM","2017/09/01 16:19:11","新北市三重區重陽路一段113巷8號","121.488063333333","25.0599816666667","6500200","三重區"
"241018","268-UM","2017/09/01 16:19:17","新北市三重區重陽路三段7-2號","121.489011666667","25.06653","6500200","三重區"
"241013","270-UM","2017/09/01 16:19:09","新北市三重區三和路三段83巷24號","121.495556666667","25.0725183333333","6500200","三重區"
"241025","271-UM","2017/09/01 16:19:13","新北市三重區中正北路560巷100弄2號","121.47256","25.0682466666667","6500200","三重區"
"241007","412-TH","2017/09/01 16:19:18","新北市三重區三和路四段163巷79號","121.48612","25.07921","6500200","三重區"
"241020","413-TH","2017/09/01 16:19:22","新北市三重區後竹圍街272號","121.483781666667","25.0709883333333","6500200","三重區"
"241004","475-VK","2017/09/01 16:18:39","新北市三重區仁愛街377巷134號","121.493906666667","25.0818716666667","6500200","三重區"
"241019","478-VK","2017/09/01 16:19:11","新北市三重區重陽路三段95號","121.49029","25.067865","6500200","三重區"
"241014","543-UM","2017/09/01 16:19:18","新北市三重區河邊北街100巷1號","121.50383","25.0704333333333","6500200","三重區"
"241023","545-UM","2017/09/01 16:19:11","新北市三重區忠孝路二段124巷1弄13號","121.48278","25.0681366666667","6500200","三重區"
"241001","547-UM","2017/09/01 16:19:28","新北市三重區自強路四段78號","121.490576666667","25.078785","6500200","三重區"
"241006","AAD-863","2017/09/01 16:19:15","新北市三重區永福街46巷41弄13號","121.481868333333","25.077165","6500200","三重區"
"241012","941-UM","2017/09/01 16:19:20","新北市三重區龍門路300號","121.502476666667","25.0743266666667","6500200","三重區"
"241029","942-UM","2017/09/01 16:19:22","新北市三重區同安街116號","121.49425","25.0562916666667","6500200","三重區"
"241033","AAC-255","2017/09/01 16:19:12","新北市三重區五谷王南街11巷23弄21號","121.472443333333","25.0439283333333","6500200","三重區"
"235026","800-TS","2017/09/01 16:19:19","新北市中和區建八路130號","121.489076666667","24.9985783333333","6500300","中和區"
"247002","336-TH","2017/09/01 15:17:41","新北市五股區中興路三段163號","121.449306666667","25.080495","6501400","蘆洲區"
"224006","676-BX","2017/09/01 16:19:11","新北市瑞芳區中正路2號","121.809278333333","25.1069683333333","6501200","瑞芳區"
"224007","273-VK","2017/09/01 16:19:22","新北市瑞芳區大埔路172-1號","121.762365","25.1022266666667","6501200","瑞芳區"
"224005","271-BY","2017/09/01 16:19:02","新北市瑞芳區岳王路94號","121.812025","25.1114416666667","6501200","瑞芳區"
"227011","642-TC","2017/09/01 16:19:10","新北市雙溪區三港里雙澳路78號","121.883738333333","25.0538583333333","6502500","雙溪區"
"227003","400-TW","2017/09/01 16:19:09","新北市雙溪區上林里內平林80號","121.828445","25.0279766666667","6502500","雙溪區"
"251013","180-VK","2017/09/01 16:18:54","新北市淡水區商工路198巷1號","121.451033333333","25.1880166666667","6501000","淡水區"
"251008","181-VK","2017/09/01 16:19:15","新北市淡水區中正東路二段48巷20號","121.457391666667","25.1584233333333","6501000","淡水區"
"251015","182-VK","2017/09/01 16:19:12","新北市淡水區中正路二段31號","121.419258333333","25.1817866666667","6501000","淡水區"
"252002","178-VK","2017/09/01 16:19:26","新北市三芝區埔坪里埔頭坑41號","121.504636666667","25.2645966666667","6502100","三芝區"
"252007","AAC-283","2017/09/01 09:19:31","新北市三芝區埔坪里埔頭坑41號","121.50452","25.26439","6502100","三芝區"
"236057","912-UM","2017/09/01 16:19:12","新北市土城區永平街72號","121.427258333333","24.9590966666667","6501300","土城區"
"221010","269-BY","2017/09/01 16:04:57","新北市汐止區汐萬路一段256巷3號","121.652146666667","25.0748683333333","6501100","汐止區"
"221012","276-VK","2017/09/01 13:20:49","新北市汐止區汐萬路一段256巷3號","121.653405","25.07462","6501100","汐止區"
