"lineid","car","time","location","longitude","latitude","cityid","cityname"
"249005","172-UM","2017/09/01 16:39:13","新北市八里區仁愛路10號","121.413288333333","25.1623266666667","6502300","八里區"
"249002","305-UY","2017/09/01 16:39:09","新北市八里區大堀湖22-1號","121.427341666667","25.1486166666667","6502300","八里區"
"249003","593-UM","2017/09/01 16:39:16","新北市八里區挖子尾街6號","121.415548333333","25.1642366666667","6502300","八里區"
"234067","AAC-212","2017/09/01 16:16:31","新北市永和區福和路1號","121.526398333333","25.0096783333333","6500400","永和區"
"244002","658-BX","2017/09/01 16:21:25","新北市林口區粉寮69號","121.405045","25.0908233333333","6501700","林口區"
"231030","047-UY","2017/09/01 16:39:04","新北市新店區安華路28-1號","121.519278333333","24.960905","6500600","新店區"
"231046","278-BY","2017/09/01 16:39:19","新北市新店區灣潭路15-2號","121.542038333333","24.943265","6500600","新店區"
"241011","013-R5","2017/09/01 16:39:16","新北市三重區仁愛街43巷12號","121.497228333333","25.0718083333333","6500200","三重區"
"241028","022-UY","2017/09/01 16:39:13","新北市三重區中正南路3號","121.493196666667","25.0604183333333","6500200","三重區"
"241008","059-VK","2017/09/01 16:39:27","新北市三重區永安北路一段27巷30號","121.477405","25.07558","6500200","三重區"
"241009","060-VK","2017/09/01 16:39:19","新北市三重區三和路四段203巷69號","121.483626666667","25.079865","6500200","三重區"
"241031","061-VK","2017/09/01 16:39:12","新北市三重區重新路四段41巷5弄1號","121.487455","25.0582266666667","6500200","三重區"
"241015","062-VK","2017/09/01 16:39:25","新北市三重區文化北路37-2號","121.498978333333","25.0651283333333","6500200","三重區"
"241017","063-VK","2017/09/01 16:39:19","新北市三重區中正北路25巷7號","121.492603333333","25.0621216666667","6500200","三重區"
"241024","065-VK","2017/09/01 16:39:24","新北市三重區中正北路315巷6弄58號","121.475746666667","25.0724966666667","6500200","三重區"
"241026","066-VK","2017/09/01 16:39:24","新北市三重區福德南路48號","121.502946666667","25.0624366666667","6500200","三重區"
"241002","090-VK","2017/09/01 16:39:21","新北市三重區自強路五段99號","121.495606666667","25.0821866666667","6500200","三重區"
"241003","091-VK","2017/09/01 16:39:29","新北市三重區五華街71巷27號","121.493141666667","25.0831816666667","6500200","三重區"
"241005","262-UM","2017/09/01 16:39:29","新北市三重區碧華街194號","121.48634","25.0821533333333","6500200","三重區"
"241016","266-UM","2017/09/01 16:39:13","新北市三重區大智街1-1號","121.494791666667","25.0649016666667","6500200","三重區"
"241022","267-UM","2017/09/01 16:39:11","新北市三重區重陽路二段12號","121.486603333333","25.06211","6500200","三重區"
"241018","268-UM","2017/09/01 16:39:17","新北市三重區六張街71號","121.493576666667","25.070165","6500200","三重區"
"241032","269-UM","2017/09/01 16:39:13","新北市三重區三民街28號","121.485591666667","25.0612366666667","6500200","三重區"
"241013","270-UM","2017/09/01 16:39:09","新北市三重區三和路三段101巷27號","121.495205","25.0727633333333","6500200","三重區"
"241025","271-UM","2017/09/01 16:39:13","新北市三重區中正北路428巷15號","121.474436666667","25.07006","6500200","三重區"
"241007","412-TH","2017/09/01 16:39:18","新北市三重區三和路四段167巷84號","121.48526","25.0794783333333","6500200","三重區"
"241020","413-TH","2017/09/01 16:39:21","新北市三重區後竹圍街183號","121.485711666667","25.0716466666667","6500200","三重區"
"241004","475-VK","2017/09/01 16:39:19","新北市三重區五福街27號","121.492315","25.0812883333333","6500200","三重區"
"241019","478-VK","2017/09/01 16:39:24","新北市三重區重陽路三段7號","121.488855","25.0663416666667","6500200","三重區"
"241030","480-VK","2017/09/01 16:39:25","新北市三重區成功路50巷37號","121.488143333333","25.0495766666667","6500200","三重區"
"241014","543-UM","2017/09/01 16:39:18","新北市三重區龍濱路40號","121.502721666667","25.0683316666667","6500200","三重區"
"241023","545-UM","2017/09/01 16:39:11","新北市三重區忠孝路三段50巷45號","121.482818333333","25.06428","6500200","三重區"
"241001","547-UM","2017/09/01 16:39:08","新北市三重區仁愛街253號","121.493215","25.0781783333333","6500200","三重區"
"241006","AAD-863","2017/09/01 16:39:15","新北市三重區車路頭街136巷1號","121.483466666667","25.0755083333333","6500200","三重區"
"241012","941-UM","2017/09/01 16:39:20","新北市三重區仁興街3巷15號","121.500416666667","25.0739766666667","6500200","三重區"
"241029","942-UM","2017/09/01 16:39:22","新北市三重區成功路73巷35號","121.490071666667","25.052945","6500200","三重區"
"241033","AAC-255","2017/09/01 16:39:12","新北市三重區光復路一段99巷6號","121.473065","25.0510566666667","6500200","三重區"
"235067","255-BX","2017/09/01 16:33:13","新北市中和區員山路36巷13號","121.484296666667","24.991375","6500300","中和區"
"235026","800-TS","2017/09/01 16:39:19","新北市中和區中正路368-6號","121.493266666667","24.994525","6500300","中和區"
"235041","802-TS","2017/09/01 16:27:17","新北市中和區員山路36巷16-2號","121.485313333333","24.9916933333333","6500300","中和區"
"247008","339-TH","2017/09/01 16:39:20","新北市蘆洲區永安南路二段228號","121.460718333333","25.0793766666667","6501400","蘆洲區"
"247002","336-TH","2017/09/01 16:39:15","新北市五股區中興路三段163號","121.449275","25.0806383333333","6501400","蘆洲區"
"247014","057-VK","2017/09/01 16:39:25","新北市蘆洲區三民路378號","121.464186666667","25.091635","6501400","蘆洲區"
"247004","056-VK","2017/09/01 16:39:09","新北市蘆洲區長安街247號","121.458995","25.0833","6501400","蘆洲區"
"247016","001-UY","2017/09/01 16:39:17","新北市蘆洲區環堤大道365號","121.457173333333","25.097405","6501400","蘆洲區"
"224006","676-BX","2017/09/01 16:39:11","新北市瑞芳區大寮路356-1號","121.784683333333","25.10325","6501200","瑞芳區"
"224008","275-VK","2017/09/01 16:39:23","新北市瑞芳區傑魚坑路82號","121.792693333333","25.11049","6501200","瑞芳區"
"224007","273-VK","2017/09/01 16:39:22","新北市瑞芳區中央路48巷34號","121.76112","25.1030466666667","6501200","瑞芳區"
"224005","271-BY","2017/09/01 16:39:21","新北市瑞芳區洞頂路101號","121.86153","25.118295","6501200","瑞芳區"
"227011","642-TC","2017/09/01 16:39:10","新北市雙溪區牡丹里中正路58巷10號","121.866135","25.0413283333333","6502500","雙溪區"
"227003","400-TW","2017/09/01 16:39:09","新北市雙溪區外柑里土地公後5號","121.815593333333","25.0204166666667","6502500","雙溪區"
"251013","180-VK","2017/09/01 16:39:19","新北市淡水區大溪8號","121.495783333333","25.1903716666667","6501000","淡水區"
"251008","181-VK","2017/09/01 16:39:15","台北市北投區中央北路四段30巷160號","121.474143333333","25.1404733333333","6501000","淡水區"
"251015","182-VK","2017/09/01 16:39:12","新北市淡水區忠愛街3-1號","121.45794","25.171615","6501000","淡水區"
"252002","178-VK","2017/09/01 16:39:26","新北市三芝區茂長里陳厝坑12-9號","121.514276666667","25.2553166666667","6502100","三芝區"
"252001","702-TV","2017/09/01 16:39:24","新北市三芝區埔坪里埔頭坑52號","121.507553333333","25.2654016666667","6502100","三芝區"
"252007","AAC-283","2017/09/01 09:19:31","新北市三芝區埔坪里埔頭坑41號","121.50452","25.26439","6502100","三芝區"
"239003","360-BY","2017/09/01 16:39:20","新北市鶯歌區二甲路12-2號","121.345521666667","24.9350633333333","6500800","鶯歌區"
"221010","269-BY","2017/09/01 16:04:57","新北市汐止區汐萬路一段256巷3號","121.652146666667","25.0748683333333","6501100","汐止區"
"221012","276-VK","2017/09/01 13:20:49","新北市汐止區汐萬路一段256巷3號","121.653405","25.07462","6501100","汐止區"
