"lineid","car","time","location","longitude","latitude","cityid","cityname"
"249005","172-UM","2017/09/01 16:49:13","新北市八里區大堀湖2-3號","121.422321666667","25.153695","6502300","八里區"
"249001","173-UM","2017/09/01 16:49:18","新北市八里區挖子尾街12號","121.415396666667","25.1643016666667","6502300","八里區"
"249004","303-UY","2017/09/01 16:49:20","新北市八里區博物館路29號","121.413975","25.1627833333333","6502300","八里區"
"249002","305-UY","2017/09/01 16:49:09","新北市八里區牛寮埔33號","121.429891666667","25.1457166666667","6502300","八里區"
"249003","593-UM","2017/09/01 16:49:16","新北市八里區中山路二段93號","121.405968333333","25.152745","6502300","八里區"
"234067","AAC-212","2017/09/01 16:16:31","新北市永和區福和路1號","121.526398333333","25.0096783333333","6500400","永和區"
"244007","080-UY","2017/09/01 16:49:09","新北市林口區粉寮路一段105號","121.397768333333","25.0802616666667","6501700","林口區"
"244019","403-UM","2017/09/01 16:48:57","新北市林口區粉寮69號","121.404956666667","25.0908466666667","6501700","林口區"
"244002","658-BX","2017/09/01 16:21:25","新北市林口區粉寮69號","121.405045","25.0908233333333","6501700","林口區"
"231046","278-BY","2017/09/01 16:49:19","新北市新店區灣潭路15-11號","121.541878333333","24.94058","6500600","新店區"
"241011","013-R5","2017/09/01 16:49:16","新北市三重區仁愛街53巷172號","121.50003","25.0728866666667","6500200","三重區"
"241028","022-UY","2017/09/01 16:49:13","新北市三重區光興街91號","121.497403333333","25.059965","6500200","三重區"
"241008","059-VK","2017/09/01 16:49:26","新北市三重區永福街177巷22號","121.478103333333","25.0750533333333","6500200","三重區"
"241009","060-VK","2017/09/01 16:49:19","新北市三重區三和路四段203巷269號","121.487735","25.0810483333333","6500200","三重區"
"241031","061-VK","2017/09/01 16:49:14","新北市三重區過圳街42-1號","121.48809","25.0599033333333","6500200","三重區"
"241015","062-VK","2017/09/01 16:49:24","新北市三重區長元街26號","121.49951","25.0659083333333","6500200","三重區"
"241017","063-VK","2017/09/01 16:49:19","新北市三重區國隆路8巷23號","121.492858333333","25.063515","6500200","三重區"
"241024","065-VK","2017/09/01 16:49:24","新北市三重區中正北路317巷23號","121.475611666667","25.0729633333333","6500200","三重區"
"241026","066-VK","2017/09/01 16:49:24","新北市三重區文化南路8-4號","121.500348333333","25.0620716666667","6500200","三重區"
"241002","090-VK","2017/09/01 16:49:21","新北市三重區仁義街233-1號","121.496431666667","25.082455","6500200","三重區"
"241003","091-VK","2017/09/01 16:49:29","新北市三重區五華街87巷37弄1號","121.49349","25.0841233333333","6500200","三重區"
"241005","262-UM","2017/09/01 16:49:09","新北市三重區仁華街62巷9號","121.483875","25.0832266666667","6500200","三重區"
"241016","266-UM","2017/09/01 16:49:13","新北市三重區大同北路135巷27號","121.493725","25.0647483333333","6500200","三重區"
"241022","267-UM","2017/09/01 16:49:11","新北市三重區中華路72號","121.483491666667","25.0625316666667","6500200","三重區"
"241018","268-UM","2017/09/01 16:49:17","新北市三重區正義北路302巷38號","121.494223333333","25.069335","6500200","三重區"
"241032","269-UM","2017/09/01 16:49:17","新北市三重區重陽路一段118號","121.48638","25.0601233333333","6500200","三重區"
"241013","270-UM","2017/09/01 16:49:09","新北市三重區仁壽街93號","121.498213333333","25.0736866666667","6500200","三重區"
"241025","271-UM","2017/09/01 16:49:13","新北市三重區中正北路530巷1號","121.471576666667","25.0715766666667","6500200","三重區"
"241007","412-TH","2017/09/01 16:49:18","新北市三重區三和路四段171號","121.48299","25.078825","6500200","三重區"
"241020","413-TH","2017/09/01 16:49:21","新北市三重區忠孝路二段34號","121.485795","25.0710716666667","6500200","三重區"
"241004","475-VK","2017/09/01 16:49:19","新北市三重區仁愛街397巷3號","121.49151","25.081115","6500200","三重區"
"241019","478-VK","2017/09/01 16:49:11","新北市三重區力行路一段173號","121.484601666667","25.0694666666667","6500200","三重區"
"241030","480-VK","2017/09/01 16:49:13","新北市三重區新興路4號","121.492658333333","25.052755","6500200","三重區"
"241014","543-UM","2017/09/01 16:49:18","新北市三重區長榮路77號","121.502673333333","25.06915","6500200","三重區"
"241023","545-UM","2017/09/01 16:49:11","新北市三重區中華路76巷27號","121.48238","25.0626133333333","6500200","三重區"
"241001","547-UM","2017/09/01 16:49:28","新北市三重區仁政街57號","121.492831666667","25.077315","6500200","三重區"
"241006","AAD-863","2017/09/01 16:49:15","新北市三重區力行路二段184號","121.483333333333","25.0773716666667","6500200","三重區"
"241012","941-UM","2017/09/01 16:49:20","新北市三重區仁興街11巷58號","121.50112","25.074525","6500200","三重區"
"241029","942-UM","2017/09/01 16:49:22","新北市三重區集美街207巷16號","121.492226666667","25.0541816666667","6500200","三重區"
"241033","AAC-255","2017/09/01 16:49:13","新北市三重區新北大道二段133號","121.466101666667","25.0613483333333","6500200","三重區"
"235067","255-BX","2017/09/01 16:33:13","新北市中和區員山路36巷13號","121.484296666667","24.991375","6500300","中和區"
"235062","800-TS","2017/09/01 16:47:32","新北市中和區員山路36巷16號","121.48456","24.9916416666667","6500300","中和區"
"235041","802-TS","2017/09/01 16:27:17","新北市中和區員山路36巷16-2號","121.485313333333","24.9916933333333","6500300","中和區"
"247008","339-TH","2017/09/01 16:49:20","新北市蘆洲區中山一路174號","121.474378333333","25.08122","6501400","蘆洲區"
"247002","336-TH","2017/09/01 16:49:15","新北市五股區成泰路三段436號","121.452075","25.099375","6501400","蘆洲區"
"247014","057-VK","2017/09/01 16:49:25","新北市蘆洲區三民路91號","121.47419","25.08458","6501400","蘆洲區"
"247004","056-VK","2017/09/01 16:49:09","新北市蘆洲區長榮路106號","121.461871666667","25.0841066666667","6501400","蘆洲區"
"247006","053-VK","2017/09/01 16:49:22","新北市蘆洲區長安街49巷8弄1號","121.46238","25.07859","6501400","蘆洲區"
"247016","001-UY","2017/09/01 16:49:17","新北市蘆洲區正和街3號","121.470468333333","25.0826783333333","6501400","蘆洲區"
"228002","663-BX","2017/09/01 16:49:21","新北市貢寮區貢寮里長泰路24-2號","121.90336","25.023965","6502600","貢寮區"
"228003","828-UM","2017/09/01 16:49:21","新北市貢寮區貢寮里朝陽街1-2號","121.912335","25.0212483333333","6502600","貢寮區"
"224010","AGQ-8101","2017/09/01 09:23:13","新北市瑞芳區民權街3-1號","121.809431666667","25.108315","6501200","瑞芳區"
"224006","676-BX","2017/09/01 16:49:11","新北市瑞芳區大寮路356-1號","121.784623333333","25.1031733333333","6501200","瑞芳區"
"224009","285-BY","2017/09/01 16:49:25","新北市瑞芳區中山路251號","121.798518333333","25.1090666666667","6501200","瑞芳區"
"224008","275-VK","2017/09/01 16:49:23","新北市瑞芳區逢甲路17號","121.809498333333","25.10832","6501200","瑞芳區"
"224007","273-VK","2017/09/01 16:49:22","新北市瑞芳區瑞竹路46號","121.763583333333","25.1033533333333","6501200","瑞芳區"
"224005","271-BY","2017/09/01 16:49:21","新北市瑞芳區明里路82-1號","121.867116666667","25.1219183333333","6501200","瑞芳區"
"227011","642-TC","2017/09/01 16:49:10","新北市雙溪區牡丹里聖南1-1號","121.861225","25.05019","6502500","雙溪區"
"227003","400-TW","2017/09/01 16:49:29","新北市雙溪區外柑里外柑腳79號","121.806413333333","25.0175483333333","6502500","雙溪區"
"251013","180-VK","2017/09/01 16:49:14","新北市淡水區泉洲厝32號","121.489256666667","25.19256","6501000","淡水區"
"251008","181-VK","2017/09/01 16:49:15","新北市淡水區樹梅坑45號","121.474658333333","25.1445833333333","6501000","淡水區"
"251015","182-VK","2017/09/01 16:49:12","新北市淡水區忠愛街6號","121.460783333333","25.171545","6501000","淡水區"
"251010","413-VK","2017/09/01 16:49:14","新北市淡水區中正路二段31號","121.419238333333","25.1818616666667","6501000","淡水區"
"251012","441-VK","2017/09/01 16:49:11","新北市淡水區中正路二段31號","121.419668333333","25.1815083333333","6501000","淡水區"
"251006","561-UM","2017/09/01 16:49:11","新北市淡水區中正路二段31號","121.419468333333","25.1815583333333","6501000","淡水區"
"251007","577-R6","2017/09/01 16:49:12","新北市淡水區中正路二段31號","121.419223333333","25.1817083333333","6501000","淡水區"
"251011","650-BX","2017/09/01 16:49:29","新北市淡水區中正路二段31號","121.419133333333","25.18166","6501000","淡水區"
"252002","178-VK","2017/09/01 16:49:26","新北市三芝區忠孝街177號","121.505211666667","25.2616866666667","6502100","三芝區"
"252001","702-TV","2017/09/01 16:49:24","新北市三芝區埔坪里埔頭坑107號","121.504653333333","25.2617383333333","6502100","三芝區"
"252007","AAC-283","2017/09/01 09:19:31","新北市三芝區埔坪里埔頭坑41號","121.50452","25.26439","6502100","三芝區"
"242048","751-BX","2017/09/01 16:49:29","新北市新莊區新泰路357巷3弄57號","121.442106666667","25.0392666666667","6500500","新莊區"
"242025","615-BX","2017/09/01 16:49:10","新北市新莊區三和路12-21號","121.442161666667","25.038715","6500500","新莊區"
"242023","613-BX","2017/09/01 16:49:15","新北市新莊區新泰路255巷83號","121.442306666667","25.039055","6500500","新莊區"
"242032","415-TV","2017/09/01 16:49:26","新北市新莊區新泰路357巷3弄57號","121.442065","25.0393283333333","6500500","新莊區"
"242060","362-BY","2017/09/01 16:49:21","新北市新莊區新泰路255巷83號","121.44252","25.03862","6500500","新莊區"
"242034","133-UY","2017/09/01 16:49:15","新北市新莊區三和路12-21號","121.441983333333","25.03886","6500500","新莊區"
"242009","351-TH","2017/09/01 16:49:23","新北市新莊區新泰路357巷3弄57號","121.441978333333","25.0395333333333","6500500","新莊區"
"238021","311-TH","2017/09/01 16:49:09","新北市樹林區中山路三段204號","121.386723333333","24.9682766666667","6500700","樹林區"
"239007","AAC-297","2017/09/01 04:46:37","新北市鶯歌區二甲路13-16號","121.344961666667","24.9353283333333","6500800","鶯歌區"
"239008","527-UM","2017/09/01 02:16:48","新北市鶯歌區二甲路13-16號","121.345045","24.9353333333333","6500800","鶯歌區"
"239005","526-UM","2017/08/31 20:14:00","新北市鶯歌區環河路155-2號","121.347501666667","24.9385183333333","6500800","鶯歌區"
"239003","360-BY","2017/09/01 16:49:20","新北市鶯歌區二甲路12-2號","121.345546666667","24.935075","6500800","鶯歌區"
"239002","359-BY","2017/09/01 11:13:04","新北市鶯歌區二甲路13號","121.34409","24.9354566666667","6500800","鶯歌區"
"221010","269-BY","2017/09/01 16:04:57","新北市汐止區汐萬路一段256巷3號","121.652146666667","25.0748683333333","6501100","汐止區"
"221012","276-VK","2017/09/01 13:20:49","新北市汐止區汐萬路一段256巷3號","121.653405","25.07462","6501100","汐止區"
