"lineid","car","time","location","longitude","latitude","cityid","cityname"
"234026","9371-KE","2017/09/01 17:49:12","新北市永和區和平街109巷6號","121.510721666667","25.0097016666667","6500400","永和區"
"249005","172-UM","2017/09/01 17:49:13","新北市八里區荖阡坑路41-10號","121.402356666667","25.1330016666667","6502300","八里區"
"249001","173-UM","2017/09/01 17:49:18","新北市八里區龍米路二段133號","121.445263333333","25.1475766666667","6502300","八里區"
"249004","303-UY","2017/09/01 17:49:20","新北市八里區中華路一段79巷9號","121.420858333333","25.156345","6502300","八里區"
"249002","305-UY","2017/09/01 17:49:29","新北市八里區龍形五街35巷9號","121.449651666667","25.13278","6502300","八里區"
"249003","593-UM","2017/09/01 17:49:16","新北市八里區中山路二段125號","121.405531666667","25.1518533333333","6502300","八里區"
"248006","077-UY","2017/09/01 17:49:29","新北市五股區中興路二段83巷26-6號","121.459948333333","25.075055","6501500","五股區"
"248008","095-VK","2017/09/01 17:49:25","新北市五股區中興路二段37巷28號","121.46014","25.0750516666667","6501500","五股區"
"248018","261-SL","2017/09/01 17:49:15","新北市五股區中興路二段63巷17號","121.46019","25.075315","6501500","五股區"
"248004","677-BX","2017/09/01 17:48:29","新北市五股區五權八路9號","121.44686","25.0671283333333","6501500","五股區"
"248002","678-BX","2017/09/01 17:49:26","新北市五股區中興路二段83巷26-6號","121.459975","25.0748883333333","6501500","五股區"
"234067","AAC-212","2017/09/01 16:16:31","新北市永和區福和路1號","121.526398333333","25.0096783333333","6500400","永和區"
"232011","375-UM","2017/09/01 17:49:24","新北市坪林區北宜路八段208號","121.708488333333","24.93477","6502000","坪林區"
"244013","069-UM","2017/09/01 17:49:12","新北市林口區中正路525巷4號","121.382761666667","25.077075","6501700","林口區"
"244007","080-UY","2017/09/01 17:49:09","新北市林口區佳林路1號","121.387265","25.0824516666667","6501700","林口區"
"244019","403-UM","2017/09/01 17:49:17","新北市林口區文化一路一段89-5號","121.371936666667","25.0704133333333","6501700","林口區"
"244009","410-SL","2017/09/01 17:49:23","新北市林口區中北三街61號","121.384685","25.085595","6501700","林口區"
"244023","483-VK","2017/09/01 17:49:09","新北市林口區東湖路62號","121.387486666667","25.0741483333333","6501700","林口區"
"244017","485-VK","2017/09/01 17:49:11","新北市林口區忠孝路383號","121.369505","25.0713516666667","6501700","林口區"
"244002","658-BX","2017/09/01 17:20:28","新北市林口區粉寮69號","121.40493","25.0909383333333","6501700","林口區"
"244011","701-TV","2017/09/01 17:49:26","新北市林口區中正路313號","121.388851666667","25.0773633333333","6501700","林口區"
"244025","837-TS","2017/09/01 17:49:16","新北市林口區文化三路一段181號","121.362206666667","25.070085","6501700","林口區"
"244021","838-TS","2017/09/01 17:49:09","新北市林口區仁愛路一段83巷38號","121.397813333333","25.07065","6501700","林口區"
"222003","436-BY","2017/09/01 17:49:17","新北市深坑區文山路三段110號","121.608268333333","24.9988483333333","6501800","深坑區"
"222002","659-BX","2017/09/01 17:49:16","新北市深坑區平埔街22巷8號","121.614951666667","25.00088","6501800","深坑區"
"231046","278-BY","2017/09/01 17:49:19","新北市新店區下石厝路27-1號","121.533901666667","24.9281483333333","6500600","新店區"
"241024","065-VK","2017/09/01 17:49:24","新北市三重區力行路二段9巷12號","121.482985","25.0722033333333","6500200","三重區"
"241005","262-UM","2017/09/01 17:49:09","新北市三重區集賢路87-1號","121.493913333333","25.0870733333333","6500200","三重區"
"241016","266-UM","2017/09/01 17:49:13","新北市三重區新北大道一段9號","121.489201666667","25.0612933333333","6500200","三重區"
"241033","AAC-255","2017/09/01 17:49:12","新北市三重區光復路一段13號","121.472215","25.047235","6500200","三重區"
"235064","031-BX","2017/09/01 17:49:17","新北市中和區員山路36巷16-3號","121.485148333333","24.991405","6500300","中和區"
"235067","255-BX","2017/09/01 16:33:13","新北市中和區員山路36巷13號","121.484296666667","24.991375","6500300","中和區"
"235072","301-VK","2017/09/01 17:49:16","新北市中和區員山路36巷13號","121.483985","24.99132","6500300","中和區"
"235061","378-QA","2017/09/01 14:53:27","新北市中和區員山路36巷13號","121.484178333333","24.9913216666667","6500300","中和區"
"235060","647-TV","2017/09/01 15:06:27","新北市中和區員山路36巷16-3號","121.484966666667","24.9916066666667","6500300","中和區"
"235062","800-TS","2017/09/01 17:04:05","新北市中和區員山路36巷16-3號","121.484845","24.9915133333333","6500300","中和區"
"235041","802-TS","2017/09/01 16:27:17","新北市中和區員山路36巷16-2號","121.485313333333","24.9916933333333","6500300","中和區"
"247020","893-R6","2017/09/01 17:49:26","新北市蘆洲區民權路188-3號","121.47158","25.09088","6501400","蘆洲區"
"247010","546-UM","2017/09/01 17:49:19","新北市蘆洲區民族路31-12號","121.477958333333","25.0851283333333","6501400","蘆洲區"
"247018","500-BY","2017/09/01 17:49:20","新北市蘆洲區復興路227巷2弄2號","121.47995","25.0900733333333","6501400","蘆洲區"
"247008","339-TH","2017/09/01 17:49:20","新北市蘆洲區信義路37巷10號","121.474351666667","25.0797783333333","6501400","蘆洲區"
"247024","337-TH","2017/09/01 17:49:15","新北市蘆洲區光榮路61巷27號","121.461133333333","25.0893616666667","6501400","蘆洲區"
"247002","336-TH","2017/09/01 17:49:15","新北市蘆洲區永平街32巷45弄8號","121.459336666667","25.0925283333333","6501400","蘆洲區"
"247006","053-VK","2017/09/01 17:49:22","新北市蘆洲區永安南路二段76號","121.464453333333","25.0783183333333","6501400","蘆洲區"
"247012","007-UY","2017/09/01 17:49:16","新北市蘆洲區復興路139號","121.477886666667","25.0887066666667","6501400","蘆洲區"
"247022","002-UY","2017/09/01 17:49:14","新北市蘆洲區中正路298號","121.464928333333","25.090425","6501400","蘆洲區"
"247016","001-UY","2017/09/01 17:49:17","新北市蘆洲區中正路185巷25弄16號","121.467143333333","25.0839216666667","6501400","蘆洲區"
"228002","663-BX","2017/09/01 17:49:21","新北市貢寮區福隆里龜壽谷街13號","121.956678333333","25.0058166666667","6502600","貢寮區"
"228001","670-TC","2017/09/01 17:49:11","新北市貢寮區仁理村仁愛路95-1號","121.927616666667","25.0555583333333","6502600","貢寮區"
"228003","828-UM","2017/09/01 17:49:21","新北市貢寮區真理里美艷山街6-2號","121.929058333333","25.06108","6502600","貢寮區"
"224010","AGQ-8101","2017/09/01 17:48:26","新北市瑞芳區明燈路一段49-1號","121.820863333333","25.106895","6501200","瑞芳區"
"224006","676-BX","2017/09/01 17:49:11","新北市瑞芳區瑞興新村12巷1號","121.788423333333","25.1083266666667","6501200","瑞芳區"
"224002","639-TC","2017/09/01 17:49:14","新北市瑞芳區明燈路二段44-1號","121.809641666667","25.1081816666667","6501200","瑞芳區"
"224009","285-BY","2017/09/01 17:49:25","新北市瑞芳區新山路197號","121.850721666667","25.10882","6501200","瑞芳區"
"224008","275-VK","2017/09/01 17:49:23","新北市瑞芳區明燈路一段45巷97號","121.822068333333","25.1042566666667","6501200","瑞芳區"
"224005","271-BY","2017/09/01 17:49:21","新北市瑞芳區台電新村10號","121.818535","25.1264633333333","6501200","瑞芳區"
"253006","295-VK","2017/09/01 17:48:59","新北市石門區中山路64-1號","121.567656666667","25.29039","6502200","石門區"
"253005","6251-TK","2017/09/01 17:49:11","新北市石門區中山路64-1號","121.567465","25.2903616666667","6502200","石門區"
"208002","742-BX","2017/09/01 17:49:15","新北市金山區磺清路135號","121.639348333333","25.2277383333333","6502700","金山區"
"208003","665-BX","2017/09/01 17:49:20","新北市金山區磺清路135號","121.639461666667","25.2277633333333","6502700","金山區"
"208001","761-BX","2017/09/01 17:49:23","新北市金山區磺清路135號","121.63934","25.227635","6502700","金山區"
"251009","008-UM","2017/09/01 17:49:24","新北市淡水區長興街36-1號","121.44411","25.1713533333333","6501000","淡水區"
"251004","009-UM","2017/09/01 17:49:08","新北市淡水區民權一街17巷15號","121.459511666667","25.1366466666667","6501000","淡水區"
"251005","010-UM","2017/09/01 17:49:09","新北市淡水區學府路96號","121.449265","25.1711366666667","6501000","淡水區"
"251001","011-UM","2017/09/01 17:49:12","新北市淡水區民權路92巷35-1號","121.462195","25.1267133333333","6501000","淡水區"
"251002","012-UM","2017/09/01 17:49:30","新北市淡水區中山路88號","121.442753333333","25.170515","6501000","淡水區"
"251013","180-VK","2017/09/01 17:49:14","新北市淡水區泉洲厝31號","121.479581666667","25.1910416666667","6501000","淡水區"
"251008","181-VK","2017/09/01 17:49:14","新北市淡水區八勢路一段133號","121.467281666667","25.1575766666667","6501000","淡水區"
"251015","182-VK","2017/09/01 17:49:12","新北市淡水區興福寮27號","121.492636666667","25.1640733333333","6501000","淡水區"
"251010","413-VK","2017/09/01 17:49:17","新北市淡水區中正路二段55號","121.417381666667","25.18617","6501000","淡水區"
"251012","441-VK","2017/09/01 17:49:20","新北市淡水區北新路一段605號","121.47119","25.1843","6501000","淡水區"
"251006","561-UM","2017/09/01 17:49:11","新北市淡水區新生街51巷51號","121.44143","25.1761933333333","6501000","淡水區"
"251007","577-R6","2017/09/01 17:49:11","新北市淡水區中正東路二段163號","121.4597","25.145185","6501000","淡水區"
"251011","650-BX","2017/09/01 17:44:08","新北市淡水區小坪頂23-4號","121.484301666667","25.1514983333333","6501000","淡水區"
"251003","673-BX","2017/09/01 17:49:23","新北市淡水區大忠街13號","121.443388333333","25.17602","6501000","淡水區"
"207003","550-UM","2017/09/01 17:49:21","新北市萬里區野柳里東澳路66號","121.692798333333","25.2009783333333","6502800","萬里區"
"207004","225-TW","2017/09/01 17:49:25","新北市萬里區萬里里瑪鋉頂街61號","121.688366666667","25.1804616666667","6502800","萬里區"
"252002","178-VK","2017/09/01 17:49:26","新北市三芝區智成街69號","121.504411666667","25.255895","6502100","三芝區"
"252001","702-TV","2017/09/01 17:49:24","新北市三芝區育英街25號","121.501288333333","25.2579916666667","6502100","三芝區"
"252007","AAC-283","2017/09/01 09:19:31","新北市三芝區埔坪里埔頭坑41號","121.50452","25.26439","6502100","三芝區"
"237004","078-UY","2017/09/01 17:49:12","新北市三峽區中山路143號","121.365053333333","24.9361666666667","6500900","三峽區"
"237009","210-TH","2017/09/01 17:49:25","新北市三峽區大勇路70號","121.367158333333","24.9363616666667","6500900","三峽區"
"237013","252-BX","2017/09/01 17:49:21","新北市三峽區愛國路33-9號","121.374871666667","24.9329","6500900","三峽區"
"237012","275-BY","2017/09/01 17:49:29","新北市三峽區大勇路29巷6弄12號","121.367838333333","24.9358583333333","6500900","三峽區"
"237008","302-VK","2017/09/01 17:49:26","新北市三峽區中園街149-2號","121.367283333333","24.923005","6500900","三峽區"
"237014","433-BY","2017/09/01 17:49:14","新北市三峽區文化路120巷7號","121.371045","24.9365333333333","6500900","三峽區"
"237011","572-TV","2017/09/01 17:49:12","新北市三峽區大同路84號","121.37595","24.92783","6500900","三峽區"
"237015","649-BX","2017/09/01 17:49:12","新北市三峽區白雞129-1號","121.39667","24.9078133333333","6500900","三峽區"
"237010","706-TV","2017/09/01 17:49:16","新北市三峽區文化路266-9號","121.366338333333","24.9358183333333","6500900","三峽區"
"237005","AKY-6261","2017/09/01 17:49:27","新北市三峽區中山路459巷70號","121.354286666667","24.93645","6500900","三峽區"
"236072","105-UM","2017/09/01 17:49:20","新北市土城區城林路6巷80號","121.438526666667","24.979755","6501300","土城區"
"236043","107-UM","2017/09/01 17:49:13","新北市土城區城林路6巷80號","121.43851","24.97959","6501300","土城區"
"236079","166-UM","2017/09/01 17:49:22","新北市土城區中央路三段118號","121.435238333333","24.96624","6501300","土城區"
"236031","253-BX","2017/09/01 17:49:24","新北市土城區城林路6巷80號","121.438381666667","24.9797616666667","6501300","土城區"
"236027","269-VK","2017/09/01 17:49:19","新北市土城區承天路18號","121.439338333333","24.9633516666667","6501300","土城區"
"236039","271-VK","2017/09/01 17:49:22","新北市土城區城林路6巷80號","121.438438333333","24.97975","6501300","土城區"
"236022","401-BY","2017/09/01 17:49:08","新北市土城區城林路6巷80號","121.43851","24.9798316666667","6501300","土城區"
"236059","912-UM","2017/09/01 17:49:13","新北市土城區城林路6巷80號","121.438396666667","24.9796016666667","6501300","土城區"
"236050","913-UM","2017/09/01 17:49:14","新北市土城區城林路6巷80號","121.438585","24.9796883333333","6501300","土城區"
"236055","AAC-216","2017/09/01 17:49:16","新北市土城區城林路6巷80號","121.438438333333","24.979725","6501300","土城區"
"242021","AAC-296","2017/09/01 17:49:10","新北市新莊區復興路一段220號","121.452993333333","25.0438383333333","6500500","新莊區"
"242029","986-R7","2017/09/01 17:49:09","新北市新莊區復興路一段143號","121.450221666667","25.043265","6500500","新莊區"
"242048","751-BX","2017/09/01 17:49:09","新北市新莊區萬安街60巷13號","121.420523333333","25.0232333333333","6500500","新莊區"
"242025","615-BX","2017/09/01 17:49:13","新北市新莊區新北大道二段143號","121.465755","25.0612783333333","6500500","新莊區"
"242023","613-BX","2017/09/01 17:49:15","新北市新莊區福樂街78號","121.457696666667","25.0467733333333","6500500","新莊區"
"242027","612-BX","2017/09/01 17:49:15","新北市新莊區福壽街155號","121.45803","25.05327","6500500","新莊區"
"242037","566-BX","2017/09/01 17:49:17","新北市新莊區後港一路90號","121.427535","25.026685","6500500","新莊區"
"242041","497-BY","2017/09/01 17:49:17","新北市泰山區貴陽街23巷6號","121.422173333333","25.0332816666667","6500500","新莊區"
"242046","441-UM","2017/09/01 17:49:20","新北市新莊區建國一路84號","121.434446666667","25.0302433333333","6500500","新莊區"
"242050","440-UM","2017/09/01 17:49:25","新北市新莊區西盛街231巷13號","121.428695","25.0163633333333","6500500","新莊區"
"242032","415-TV","2017/09/01 17:49:26","新北市新莊區新泰路277巷71號","121.442871666667","25.039965","6500500","新莊區"
"242002","413-TV","2017/09/01 17:49:23","新北市新莊區景德路83號","121.452448333333","25.0348933333333","6500500","新莊區"
"242039","400-BY","2017/09/01 17:49:17","新北市新莊區民安路156號","121.424686666667","25.0247416666667","6500500","新莊區"
"242060","362-BY","2017/09/01 17:49:23","新北市新莊區瓊林南路210號","121.433961666667","25.006265","6500500","新莊區"
"242058","353-BY","2017/09/01 17:49:18","新北市新莊區中正路726-13號","121.41527","25.0238816666667","6500500","新莊區"
"242005","132-UY","2017/09/01 17:49:24","新北市新莊區思源路177巷9弄3號","121.459085","25.0456983333333","6500500","新莊區"
"242034","133-UY","2017/09/01 17:49:15","新北市新莊區新樹路6號","121.440588333333","25.03277","6500500","新莊區"
"242019","135-UY","2017/09/01 17:49:27","新北市新莊區民樂街66號","121.45796","25.0420616666667","6500500","新莊區"
"242044","172-VK","2017/09/01 17:49:22","新北市新莊區中正路855巷5號","121.419853333333","25.02735","6500500","新莊區"
"242007","173-VK","2017/09/01 17:49:21","新北市新莊區福壽街49巷10號","121.457731666667","25.0489616666667","6500500","新莊區"
"242013","175-VK","2017/09/01 17:49:20","新北市新莊區中和街108巷12號","121.448183333333","25.0472116666667","6500500","新莊區"
"242056","176-VK","2017/09/01 17:49:14","新北市新莊區瓊林路40巷34號","121.44662","25.03018","6500500","新莊區"
"242011","346-TH","2017/09/01 17:49:20","新北市新莊區中港路681巷15號","121.450143333333","25.0562233333333","6500500","新莊區"
"242017","348-TH","2017/09/01 17:49:25","新北市新莊區永安街97號","121.450483333333","25.0445483333333","6500500","新莊區"
"242054","349-TH","2017/09/01 17:49:10","新北市新莊區新樹路593號","121.432931666667","25.00648","6500500","新莊區"
"242015","350-TH","2017/09/01 17:49:21","新北市新莊區新泰路502巷36號","121.443496666667","25.0464633333333","6500500","新莊區"
"242009","351-TH","2017/09/01 17:49:23","新北市新莊區昌平街39號","121.454823333333","25.0523333333333","6500500","新莊區"
"238015","755-BX","2017/09/01 17:49:21","新北市樹林區大安路249巷7號","121.419903333333","24.99421","6500700","樹林區"
"238023","601-UM","2017/09/01 17:49:12","新北市樹林區三福街68號","121.40481","25.016365","6500700","樹林區"
"238019","599-UM","2017/09/01 17:49:21","新北市樹林區太平路94-3號","121.418955","24.9797916666667","6500700","樹林區"
"238018","571-TV","2017/09/01 17:49:27","新北市樹林區鎮前街124號","121.42485","24.9908716666667","6500700","樹林區"
"238022","312-TH","2017/09/01 17:49:15","新北市樹林區太元街19號","121.418128333333","24.9801566666667","6500700","樹林區"
"238021","311-TH","2017/09/01 17:49:28","新北市樹林區柑園街一段253巷47號","121.396988333333","24.9531833333333","6500700","樹林區"
"238025","303-VK","2017/09/01 17:49:18","新北市樹林區三俊街50號","121.412396666667","25.015585","6500700","樹林區"
"238017","283-BY","2017/09/01 17:49:19","新北市樹林區三德街30巷16弄48號","121.413855","25.0119016666667","6500700","樹林區"
"238014","282-BY","2017/09/01 17:49:12","新北市樹林區保安街一段293號","121.417953333333","24.9972966666667","6500700","樹林區"
"238020","268-VK","2017/09/01 17:49:21","新北市樹林區三俊街281號","121.423178333333","25.0140266666667","6500700","樹林區"
"238026","172-UY","2017/09/01 17:49:23","新北市樹林區新興街19巷2弄38號","121.401915","24.9729066666667","6500700","樹林區"
"238016","169-UY","2017/09/01 17:49:14","新北市樹林區文化街56號","121.417916666667","24.9885216666667","6500700","樹林區"
"239007","AAC-297","2017/09/01 17:49:19","新北市鶯歌區鶯桃路94巷33-2號","121.341991666667","24.9548016666667","6500800","鶯歌區"
"239006","891-R6","2017/09/01 17:49:21","新北市鶯歌區鶯桃路442號","121.332971666667","24.964775","6500800","鶯歌區"
"239008","527-UM","2017/09/01 17:49:18","新北市鶯歌區國際一路60號","121.335288333333","24.9779783333333","6500800","鶯歌區"
"239005","526-UM","2017/09/01 17:49:13","新北市鶯歌區鳳吉五街29號","121.327298333333","24.9726633333333","6500800","鶯歌區"
"239001","417-VK","2017/09/01 17:49:13","新北市鶯歌區中正三路460-2號","121.321385","24.9343166666667","6500800","鶯歌區"
"239003","360-BY","2017/09/01 17:49:19","新北市鶯歌區德昌二街61號","121.333861666667","24.9583333333333","6500800","鶯歌區"
"239002","359-BY","2017/09/01 17:49:21","新北市鶯歌區育才街36號","121.348303333333","24.9550316666667","6500800","鶯歌區"
"239004","193-VK","2017/09/01 17:49:18","新北市鶯歌區尖山路40號","121.350876666667","24.9504066666667","6500800","鶯歌區"
"221036","130-UY","2017/09/01 17:49:18","新北市汐止區長江街233號","121.66288","25.07846","6501100","汐止區"
"221015","131-UY","2017/09/01 17:49:09","新北市汐止區汐萬路一段116號","121.653868333333","25.0712316666667","6501100","汐止區"
"221010","269-BY","2017/09/01 17:49:21","新北市汐止區汐萬路一段418巷3號","121.649668333333","25.0784066666667","6501100","汐止區"
"221012","276-VK","2017/09/01 13:20:49","新北市汐止區汐萬路一段256巷3號","121.653405","25.07462","6501100","汐止區"
"221031","277-VK","2017/09/01 17:49:13","新北市汐止區康寧街901號","121.651551666667","25.07492","6501100","汐止區"
"221012","278-VK","2017/09/01 17:49:23","新北市汐止區長江街75號","121.657151666667","25.07218","6501100","汐止區"
"221023","279-VK","2017/09/01 17:49:18","新北市汐止區康寧街591巷4號","121.634895","25.07056","6501100","汐止區"
"221032","280-BY","2017/09/01 17:49:15","新北市汐止區大同路一段215號","121.6337","25.057625","6501100","汐止區"
"221027","281-BY","2017/09/01 17:49:14","新北市汐止區汐萬路一段256巷1號","121.651681666667","25.074845","6501100","汐止區"
"221038","297-VK","2017/09/01 17:49:19","新北市汐止區汐萬路一段312號","121.650575","25.07538","6501100","汐止區"
"221029","298-VK","2017/09/01 17:49:21","新北市汐止區汐萬路一段256巷1號","121.651713333333","25.0748433333333","6501100","汐止區"
"221021","299-VK","2017/09/01 17:49:09","新北市汐止區水源路一段25號","121.657185","25.0666016666667","6501100","汐止區"
"221008","358-BY","2017/09/01 17:49:12","新北市汐止區康寧街901號","121.651325","25.0751083333333","6501100","汐止區"
"221035","622-UM","2017/09/01 17:49:26","新北市汐止區汐萬路一段150號","121.652691666667","25.071185","6501100","汐止區"
"221025","623-UM","2017/09/01 17:49:22","新北市汐止區新台五路一段131號","121.652243333333","25.06198","6501100","汐止區"
"221033","647-BX","2017/09/01 17:49:28","新北市汐止區橫科路73巷20弄18號","121.619763333333","25.05158","6501100","汐止區"
"221018","753-BX","2017/09/01 17:49:11","新北市汐止區忠孝東路348號","121.66563","25.0697","6501100","汐止區"
