"lineid","car","time","location","longitude","latitude","cityid","cityname"
"234046","148-BY","2017/09/01 19:29:14","新北市永和區秀朗路二段155號","121.525015","25.0015533333333","6500400","永和區"
"234013","149-BY","2017/09/01 19:29:30","新北市永和區中山路一段184巷10弄16號","121.508956666667","25.0096166666667","6500400","永和區"
"234007","207-UY","2017/09/01 19:29:30","新北市永和區永和路一段86號","121.513133333333","25.0066383333333","6500400","永和區"
"234081","298-R6","2017/09/01 19:29:19","新北市永和區福和路7巷15弄20號","121.526143333333","25.007515","6500400","永和區"
"234038","336-UY","2017/09/01 19:28:59","新北市永和區民樂街20號","121.52738","25.0019483333333","6500400","永和區"
"234064","337-UY","2017/09/01 19:29:20","新北市永和區得和路243巷16號","121.520615","25.0007216666667","6500400","永和區"
"234086","338-UY","2017/09/01 19:29:17","新北市永和區永利路91-1號","121.521563333333","25.0032316666667","6500400","永和區"
"234070","552-UM","2017/09/01 19:29:12","新北市永和區中興街1號","121.51557","25.0120783333333","6500400","永和區"
"234054","553-UM","2017/09/01 19:29:15","新北市永和區永和路二段166號","121.515585","25.0129266666667","6500400","永和區"
"234017","745-BX","2017/09/01 19:29:28","新北市永和區環河西路一段51巷1號","121.514223333333","25.0181266666667","6500400","永和區"
"234030","746-BX","2017/09/01 19:29:20","新北市永和區四維街103巷3號","121.523981666667","24.9979466666667","6500400","永和區"
"234061","AAD-866","2017/09/01 19:29:25","新北市永和區中正路471號","121.517056666667","25.0062316666667","6500400","永和區"
"234050","863-TW","2017/09/01 19:29:34","新北市永和區信義路122號","121.512421666667","25.0148","6500400","永和區"
"234026","9371-KE","2017/09/01 19:29:32","新北市永和區安樂路104巷2弄2號","121.51441","24.9996133333333","6500400","永和區"
"234011","9373-KE","2017/09/01 19:29:23","新北市永和區保福路二段163巷17號","121.509011666667","25.0144916666667","6500400","永和區"
"249002","305-UY","2017/09/01 19:29:29","新北市八里區龍形一街33巷6-2號","121.44919","25.1295383333333","6502300","八里區"
"249003","593-UM","2017/09/01 19:29:16","新北市八里區商港六路11號","121.397018333333","25.1480633333333","6502300","八里區"
"248014","025-BX","2017/09/01 19:29:27","新北市五股區民義路一段163-2號","121.432068333333","25.0877766666667","6501500","五股區"
"248008","095-VK","2017/09/01 19:29:25","新北市五股區中興路一段137號","121.465415","25.0734733333333","6501500","五股區"
"248012","247-BX","2017/09/01 19:29:32","新北市五股區中興路四段38巷11-1號","121.438841666667","25.0836516666667","6501500","五股區"
"248018","261-SL","2017/09/01 19:27:35","新北市五股區外寮路15號","121.418193333333","25.0789283333333","6501500","五股區"
"248004","677-BX","2017/09/01 19:29:31","新北市五股區五福路73號","121.432481666667","25.0901133333333","6501500","五股區"
"248002","678-BX","2017/09/01 19:29:25","新北市五股區凌雲路一段158巷20號","121.447888333333","25.103605","6501500","五股區"
"248010","682-TV","2017/09/01 19:29:26","新北市五股區水碓一路23號","121.430633333333","25.071295","6501500","五股區"
"234023","9380-KE","2017/09/01 19:29:14","新北市永和區豫溪街193號","121.522788333333","25.0103233333333","6500400","永和區"
"234077","969-R7","2017/09/01 19:29:18","新北市永和區民權路58巷3號","121.519658333333","24.998305","6500400","永和區"
"234074","AAC-211","2017/09/01 19:29:29","新北市永和區福和路51號","121.523256666667","25.0079533333333","6500400","永和區"
"234067","AAC-212","2017/09/01 19:29:21","新北市永和區保平路190號","121.510411666667","25.00654","6500400","永和區"
"234003","AAC-295","2017/09/01 19:29:32","新北市永和區永和路一段118號","121.514098333333","25.0077416666667","6500400","永和區"
"244013","069-UM","2017/09/01 19:29:12","新北市林口區文化一路一段126號","121.375606666667","25.0724966666667","6501700","林口區"
"244019","403-UM","2017/09/01 19:29:17","新北市林口區麗園一街15號","121.377011666667","25.0692333333333","6501700","林口區"
"244023","483-VK","2017/09/01 19:29:28","新北市林口區文化三路二段20號","121.373361666667","25.0789316666667","6501700","林口區"
"244002","658-BX","2017/09/01 17:20:28","新北市林口區粉寮69號","121.40493","25.0909383333333","6501700","林口區"
"243013","AAD-798","2017/09/01 19:29:31","新北市泰山區明志路三段145巷7號","121.425411666667","25.0400033333333","6501600","泰山區"
"243009","297-R6","2017/09/01 19:29:28","新北市泰山區半山雅2號","121.431743333333","25.0674133333333","6501600","泰山區"
"243015","380-SR","2017/09/01 19:29:21","新北市泰山區明志路二段136巷8號","121.427325","25.05125","6501600","泰山區"
"243014","421-VK","2017/09/01 19:29:19","新北市泰山區仁愛路6巷75號","121.431776666667","25.053135","6501600","泰山區"
"243010","548-UM","2017/09/01 19:29:19","新北市泰山區民生路17巷39號","121.429511666667","25.0515683333333","6501600","泰山區"
"243011","549-UM","2017/09/01 19:29:28","新北市泰山區貴子路67巷4弄8號","121.431115","25.040375","6501600","泰山區"
"243012","646-TV","2017/09/01 19:29:31","新北市泰山區明志路一段501巷17號","121.43126","25.0545316666667","6501600","泰山區"
"243016","680-BX","2017/09/01 19:29:15","新北市泰山區明志路三段352巷10號","121.421433333333","25.03592","6501600","泰山區"
"222003","436-BY","2017/09/01 19:29:17","新北市深坑區深南路88巷1號","121.621043333333","25.0114116666667","6501800","深坑區"
"222002","659-BX","2017/09/01 19:29:16","新北市深坑區北深路一段177號","121.632365","25.0109016666667","6501800","深坑區"
"222001","696-SL","2017/09/01 19:29:25","新北市深坑區北深路二段130號","121.615991666667","25.00284","6501800","深坑區"
"231059","001-UM","2017/09/01 19:29:27","新北市新店區安和路三段157號","121.516416666667","24.9857133333333","6500600","新店區"
"231041","002-UM","2017/09/01 19:29:28","新北市新店區中正路547號","121.533763333333","24.98776","6500600","新店區"
"231061","047-UY","2017/09/01 19:29:16","新北市新店區安民街82號","121.516595","24.967115","6500600","新店區"
"231060","106-UY","2017/09/01 19:29:27","新北市新店區安康路二段1-3號","121.516738333333","24.9637816666667","6500600","新店區"
"231051","107-UY","2017/09/01 19:29:32","新北市新店區中央路200號","121.530495","24.9740916666667","6500600","新店區"
"231048","108-UY","2017/09/01 19:29:29","新北市新店區中興路一段260號","121.544756666667","24.9671133333333","6500600","新店區"
"231053","187-VK","2017/09/01 19:29:12","新北市新店區新烏路二段300號","121.548496666667","24.9129483333333","6500600","新店區"
"231057","256-BX","2017/09/01 19:29:17","新北市新店區花園一路二段17號","121.550821666667","24.933255","6500600","新店區"
"231063","268-BY","2017/09/01 19:29:25","新北市新店區達觀路14巷2號","121.50332","24.9412433333333","6500600","新店區"
"231046","278-BY","2017/09/01 19:29:19","新北市新店區北新路一段91號","121.538891666667","24.9618166666667","6500600","新店區"
"231050","AAD-862","2017/09/01 19:29:26","新北市新店區北宜路二段82-40號","121.553493333333","24.95324","6500600","新店區"
"231058","3712-VJ","2017/09/01 19:29:18","新北市新店區永華街9號","121.543365","24.9770933333333","6500600","新店區"
"231067","4772-VM","2017/09/01 19:29:24","新北市新店區吉安街13號","121.516495","24.9657933333333","6500600","新店區"
"231065","512-UM","2017/09/01 19:29:34","新北市新店區安祥路109巷1弄3號","121.475683333333","24.9594683333333","6500600","新店區"
"231054","513-UM","2017/09/01 19:29:16","新北市新店區文中路51號","121.539808333333","24.9565816666667","6500600","新店區"
"231064","515-UM","2017/09/01 19:29:27","新北市新店區安忠路2號","121.514528333333","24.9635233333333","6500600","新店區"
"231042","616-UM","2017/09/01 19:29:18","新北市新店區中興路一段110號","121.541151666667","24.9620966666667","6500600","新店區"
"231045","617-UM","2017/09/01 19:29:34","新北市新店區北宜路二段215號","121.553295","24.9533633333333","6500600","新店區"
"231040","619-UM","2017/09/01 19:29:26","新北市新店區中華路38號","121.540001666667","24.9680716666667","6500600","新店區"
"231049","719-UM","2017/09/01 19:29:25","新北市新店區北新路三段65巷34弄28號","121.540125","24.9819366666667","6500600","新店區"
"231062","720-UM","2017/09/01 19:29:15","新北市新店區安康路一段65號","121.53043","24.9610183333333","6500600","新店區"
"231044","897-TW","2017/09/01 19:29:29","新北市新店區中興路三段182號","121.544","24.98132","6500600","新店區"
"231043","899-TW","2017/09/01 19:29:27","新北市新店區北新路二段216號","121.54285","24.97702","6500600","新店區"
"231066","AKT-0513","2017/09/01 19:29:31","新北市新店區安康路三段195號","121.48798","24.9515666666667","6500600","新店區"
"241028","022-UY","2017/09/01 19:29:31","新北市三重區中寮街59號","121.493153333333","25.0580216666667","6500200","三重區"
"241008","059-VK","2017/09/01 19:29:27","新北市三重區永福街135巷40號","121.47703","25.077195","6500200","三重區"
"241009","060-VK","2017/09/01 19:29:19","新北市三重區溪尾街242巷60號","121.486325","25.0814866666667","6500200","三重區"
"241031","061-VK","2017/09/01 19:29:32","新北市三重區集美街100號","121.488618333333","25.0540633333333","6500200","三重區"
"241017","063-VK","2017/09/01 19:29:19","新北市三重區大同北路156巷33號","121.49107","25.065305","6500200","三重區"
"241026","066-VK","2017/09/01 19:29:20","新北市三重區文化南路47巷36號","121.498831666667","25.0610066666667","6500200","三重區"
"241032","269-UM","2017/09/01 19:29:32","新北市三重區三陽路39號","121.48527","25.0587983333333","6500200","三重區"
"241025","271-UM","2017/09/01 19:29:16","新北市三重區頂崁街210巷36號","121.475785","25.0678733333333","6500200","三重區"
"241007","412-TH","2017/09/01 19:29:24","新北市三重區溪尾街124-1號","121.489516666667","25.0794766666667","6500200","三重區"
"241020","413-TH","2017/09/01 19:29:13","新北市三重區三和路四段44巷6號","121.490111666667","25.07431","6500200","三重區"
"241035","462-BY","2017/09/01 19:29:31","新北市三重區信義西街1號","121.498126666667","25.0648616666667","6500200","三重區"
"241030","480-VK","2017/09/01 19:29:30","新北市三重區成功路41巷7號","121.490303333333","25.05143","6500200","三重區"
"241006","AAD-863","2017/09/01 19:29:30","新北市三重區三和路四段113號","121.485621666667","25.0773283333333","6500200","三重區"
"241029","942-UM","2017/09/01 19:29:29","新北市三重區中正南路216號","121.493853333333","25.0551133333333","6500200","三重區"
"235066","003-UY","2017/09/01 19:29:33","新北市中和區中和路104號","121.50284","24.999805","6500300","中和區"
"235063","006-UY","2017/09/01 19:29:28","新北市中和區連勝街157號","121.494305","24.9964883333333","6500300","中和區"
"235064","031-BX","2017/09/01 19:29:17","新北市中和區連城路2號","121.49926","25.002525","6500300","中和區"
"235056","096-UM","2017/09/01 19:29:30","新北市中和區民富街30號","121.476846666667","25.006455","6500300","中和區"
"235039","097-UM","2017/09/01 19:29:23","新北市中和區秀峰街79巷2號","121.521893333333","24.9902333333333","6500300","中和區"
"235040","150-BY","2017/09/01 19:29:17","新北市中和區保健路46巷26弄24號","121.508016666667","24.9956033333333","6500300","中和區"
"235058","151-BY","2017/09/01 19:29:26","新北市中和區中正路637巷52弄3號","121.485255","24.9934533333333","6500300","中和區"
"235055","183-VK","2017/09/01 19:29:28","新北市中和區國光街8巷8號","121.471696666667","25.0006216666667","6500300","中和區"
"235038","185-VK","2017/09/01 19:29:29","新北市中和區大仁街20巷59號","121.519886666667","24.9933766666667","6500300","中和區"
"235049","186-VK","2017/09/01 19:29:35","新北市中和區景新街285巷5號","121.509963333333","24.9935266666667","6500300","中和區"
"235067","255-BX","2017/09/01 19:29:26","新北市中和區中正路721號","121.484996666667","24.9988216666667","6500300","中和區"
"235044","293-VK","2017/09/01 19:29:28","新北市中和區復興路271號","121.502618333333","24.9902983333333","6500300","中和區"
"235072","301-VK","2017/09/01 19:29:15","新北市中和區連城路263巷4弄4號","121.491558333333","24.9958166666667","6500300","中和區"
"235043","352-BY","2017/09/01 19:29:15","新北市中和區景平路446號","121.506536666667","24.9935783333333","6500300","中和區"
"235068","377-QA","2017/09/01 19:29:28","新北市中和區圓通路158巷15號","121.497438333333","24.9961716666667","6500300","中和區"
"235061","378-QA","2017/09/01 19:29:26","新北市中和區民利街61巷17號","121.478603333333","24.9982166666667","6500300","中和區"
"235050","4979-A6","2017/09/01 19:29:19","新北市中和區錦和路113號","121.490316666667","24.9949183333333","6500300","中和區"
"235042","551-UM","2017/09/01 19:29:22","新北市中和區中和路378巷14弄3號","121.511165","25.0015333333333","6500300","中和區"
"235070","558-UM","2017/09/01 19:29:12","新北市中和區中和路26巷16號","121.499188333333","25.0014816666667","6500300","中和區"
"235045","565-BX","2017/09/01 19:29:15","新北市中和區景新街423巷33弄25號","121.513768333333","24.9899283333333","6500300","中和區"
"235054","640-BX","2017/09/01 19:29:23","新北市中和區國光街105號","121.470033333333","25.0004366666667","6500300","中和區"
"235060","647-TV","2017/09/01 19:29:29","新北市中和區員山路294巷9號","121.481923333333","25.0024216666667","6500300","中和區"
"235047","732-UM","2017/09/01 19:29:18","新北市中和區景平路241巷62號","121.507778333333","24.992295","6500300","中和區"
"235046","733-UM","2017/09/01 19:29:30","新北市中和區忠孝街37巷44號","121.510655","24.9848133333333","6500300","中和區"
"235057","801-TS","2017/09/01 19:29:16","新北市中和區員山路423巷1號","121.48078","25.00335","6500300","中和區"
"235041","802-TS","2017/09/01 19:29:20","新北市中和區景安路9號","121.508033333333","24.9990483333333","6500300","中和區"
"235052","805-TS","2017/09/01 19:29:26","新北市中和區華新街143巷69弄23號","121.507588333333","24.978915","6500300","中和區"
"235048","896-TW","2017/09/01 19:29:29","新北市中和區忠孝街154號","121.51266","24.987605","6500300","中和區"
"235053","900-TW","2017/09/01 19:29:14","新北市中和區華安街16-8號","121.466583333333","24.998185","6500300","中和區"
"235037","AAC-213","2017/09/01 19:29:21","新北市中和區秀朗路三段10巷14弄94號","121.523533333333","24.996575","6500300","中和區"
"235059","AAC-215","2017/09/01 19:29:15","新北市中和區圓通路252巷29弄10號","121.492696666667","24.9918683333333","6500300","中和區"
"220068","013-TV","2017/09/01 19:29:30","新北市板橋區萬安街12號","121.484713333333","25.0225883333333","6500100","板橋區"
"220065","072-UY","2017/09/01 19:29:14","新北市板橋區國泰街77號","121.467391666667","25.0065066666667","6500100","板橋區"
"220106","075-UY","2017/09/01 19:29:23","新北市板橋區文化路二段417巷11號","121.473566666667","25.033835","6500100","板橋區"
"220069","AAD-861","2017/09/01 19:29:20","新北市板橋區大明街20巷31號","121.458533333333","25.003675","6500100","板橋區"
"220102","120-SR","2017/09/01 19:29:16","新北市板橋區松柏街7號","121.473956666667","25.0295033333333","6500100","板橋區"
"247014","057-VK","2017/09/01 19:29:24","新北市蘆洲區復興路11號","121.471996666667","25.0852633333333","6501400","蘆洲區"
"247004","056-VK","2017/09/01 19:29:33","新北市蘆洲區長安街196號","121.458678333333","25.0839933333333","6501400","蘆洲區"
"226004","205-ST","2017/09/01 19:29:20","新北市平溪區十分里十分街64號","121.775848333333","25.041705","6502400","平溪區"
"228002","663-BX","2017/09/01 19:29:20","新北市貢寮區龍門里龍門街76號","121.931356666667","25.0270316666667","6502600","貢寮區"
"228001","670-TC","2017/09/01 19:29:31","新北市貢寮區真理里延平街68-1號","121.925395","25.0574383333333","6502600","貢寮區"
"228003","828-UM","2017/09/01 19:29:21","新北市貢寮區和美里和美街29號","121.91384","25.0829083333333","6502600","貢寮區"
"224006","676-BX","2017/09/01 19:29:31","新北市瑞芳區三爪子坑路124號","121.805953333333","25.10557","6501200","瑞芳區"
"224002","639-TC","2017/09/01 19:29:22","新北市瑞芳區三爪子坑路13巷12-1號","121.814066666667","25.1069566666667","6501200","瑞芳區"
"227011","642-TC","2017/09/01 19:29:30","新北市雙溪區新基里新基北街43號","121.868181666667","25.039675","6502500","雙溪區"
"227003","400-TW","2017/09/01 19:29:18","新北市雙溪區雙溪里光復街3號","121.865136666667","25.0356383333333","6502500","雙溪區"
"253005","032-BX","2017/09/01 19:29:13","新北市石門區小坑9號","121.593665","25.2881266666667","6502200","石門區"
"253006","295-VK","2017/09/01 19:29:19","新北市石門區楓林23-10號","121.538718333333","25.2911783333333","6502200","石門區"
"208002","742-BX","2017/09/01 19:29:14","新北市金山區仁愛路87巷1號","121.634588333333","25.2215133333333","6502700","金山區"
"208003","665-BX","2017/09/01 19:29:20","新北市金山區中山路263巷14號","121.636398333333","25.2216033333333","6502700","金山區"
"208001","761-BX","2017/09/01 19:29:23","新北市金山區金包里街117號","121.637496666667","25.2224883333333","6502700","金山區"
"251009","008-UM","2017/09/01 19:29:24","新北市淡水區北新路28號","121.445198333333","25.1776733333333","6501000","淡水區"
"251005","010-UM","2017/09/01 19:29:29","新北市淡水區水源街一段71巷12號","121.444313333333","25.1728983333333","6501000","淡水區"
"251001","011-UM","2017/09/01 19:29:32","新北市淡水區民權路177號","121.459788333333","25.1353433333333","6501000","淡水區"
"251013","180-VK","2017/09/01 19:29:14","新北市淡水區安子內18號","121.47158","25.2187833333333","6501000","淡水區"
"251015","182-VK","2017/09/01 19:29:32","新北市淡水區北新路三段73號","121.48536","25.187805","6501000","淡水區"
"251010","413-VK","2017/09/01 19:29:13","新北市淡水區中正路二段136-2號","121.421258333333","25.18726","6501000","淡水區"
"251012","441-VK","2017/09/01 19:29:31","新北市淡水區中山北路三段164號","121.445718333333","25.1965716666667","6501000","淡水區"
"251006","561-UM","2017/09/01 19:29:31","新北市淡水區大義街27號","121.442646666667","25.1782383333333","6501000","淡水區"
"251007","577-R6","2017/09/01 19:29:22","新北市淡水區淡金路50號","121.456376666667","25.1615166666667","6501000","淡水區"
"251011","650-BX","2017/09/01 19:29:28","新北市淡水區中正東路二段143巷2弄1號","121.460748333333","25.14743","6501000","淡水區"
"251003","673-BX","2017/09/01 19:29:23","新北市淡水區中山北路二段98號","121.444423333333","25.18398","6501000","淡水區"
"207003","550-UM","2017/09/01 19:29:21","新北市萬里區大鵬里萬里加投209號","121.644171666667","25.2154166666667","6502800","萬里區"
"207004","225-TW","2017/09/01 19:29:24","新北市萬里區萬里里瑪鋉路135號","121.688993333333","25.1777916666667","6502800","萬里區"
"252002","178-VK","2017/09/01 19:29:26","新北市三芝區淡金路二段18-1號","121.502686666667","25.25952","6502100","三芝區"
"252001","702-TV","2017/09/01 19:29:24","新北市三芝區長勤街37巷14號","121.501098333333","25.2551883333333","6502100","三芝區"
"252007","AAC-283","2017/09/01 09:19:31","新北市三芝區埔坪里埔頭坑41號","121.50452","25.26439","6502100","三芝區"
"237004","078-UY","2017/09/01 19:29:12","新北市三峽區有木131-10號","121.436536666667","24.8542466666667","6500900","三峽區"
"237007","153-BY","2017/09/01 19:29:18","新北市三峽區二鬮路178號","121.359143333333","24.9068383333333","6500900","三峽區"
"237009","210-TH","2017/09/01 19:29:25","新北市三峽區民權街153-1號","121.368376666667","24.9312133333333","6500900","三峽區"
"237013","252-BX","2017/09/01 19:29:34","新北市三峽區介壽路一段316號","121.380563333333","24.9301866666667","6500900","三峽區"
"237012","275-BY","2017/09/01 19:29:29","新北市三峽區三樹路98巷175號","121.384505","24.93995","6500900","三峽區"
"237008","302-VK","2017/09/01 19:29:26","新北市三峽區永安街135號","121.373748333333","24.928315","6500900","三峽區"
"237014","433-BY","2017/09/01 19:29:14","新北市三峽區嘉添79號","121.36867","24.9101333333333","6500900","三峽區"
"237006","5529-G3","2017/09/01 19:29:18","新北市三峽區中正路一段336巷15弄2號","121.369958333333","24.9249533333333","6500900","三峽區"
"237015","649-BX","2017/09/01 19:29:32","新北市三峽區成福路156號","121.422985","24.928845","6500900","三峽區"
"237005","AKY-6261","2017/09/01 19:29:27","新北市三峽區中山路184巷6號","121.364265","24.9369466666667","6500900","三峽區"
"236072","105-UM","2017/09/01 19:29:19","新北市土城區學府路一段163號","121.453076666667","24.985865","6501300","土城區"
"236079","166-UM","2017/09/01 19:29:22","新北市土城區中州路26號","121.414595","24.9574766666667","6501300","土城區"
"236027","269-VK","2017/09/01 19:29:18","新北市土城區中央路二段61巷22號","121.443168333333","24.9786983333333","6501300","土城區"
"236015","270-VK","2017/09/01 19:29:32","新北市土城區廣福街123號","121.456228333333","24.9928666666667","6501300","土城區"
"236022","401-BY","2017/09/01 19:29:28","新北市土城區峰廷街8號","121.468678333333","24.9877716666667","6501300","土城區"
"236059","912-UM","2017/09/01 19:29:33","新北市土城區中央路二段280號","121.44065","24.9741683333333","6501300","土城區"
"236050","913-UM","2017/09/01 19:29:14","新北市土城區清水路201號","121.459993333333","24.9816783333333","6501300","土城區"
"236063","915-UM","2017/09/01 19:29:15","新北市土城區金城路三段202-3號","121.46951","24.988545","6501300","土城區"
"242048","751-BX","2017/09/01 19:29:28","新北市新莊區民安路49號","121.423868333333","25.0261983333333","6500500","新莊區"
"242034","133-UY","2017/09/01 19:29:20","新北市新莊區仁愛街12號","121.444236666667","25.035295","6500500","新莊區"
"242007","173-VK","2017/09/01 19:29:26","新北市新莊區自立街202號","121.4568","25.0454966666667","6500500","新莊區"
"238015","755-BX","2017/09/01 19:29:19","新北市樹林區復興路223號","121.420075","24.99097","6500700","樹林區"
"238023","601-UM","2017/09/01 19:29:12","桃園市龜山區萬壽路一段139號","121.407985","25.018525","6500700","樹林區"
"238019","599-UM","2017/09/01 19:29:22","新北市樹林區八德街15號","121.418025","24.984315","6500700","樹林區"
"238018","571-TV","2017/09/01 19:29:19","新北市樹林區中華路102號","121.418551666667","24.980835","6500700","樹林區"
"238024","5061-A6","2017/09/01 19:29:25","新北市樹林區中山路三段155巷12號","121.396041666667","24.972505","6500700","樹林區"
"238022","312-TH","2017/09/01 19:29:15","新北市樹林區國凱街39號","121.420275","24.978885","6500700","樹林區"
"238021","311-TH","2017/09/01 19:29:29","新北市樹林區柑園街二段382巷16號","121.368046666667","24.949885","6500700","樹林區"
"238025","303-VK","2017/09/01 19:29:24","新北市樹林區保安二街12號","121.424968333333","24.99403","6500700","樹林區"
"238017","283-BY","2017/09/01 19:29:19","新北市樹林區光興街322號","121.407593333333","25.005515","6500700","樹林區"
"238014","282-BY","2017/09/01 19:29:32","新北市樹林區千歲街6巷2號","121.425","24.9955333333333","6500700","樹林區"
"238020","268-VK","2017/09/01 19:29:30","新北市樹林區俊英街121巷22號","121.423493333333","25.0100516666667","6500700","樹林區"
"238026","172-UY","2017/09/01 19:29:24","新北市樹林區柑園街一段359號","121.388871666667","24.955975","6500700","樹林區"
"238016","169-UY","2017/09/01 19:29:27","新北市樹林區復興路444號","121.413566666667","24.9841766666667","6500700","樹林區"
"239007","AAC-297","2017/09/01 19:29:19","新北市鶯歌區中山路131號","121.349385","24.95701","6500800","鶯歌區"
"239006","891-R6","2017/09/01 19:29:21","新北市鶯歌區尖山埔路144號","121.343701666667","24.9497683333333","6500800","鶯歌區"
"239003","360-BY","2017/09/01 19:29:19","新北市鶯歌區環河路78-2號","121.34996","24.9428366666667","6500800","鶯歌區"
"239002","359-BY","2017/09/01 19:29:21","新北市鶯歌區中山路129號","121.34955","24.9569716666667","6500800","鶯歌區"
"239004","193-VK","2017/09/01 19:29:18","新北市鶯歌區二甲路83號","121.33931","24.93306","6500800","鶯歌區"
"221036","130-UY","2017/09/01 19:29:18","新北市汐止區汐萬路一段256巷1號","121.651831666667","25.07496","6501100","汐止區"
"221015","131-UY","2017/09/01 19:29:29","新北市汐止區康寧街901號","121.651536666667","25.0749266666667","6501100","汐止區"
"221010","269-BY","2017/09/01 19:29:21","新北市汐止區康寧街901號","121.65132","25.0750016666667","6501100","汐止區"
"221012","276-VK","2017/09/01 13:20:49","新北市汐止區汐萬路一段256巷3號","121.653405","25.07462","6501100","汐止區"
"221031","277-VK","2017/09/01 19:29:13","新北市汐止區汐萬路一段256巷3號","121.65253","25.0745466666667","6501100","汐止區"
"221012","278-VK","2017/09/01 19:29:23","新北市汐止區大同路三段271號","121.67401","25.0756383333333","6501100","汐止區"
"221023","279-VK","2017/09/01 19:29:18","新北市汐止區康寧街615號","121.636393333333","25.07117","6501100","汐止區"
"221027","281-BY","2017/09/01 19:29:15","新北市汐止區大同路二段348號","121.656826666667","25.0670716666667","6501100","汐止區"
"221038","297-VK","2017/09/01 19:29:19","新北市汐止區汐萬路一段312號","121.650495","25.0753083333333","6501100","汐止區"
"221029","298-VK","2017/09/01 19:29:21","新北市汐止區康寧街901號","121.651505","25.074925","6501100","汐止區"
"221021","299-VK","2017/09/01 19:29:29","新北市汐止區康寧街901號","121.651496666667","25.07501","6501100","汐止區"
"221008","358-BY","2017/09/01 19:29:31","新北市汐止區吉林街46-1號","121.622133333333","25.0666533333333","6501100","汐止區"
"221025","623-UM","2017/09/01 19:29:29","新北市汐止區秀峰路57號","121.659746666667","25.0650366666667","6501100","汐止區"
"221033","647-BX","2017/09/01 19:29:28","新北市汐止區南勢街3號","121.627085","25.0374333333333","6501100","汐止區"
"221002","707-TV","2017/09/01 19:29:33","新北市汐止區大同路一段341號","121.638676666667","25.0594616666667","6501100","汐止區"
"221018","753-BX","2017/09/01 19:29:31","新北市汐止區康寧街901號","121.651646666667","25.0748783333333","6501100","汐止區"
"220079","145-BY","2017/09/01 19:29:20","新北市板橋區復興街54號","121.45876","25.017455","6500100","板橋區"
"220080","200-UY","2017/09/01 19:29:32","新北市板橋區大觀路二段19巷49號","121.44833","25.0030516666667","6500100","板橋區"
"220082","610-BX","2017/09/01 19:29:26","新北市板橋區金門街263號","121.431635","24.9886283333333","6500100","板橋區"
"220101","245-BX","2017/09/01 19:29:13","新北市板橋區縣民大道三段127巷1號","121.477335","25.0229716666667","6500100","板橋區"
"220075","256-TC","2017/09/01 19:29:17","新北市板橋區中正路289巷6號","121.455061666667","25.0191816666667","6500100","板橋區"
"220056","276-BY","2017/09/01 19:29:34","新北市板橋區信義路1巷26弄35號","121.45882","24.9967016666667","6500100","板橋區"
"220072","277-BY","2017/09/01 19:29:30","新北市板橋區篤行路二段161巷20號","121.429883333333","24.9872733333333","6500100","板橋區"
"220094","283-UM","2017/09/01 19:29:19","新北市板橋區吳鳳路50巷21弄2號","121.468521666667","25.0304316666667","6500100","板橋區"
"220071","283-VK","2017/09/01 19:29:33","新北市板橋區忠孝路48巷9弄12號","121.461581666667","25.0001183333333","6500100","板橋區"
"220053","285-VK","2017/09/01 19:29:11","新北市板橋區永豐街122號","121.476443333333","25.0208966666667","6500100","板橋區"
"220083","286-VK","2017/09/01 19:29:29","新北市板橋區龍興街95巷14號","121.443478333333","25.00273","6500100","板橋區"
"220081","287-VK","2017/09/01 19:29:20","新北市板橋區南雅南路一段131號","121.455131666667","25.0043516666667","6500100","板橋區"
"220090","288-VK","2017/09/01 19:29:30","新北市板橋區裕民街83號","121.460586666667","25.02815","6500100","板橋區"
"220061","293-UM","2017/09/01 19:29:32","新北市板橋區中山路二段251號","121.477258333333","25.01777","6500100","板橋區"
"220084","296-UM","2017/09/01 19:29:13","新北市板橋區滿平街136巷1弄2號","121.428568333333","24.9879166666667","6500100","板橋區"
"220092","299-UM","2017/09/01 19:29:31","新北市板橋區光武街2巷59號","121.468966666667","25.0259066666667","6500100","板橋區"
"220062","303-R5","2017/09/01 19:29:27","新北市板橋區三民路二段181巷1號","121.479598333333","25.0144216666667","6500100","板橋區"
"220098","317-R6","2017/09/01 19:29:20","新北市板橋區四維路266巷5弄18號","121.463573333333","25.0291233333333","6500100","板橋區"
"220086","461-BY","2017/09/01 19:29:30","新北市板橋區中正路236巷64號","121.457835","25.0193083333333","6500100","板橋區"
"220064","486-VK","2017/09/01 19:29:21","新北市板橋區板新路83號","121.473368333333","25.0138566666667","6500100","板橋區"
"220089","487-VK","2017/09/01 19:29:32","新北市板橋區文化路一段90號","121.464403333333","25.0179","6500100","板橋區"
"220088","491-VK","2017/09/01 19:29:20","新北市板橋區雙十路二段157號","121.47438","25.0282133333333","6500100","板橋區"
"220035","560-BX","2017/09/01 19:29:29","新北市板橋區中正路399巷11號","121.453483333333","25.02242","6500100","板橋區"
"220103","561-BX","2017/09/01 19:29:30","新北市板橋區文化路一段220號","121.466605","25.0205016666667","6500100","板橋區"
"220063","609-BX","2017/09/01 19:29:28","新北市板橋區三民路一段31巷11號","121.479741666667","25.0231616666667","6500100","板橋區"
"220091","637-BX","2017/09/01 19:29:30","新北市板橋區文聖街135巷25號","121.478953333333","25.0289866666667","6500100","板橋區"
"220057","686-BX","2017/09/01 19:29:14","新北市中和區和平路200巷1-8號","121.464421666667","24.9954083333333","6500100","板橋區"
"220077","687-BX","2017/09/01 19:29:23","新北市板橋區僑中二街114巷1號","121.445756666667","25.00661","6500100","板橋區"
"220093","689-BX","2017/09/01 19:29:25","新北市板橋區新海路115號","121.461051666667","25.0228083333333","6500100","板橋區"
"220054","741-BX","2017/09/01 19:29:23","新北市板橋區光明街112號","121.463131666667","25.0030383333333","6500100","板橋區"
"220055","827-TW","2017/09/01 19:29:30","新北市板橋區重慶路290巷22弄16號","121.46234","24.9995716666667","6500100","板橋區"
"220067","829-TW","2017/09/01 19:29:15","新北市板橋區漢生東路313巷4號","121.472416666667","25.0082266666667","6500100","板橋區"
"220096","831-TW","2017/09/01 19:29:20","新北市板橋區大同街35巷54號","121.476731666667","25.0277483333333","6500100","板橋區"
"220074","895-R6","2017/09/01 19:29:34","新北市板橋區中正路25巷11號","121.454876666667","25.0127016666667","6500100","板橋區"
"220073","985-R7","2017/09/01 19:29:30","新北市板橋區新生街13-1號","121.455346666667","25.021175","6500100","板橋區"
"220097","AAC-210","2017/09/01 19:29:31","新北市板橋區漢生西路151巷1號","121.46313","25.0221883333333","6500100","板橋區"
"220070","AAC-253","2017/09/01 19:29:30","新北市板橋區四川路一段137號","121.459833333333","25.004445","6500100","板橋區"
