"lineid","car","time","location","longitude","latitude","cityid","cityname"
"244002","658-BX","2017/09/01 17:20:28","新北市林口區粉寮69號","121.40493","25.0909383333333","6501700","林口區"
"231059","001-UM","2017/09/01 21:19:07","新北市新店區安豐路45號","121.50021","24.9551016666667","6500600","新店區"
"231061","047-UY","2017/09/01 21:19:16","新北市新店區薏仁坑路6號","121.500373333333","24.9579616666667","6500600","新店區"
"231051","107-UY","2017/09/01 21:19:25","新北市新店區中正路680巷51弄11號","121.535496666667","24.9896716666667","6500600","新店區"
"231048","108-UY","2017/09/01 21:19:29","新北市新店區中央路151號","121.529285","24.9722966666667","6500600","新店區"
"231063","268-BY","2017/09/01 21:19:24","新北市新店區玫瑰路57巷45號","121.497391666667","24.946485","6500600","新店區"
"231050","AAD-862","2017/09/01 21:19:25","新北市新店區中華路89號","121.539205","24.9689233333333","6500600","新店區"
"231067","4772-VM","2017/09/01 21:19:24","新北市新店區薏仁坑路自強巷6號","121.496666666667","24.958455","6500600","新店區"
"231065","512-UM","2017/09/01 21:19:21","新北市新店區安康路二段458號","121.494155","24.954135","6500600","新店區"
"231040","619-UM","2017/09/01 21:19:27","新北市新店區北新路一段263號","121.540988333333","24.9663716666667","6500600","新店區"
"241011","013-R5","2017/09/01 21:19:18","新北市三重區龍濱路191號","121.501953333333","25.0711483333333","6500200","三重區"
"241028","022-UY","2017/09/01 21:19:11","新北市三重區正義南路169號","121.498943333333","25.0575216666667","6500200","三重區"
"241008","059-VK","2017/09/01 21:19:07","新北市三重區自強路1段71-1號","121.497386666667","25.0669","6500200","三重區"
"241009","060-VK","2017/09/01 21:19:19","新北市三重區忠孝路三段1號","121.48187","25.06766","6500200","三重區"
"241031","061-VK","2017/09/01 21:19:12","新北市三重區五谷王南街46巷37號","121.475748333333","25.0455116666667","6500200","三重區"
"241017","063-VK","2017/09/01 21:19:19","新北市三重區中正北路25巷2號","121.493293333333","25.06278","6500200","三重區"
"241024","065-VK","2017/09/01 21:19:24","新北市三重區中正北路145巷14號","121.48412","25.0677983333333","6500200","三重區"
"241026","066-VK","2017/09/01 21:19:20","新北市三重區大同南路218號","121.496786666667","25.0562466666667","6500200","三重區"
"241002","090-VK","2017/09/01 21:19:21","新北市三重區五華街19-1號","121.494875","25.080415","6500200","三重區"
"241003","091-VK","2017/09/01 21:19:25","新北市三重區仁義街319號","121.495368333333","25.0843","6500200","三重區"
"241005","262-UM","2017/09/01 21:19:09","新北市三重區三信路182號","121.488038333333","25.086175","6500200","三重區"
"241016","266-UM","2017/09/01 21:19:30","新北市三重區自強路一段99號","121.495748333333","25.0663333333333","6500200","三重區"
"241018","268-UM","2017/09/01 21:19:16","新北市三重區忠孝路一段149號","121.488155","25.071955","6500200","三重區"
"241032","269-UM","2017/09/01 21:19:12","新北市三重區光復路二段166號","121.472168333333","25.060825","6500200","三重區"
"241013","270-UM","2017/09/01 21:19:15","新北市三重區仁愛街83號","121.49585","25.073215","6500200","三重區"
"241007","412-TH","2017/09/01 21:19:24","新北市三重區忠孝路一段169號","121.487715","25.071755","6500200","三重區"
"241004","475-VK","2017/09/01 21:19:10","新北市三重區仁愛街465號","121.489453333333","25.081985","6500200","三重區"
"241019","478-VK","2017/09/01 21:19:20","新北市三重區重陽路三段192-4號","121.490308333333","25.06875","6500200","三重區"
"241030","480-VK","2017/09/01 21:19:13","新北市三重區五谷王北街42巷2號","121.475741666667","25.049045","6500200","三重區"
"241014","543-UM","2017/09/01 21:19:18","新北市三重區三和路二段173巷47號","121.499301666667","25.0702416666667","6500200","三重區"
"241023","545-UM","2017/09/01 21:19:18","新北市三重區中正北路176巷27號","121.48264","25.06598","6500200","三重區"
"241001","547-UM","2017/09/01 21:19:17","新北市三重區福隆路56號","121.492753333333","25.078615","6500200","三重區"
"241006","AAD-863","2017/09/01 21:19:10","新北市三重區新北大道一段88號","121.486145","25.0615016666667","6500200","三重區"
"241012","941-UM","2017/09/01 21:19:19","新北市三重區龍門路286號","121.501995","25.07428","6500200","三重區"
"241033","AAC-255","2017/09/01 21:19:24","新北市三重區光復路二段102巷23號","121.470281666667","25.057995","6500200","三重區"
"235026","800-TS","2017/09/01 21:14:49","新北市中和區員山路36巷16號","121.484525","24.991295","6500300","中和區"
"247020","893-R6","2017/09/01 21:19:17","新北市蘆洲區復興路323巷368號","121.474103333333","25.093895","6501400","蘆洲區"
"247010","546-UM","2017/09/01 21:19:11","新北市蘆洲區鷺江街23號","121.478818333333","25.0824533333333","6501400","蘆洲區"
"247018","500-BY","2017/09/01 21:19:24","新北市蘆洲區復興路111-6號","121.476466666667","25.0884083333333","6501400","蘆洲區"
"247008","339-TH","2017/09/01 21:19:20","新北市蘆洲區信義路73巷16號","121.476053333333","25.0805233333333","6501400","蘆洲區"
"247024","337-TH","2017/09/01 21:19:10","新北市蘆洲區光明路110號","121.463556666667","25.08816","6501400","蘆洲區"
"247002","336-TH","2017/09/01 21:19:26","新北市蘆洲區永樂街33-1號","121.457885","25.0883033333333","6501400","蘆洲區"
"247014","057-VK","2017/09/01 21:19:24","新北市蘆洲區保和街29號","121.470581666667","25.0864583333333","6501400","蘆洲區"
"247004","056-VK","2017/09/01 21:19:13","新北市蘆洲區環堤大道2-1號","121.456858333333","25.0827416666667","6501400","蘆洲區"
"247006","053-VK","2017/09/01 21:19:21","新北市蘆洲區長安街63號","121.462878333333","25.0798233333333","6501400","蘆洲區"
"247012","007-UY","2017/09/01 21:19:12","新北市蘆洲區集賢路224巷46弄60-1號","121.480781666667","25.0880433333333","6501400","蘆洲區"
"247022","002-UY","2017/09/01 21:19:09","新北市蘆洲區三民路202號","121.469175","25.0889616666667","6501400","蘆洲區"
"247016","001-UY","2017/09/01 21:19:20","新北市蘆洲區中正路185巷50號","121.467275","25.08488","6501400","蘆洲區"
"251009","008-UM","2017/09/01 21:19:23","新北市淡水區民族路33巷16-11號","121.463211666667","25.1357566666667","6501000","淡水區"
"251004","009-UM","2017/09/01 21:19:08","新北市淡水區民族路31巷1號","121.462313333333","25.1359766666667","6501000","淡水區"
"251005","010-UM","2017/09/01 21:19:29","新北市淡水區水源街一段122巷37號","121.447066666667","25.1704416666667","6501000","淡水區"
"251001","011-UM","2017/09/01 21:19:12","新北市淡水區中山北路二段189巷30號","121.443643333333","25.1852583333333","6501000","淡水區"
"251002","012-UM","2017/09/01 21:18:59","新北市淡水區學府路172巷21號","121.448333333333","25.174935","6501000","淡水區"
"251013","180-VK","2017/09/01 21:19:13","新北市淡水區行忠路328號","121.460468333333","25.1996483333333","6501000","淡水區"
"251008","181-VK","2017/09/01 21:19:14","新北市淡水區水源街二段227號","121.460488333333","25.1764116666667","6501000","淡水區"
"251015","182-VK","2017/09/01 21:19:11","新北市淡水區淡金路四段546-2號","121.452446666667","25.227085","6501000","淡水區"
"251010","413-VK","2017/09/01 21:19:13","新北市淡水區中正路一段156巷12號","121.421811666667","25.180845","6501000","淡水區"
"251012","441-VK","2017/09/01 21:19:10","新北市淡水區石頭埔8號","121.452675","25.2345233333333","6501000","淡水區"
"251011","650-BX","2017/09/01 21:19:08","新北市淡水區新民街152巷6弄22號","121.438868333333","25.1787483333333","6501000","淡水區"
"251003","673-BX","2017/09/01 21:19:23","新北市淡水區新春街85巷25弄2號","121.438413333333","25.1838033333333","6501000","淡水區"
"252007","AAC-283","2017/09/01 09:19:31","新北市三芝區埔坪里埔頭坑41號","121.50452","25.26439","6502100","三芝區"
"242025","615-BX","2017/09/01 21:19:18","新北市新莊區環河路658-8號","121.436428333333","25.00782","6500500","新莊區"
"221012","276-VK","2017/09/01 13:20:49","新北市汐止區汐萬路一段256巷3號","121.653405","25.07462","6501100","汐止區"
"220070","AAC-253","2017/09/01 21:19:10","新北市八里區中山路三段382號","121.368711666667","25.1358516666667","6500100","板橋區"
