"lineid","car","time","location","longitude","latitude","cityid","cityname"
"222004","289-BY","2017/08/05 08:59:05","新北市深坑區大崙尾1-1號","121.615615","24.9751766666667","6501800","深坑區"
"231007","189-VK","2017/08/05 08:58:56","新北市新店區新潭路三段215巷25號","121.508103333333","24.9040883333333","6500600","新店區"
"231008","192-VK","2017/08/05 08:58:52","新北市新店區松林路83號","121.548933333333","24.9082666666667","6500600","新店區"
"220104","015-TV","2017/08/05 08:59:07","新北市五股區凌雲路二段66號","121.438516666667","25.1062366666667","6500100","板橋區"
"226005","5620-A6","2017/08/05 08:59:05","新北市平溪區靜安路二段550號","121.746886666667","25.0253383333333","6502400","平溪區"
"226002","7418-A5","2017/08/05 08:59:04","新北市平溪區東勢里芊蓁林9-1號","121.735793333333","24.9904366666667","6502400","平溪區"
"226003","AGD-0702","2017/08/05 08:59:04","新北市平溪區十分里十分街238號","121.778135","25.04413","6502400","平溪區"
"223006","022-BY","2017/08/05 08:58:54","新北市石碇區碇坪路一段11號","121.652593333333","24.9989633333333","6501900","石碇區"
"223002","198-BX","2017/08/05 08:58:54","新北市石碇區楓子林36-1號","121.64243","25.0090783333333","6501900","石碇區"
"223003","205-TH","2017/08/05 08:58:49","新北市石碇區北宜路四段26號","121.623193333333","24.957945","6501900","石碇區"
"223008","406-TH","2017/08/05 08:59:09","新北市石碇區光明路13號","121.680035","25.0336416666667","6501900","石碇區"
"223001","437-BY","2017/08/05 08:58:58","新北市石碇區北宜路四段26號","121.623063333333","24.958005","6501900","石碇區"
"223004","660-BX","2017/08/05 08:53:36","新北市石碇區崩山58號","121.687625","24.9660416666667","6501900","石碇區"
"223007","661-BX","2017/08/05 08:59:02","新北市石碇區碇南路二段鹿窟巷2號","121.674445","25.0299966666667","6501900","石碇區"
"228002","585-TW","2017/08/05 08:53:49","新北市貢寮區福隆里興隆街24-1號","121.943751666667","25.0174966666667","6502600","貢寮區"
"227006","282-VK","2017/08/05 08:59:03","新北市雙溪區上林里內平林120-2號","121.824801666667","25.026375","6502500","雙溪區"
"253003","6232-TK","2017/08/05 08:58:58","新北市石門區尖子鹿8-1號","121.575243333333","25.2799666666667","6502200","石門區"
"253001","6251-TK","2017/08/05 08:59:06","新北市石門區下員坑50-1號","121.518603333333","25.272315","6502200","石門區"
"253002","637-UY","2017/08/05 08:58:55","新北市石門區尖山湖3-1號","121.564553333333","25.2412066666667","6502200","石門區"
"253004","8270-PC","2017/08/05 08:56:11","新北市石門區草埔尾27號","121.604018333333","25.2642833333333","6502200","石門區"
"252004","249-BX","2017/08/05 08:59:04","新北市三芝區興華里田心子20-8號","121.494028333333","25.2012366666667","6502100","三芝區"
"252007","AAC-283","2017/08/05 08:58:52","新北市三芝區後厝里北勢子21-1號","121.47356","25.2538183333333","6502100","三芝區"
"237001","159-UY","2017/08/05 08:58:53","新北市三峽區學府路100號","121.373916666667","24.9485333333333","6500900","三峽區"
"236011","165-UM","2017/08/05 08:58:56","新北市土城區金城路一段29號","121.440056666667","24.9692533333333","6501300","土城區"
"236002","339-SR","2017/08/05 08:59:12","新北市土城區中央路二段89號","121.442451666667","24.9780933333333","6501300","土城區"
"236006","498-BY","2017/08/05 08:58:50","新北市土城區承天路7號","121.436123333333","24.96595","6501300","土城區"
