"lineid","car","time","location","longitude","latitude","cityid","cityname"
"222004","289-BY","2017/08/05 09:49:04","新北市深坑區深坑街43號","121.615608333333","25.0017416666667","6501800","深坑區"
"231007","189-VK","2017/08/05 09:48:55","新北市新店區新潭路三段215巷25號","121.508138333333","24.904085","6500600","新店區"
"231008","192-VK","2017/08/05 09:48:52","新北市新店區平廣路一段250號","121.508211666667","24.8884233333333","6500600","新店區"
"228002","585-TW","2017/08/05 08:53:49","新北市貢寮區福隆里興隆街24-1號","121.943751666667","25.0174966666667","6502600","貢寮區"
"227006","282-VK","2017/08/05 09:32:03","新北市雙溪區長源里柑腳58-1號","121.793953333333","25.0067783333333","6502500","雙溪區"
"253003","6232-TK","2017/08/05 09:48:58","新北市石門區尖子鹿51-1號","121.576866666667","25.275105","6502200","石門區"
"253001","6251-TK","2017/08/05 09:47:45","新北市石門區崁子腳47號","121.534585","25.28396","6502200","石門區"
"253002","637-UY","2017/08/05 09:48:55","新北市石門區七股10-5號","121.544868333333","25.2691083333333","6502200","石門區"
"253004","8270-PC","2017/08/05 09:48:58","新北市石門區坪林31號","121.590241666667","25.2643533333333","6502200","石門區"
"252004","249-BX","2017/08/05 09:49:03","新北市三芝區福德里埔尾32-2號","121.507968333333","25.239235","6502100","三芝區"
"252007","AAC-283","2017/08/05 09:48:52","新北市三芝區陽明路2號","121.518515","25.26341","6502100","三芝區"
"237001","159-UY","2017/08/05 09:48:53","新北市三峽區隆恩街241號","121.358326666667","24.94127","6500900","三峽區"
