"lineid","car","time","location","longitude","latitude","cityid","cityname"
"231007","189-VK","2017/08/05 10:28:56","新北市新店區新潭路三段190號","121.507995","24.905415","6500600","新店區"
"231008","192-VK","2017/08/05 10:29:11","新北市新店區平廣路一段59號","121.532796666667","24.8997783333333","6500600","新店區"
"228002","585-TW","2017/08/05 08:53:49","新北市貢寮區福隆里興隆街24-1號","121.943751666667","25.0174966666667","6502600","貢寮區"
"227006","282-VK","2017/08/05 10:29:03","新北市雙溪區上林里新寮子14號","121.834595","25.0304666666667","6502500","雙溪區"
"253003","6232-TK","2017/08/05 10:28:58","新北市石門區小坑9號","121.59455","25.2881683333333","6502200","石門區"
"253001","6251-TK","2017/08/05 10:28:45","新北市石門區小坑9號","121.594403333333","25.28836","6502200","石門區"
"253002","637-UY","2017/08/05 10:28:55","新北市石門區小坑9號","121.594546666667","25.2891366666667","6502200","石門區"
"252007","AAC-283","2017/08/05 10:28:52","新北市三芝區古庄里茂興店77號","121.492848333333","25.2670216666667","6502100","三芝區"
