"lineid","car","time","location","longitude","latitude","cityid","cityname"
"234044","148-BY","2017/08/05 13:49:07","新北市永和區永利路212號","121.52326","25.00258","6500400","永和區"
"234012","149-BY","2017/08/05 13:49:02","新北市永和區永平路298號","121.507375","25.0122166666667","6500400","永和區"
"234005","207-UY","2017/08/05 13:49:03","新北市中和區中和路428號","121.511728333333","25.0033183333333","6500400","永和區"
"234078","298-R6","2017/08/05 13:49:05","新北市永和區永亨路114號","121.523745","25.004315","6500400","永和區"
"234036","336-UY","2017/08/05 13:49:09","新北市永和區成功路二段167號","121.526598333333","24.9970516666667","6500400","永和區"
"234062","337-UY","2017/08/05 13:48:48","新北市永和區中正路279號","121.517595","25.000905","6500400","永和區"
"234084","338-UY","2017/08/05 13:49:06","新北市永和區永利路42號","121.518696666667","25.005445","6500400","永和區"
"234068","552-UM","2017/08/05 13:48:49","新北市永和區豫溪街84號","121.518126666667","25.0099716666667","6500400","永和區"
"234052","553-UM","2017/08/05 13:48:51","新北市永和區竹林路39巷28弄21號","121.519941666667","25.0144583333333","6500400","永和區"
"234015","745-BX","2017/08/05 13:48:53","新北市永和區文化路19-1號","121.514988333333","25.0149983333333","6500400","永和區"
"234028","746-BX","2017/08/05 13:49:05","新北市永和區民生路67巷21號","121.5239","24.997345","6500400","永和區"
"234060","AAD-866","2017/08/05 13:49:08","新北市永和區中正路3-1號","121.513951666667","24.9954283333333","6500400","永和區"
"234040","862-TW","2017/08/05 13:49:03","新北市永和區中和路335巷18弄32號","121.508211666667","25.0005633333333","6500400","永和區"
"234048","863-TW","2017/08/05 13:48:59","新北市永和區保安路144號","121.50857","25.01491","6500400","永和區"
"234010","9373-KE","2017/08/05 13:49:00","新北市永和區保安路292號","121.50501","25.01178","6500400","永和區"
"248017","225-UY","2017/08/05 13:49:02","新北市五股區民義路二段22巷26-2號","121.423806666667","25.0990266666667","6501500","五股區"
"234022","9380-KE","2017/08/05 13:48:51","新北市永和區復興街58號","121.516576666667","25.0132733333333","6500400","永和區"
"234076","969-R7","2017/08/05 13:49:04","新北市永和區民權路58巷2弄14號","121.519805","24.9989333333333","6500400","永和區"
"234072","AAC-211","2017/08/05 13:48:59","新北市永和區竹林路201巷26弄7號","121.522618333333","25.0102033333333","6500400","永和區"
"234066","AAC-212","2017/08/05 13:48:49","新北市永和區永貞路418-3號","121.508688333333","25.0080666666667","6500400","永和區"
"234001","AAC-295","2017/08/05 13:48:55","新北市永和區自強街2號","121.514003333333","25.00806","6500400","永和區"
"231002","002-UM","2017/08/05 13:48:55","新北市新店區溪園路245-6號","121.525241666667","24.9831383333333","6500600","新店區"
"231025","0291-UT","2017/08/05 13:49:00","新北市新店區中央路67號","121.532515","24.9768883333333","6500600","新店區"
"231028","046-UY","2017/08/05 13:48:56","新北市新店區安和路三段4號","121.518001666667","24.98077","6500600","新店區"
"231030","047-UY","2017/08/05 13:49:10","新北市新店區安康路一段302-6號","121.518001666667","24.964095","6500600","新店區"
"231029","106-UY","2017/08/05 13:49:00","新北市新店區安康路二段156號","121.512356666667","24.9609016666667","6500600","新店區"
"231018","107-UY","2017/08/05 13:49:02","新北市新店區中正路382巷36號","121.535668333333","24.978155","6500600","新店區"
"231012","108-UY","2017/08/05 13:48:55","新北市新店區德正街25巷6號","121.544598333333","24.97177","6500600","新店區"
"231020","187-VK","2017/08/05 13:49:01","新北市新店區湖子內路22號","121.542325","24.9308","6500600","新店區"
"231026","256-BX","2017/08/05 13:49:09","新北市新店區平等街1號","121.537038333333","24.9742966666667","6500600","新店區"
"231034","268-BY","2017/08/05 13:48:51","新北市新店區達觀路16號","121.5028","24.9412183333333","6500600","新店區"
"231010","278-BY","2017/08/05 13:48:58","新北市新店區三民路60巷20號","121.535845","24.9730316666667","6500600","新店區"
"231017","AAD-862","2017/08/05 13:48:49","新北市新店區竹林路63-1號","121.55292","24.9511383333333","6500600","新店區"
"231001","355-BY","2017/08/05 13:49:09","新北市新店區三民路56號","121.53529","24.9720366666667","6500600","新店區"
"231027","3712-VJ","2017/08/05 13:49:01","新北市新店區北宜路一段105巷12號","121.54027","24.95572","6500600","新店區"
"231024","3713-VJ","2017/08/05 13:48:59","新北市新店區新生街10巷12號","121.54066","24.9664483333333","6500600","新店區"
"231038","4715-K9","2017/08/05 13:49:11","新北市新店區安康路一段323-1號","121.521775","24.9634366666667","6500600","新店區"
"231036","512-UM","2017/08/05 13:49:00","新北市新店區安祥路110巷8號","121.474643333333","24.9567966666667","6500600","新店區"
"231023","513-UM","2017/08/05 13:49:00","新北市新店區國校路55號","121.538148333333","24.95447","6500600","新店區"
"231035","515-UM","2017/08/05 13:48:54","新北市新店區安忠路57巷5-1號","121.513503333333","24.9591633333333","6500600","新店區"
"231006","617-UM","2017/08/05 13:49:01","新北市新店區北宜路一段260號","121.545763333333","24.9527766666667","6500600","新店區"
"231003","641-BX","2017/08/05 13:48:59","新北市新店區中興路一段152號","121.542566666667","24.963845","6500600","新店區"
"231039","718-UY","2017/08/05 13:48:57","新北市新店區建國路40號","121.540531666667","24.9748266666667","6500600","新店區"
"231013","719-UM","2017/08/05 13:48:50","新北市新店區二十張路25巷18弄16號","121.539233333333","24.9816","6500600","新店區"
"231033","720-UM","2017/08/05 13:48:57","新北市新店區莒光路44巷21弄11-6號","121.518708333333","24.9521766666667","6500600","新店區"
"231005","897-TW","2017/08/05 13:48:55","新北市新店區寶中路120號","121.550018333333","24.9787966666667","6500600","新店區"
"231004","899-TW","2017/08/05 13:49:08","新北市新店區寶橋路75號","121.545675","24.9750416666667","6500600","新店區"
"231037","AKT-0513","2017/08/05 13:49:02","新北市新店區安康路三段355巷45號","121.485023333333","24.9493466666667","6500600","新店區"
"235030","003-UY","2017/08/05 13:49:01","新北市中和區水源路18巷2弄2號","121.504065","25.0032716666667","6500300","中和區"
"235028","005-UY","2017/08/05 13:48:52","新北市中和區連城路109巷35號","121.49694","24.998475","6500300","中和區"
"235027","006-UY","2017/08/05 13:49:09","新北市中和區連城路319巷11弄12號","121.489678333333","24.99491","6500300","中和區"
"235020","096-UM","2017/08/05 13:48:55","新北市中和區中正路1196號","121.480433333333","25.0103366666667","6500300","中和區"
"235003","097-UM","2017/08/05 13:49:07","新北市中和區大勇街25巷36號","121.515968333333","24.9936766666667","6500300","中和區"
"235029","098-UM","2017/08/05 13:49:08","新北市中和區中山路二段2巷27號","121.503118333333","25.006905","6500300","中和區"
"235004","150-BY","2017/08/05 13:49:03","新北市中和區安平路59號","121.509523333333","24.9950833333333","6500300","中和區"
"235022","151-BY","2017/08/05 13:49:02","新北市中和區連城路508號","121.47665","24.9924","6500300","中和區"
"235019","183-VK","2017/08/05 13:49:08","新北市中和區民德路25巷18號","121.469631666667","25.0029666666667","6500300","中和區"
"235002","185-VK","2017/08/05 13:48:54","新北市中和區立人街14巷47號","121.519051666667","24.9955683333333","6500300","中和區"
"235013","186-VK","2017/08/05 13:49:03","新北市中和區景平路510-4號","121.50405","24.9942466666667","6500300","中和區"
"235031","255-BX","2017/08/05 13:48:55","新北市中和區新生街220巷1弄13號","121.483316666667","24.998","6500300","中和區"
"235008","293-VK","2017/08/05 13:49:10","新北市中和區復興路280巷3弄1號","121.502318333333","24.9908233333333","6500300","中和區"
"235036","301-VK","2017/08/05 13:49:02","新北市中和區中山路二段56號","121.50413","25.0048033333333","6500300","中和區"
"235007","352-BY","2017/08/05 13:48:50","新北市中和區成功路139號","121.525856666667","24.9902033333333","6500300","中和區"
"235032","377-QA","2017/08/05 13:49:00","新北市中和區中正路167巷16號","121.498356666667","24.9927383333333","6500300","中和區"
"235025","378-QA","2017/08/05 13:49:02","新北市中和區民享街54巷16弄2號","121.473235","25.0025666666667","6500300","中和區"
"235014","4979-A6","2017/08/05 13:49:01","新北市中和區忠孝街58巷16弄8號","121.511918333333","24.9830266666667","6500300","中和區"
"235033","4980-A6","2017/08/05 13:47:13","新北市中和區南山路109號","121.502138333333","24.99751","6500300","中和區"
"235006","551-UM","2017/08/05 13:48:59","新北市中和區秀朗路三段135巷7弄4號","121.525426666667","24.9918916666667","6500300","中和區"
"235034","558-UM","2017/08/05 13:48:59","新北市中和區南華路52號","121.5043","24.996815","6500300","中和區"
"235009","565-BX","2017/08/05 13:48:58","新北市中和區南山路208巷1弄1號","121.50611","24.9902716666667","6500300","中和區"
"235018","640-BX","2017/08/05 13:49:09","新北市中和區民享街45號","121.474025","25.0028633333333","6500300","中和區"
"235024","647-TV","2017/08/05 13:49:03","新北市中和區中山路三段20號","121.479348333333","25.0060633333333","6500300","中和區"
"235011","732-UM","2017/08/05 13:48:58","新北市中和區興南路二段34巷57弄2號","121.504933333333","24.9857316666667","6500300","中和區"
"235010","733-UM","2017/08/05 13:48:56","新北市中和區忠孝街101巷3號","121.51172","24.9861116666667","6500300","中和區"
"235035","783-BX","2017/08/05 13:48:57","新北市中和區板南路448-1號","121.48961","25.0052883333333","6500300","中和區"
"235026","800-TS","2017/08/05 13:49:08","新北市中和區景平路705號","121.496325","25.0035466666667","6500300","中和區"
"235021","801-TS","2017/08/05 13:48:55","新北市中和區員山路327巷62號","121.480046666667","25.0019683333333","6500300","中和區"
"235005","802-TS","2017/08/05 13:49:05","新北市中和區永貞路264號","121.51372","25.00369","6500300","中和區"
"235016","805-TS","2017/08/05 13:49:04","新北市中和區興南路二段399巷100號","121.500915","24.97734","6500300","中和區"
"235012","896-TW","2017/08/05 13:49:03","新北市中和區南山路397號","121.506706666667","24.9900983333333","6500300","中和區"
"235017","900-TW","2017/08/05 13:49:02","新北市中和區華福街2-3號","121.465215","24.9969483333333","6500300","中和區"
"235001","AAC-213","2017/08/05 13:49:00","新北市中和區景德街66號","121.517035","24.99151","6500300","中和區"
"235023","AAC-215","2017/08/05 13:49:11","新北市中和區圓通路290-4號","121.490336666667","24.98929","6500300","中和區"
"220068","013-TV","2017/08/05 13:49:01","新北市板橋區民生路二段48號","121.472196666667","25.0176283333333","6500100","板橋區"
"220034","073-UY","2017/08/05 13:48:54","新北市板橋區大智街71巷3弄1號","121.453503333333","25.0153066666667","6500100","板橋區"
"220105","075-UY","2017/08/05 13:49:05","新北市板橋區民生路二段120號","121.470535","25.0198916666667","6500100","板橋區"
"220017","AAD-861","2017/08/05 13:49:05","新北市板橋區民生路二段56號","121.472168333333","25.01776","6500100","板橋區"
"220045","120-SR","2017/08/05 13:48:50","新北市板橋區民生路二段161巷3號","121.470251666667","25.0197916666667","6500100","板橋區"
"247005","341-TH","2017/08/05 13:49:11","新北市蘆洲區中山二路256號","121.469266666667","25.0789883333333","6501400","蘆洲區"
"247001","336-TH","2017/08/05 13:49:02","新北市五股區凌雲路一段36號","121.451938333333","25.1006833333333","6501400","蘆洲區"
"247013","057-VK","2017/08/05 13:49:09","新北市蘆洲區中正路107號","121.469658333333","25.0842283333333","6501400","蘆洲區"
"247003","056-VK","2017/08/05 13:48:50","新北市蘆洲區長安街108巷5弄14號","121.461105","25.082345","6501400","蘆洲區"
"247021","002-UY","2017/08/05 13:48:59","新北市蘆洲區中正路263巷2號","121.467316666667","25.08741","6501400","蘆洲區"
"247015","001-UY","2017/08/05 13:49:03","新北市蘆洲區中正路100號","121.46977","25.0842433333333","6501400","蘆洲區"
"228005","097-TW","2017/08/05 13:49:00","新北市貢寮區美豐里土地公嶺10號","121.889748333333","25.0574916666667","6502600","貢寮區"
"228004","212-TW","2017/08/05 13:48:33","新北市貢寮區龍崗里嵩陽街12號","121.903525","25.0116533333333","6502600","貢寮區"
"228002","585-TW","2017/08/05 12:56:40","新北市貢寮區福隆里興隆街24-1號","121.943703333333","25.017475","6502600","貢寮區"
"208004","AAC-292","2017/08/05 13:48:59","新北市金山區名流路2號","121.596168333333","25.2029683333333","6502700","金山區"
"207002","749-BX","2017/08/05 13:49:06","新北市萬里區崁腳里崁腳路173號","121.645721666667","25.1545833333333","6502800","萬里區"
"252005","249-BX","2017/08/05 13:49:08","新北市三芝區圓山里木屐寮38-2號","121.531073333333","25.2281016666667","6502100","三芝區"
"207001","662-BX","2017/08/05 13:48:50","新北市萬里區磺潭里磺溪10號","121.629671666667","25.2028916666667","6502800","萬里區"
"236068","105-UM","2017/08/05 13:49:04","新北市土城區城林路6巷80號","121.438338333333","24.97973","6501300","土城區"
"236041","107-UM","2017/08/05 13:48:48","新北市土城區明德路二段219號","121.44608","24.9838216666667","6501300","土城區"
"236075","166-UM","2017/08/05 13:49:00","新北市土城區中央路二段282號","121.440658333333","24.973945","6501300","土城區"
"236029","253-BX","2017/08/05 13:48:52","新北市土城區城林路6巷80號","121.438393333333","24.979775","6501300","土城區"
"236025","269-VK","2017/08/05 13:48:55","新北市土城區承天路10-2號","121.437365","24.9647916666667","6501300","土城區"
"236013","270-VK","2017/08/05 13:49:07","新北市土城區城林路6巷80號","121.438525","24.9797466666667","6501300","土城區"
"236035","271-VK","2017/08/05 13:49:00","新北市土城區城林路6巷80號","121.438386666667","24.9798283333333","6501300","土城區"
"236017","401-BY","2017/08/05 13:48:52","新北市土城區城林路6巷80號","121.438675","24.979735","6501300","土城區"
"236006","498-BY","2017/08/05 13:48:55","新北市土城區中央路一段75號","121.447596666667","24.989555","6501300","土城區"
"236061","752-BX","2017/08/05 13:49:07","新北市土城區城林路6巷80號","121.438378333333","24.9797633333333","6501300","土城區"
"236057","912-UM","2017/08/05 13:48:58","新北市土城區城林路6巷80號","121.438436666667","24.9796883333333","6501300","土城區"
"236045","913-UM","2017/08/05 13:48:51","新北市土城區城林路6巷80號","121.438408333333","24.9798166666667","6501300","土城區"
"236054","AAC-216","2017/08/05 13:49:02","新北市土城區城林路6巷80號","121.43839","24.9798","6501300","土城區"
"242044","172-VK","2017/08/05 13:44:43","新北市新莊區利濟街18號","121.45321","25.0333133333333","6500500","新莊區"
"221032","280-BY","2017/08/05 13:49:05","新北市汐止區林森街73巷53號","121.624486666667","25.0420316666667","6501100","汐止區"
"221002","753-BX","2017/08/05 13:49:07","新北市汐止區大同路二段9-1號","121.64654","25.0626233333333","6501100","汐止區"
"220028","200-UY","2017/08/05 13:48:56","新北市板橋區大觀路二段265巷66弄16號","121.441911666667","24.9971066666667","6500100","板橋區"
"220030","610-BX","2017/08/05 13:49:03","新北市板橋區篤行路三段3號","121.429408333333","24.9876516666667","6500100","板橋區"
"220003","255-TC","2017/08/04 21:46:58","新北市板橋區介壽街119號","121.470508333333","25.0185516666667","6500100","板橋區"
"220051","257-TC","2017/08/05 13:49:01","新北市板橋區民生路二段161巷5號","121.470296666667","25.019735","6500100","板橋區"
"220043","267-BY","2017/08/05 13:49:05","新北市板橋區民生路二段161巷1號","121.470155","25.019995","6500100","板橋區"
"220004","276-BY","2017/08/05 13:49:07","新北市板橋區信義路16號","121.456971666667","24.9959783333333","6500100","板橋區"
"220020","277-BY","2017/08/05 13:48:58","新北市板橋區金門街27號","121.433611666667","24.9942933333333","6500100","板橋區"
"220050","285-UM","2017/08/05 13:49:02","新北市板橋區民生路二段161巷1號","121.470078333333","25.0200716666667","6500100","板橋區"
"220001","285-VK","2017/08/05 13:48:50","新北市板橋區民生路二段62號","121.472076666667","25.0179316666667","6500100","板橋區"
"220031","286-VK","2017/08/05 13:49:09","新北市板橋區大觀路二段22巷25號","121.445341666667","25.0035233333333","6500100","板橋區"
"220029","287-VK","2017/08/05 13:49:05","新北市板橋區南雅西路二段90號","121.452563333333","25.0111716666667","6500100","板橋區"
"220039","288-VK","2017/08/05 13:48:57","新北市板橋區民生路二段120號","121.470565","25.02003","6500100","板橋區"
"220009","293-UM","2017/08/05 13:49:10","新北市板橋區民生路二段62號","121.472016666667","25.0179066666667","6500100","板橋區"
"220013","295-UM","2017/08/05 13:49:03","新北市板橋區民生路二段56-1號","121.472145","25.0169833333333","6500100","板橋區"
"220032","296-UM","2017/08/05 13:49:09","新北市板橋區大觀路二段148巷84號","121.441746666667","25.0012066666667","6500100","板橋區"
"220023","297-UM","2017/08/05 13:48:53","新北市板橋區大觀路一段26號","121.449951666667","25.0086883333333","6500100","板橋區"
"220047","299-UM","2017/08/05 13:49:02","新北市板橋區民生路二段120號","121.470441666667","25.019625","6500100","板橋區"
"220010","303-R5","2017/08/05 13:48:57","新北市板橋區中山路二段23號","121.472365","25.0152433333333","6500100","板橋區"
"220012","486-VK","2017/08/04 21:26:28","新北市板橋區民生路二段89-9號","121.471733333333","25.0170266666667","6500100","板橋區"
"220038","487-VK","2017/08/05 13:48:58","新北市板橋區民生路二段120號","121.470781666667","25.019495","6500100","板橋區"
"220037","491-VK","2017/08/05 13:49:05","新北市板橋區民生路二段120號","121.470345","25.0198816666667","6500100","板橋區"
"220104","560-BX","2017/08/05 13:49:07","新北市板橋區中正路325巷30-2號","121.452951666667","25.0187466666667","6500100","板橋區"
"220052","561-BX","2017/08/05 13:49:02","新北市板橋區民生路二段120號","121.47061","25.01942","6500100","板橋區"
"220019","568-UM","2017/08/05 13:49:01","新北市板橋區觀光街2-2號","121.472325","25.01543","6500100","板橋區"
"220011","609-BX","2017/08/05 13:24:52","新北市板橋區民生路一段25號","121.475106666667","25.0116266666667","6500100","板橋區"
"220040","637-BX","2017/08/05 13:49:03","新北市板橋區民生路二段161巷1號","121.470168333333","25.0201383333333","6500100","板橋區"
"220005","686-BX","2017/08/05 13:48:54","新北市板橋區民生路二段56-1號","121.47231","25.016975","6500100","板橋區"
"220025","687-BX","2017/08/05 13:48:51","新北市板橋區金門街117-3號","121.433033333333","24.9918366666667","6500100","板橋區"
"220002","741-BX","2017/08/05 13:48:50","新北市板橋區民生路二段48號","121.472186666667","25.0177116666667","6500100","板橋區"
"220014","829-TW","2017/08/05 13:49:06","新北市板橋區民生路二段15-1號","121.472988333333","25.0158283333333","6500100","板橋區"
"220022","895-R6","2017/08/05 13:49:04","新北市板橋區南門街1號","121.457921666667","25.00948","6500100","板橋區"
"220021","985-R7","2017/08/05 13:49:10","新北市板橋區館前西路119號","121.456655","25.0073683333333","6500100","板橋區"
"220046","AAC-210","2017/08/05 13:48:58","新北市板橋區民生路二段120號","121.470486666667","25.019905","6500100","板橋區"
"220018","AAC-253","2017/08/05 13:49:02","新北市板橋區民生路二段1號","121.472886666667","25.01574","6500100","板橋區"
