"lineid","car","time","location","longitude","latitude","cityid","cityname"
"234028","746-BX","2017/08/05 14:59:05","新北市八里區中山路三段409號","121.368373333333","25.134955","6500400","永和區"
"234025","9371-KE","2017/08/05 14:58:59","新北市永和區水源街33巷3號","121.510861666667","25.0042866666667","6500400","永和區"
"248017","225-UY","2017/08/05 14:58:22","新北市五股區登林路112-1號","121.42612","25.0704366666667","6501500","五股區"
"231002","002-UM","2017/08/05 14:58:55","新北市新店區中正路501-2號","121.53367","24.9837316666667","6500600","新店區"
"231025","0291-UT","2017/08/05 14:58:59","新北市新店區二十張路33巷10號","121.538593333333","24.9809616666667","6500600","新店區"
"231028","046-UY","2017/08/05 14:58:56","新北市新店區安豐路49號","121.500018333333","24.9549","6500600","新店區"
"231030","047-UY","2017/08/05 14:59:10","新北市新店區安民街341-1號","121.516876666667","24.9748783333333","6500600","新店區"
"231029","106-UY","2017/08/05 14:59:00","新北市新店區錦秀路47號","121.47921","24.9435533333333","6500600","新店區"
"231018","107-UY","2017/08/05 14:59:02","新北市新店區中央六街7號","121.530298333333","24.974595","6500600","新店區"
"231012","108-UY","2017/08/05 14:58:55","新北市新店區中興路三段205巷7弄1號","121.54321","24.9815166666667","6500600","新店區"
"231020","187-VK","2017/08/05 14:59:01","新北市新店區永福路54-2號","121.558105","24.9287383333333","6500600","新店區"
"231026","256-BX","2017/08/05 14:58:58","新北市新店區中正路140號","121.541863333333","24.9714533333333","6500600","新店區"
"231034","268-BY","2017/08/05 14:58:51","新北市新店區玫瑰路4-1號","121.493608333333","24.9514033333333","6500600","新店區"
"231017","AAD-862","2017/08/05 14:58:49","新北市新店區銀河路68-1號","121.580258333333","24.9585833333333","6500600","新店區"
"231001","355-BY","2017/08/05 14:59:09","新北市新店區中正路276號","121.538831666667","24.9736766666667","6500600","新店區"
"231024","3713-VJ","2017/08/05 14:58:59","新北市新店區中華路83巷21號","121.53866","24.96805","6500600","新店區"
"231036","512-UM","2017/08/05 14:58:59","新北市新店區安祥路102巷42弄35號","121.485308333333","24.96347","6500600","新店區"
"231023","513-UM","2017/08/05 14:59:00","新北市新店區檳榔路109號","121.54448","24.96164","6500600","新店區"
"231035","515-UM","2017/08/05 14:58:58","新北市新店區永安街74巷13號","121.519455","24.9860433333333","6500600","新店區"
"231006","617-UM","2017/08/05 14:59:01","新北市新店區五峰路145巷7號","121.546231666667","24.964805","6500600","新店區"
"231003","641-BX","2017/08/05 14:58:59","新北市新店區中興路二段233號","121.547658333333","24.9750233333333","6500600","新店區"
"231039","718-UY","2017/08/05 14:58:54","新北市新店區寶安街30號","121.541988333333","24.9823366666667","6500600","新店區"
"231033","720-UM","2017/08/05 14:58:57","新北市新店區安泰路60巷54號","121.483606666667","24.9463683333333","6500600","新店區"
"231005","897-TW","2017/08/05 14:58:55","新北市新店區寶慶街66號","121.541998333333","24.9867416666667","6500600","新店區"
"231004","899-TW","2017/08/05 14:59:08","新北市新店區民族路26號","121.540683333333","24.97878","6500600","新店區"
"231037","AKT-0513","2017/08/05 14:59:02","新北市新店區安民街337號","121.517181666667","24.9748633333333","6500600","新店區"
"235030","003-UY","2017/08/05 14:59:01","新北市中和區中山路二段47號","121.504335","25.004935","6500300","中和區"
"235020","096-UM","2017/08/05 14:58:55","新北市中和區中山路三段142號","121.473841666667","25.0063283333333","6500300","中和區"
"235003","097-UM","2017/08/05 14:59:07","新北市中和區安樂路139號","121.514468333333","24.9968533333333","6500300","中和區"
"235029","098-UM","2017/08/05 14:59:08","新北市中和區橋和路318號","121.49731","25.0071383333333","6500300","中和區"
"235004","150-BY","2017/08/05 14:59:03","新北市中和區保健路16號","121.508203333333","24.9979566666667","6500300","中和區"
"235022","151-BY","2017/08/05 14:59:02","新北市中和區員山路148巷19號","121.482066666667","24.99718","6500300","中和區"
"235019","183-VK","2017/08/05 14:59:08","新北市中和區德光路74號","121.469243333333","25.003715","6500300","中和區"
"235002","185-VK","2017/08/05 14:58:54","新北市中和區更生街9號","121.521791666667","24.9962966666667","6500300","中和區"
"235013","186-VK","2017/08/05 14:59:03","新北市中和區中興街17號","121.501213333333","24.9949933333333","6500300","中和區"
"235031","255-BX","2017/08/05 14:58:55","新北市中和區中正路751巷3弄14號","121.48428","24.999295","6500300","中和區"
"235008","293-VK","2017/08/05 14:58:51","新北市中和區南山路421巷1弄39號","121.507005","24.9903816666667","6500300","中和區"
"235036","301-VK","2017/08/05 14:59:02","新北市中和區安邦街10號","121.495631666667","24.99812","6500300","中和區"
"235007","352-BY","2017/08/05 14:59:00","新北市中和區興南路二段159巷1-1號","121.505093333333","24.9835133333333","6500300","中和區"
"235032","377-QA","2017/08/05 14:59:00","新北市中和區景平路737號","121.496281666667","25.004365","6500300","中和區"
"235014","4979-A6","2017/08/05 14:59:01","新北市中和區安樂路56號","121.512173333333","24.99306","6500300","中和區"
"235033","4980-A6","2017/08/05 14:58:56","新北市中和區景新街34巷6號","121.503076666667","24.9991233333333","6500300","中和區"
"235034","558-UM","2017/08/05 14:58:59","新北市中和區連勝街34號","121.498136666667","24.99775","6500300","中和區"
"235018","640-BX","2017/08/05 14:59:09","新北市中和區莒光路175-4號","121.472745","24.99935","6500300","中和區"
"235024","647-TV","2017/08/05 14:59:03","新北市中和區新生街46號","121.483183333333","25.0032633333333","6500300","中和區"
"235010","733-UM","2017/08/05 14:58:56","新北市中和區興南路一段93巷12弄5號","121.510003333333","24.9873466666667","6500300","中和區"
"235026","800-TS","2017/08/05 14:59:03","新北市中和區中山路二段389號","121.486831666667","25.0048366666667","6500300","中和區"
"235016","805-TS","2017/08/05 14:59:04","新北市中和區華新街50巷5弄30號","121.50743","24.9832966666667","6500300","中和區"
"235012","896-TW","2017/08/05 14:59:03","新北市中和區忠孝街5巷15號","121.50928","24.9832033333333","6500300","中和區"
"235017","900-TW","2017/08/05 14:59:02","新北市中和區國光街189巷16號","121.467665","25.0010583333333","6500300","中和區"
"235001","AAC-213","2017/08/05 14:59:00","新北市中和區自立路52號","121.523181666667","24.992125","6500300","中和區"
"235023","AAC-215","2017/08/05 14:58:51","新北市中和區圓通路365號","121.49132","24.9897633333333","6500300","中和區"
"220068","013-TV","2017/08/05 14:59:01","新北市板橋區中山路二段370號","121.48186","25.02028","6500100","板橋區"
"220034","073-UY","2017/08/05 14:58:52","新北市板橋區南雅西路二段7巷25號","121.451901666667","25.00947","6500100","板橋區"
"220105","075-UY","2017/08/05 14:59:05","新北市板橋區民治街71巷1弄3號","121.480061666667","25.03285","6500100","板橋區"
"220017","AAD-861","2017/08/05 14:59:05","新北市板橋區貴興路88-1號","121.45586","25.0032283333333","6500100","板橋區"
"220045","120-SR","2017/08/05 14:58:50","新北市板橋區莒光路15巷16號","121.470281666667","25.02548","6500100","板橋區"
"247007","339-TH","2017/08/05 14:59:11","新北市五股區中興路三段163號","121.44914","25.0807033333333","6501400","蘆洲區"
"228004","212-TW","2017/08/05 14:58:53","新北市貢寮區雙玉里田寮洋街23號","121.927893333333","25.0194083333333","6502600","貢寮區"
"228002","585-TW","2017/08/05 14:59:03","新北市貢寮區福隆里興隆街38號","121.943353333333","25.0175083333333","6502600","貢寮區"
"208004","AAC-292","2017/08/05 14:58:51","新北市金山區三界壇路37號","121.62738","25.2280033333333","6502700","金山區"
"207002","749-BX","2017/08/05 14:59:06","新北市萬里區崁腳里崁腳路39號","121.651315","25.1609483333333","6502800","萬里區"
"252005","249-BX","2017/08/05 14:59:08","新北市三芝區埔坪里埔頭坑83號","121.509753333333","25.25406","6502100","三芝區"
"207001","662-BX","2017/08/05 14:58:50","新北市萬里區雙興里麗水路2號","121.653523333333","25.1798","6502800","萬里區"
"236068","105-UM","2017/08/05 14:59:03","新北市土城區明德路二段112號","121.444985","24.9841683333333","6501300","土城區"
"236041","107-UM","2017/08/05 14:59:08","新北市土城區學府路一段256巷2弄2號","121.451218333333","24.9847366666667","6501300","土城區"
"236075","166-UM","2017/08/05 14:58:52","新北市土城區中央路四段53號","121.419915","24.95815","6501300","土城區"
"236029","253-BX","2017/08/05 14:58:52","新北市土城區中央路二段308號","121.44041","24.97333","6501300","土城區"
"236025","269-VK","2017/08/05 14:58:55","新北市土城區中正路74巷1弄2號","121.444708333333","24.9750416666667","6501300","土城區"
"236013","270-VK","2017/08/05 14:59:07","新北市土城區永豐路21號","121.462835","24.9881483333333","6501300","土城區"
"236035","271-VK","2017/08/05 14:58:59","新北市土城區仁愛路13巷2號","121.460485","24.98065","6501300","土城區"
"236017","401-BY","2017/08/05 14:58:59","新北市土城區德峰街41巷15號","121.467596666667","24.9863633333333","6501300","土城區"
"236061","752-BX","2017/08/05 14:59:07","新北市土城區延和路91號","121.46707","24.9900466666667","6501300","土城區"
"236057","912-UM","2017/08/05 14:58:58","新北市土城區金城路二段8-1號","121.448963333333","24.9771083333333","6501300","土城區"
"236045","913-UM","2017/08/05 14:58:51","新北市土城區青雲路318號","121.458928333333","24.9772266666667","6501300","土城區"
"236054","AAC-216","2017/08/05 14:59:09","新北市土城區學成路124號","121.449366666667","24.9895433333333","6501300","土城區"
"221002","707-TV","2017/08/05 14:58:58","新北市汐止區新興路84巷1號","121.657963333333","25.0613883333333","6501100","汐止區"
"220028","200-UY","2017/08/05 14:58:56","新北市板橋區大觀路二段169巷18號","121.446128333333","24.9998083333333","6500100","板橋區"
"220030","610-BX","2017/08/05 14:59:03","新北市板橋區溪北路101號","121.428955","24.9891966666667","6500100","板橋區"
"220003","255-TC","2017/08/04 21:46:58","新北市板橋區介壽街119號","121.470508333333","25.0185516666667","6500100","板橋區"
"220051","257-TC","2017/08/05 14:59:01","新北市板橋區文聖街42號","121.476408333333","25.03135","6500100","板橋區"
"220043","267-BY","2017/08/05 14:59:05","新北市板橋區文德路39號","121.462026666667","25.02403","6500100","板橋區"
"220020","277-BY","2017/08/05 14:58:58","新北市板橋區篤行路二段77巷9弄10-3號","121.432498333333","24.99214","6500100","板橋區"
"220050","285-UM","2017/08/05 14:59:01","新北市板橋區莒光路200巷25號","121.473048333333","25.0219983333333","6500100","板橋區"
"220001","285-VK","2017/08/05 14:58:50","新北市板橋區永豐街145號","121.475083333333","25.020075","6500100","板橋區"
"220031","286-VK","2017/08/05 14:58:52","新北市板橋區僑中二街10巷1號","121.446791666667","25.010925","6500100","板橋區"
"220029","287-VK","2017/08/05 14:59:05","新北市板橋區僑中一街102巷7弄1號","121.44674","25.0128383333333","6500100","板橋區"
"220039","288-VK","2017/08/05 14:58:57","新北市板橋區新海路107號","121.461191666667","25.022705","6500100","板橋區"
"220009","293-UM","2017/08/05 14:58:50","新北市板橋區民生路二段101號","121.471365","25.0177916666667","6500100","板橋區"
"220013","295-UM","2017/08/05 14:58:58","新北市板橋區海山路39號","121.467318333333","25.0097433333333","6500100","板橋區"
"220032","296-UM","2017/08/05 14:59:08","新北市板橋區溪崑二街112巷34號","121.425728333333","24.9893283333333","6500100","板橋區"
"220023","297-UM","2017/08/05 14:58:53","新北市板橋區金華街10巷97號","121.458745","25.02056","6500100","板橋區"
"220047","299-UM","2017/08/05 14:59:02","新北市板橋區新海路72巷21號","121.46234","25.02246","6500100","板橋區"
"220010","303-R5","2017/08/05 14:58:57","新北市板橋區中山路二段559號","121.484085","25.0218416666667","6500100","板橋區"
"220041","307-R5","2017/08/05 14:59:01","新北市板橋區裕民街128巷3號","121.458793333333","25.0277833333333","6500100","板橋區"
"220012","486-VK","2017/08/05 14:59:06","新北市板橋區區運路82號","121.466945","25.0104216666667","6500100","板橋區"
"220038","487-VK","2017/08/05 14:58:58","新北市板橋區龍泉街108巷1號","121.456651666667","25.0245333333333","6500100","板橋區"
"220037","491-VK","2017/08/05 14:59:05","新北市板橋區懷德街127巷2號","121.478998333333","25.0307066666667","6500100","板橋區"
"220052","561-BX","2017/08/05 14:59:02","新北市板橋區自由路43號","121.465588333333","25.023305","6500100","板橋區"
"220019","568-UM","2017/08/05 14:59:01","新北市板橋區和平路174巷17-2號","121.46444","24.994725","6500100","板橋區"
"220011","609-BX","2017/08/05 14:58:52","新北市板橋區三民路一段210號","121.479016666667","25.019565","6500100","板橋區"
"220040","637-BX","2017/08/05 14:59:03","新北市板橋區懷德街174巷12號","121.478926666667","25.0295766666667","6500100","板橋區"
"220005","686-BX","2017/08/05 14:59:09","新北市板橋區四川路二段99-1號","121.452541666667","24.9947416666667","6500100","板橋區"
"220025","687-BX","2017/08/05 14:59:10","新北市板橋區僑中一街124巷70-5號","121.44866","25.0163533333333","6500100","板橋區"
"220002","741-BX","2017/08/05 14:59:09","新北市板橋區實踐路93巷50號","121.465886666667","25.0050966666667","6500100","板橋區"
"220014","829-TW","2017/08/05 14:59:06","新北市板橋區中山路一段291-2號","121.470381666667","25.0140683333333","6500100","板橋區"
"220022","895-R6","2017/08/05 14:59:04","新北市板橋區明德街12號","121.459986666667","25.0104983333333","6500100","板橋區"
"220046","AAC-210","2017/08/05 14:58:59","新北市板橋區光正街25號","121.462325","25.017135","6500100","板橋區"
"220018","AAC-253","2017/08/05 14:59:01","新北市板橋區館前東路128號","121.463945","25.00782","6500100","板橋區"
