"lineid","car","time","location","longitude","latitude","cityid","cityname"
"231002","002-UM","2017/08/05 15:28:55","新北市新店區環河路114巷2號","121.536763333333","24.9643633333333","6500600","新店區"
"231025","0291-UT","2017/08/05 15:28:59","新北市新店區中央路151號","121.529406666667","24.9719766666667","6500600","新店區"
"231028","046-UY","2017/08/05 15:28:56","新北市新店區僑信路76號","121.499548333333","24.9485833333333","6500600","新店區"
"231030","047-UY","2017/08/05 15:28:50","新北市新店區新和街37號","121.519261666667","24.984975","6500600","新店區"
"231029","106-UY","2017/08/05 15:29:00","新北市新店區安康路三段642號","121.476691666667","24.9445216666667","6500600","新店區"
"231018","107-UY","2017/08/05 15:29:02","新北市新店區中央八街126號","121.525133333333","24.978275","6500600","新店區"
"231012","108-UY","2017/08/05 15:28:55","新北市新店區寶元路一段78號","121.544306666667","24.9840116666667","6500600","新店區"
"231020","187-VK","2017/08/05 15:29:01","新北市新店區梅崗三路1號","121.557665","24.9311583333333","6500600","新店區"
"231026","256-BX","2017/08/05 15:28:58","新北市新店區中央路167-2號","121.53395","24.9709733333333","6500600","新店區"
"231034","268-BY","2017/08/05 15:29:02","新北市新店區如意街22號","121.494185","24.9485066666667","6500600","新店區"
"231024","3713-VJ","2017/08/05 15:28:59","新北市新店區柴埕路38-8號","121.51335","24.9650916666667","6500600","新店區"
"231036","512-UM","2017/08/05 15:28:59","新北市新店區安祥路69巷54弄43號","121.482793333333","24.9587683333333","6500600","新店區"
"231023","513-UM","2017/08/05 15:29:00","新北市新店區北新路一段96巷23號","121.54283","24.9687316666667","6500600","新店區"
"231035","515-UM","2017/08/05 15:28:54","新北市新店區安民街365巷7弄2號","121.516015","24.97523","6500600","新店區"
"231003","641-BX","2017/08/05 15:28:59","新北市新店區寶高路116號","121.55446","24.9760916666667","6500600","新店區"
"231039","718-UY","2017/08/05 15:28:53","新北市新店區寶元路一段85巷6弄2號","121.543143333333","24.9857083333333","6500600","新店區"
"231033","720-UM","2017/08/05 15:28:57","新北市新店區雙城路36號","121.49201","24.9501883333333","6500600","新店區"
"231005","897-TW","2017/08/05 15:28:58","新北市新店區建國路297號","121.537088333333","24.9861383333333","6500600","新店區"
"231004","899-TW","2017/08/05 15:29:08","新北市新店區民族路162號","121.537508333333","24.9765833333333","6500600","新店區"
"231037","AKT-0513","2017/08/05 15:29:02","新北市新店區安興路112號","121.514646666667","24.9776516666667","6500600","新店區"
"241015","062-VK","2017/08/05 15:28:59","新北市三重區重新路四段121號","121.48523","25.0520316666667","6500200","三重區"
"241017","063-VK","2017/08/05 15:29:10","新北市三重區重新路四段121號","121.484951666667","25.0519483333333","6500200","三重區"
"241016","266-UM","2017/08/05 15:28:56","新北市三重區重新路四段121號","121.48523","25.052065","6500200","三重區"
"241013","270-UM","2017/08/05 15:28:50","新北市三重區重新路四段121號","121.484638333333","25.052355","6500200","三重區"
"241014","543-UM","2017/08/05 15:29:10","新北市三重區成功路173號","121.48542","25.0523583333333","6500200","三重區"
"235033","4980-A6","2017/08/05 15:28:53","新北市中和區中正路748號","121.48562","24.9985483333333","6500300","中和區"
"235034","558-UM","2017/08/05 15:28:59","新北市中和區中正路368號","121.493111666667","24.9942116666667","6500300","中和區"
"235026","800-TS","2017/08/05 15:29:03","新北市中和區永和路171巷3弄2號","121.492466666667","25.0065683333333","6500300","中和區"
"235012","896-TW","2017/08/05 15:29:03","新北市中和區四維街37巷2號","121.512358333333","24.98674","6500300","中和區"
"235023","AAC-215","2017/08/05 15:28:51","新北市中和區員山路30-11號","121.484351666667","24.9874183333333","6500300","中和區"
"220017","AAD-861","2017/08/05 15:29:05","新北市板橋區大明街25巷2弄23號","121.457471666667","25.0026133333333","6500100","板橋區"
"247007","339-TH","2017/08/05 15:21:36","新北市五股區中興路三段163號","121.449203333333","25.080655","6501400","蘆洲區"
"228002","585-TW","2017/08/05 15:28:59","新北市貢寮區真理里延平街119號","121.92479","25.0572533333333","6502600","貢寮區"
"252005","249-BX","2017/08/05 15:28:48","新北市三芝區淡金路二段103號","121.504388333333","25.261245","6502100","三芝區"
"236068","105-UM","2017/08/05 15:29:03","新北市土城區中正路75號","121.444751666667","24.9756183333333","6501300","土城區"
"236041","107-UM","2017/08/05 15:29:08","新北市土城區學府路一段143巷2號","121.453666666667","24.98595","6501300","土城區"
"236075","166-UM","2017/08/05 15:28:52","新北市土城區龍泉路32號","121.411346666667","24.9470616666667","6501300","土城區"
"236029","253-BX","2017/08/05 15:28:52","新北市土城區中央路一段242巷5號","121.444151666667","24.9850033333333","6501300","土城區"
"236025","269-VK","2017/08/05 15:28:55","新北市土城區明德路二段102巷5號","121.445466666667","24.9844383333333","6501300","土城區"
"236013","270-VK","2017/08/05 15:29:07","新北市土城區廣明街26號","121.455656666667","24.9925766666667","6501300","土城區"
"236035","271-VK","2017/08/05 15:28:59","新北市土城區延吉街296巷16號","121.464395","24.9847666666667","6501300","土城區"
"236017","401-BY","2017/08/05 15:28:52","新北市土城區金城路三段200-5號","121.468833333333","24.987735","6501300","土城區"
"236061","752-BX","2017/08/05 15:29:07","新北市土城區延和路116號","121.46748","24.9897983333333","6501300","土城區"
"236057","912-UM","2017/08/05 15:28:58","新北市土城區中央路二段308號","121.440493333333","24.97325","6501300","土城區"
"236045","913-UM","2017/08/05 15:28:51","新北市土城區青雲路165號","121.459238333333","24.98335","6501300","土城區"
"236054","AAC-216","2017/08/05 15:29:02","新北市土城區學府路一段12號","121.459406666667","24.9884966666667","6501300","土城區"
"220050","285-UM","2017/08/05 15:29:01","新北市板橋區漢生東路83巷1號","121.46647","25.0159716666667","6500100","板橋區"
"220031","286-VK","2017/08/05 15:29:02","新北市板橋區僑中二街108巷28號","121.444618333333","25.0075133333333","6500100","板橋區"
"220041","307-R5","2017/08/05 15:29:01","新北市五股區五工一路105號","121.457615","25.0698683333333","6500100","板橋區"
"220038","487-VK","2017/08/05 15:29:08","新北市板橋區互助街1巷1號","121.463308333333","25.0277183333333","6500100","板橋區"
"220052","561-BX","2017/08/05 15:29:02","新北市板橋區漢生東路43巷7號","121.46606","25.0172466666667","6500100","板橋區"
"220014","829-TW","2017/08/05 15:29:06","新北市林口區太平里180號","121.366736666667","25.1341316666667","6500100","板橋區"
"220018","AAC-253","2017/08/05 15:29:03","新北市板橋區四川路二段243號","121.450401666667","24.9936666666667","6500100","板橋區"
