"lineid","car","time","location","longitude","latitude","cityid","cityname"
"249005","172-UM","2017/08/05 16:49:01","新北市八里區大堀湖2-3號","121.42246","25.1537933333333","6502300","八里區"
"249001","173-UM","2017/08/05 16:48:53","新北市八里區挖子尾街6號","121.415473333333","25.1642683333333","6502300","八里區"
"249004","303-UY","2017/08/05 16:49:02","新北市八里區博物館路195號","121.405343333333","25.1566233333333","6502300","八里區"
"249002","305-UY","2017/08/05 16:49:03","新北市八里區牛寮埔31號","121.429878333333","25.14573","6502300","八里區"
"249003","593-UM","2017/08/05 16:48:50","新北市八里區博物館路111號","121.408745","25.1592166666667","6502300","八里區"
"248018","225-UY","2017/08/05 15:30:38","新北市五股區中興路二段83巷26-6號","121.460075","25.0751266666667","6501500","五股區"
"244007","080-UY","2017/08/05 16:49:03","新北市林口區竹林路326巷50號","121.392948333333","25.0809533333333","6501700","林口區"
"244019","403-UM","2017/08/05 16:48:27","新北市林口區粉寮69號","121.405111666667","25.0908266666667","6501700","林口區"
"231046","278-BY","2017/08/05 16:49:03","新北市新店區灣潭路29-3號","121.540035","24.9386933333333","6500600","新店區"
"241011","013-R5","2017/08/05 16:49:05","新北市三重區仁愛街53巷137號","121.49943","25.0726333333333","6500200","三重區"
"241028","022-UY","2017/08/05 16:49:02","新北市三重區光興街12號","121.497808333333","25.0599583333333","6500200","三重區"
"241008","059-VK","2017/08/05 16:48:54","新北市三重區永安北路一段17巷22-7號","121.477333333333","25.0751283333333","6500200","三重區"
"241005","060-VK","2017/08/05 16:49:05","新北市三重區仁華街80巷25號","121.484561666667","25.0838583333333","6500200","三重區"
"241031","061-VK","2017/08/05 16:49:01","新北市三重區過圳街46號","121.48738","25.060835","6500200","三重區"
"241015","062-VK","2017/08/05 16:48:59","新北市三重區文化北路47號","121.49891","25.0654833333333","6500200","三重區"
"241017","063-VK","2017/08/05 16:48:50","新北市三重區國隆路2巷43號","121.492393333333","25.0631933333333","6500200","三重區"
"241024","065-VK","2017/08/05 16:48:55","新北市三重區中正北路331巷22號","121.473791666667","25.07233","6500200","三重區"
"241026","066-VK","2017/08/05 16:48:56","新北市三重區文化南路10巷12號","121.500628333333","25.0622316666667","6500200","三重區"
"241002","090-VK","2017/08/05 16:48:58","新北市三重區仁義街170號","121.496996666667","25.081205","6500200","三重區"
"241003","091-VK","2017/08/05 16:49:04","新北市三重區五華街87巷32號","121.492918333333","25.0840283333333","6500200","三重區"
"241032","156-TC","2017/08/05 16:49:00","新北市三重區重陽路一段120巷26號","121.485571666667","25.0601133333333","6500200","三重區"
"241009","265-UM","2017/08/05 16:49:04","新北市三重區三和路四段203巷268號","121.487558333333","25.0810833333333","6500200","三重區"
"241016","266-UM","2017/08/05 16:48:56","新北市三重區大同北路115巷23號","121.493768333333","25.06486","6500200","三重區"
"241022","267-UM","2017/08/05 16:48:56","新北市三重區三民街114號","121.484786666667","25.0634733333333","6500200","三重區"
"241018","268-UM","2017/08/05 16:49:02","新北市三重區正義北路302巷38號","121.494246666667","25.0693466666667","6500200","三重區"
"241013","270-UM","2017/08/05 16:48:50","新北市三重區仁壽街24號","121.496915","25.07346","6500200","三重區"
"241025","271-UM","2017/08/05 16:49:07","新北市三重區中正北路518號","121.471998333333","25.0716016666667","6500200","三重區"
"241007","398-BY","2017/08/05 16:48:59","新北市三重區三和路四段181巷72號","121.484185","25.0795616666667","6500200","三重區"
"241020","412-TH","2017/08/05 16:48:49","新北市三重區忠孝路二段31號","121.485983333333","25.0710466666667","6500200","三重區"
"241004","475-VK","2017/08/05 16:48:51","新北市三重區仁愛街403號","121.491006666667","25.0809166666667","6500200","三重區"
"241019","478-VK","2017/08/05 16:48:55","新北市三重區忠孝路二段38巷18號","121.485693333333","25.0700633333333","6500200","三重區"
"241030","480-VK","2017/08/05 16:49:00","新北市三重區新興路4號","121.49269","25.0526816666667","6500200","三重區"
"241014","543-UM","2017/08/05 16:48:50","新北市三重區長壽街120巷23號","121.502428333333","25.0692933333333","6500200","三重區"
"241023","545-UM","2017/08/05 16:48:59","新北市三重區中華路76巷27號","121.4825","25.06257","6500200","三重區"
"241001","547-UM","2017/08/05 16:48:54","新北市三重區仁政街61號","121.492835","25.0773516666667","6500200","三重區"
"241006","AAD-863","2017/08/05 16:48:56","新北市三重區力行路二段184號","121.483333333333","25.0773366666667","6500200","三重區"
"241012","941-UM","2017/08/05 16:48:51","新北市三重區三和路三段101巷168號","121.499451666667","25.0740383333333","6500200","三重區"
"241029","942-UM","2017/08/05 16:48:54","新北市三重區集美街211號","121.491781666667","25.0544766666667","6500200","三重區"
"241033","AAC-255","2017/08/05 16:49:10","新北市三重區新北大道二段252號","121.466773333333","25.06162","6500200","三重區"
"235067","255-BX","2017/08/05 16:16:26","新北市中和區員山路36巷13號","121.484335","24.9913633333333","6500300","中和區"
"247007","339-TH","2017/08/05 16:49:05","新北市蘆洲區中山二路45巷30號","121.474261666667","25.0812566666667","6501400","蘆洲區"
"247002","336-TH","2017/08/05 16:48:50","新北市五股區成泰路三段358號","121.451018333333","25.09765","6501400","蘆洲區"
"247014","057-VK","2017/08/05 16:49:02","新北市蘆洲區民族路86-2號","121.474683333333","25.0846383333333","6501400","蘆洲區"
"247004","056-VK","2017/08/05 16:48:59","新北市蘆洲區長榮路106號","121.461785","25.08407","6501400","蘆洲區"
"247022","002-UY","2017/08/05 16:49:01","新北市蘆洲區仁愛街226-1號","121.466908333333","25.0935433333333","6501400","蘆洲區"
"247016","001-UY","2017/08/05 16:48:59","新北市蘆洲區正和街3號","121.470431666667","25.0828733333333","6501400","蘆洲區"
"228001","212-TW","2017/08/05 16:48:57","新北市貢寮區貢寮里朝陽街1-2號","121.91219","25.02126","6502600","貢寮區"
"228002","663-BX","2017/08/05 16:48:55","新北市貢寮區貢寮里朝陽街142號","121.9051","25.023435","6502600","貢寮區"
"224008","275-VK","2017/08/05 16:49:03","新北市瑞芳區民權街3-1號","121.809218333333","25.1084333333333","6501200","瑞芳區"
"224007","273-VK","2017/08/05 16:49:05","新北市瑞芳區中央路48巷48號","121.760865","25.103165","6501200","瑞芳區"
"224005","271-BY","2017/08/05 16:48:52","新北市瑞芳區明里路122號","121.8638","25.1221716666667","6501200","瑞芳區"
"227002","642-TC","2017/08/05 16:48:55","新北市雙溪區外柑里外柑腳71號","121.807116666667","25.0176033333333","6502500","雙溪區"
"227010","282-VK","2017/08/05 16:48:55","新北市雙溪區牡丹里五分10號","121.866555","25.0470983333333","6502500","雙溪區"
"251014","180-VK","2017/08/05 16:49:02","新北市淡水區淡金路三段318號","121.449093333333","25.2081416666667","6501000","淡水區"
"251008","181-VK","2017/08/05 16:48:54","新北市淡水區樹梅坑9號","121.472738333333","25.14268","6501000","淡水區"
"251010","413-VK","2017/08/05 16:49:03","新北市淡水區中正路二段31號","121.41934","25.1817283333333","6501000","淡水區"
"251016","442-VK","2017/08/05 16:48:50","新北市淡水區水頭42號","121.47815","25.1851","6501000","淡水區"
"251007","577-R6","2017/08/05 16:49:06","新北市淡水區中正路二段2號","121.420728333333","25.180205","6501000","淡水區"
"252002","178-VK","2017/08/05 16:49:05","新北市三芝區埔坪里埔頭坑78號","121.508845","25.2542633333333","6502100","三芝區"
"252001","702-TV","2017/08/05 16:49:10","新北市三芝區埔坪里埔頭坑52號","121.507815","25.2652366666667","6502100","三芝區"
"242031","415-TV","2017/08/05 16:48:51","新北市新莊區新泰路357巷3弄57號","121.44191","25.0391933333333","6500500","新莊區"
"242061","362-BY","2017/08/05 16:49:00","新北市新莊區三和路12-21號","121.44211","25.0387733333333","6500500","新莊區"
"242044","172-VK","2017/08/05 14:48:53","新北市新莊區三和路18-25號","121.441748333333","25.0392033333333","6500500","新莊區"
"242013","175-VK","2017/08/05 16:48:54","新北市新莊區三和路18-21號","121.441153333333","25.0387716666667","6500500","新莊區"
"239008","527-UM","2017/08/05 16:48:49","新北市鶯歌區環河路177-23號","121.345108333333","24.9355716666667","6500800","鶯歌區"
"239005","526-UM","2017/08/05 16:48:55","新北市鶯歌區二甲路13-16號","121.345126666667","24.9354716666667","6500800","鶯歌區"
"239001","417-VK","2017/08/05 16:49:07","新北市鶯歌區二甲路12-2號","121.3456","24.9349616666667","6500800","鶯歌區"
"239003","360-BY","2017/08/05 16:48:56","新北市鶯歌區二甲路12-2號","121.345543333333","24.9351533333333","6500800","鶯歌區"
"239002","359-BY","2017/08/05 11:28:41","新北市鶯歌區二甲路13號","121.344161666667","24.9352766666667","6500800","鶯歌區"
"221002","753-BX","2017/08/05 16:01:13","新北市汐止區汐萬路一段256巷1號","121.651931666667","25.0747316666667","6501100","汐止區"
