"lineid","car","time","location","longitude","latitude","cityid","cityname"
"234007","207-UY","2017/08/05 18:29:05","新北市永和區環河西路二段229巷1號","121.501396666667","25.0099983333333","6500400","永和區"
"234081","298-R6","2017/08/05 18:29:04","新北市永和區國中路2號","121.524311666667","25.004255","6500400","永和區"
"234086","338-UY","2017/08/05 18:29:08","新北市永和區福和路1號","121.526655","25.0097466666667","6500400","永和區"
"234026","9371-KE","2017/08/05 18:28:54","新北市永和區中正路649號","121.515153333333","25.010175","6500400","永和區"
"234011","9373-KE","2017/08/05 18:29:06","新北市永和區文化路113巷19號","121.513086666667","25.0140616666667","6500400","永和區"
"249005","172-UM","2017/08/05 17:07:55","新北市八里區華富山5-5號","121.417273333333","25.1446383333333","6502300","八里區"
"249001","173-UM","2017/08/05 18:28:53","新北市八里區龍米路一段142號","121.452853333333","25.125605","6502300","八里區"
"249004","303-UY","2017/08/05 18:29:02","新北市八里區觀海大道33號","121.429631666667","25.160465","6502300","八里區"
"249002","305-UY","2017/08/05 18:29:03","新北市八里區龍形三街26號","121.447988333333","25.1316116666667","6502300","八里區"
"248014","025-BX","2017/08/05 18:29:05","新北市五股區明德路7巷14號","121.434753333333","25.070865","6501500","五股區"
"248016","026-BX","2017/08/05 18:29:04","新北市五股區凌雲路一段83巷7弄2號","121.449861666667","25.1007233333333","6501500","五股區"
"248006","077-UY","2017/08/05 18:29:08","新北市五股區四維路44號","121.467305","25.071965","6501500","五股區"
"248018","225-UY","2017/08/05 18:29:04","新北市五股區孝義路55巷1號","121.453556666667","25.11206","6501500","五股區"
"248012","247-BX","2017/08/05 18:29:00","新北市五股區御成路126號","121.441478333333","25.0939016666667","6501500","五股區"
"248010","272-BY","2017/08/05 18:29:03","新北市五股區明德路8號","121.433361666667","25.071695","6501500","五股區"
"248004","677-BX","2017/08/05 18:28:49","新北市五股區工商路84-1號","121.437963333333","25.0850983333333","6501500","五股區"
"248002","678-BX","2017/08/05 18:29:06","新北市五股區西雲路142號","121.445728333333","25.0942266666667","6501500","五股區"
"232011","375-UM","2017/08/05 18:22:18","新北市坪林區坪雙路一段43號","121.711726666667","24.9424483333333","6502000","坪林區"
"244013","069-UM","2017/08/05 18:28:57","新北市林口區中山路299號","121.384161666667","25.0802416666667","6501700","林口區"
"244007","080-UY","2017/08/05 18:29:03","新北市林口區湖子16號","121.38528","25.0901883333333","6501700","林口區"
"244019","403-UM","2017/08/05 18:29:07","新北市林口區文化一路一段100巷11號","121.374078333333","25.0708866666667","6501700","林口區"
"244009","410-SL","2017/08/05 18:29:08","新北市林口區文林二街30號","121.376381666667","25.08813","6501700","林口區"
"244023","483-VK","2017/08/05 18:29:04","新北市林口區佳林路217號","121.38404","25.0766616666667","6501700","林口區"
"244011","701-TV","2017/08/05 18:28:57","新北市林口區中山路73號","121.392863333333","25.0784833333333","6501700","林口區"
"244025","837-TS","2017/08/05 18:29:05","新北市林口區南勢四街331號","121.356678333333","25.0749833333333","6501700","林口區"
"244021","838-TS","2017/08/05 18:28:53","新北市林口區自強六街12號","121.399795","25.07664","6501700","林口區"
"243013","AAD-798","2017/08/05 18:29:06","新北市泰山區明志路三段206巷3號","121.423288333333","25.0378866666667","6501600","泰山區"
"243012","646-TV","2017/08/05 18:29:03","新北市泰山區忠孝街12號","121.42779","25.06475","6501600","泰山區"
"222003","436-BY","2017/08/05 18:28:49","新北市深坑區旺耽路39巷12號","121.627716666667","25.0038333333333","6501800","深坑區"
"222002","659-BX","2017/08/05 18:29:09","新北市深坑區雲鄉路137號","121.622443333333","24.998115","6501800","深坑區"
"222001","696-SL","2017/08/05 18:29:04","新北市深坑區北深路一段199號","121.630385","25.0089633333333","6501800","深坑區"
"231041","001-UM","2017/08/05 18:29:09","新北市新店區安華路28-1號","121.519693333333","24.9609","6500600","新店區"
"231056","0291-UT","2017/08/05 18:28:51","新北市新店區中正路416號","121.534406666667","24.9779016666667","6500600","新店區"
"231059","046-UY","2017/08/05 18:29:04","新北市新店區安華路28-1號","121.51965","24.9607633333333","6500600","新店區"
"231061","047-UY","2017/08/05 18:29:07","新北市新店區安華路28-1號","121.519311666667","24.9609866666667","6500600","新店區"
"231060","106-UY","2017/08/05 18:28:49","新北市新店區安華路28-1號","121.519591666667","24.9606583333333","6500600","新店區"
"231051","107-UY","2017/08/05 18:28:56","新北市新店區安康路一段355-3號","121.51939","24.9615516666667","6500600","新店區"
"231048","108-UY","2017/08/05 18:29:06","新北市新店區安華路28-1號","121.51947","24.9612316666667","6500600","新店區"
"231052","187-VK","2017/08/05 18:28:58","新北市新店區北宜路一段248號","121.545218333333","24.952925","6500600","新店區"
"231057","256-BX","2017/08/05 18:29:01","新北市新店區光明街115號","121.538843333333","24.9615483333333","6500600","新店區"
"231063","268-BY","2017/08/05 18:29:04","新北市新店區安華路28-1號","121.51948","24.96055","6500600","新店區"
"231046","278-BY","2017/08/05 18:29:03","新北市新店區直潭七街60號","121.532236666667","24.93984","6500600","新店區"
"231050","AAD-862","2017/08/05 18:28:50","新北市新店區安華路28-1號","121.519998333333","24.9611266666667","6500600","新店區"
"231040","355-BY","2017/08/05 18:28:58","新北市新店區安華路28-1號","121.519215","24.9609233333333","6500600","新店區"
"231058","3712-VJ","2017/08/05 18:28:54","新北市新店區北宜路一段28號","121.53818","24.956985","6500600","新店區"
"231055","3713-VJ","2017/08/05 18:29:02","新北市新店區北新路二段29巷1弄5號","121.542166666667","24.97227","6500600","新店區"
"231067","4772-VM","2017/08/05 18:28:54","新北市新店區安華路28-1號","121.519275","24.9606","6500600","新店區"
"231065","512-UM","2017/08/05 18:28:58","新北市新店區安華路28-1號","121.519511666667","24.9614166666667","6500600","新店區"
"231054","513-UM","2017/08/05 18:28:47","新北市新店區安華路28-1號","121.519781666667","24.961135","6500600","新店區"
"231042","641-BX","2017/08/05 18:28:59","新北市新店區安康路一段227號","121.525605","24.9630533333333","6500600","新店區"
"231049","719-UM","2017/08/05 18:28:50","新北市新店區安華路28-1號","121.51949","24.9612133333333","6500600","新店區"
"231062","720-UM","2017/08/05 18:29:02","新北市新店區安華路28-1號","121.519333333333","24.9612516666667","6500600","新店區"
"231044","897-TW","2017/08/05 18:28:57","新北市新店區安華路28-1號","121.519678333333","24.9608383333333","6500600","新店區"
"231043","899-TW","2017/08/05 18:28:58","新北市新店區安華路28-1號","121.519291666667","24.9608666666667","6500600","新店區"
"231066","AKT-0513","2017/08/05 18:28:49","新北市新店區安華路1-1號","121.519656666667","24.9604033333333","6500600","新店區"
"235066","003-UY","2017/08/05 18:29:05","新北市中和區中山路二段117號","121.502966666667","25.0037716666667","6500300","中和區"
"235064","005-UY","2017/08/05 18:29:01","新北市中和區圓通路145巷9弄3號","121.498603333333","24.9946233333333","6500300","中和區"
"235063","006-UY","2017/08/05 18:28:48","新北市中和區連城路347巷16弄8-3號","121.487991666667","24.9950716666667","6500300","中和區"
"235056","096-UM","2017/08/05 18:29:07","新北市中和區員山路611巷1號","121.47789","25.0112","6500300","中和區"
"235039","097-UM","2017/08/05 18:28:59","新北市中和區宜安路60號","121.51163","24.996985","6500300","中和區"
"235065","098-UM","2017/08/05 18:29:06","新北市中和區莊敬路49巷18號","121.501686666667","25.0061383333333","6500300","中和區"
"235040","150-BY","2017/08/05 18:28:49","新北市中和區安平路38號","121.509801666667","24.994955","6500300","中和區"
"235058","151-BY","2017/08/05 18:28:58","新北市中和區圓通路369巷30弄66號","121.488748333333","24.98493","6500300","中和區"
"235055","183-VK","2017/08/05 18:28:57","新北市土城區延壽路111巷2-1號","121.469143333333","24.9937383333333","6500300","中和區"
"235038","185-VK","2017/08/05 18:29:01","新北市中和區秀朗路三段128巷9弄1號","121.524525","24.9932566666667","6500300","中和區"
"235049","186-VK","2017/08/05 18:28:59","新北市中和區景安路142號","121.505028333333","24.994045","6500300","中和區"
"235067","255-BX","2017/08/05 18:28:54","新北市中和區連城路469巷68號","121.483456666667","24.9940716666667","6500300","中和區"
"235072","301-VK","2017/08/05 18:29:00","新北市中和區連城路237-1號","121.493853333333","24.99744","6500300","中和區"
"235043","352-BY","2017/08/05 18:28:47","新北市中和區景平路313號","121.506333333333","24.9932333333333","6500300","中和區"
"235068","377-QA","2017/08/05 18:29:00","新北市中和區圓通路293-1號","121.495005","24.99267","6500300","中和區"
"235061","378-QA","2017/08/05 18:28:59","新北市中和區莒光路175-2號","121.47268","24.9996116666667","6500300","中和區"
"235050","4979-A6","2017/08/05 18:29:02","新北市中和區景新街362巷3號","121.512045","24.9901183333333","6500300","中和區"
"235069","4980-A6","2017/08/05 18:28:51","新北市中和區連城路99巷73號","121.497445","24.99833","6500300","中和區"
"235042","551-UM","2017/08/05 18:28:59","新北市中和區景平路64巷15號","121.522221666667","24.991345","6500300","中和區"
"235045","565-BX","2017/08/05 18:28:47","新北市中和區復興路22號","121.505245","24.9899683333333","6500300","中和區"
"235054","640-BX","2017/08/05 18:29:06","新北市中和區民享街121巷2號","121.474408333333","24.99864","6500300","中和區"
"235060","647-TV","2017/08/05 18:28:57","新北市中和區民安街22巷21號","121.47957","25.0012916666667","6500300","中和區"
"235047","732-UM","2017/08/05 18:29:08","新北市中和區南山路312號","121.507866666667","24.986875","6500300","中和區"
"235046","733-UM","2017/08/05 18:29:01","新北市中和區中正路545巷1號","121.487405","24.9935066666667","6500300","中和區"
"235062","800-TS","2017/08/05 18:28:50","新北市中和區景平路999巷1號","121.495508333333","25.0061066666667","6500300","中和區"
"235057","801-TS","2017/08/05 18:28:57","新北市中和區民安街133號","121.476261666667","24.9998466666667","6500300","中和區"
"235052","805-TS","2017/08/05 18:28:47","新北市中和區興南路二段96號","121.505203333333","24.9841916666667","6500300","中和區"
"235048","896-TW","2017/08/05 18:29:03","新北市中和區中正路83號","121.500643333333","24.9934483333333","6500300","中和區"
"235053","900-TW","2017/08/05 18:28:59","新北市中和區民享街457號","121.470378333333","24.9931566666667","6500300","中和區"
"235037","AAC-213","2017/08/05 18:28:50","新北市中和區景德街79號","121.516503333333","24.9913833333333","6500300","中和區"
"235059","AAC-215","2017/08/05 18:29:01","新北市中和區員山路36巷16-3號","121.48509","24.99132","6500300","中和區"
"220068","013-TV","2017/08/05 18:28:53","新北市板橋區民生路二段36-1號","121.472588333333","25.01653","6500100","板橋區"
"220086","073-UY","2017/08/05 18:29:00","新北市板橋區南雅南路二段120-1號","121.452321666667","24.9997016666667","6500100","板橋區"
"226004","312-R5","2017/08/05 18:28:45","新北市平溪區靜安路二段292號","121.730753333333","25.0224666666667","6502400","平溪區"
"228003","097-TW","2017/08/05 18:29:06","新北市貢寮區和美里和美街32-7號","121.912798333333","25.0848116666667","6502600","貢寮區"
"228001","212-TW","2017/08/05 18:28:57","新北市貢寮區仁理村仁義街4號","121.923663333333","25.0520633333333","6502600","貢寮區"
"228002","663-BX","2017/08/05 18:28:55","新北市貢寮區福連里福連街1號","121.988311666667","25.0175816666667","6502600","貢寮區"
"224006","676-BX","2017/08/05 18:29:06","新北市瑞芳區逢甲路76-1號","121.810406666667","25.1083033333333","6501200","瑞芳區"
"224002","639-TC","2017/08/05 18:29:00","新北市瑞芳區三爪子坑路29巷57號","121.81383","25.106475","6501200","瑞芳區"
"224009","285-BY","2017/08/05 18:28:56","新北市瑞芳區祈堂路184號","121.857613333333","25.1094916666667","6501200","瑞芳區"
"224008","275-VK","2017/08/05 18:29:03","新北市瑞芳區逢甲路204號","121.806871666667","25.11013","6501200","瑞芳區"
"224007","273-VK","2017/08/05 18:29:05","新北市瑞芳區大埔路吉慶公園城33號","121.764461666667","25.0996083333333","6501200","瑞芳區"
"224005","271-BY","2017/08/05 18:28:52","新北市瑞芳區建基新村33號","121.812183333333","25.1303266666667","6501200","瑞芳區"
"227002","642-TC","2017/08/05 18:28:50","新北市雙溪區魚行里坤溪22號","121.870338333333","25.02894","6502500","雙溪區"
"227010","400-TW","2017/08/05 18:29:03","新北市雙溪區牡丹里牡丹133號","121.850983333333","25.0590966666667","6502500","雙溪區"
"253006","032-BX","2017/08/05 18:29:04","新北市石門區公地47號","121.545381666667","25.290035","6502200","石門區"
"253005","295-VK","2017/08/05 18:29:08","新北市石門區海園路37號","121.556246666667","25.2913616666667","6502200","石門區"
"253001","4710-YM","2017/08/05 18:28:52","新北市石門區老崩山4號","121.552816666667","25.2913366666667","6502200","石門區"
"208002","742-BX","2017/08/05 18:28:51","新北市金山區磺港里磺港路169號","121.643588333333","25.224525","6502700","金山區"
"208003","665-BX","2017/08/05 18:29:03","新北市金山區中山路106號","121.63985","25.2192433333333","6502700","金山區"
"208001","761-BX","2017/08/05 18:29:04","新北市金山區文化二路4號","121.636851666667","25.224585","6502700","金山區"
"251004","009-UM","2017/08/05 18:28:54","新北市淡水區民族路31-17號","121.461721666667","25.1365683333333","6501000","淡水區"
"251005","010-UM","2017/08/05 18:28:49","新北市淡水區博愛街47-1號","121.446736666667","25.1690383333333","6501000","淡水區"
"251002","012-UM","2017/08/05 18:29:04","新北市淡水區竿蓁二街19巷5號","121.453145","25.16335","6501000","淡水區"
"251014","180-VK","2017/08/05 18:29:02","新北市淡水區南平20-1號","121.494125","25.2177533333333","6501000","淡水區"
"251008","181-VK","2017/08/05 18:28:54","新北市淡水區北投子87-3號","121.469311666667","25.179265","6501000","淡水區"
"251010","413-VK","2017/08/05 18:29:03","新北市淡水區沙崙路181巷1號","121.424065","25.1841833333333","6501000","淡水區"
"251012","441-VK","2017/08/05 18:29:06","新北市淡水區北新路一段169-1號","121.459116666667","25.1822433333333","6501000","淡水區"
"251016","442-VK","2017/08/05 18:28:50","新北市淡水區下圭柔山114-5號","121.446378333333","25.2110433333333","6501000","淡水區"
"251001","559-UM","2017/08/05 18:28:56","新北市淡水區自強路120號","121.46409","25.1329083333333","6501000","淡水區"
"251006","561-UM","2017/08/05 18:28:56","新北市淡水區中山北路一段230號","121.44479","25.1810966666667","6501000","淡水區"
"251011","650-BX","2017/08/05 18:28:55","新北市淡水區中正東路一段125號","121.455135","25.1595833333333","6501000","淡水區"
"251003","673-BX","2017/08/05 18:28:58","新北市淡水區北投子1-1號","121.447298333333","25.1806483333333","6501000","淡水區"
"207003","550-UM","2017/08/05 18:29:08","新北市萬里區野柳里港東路73號","121.68816","25.2049333333333","6502800","萬里區"
"207004","225-TW","2017/08/05 18:29:06","新北市萬里區萬里里瑪鋉頂街40號","121.689133333333","25.1785783333333","6502800","萬里區"
"252002","178-VK","2017/08/05 18:29:05","新北市三芝區中山路二段39號","121.502935","25.25512","6502100","三芝區"
"252003","249-BX","2017/08/05 18:28:49","新北市三芝區後厝里北勢子41-5號","121.472566666667","25.253085","6502100","三芝區"
"252001","702-TV","2017/08/05 18:28:50","新北市三芝區中興街二段2號","121.498346666667","25.256715","6502100","三芝區"
"237004","078-UY","2017/08/05 18:28:49","新北市三峽區五寮69號","121.359845","24.8592233333333","6500900","三峽區"
"237007","153-BY","2017/08/05 18:29:06","新北市三峽區中正路三段148號","121.353228333333","24.9036083333333","6500900","三峽區"
"237009","210-TH","2017/08/05 18:28:59","新北市三峽區大同路257號","121.366638333333","24.9259183333333","6500900","三峽區"
"237013","252-BX","2017/08/05 18:28:57","新北市三峽區光明路69巷25號","121.376713333333","24.9292666666667","6500900","三峽區"
"237012","275-BY","2017/08/05 18:28:53","新北市三峽區三樹路112號","121.378311666667","24.9392533333333","6500900","三峽區"
"237008","302-VK","2017/08/05 18:28:51","新北市三峽區白雞68-159號","121.390281666667","24.90872","6500900","三峽區"
"237014","433-BY","2017/08/05 18:28:53","新北市三峽區文化路90號","121.371646666667","24.9361616666667","6500900","三峽區"
"237006","5529-G3","2017/08/05 18:28:56","新北市三峽區溪東路473巷76號","121.415548333333","24.9293866666667","6500900","三峽區"
"237011","572-TV","2017/08/05 18:09:32","新北市三峽區溪北街2號","121.396008333333","24.9362266666667","6500900","三峽區"
"237016","649-BX","2017/08/05 18:28:48","新北市三峽區竹崙路157號","121.43667","24.9057716666667","6500900","三峽區"
"237010","706-TV","2017/08/05 18:29:10","新北市三峽區復興路449號","121.362565","24.9384816666667","6500900","三峽區"
"237005","AKY-6261","2017/08/05 18:28:56","新北市三峽區民族街5巷56號","121.369733333333","24.9320233333333","6500900","三峽區"
"236073","105-UM","2017/08/05 18:29:08","新北市土城區永豐路255巷27弄47號","121.477091666667","24.97356","6501300","土城區"
"236043","107-UM","2017/08/05 18:29:02","新北市土城區裕民路67巷13號","121.449871666667","24.9882733333333","6501300","土城區"
"236079","166-UM","2017/08/05 18:29:00","新北市土城區中央路四段27巷10弄2號","121.424748333333","24.96184","6501300","土城區"
"236031","253-BX","2017/08/05 18:29:05","新北市土城區水源街81巷1弄1號","121.439543333333","24.9762383333333","6501300","土城區"
"236027","269-VK","2017/08/05 18:29:06","新北市土城區南天母路137-10號","121.448528333333","24.953945","6501300","土城區"
"236015","270-VK","2017/08/05 18:28:57","新北市土城區青雲路39巷7號","121.460358333333","24.9875366666667","6501300","土城區"
"236038","271-VK","2017/08/05 18:29:00","新北市土城區青雲路483巷1號","121.459395","24.973815","6501300","土城區"
"236023","401-BY","2017/08/05 18:29:08","新北市土城區永豐路202巷7-2號","121.466191666667","24.9831833333333","6501300","土城區"
"236063","752-BX","2017/08/05 18:28:53","新北市土城區延壽路111巷18號","121.468588333333","24.993695","6501300","土城區"
"236059","912-UM","2017/08/05 18:29:04","新北市土城區中央路四段464號","121.409936666667","24.9505566666667","6501300","土城區"
"236049","913-UM","2017/08/05 18:28:58","新北市土城區青雲路368號","121.4587","24.9738","6501300","土城區"
"236055","AAC-216","2017/08/05 18:28:53","新北市土城區中華路二段6號","121.439453333333","24.9789116666667","6501300","土城區"
"242029","986-R7","2017/08/05 18:28:57","新北市泰山區磚雅厝3號","121.441998333333","25.0417383333333","6500500","新莊區"
"242046","441-UM","2017/08/05 18:28:47","新北市新莊區中正路803巷43號","121.422096666667","25.027715","6500500","新莊區"
"242002","413-TV","2017/08/05 18:29:08","新北市新莊區新泰路357巷3弄51號","121.44199","25.03986","6500500","新莊區"
"242061","362-BY","2017/08/05 18:29:00","新北市新莊區民安路186號","121.425398333333","25.0236583333333","6500500","新莊區"
"242058","353-BY","2017/08/05 18:29:05","新北市新莊區中正路891-44號","121.413903333333","25.0229133333333","6500500","新莊區"
"242042","132-UY","2017/08/05 18:29:04","新北市新莊區天祥街92巷3-1號","121.415435","25.0300133333333","6500500","新莊區"
"242044","172-VK","2017/08/05 18:28:47","新北市新莊區中正路700-26號","121.417765","25.0264933333333","6500500","新莊區"
"242055","176-VK","2017/08/05 18:28:53","新北市新莊區中環路一段16號","121.442681666667","25.02631","6500500","新莊區"
"242053","349-TH","2017/08/05 18:28:43","新北市新莊區新樹路607號","121.43321","25.00546","6500500","新莊區"
"242015","350-TH","2017/08/05 18:29:05","新北市新莊區中平路184巷10弄7號","121.445511666667","25.0483733333333","6500500","新莊區"
"242009","351-TH","2017/08/05 18:28:55","新北市新莊區環漢路三段1號","121.443201666667","25.0240916666667","6500500","新莊區"
"238015","755-BX","2017/08/05 18:28:54","新北市樹林區啟智街187巷2號","121.415126666667","24.9871883333333","6500700","樹林區"
"238023","601-UM","2017/08/05 18:28:54","新北市樹林區三福街67巷9號","121.407845","25.0158583333333","6500700","樹林區"
"238018","571-TV","2017/08/05 18:28:50","新北市樹林區保安街一段16巷30號","121.428541666667","24.9942633333333","6500700","樹林區"
"238024","5061-A6","2017/08/05 18:29:06","新北市樹林區育英街2巷66號","121.42384","24.990955","6500700","樹林區"
"238021","311-TH","2017/08/05 18:28:30","新北市樹林區柑園街二段175號","121.380678333333","24.953185","6500700","樹林區"
"238025","303-VK","2017/08/05 18:29:04","新北市樹林區大安路576號","121.411796666667","24.9837466666667","6500700","樹林區"
"238017","283-BY","2017/08/05 18:28:50","新北市樹林區光榮街18-1號","121.412445","25.003965","6500700","樹林區"
"238014","282-BY","2017/08/05 18:28:50","新北市樹林區大安路111巷25號","121.423215","24.997705","6500700","樹林區"
"238020","268-VK","2017/08/05 18:29:00","新北市樹林區三龍街28號","121.412138333333","25.0182283333333","6500700","樹林區"
"238026","172-UY","2017/08/05 18:29:04","新北市樹林區佳園路一段80巷5弄31號","121.393238333333","24.9687466666667","6500700","樹林區"
"238016","169-UY","2017/08/05 18:28:57","新北市樹林區文化街23號","121.419256666667","24.98764","6500700","樹林區"
"239007","AAC-297","2017/08/05 18:28:58","新北市鶯歌區中正一路建德巷38號","121.364461666667","24.957845","6500800","鶯歌區"
"239006","891-R6","2017/08/05 18:29:05","新北市鶯歌區鶯桃路296巷46-1號","121.335761666667","24.9613516666667","6500800","鶯歌區"
"239008","527-UM","2017/08/05 18:28:49","新北市鶯歌區國際一路179號","121.336218333333","24.9765316666667","6500800","鶯歌區"
"239005","526-UM","2017/08/05 18:28:55","新北市鶯歌區鳳吉一街170號","121.328976666667","24.97554","6500800","鶯歌區"
"239001","417-VK","2017/08/05 18:28:47","新北市鶯歌區國中街197號","121.338215","24.9391766666667","6500800","鶯歌區"
"239003","360-BY","2017/08/05 18:28:56","新北市鶯歌區福安街58號","121.335586666667","24.9652583333333","6500800","鶯歌區"
"239002","359-BY","2017/08/05 18:29:06","新北市鶯歌區中山路288號","121.343991666667","24.956995","6500800","鶯歌區"
"239004","193-VK","2017/08/05 18:28:53","新北市鶯歌區尖山路302巷18號","121.341715","24.94331","6500800","鶯歌區"
"221008","489-VK","2017/08/05 18:29:01","新北市汐止區康寧街901號","121.651376666667","25.0749966666667","6501100","汐止區"
"221036","130-UY","2017/08/05 18:28:58","新北市汐止區大同路三段67號","121.667378333333","25.077065","6501100","汐止區"
"221015","131-UY","2017/08/05 18:28:53","新北市汐止區鄉友街35號","121.668843333333","25.08137","6501100","汐止區"
"221010","269-BY","2017/08/05 18:28:56","新北市汐止區汐萬路三段246號","121.642233333333","25.0972433333333","6501100","汐止區"
"221012","278-VK","2017/08/05 18:27:50","新北市汐止區保長路53號","121.673721666667","25.0788366666667","6501100","汐止區"
"221023","279-VK","2017/08/05 02:05:44","新北市汐止區康寧街901號","121.651728333333","25.0749916666667","6501100","汐止區"
"221032","280-BY","2017/08/05 18:29:05","新北市汐止區民權街二段125號","121.618248333333","25.0459233333333","6501100","汐止區"
"221027","281-BY","2017/08/05 18:28:56","新北市汐止區和平街57號","121.661788333333","25.070705","6501100","汐止區"
"221038","297-VK","2017/08/05 18:29:03","新北市汐止區秀峰路9號","121.659225","25.0667516666667","6501100","汐止區"
"221029","298-VK","2017/08/05 18:28:46","新北市汐止區樟樹二路330巷68號","121.642851666667","25.069935","6501100","汐止區"
"221021","299-VK","2017/08/05 14:52:07","新北市汐止區南興路9號","121.652165","25.0625366666667","6501100","汐止區"
"221031","353-TW","2017/08/05 18:28:59","新北市汐止區光復街8巷1-4號","121.638943333333","25.058325","6501100","汐止區"
"221035","622-UM","2017/08/05 18:28:49","新北市汐止區大同路二段264號","121.654558333333","25.0660233333333","6501100","汐止區"
"221025","623-UM","2017/08/05 18:29:03","新北市汐止區仁愛路122巷18號","121.663543333333","25.0632133333333","6501100","汐止區"
"221033","647-BX","2017/08/05 18:29:05","新北市汐止區宜興街40巷1號","121.622068333333","25.0420716666667","6501100","汐止區"
"221002","707-TV","2017/08/05 18:29:09","新北市汐止區福德一路157號","121.636436666667","25.06643","6501100","汐止區"
"221018","753-BX","2017/08/05 18:29:06","新北市汐止區茄苳路202號","121.670375","25.0690333333333","6501100","汐止區"
"220082","610-BX","2017/08/05 18:28:52","新北市板橋區華東街1-9號","121.448245","24.9949266666667","6500100","板橋區"
"220056","276-BY","2017/08/05 18:29:02","新北市板橋區中山路一段282-1號","121.468943333333","25.0134516666667","6500100","板橋區"
"220053","285-VK","2017/08/05 16:26:10","新北市板橋區民生路二段15-1號","121.472711666667","25.0163016666667","6500100","板橋區"
"220061","293-UM","2017/08/05 18:28:53","新北市板橋區民生路二段36-1號","121.472405","25.0166583333333","6500100","板橋區"
"220035","560-BX","2017/08/05 18:29:06","新北市板橋區南雅南路二段146號","121.451748333333","24.99616","6500100","板橋區"
"220073","985-R7","2017/08/05 18:28:49","新北市板橋區華東街1-10號","121.448346666667","24.99502","6500100","板橋區"
