"lineid","car","time","location","longitude","latitude","cityid","cityname"
"234046","148-BY","2017/08/05 19:48:54","新北市永和區成功路一段80號","121.526401666667","25.0031233333333","6500400","永和區"
"234013","149-BY","2017/08/05 19:49:01","新北市永和區仁愛路204號","121.509286666667","25.0122516666667","6500400","永和區"
"234007","207-UY","2017/08/05 19:49:05","新北市中和區中和路265號","121.505381666667","24.9997916666667","6500400","永和區"
"234081","298-R6","2017/08/05 19:49:04","新北市永和區永亨路100號","121.523125","25.004865","6500400","永和區"
"234038","336-UY","2017/08/05 19:49:03","新北市永和區成功路二段137號","121.526726666667","24.9979783333333","6500400","永和區"
"234064","337-UY","2017/08/05 19:49:01","新北市永和區中正路412巷2號","121.517655","25.0019866666667","6500400","永和區"
"234086","338-UY","2017/08/05 19:49:08","新北市永和區中正路560號","121.517255","25.0058583333333","6500400","永和區"
"234070","552-UM","2017/08/05 19:48:50","新北市永和區福和路254號","121.5185","25.007885","6500400","永和區"
"234054","553-UM","2017/08/05 19:49:00","新北市永和區竹林路75巷25弄3號","121.520105","25.0140383333333","6500400","永和區"
"234017","745-BX","2017/08/05 19:49:01","新北市永和區文化路77號","121.513676666667","25.0151133333333","6500400","永和區"
"234030","746-BX","2017/08/05 19:49:06","新北市永和區民生路47巷42號","121.524841666667","24.9977433333333","6500400","永和區"
"234061","AAD-866","2017/08/05 19:48:34","新北市永和區中正路106號","121.514408333333","24.9959133333333","6500400","永和區"
"234042","862-TW","2017/08/05 19:49:04","新北市永和區中和路389巷51-1號","121.507873333333","25.00205","6500400","永和區"
"234050","863-TW","2017/08/05 19:48:57","新北市永和區保安路83號","121.50849","25.0146333333333","6500400","永和區"
"234026","9371-KE","2017/08/05 19:48:54","新北市永和區雙和街52巷2號","121.508966666667","25.003115","6500400","永和區"
"249001","173-UM","2017/08/05 19:48:55","新北市八里區中華路二段250號","121.405453333333","25.14967","6502300","八里區"
"249004","303-UY","2017/08/05 19:48:47","新北市八里區仁愛路79號","121.411701666667","25.15991","6502300","八里區"
"249002","305-UY","2017/08/05 19:49:03","新北市八里區頂寮五街22號","121.451253333333","25.126185","6502300","八里區"
"249003","593-UM","2017/08/05 19:48:58","新北市八里區華峰三街37號","121.398653333333","25.1455266666667","6502300","八里區"
"248014","025-BX","2017/08/05 19:49:07","新北市五股區五福路32巷19號","121.434778333333","25.089865","6501500","五股區"
"248016","026-BX","2017/08/05 19:49:02","新北市五股區成泰路四段24-5號","121.453618333333","25.1068233333333","6501500","五股區"
"248020","225-UY","2017/08/05 19:49:04","新北市五股區中直路38號","121.41986","25.1152833333333","6501500","五股區"
"248012","247-BX","2017/08/05 19:48:51","新北市五股區蓬萊路24號","121.43386","25.07994","6501500","五股區"
"248010","272-BY","2017/08/05 19:49:03","新北市五股區登林路76-5號","121.430556666667","25.0695766666667","6501500","五股區"
"248004","677-BX","2017/08/05 19:49:02","新北市五股區成泰路一段194-1號","121.435601666667","25.0779566666667","6501500","五股區"
"248002","678-BX","2017/08/05 19:48:46","新北市五股區成泰路四段14號","121.453293333333","25.1067933333333","6501500","五股區"
"234077","969-R7","2017/08/05 19:48:58","新北市永和區中正路242巷2弄2號","121.51663","24.9980833333333","6500400","永和區"
"234074","AAC-211","2017/08/05 19:48:56","新北市永和區竹林路179巷35號","121.522156666667","25.0102383333333","6500400","永和區"
"234067","AAC-212","2017/08/05 19:49:04","新北市永和區中山路一段147號","121.510211666667","25.0095366666667","6500400","永和區"
"234003","AAC-295","2017/08/05 19:49:00","新北市永和區福和路352號","121.514765","25.0073016666667","6500400","永和區"
"244019","403-UM","2017/08/05 19:49:07","新北市林口區四維路130號","121.379185","25.0771033333333","6501700","林口區"
"243013","AAD-798","2017/08/05 19:48:46","新北市泰山區應化街7號","121.423866666667","25.04372","6501600","泰山區"
"243009","297-R6","2017/08/05 19:49:02","新北市泰山區美寧街60號","121.430945","25.0646866666667","6501600","泰山區"
"243015","380-SR","2017/08/05 19:48:56","新北市泰山區明志路二段237巷22號","121.427918333333","25.0479416666667","6501600","泰山區"
"243014","421-VK","2017/08/05 19:49:01","新北市泰山區泰林路二段33-7號","121.435228333333","25.056445","6501600","泰山區"
"243010","548-UM","2017/08/05 19:49:05","新北市泰山區民生路33號","121.430625","25.0522533333333","6501600","泰山區"
"243012","646-TV","2017/08/05 19:49:03","新北市泰山區全興路18巷20號","121.431898333333","25.0584366666667","6501600","泰山區"
"243016","680-BX","2017/08/05 19:48:52","新北市泰山區新北大道七段25號","121.420245","25.03201","6501600","泰山區"
"222003","436-BY","2017/08/05 19:36:55","新北市深坑區深南路51-1號","121.621161666667","25.0099616666667","6501800","深坑區"
"222002","659-BX","2017/08/05 19:48:53","新北市深坑區北深路二段2巷1號","121.62136","25.0046566666667","6501800","深坑區"
"222001","696-SL","2017/08/05 19:49:03","新北市深坑區北深路三段47號","121.608021666667","25.0012433333333","6501800","深坑區"
"231041","001-UM","2017/08/05 19:49:04","新北市新店區中央路206號","121.530398333333","24.9740016666667","6500600","新店區"
"231059","046-UY","2017/08/05 19:49:04","新北市新店區安和路二段15號","121.517965","24.9674333333333","6500600","新店區"
"231061","047-UY","2017/08/05 19:49:07","新北市新店區安民街307號","121.517556666667","24.9739133333333","6500600","新店區"
"231060","106-UY","2017/08/05 19:49:09","新北市新店區安康路二段163號","121.510026666667","24.959205","6500600","新店區"
"231051","107-UY","2017/08/05 19:48:56","新北市新店區中央二街66號","121.526541666667","24.97465","6500600","新店區"
"231048","108-UY","2017/08/05 19:49:03","新北市新店區寶興路64巷2號","121.550543333333","24.9717316666667","6500600","新店區"
"231052","187-VK","2017/08/05 19:48:58","新北市新店區新烏路三段164號","121.551645","24.902365","6500600","新店區"
"231057","256-BX","2017/08/05 19:48:52","新北市新店區梅崗三路1號","121.558376666667","24.9313016666667","6500600","新店區"
"231063","268-BY","2017/08/05 19:49:03","新北市新店區車子路11號","121.503045","24.9520333333333","6500600","新店區"
"231046","278-BY","2017/08/05 19:49:03","新北市新店區福園街10巷3號","121.532653333333","24.9727816666667","6500600","新店區"
"231050","AAD-862","2017/08/05 19:47:50","新北市新店區北宜路二段579巷8號","121.565273333333","24.9544533333333","6500600","新店區"
"231040","355-BY","2017/08/05 19:48:58","新北市新店區中正路75巷71號","121.543078333333","24.96878","6500600","新店區"
"231055","3713-VJ","2017/08/05 19:49:02","新北市新店區新生街3巷1號","121.540268333333","24.9655983333333","6500600","新店區"
"231067","4772-VM","2017/08/05 19:48:54","新北市新店區秀山路11巷14號","121.531841666667","24.9593283333333","6500600","新店區"
"231065","512-UM","2017/08/05 19:48:58","新北市新店區安祥路109巷123號","121.47651","24.9578466666667","6500600","新店區"
"231054","513-UM","2017/08/05 19:48:47","新北市新店區光明街136號","121.53925","24.961285","6500600","新店區"
"231064","515-UM","2017/08/05 19:48:39","新北市新店區安和路一段52巷2號","121.517646666667","24.9662166666667","6500600","新店區"
"231045","617-UM","2017/08/05 19:49:04","新北市新店區中生路60號","121.564573333333","24.9527666666667","6500600","新店區"
"231042","641-BX","2017/08/05 19:48:19","新北市新店區中興路一段268-3號","121.54517","24.9679316666667","6500600","新店區"
"231049","719-UM","2017/08/05 19:48:50","新北市新店區二十張路46巷37弄21-2號","121.535696666667","24.98163","6500600","新店區"
"231062","720-UM","2017/08/05 19:49:02","新北市新店區永業路62號","121.531876666667","24.953035","6500600","新店區"
"231044","897-TW","2017/08/05 19:48:57","新北市新店區復興路38號","121.5388","24.986735","6500600","新店區"
"231043","899-TW","2017/08/05 19:48:38","新北市新店區中正路177號","121.54086","24.9721266666667","6500600","新店區"
"231066","AKT-0513","2017/08/05 19:48:49","新北市新店區薏仁坑路2-1號","121.500443333333","24.95772","6500600","新店區"
"241011","013-R5","2017/08/05 19:49:05","新北市三重區介壽路41號","121.498708333333","25.0700466666667","6500200","三重區"
"241028","022-UY","2017/08/05 19:49:02","新北市三重區中正南路157號","121.493793333333","25.05614","6500200","三重區"
"241008","059-VK","2017/08/05 19:49:05","新北市三重區永福街96號","121.478803333333","25.0760333333333","6500200","三重區"
"241031","061-VK","2017/08/05 19:49:01","新北市三重區重新路四段248號","121.486113333333","25.0534433333333","6500200","三重區"
"241015","062-VK","2017/08/05 19:48:56","新北市三重區三和路一段2號","121.503841666667","25.0642716666667","6500200","三重區"
"241017","063-VK","2017/08/05 19:48:50","新北市三重區重陽路三段5巷8弄29號","121.489618333333","25.0666216666667","6500200","三重區"
"241026","066-VK","2017/08/05 19:48:56","新北市三重區文化南路42號","121.500433333333","25.06021","6500200","三重區"
"241003","091-VK","2017/08/05 19:49:01","新北市三重區五華街93巷61號","121.49323","25.0845183333333","6500200","三重區"
"241032","156-TC","2017/08/05 19:49:00","新北市三重區重陽路一段68號","121.4864","25.05875","6500200","三重區"
"241009","265-UM","2017/08/05 19:49:04","新北市三重區三和路四段390巷59號","121.479568333333","25.0784316666667","6500200","三重區"
"241016","266-UM","2017/08/05 19:48:56","新北市三重區正德街36號","121.495681666667","25.0627683333333","6500200","三重區"
"241022","267-UM","2017/08/05 19:48:57","新北市三重區過圳街31巷2號","121.48912","25.0605866666667","6500200","三重區"
"241018","268-UM","2017/08/05 19:49:01","新北市三重區雙園街57巷3號","121.494873333333","25.0676","6500200","三重區"
"241013","270-UM","2017/08/05 19:48:59","新北市三重區仁愛街118號","121.495246666667","25.074645","6500200","三重區"
"241025","271-UM","2017/08/05 19:48:58","新北市三重區頂崁街210巷16號","121.476531666667","25.067715","6500200","三重區"
"241007","398-BY","2017/08/05 19:48:59","新北市三重區三和路四段143-1號","121.484233333333","25.0780933333333","6500200","三重區"
"241020","412-TH","2017/08/05 19:49:09","新北市三重區後竹圍街8號","121.491673333333","25.0736316666667","6500200","三重區"
"241035","462-BY","2017/08/05 19:48:53","新北市三重區中央北路18巷41號","121.499488333333","25.0638366666667","6500200","三重區"
"241004","475-VK","2017/08/05 19:48:53","新北市三重區五華街74號","121.493406666667","25.082005","6500200","三重區"
"241030","480-VK","2017/08/05 19:49:00","新北市三重區環河南路254巷40號","121.48976","25.0512016666667","6500200","三重區"
"241014","543-UM","2017/08/05 19:48:50","新北市三重區長元街98巷18弄21號","121.501963333333","25.0674666666667","6500200","三重區"
"241023","545-UM","2017/08/05 19:48:59","新北市三重區大有街1-1號","121.477675","25.0656283333333","6500200","三重區"
"241001","547-UM","2017/08/05 19:49:07","新北市三重區仁愛街327巷40號","121.493195","25.0800966666667","6500200","三重區"
"241006","AAD-863","2017/08/05 19:48:55","新北市三重區永福街273號","121.482233333333","25.0742683333333","6500200","三重區"
"241012","941-UM","2017/08/05 19:49:00","新北市三重區仁福街64巷6號","121.49776","25.0749816666667","6500200","三重區"
"241029","942-UM","2017/08/05 19:48:57","新北市三重區光明路11號","121.490971666667","25.058715","6500200","三重區"
"241033","AAC-255","2017/08/05 19:49:04","新北市三重區中興南街66號","121.470635","25.0439833333333","6500200","三重區"
"235066","003-UY","2017/08/05 19:49:05","新北市中和區南工路26號","121.505608333333","25.0008183333333","6500300","中和區"
"235064","005-UY","2017/08/05 19:49:01","新北市中和區南山路60-1號","121.502055","24.9971316666667","6500300","中和區"
"235063","006-UY","2017/08/05 19:48:48","新北市中和區連城路263巷7弄1號","121.492173333333","24.995915","6500300","中和區"
"235056","096-UM","2017/08/05 19:48:55","新北市中和區中山路三段114巷12號","121.475966666667","25.0067166666667","6500300","中和區"
"235039","097-UM","2017/08/05 19:48:59","新北市中和區大勇街25巷3號","121.517111666667","24.9931883333333","6500300","中和區"
"235065","098-UM","2017/08/05 19:49:06","新北市中和區永和路8巷6號","121.500193333333","25.003095","6500300","中和區"
"235040","150-BY","2017/08/05 19:48:49","新北市中和區安平路38號","121.509686666667","24.99492","6500300","中和區"
"235058","151-BY","2017/08/05 19:48:58","新北市中和區員山路146巷4-3號","121.481593333333","24.996765","6500300","中和區"
"235055","183-VK","2017/08/05 19:48:57","新北市中和區中山路三段181巷32號","121.473083333333","25.0049083333333","6500300","中和區"
"235038","185-VK","2017/08/05 19:49:00","新北市中和區自立路23號","121.522525","24.995805","6500300","中和區"
"235049","186-VK","2017/08/05 19:48:59","新北市中和區景平路520號","121.503298333333","24.9939466666667","6500300","中和區"
"235067","255-BX","2017/08/05 19:48:54","新北市中和區新生街239號","121.483843333333","24.9989183333333","6500300","中和區"
"235044","293-VK","2017/08/05 19:48:56","新北市中和區興南路一段160號","121.508285","24.9866683333333","6500300","中和區"
"235072","301-VK","2017/08/05 19:49:00","新北市中和區橋和路281巷1號","121.495245","25.00754","6500300","中和區"
"235043","352-BY","2017/08/05 19:49:07","新北市中和區華新街230號","121.506021666667","24.9817716666667","6500300","中和區"
"235068","377-QA","2017/08/05 19:49:00","新北市中和區莊敬路14號","121.499905","25.00424","6500300","中和區"
"235061","378-QA","2017/08/05 19:48:59","新北市中和區員山路226巷13弄1號","121.482141666667","25.0000116666667","6500300","中和區"
"235050","4979-A6","2017/08/05 19:49:02","新北市中和區景平路241巷82弄37號","121.50641","24.9924733333333","6500300","中和區"
"235069","4980-A6","2017/08/05 19:48:51","新北市中和區南山路37巷8弄1號","121.502631666667","24.9987916666667","6500300","中和區"
"235042","551-UM","2017/08/05 19:48:59","新北市中和區景安路79巷37弄1號","121.507466666667","24.9963783333333","6500300","中和區"
"235045","565-BX","2017/08/05 19:49:07","新北市中和區興南路一段2號","121.511663333333","24.9916916666667","6500300","中和區"
"235054","640-BX","2017/08/05 19:49:06","新北市中和區國光街107巷2弄32號","121.469333333333","24.9990283333333","6500300","中和區"
"235060","647-TV","2017/08/05 19:48:57","新北市中和區員山路390號","121.480628333333","25.0045916666667","6500300","中和區"
"235047","732-UM","2017/08/05 19:48:55","新北市中和區景安路187號","121.504908333333","24.9930583333333","6500300","中和區"
"235046","733-UM","2017/08/05 19:49:01","新北市中和區仁愛街110號","121.511608333333","24.9869983333333","6500300","中和區"
"235057","801-TS","2017/08/05 19:48:57","新北市中和區員山路160號","121.48139","24.9996516666667","6500300","中和區"
"235041","802-TS","2017/08/05 19:49:04","新北市中和區中和路460號","121.51218","25.0038883333333","6500300","中和區"
"235052","805-TS","2017/08/05 19:48:26","新北市中和區華新街192巷24號","121.50632","24.9831883333333","6500300","中和區"
"235048","896-TW","2017/08/05 19:49:03","新北市中和區華新街34號","121.507831666667","24.9843616666667","6500300","中和區"
"235053","900-TW","2017/08/05 19:48:59","新北市中和區國光街205巷2號","121.466786666667","25.0019533333333","6500300","中和區"
"235037","AAC-213","2017/08/05 19:48:50","新北市中和區秀朗路三段76巷1號","121.526203333333","24.993945","6500300","中和區"
"235059","AAC-215","2017/08/05 19:49:01","新北市中和區圓通路305巷18號","121.494935","24.9890466666667","6500300","中和區"
"220068","013-TV","2017/08/05 19:48:53","新北市板橋區光復街172巷29號","121.485681666667","25.01885","6500100","板橋區"
"220086","073-UY","2017/08/05 19:49:00","新北市板橋區林園街4-1號","121.454236666667","25.009495","6500100","板橋區"
"220106","075-UY","2017/08/05 19:49:01","新北市板橋區仁化街221號","121.478801666667","25.0346566666667","6500100","板橋區"
"220069","AAD-861","2017/08/05 19:49:00","新北市板橋區稚暉街33號","121.456996666667","25.0041233333333","6500100","板橋區"
"220096","120-SR","2017/08/05 19:48:57","新北市板橋區文化路二段4號","121.46873","25.023915","6500100","板橋區"
"247010","546-UM","2017/08/05 19:48:57","新北市三重區集賢路170號","121.484606666667","25.088565","6501400","蘆洲區"
"247006","341-TH","2017/08/05 19:48:52","新北市蘆洲區永安南路二段26號","121.46717","25.0770133333333","6501400","蘆洲區"
"247008","339-TH","2017/08/05 19:48:57","新北市蘆洲區信義路113巷1弄20號","121.477571666667","25.0802916666667","6501400","蘆洲區"
"247002","336-TH","2017/08/05 19:49:02","新北市蘆洲區永平街27號","121.458651666667","25.09081","6501400","蘆洲區"
"247014","057-VK","2017/08/05 19:48:52","新北市蘆洲區保和街50-2號","121.469541666667","25.0863016666667","6501400","蘆洲區"
"247004","056-VK","2017/08/05 19:49:04","新北市蘆洲區中原路59號","121.45897","25.0820883333333","6501400","蘆洲區"
"226004","312-R5","2017/08/05 19:49:05","新北市平溪區靜安路三段152號","121.774605","25.0381233333333","6502400","平溪區"
"228003","097-TW","2017/08/05 19:48:45","新北市貢寮區真理里美艷山街5-1號","121.926565","25.0596866666667","6502600","貢寮區"
"228001","212-TW","2017/08/05 19:48:57","新北市貢寮區真理里大澳街10巷48號","121.925528333333","25.0563166666667","6502600","貢寮區"
"224010","AGQ-8101","2017/08/05 19:48:24","新北市瑞芳區烏勢巷7號","121.845205","25.1083883333333","6501200","瑞芳區"
"224002","639-TC","2017/08/05 19:48:57","新北市瑞芳區員山子路員山巷3-3號","121.817211666667","25.103715","6501200","瑞芳區"
"224008","275-VK","2017/08/05 19:49:03","新北市瑞芳區靜安路四段6號","121.79524","25.0833116666667","6501200","瑞芳區"
"227002","642-TC","2017/08/05 19:48:50","新北市雙溪區雙溪里內挖路36號","121.863198333333","25.0367683333333","6502500","雙溪區"
"227010","400-TW","2017/08/05 19:49:02","新北市雙溪區新基里朝陽街18號","121.86593","25.0387533333333","6502500","雙溪區"
"208002","742-BX","2017/08/05 19:49:03","新北市金山區八德街5號","121.635243333333","25.22367","6502700","金山區"
"208003","665-BX","2017/08/05 19:49:02","新北市金山區環金路420號","121.631148333333","25.22338","6502700","金山區"
"208001","761-BX","2017/08/05 19:49:04","新北市金山區重和里林口28-3號","121.59657","25.20931","6502700","金山區"
"251009","008-UM","2017/08/05 19:10:35","新北市淡水區中正路27號","121.442473333333","25.1695983333333","6501000","淡水區"
"251004","009-UM","2017/08/05 19:48:14","新北市淡水區民權路185巷22號","121.460428333333","25.1337766666667","6501000","淡水區"
"251005","010-UM","2017/08/05 19:48:56","新北市淡水區水源街一段1號","121.442585","25.1726366666667","6501000","淡水區"
"251014","180-VK","2017/08/05 19:49:02","新北市淡水區番社前4-1號","121.474905","25.2358916666667","6501000","淡水區"
"251008","181-VK","2017/08/05 19:48:54","新北市淡水區中正路一段24巷2-4號","121.426846666667","25.1770183333333","6501000","淡水區"
"251012","441-VK","2017/08/05 19:49:06","新北市淡水區埤島6-10號","121.445986666667","25.1947183333333","6501000","淡水區"
"251016","442-VK","2017/08/05 19:48:50","新北市淡水區三塊厝3-2號","121.456136666667","25.2090833333333","6501000","淡水區"
"251001","559-UM","2017/08/05 19:48:56","新北市淡水區中正東路二段87-3號","121.45951","25.1528816666667","6501000","淡水區"
"251006","561-UM","2017/08/05 19:48:55","新北市淡水區水碓街7號","121.443098333333","25.1772","6501000","淡水區"
"251011","650-BX","2017/08/05 19:48:54","新北市淡水區淡金路二段30號","121.452043333333","25.1814433333333","6501000","淡水區"
"207003","550-UM","2017/08/05 19:48:48","新北市萬里區大鵬里萬里加投68-6號","121.64254","25.2154166666667","6502800","萬里區"
"207004","225-TW","2017/08/05 19:49:06","新北市萬里區萬里里瑪鋉路160號","121.690093333333","25.17965","6502800","萬里區"
"252002","178-VK","2017/08/05 19:49:04","新北市三芝區三民街33-1號","121.50462","25.2586033333333","6502100","三芝區"
"252001","702-TV","2017/08/05 19:48:50","新北市三芝區公正街66號","121.499825","25.257465","6502100","三芝區"
"237004","078-UY","2017/08/05 19:49:09","新北市三峽區添福141-1號","121.374525","24.9003133333333","6500900","三峽區"
"237007","153-BY","2017/08/05 19:49:06","新北市三峽區二鬮路136巷2弄30號","121.35963","24.90877","6500900","三峽區"
"237009","210-TH","2017/08/05 19:48:59","新北市三峽區中園街121號","121.367458333333","24.923865","6500900","三峽區"
"237013","252-BX","2017/08/05 19:48:57","新北市三峽區溪北街60號","121.397325","24.9357966666667","6500900","三峽區"
"237012","275-BY","2017/08/05 19:48:53","新北市三峽區中華路13-1號","121.373668333333","24.9322066666667","6500900","三峽區"
"237008","302-VK","2017/08/05 19:48:50","新北市三峽區大同路154號","121.373148333333","24.92695","6500900","三峽區"
"237014","433-BY","2017/08/05 19:48:52","新北市三峽區添福14-38號","121.373065","24.9003033333333","6500900","三峽區"
"237006","5529-G3","2017/08/05 19:48:55","新北市三峽區中正路一段336巷15弄2號","121.369958333333","24.9248966666667","6500900","三峽區"
"237016","649-BX","2017/08/05 19:49:04","新北市三峽區介壽路二段138巷1弄5號","121.396201666667","24.9340116666667","6500900","三峽區"
"237005","AKY-6261","2017/08/05 19:48:56","新北市三峽區民生街88號","121.374203333333","24.935695","6500900","三峽區"
"236073","105-UM","2017/08/05 19:49:08","新北市土城區水源街32巷14號","121.441263333333","24.97588","6501300","土城區"
"236043","107-UM","2017/08/05 19:49:02","新北市土城區清水路83號","121.455783333333","24.981735","6501300","土城區"
"236079","166-UM","2017/08/05 19:49:00","新北市土城區溪頭路20巷2弄2號","121.412916666667","24.955505","6501300","土城區"
"236031","253-BX","2017/08/05 19:49:06","新北市土城區中央路一段294號","121.443291666667","24.9823733333333","6501300","土城區"
"236027","269-VK","2017/08/05 19:49:00","新北市土城區中央路二段61巷22號","121.44321","24.978705","6501300","土城區"
"236038","271-VK","2017/08/05 19:49:00","新北市土城區國際路131號","121.468041666667","24.9764966666667","6501300","土城區"
"236023","401-BY","2017/08/05 19:48:48","新北市土城區金城路三段200-5號","121.468738333333","24.987705","6501300","土城區"
"236063","752-BX","2017/08/05 19:48:33","新北市土城區延平街69巷8號","121.467253333333","24.99299","6501300","土城區"
"236059","912-UM","2017/08/05 19:48:44","新北市土城區中央路二段38-3號","121.442711666667","24.9798433333333","6501300","土城區"
"236049","913-UM","2017/08/05 19:49:00","新北市土城區青雲路319號","121.459048333333","24.9787083333333","6501300","土城區"
"236055","AAC-216","2017/08/05 19:48:53","新北市土城區延和路55號","121.466523333333","24.9896166666667","6501300","土城區"
"242048","751-BX","2017/08/05 19:49:04","新北市新莊區建安街119號","121.426168333333","25.0238966666667","6500500","新莊區"
"242027","612-BX","2017/08/05 19:49:02","新北市新莊區中平路278號","121.444805","25.0507033333333","6500500","新莊區"
"242036","566-BX","2017/08/05 19:48:53","新北市新莊區建安街60號","121.427201666667","25.0246833333333","6500500","新莊區"
"242004","442-UM","2017/08/05 19:49:01","新北市新莊區化成路63巷24弄20號","121.462018333333","25.04605","6500500","新莊區"
"242031","415-TV","2017/08/05 19:48:51","新北市新莊區新泰路225巷22弄26號","121.444468333333","25.0392866666667","6500500","新莊區"
"242002","413-TV","2017/08/05 19:48:48","新北市新莊區新泰路71號","121.449391666667","25.0343383333333","6500500","新莊區"
"242039","400-BY","2017/08/05 19:49:00","新北市新莊區民安路299巷55弄1號","121.42942","25.0238666666667","6500500","新莊區"
"242061","362-BY","2017/08/05 19:48:48","新北市新莊區中正路400號","121.441918333333","25.0341216666667","6500500","新莊區"
"242058","353-BY","2017/08/05 19:49:00","新北市新莊區八德街3號","121.425488333333","25.0227166666667","6500500","新莊區"
"242042","132-UY","2017/08/05 19:49:04","新北市新莊區新北大道七段510號","121.412255","25.0291333333333","6500500","新莊區"
"242007","173-VK","2017/08/05 19:48:55","新北市新莊區富貴路53號","121.457965","25.0572083333333","6500500","新莊區"
"242013","175-VK","2017/08/05 19:48:54","新北市新莊區中泰街62巷11號","121.4501","25.0473383333333","6500500","新莊區"
"242017","348-TH","2017/08/05 19:49:03","新北市新莊區中安街3號","121.452885","25.0453333333333","6500500","新莊區"
"242009","351-TH","2017/08/05 19:48:54","新北市新莊區中誠街112號","121.449578333333","25.0477366666667","6500500","新莊區"
"238015","755-BX","2017/08/05 19:48:49","新北市樹林區中山路一段91-1號","121.423323333333","24.991205","6500700","樹林區"
"238023","601-UM","2017/08/05 19:48:54","新北市樹林區三寶街12號","121.406558333333","25.0155483333333","6500700","樹林區"
"238018","571-TV","2017/08/05 19:48:50","新北市樹林區八德街634號","121.397173333333","24.9691533333333","6500700","樹林區"
"238024","5061-A6","2017/08/05 19:48:56","新北市樹林區育德街78-1號","121.387945","24.9682316666667","6500700","樹林區"
"238022","312-TH","2017/08/05 19:48:52","新北市樹林區名園街51巷6弄29號","121.420988333333","24.978185","6500700","樹林區"
"238021","311-TH","2017/08/05 19:48:29","新北市樹林區佳園路三段181巷20號","121.387023333333","24.94756","6500700","樹林區"
"238025","303-VK","2017/08/05 19:49:00","新北市樹林區中山路二段124號","121.413375","24.9830033333333","6500700","樹林區"
"238017","283-BY","2017/08/05 19:48:52","新北市樹林區保安街二段45巷21弄7號","121.414778333333","24.9998683333333","6500700","樹林區"
"238014","282-BY","2017/08/05 19:48:50","新北市樹林區千歲街46巷11號","121.426711666667","24.99665","6500700","樹林區"
"238020","268-VK","2017/08/05 19:48:20","新北市樹林區樹新路205-3號","121.429645","24.9978816666667","6500700","樹林區"
"239006","891-R6","2017/08/05 19:49:05","新北市鶯歌區文化路62-1號","121.356148333333","24.95457","6500800","鶯歌區"
"221008","489-VK","2017/08/05 19:49:01","新北市汐止區康寧街83巷26號","121.620623333333","25.06735","6501100","汐止區"
"221036","130-UY","2017/08/05 19:48:57","新北市汐止區汐萬路一段39-3號","121.654946666667","25.06937","6501100","汐止區"
"221015","131-UY","2017/08/05 19:48:48","新北市汐止區汐萬路一段39號","121.655176666667","25.0689033333333","6501100","汐止區"
"221010","269-BY","2017/08/05 19:48:56","新北市汐止區汐萬路一段343巷1號","121.650111666667","25.0766766666667","6501100","汐止區"
"221012","278-VK","2017/08/05 19:48:50","新北市汐止區保長路267號","121.680898333333","25.074405","6501100","汐止區"
"221023","279-VK","2017/08/05 02:05:44","新北市汐止區康寧街901號","121.651728333333","25.0749916666667","6501100","汐止區"
"221032","280-BY","2017/08/05 19:49:05","新北市汐止區橫科路73巷1號","121.619188333333","25.0506233333333","6501100","汐止區"
"221027","281-BY","2017/08/05 19:48:55","新北市汐止區忠孝東路9號","121.658321666667","25.0659333333333","6501100","汐止區"
"221038","297-VK","2017/08/05 19:49:03","新北市汐止區忠孝東路315號","121.664725","25.0692616666667","6501100","汐止區"
"221029","298-VK","2017/08/05 19:48:46","新北市汐止區康寧街901號","121.651653333333","25.0748633333333","6501100","汐止區"
"221021","299-VK","2017/08/05 14:52:07","新北市汐止區南興路9號","121.652165","25.0625366666667","6501100","汐止區"
"221031","353-TW","2017/08/05 19:48:59","新北市汐止區福德三路127號","121.633651666667","25.067655","6501100","汐止區"
"221025","623-UM","2017/08/05 19:49:03","新北市汐止區秀峰路81巷15弄47號","121.661793333333","25.0648866666667","6501100","汐止區"
"221033","647-BX","2017/08/05 19:49:02","新北市汐止區東勢街216巷24弄17號","121.634765","25.0389466666667","6501100","汐止區"
"221018","753-BX","2017/08/05 19:48:57","新北市汐止區汐萬路一段160號","121.652553333333","25.0715","6501100","汐止區"
"220079","145-BY","2017/08/05 19:49:09","新北市板橋區中正路135巷14-2號","121.455531666667","25.0155783333333","6500100","板橋區"
"220080","200-UY","2017/08/05 19:48:54","新北市板橋區大觀路二段37巷258號","121.449935","25.0018766666667","6500100","板橋區"
"220082","610-BX","2017/08/05 19:48:52","新北市板橋區存德街25號","121.430471666667","24.9916766666667","6500100","板橋區"
"220055","255-TC","2017/08/05 15:25:02","新北市板橋區民生路二段89-9號","121.47147","25.0169666666667","6500100","板橋區"
"220102","257-TC","2017/08/05 19:49:03","新北市板橋區松柏街31-4號","121.475228333333","25.0302166666667","6500100","板橋區"
"220094","267-BY","2017/08/05 19:48:48","新北市板橋區長江路一段151號","121.461055","25.0303783333333","6500100","板橋區"
"220056","276-BY","2017/08/05 19:49:02","新北市板橋區四川路二段52號","121.453476666667","24.99521","6500100","板橋區"
"220072","277-BY","2017/08/05 19:49:04","新北市板橋區金門街215巷93號","121.433811666667","24.9887133333333","6500100","板橋區"
"220101","285-UM","2017/08/05 19:49:05","新北市板橋區縣民大道三段91號","121.47578","25.022035","6500100","板橋區"
"220053","285-VK","2017/08/05 19:49:06","新北市板橋區中山路二段60巷1弄17號","121.474861666667","25.0156666666667","6500100","板橋區"
"220083","286-VK","2017/08/05 19:48:50","新北市板橋區龍興街65巷47號","121.442373333333","25.00189","6500100","板橋區"
"220081","287-VK","2017/08/05 19:49:01","新北市板橋區大觀路一段28巷86號","121.449785","25.0109233333333","6500100","板橋區"
"220090","288-VK","2017/08/05 19:48:47","新北市板橋區龍泉街54巷7弄5號","121.45662","25.026485","6500100","板橋區"
"220061","293-UM","2017/08/05 19:49:00","新北市板橋區漢生東路113巷21號","121.4681","25.0155083333333","6500100","板橋區"
"220065","295-UM","2017/08/05 18:45:20","新北市板橋區民生路二段17號","121.47253","25.0163","6500100","板橋區"
"220084","296-UM","2017/08/05 19:49:00","新北市板橋區滿平二街3號","121.425465","24.9864516666667","6500100","板橋區"
"220075","297-UM","2017/08/05 19:48:50","新北市板橋區金華街12號","121.455918333333","25.02027","6500100","板橋區"
"220098","299-UM","2017/08/05 19:48:50","新北市板橋區裕民街130號","121.45898","25.0273983333333","6500100","板橋區"
"220062","303-R5","2017/08/05 19:49:04","新北市板橋區光復街33巷17號","121.482056666667","25.0190133333333","6500100","板橋區"
"220065","305-R5","2017/08/05 19:49:03","新北市板橋區國泰街25巷8-2號","121.46913","25.006155","6500100","板橋區"
"220092","307-R5","2017/08/05 19:48:54","新北市板橋區四維路101號","121.465616666667","25.02454","6500100","板橋區"
"220064","486-VK","2017/08/05 19:48:58","新北市板橋區中山路一段85號","121.461558333333","25.0100433333333","6500100","板橋區"
"220089","487-VK","2017/08/05 19:48:57","新北市板橋區綠堤街39-4號","121.455336666667","25.02633","6500100","板橋區"
"220088","491-VK","2017/08/05 19:48:57","新北市板橋區仁化街99號","121.476471666667","25.0322333333333","6500100","板橋區"
"220035","560-BX","2017/08/05 19:49:06","新北市板橋區金華街101號","121.45862","25.0208483333333","6500100","板橋區"
"220103","561-BX","2017/08/05 19:48:57","新北市板橋區陽明街29巷8號","121.464896666667","25.02195","6500100","板橋區"
"220071","568-UM","2017/08/05 19:48:52","新北市板橋區信義路279巷23號","121.464963333333","24.99041","6500100","板橋區"
"220063","609-BX","2017/08/05 19:48:50","新北市板橋區三民路一段52號","121.47941","25.0225466666667","6500100","板橋區"
"220091","637-BX","2017/08/05 19:48:51","新北市板橋區民治街81巷15號","121.480401666667","25.03216","6500100","板橋區"
"220057","686-BX","2017/08/05 19:48:52","新北市板橋區和平路安樂巷54號","121.462318333333","24.993085","6500100","板橋區"
"220077","687-BX","2017/08/05 19:49:06","新北市板橋區僑中一街102巷3弄20號","121.446061666667","25.0124866666667","6500100","板橋區"
"220093","689-BX","2017/08/05 19:49:08","新北市板橋區長江路二段163號","121.466261666667","25.031915","6500100","板橋區"
"220054","741-BX","2017/08/05 19:48:45","新北市板橋區忠孝路202號","121.465858333333","25.00265","6500100","板橋區"
"220067","829-TW","2017/08/05 19:48:53","新北市板橋區長安街331巷19弄8號","121.473428333333","25.0122916666667","6500100","板橋區"
"220074","895-R6","2017/08/05 19:49:03","新北市板橋區大東街20號","121.456586666667","25.009065","6500100","板橋區"
"220073","985-R7","2017/08/05 19:48:49","新北市板橋區大仁街18號","121.455746666667","25.0169783333333","6500100","板橋區"
"220097","AAC-210","2017/08/05 19:48:53","新北市板橋區文化路一段285巷55號","121.463206666667","25.0197916666667","6500100","板橋區"
"220070","AAC-253","2017/08/05 19:49:06","新北市板橋區民族路231號","121.469795","25.0071316666667","6500100","板橋區"
