"lineid","car","time","location","longitude","latitude","cityid","cityname"
"234064","337-UY","2017/08/05 20:39:01","台北市文山區溪洲街51號","121.534345","25.005675","6500400","永和區"
"234030","746-BX","2017/08/05 20:39:06","新北市新店區安康路二段318-1號","121.504766666667","24.9584383333333","6500400","永和區"
"234061","AAD-866","2017/08/05 20:38:54","新北市永和區安樂路208-1號","121.515056666667","25.0019333333333","6500400","永和區"
"249001","173-UM","2017/08/05 20:38:55","新北市八里區中山路三段382號","121.36869","25.1360766666667","6502300","八里區"
"249004","303-UY","2017/08/05 20:38:48","新北市八里區中山路一段157巷11號","121.412953333333","25.1583816666667","6502300","八里區"
"234023","9380-KE","2017/08/05 20:39:00","新北市永和區永和路二段264號","121.516111666667","25.0149683333333","6500400","永和區"
"234074","AAC-211","2017/08/05 20:38:56","新北市永和區環河東路一段164號","121.521395","25.0144283333333","6500400","永和區"
"234067","AAC-212","2017/08/05 20:39:04","新北市永和區保平路292巷40弄2號","121.507688333333","25.005075","6500400","永和區"
"234003","AAC-295","2017/08/05 20:39:00","新北市永和區中正路620號","121.51713","25.0078166666667","6500400","永和區"
"244019","403-UM","2017/08/05 20:39:07","新北市八里區長道坑25號","121.397543333333","25.104615","6501700","林口區"
"244016","485-VK","2017/08/05 20:38:54","新北市林口區粉寮69號","121.405043333333","25.0908416666667","6501700","林口區"
"243009","297-R6","2017/08/05 20:39:02","新北市泰山區泰林路二段542巷1弄25號","121.422735","25.064055","6501600","泰山區"
"243010","548-UM","2017/08/05 20:39:05","新北市泰山區泰林路二段603號","121.421325","25.0637266666667","6501600","泰山區"
"243016","680-BX","2017/08/05 20:38:52","新北市泰山區明志路二段34號","121.429615","25.0532116666667","6501600","泰山區"
"222003","436-BY","2017/08/05 20:38:52","新北市深坑區深坑街149號","121.613125","25.00116","6501800","深坑區"
"222002","659-BX","2017/08/05 20:38:53","新北市深坑區萬福路45號","121.599491666667","25.0068833333333","6501800","深坑區"
"222001","696-SL","2017/08/05 20:39:03","新北市深坑區北深路三段234號","121.600561666667","25.00407","6501800","深坑區"
"231041","001-UM","2017/08/05 20:39:04","新北市新店區中正路696號","121.534101666667","24.9904933333333","6500600","新店區"
"231056","0291-UT","2017/08/05 20:38:51","新北市新店區民生路75巷221號","121.532221666667","24.9817083333333","6500600","新店區"
"231059","046-UY","2017/08/05 20:39:04","新北市新店區僑信路132巷24號","121.500203333333","24.9455533333333","6500600","新店區"
"231061","047-UY","2017/08/05 20:38:47","新北市新店區新和街36號","121.519291666667","24.9849083333333","6500600","新店區"
"231060","106-UY","2017/08/05 20:38:48","新北市新店區錦秀路1-1號","121.479051666667","24.9456983333333","6500600","新店區"
"231051","107-UY","2017/08/05 20:38:56","新北市新店區中央六街27號","121.529306666667","24.975085","6500600","新店區"
"231048","108-UY","2017/08/05 20:39:05","新北市新店區寶慶街2號","121.544096666667","24.98687","6500600","新店區"
"231052","187-VK","2017/08/05 20:38:58","新北市新店區廣興路7-10號","121.545651666667","24.91171","6500600","新店區"
"231057","256-BX","2017/08/05 20:39:00","新北市新店區花園六路二段12號","121.554801666667","24.933435","6500600","新店區"
"231063","268-BY","2017/08/05 20:39:03","新北市新店區玫瑰路4-1號","121.493608333333","24.951375","6500600","新店區"
"231050","AAD-862","2017/08/05 20:38:50","新北市新店區建興街7號","121.53991","24.9763933333333","6500600","新店區"
"231040","355-BY","2017/08/05 20:38:58","新北市新店區中正路265巷1號","121.53801","24.9737333333333","6500600","新店區"
"231058","3712-VJ","2017/08/05 20:38:53","新北市新店區自由街43-1號","121.534515","24.9737133333333","6500600","新店區"
"231065","512-UM","2017/08/05 20:38:58","新北市新店區安祥路102巷146號","121.486813333333","24.964535","6500600","新店區"
"231054","513-UM","2017/08/05 20:38:47","新北市新店區北新路一段64巷39弄2號","121.542511666667","24.96586","6500600","新店區"
"231064","515-UM","2017/08/05 20:38:59","新北市新店區安和路三段110巷9號","121.517518333333","24.9857666666667","6500600","新店區"
"231045","617-UM","2017/08/05 20:39:04","新北市新店區長春路213號","121.55937","24.9620066666667","6500600","新店區"
"231042","641-BX","2017/08/05 20:38:59","新北市新店區寶高路120巷1-1號","121.554633333333","24.9759316666667","6500600","新店區"
"231068","718-UY","2017/08/05 20:39:04","新北市新店區寶慶街35巷16弄1號","121.543125","24.986085","6500600","新店區"
"231049","719-UM","2017/08/05 20:38:54","新北市新店區永業路81巷25號","121.530828333333","24.9486133333333","6500600","新店區"
"231062","720-UM","2017/08/05 20:39:02","新北市新店區安泰路11巷1號","121.485525","24.95021","6500600","新店區"
"231044","897-TW","2017/08/05 20:38:57","新北市新店區民權路90巷27號","121.537106666667","24.9842383333333","6500600","新店區"
"231043","899-TW","2017/08/05 20:38:58","新北市新店區建國路40號","121.540496666667","24.974765","6500600","新店區"
"231066","AKT-0513","2017/08/05 20:38:49","新北市新店區安興路112號","121.514638333333","24.97765","6500600","新店區"
"241011","013-R5","2017/08/05 20:39:05","新北市三重區龍濱路217號","121.50176","25.0719233333333","6500200","三重區"
"241028","022-UY","2017/08/05 20:39:02","新北市三重區光興街91號","121.497431666667","25.05988","6500200","三重區"
"241008","059-VK","2017/08/05 20:38:59","新北市三重區下竹圍街42號","121.481025","25.0748833333333","6500200","三重區"
"241005","060-VK","2017/08/05 20:38:45","新北市三重區碧華街422號","121.492413333333","25.0853216666667","6500200","三重區"
"241031","061-VK","2017/08/05 20:39:01","新北市三重區重陽路一段113巷1弄49號","121.48804","25.0585833333333","6500200","三重區"
"241015","062-VK","2017/08/05 20:38:56","新北市三重區雙園街1號","121.497835","25.06839","6500200","三重區"
"241017","063-VK","2017/08/05 20:38:50","新北市三重區大同北路269號","121.490813333333","25.06737","6500200","三重區"
"241024","065-VK","2017/08/05 20:39:03","新北市三重區大勇街82巷21號","121.479686666667","25.0720783333333","6500200","三重區"
"241026","066-VK","2017/08/05 20:38:56","新北市三重區和平街1號","121.500068333333","25.062325","6500200","三重區"
"241002","090-VK","2017/08/05 20:38:57","新北市三重區仁義街167巷24號","121.497871666667","25.0821166666667","6500200","三重區"
"241003","091-VK","2017/08/05 20:39:01","新北市三重區五華街141巷58號","121.493565","25.0867566666667","6500200","三重區"
"241032","156-TC","2017/08/05 20:39:00","新北市三重區重陽路一段120巷46號","121.485088333333","25.060135","6500200","三重區"
"241009","265-UM","2017/08/05 20:39:04","新北市三重區碧華街57號","121.484811666667","25.0812916666667","6500200","三重區"
"241016","266-UM","2017/08/05 20:38:56","新北市三重區自強路一段143號","121.494616666667","25.06671","6500200","三重區"
"241022","267-UM","2017/08/05 20:38:57","新北市三重區新北大道一段10號","121.488473333333","25.0619666666667","6500200","三重區"
"241018","268-UM","2017/08/05 20:39:01","新北市三重區重陽路四段19號","121.491201666667","25.0692533333333","6500200","三重區"
"241013","270-UM","2017/08/05 20:38:59","新北市三重區三和路四段2號","121.4917","25.0738866666667","6500200","三重區"
"241025","271-UM","2017/08/05 20:38:58","新北市三重區頂崁街206巷40號","121.475728333333","25.06662","6500200","三重區"
"241007","398-BY","2017/08/05 20:38:58","新北市三重區三和路四段101巷18號","121.488731666667","25.0770416666667","6500200","三重區"
"241020","412-TH","2017/08/05 20:38:49","新北市三重區忠孝路一段6-3號","121.492181666667","25.0717533333333","6500200","三重區"
"241035","462-BY","2017/08/05 20:38:52","新北市三重區正義北路281-1號","121.494996666667","25.0703316666667","6500200","三重區"
"241004","475-VK","2017/08/05 20:38:53","新北市三重區仁愛街406巷3號","121.490671666667","25.0812283333333","6500200","三重區"
"241019","478-VK","2017/08/05 20:38:54","新北市三重區大智街139號","121.490736666667","25.0709416666667","6500200","三重區"
"241030","480-VK","2017/08/05 20:39:00","新北市三重區成功路73巷11號","121.489435","25.0519183333333","6500200","三重區"
"241014","543-UM","2017/08/05 20:38:50","新北市三重區三和路二段164號","121.499205","25.0686466666667","6500200","三重區"
"241023","545-UM","2017/08/05 20:38:59","新北市三重區頂崁街203巷27號","121.478235","25.066925","6500200","三重區"
"241001","547-UM","2017/08/05 20:39:07","新北市三重區三和路四段160巷85號","121.485493333333","25.074845","6500200","三重區"
"241012","941-UM","2017/08/05 20:38:51","新北市三重區秀江街26號","121.502468333333","25.0730283333333","6500200","三重區"
"241029","942-UM","2017/08/05 20:38:57","新北市三重區集美街126巷27號","121.490063333333","25.0538616666667","6500200","三重區"
"241033","AAC-255","2017/08/05 20:39:04","新北市三重區興德路100號","121.472361666667","25.0531516666667","6500200","三重區"
"235072","301-VK","2017/08/05 20:39:00","新北市板橋區民生路三段11號","121.467618333333","25.0236266666667","6500300","中和區"
"235050","4979-A6","2017/08/05 20:39:02","新北市中和區景平路385巷9弄27號","121.502056666667","24.9941433333333","6500300","中和區"
"235069","4980-A6","2017/08/05 20:38:50","新北市中和區連城路308號","121.48373","24.9963316666667","6500300","中和區"
"247020","893-R6","2017/08/05 20:38:54","新北市蘆洲區民族路341號","121.472785","25.09194","6501400","蘆洲區"
"247010","546-UM","2017/08/05 20:38:57","新北市蘆洲區民族路174號","121.479765","25.086635","6501400","蘆洲區"
"247006","341-TH","2017/08/05 20:38:52","新北市蘆洲區和平路121巷8弄6號","121.466811666667","25.08008","6501400","蘆洲區"
"247008","339-TH","2017/08/05 20:38:57","新北市蘆洲區重陽街16號","121.480725","25.0814966666667","6501400","蘆洲區"
"247024","337-TH","2017/08/05 20:38:49","新北市蘆洲區長樂路229號","121.461818333333","25.0895833333333","6501400","蘆洲區"
"247002","336-TH","2017/08/05 20:39:02","新北市蘆洲區長榮路396號","121.459573333333","25.08758","6501400","蘆洲區"
"247014","057-VK","2017/08/05 20:38:52","新北市蘆洲區成功路93號","121.472943333333","25.0812916666667","6501400","蘆洲區"
"247004","056-VK","2017/08/05 20:39:04","新北市蘆洲區長安街297號","121.458028333333","25.0848516666667","6501400","蘆洲區"
"247012","007-UY","2017/08/05 20:38:53","新北市三重區集賢路186號","121.484035","25.0884533333333","6501400","蘆洲區"
"247022","002-UY","2017/08/05 20:38:55","新北市蘆洲區中正路263巷9號","121.466691666667","25.0869","6501400","蘆洲區"
"247016","001-UY","2017/08/05 20:39:02","新北市蘆洲區中山二路288號","121.468813333333","25.0777516666667","6501400","蘆洲區"
"224008","275-VK","2017/08/05 20:38:56","新北市瑞芳區傑魚坑路261號","121.787238333333","25.1062183333333","6501200","瑞芳區"
"251002","012-UM","2017/08/05 20:39:05","新北市淡水區中正路38-1號","121.443688333333","25.1693283333333","6501000","淡水區"
"251014","180-VK","2017/08/05 20:39:02","新北市淡水區桂竹圍10-1號","121.471153333333","25.2319033333333","6501000","淡水區"
"251010","413-VK","2017/08/05 20:39:03","新北市淡水區沙崙路181巷1號","121.42401","25.1843433333333","6501000","淡水區"
"251012","441-VK","2017/08/05 20:38:45","新北市淡水區興仁路105號","121.451483333333","25.2180616666667","6501000","淡水區"
"251016","442-VK","2017/08/05 20:38:50","新北市淡水區後洲子16-1號","121.449508333333","25.22403","6501000","淡水區"
"251001","559-UM","2017/08/05 20:38:56","新北市淡水區水源街二段189-2號","121.4565","25.1761266666667","6501000","淡水區"
"251006","561-UM","2017/08/05 20:38:55","新北市淡水區商工路186巷21號","121.450741666667","25.187065","6501000","淡水區"
"251003","673-BX","2017/08/05 20:38:58","新北市淡水區新民街120巷13號","121.43813","25.177955","6501000","淡水區"
"252001","702-TV","2017/08/05 20:38:50","新北市三芝區中山路一段155號","121.502443333333","25.255905","6502100","三芝區"
"236079","166-UM","2017/08/05 20:39:00","新北市樹林區中山路三段214號","121.380478333333","24.9666983333333","6501300","土城區"
"236063","752-BX","2017/08/05 20:37:53","新北市樹林區中山路三段210-2號","121.382058333333","24.9658083333333","6501300","土城區"
"242021","AAC-296","2017/08/05 20:38:49","新北市新莊區公園路98號","121.450675","25.0398333333333","6500500","新莊區"
"242029","986-R7","2017/08/05 20:39:08","新北市新莊區中華路二段151號","121.452816666667","25.05144","6500500","新莊區"
"242048","751-BX","2017/08/05 20:38:50","新北市新莊區中正路797號","121.421345","25.0284366666667","6500500","新莊區"
"242025","615-BX","2017/08/05 20:38:51","新北市三重區重化街169-10號","121.465725","25.0651333333333","6500500","新莊區"
"242023","613-BX","2017/08/05 20:38:50","新北市新莊區化成路150號","121.465378333333","25.04493","6500500","新莊區"
"242027","612-BX","2017/08/05 20:39:06","新北市新莊區思源路65號","121.459895","25.0404833333333","6500500","新莊區"
"242036","566-BX","2017/08/05 20:38:53","新北市新莊區後港一路94巷3弄2號","121.428036666667","25.0262666666667","6500500","新莊區"
"242004","442-UM","2017/08/05 20:39:01","新北市新莊區化成路349巷74號","121.463325","25.056445","6500500","新莊區"
"242051","440-UM","2017/08/05 20:38:50","新北市新莊區民安西路152號","121.426146666667","25.016495","6500500","新莊區"
"242031","415-TV","2017/08/05 20:39:03","新北市新莊區三和路60-12號","121.437573333333","25.0402033333333","6500500","新莊區"
"242002","413-TV","2017/08/05 20:39:08","新北市新莊區中正路94號","121.455255","25.0367216666667","6500500","新莊區"
"242039","400-BY","2017/08/05 20:39:03","新北市新莊區民安路342號","121.42937","25.0223316666667","6500500","新莊區"
"242061","362-BY","2017/08/05 20:39:08","新北市新莊區新樹路258巷3號","121.432088333333","25.015535","6500500","新莊區"
"242058","353-BY","2017/08/05 20:39:04","新北市新莊區四維路169號","121.422411666667","25.02155","6500500","新莊區"
"242042","132-UY","2017/08/05 20:39:04","新北市新莊區天祥街15巷1號","121.417038333333","25.0274283333333","6500500","新莊區"
"242034","133-UY","2017/08/05 20:38:55","新北市新莊區中正路334巷17號","121.445688333333","25.03557","6500500","新莊區"
"242019","135-UY","2017/08/05 20:38:57","新北市新莊區銘德街140號","121.454693333333","25.04282","6500500","新莊區"
"242044","172-VK","2017/08/05 20:38:47","新北市新莊區中正路新生巷85弄1號","121.417118333333","25.0217583333333","6500500","新莊區"
"242007","173-VK","2017/08/05 20:38:55","新北市新莊區思源路205號","121.459821666667","25.0458533333333","6500500","新莊區"
"242013","175-VK","2017/08/05 20:38:54","新北市新莊區中平路302巷6號","121.445416666667","25.051645","6500500","新莊區"
"242055","176-VK","2017/08/05 20:38:53","新北市新莊區瓊泰路105號","121.443205","25.030035","6500500","新莊區"
"242011","346-TH","2017/08/05 20:38:58","新北市新莊區中榮街104巷11弄6號","121.447058333333","25.0534866666667","6500500","新莊區"
"242017","348-TH","2017/08/05 20:39:03","新北市新莊區中和街57巷2號","121.447966666667","25.04486","6500500","新莊區"
"242053","349-TH","2017/08/05 20:39:03","新北市新莊區西盛街321號","121.42816","25.0147433333333","6500500","新莊區"
"242015","350-TH","2017/08/05 20:38:56","新北市新莊區中平路82巷9號","121.445301666667","25.0449516666667","6500500","新莊區"
"242009","351-TH","2017/08/05 20:38:54","新北市新莊區幸福路564巷2弄2號","121.454483333333","25.049505","6500500","新莊區"
"238023","601-UM","2017/08/05 20:38:53","新北市樹林區育德街78-1號","121.387461666667","24.9682733333333","6500700","樹林區"
"221008","489-VK","2017/08/05 20:39:01","新北市汐止區康寧街706-2號","121.638446666667","25.0730066666667","6501100","汐止區"
"221036","130-UY","2017/08/05 20:39:01","新北市汐止區新昌路11號","121.661966666667","25.0672333333333","6501100","汐止區"
"221015","131-UY","2017/08/05 20:38:48","新北市汐止區建成路39號","121.662815","25.0729983333333","6501100","汐止區"
"221010","269-BY","2017/08/05 20:38:56","新北市汐止區八連路一段530巷4號","121.639161666667","25.0925066666667","6501100","汐止區"
"221012","278-VK","2017/08/05 20:38:50","新北市汐止區大同路三段241號","121.673016666667","25.076485","6501100","汐止區"
"221023","279-VK","2017/08/05 02:05:44","新北市汐止區康寧街901號","121.651728333333","25.0749916666667","6501100","汐止區"
"221032","280-BY","2017/08/05 20:39:05","新北市汐止區橫科路221巷19-1號","121.621526666667","25.0494966666667","6501100","汐止區"
"221027","281-BY","2017/08/05 20:38:55","新北市汐止區大同路二段435號","121.659148333333","25.0673166666667","6501100","汐止區"
"221038","297-VK","2017/08/05 20:39:03","新北市汐止區水源路一段56-1號","121.657186666667","25.0654066666667","6501100","汐止區"
"221029","298-VK","2017/08/05 20:39:06","新北市汐止區大同路一段515巷4號","121.64548","25.0625016666667","6501100","汐止區"
"221021","299-VK","2017/08/05 14:52:07","新北市汐止區南興路9號","121.652165","25.0625366666667","6501100","汐止區"
"221031","353-TW","2017/08/05 20:38:59","新北市汐止區中興路98號","121.63444","25.0623516666667","6501100","汐止區"
"221035","622-UM","2017/08/05 20:38:49","新北市汐止區長江街101-5號","121.658733333333","25.073245","6501100","汐止區"
"221025","623-UM","2017/08/05 20:39:03","新北市汐止區水源路二段221號","121.658356666667","25.0517916666667","6501100","汐止區"
"221033","647-BX","2017/08/05 20:39:02","新北市汐止區合順街18巷8弄5號","121.620371666667","25.0419216666667","6501100","汐止區"
"221002","707-TV","2017/08/05 20:38:48","新北市汐止區福德二路132巷2號","121.63113","25.0652666666667","6501100","汐止區"
"221018","753-BX","2017/08/05 20:38:59","新北市汐止區茄苳路220號","121.670835","25.068745","6501100","汐止區"
"220083","286-VK","2017/08/05 20:38:50","新北市板橋區僑中二街106巷1號","121.445761666667","25.0075333333333","6500100","板橋區"
"220065","295-UM","2017/08/05 18:45:20","新北市板橋區民生路二段17號","121.47253","25.0163","6500100","板橋區"
"220089","487-VK","2017/08/05 20:38:57","新北市板橋區長江路一段188號","121.462091666667","25.0304166666667","6500100","板橋區"
"220103","561-BX","2017/08/05 20:38:57","新北市板橋區漢生東路53巷16號","121.466501666667","25.0171916666667","6500100","板橋區"
"220070","AAC-253","2017/08/05 20:39:05","新北市五股區新五路二段126號","121.437896666667","25.076585","6500100","板橋區"
