"lineid","car","time","location","longitude","latitude","cityid","cityname"
"244019","403-UM","2017/08/05 21:03:30","新北市林口區粉寮69號","121.40511","25.09077","6501700","林口區"
"244016","485-VK","2017/08/05 20:54:14","新北市林口區粉寮69號","121.405036666667","25.0908516666667","6501700","林口區"
"231063","268-BY","2017/08/05 22:49:03","新北市新店區柴埕路100-1號","121.503465","24.95949","6500600","新店區"
"231064","515-UM","2017/08/05 22:48:59","新北市新店區薏仁坑路自強巷6號","121.496351666667","24.9582316666667","6500600","新店區"
"241005","060-VK","2017/08/05 22:49:05","新北市五股區中興路三段163號","121.449006666667","25.0810266666667","6500200","三重區"
"247001","336-TH","2017/08/05 22:37:08","新北市五股區中興路三段163號","121.449055","25.0809166666667","6501400","蘆洲區"
"220065","295-UM","2017/08/05 18:45:20","新北市板橋區民生路二段17號","121.47253","25.0163","6500100","板橋區"
