"lineid","car","time","location","longitude","latitude","cityid","cityname"
"241031","841-RS","2017/09/25 16:52:17","新北市永和區保生路55-8號","121.50403","25.0103883333333","6500200","三重區"
"249005","172-UM","2017/09/25 17:18:22","新北市五股區凌雲路三段130號","121.417396666667","25.1281766666667","6502300","八里區"
"249001","173-UM","2017/09/25 17:18:30","新北市八里區中華路二段165巷3號","121.407636666667","25.1509066666667","6502300","八里區"
"249004","303-UY","2017/09/25 17:18:34","新北市八里區文化街39號","121.423386666667","25.15984","6502300","八里區"
"249002","305-UY","2017/09/25 17:18:27","新北市八里區龍米路二段117巷30弄2號","121.444596666667","25.1427016666667","6502300","八里區"
"249003","593-UM","2017/09/25 17:18:21","新北市八里區商港路50號","121.395605","25.1459783333333","6502300","八里區"
"234022","9380-KE","2017/09/25 16:50:09","新北市永和區福和路1號","121.5263","25.0098816666667","6500400","永和區"
"244013","069-UM","2017/09/25 17:18:32","新北市林口區粉寮69號","121.40505","25.0908566666667","6501700","林口區"
"244007","080-UY","2017/09/25 17:18:25","新北市林口區菁埔20號","121.37776","25.0965166666667","6501700","林口區"
"244019","403-UM","2017/09/25 17:18:20","新北市林口區文化一路一段190巷7弄2-1號","121.38023","25.0749083333333","6501700","林口區"
"244009","410-SL","2017/09/25 17:18:21","新北市林口區文化北路二段550巷3號","121.378455","25.0923116666667","6501700","林口區"
"244023","483-VK","2017/09/25 17:18:22","新北市林口區仁愛路一段667巷42號","121.387085","25.0761033333333","6501700","林口區"
"244017","485-VK","2017/09/25 17:18:26","新北市林口區粉寮69號","121.404985","25.0908633333333","6501700","林口區"
"244011","656-BX","2017/09/25 17:18:33","新北市林口區粉寮路一段135號","121.398973333333","25.0811016666667","6501700","林口區"
"244025","837-TS","2017/09/25 17:18:33","新北市林口區中山路262-1號","121.384381666667","25.080155","6501700","林口區"
"244021","838-TS","2017/09/25 17:18:27","新北市林口區粉寮62號","121.406928333333","25.08948","6501700","林口區"
"222003","436-BY","2017/09/25 15:50:53","新北市深坑區深南路51-1號","121.621173333333","25.0099583333333","6501800","深坑區"
"231046","278-BY","2017/09/25 17:18:32","新北市新店區直潭路92號","121.530906666667","24.9376216666667","6500600","新店區"
"241011","013-R5","2017/09/25 17:18:30","新北市三重區河邊北街100巷12號","121.50342","25.0703216666667","6500200","三重區"
"241028","022-UY","2017/09/25 17:18:20","新北市三重區仁化商場3號","121.493523333333","25.0595216666667","6500200","三重區"
"241008","059-VK","2017/09/25 17:18:15","新北市三重區下竹圍街34號","121.481058333333","25.0751316666667","6500200","三重區"
"241009","060-VK","2017/09/25 17:18:27","新北市三重區仁愛街616號","121.48362","25.0806433333333","6500200","三重區"
"241015","062-VK","2017/09/25 17:18:32","新北市三重區福德北路89號","121.50187","25.0662583333333","6500200","三重區"
"241017","063-VK","2017/09/25 17:18:29","新北市三重區中正北路23號","121.492448333333","25.0618833333333","6500200","三重區"
"241024","065-VK","2017/09/25 17:18:28","新北市三重區中正北路165巷75號","121.479363333333","25.0711566666667","6500200","三重區"
"241026","066-VK","2017/09/25 17:18:28","新北市三重區文化南路31-1號","121.500198333333","25.0616916666667","6500200","三重區"
"241002","090-VK","2017/09/25 17:18:27","新北市三重區五華街37號","121.494723333333","25.08102","6500200","三重區"
"241003","091-VK","2017/09/25 17:18:20","新北市三重區富福街66號","121.492121666667","25.0846766666667","6500200","三重區"
"241007","156-TC","2017/09/25 17:18:33","新北市三重區三和路四段163巷12號","121.483863333333","25.078865","6500200","三重區"
"241005","262-UM","2017/09/25 17:18:34","新北市三重區碧華街50號","121.483503333333","25.081255","6500200","三重區"
"241016","266-UM","2017/09/25 17:18:24","新北市三重區新北大道一段9號","121.489353333333","25.06129","6500200","三重區"
"241022","267-UM","2017/09/25 17:18:26","新北市三重區重陽路二段34巷43號","121.485486666667","25.0640666666667","6500200","三重區"
"241013","270-UM","2017/09/25 17:18:36","新北市三重區仁愛街96號","121.495396666667","25.074045","6500200","三重區"
"241025","271-UM","2017/09/25 17:18:26","新北市五股區中興路一段2號","121.469775","25.0722966666667","6500200","三重區"
"241032","KEA-2210","2017/09/25 17:18:30","新北市三重區興華街117號","121.483545","25.059845","6500200","三重區"
"241020","413-TH","2017/09/25 17:18:38","新北市三重區忠孝路一段165號","121.487733333333","25.0720333333333","6500200","三重區"
"241004","475-VK","2017/09/25 17:18:33","新北市三重區五華街110巷9號","121.491591666667","25.0825466666667","6500200","三重區"
"241019","478-VK","2017/09/25 17:18:32","新北市三重區忠孝路二段4-1號","121.486653333333","25.07132","6500200","三重區"
"241030","480-VK","2017/09/25 17:18:33","新北市三重區環河南路254巷51號","121.488886666667","25.051785","6500200","三重區"
"241014","543-UM","2017/09/25 17:18:27","新北市三重區三和路二段83號","121.500066666667","25.0683733333333","6500200","三重區"
"241023","545-UM","2017/09/25 17:18:19","新北市三重區三民街211號","121.481348333333","25.066155","6500200","三重區"
"241018","887-TS","2017/09/25 17:18:30","新北市三重區安慶街123號","121.4949","25.0689466666667","6500200","三重區"
"241012","941-UM","2017/09/25 17:18:27","新北市三重區河邊北街256巷16號","121.501373333333","25.0760883333333","6500200","三重區"
"241029","942-UM","2017/09/25 17:18:23","新北市三重區重新路三段196號","121.490215","25.0588733333333","6500200","三重區"
"241033","AAC-255","2017/09/25 17:18:37","新北市三重區光復路二段88巷65號","121.469171666667","25.0570683333333","6500200","三重區"
"235064","005-UY","2017/09/25 16:59:44","新北市中和區員山路36巷16-3號","121.485023333333","24.9912033333333","6500300","中和區"
"235061","378-QA","2017/09/25 15:39:33","新北市中和區員山路36巷13號","121.483821666667","24.9917116666667","6500300","中和區"
"235062","911-UM","2017/09/25 17:11:26","新北市中和區員山路36巷16-3號","121.485051666667","24.99142","6500300","中和區"
"247022","893-R6","2017/09/25 17:18:18","新北市蘆洲區三民路128巷15號","121.470498333333","25.08846","6501400","蘆洲區"
"247012","546-UM","2017/09/25 17:18:26","新北市蘆洲區信義路321號","121.478325","25.0864916666667","6501400","蘆洲區"
"247020","500-BY","2017/09/25 17:18:18","新北市蘆洲區民族路426號","121.47371","25.0918933333333","6501400","蘆洲區"
"247010","339-TH","2017/09/25 17:18:30","新北市蘆洲區中山一路120巷7弄20號","121.477485","25.0820866666667","6501400","蘆洲區"
"247002","337-TH","2017/09/25 17:18:34","新北市蘆洲區永樂街38巷33弄54號","121.456633333333","25.0899566666667","6501400","蘆洲區"
"247004","336-TH","2017/09/25 17:18:20","新北市蘆洲區永安南路二段274號","121.458298333333","25.0810416666667","6501400","蘆洲區"
"247016","057-VK","2017/09/25 17:18:22","新北市蘆洲區正和街116號","121.46754","25.0809433333333","6501400","蘆洲區"
"247006","056-VK","2017/09/25 17:18:36","新北市蘆洲區長安街73巷25號","121.461941666667","25.079265","6501400","蘆洲區"
"247008","053-VK","2017/09/25 17:18:25","新北市蘆洲區信義路34巷122-1號","121.475978333333","25.0768466666667","6501400","蘆洲區"
"247014","007-UY","2017/09/25 17:18:28","新北市蘆洲區得勝街118號","121.47097","25.0828066666667","6501400","蘆洲區"
"247024","002-UY","2017/09/25 17:18:25","新北市蘆洲區長榮路98號","121.46213","25.0837516666667","6501400","蘆洲區"
"247018","001-UY","2017/09/25 17:18:20","新北市蘆洲區民權路98號","121.474176666667","25.0881033333333","6501400","蘆洲區"
"228003","097-TW","2017/09/25 17:18:20","新北市貢寮區福隆里東興街102號","121.946096666667","25.0169066666667","6502600","貢寮區"
"228002","585-TW","2017/09/25 17:18:18","新北市貢寮區雙玉里下雙溪街24號","121.921163333333","25.0099183333333","6502600","貢寮區"
"228001","670-TC","2017/09/25 17:18:24","新北市貢寮區仁理村尖山腳街18-3號","121.925473333333","25.04834","6502600","貢寮區"
"224006","676-BX","2017/09/25 17:18:25","新北市瑞芳區大寮路63巷8號","121.778581666667","25.0945366666667","6501200","瑞芳區"
"224009","285-BY","2017/09/25 17:18:33","新北市瑞芳區石崁巷49號","121.837641666667","25.1095666666667","6501200","瑞芳區"
"224008","275-VK","2017/09/25 17:18:35","新北市瑞芳區侯硐路146號","121.826241666667","25.0839066666667","6501200","瑞芳區"
"224005","271-BY","2017/09/25 17:18:32","新北市瑞芳區鼻頭路97號","121.91605","25.1240216666667","6501200","瑞芳區"
"227008","642-TC","2017/09/25 17:18:25","新北市雙溪區三貂里定福路1-2號","121.850393333333","25.0638183333333","6502500","雙溪區"
"227001","400-TW","2017/09/25 17:18:35","新北市雙溪區上林里內平林75號","121.830041666667","25.0285666666667","6502500","雙溪區"
"251009","008-UM","2017/09/25 17:18:21","新北市淡水區三民街20號","121.438986666667","25.1717266666667","6501000","淡水區"
"251004","009-UM","2017/09/25 17:18:34","新北市淡水區中正東路二段88巷15號","121.459163333333","25.1505266666667","6501000","淡水區"
"251007","179-VK","2017/09/25 17:18:31","新北市淡水區民生路60號","121.462171666667","25.1379883333333","6501000","淡水區"
"251008","181-VK","2017/09/25 17:18:20","新北市淡水區大同路269號","121.466978333333","25.14223","6501000","淡水區"
"251013","182-VK","2017/09/25 17:18:23","新北市淡水區竹圍子8-1號","121.477176666667","25.1936783333333","6501000","淡水區"
"251010","413-VK","2017/09/25 17:18:16","新北市淡水區中正路二段215號","121.426225","25.18922","6501000","淡水區"
"251012","441-VK","2017/09/25 17:18:25","新北市淡水區中山北路一段156號","121.444151666667","25.1779016666667","6501000","淡水區"
"251015","442-VK","2017/09/25 17:18:21","新北市淡水區三空泉17-6號","121.474168333333","25.1659083333333","6501000","淡水區"
"251005","443-VK","2017/09/25 17:18:28","新北市淡水區鄧公路19-1號","121.450315","25.1700016666667","6501000","淡水區"
"251006","561-UM","2017/09/25 17:18:21","新北市淡水區新生街45號","121.440291666667","25.174875","6501000","淡水區"
"251011","650-BX","2017/09/25 17:18:34","新北市淡水區坪頂路128號","121.465191666667","25.1611183333333","6501000","淡水區"
"251003","766-UM","2017/09/25 17:18:27","新北市淡水區中正路二段16號","121.420336666667","25.1808483333333","6501000","淡水區"
"207003","550-UM","2017/09/25 17:18:34","新北市萬里區萬里里瑪鋉路278號","121.688596666667","25.1811616666667","6502800","萬里區"
"252002","178-VK","2017/09/25 17:18:33","新北市三芝區忠孝街1-14號","121.505516666667","25.2539683333333","6502100","三芝區"
"252001","292-VK","2017/09/25 17:18:17","新北市三芝區長安街119號","121.49805","25.2596866666667","6502100","三芝區"
"237001","159-BY","2017/09/25 14:49:58","新北市三峽區中山路459巷163-3號","121.348895","24.933095","6500900","三峽區"
"237015","649-BX","2017/09/25 17:18:33","新北市三峽區中山路323號","121.360675","24.9380983333333","6500900","三峽區"
"242031","AAC-296","2017/09/25 15:02:07","新北市新莊區新泰路357巷3弄57號","121.442173333333","25.0394233333333","6500500","新莊區"
"242050","751-BX","2017/09/25 17:18:21","新北市新莊區瓊林路59-88號","121.439611666667","25.0211916666667","6500500","新莊區"
"242029","705-TV","2017/09/25 17:18:22","新北市新莊區中和街174號","121.447388333333","25.0492016666667","6500500","新莊區"
"242025","615-BX","2017/09/25 17:18:28","新北市新莊區中平路108號","121.44499","25.0457166666667","6500500","新莊區"
"242023","613-BX","2017/09/25 17:18:18","新北市新莊區中平路116號","121.44483","25.046305","6500500","新莊區"
"242027","612-BX","2017/09/25 17:18:33","新北市新莊區中平路82巷4號","121.445","25.0448383333333","6500500","新莊區"
"242039","566-BX","2017/09/25 17:18:20","新北市新莊區新樹路66號","121.436968333333","25.0260483333333","6500500","新莊區"
"242044","497-BY","2017/09/25 17:18:26","新北市新莊區富國路101-1號","121.421331666667","25.0255383333333","6500500","新莊區"
"242048","441-UM","2017/09/25 17:18:36","新北市新莊區龍安路253號","121.4197","25.0200516666667","6500500","新莊區"
"242053","440-UM","2017/09/25 17:18:24","新北市新莊區瓊林路59-89號","121.442131666667","25.024375","6500500","新莊區"
"242004","413-TV","2017/09/25 17:18:27","新北市新莊區新泰路486號","121.442563333333","25.0457566666667","6500500","新莊區"
"242042","400-BY","2017/09/25 17:18:29","新北市新莊區新樹路113巷25號","121.439506666667","25.026395","6500500","新莊區"
"242060","362-BY","2017/09/25 17:18:29","新北市泰山區磚雅厝3號","121.44197","25.041965","6500500","新莊區"
"242058","353-BY","2017/09/25 17:18:26","新北市新莊區三和路12-18號","121.442298333333","25.03761","6500500","新莊區"
"242007","132-UY","2017/09/25 17:18:22","新北市新莊區新泰路488號","121.44244","25.045795","6500500","新莊區"
"242036","133-UY","2017/09/25 17:18:16","新北市新莊區新樹路67巷3號","121.441735","25.03071","6500500","新莊區"
"242021","135-UY","2017/09/25 17:18:37","新北市新莊區中平路82巷2號","121.444913333333","25.04484","6500500","新莊區"
"242046","172-VK","2017/09/25 17:18:20","新北市新莊區新樹路4-2號","121.440648333333","25.0329033333333","6500500","新莊區"
"242009","173-VK","2017/09/25 14:02:22","新北市新莊區新泰路255巷83號","121.442258333333","25.0387866666667","6500500","新莊區"
"242015","175-VK","2017/09/25 17:18:23","新北市新莊區新泰路355號","121.44439","25.0422016666667","6500500","新莊區"
"242002","176-VK","2017/09/25 17:18:19","新北市泰山區磚雅厝6號","121.442153333333","25.0423066666667","6500500","新莊區"
"242013","346-TH","2017/09/25 10:37:31","新北市新莊區三和路16-3號","121.441185","25.0373066666667","6500500","新莊區"
"242019","348-TH","2017/09/25 17:18:29","新北市新莊區中平路82巷2號","121.444773333333","25.044805","6500500","新莊區"
"242056","349-TH","2017/09/25 10:56:34","新北市新莊區三和路12-16號","121.442055","25.03747","6500500","新莊區"
"242017","350-TH","2017/09/25 17:18:21","新北市新莊區中華路一段103號","121.45278","25.04388","6500500","新莊區"
"242011","351-TH","2017/09/25 17:18:27","新北市新莊區中平路114號","121.444846666667","25.0462583333333","6500500","新莊區"
"238023","601-UM","2017/09/25 17:18:26","新北市樹林區中正路433號","121.415065","25.0085033333333","6500700","樹林區"
"238019","599-UM","2017/09/25 17:18:21","新北市樹林區八德街295號","121.422673333333","24.9788616666667","6500700","樹林區"
"238018","571-TV","2017/09/25 17:18:17","新北市板橋區篤行路三段98號","121.425841666667","24.9848083333333","6500700","樹林區"
"238024","5061-A6","2017/09/25 17:18:33","新北市樹林區博愛一街29巷68號","121.425876666667","24.991545","6500700","樹林區"
"238021","KEA-2217","2017/09/25 17:18:28","新北市樹林區西圳街一段165巷20弄28號","121.395618333333","24.9601033333333","6500700","樹林區"
"238022","KEA-2213","2017/09/25 17:18:31","新北市樹林區國凱街122巷1號","121.422806666667","24.9800433333333","6500700","樹林區"
"238025","303-VK","2017/09/25 17:18:33","新北市樹林區保安二街69號","121.42464","24.9949833333333","6500700","樹林區"
"238017","283-BY","2017/09/25 17:18:28","新北市樹林區光武街28號","121.415818333333","25.0055066666667","6500700","樹林區"
"238001","282-BY","2017/09/25 17:18:18","新北市樹林區中正路22-1號","121.427806666667","24.9996933333333","6500700","樹林區"
"238020","268-VK","2017/09/25 17:18:17","新北市樹林區中正路22-1號","121.427805","24.9994","6500700","樹林區"
"238026","172-UY","2017/09/25 17:18:35","新北市樹林區味王街35號","121.40499","24.974135","6500700","樹林區"
"238016","169-UY","2017/09/25 17:18:27","新北市樹林區中山路一段412號","121.417443333333","24.9851","6500700","樹林區"
"239007","AAC-297","2017/09/25 17:18:18","新北市鶯歌區國慶街115巷21號","121.351133333333","24.9544883333333","6500800","鶯歌區"
"239006","891-R6","2017/09/25 17:18:26","新北市鶯歌區福昌街32號","121.332666666667","24.9611116666667","6500800","鶯歌區"
"239008","527-UM","2017/09/25 17:18:24","新北市鶯歌區西湖街曾厝巷19號","121.339485","24.96114","6500800","鶯歌區"
"239005","526-UM","2017/09/25 17:18:28","新北市鶯歌區福德三街3號","121.330053333333","24.9677033333333","6500800","鶯歌區"
"239001","417-VK","2017/09/25 17:18:26","新北市鶯歌區尖山路191巷41號","121.344853333333","24.9464483333333","6500800","鶯歌區"
"239003","360-BY","2017/09/25 17:18:27","新北市鶯歌區德昌二街73號","121.33325","24.9580216666667","6500800","鶯歌區"
"239002","359-BY","2017/09/25 17:18:28","新北市鶯歌區南雅路7號","121.34992","24.95443","6500800","鶯歌區"
"239004","193-VK","2017/09/25 17:18:36","新北市鶯歌區文化路501-18號","121.353753333333","24.9484566666667","6500800","鶯歌區"
"242034","280-VK","2017/09/25 17:18:29","新北市新莊區瓊林路96-4號","121.44408","25.0272716666667","6500500","新莊區"
