"lineid","car","time","location","longitude","latitude","cityid","cityname"
"234044","148-BY","2017/09/25 18:48:31","新北市永和區秀朗路二段66巷8號","121.522686666667","25.00092","6500400","永和區"
"234013","149-BY","2017/09/25 18:48:37","新北市永和區仁愛路202巷32號","121.508861666667","25.0130533333333","6500400","永和區"
"234007","208-UY","2017/09/25 18:48:36","新北市永和區永和路二段216號","121.515656666667","25.0138983333333","6500400","永和區"
"234081","298-R6","2017/09/25 18:48:23","新北市永和區永利路120號","121.52163","25.0030916666667","6500400","永和區"
"234038","336-UY","2017/09/25 18:48:36","新北市永和區成功路二段137號","121.526695","24.9980083333333","6500400","永和區"
"234064","337-UY","2017/09/25 16:28:30","新北市永和區福和路1號","121.526666666667","25.010075","6500400","永和區"
"234086","338-UY","2017/09/25 18:48:33","新北市永和區中正路9號","121.513925","24.9956883333333","6500400","永和區"
"234054","553-UM","2017/09/25 18:48:26","新北市永和區竹林路64號","121.518268333333","25.0135116666667","6500400","永和區"
"234017","745-BX","2017/09/25 18:48:35","新北市永和區忠孝街26巷8號","121.515295","25.0168666666667","6500400","永和區"
"234030","746-BX","2017/09/25 18:48:20","新北市永和區得和路328號","121.523328333333","24.999515","6500400","永和區"
"241031","841-RS","2017/09/25 16:52:17","新北市永和區保生路55-8號","121.50403","25.0103883333333","6500200","三重區"
"234061","AAD-866","2017/09/25 18:48:29","新北市永和區中正路610-1號","121.517145","25.0072733333333","6500400","永和區"
"234042","862-TW","2017/09/25 18:48:31","新北市永和區中和路625號","121.512945","25.005","6500400","永和區"
"234050","863-TW","2017/09/25 18:48:19","新北市永和區保安路2號","121.510795","25.0176133333333","6500400","永和區"
"234011","9373-KE","2017/09/25 18:48:21","新北市永和區文化路124號","121.513088333333","25.0153633333333","6500400","永和區"
"249005","172-UM","2017/09/25 18:48:21","新北市八里區長道坑17號","121.396171666667","25.1158","6502300","八里區"
"249001","173-UM","2017/09/25 18:48:30","新北市八里區龍米路二段16號","121.44902","25.139075","6502300","八里區"
"249004","303-UY","2017/09/25 18:48:34","新北市八里區中山路一段268巷16號","121.415255","25.1600383333333","6502300","八里區"
"248014","025-BX","2017/09/25 18:48:17","新北市五股區中興路四段74號","121.436965","25.0836933333333","6501500","五股區"
"248016","026-BX","2017/09/25 18:48:35","新北市五股區凌雲路一段149巷42號","121.448603333333","25.1010066666667","6501500","五股區"
"248006","077-UY","2017/09/25 18:48:24","新北市五股區中興路二段37巷11弄16號","121.46103","25.0737033333333","6501500","五股區"
"248008","095-VK","2017/09/25 18:48:15","新北市五股區中興路一段151巷60號","121.465161666667","25.0721416666667","6501500","五股區"
"248018","225-UY","2017/09/25 18:48:22","新北市五股區民義路二段66-1號","121.406208333333","25.1083233333333","6501500","五股區"
"248010","272-BY","2017/09/25 18:48:30","新北市五股區水碓七路81號","121.429695","25.0722333333333","6501500","五股區"
"248012","655-BX","2017/09/25 18:48:26","新北市五股區成泰路二段147巷23-9號","121.437551666667","25.0873666666667","6501500","五股區"
"248004","677-BX","2017/09/25 18:48:36","新北市五股區民義路二段50-16號","121.4127","25.1023216666667","6501500","五股區"
"248002","678-BX","2017/09/25 18:48:27","新北市五股區成泰路三段437號","121.449908333333","25.0978216666667","6501500","五股區"
"234023","9380-KE","2017/09/25 18:48:23","新北市永和區竹林路119巷45號","121.52184","25.0118333333333","6500400","永和區"
"234077","969-R7","2017/09/25 18:48:29","新北市中和區景平路288號","121.513233333333","24.9931016666667","6500400","永和區"
"234074","AAC-211","2017/09/25 18:48:21","新北市永和區福和路1號","121.526558333333","25.0098883333333","6500400","永和區"
"234067","AAC-212","2017/09/25 18:48:20","新北市永和區中和路625號","121.512955","25.0050133333333","6500400","永和區"
"234003","AAC-295","2017/09/25 18:48:31","新北市永和區中正路748號","121.514775","25.0103216666667","6500400","永和區"
"232011","375-UM","2017/09/25 18:48:11","新北市坪林區坪雙路一段43號","121.711811666667","24.9424466666667","6502000","坪林區"
"244013","069-UM","2017/09/25 18:48:32","新北市林口區文化一路一段100巷10弄16號","121.374833333333","25.0712816666667","6501700","林口區"
"244007","080-UY","2017/09/25 18:48:25","新北市林口區太平嶺15號","121.377998333333","25.1147916666667","6501700","林口區"
"244019","403-UM","2017/09/25 18:48:20","新北市林口區忠孝路569巷55號","121.37474","25.0689633333333","6501700","林口區"
"244009","410-SL","2017/09/25 18:48:21","新北市林口區竹林路326巷25號","121.392331666667","25.082175","6501700","林口區"
"244023","483-VK","2017/09/25 18:48:22","新北市林口區信義路281-1號","121.376145","25.0817933333333","6501700","林口區"
"244017","485-VK","2017/09/25 18:48:26","新北市林口區文化二路一段20巷25弄61號","121.36611","25.0676816666667","6501700","林口區"
"244011","656-BX","2017/09/25 18:48:33","新北市林口區仁愛路一段285巷90號","121.394956666667","25.0749816666667","6501700","林口區"
"244025","837-TS","2017/09/25 18:48:33","新北市林口區南勢二街162號","121.359183333333","25.0747483333333","6501700","林口區"
"244021","838-TS","2017/09/25 18:48:27","新北市林口區工六路48號","121.399086666667","25.0781916666667","6501700","林口區"
"243013","AAD-798","2017/09/25 18:48:18","新北市泰山區明志路三段206巷1號","121.42333","25.0379066666667","6501600","泰山區"
"243007","380-SR","2017/09/25 18:48:22","新北市泰山區泰林路二段362號","121.4288","25.0637166666667","6501600","泰山區"
"243014","421-VK","2017/09/25 18:48:19","新北市泰山區犁頭窠3-1號","121.422171666667","25.060605","6501600","泰山區"
"243010","KEA-2215","2017/09/25 18:48:18","新北市泰山區公園路67號","121.426","25.0548783333333","6501600","泰山區"
"243011","KEA-2216","2017/09/25 18:48:17","新北市泰山區黎明路22號","121.420998333333","25.061115","6501600","泰山區"
"243012","646-TV","2017/09/25 18:48:35","新北市泰山區泰林路二段73巷29號","121.434363333333","25.057955","6501600","泰山區"
"243016","680-BX","2017/09/25 18:48:25","新北市泰山區泰林路二段290號","121.431008333333","25.0625933333333","6501600","泰山區"
"222003","436-BY","2017/09/25 18:48:30","新北市深坑區翠谷街17巷42弄2號","121.625355","25.0101033333333","6501800","深坑區"
"222001","628-TS","2017/09/25 18:48:18","新北市深坑區松柏街35號","121.638516666667","25.0115316666667","6501800","深坑區"
"222002","659-BX","2017/09/25 18:48:31","新北市深坑區文山路一段69號","121.626955","25.0018816666667","6501800","深坑區"
"231041","002-UM","2017/09/25 18:48:28","新北市新店區安華路28-1號","121.519713333333","24.960855","6500600","新店區"
"231055","0293-UT","2017/09/25 18:48:22","新北市新店區新生街10巷1號","121.540303333333","24.9662616666667","6500600","新店區"
"231059","046-UY","2017/09/25 18:48:31","新北市新店區安華路28-1號","121.51951","24.96081","6500600","新店區"
"231061","047-UY","2017/09/25 18:48:24","新北市新店區安華路28-1號","121.519063333333","24.9608833333333","6500600","新店區"
"231060","106-UY","2017/09/25 18:48:35","新北市新店區安華路28-1號","121.519595","24.960805","6500600","新店區"
"231051","107-UY","2017/09/25 18:48:17","新北市新店區環河路100號","121.536983333333","24.9639466666667","6500600","新店區"
"231047","108-UY","2017/09/25 18:48:31","新北市新店區德正街22號","121.543816666667","24.9722233333333","6500600","新店區"
"231052","187-VK","2017/09/25 18:48:35","新北市新店區新烏路一段105巷2號","121.546216666667","24.9411766666667","6500600","新店區"
"231050","215-TC","2017/09/25 18:48:29","新北市新店區安華路28-1號","121.519806666667","24.9612916666667","6500600","新店區"
"231063","268-BY","2017/09/25 18:48:33","新北市新店區安華路16號","121.51674","24.9580016666667","6500600","新店區"
"231046","278-BY","2017/09/25 18:48:32","新北市新店區直潭路41號","121.53372","24.942605","6500600","新店區"
"231054","AAD-862","2017/09/25 18:48:37","新北市新店區安康路一段164-1號","121.526036666667","24.9630133333333","6500600","新店區"
"231058","3712-VJ","2017/09/25 18:48:27","新北市新店區北宜路一段105巷4弄13號","121.540758333333","24.9554333333333","6500600","新店區"
"231056","4716-K9","2017/09/25 18:48:36","新北市新店區建國路216-1號","121.538368333333","24.9811116666667","6500600","新店區"
"231067","4772-VM","2017/09/25 18:48:29","新北市新店區安康路一段106巷14號","121.527763333333","24.9629616666667","6500600","新店區"
"231065","512-UM","2017/09/25 18:48:15","新北市新店區車子路115-11號","121.506785","24.95468","6500600","新店區"
"231064","515-UM","2017/09/25 18:48:19","新北市新店區安華路28-1號","121.520158333333","24.9610416666667","6500600","新店區"
"231040","619-UM","2017/09/25 18:48:25","新北市新店區秀山路43號","121.531508333333","24.9608166666667","6500600","新店區"
"231042","641-BX","2017/09/25 18:48:23","新北市新店區中正路69號","121.543558333333","24.9701416666667","6500600","新店區"
"231049","719-UM","2017/09/25 18:48:15","新北市新店區中正路454-5號","121.53444","24.9790316666667","6500600","新店區"
"231062","720-UM","2017/09/25 18:48:31","新北市新店區安忠路57巷13號","121.513661666667","24.9575666666667","6500600","新店區"
"231044","897-TW","2017/09/25 18:48:30","新北市新店區寶中路72號","121.547813333333","24.980635","6500600","新店區"
"231045","898-TW","2017/09/25 18:48:23","新北市新店區安華路28-1號","121.519636666667","24.961135","6500600","新店區"
"231043","899-TW","2017/09/25 18:48:25","新北市新店區安康路一段92-1號","121.527785","24.9619983333333","6500600","新店區"
"231066","AKT-0513","2017/09/25 18:48:36","新北市新店區安豐路22巷5-5號","121.501676666667","24.9561083333333","6500600","新店區"
"235066","003-UY","2017/09/25 18:48:26","新北市中和區水源路32巷1號","121.504766666667","25.0032133333333","6500300","中和區"
"235064","005-UY","2017/09/25 18:48:33","新北市中和區連勝街28號","121.498333333333","24.99796","6500300","中和區"
"235063","006-UY","2017/09/25 18:48:22","新北市中和區連城路347巷4弄19號","121.487488333333","24.995585","6500300","中和區"
"235056","096-UM","2017/09/25 18:48:21","新北市中和區員山路611巷1號","121.477923333333","25.0113783333333","6500300","中和區"
"235039","097-UM","2017/09/25 18:48:31","新北市中和區安樂路145號","121.514413333333","24.9969666666667","6500300","中和區"
"235065","098-UM","2017/09/25 18:48:32","新北市中和區莊敬路49巷18號","121.501731666667","25.006215","6500300","中和區"
"235040","150-BY","2017/09/25 18:48:24","新北市中和區保健路106巷26號","121.511265","24.9948033333333","6500300","中和區"
"235058","151-BY","2017/09/25 18:48:33","新北市中和區連城路432號","121.479998333333","24.9949","6500300","中和區"
"235055","183-VK","2017/09/25 18:48:25","新北市板橋區民族路310號","121.47072","25.0065883333333","6500300","中和區"
"235038","185-VK","2017/09/25 18:48:26","新北市中和區立人街14巷52號","121.51837","24.9957033333333","6500300","中和區"
"235013","186-VK","2017/09/25 18:48:30","新北市中和區景安路132巷8號","121.504598333333","24.9943816666667","6500300","中和區"
"235067","255-BX","2017/09/25 18:48:35","新北市中和區新生街13巷1號","121.483385","25.0043","6500300","中和區"
"235044","293-VK","2017/09/25 18:48:23","新北市中和區中興街115巷13號","121.500695","24.992015","6500300","中和區"
"235072","301-VK","2017/09/25 18:48:34","新北市中和區中山路二段102號","121.503283333333","25.0041683333333","6500300","中和區"
"235068","375-QA","2017/09/25 18:48:15","新北市中和區中正路167巷13號","121.49817","24.9929716666667","6500300","中和區"
"235051","376-QA","2017/09/25 18:48:36","新北市中和區工專路143號","121.508566666667","24.97895","6500300","中和區"
"235061","378-QA","2017/09/25 18:48:25","新北市中和區民享街32巷2號","121.47404","25.003285","6500300","中和區"
"235050","4979-A6","2017/09/25 18:48:33","新北市中和區忠孝街62巷9弄10號","121.513136666667","24.983975","6500300","中和區"
"235069","4980-A6","2017/09/25 18:48:35","新北市中和區南山路52巷22號","121.501265","24.997395","6500300","中和區"
"235042","551-UM","2017/09/25 18:48:15","新北市中和區秀朗路三段135巷5弄1號","121.52546","24.99237","6500300","中和區"
"235070","558-UM","2017/09/25 18:48:17","新北市中和區景新街132巷15號","121.504751666667","24.9975466666667","6500300","中和區"
"235045","565-BX","2017/09/25 18:48:24","新北市中和區南山路234號","121.506603333333","24.990075","6500300","中和區"
"235043","611-BX","2017/09/25 18:48:20","新北市中和區景平路19號","121.523091666667","24.9904583333333","6500300","中和區"
"235054","640-BX","2017/09/25 18:48:14","新北市中和區民享街34號","121.473986666667","25.00309","6500300","中和區"
"235060","647-TV","2017/09/25 18:48:26","新北市中和區中山路三段139號","121.474028333333","25.0061283333333","6500300","中和區"
"235046","733-UM","2017/09/25 18:48:31","新北市中和區仁愛街95號","121.511768333333","24.9867933333333","6500300","中和區"
"235057","801-TS","2017/09/25 18:48:32","新北市中和區民安街22巷7號","121.4801","25.0010016666667","6500300","中和區"
"235041","802-TS","2017/09/25 18:48:18","新北市中和區宜安路121號","121.510033333333","24.9980233333333","6500300","中和區"
"235052","805-TS","2017/09/25 18:48:24","新北市中和區興南路三段40號","121.496593333333","24.9779583333333","6500300","中和區"
"235048","896-TW","2017/09/25 18:48:24","新北市中和區興南路二段30巷2號","121.507321666667","24.985735","6500300","中和區"
"235053","900-TW","2017/09/25 18:48:25","新北市中和區華安街16巷9號","121.465961666667","24.99784","6500300","中和區"
"235062","911-UM","2017/09/25 18:48:18","新北市中和區中山路二段312巷45弄1號","121.494903333333","25.004415","6500300","中和區"
"235037","AAC-213","2017/09/25 18:48:27","新北市中和區秀朗路三段175巷4號","121.524695","24.9913433333333","6500300","中和區"
"235059","AAC-215","2017/09/25 18:48:15","新北市中和區圓通路385號","121.490211666667","24.9892133333333","6500300","中和區"
"220068","013-TV","2017/09/25 18:48:26","新北市板橋區介壽街117號","121.470461666667","25.0187566666667","6500100","板橋區"
"220062","072-UY","2017/09/25 18:48:31","新北市板橋區中山路一段19號","121.459528333333","25.0086333333333","6500100","板橋區"
"220086","073-UY","2017/09/25 18:48:22","新北市板橋區南雅西路二段180巷8號","121.452035","25.0139433333333","6500100","板橋區"
"220106","075-UY","2017/09/25 18:48:30","新北市板橋區民生路二段161巷5號","121.47024","25.0197666666667","6500100","板橋區"
"220069","AAD-861","2017/09/25 18:48:18","新北市板橋區南雅南路二段120-2號","121.45232","24.999815","6500100","板橋區"
"247008","053-VK","2017/09/25 18:48:25","新北市五股區成泰路一段98巷77號","121.451921666667","25.079015","6501400","蘆洲區"
"226004","205-ST","2017/09/25 18:48:18","新北市平溪區平溪里平溪街46號","121.738293333333","25.0268133333333","6502400","平溪區"
"228003","097-TW","2017/09/25 18:48:27","新北市貢寮區和美里龍洞街1-5號","121.919031666667","25.1124","6502600","貢寮區"
"228002","585-TW","2017/09/25 18:48:18","新北市貢寮區福隆里東興街6-11號","121.950731666667","25.021065","6502600","貢寮區"
"228001","670-TC","2017/09/25 18:48:23","新北市貢寮區仁理村保健街71號","121.923718333333","25.0516416666667","6502600","貢寮區"
"224006","676-BX","2017/09/25 18:48:25","新北市瑞芳區明燈路三段150號","121.804076666667","25.1085783333333","6501200","瑞芳區"
"224009","285-BY","2017/09/25 18:48:33","新北市瑞芳區祈堂路2號","121.859798333333","25.1116583333333","6501200","瑞芳區"
"224008","275-VK","2017/09/25 18:48:35","新北市瑞芳區逢甲路275號","121.801663333333","25.1119666666667","6501200","瑞芳區"
"224007","273-VK","2017/09/25 18:48:33","新北市瑞芳區大埔路146號","121.761886666667","25.1009433333333","6501200","瑞芳區"
"224005","271-BY","2017/09/25 18:48:32","新北市瑞芳區建基路一段4號","121.820571666667","25.12087","6501200","瑞芳區"
"227008","642-TC","2017/09/25 18:48:30","新北市雙溪區牡丹里聖南31-1號","121.855958333333","25.05395","6502500","雙溪區"
"227001","400-TW","2017/09/25 18:48:22","新北市雙溪區共和里泰和街1號","121.863443333333","25.034595","6502500","雙溪區"
"253005","032-BX","2017/09/25 18:48:21","新北市石門區中山路9號","121.565428333333","25.2906083333333","6502200","石門區"
"253006","295-VK","2017/09/25 18:48:32","新北市石門區下員坑15號","121.511685","25.28486","6502200","石門區"
"208002","742-BX","2017/09/25 18:48:30","新北市金山區信義路60號","121.635736666667","25.219025","6502700","金山區"
"208003","665-BX","2017/09/25 18:48:21","新北市金山區中山路393號","121.633426666667","25.2252166666667","6502700","金山區"
"208001","761-BX","2017/09/25 18:48:18","新北市金山區文化三路66巷2弄1號","121.634326666667","25.2256983333333","6502700","金山區"
"251009","008-UM","2017/09/25 18:48:21","新北市淡水區重建街163號","121.440653333333","25.1738616666667","6501000","淡水區"
"251001","011-UM","2017/09/25 18:48:23","新北市淡水區自強路341號","121.463735","25.132705","6501000","淡水區"
"251008","181-VK","2017/09/25 18:48:20","新北市淡水區新市二路四段265號","121.445306666667","25.1924466666667","6501000","淡水區"
"251013","182-VK","2017/09/25 18:48:23","新北市淡水區安子內5-1號","121.48378","25.2151916666667","6501000","淡水區"
"251010","413-VK","2017/09/25 18:48:16","新北市淡水區沙崙路15號","121.421191666667","25.1813433333333","6501000","淡水區"
"251012","441-VK","2017/09/25 18:48:29","新北市淡水區水碓街81號","121.444988333333","25.1776583333333","6501000","淡水區"
"251015","442-VK","2017/09/25 18:48:21","新北市淡水區興福寮66巷69號","121.485775","25.1610566666667","6501000","淡水區"
"251011","650-BX","2017/09/25 18:48:34","新北市淡水區鄧公路10號","121.449375","25.1700866666667","6501000","淡水區"
"251002","672-BX","2017/09/25 18:48:18","新北市淡水區學府路81號","121.44856","25.17009","6501000","淡水區"
"251003","766-UM","2017/09/25 18:48:27","新北市淡水區中山北路一段153號","121.443193333333","25.1774216666667","6501000","淡水區"
"207003","550-UM","2017/09/25 18:48:34","新北市萬里區大鵬里頂社2-1號","121.659061666667","25.207945","6502800","萬里區"
"207004","225-TW","2017/09/25 18:48:24","新北市萬里區萬里里獅頭路23號","121.693223333333","25.1782283333333","6502800","萬里區"
"252002","178-VK","2017/09/25 18:48:32","新北市三芝區民生街3號","121.503603333333","25.2574866666667","6502100","三芝區"
"252005","249-BX","2017/09/25 18:48:25","新北市三芝區後厝里土地公坑57-1號","121.461846666667","25.2480283333333","6502100","三芝區"
"252001","292-VK","2017/09/25 18:48:17","新北市三芝區中正路三段32號","121.502165","25.2523383333333","6502100","三芝區"
"237004","078-UY","2017/09/25 18:48:02","新北市三峽區有木22號","121.4268","24.86307","6500900","三峽區"
"237007","153-BY","2017/09/25 18:48:34","新北市三峽區柑樹路2巷38號","121.361721666667","24.9052","6500900","三峽區"
"237013","252-BX","2017/09/25 18:48:19","新北市三峽區光明路69巷27號","121.376771666667","24.9292866666667","6500900","三峽區"
"237012","275-BY","2017/09/25 18:48:15","新北市三峽區三樹路340號","121.38394","24.9433616666667","6500900","三峽區"
"237008","302-VK","2017/09/25 18:48:31","新北市三峽區白雞28-1號","121.370438333333","24.9120216666667","6500900","三峽區"
"237001","159-BY","2017/09/25 17:36:03","新北市三峽區中山路459巷163-3號","121.348795","24.93308","6500900","三峽區"
"237014","433-BY","2017/09/25 18:48:17","新北市三峽區復興路369號","121.363475","24.9387","6500900","三峽區"
"237006","5529-G3","2017/09/25 18:48:29","新北市三峽區溪東路215號","121.406215","24.9327883333333","6500900","三峽區"
"237011","572-TV","2017/09/25 18:07:12","新北市三峽區橫溪路8號","121.396043333333","24.936105","6500900","三峽區"
"237015","649-BX","2017/09/25 18:48:33","新北市三峽區建安64-6號","121.447765","24.9266716666667","6500900","三峽區"
"237010","706-TV","2017/09/25 18:48:28","新北市三峽區復興路317號","121.36486","24.9388383333333","6500900","三峽區"
"237005","AKY-6261","2017/09/25 18:48:21","新北市三峽區文化路266-1號","121.366723333333","24.9357233333333","6500900","三峽區"
"236069","105-UM","2017/09/25 18:48:32","新北市土城區明德路一段43號","121.465203333333","24.9849716666667","6501300","土城區"
"236042","107-UM","2017/09/25 18:48:36","新北市土城區裕民路92巷16弄2號","121.449885","24.9864933333333","6501300","土城區"
"236078","166-UM","2017/09/25 18:48:26","新北市土城區中央路四段123號","121.416281666667","24.9576133333333","6501300","土城區"
"236030","253-BX","2017/09/25 18:48:36","新北市土城區中央路三段59號","121.439028333333","24.9695066666667","6501300","土城區"
"236026","269-VK","2017/09/25 18:48:33","新北市土城區慶安街29巷10號","121.441573333333","24.9729916666667","6501300","土城區"
"236014","270-VK","2017/09/25 18:48:24","新北市土城區清水路235巷22號","121.460783333333","24.983925","6501300","土城區"
"236036","271-VK","2017/09/25 18:48:36","新北市土城區明德路一段164號","121.462906666667","24.9784466666667","6501300","土城區"
"236020","401-BY","2017/09/25 18:48:16","新北市土城區延安街76號","121.468031666667","24.984135","6501300","土城區"
"236058","912-UM","2017/09/25 18:48:25","新北市土城區中央路三段183號","121.431221666667","24.9651366666667","6501300","土城區"
"236048","913-UM","2017/09/25 18:48:12","新北市土城區廣福街68巷18弄2號","121.459238333333","24.9903633333333","6501300","土城區"
"236062","915-UM","2017/09/25 18:48:28","新北市土城區延壽路15號","121.471315","24.9905616666667","6501300","土城區"
"236053","AAC-216","2017/09/25 18:48:34","新北市土城區裕民路134號","121.451498333333","24.9862416666667","6501300","土城區"
"242002","176-VK","2017/09/25 18:48:19","新北市新莊區中正路457巷15號","121.442273333333","25.03336","6500500","新莊區"
"242056","349-TH","2017/09/25 18:48:19","新北市新莊區環河路636-7號","121.437481666667","25.011685","6500500","新莊區"
"238023","601-UM","2017/09/25 18:48:26","新北市樹林區三福街114號","121.406446666667","25.0162583333333","6500700","樹林區"
"238019","599-UM","2017/09/25 18:48:21","新北市樹林區東榮街147巷23號","121.414808333333","24.981065","6500700","樹林區"
"238018","571-TV","2017/09/25 18:48:29","新北市樹林區鎮前街18號","121.426083333333","24.9931183333333","6500700","樹林區"
"238024","5061-A6","2017/09/25 18:48:33","新北市樹林區太順街49巷1號","121.418018333333","24.979","6500700","樹林區"
"238022","KEA-2213","2017/09/25 18:48:31","新北市樹林區中華路379巷78弄2-1號","121.413383333333","24.9773233333333","6500700","樹林區"
"238025","303-VK","2017/09/25 18:48:33","新北市樹林區中山路三段22號","121.395571666667","24.9730316666667","6500700","樹林區"
"238020","268-VK","2017/09/25 18:48:17","新北市樹林區三俊街287號","121.423346666667","25.01401","6500700","樹林區"
"238026","172-UY","2017/09/25 18:48:35","新北市樹林區信和街140號","121.386648333333","24.97474","6500700","樹林區"
"238016","169-UY","2017/09/25 18:48:27","新北市樹林區文化街28號","121.419371666667","24.9877433333333","6500700","樹林區"
"239007","AAC-297","2017/09/25 18:48:18","新北市鶯歌區成功街6巷28號","121.35932","24.9573483333333","6500800","鶯歌區"
"239008","527-UM","2017/09/25 18:48:23","新北市鶯歌區國際一路14號","121.336205","24.9765683333333","6500800","鶯歌區"
"239005","526-UM","2017/09/25 18:48:28","新北市鶯歌區鶯桃路二段54號","121.32532","24.9730066666667","6500800","鶯歌區"
"239001","417-VK","2017/09/25 18:48:26","新北市鶯歌區鶯桃路55號","121.341966666667","24.9520266666667","6500800","鶯歌區"
"239003","360-BY","2017/09/25 18:48:27","新北市鶯歌區鶯桃路554號","121.330915","24.9675033333333","6500800","鶯歌區"
"239002","359-BY","2017/09/25 18:48:18","新北市鶯歌區中正一路478號","121.366463333333","24.9568516666667","6500800","鶯歌區"
"239004","193-VK","2017/09/25 18:48:16","新北市鶯歌區中正三路156巷31號","121.333406666667","24.9396166666667","6500800","鶯歌區"
"221008","489-VK","2017/09/25 18:48:24","新北市汐止區康寧街901號","121.65144","25.0748616666667","6501100","汐止區"
"221036","130-UY","2017/09/25 18:48:30","新北市汐止區水碓街59號","121.665093333333","25.068955","6501100","汐止區"
"221015","131-UY","2017/09/25 18:48:20","新北市汐止區鄉長路一段277號","121.66841","25.0786883333333","6501100","汐止區"
"221010","269-BY","2017/09/25 18:48:30","新北市汐止區汐萬路一段312號","121.650326666667","25.0748916666667","6501100","汐止區"
"221012","278-VK","2017/09/25 18:48:29","新北市汐止區汐萬路一段256巷3號","121.652463333333","25.0745783333333","6501100","汐止區"
"221023","279-VK","2017/09/25 18:48:21","新北市汐止區汐萬路一段256巷3號","121.653203333333","25.0744366666667","6501100","汐止區"
"221032","280-BY","2017/09/25 18:48:33","新北市汐止區橫科路40-2號","121.620791666667","25.0504033333333","6501100","汐止區"
"221027","281-BY","2017/09/25 18:48:17","新北市汐止區汐萬路一段256巷3號","121.653455","25.0746566666667","6501100","汐止區"
"221038","297-VK","2017/09/25 18:48:18","新北市汐止區汐萬路一段256巷3號","121.652561666667","25.0745083333333","6501100","汐止區"
"221029","298-VK","2017/09/25 18:48:36","新北市汐止區樟樹一路2巷59號","121.641548333333","25.0629133333333","6501100","汐止區"
"221021","299-VK","2017/09/25 18:48:28","新北市汐止區新台五路一段192號","121.655233333333","25.06291","6501100","汐止區"
"221031","353-TW","2017/09/25 18:48:23","新北市汐止區福德一路272巷1號","121.631995","25.0640983333333","6501100","汐止區"
"221035","622-UM","2017/09/25 18:48:28","新北市汐止區汐萬路一段137號","121.653623333333","25.0710616666667","6501100","汐止區"
"221025","623-UM","2017/09/25 18:48:29","新北市汐止區仁愛路36號","121.660748333333","25.0628116666667","6501100","汐止區"
"221033","647-BX","2017/09/25 18:40:41","台北市南港區舊莊街二段9號","121.625011666667","25.0376216666667","6501100","汐止區"
"221002","707-TV","2017/09/25 18:48:26","新北市汐止區大同路一段185號","121.633251666667","25.0570716666667","6501100","汐止區"
"221018","753-BX","2017/09/25 18:48:34","新北市汐止區茄苳路290號","121.672986666667","25.0672","6501100","汐止區"
"220079","145-BY","2017/09/25 18:48:20","新北市板橋區民權路101巷2號","121.458983333333","25.0134233333333","6500100","板橋區"
"220080","200-UY","2017/09/25 18:48:21","新北市板橋區大觀路二段265巷72弄11號","121.441983333333","24.9969216666667","6500100","板橋區"
"220082","610-BX","2017/09/25 18:48:17","新北市板橋區篤行路二段92-3號","121.431548333333","24.9915016666667","6500100","板橋區"
"220101","245-BX","2017/09/25 18:48:20","新北市板橋區民生路二段161巷1號","121.470125","25.0200683333333","6500100","板橋區"
"220056","276-BY","2017/09/25 18:48:27","新北市板橋區四川路二段73號","121.45317","24.9951766666667","6500100","板橋區"
"220072","277-BY","2017/09/25 18:48:30","新北市板橋區金門街25巷8號","121.433855","24.9943333333333","6500100","板橋區"
"220064","280-UM","2017/09/25 18:48:23","新北市板橋區民生路二段36-1號","121.47208","25.0167666666667","6500100","板橋區"
"220094","283-UM","2017/09/25 18:48:33","新北市板橋區民生路二段161巷1號","121.470021666667","25.0198383333333","6500100","板橋區"
"220071","283-VK","2017/09/25 18:48:22","新北市板橋區信義路15號","121.456963333333","24.9967783333333","6500100","板橋區"
"220053","285-VK","2017/09/25 18:48:22","新北市板橋區民生路二段89-6號","121.470675","25.019025","6500100","板橋區"
"220083","286-VK","2017/09/25 18:48:30","新北市板橋區大觀路二段22巷12號","121.445993333333","25.0034416666667","6500100","板橋區"
"220090","288-VK","2017/09/25 18:48:18","新北市板橋區民生路二段120號","121.470371666667","25.0196266666667","6500100","板橋區"
"220061","293-UM","2017/09/25 18:48:28","新北市板橋區民生路二段89-6號","121.470781666667","25.0190183333333","6500100","板橋區"
"220084","296-UM","2017/09/25 18:48:21","新北市板橋區大觀路二段148巷28號","121.44197","24.9998266666667","6500100","板橋區"
"220075","297-UM","2017/09/25 18:48:21","新北市板橋區南雅西路二段123巷9號","121.45172","25.0105083333333","6500100","板橋區"
"220010","303-R5","2017/09/25 18:48:19","新北市板橋區民生路二段123號","121.470618333333","25.0185483333333","6500100","板橋區"
"220092","307-R5","2017/09/25 17:03:03","新北市板橋區民生路二段161巷3號","121.470228333333","25.0197966666667","6500100","板橋區"
"220098","317-R6","2017/09/25 16:17:52","新北市板橋區民生路二段161巷9號","121.470248333333","25.01961","6500100","板橋區"
"220088","491-VK","2017/09/25 16:57:22","新北市板橋區民生路二段161巷1號","121.469968333333","25.0201083333333","6500100","板橋區"
"220035","560-BX","2017/09/25 18:48:29","新北市板橋區中正路275巷59-4號","121.452968333333","25.01798","6500100","板橋區"
"220103","561-BX","2017/09/25 18:48:30","新北市板橋區民生路二段120號","121.470493333333","25.0197233333333","6500100","板橋區"
"220063","609-BX","2017/09/25 18:48:28","新北市板橋區民生路二段121號","121.470605","25.018435","6500100","板橋區"
"220091","637-BX","2017/09/25 18:48:27","新北市板橋區民生路二段161巷1號","121.469885","25.0198916666667","6500100","板橋區"
"220057","686-BX","2017/09/25 18:48:28","新北市板橋區南雅南路二段120-8號","121.452131666667","24.9995683333333","6500100","板橋區"
"220077","687-BX","2017/09/25 18:48:25","新北市板橋區大觀路二段174巷181號","121.442166666667","25.0038533333333","6500100","板橋區"
"220093","689-BX","2017/09/25 18:48:19","新北市板橋區民生路二段188號","121.470233333333","25.02031","6500100","板橋區"
"220054","741-BX","2017/09/25 18:48:33","新北市板橋區南雅南路二段144巷60號","121.450341666667","24.9974483333333","6500100","板橋區"
"220055","827-TW","2017/09/25 18:48:28","新北市板橋區華東街328號","121.452795","25.003325","6500100","板橋區"
"220102","830-TW","2017/09/25 16:54:48","新北市板橋區民生路二段89-6號","121.470601666667","25.0188783333333","6500100","板橋區"
"220096","831-TW","2017/09/25 16:25:44","新北市板橋區民生路二段161巷11號","121.470165","25.0193383333333","6500100","板橋區"
"220074","895-R6","2017/09/25 18:48:28","新北市板橋區南雅南路一段6號","121.456066666667","25.0066583333333","6500100","板橋區"
"220073","985-R7","2017/09/25 18:48:19","新北市板橋區館前西路66號","121.457933333333","25.00706","6500100","板橋區"
"220097","AAC-210","2017/09/25 18:48:22","新北市板橋區民生路二段161巷1號","121.469918333333","25.0197866666667","6500100","板橋區"
"220070","AAC-253","2017/09/25 18:48:21","新北市板橋區館前西路47號","121.457975","25.006815","6500100","板橋區"
