"lineid","car","time","location","longitude","latitude","cityid","cityname"
"234046","148-BY","2017/09/25 19:18:31","新北市永和區永元路18巷26號","121.523416666667","25.00014","6500400","永和區"
"234013","149-BY","2017/09/25 19:18:17","新北市永和區仁愛路152號","121.510768333333","25.012905","6500400","永和區"
"234007","208-UY","2017/09/25 19:18:22","新北市永和區中山路一段238號","121.507465","25.007745","6500400","永和區"
"234081","298-R6","2017/09/25 19:18:34","新北市永和區福和路57巷2號","121.522965","25.0076533333333","6500400","永和區"
"234038","336-UY","2017/09/25 19:18:18","新北市永和區民樂街70號","121.52739","24.9983716666667","6500400","永和區"
"234064","337-UY","2017/09/25 19:18:22","新北市永和區永元路17巷9號","121.521305","25.0006316666667","6500400","永和區"
"234086","338-UY","2017/09/25 19:18:32","新北市永和區中正路558號","121.51731","25.0057616666667","6500400","永和區"
"234070","552-UM","2017/09/25 19:18:20","新北市永和區豫溪街137巷1弄4號","121.519573333333","25.0104933333333","6500400","永和區"
"234054","553-UM","2017/09/25 19:18:31","新北市永和區中興街40號","121.51653","25.01165","6500400","永和區"
"234017","745-BX","2017/09/25 19:18:35","新北市永和區文化路144巷27號","121.512443333333","25.0167183333333","6500400","永和區"
"234030","746-BX","2017/09/25 19:18:20","新北市永和區厚德街77號","121.52461","24.99873","6500400","永和區"
"241031","841-RS","2017/09/25 16:52:17","新北市永和區保生路55-8號","121.50403","25.0103883333333","6500200","三重區"
"234061","AAD-866","2017/09/25 19:18:29","新北市永和區秀朗路一段171號","121.516978333333","25.0038983333333","6500400","永和區"
"234050","847-RS","2017/09/25 19:18:31","新北市永和區文化路145號","121.510826666667","25.016175","6500400","永和區"
"234042","862-TW","2017/09/25 19:18:31","新北市永和區保平路203巷33號","121.50971","25.0049133333333","6500400","永和區"
"234026","9371-KE","2017/09/25 19:18:23","新北市中和區安樂路159號","121.51469","24.9972316666667","6500400","永和區"
"234011","9373-KE","2017/09/25 19:18:21","新北市永和區保福路二段37號","121.510905","25.011465","6500400","永和區"
"249001","173-UM","2017/09/25 19:18:29","新北市八里區中華路一段250號","121.41659","25.1555883333333","6502300","八里區"
"249003","593-UM","2017/09/25 19:18:32","新北市八里區中山路二段446號","121.39938","25.1475566666667","6502300","八里區"
"248016","026-BX","2017/09/25 19:18:15","新北市五股區成泰路三段545號","121.451833333333","25.10177","6501500","五股區"
"248018","225-UY","2017/09/25 19:18:22","新北市五股區民義路一段220巷23號","121.42909","25.094545","6501500","五股區"
"248010","272-BY","2017/09/25 19:18:30","新北市五股區水碓一路23號","121.430595","25.0712883333333","6501500","五股區"
"248012","655-BX","2017/09/25 19:18:26","新北市五股區中興路四段48巷16號","121.438595","25.0833916666667","6501500","五股區"
"248004","677-BX","2017/09/25 19:18:36","新北市五股區五福路44號","121.43385","25.08933","6501500","五股區"
"248002","678-BX","2017/09/25 19:18:27","新北市五股區凌雲路一段158巷6號","121.447801666667","25.1029433333333","6501500","五股區"
"234023","9380-KE","2017/09/25 19:18:23","新北市永和區竹林路124巷6號","121.519603333333","25.01135","6500400","永和區"
"234077","969-R7","2017/09/25 19:18:35","新北市永和區民族街42號","121.518428333333","24.99888","6500400","永和區"
"234074","AAC-211","2017/09/25 19:18:21","新北市永和區竹林路108號","121.519711666667","25.0118266666667","6500400","永和區"
"234067","AAC-212","2017/09/25 19:18:20","新北市永和區保平路52號","121.511326666667","25.0071266666667","6500400","永和區"
"234003","AAC-295","2017/09/25 19:18:31","新北市永和區永平路186-1號","121.51043","25.00922","6500400","永和區"
"244013","069-UM","2017/09/25 19:18:32","新北市林口區麗園一街4巷2號","121.376371666667","25.0706133333333","6501700","林口區"
"244019","403-UM","2017/09/25 19:18:20","新北市林口區麗園二街47巷27號","121.38169","25.06979","6501700","林口區"
"244023","483-VK","2017/09/25 19:18:22","新北市林口區仁愛路二段522-1號","121.373046666667","25.0779683333333","6501700","林口區"
"244011","656-BX","2017/09/25 19:18:32","新北市林口區湖南里70-9號","121.375933333333","25.0897133333333","6501700","林口區"
"243013","AAD-798","2017/09/25 19:18:18","新北市泰山區明志路三段145巷2弄15號","121.425101666667","25.0394066666667","6501600","泰山區"
"243009","297-R6","2017/09/25 19:18:29","新北市泰山區明志路一段67號","121.4337","25.0646866666667","6501600","泰山區"
"243015","380-SR","2017/09/25 19:18:22","新北市泰山區公園路71號","121.426296666667","25.05543","6501600","泰山區"
"243014","421-VK","2017/09/25 19:18:26","新北市泰山區泰林路二段47號","121.435513333333","25.0576216666667","6501600","泰山區"
"243010","KEA-2215","2017/09/25 19:18:17","新北市泰山區明志路一段492巷2號","121.430186666667","25.0547416666667","6501600","泰山區"
"243011","KEA-2216","2017/09/25 19:18:17","新北市泰山區中央路9巷1號","121.42634","25.043105","6501600","泰山區"
"243012","646-TV","2017/09/25 19:18:35","新北市泰山區仁愛路77號","121.433133333333","25.0555233333333","6501600","泰山區"
"243016","680-BX","2017/09/25 19:18:25","新北市泰山區工專路51號","121.422853333333","25.0401783333333","6501600","泰山區"
"222003","436-BY","2017/09/25 19:18:30","新北市深坑區深南路204號","121.626663333333","25.015955","6501800","深坑區"
"222001","628-TS","2017/09/25 19:18:18","新北市深坑區北深路二段51-1號","121.61912","25.00408","6501800","深坑區"
"222002","659-BX","2017/09/25 19:18:31","新北市深坑區北深路一段210號","121.632583333333","25.0109283333333","6501800","深坑區"
"231041","002-UM","2017/09/25 19:18:28","新北市新店區溪園路245-6號","121.525346666667","24.9832666666667","6500600","新店區"
"231059","046-UY","2017/09/25 19:18:31","新北市新店區安和路三段4巷1-3號","121.5182","24.98058","6500600","新店區"
"231061","047-UY","2017/09/25 19:18:24","新北市新店區安康路一段241號","121.525076666667","24.963295","6500600","新店區"
"231060","106-UY","2017/09/25 19:18:35","新北市新店區安康路二段138號","121.512483333333","24.9618483333333","6500600","新店區"
"231051","107-UY","2017/09/25 19:18:17","新北市新店區中央路98-1號","121.531645","24.9758133333333","6500600","新店區"
"231047","108-UY","2017/09/25 19:18:18","新北市新店區中興路一段304號","121.546325","24.969775","6500600","新店區"
"231052","187-VK","2017/09/25 19:18:15","新北市新店區自強路137號","121.545951666667","24.922315","6500600","新店區"
"231050","215-TC","2017/09/25 19:18:29","新北市新店區竹林路59號","121.552813333333","24.9512966666667","6500600","新店區"
"231063","268-BY","2017/09/25 19:18:32","新北市新店區達觀路10號","121.503426666667","24.9438633333333","6500600","新店區"
"231046","278-BY","2017/09/25 19:18:32","新北市新店區華城路2號","121.530463333333","24.9604866666667","6500600","新店區"
"231054","AAD-862","2017/09/25 19:18:37","新北市新店區國校路65巷1號","121.538398333333","24.95411","6500600","新店區"
"231058","3712-VJ","2017/09/25 19:18:27","新北市新店區檳榔路36巷15號","121.541225","24.9633316666667","6500600","新店區"
"231067","4772-VM","2017/09/25 19:18:29","新北市新店區薏仁坑路自強巷6號","121.496698333333","24.9584866666667","6500600","新店區"
"231065","512-UM","2017/09/25 19:18:35","新北市新店區安祥路108巷33號","121.475255","24.9570433333333","6500600","新店區"
"231064","515-UM","2017/09/25 19:18:19","新北市新店區安忠路57巷2號","121.513418333333","24.9593133333333","6500600","新店區"
"231040","619-UM","2017/09/25 19:18:25","新北市新店區三民路26號","121.536933333333","24.9710633333333","6500600","新店區"
"231042","641-BX","2017/09/25 19:18:23","新北市新店區光明街48號","121.538806666667","24.959235","6500600","新店區"
"231049","719-UM","2017/09/25 19:18:15","新北市新店區明德路66號","121.541536666667","24.9795133333333","6500600","新店區"
"231062","720-UM","2017/09/25 19:18:31","新北市新店區莒光路38巷2弄1號","121.52313","24.959015","6500600","新店區"
"231044","897-TW","2017/09/25 19:18:30","新北市新店區中興路三段324號","121.542061666667","24.98618","6500600","新店區"
"231045","898-TW","2017/09/25 19:18:23","新北市新店區北宜路一段260號","121.545731666667","24.95278","6500600","新店區"
"231043","899-TW","2017/09/25 19:18:26","新北市新店區北新路二段107號","121.542951666667","24.9744433333333","6500600","新店區"
"231066","AKT-0513","2017/09/25 19:18:16","新北市新店區安康路三段207巷19號","121.488456666667","24.9508","6500600","新店區"
"241009","060-VK","2017/09/25 19:18:27","新北市三重區仁美街115號","121.485671666667","25.0810666666667","6500200","三重區"
"241031","061-VK","2017/09/25 19:18:32","新北市三重區成功路187號","121.485403333333","25.0529183333333","6500200","三重區"
"241017","063-VK","2017/09/25 19:18:29","新北市三重區大同北路182號","121.491683333333","25.065835","6500200","三重區"
"241026","066-VK","2017/09/25 19:18:28","新北市三重區同安街53號","121.495378333333","25.0566866666667","6500200","三重區"
"241022","267-UM","2017/09/25 19:18:24","新北市三重區中正北路114號","121.485813333333","25.065055","6500200","三重區"
"241025","271-UM","2017/09/25 19:18:18","新北市三重區中正北路450號","121.473536666667","25.0715266666667","6500200","三重區"
"241032","KEA-2210","2017/09/25 19:18:30","新北市三重區新生街109號","121.482933333333","25.059355","6500200","三重區"
"241020","413-TH","2017/09/25 19:18:18","新北市三重區永德街23號","121.488701666667","25.0727866666667","6500200","三重區"
"241035","462-BY","2017/09/25 19:18:28","新北市三重區中正北路27-1號","121.492133333333","25.062155","6500200","三重區"
"241030","480-VK","2017/09/25 19:18:32","新北市三重區新興路41號","121.491595","25.0536316666667","6500200","三重區"
"241006","AAD-863","2017/09/25 19:18:33","新北市三重區三和路四段123號","121.484801666667","25.0776983333333","6500200","三重區"
"241029","942-UM","2017/09/25 19:18:31","新北市三重區重安街34-1號","121.490733333333","25.0577033333333","6500200","三重區"
"235066","003-UY","2017/09/25 19:18:26","新北市中和區廣福路120號","121.501741666667","25.0008866666667","6500300","中和區"
"235064","005-UY","2017/09/25 19:18:33","新北市中和區泰和街38巷31號","121.498528333333","25.001205","6500300","中和區"
"235063","006-UY","2017/09/25 19:18:21","新北市中和區中正路630號","121.48536","24.9960183333333","6500300","中和區"
"235056","096-UM","2017/09/25 19:18:21","新北市中和區中山路二段555號","121.480923333333","25.0055933333333","6500300","中和區"
"235039","097-UM","2017/09/25 19:18:31","新北市中和區景平路64巷13弄1號","121.52201","24.9912466666667","6500300","中和區"
"235065","098-UM","2017/09/25 19:18:32","新北市中和區中山路二段136巷40號","121.501193333333","25.0044583333333","6500300","中和區"
"235040","150-BY","2017/09/25 19:18:24","新北市中和區保健路48巷19號","121.509863333333","24.9967133333333","6500300","中和區"
"235058","151-BY","2017/09/25 19:18:33","新北市中和區連城路523巷11弄22號","121.482195","24.9941366666667","6500300","中和區"
"235055","183-VK","2017/09/25 19:18:20","新北市中和區德光路99號","121.46843","25.0033333333333","6500300","中和區"
"235038","185-VK","2017/09/25 19:18:26","新北市中和區大仁街38號","121.517915","24.99389","6500300","中和區"
"235013","186-VK","2017/09/25 19:18:30","新北市中和區景新街205-11號","121.507561666667","24.9949333333333","6500300","中和區"
"235067","255-BX","2017/09/25 18:57:33","新北市中和區中正路839巷29號","121.483513333333","25.0023083333333","6500300","中和區"
"235044","293-VK","2017/09/25 19:18:22","新北市中和區中興街266巷2號","121.498516666667","24.9874866666667","6500300","中和區"
"235072","301-VK","2017/09/25 19:18:33","新北市中和區連城路144巷4弄11號","121.495698333333","24.9988783333333","6500300","中和區"
"235068","375-QA","2017/09/25 19:18:34","新北市中和區連勝街38巷28號","121.497641666667","24.9980766666667","6500300","中和區"
"235051","376-QA","2017/09/25 19:18:35","新北市中和區興南路一段56巷9號","121.510338333333","24.9911383333333","6500300","中和區"
"235061","378-QA","2017/09/25 19:18:31","新北市中和區員山路326號","121.481528333333","25.003015","6500300","中和區"
"235050","4979-A6","2017/09/25 19:18:33","新北市中和區景安路208巷1號","121.503793333333","24.9909883333333","6500300","中和區"
"235069","4980-A6","2017/09/25 19:18:35","新北市中和區景平路736巷3弄1號","121.497173333333","25.0036816666667","6500300","中和區"
"235042","551-UM","2017/09/25 19:18:15","新北市中和區大勇街45巷12號","121.517781666667","24.9950266666667","6500300","中和區"
"235070","558-UM","2017/09/25 19:18:36","新北市中和區中和路108號","121.502851666667","24.9995316666667","6500300","中和區"
"235045","565-BX","2017/09/25 19:18:23","新北市中和區景新街437巷2弄1號","121.513643333333","24.9891416666667","6500300","中和區"
"235043","611-BX","2017/09/25 19:18:19","新北市中和區景平路176號","121.516758333333","24.9922433333333","6500300","中和區"
"235054","640-BX","2017/09/25 19:18:34","新北市中和區民德路153號","121.468666666667","25.00017","6500300","中和區"
"235060","647-TV","2017/09/25 19:18:26","新北市中和區民有街59號","121.476281666667","25.003575","6500300","中和區"
"235046","733-UM","2017/09/25 19:18:31","新北市中和區忠孝街4號","121.50996","24.982715","6500300","中和區"
"235057","801-TS","2017/09/25 19:18:32","新北市中和區民利街87號","121.47825","24.99809","6500300","中和區"
"235041","802-TS","2017/09/25 19:18:18","新北市中和區景安路43號","121.507543333333","24.9984816666667","6500300","中和區"
"235052","805-TS","2017/09/25 19:18:24","新北市中和區興南路二段142巷17弄8號","121.503223333333","24.9831316666667","6500300","中和區"
"235048","896-TW","2017/09/25 19:18:24","新北市中和區忠孝街39-12號","121.512051666667","24.9843116666667","6500300","中和區"
"235053","900-TW","2017/09/25 19:18:25","新北市中和區華福街86號","121.46746","24.99645","6500300","中和區"
"235062","911-UM","2017/09/25 19:18:17","新北市中和區中正路849巷3號","121.48454","25.0027983333333","6500300","中和區"
"235037","AAC-213","2017/09/25 19:18:18","新北市中和區秀朗路三段60巷42號","121.52486","24.995105","6500300","中和區"
"235059","AAC-215","2017/09/25 19:18:35","新北市中和區圓通路286巷16-5號","121.491626666667","24.9914883333333","6500300","中和區"
"220068","013-TV","2017/09/25 19:18:26","新北市板橋區縣民大道418-1號","121.48222","25.0261033333333","6500100","板橋區"
"220065","072-UY","2017/09/25 19:18:31","新北市板橋區民族路129巷10號","121.46764","25.00847","6500100","板橋區"
"220086","073-UY","2017/09/25 19:18:32","新北市板橋區中正路216巷150弄16號","121.460831666667","25.0188566666667","6500100","板橋區"
"220106","075-UY","2017/09/25 19:18:30","新北市板橋區雙十路三段66巷1號","121.470565","25.0319616666667","6500100","板橋區"
"220069","AAD-861","2017/09/25 19:18:18","新北市板橋區四川路一段166號","121.459736666667","25.0031883333333","6500100","板橋區"
"247008","053-VK","2017/09/25 19:18:14","新北市五股區中興路三段163號","121.449223333333","25.0806466666667","6501400","蘆洲區"
"226004","312-R5","2017/09/25 19:18:26","新北市平溪區靜安路三段238號","121.775636666667","25.0397866666667","6502400","平溪區"
"228003","097-TW","2017/09/25 19:18:20","新北市貢寮區和美里和美街22-1號","121.912818333333","25.082645","6502600","貢寮區"
"228002","585-TW","2017/09/25 19:18:18","新北市貢寮區龍門里復興街14號","121.92647","25.025695","6502600","貢寮區"
"228001","670-TC","2017/09/25 19:18:23","新北市貢寮區真理里新港街10號","121.925533333333","25.0543716666667","6502600","貢寮區"
"224010","AGQ-8101","2017/09/25 19:18:29","新北市瑞芳區基山街167號","121.843355","25.108075","6501200","瑞芳區"
"224006","676-BX","2017/09/25 19:18:35","新北市瑞芳區中山路139號","121.80306","25.1063233333333","6501200","瑞芳區"
"224009","285-BY","2017/09/25 19:18:33","新北市瑞芳區洞頂路85號","121.861566666667","25.1191716666667","6501200","瑞芳區"
"224008","275-VK","2017/09/25 19:18:35","新北市瑞芳區一坑路70-10號","121.80348","25.1082033333333","6501200","瑞芳區"
"224005","271-BY","2017/09/25 19:18:32","新北市瑞芳區三爪子坑路89-17號","121.8122","25.1073733333333","6501200","瑞芳區"
"227008","642-TC","2017/09/25 19:18:21","新北市雙溪區雙溪里太平路81號","121.865411666667","25.036235","6502500","雙溪區"
"227001","400-TW","2017/09/25 19:18:21","新北市雙溪區平林里梅竹蹊66-1號","121.860136666667","25.03581","6502500","雙溪區"
"253005","032-BX","2017/09/25 19:18:21","新北市石門區阿里荖15號","121.607926666667","25.2803283333333","6502200","石門區"
"253006","295-VK","2017/09/25 19:18:32","新北市石門區崁子腳18-9號","121.534326666667","25.2901316666667","6502200","石門區"
"208002","742-BX","2017/09/25 19:18:30","新北市金山區環金路376巷1號","121.632005","25.222205","6502700","金山區"
"208003","665-BX","2017/09/25 19:18:20","新北市金山區中山路178號","121.638176666667","25.2211666666667","6502700","金山區"
"208001","761-BX","2017/09/25 19:18:18","新北市金山區慈護街24號","121.63945","25.2202016666667","6502700","金山區"
"251009","008-UM","2017/09/25 19:18:01","新北市淡水區中山路159-3號","121.44081","25.1731516666667","6501000","淡水區"
"251001","011-UM","2017/09/25 19:18:23","新北市淡水區自強路201巷39號","121.462145","25.126855","6501000","淡水區"
"251007","179-VK","2017/09/25 19:18:31","新北市淡水區中正東路二段161巷8弄13號","121.462338333333","25.144825","6501000","淡水區"
"251013","182-VK","2017/09/25 19:18:22","新北市淡水區安子內12號","121.481535","25.21911","6501000","淡水區"
"251010","413-VK","2017/09/25 19:18:36","新北市淡水區沙崙路27號","121.421468333333","25.18155","6501000","淡水區"
"251015","442-VK","2017/09/25 19:18:21","新北市淡水區南勢埔49號","121.484738333333","25.1812716666667","6501000","淡水區"
"251005","443-VK","2017/09/25 19:18:28","新北市淡水區水源街一段31號","121.443226666667","25.1725433333333","6501000","淡水區"
"251011","650-BX","2017/09/25 19:18:14","新北市淡水區中正東路二段143巷2弄1號","121.460683333333","25.14739","6501000","淡水區"
"251002","672-BX","2017/09/25 19:18:24","新北市淡水區中正路372號","121.433745","25.1745183333333","6501000","淡水區"
"251003","766-UM","2017/09/25 19:18:27","新北市淡水區中山路159-3號","121.440846666667","25.173135","6501000","淡水區"
"207003","550-UM","2017/09/25 19:18:34","新北市萬里區大鵬里萬里加投79-3號","121.647376666667","25.212355","6502800","萬里區"
"207004","225-TW","2017/09/25 19:18:24","新北市萬里區萬里里成功新村65號","121.688316666667","25.1745716666667","6502800","萬里區"
"252002","178-VK","2017/09/25 19:18:32","新北市三芝區忠孝街15號","121.506086666667","25.255215","6502100","三芝區"
"252005","249-BX","2017/09/25 19:18:25","新北市三芝區錫板里南勢崗6號","121.479533333333","25.261975","6502100","三芝區"
"252001","292-VK","2017/09/25 19:18:17","新北市三芝區長勤街9巷14號","121.501691666667","25.2549933333333","6502100","三芝區"
"237004","078-UY","2017/09/25 19:18:22","新北市三峽區有木206號","121.439093333333","24.8514516666667","6500900","三峽區"
"237007","153-BY","2017/09/25 19:18:34","新北市三峽區中正路二段42巷84號","121.364275","24.92058","6500900","三峽區"
"237009","210-TH","2017/09/25 19:18:20","新北市三峽區民生街235號","121.371045","24.9347266666667","6500900","三峽區"
"237013","252-BX","2017/09/25 19:18:27","新北市三峽區大同路5巷6號","121.377893333333","24.9285866666667","6500900","三峽區"
"237012","275-BY","2017/09/25 19:18:35","新北市三峽區三樹路222巷236弄8-3號","121.391378333333","24.94297","6500900","三峽區"
"237008","302-VK","2017/09/25 19:18:31","新北市三峽區光明路106巷73號","121.374913333333","24.92657","6500900","三峽區"
"237001","159-BY","2017/09/25 17:36:03","新北市三峽區中山路459巷163-3號","121.348795","24.93308","6500900","三峽區"
"237014","433-BY","2017/09/25 19:18:37","新北市三峽區中山路257巷39號","121.362143333333","24.936475","6500900","三峽區"
"237006","5529-G3","2017/09/25 19:18:23","新北市三峽區溪東路69號","121.400895","24.93518","6500900","三峽區"
"237011","572-TV","2017/09/25 19:13:24","新北市三峽區中正路一段104號","121.374181666667","24.9295983333333","6500900","三峽區"
"237015","649-BX","2017/09/25 19:18:33","新北市三峽區建安41號","121.446641666667","24.92716","6500900","三峽區"
"237010","706-TV","2017/09/25 19:17:48","新北市三峽區復興路9號","121.37412","24.9360016666667","6500900","三峽區"
"237005","AKY-6261","2017/09/25 19:18:21","新北市三峽區中山路459巷163-3號","121.348658333333","24.93296","6500900","三峽區"
"236069","105-UM","2017/09/25 19:18:32","新北市土城區中央路一段53號","121.44788","24.9903466666667","6501300","土城區"
"236042","107-UM","2017/09/25 19:18:16","新北市土城區學府路一段276號","121.450095","24.9831333333333","6501300","土城區"
"236078","166-UM","2017/09/25 19:16:26","新北市土城區龍泉路43-4號","121.417681666667","24.9433966666667","6501300","土城區"
"236026","269-VK","2017/09/25 19:18:29","新北市土城區中央路二段190號","121.442018333333","24.9761216666667","6501300","土城區"
"236014","270-VK","2017/09/25 19:18:24","新北市土城區學府路一段15-2號","121.458351666667","24.98767","6501300","土城區"
"236020","401-BY","2017/09/25 19:18:16","新北市土城區延峰街10號","121.468596666667","24.9865433333333","6501300","土城區"
"236058","912-UM","2017/09/25 19:18:25","新北市土城區金城路一段131號","121.44484","24.9737466666667","6501300","土城區"
"236048","913-UM","2017/09/25 19:18:32","新北市土城區明德路一段365-1號","121.453616666667","24.9789683333333","6501300","土城區"
"238015","755-BX","2017/09/25 19:18:22","新北市樹林區備內街51號","121.411768333333","24.9876766666667","6500700","樹林區"
"238023","601-UM","2017/09/25 19:18:26","新北市樹林區大慶街20號","121.396511666667","25.0142566666667","6500700","樹林區"
"238019","599-UM","2017/09/25 19:18:21","新北市樹林區鎮前街411巷1弄13號","121.415551666667","24.9831866666667","6500700","樹林區"
"238018","571-TV","2017/09/25 19:18:17","新北市樹林區中華路118巷8號","121.417763333333","24.9807533333333","6500700","樹林區"
"238024","5061-A6","2017/09/25 19:18:33","新北市樹林區中山路二段249巷30號","121.403316666667","24.9754733333333","6500700","樹林區"
"238021","KEA-2217","2017/09/25 19:18:27","新北市樹林區柑園街二段337-6號","121.370475","24.95049","6500700","樹林區"
"238022","KEA-2213","2017/09/25 19:18:31","新北市樹林區中山路二段151巷6弄17號","121.406113333333","24.9781116666667","6500700","樹林區"
"238025","303-VK","2017/09/25 19:18:33","新北市樹林區中山路三段67-5號","121.400538333333","24.9750216666667","6500700","樹林區"
"238017","283-BY","2017/09/25 19:18:27","新北市樹林區光興街376巷2號","121.406293333333","25.0056683333333","6500700","樹林區"
"238014","282-BY","2017/09/25 19:18:18","新北市樹林區中正路22-1號","121.427758333333","24.9994816666667","6500700","樹林區"
"238020","268-VK","2017/09/25 19:18:36","新北市樹林區中正路286-1號","121.41605","25.008795","6500700","樹林區"
"238026","172-UY","2017/09/25 19:18:35","新北市樹林區佳園路二段16號","121.392395","24.9637383333333","6500700","樹林區"
"238016","169-UY","2017/09/25 19:18:27","新北市樹林區復興路385號","121.416483333333","24.986645","6500700","樹林區"
"239007","AAC-297","2017/09/25 19:18:18","新北市鶯歌區大湖路余厝巷1-5號","121.342541666667","24.9612916666667","6500800","鶯歌區"
"239006","891-R6","2017/09/25 19:18:35","新北市鶯歌區鶯桃路91巷8號","121.338935","24.9533133333333","6500800","鶯歌區"
"239008","527-UM","2017/09/25 19:18:24","新北市鶯歌區國際二路6巷18號","121.339053333333","24.973765","6500800","鶯歌區"
"239005","526-UM","2017/09/25 19:18:28","新北市鶯歌區三界公坑4號","121.352658333333","24.9703266666667","6500800","鶯歌區"
"239001","417-VK","2017/09/25 19:18:26","新北市鶯歌區鶯桃路69-1號","121.340641666667","24.9531266666667","6500800","鶯歌區"
"239003","360-BY","2017/09/25 19:18:27","新北市鶯歌區中正二路34號","121.351273333333","24.9514983333333","6500800","鶯歌區"
"239002","359-BY","2017/09/25 19:18:18","新北市鶯歌區大湖路351號","121.338538333333","24.9714483333333","6500800","鶯歌區"
"239004","193-VK","2017/09/25 19:18:35","新北市鶯歌區中正三路鄭厝巷16-3號","121.334286666667","24.9343433333333","6500800","鶯歌區"
"221008","489-VK","2017/09/25 19:18:24","新北市汐止區康寧街342號","121.628","25.0674683333333","6501100","汐止區"
"221036","130-UY","2017/09/25 19:18:30","新北市汐止區汐萬路一段256巷3號","121.652521666667","25.0745483333333","6501100","汐止區"
"221015","131-UY","2017/09/25 19:18:20","新北市汐止區康寧街901號","121.651561666667","25.0749066666667","6501100","汐止區"
"221010","269-BY","2017/09/25 19:18:29","新北市汐止區康寧街901號","121.651368333333","25.0749883333333","6501100","汐止區"
"221012","278-VK","2017/09/25 19:18:29","新北市汐止區汐萬路一段312號","121.650623333333","25.07541","6501100","汐止區"
"221023","279-VK","2017/09/25 19:18:21","新北市汐止區康寧街901號","121.650975","25.075185","6501100","汐止區"
"221027","281-BY","2017/09/25 18:56:35","新北市汐止區康寧街901號","121.65088","25.0752333333333","6501100","汐止區"
"221038","297-VK","2017/09/25 19:18:19","新北市汐止區汐萬路一段312號","121.650651666667","25.07533","6501100","汐止區"
"221029","298-VK","2017/09/25 19:18:15","新北市汐止區康寧街901號","121.651583333333","25.07495","6501100","汐止區"
"221021","299-VK","2017/09/25 19:18:28","新北市汐止區康寧街901號","121.651406666667","25.0750616666667","6501100","汐止區"
"221031","353-TW","2017/09/25 19:18:23","新北市汐止區福德三路127號","121.633648333333","25.0676133333333","6501100","汐止區"
"221025","623-UM","2017/09/25 19:18:29","新北市汐止區康寧街901號","121.651526666667","25.074995","6501100","汐止區"
"221033","647-BX","2017/09/25 19:18:21","新北市汐止區南勢街1巷1號","121.627053333333","25.03741","6501100","汐止區"
"221002","707-TV","2017/09/25 19:18:26","新北市汐止區大同路一段312號","121.637355","25.058825","6501100","汐止區"
"221018","753-BX","2017/09/25 19:18:34","新北市汐止區康寧街901號","121.65146","25.0749716666667","6501100","汐止區"
"220079","145-BY","2017/09/25 19:18:26","新北市板橋區民權路302巷12號","121.457696666667","25.0164266666667","6500100","板橋區"
"220080","200-UY","2017/09/25 19:18:21","新北市板橋區大觀路二段1巷60號","121.450603333333","25.0033433333333","6500100","板橋區"
"220082","610-BX","2017/09/25 19:18:37","新北市板橋區溪崑二街108號","121.4265","24.9886283333333","6500100","板橋區"
"220101","245-BX","2017/09/25 19:18:20","新北市板橋區雙十路二段47巷8弄14號","121.474446666667","25.025985","6500100","板橋區"
"220056","276-BY","2017/09/25 19:18:32","新北市板橋區信義路184號","121.459601666667","24.9913533333333","6500100","板橋區"
"220072","277-BY","2017/09/25 19:18:30","新北市板橋區金門街337巷7弄2號","121.430261666667","24.98477","6500100","板橋區"
"220064","280-UM","2017/09/25 19:18:23","新北市板橋區板新路140號","121.470583333333","25.0155883333333","6500100","板橋區"
"220094","283-UM","2017/09/25 19:18:33","新北市板橋區光武街110巷45-4號","121.467133333333","25.0302166666667","6500100","板橋區"
"220071","283-VK","2017/09/25 19:18:22","新北市板橋區重慶路327巷19弄3-2號","121.464728333333","24.9988183333333","6500100","板橋區"
"220053","285-VK","2017/09/25 19:18:22","新北市板橋區永豐街146號","121.478148333333","25.02121","6500100","板橋區"
"220083","286-VK","2017/09/25 19:18:30","新北市板橋區大觀路二段174巷173弄12號","121.44124","25.0039166666667","6500100","板橋區"
"220090","288-VK","2017/09/25 19:18:18","新北市板橋區長江路一段156巷9弄2號","121.46154","25.0297483333333","6500100","板橋區"
"220061","293-UM","2017/09/25 19:18:28","新北市板橋區中山路二段318巷25號","121.48049","25.018525","6500100","板橋區"
"220084","296-UM","2017/09/25 19:18:21","新北市板橋區溪崑二街56巷1號","121.427903333333","24.9912733333333","6500100","板橋區"
"220075","297-UM","2017/09/25 19:18:21","新北市板橋區南雅西路一段10巷7弄1號","121.454583333333","25.0045066666667","6500100","板橋區"
"220062","303-R5","2017/09/25 19:18:33","新北市板橋區三民路二段153巷36弄2號","121.481163333333","25.0140616666667","6500100","板橋區"
"220092","307-R5","2017/09/25 19:18:24","新北市板橋區光武街36巷16號","121.468098333333","25.026115","6500100","板橋區"
"220098","317-R6","2017/09/25 19:18:25","新北市板橋區四維路99號","121.46568","25.0243683333333","6500100","板橋區"
"220089","487-VK","2017/09/25 19:18:23","新北市板橋區文化路二段1號","121.468443333333","25.0238433333333","6500100","板橋區"
"220088","491-VK","2017/09/25 19:18:36","新北市板橋區雙十路二段95號","121.4753","25.02776","6500100","板橋區"
"220035","560-BX","2017/09/25 19:18:29","新北市板橋區中正路360巷55號","121.456368333333","25.0227833333333","6500100","板橋區"
"220103","561-BX","2017/09/25 19:18:30","新北市板橋區介壽街40號","121.468496666667","25.01975","6500100","板橋區"
"220063","609-BX","2017/09/25 19:18:28","新北市板橋區三民路二段131號","121.47918","25.01541","6500100","板橋區"
"220091","637-BX","2017/09/25 19:18:26","新北市板橋區縣民大道三段187巷11號","121.479076666667","25.0251633333333","6500100","板橋區"
"220057","686-BX","2017/09/25 19:18:28","新北市板橋區國慶路210號","121.4637","24.99708","6500100","板橋區"
"220077","687-BX","2017/09/25 19:18:25","新北市板橋區大觀路一段28巷6號","121.449998333333","25.0088116666667","6500100","板橋區"
"220093","689-BX","2017/09/25 19:18:19","新北市板橋區文化路一段407號","121.467415","25.0221833333333","6500100","板橋區"
"220054","741-BX","2017/09/25 19:18:33","新北市板橋區重慶路64號","121.461625","25.0067633333333","6500100","板橋區"
"220055","827-TW","2017/09/25 19:18:28","新北市板橋區民族路90號","121.463758333333","25.0092916666667","6500100","板橋區"
"220102","830-TW","2017/09/25 19:18:27","新北市板橋區文聖街207號","121.479691666667","25.0264233333333","6500100","板橋區"
"220096","831-TW","2017/09/25 19:18:31","新北市板橋區大同街14-4號","121.477495","25.0270066666667","6500100","板橋區"
"220074","895-R6","2017/09/25 19:18:28","新北市板橋區中正路自強新村45-1號","121.454741666667","25.0139766666667","6500100","板橋區"
"220073","985-R7","2017/09/25 19:18:19","新北市板橋區新生街75號","121.457815","25.02125","6500100","板橋區"
"220097","AAC-210","2017/09/25 19:18:02","新北市板橋區幸福路49號","121.461175","25.0199216666667","6500100","板橋區"
"220070","AAC-253","2017/09/25 19:18:21","新北市板橋區忠孝路191號","121.46453","25.002645","6500100","板橋區"
