"lineid","car","time","location","longitude","latitude","cityid","cityname"
"234046","148-BY","2017/09/25 19:38:11","新北市永和區秀朗路二段116號","121.524545","25.001615","6500400","永和區"
"234013","149-BY","2017/09/25 19:38:17","新北市永和區永平路216號","121.509226666667","25.01044","6500400","永和區"
"234007","208-UY","2017/09/25 19:38:22","新北市永和區永和路一段6號","121.512796666667","25.004585","6500400","永和區"
"234081","298-R6","2017/09/25 19:38:23","新北市永和區國中路104巷12弄1號","121.524781666667","25.0071366666667","6500400","永和區"
"234038","336-UY","2017/09/25 19:38:16","新北市永和區成功路一段123號","121.526933333333","25.0018916666667","6500400","永和區"
"234064","337-UY","2017/09/25 19:38:22","新北市永和區秀朗路二段24巷28弄14號","121.5196","25.00201","6500400","永和區"
"234086","338-UY","2017/09/25 19:38:32","新北市永和區成功路一段18巷15號","121.526228333333","25.0049833333333","6500400","永和區"
"234070","552-UM","2017/09/25 19:38:20","新北市永和區警光街12號","121.519763333333","25.0095733333333","6500400","永和區"
"234054","553-UM","2017/09/25 19:38:26","新北市永和區復興街91號","121.51782","25.0141066666667","6500400","永和區"
"234017","745-BX","2017/09/25 19:38:15","新北市永和區環河西路一段51巷24號","121.514126666667","25.01754","6500400","永和區"
"234030","746-BX","2017/09/25 19:38:20","新北市永和區民生路37巷1號","121.52304","24.9981433333333","6500400","永和區"
"241031","841-RS","2017/09/25 16:52:17","新北市永和區保生路55-8號","121.50403","25.0103883333333","6500200","三重區"
"234061","AAD-866","2017/09/25 19:38:29","新北市永和區永貞路188號","121.516095","25.00428","6500400","永和區"
"234050","847-RS","2017/09/25 19:38:37","新北市永和區仁愛路88號","121.512563333333","25.0132866666667","6500400","永和區"
"234042","862-TW","2017/09/25 19:38:31","新北市永和區水源街30巷2號","121.511445","25.0046683333333","6500400","永和區"
"234026","9371-KE","2017/09/25 19:38:23","新北市永和區中和路501巷5號","121.510443333333","25.0026166666667","6500400","永和區"
"234011","9373-KE","2017/09/25 19:38:21","新北市永和區保生路55-1號","121.504538333333","25.0108766666667","6500400","永和區"
"249002","305-UY","2017/09/25 19:38:26","新北市八里區頂寮二街33-1號","121.450288333333","25.1251716666667","6502300","八里區"
"249003","593-UM","2017/09/25 19:38:32","新北市八里區中華路二段530號","121.399326666667","25.145765","6502300","八里區"
"248014","025-BX","2017/09/25 19:38:23","新北市五股區工商路166號","121.433558333333","25.088025","6501500","五股區"
"248016","026-BX","2017/09/25 19:38:30","新北市五股區成泰路三段472號","121.451751666667","25.1012266666667","6501500","五股區"
"248008","095-VK","2017/09/25 19:38:35","新北市五股區四維路118巷9號","121.468795","25.0743483333333","6501500","五股區"
"248018","225-UY","2017/09/25 19:33:02","新北市五股區壟路19-2號","121.412863333333","25.08514","6501500","五股區"
"248010","272-BY","2017/09/25 19:38:30","新北市五股區水碓一路14號","121.432521666667","25.0729066666667","6501500","五股區"
"248012","655-BX","2017/09/25 19:38:26","新北市五股區工商路85巷6號","121.437888333333","25.0848966666667","6501500","五股區"
"248004","677-BX","2017/09/25 19:38:16","新北市五股區工商路73號","121.438401666667","25.0849116666667","6501500","五股區"
"248002","678-BX","2017/09/25 19:38:27","新北市五股區成泰路三段577巷77號","121.449716666667","25.103645","6501500","五股區"
"234077","969-R7","2017/09/25 19:38:29","新北市永和區民族街67巷16號","121.51939","24.997095","6500400","永和區"
"234074","AAC-211","2017/09/25 19:38:20","新北市永和區竹林路225巷54-3號","121.522776666667","25.0087383333333","6500400","永和區"
"234067","AAC-212","2017/09/25 19:38:25","新北市永和區中山路一段191巷9弄2號","121.509738333333","25.0080083333333","6500400","永和區"
"234003","AAC-295","2017/09/25 19:38:31","新北市永和區自由街70-8號","121.513405","25.0053616666667","6500400","永和區"
"244019","403-UM","2017/09/25 19:38:20","新北市林口區麗園二街3巷4-3號","121.37898","25.0697966666667","6501700","林口區"
"244011","656-BX","2017/09/25 19:38:12","新北市林口區太平里180號","121.368418333333","25.1344183333333","6501700","林口區"
"243013","AAD-798","2017/09/25 19:38:18","新北市泰山區應化街7號","121.423905","25.0437216666667","6501600","泰山區"
"243009","297-R6","2017/09/25 19:38:26","新北市泰山區美寧街58號","121.430768333333","25.0647633333333","6501600","泰山區"
"243015","380-SR","2017/09/25 19:38:22","新北市泰山區民權街25號","121.428706666667","25.05073","6501600","泰山區"
"243014","421-VK","2017/09/25 19:38:19","新北市泰山區泰林路二段33-7號","121.435225","25.0565066666667","6501600","泰山區"
"243010","KEA-2215","2017/09/25 19:38:18","新北市泰山區明志路二段7巷15號","121.430741666667","25.0532916666667","6501600","泰山區"
"243011","KEA-2216","2017/09/25 19:38:17","新北市泰山區明志路三段204巷2號","121.423685","25.0383666666667","6501600","泰山區"
"243012","646-TV","2017/09/25 19:38:35","新北市泰山區仁武街21號","121.433621666667","25.0546716666667","6501600","泰山區"
"243016","680-BX","2017/09/25 19:38:25","新北市泰山區中山路三段114號","121.417943333333","25.032235","6501600","泰山區"
"222003","436-BY","2017/09/25 19:34:25","新北市深坑區深南路51-1號","121.621131666667","25.01004","6501800","深坑區"
"222001","628-TS","2017/09/25 19:38:18","新北市深坑區北深路二段200號","121.61298","25.0015466666667","6501800","深坑區"
"222002","659-BX","2017/09/25 19:38:31","新北市深坑區北深路一段177號","121.632515","25.01091","6501800","深坑區"
"231041","002-UM","2017/09/25 19:38:28","新北市新店區中正路487號","121.533751666667","24.98209","6500600","新店區"
"231059","046-UY","2017/09/25 19:38:31","新北市新店區安和路二段219號","121.517438333333","24.975655","6500600","新店區"
"231061","047-UY","2017/09/25 19:38:24","新北市新店區安民街154號","121.516683333333","24.96996","6500600","新店區"
"231060","106-UY","2017/09/25 19:38:29","新北市新店區安康路二段170號","121.511878333333","24.9604916666667","6500600","新店區"
"231051","107-UY","2017/09/25 19:38:17","新北市新店區中央四街92號","121.52576","24.9760816666667","6500600","新店區"
"231047","108-UY","2017/09/25 19:38:18","新北市新店區五峰路63巷12號","121.546416666667","24.9687316666667","6500600","新店區"
"231052","187-VK","2017/09/25 19:38:35","新北市新店區新烏路二段331號","121.550196666667","24.9105483333333","6500600","新店區"
"231050","215-TC","2017/09/25 19:38:29","新北市新店區北宜路二段277號","121.555006666667","24.95378","6500600","新店區"
"231057","256-BX","2017/09/25 19:38:33","新北市新店區橘園一路11號","121.547975","24.9340233333333","6500600","新店區"
"231063","268-BY","2017/09/25 19:38:32","新北市新店區達觀路40號","121.503008333333","24.9387733333333","6500600","新店區"
"231046","278-BY","2017/09/25 19:38:32","新北市新店區中正路329巷1弄2號","121.535726666667","24.9749516666667","6500600","新店區"
"231054","AAD-862","2017/09/25 19:38:37","新北市新店區文中路45號","121.539621666667","24.956695","6500600","新店區"
"231058","3712-VJ","2017/09/25 19:38:27","新北市新店區寶橋路3號","121.543506666667","24.9737666666667","6500600","新店區"
"231067","4772-VM","2017/09/25 19:38:29","新北市新店區精忠路10-1號","121.532658333333","24.9590733333333","6500600","新店區"
"231065","512-UM","2017/09/25 19:38:15","新北市新店區安祥路109巷85弄19號","121.478258333333","24.9601566666667","6500600","新店區"
"231064","515-UM","2017/09/25 19:38:19","新北市新店區安忠路2號","121.514431666667","24.96347","6500600","新店區"
"231040","619-UM","2017/09/25 19:38:25","新北市新店區北新路一段96巷23號","121.542995","24.9689","6500600","新店區"
"231042","641-BX","2017/09/25 19:38:23","新北市新店區中興路一段216號","121.543851666667","24.9657033333333","6500600","新店區"
"231049","719-UM","2017/09/25 19:38:15","新北市新店區大豐路35號","121.540616666667","24.980005","6500600","新店區"
"231062","720-UM","2017/09/25 19:38:31","新北市新店區合作路1號","121.533618333333","24.9578416666667","6500600","新店區"
"231044","897-TW","2017/09/25 19:38:30","新北市新店區北新路三段47號","121.54193","24.980465","6500600","新店區"
"231045","898-TW","2017/09/25 19:38:23","新北市新店區北宜路二段106號","121.55576","24.9537683333333","6500600","新店區"
"231043","899-TW","2017/09/25 19:38:26","新北市新店區北新路二段42號","121.542891666667","24.9717416666667","6500600","新店區"
"231066","AKT-0513","2017/09/25 19:38:16","新北市新店區安康路二段341巷21號","121.497103333333","24.954595","6500600","新店區"
"241011","013-R5","2017/09/25 19:38:30","新北市三重區秀江街160號","121.498398333333","25.0717366666667","6500200","三重區"
"241028","022-UY","2017/09/25 19:38:20","新北市三重區中正南路145號","121.493946666667","25.0566766666667","6500200","三重區"
"241008","059-VK","2017/09/25 19:38:34","新北市三重區永福街135巷12號","121.478256666667","25.07689","6500200","三重區"
"241009","060-VK","2017/09/25 19:38:27","新北市三重區三和路四段406巷21號","121.480356666667","25.0797516666667","6500200","三重區"
"241031","061-VK","2017/09/25 19:38:32","新北市三重區重新路四段244巷9號","121.486368333333","25.0534566666667","6500200","三重區"
"241015","062-VK","2017/09/25 19:38:21","新北市三重區福德北路24號","121.502178333333","25.064755","6500200","三重區"
"241017","063-VK","2017/09/25 19:38:29","新北市三重區重陽路三段5巷48號","121.492028333333","25.0648666666667","6500200","三重區"
"241026","066-VK","2017/09/25 19:38:31","新北市三重區文化南路65巷53號","121.498683333333","25.060655","6500200","三重區"
"241007","156-TC","2017/09/25 19:38:33","新北市三重區溪尾街126巷104號","121.487408333333","25.0786816666667","6500200","三重區"
"241022","267-UM","2017/09/25 19:38:24","新北市三重區三民街163-1號","121.483491666667","25.064785","6500200","三重區"
"241013","270-UM","2017/09/25 19:38:26","新北市三重區仁愛街129巷4號","121.495796666667","25.0751433333333","6500200","三重區"
"241025","271-UM","2017/09/25 19:38:18","新北市三重區頂崁街206巷1弄2號","121.477111666667","25.0670183333333","6500200","三重區"
"241032","KEA-2210","2017/09/25 19:38:30","新北市三重區三陽路123號","121.483528333333","25.0588816666667","6500200","三重區"
"241020","413-TH","2017/09/25 19:38:18","新北市三重區三和路四段20巷32號","121.48973","25.073525","6500200","三重區"
"241035","462-BY","2017/09/25 19:38:28","新北市三重區正義北路99號","121.497145","25.0654033333333","6500200","三重區"
"241019","478-VK","2017/09/25 19:38:30","新北市三重區六張街194巷1弄11號","121.488171666667","25.06825","6500200","三重區"
"241030","480-VK","2017/09/25 19:38:32","新北市三重區環河南路221巷19號","121.491536666667","25.0526333333333","6500200","三重區"
"241014","543-UM","2017/09/25 19:38:27","新北市三重區長榮路106號","121.503271666667","25.0693933333333","6500200","三重區"
"241023","545-UM","2017/09/25 19:38:29","新北市三重區忠孝路三段99巷21號","121.47939","25.0645383333333","6500200","三重區"
"241001","547-UM","2017/09/25 19:38:28","新北市三重區福隆路56號","121.492701666667","25.0785916666667","6500200","三重區"
"241006","AAD-863","2017/09/25 19:38:33","新北市三重區三和路四段160巷66號","121.486116666667","25.0749783333333","6500200","三重區"
"241012","941-UM","2017/09/25 19:38:26","新北市三重區河邊北街256巷15號","121.501155","25.0761683333333","6500200","三重區"
"241029","942-UM","2017/09/25 19:38:23","新北市三重區同安街135號","121.493406666667","25.0560933333333","6500200","三重區"
"235066","003-UY","2017/09/25 19:38:25","新北市中和區景新街133號","121.505811666667","24.9971816666667","6500300","中和區"
"235064","005-UY","2017/09/25 19:38:33","新北市中和區南山路72號","121.50235","24.9958733333333","6500300","中和區"
"235063","006-UY","2017/09/25 19:38:21","新北市中和區連勝街171號","121.49414","24.9968683333333","6500300","中和區"
"235056","096-UM","2017/09/25 19:38:21","新北市中和區員山路581巷2弄7-2號","121.477666666667","25.009595","6500300","中和區"
"235039","097-UM","2017/09/25 19:38:31","新北市中和區秀峰街119巷6弄12號","121.51903","24.9901983333333","6500300","中和區"
"235065","098-UM","2017/09/25 19:38:32","新北市中和區莊敬路49巷19號","121.501461666667","25.005805","6500300","中和區"
"235040","150-BY","2017/09/25 19:38:24","新北市中和區保健路10巷32號","121.50821","24.9964433333333","6500300","中和區"
"235058","151-BY","2017/09/25 19:38:33","新北市中和區連城路523巷1號","121.481728333333","24.995125","6500300","中和區"
"235055","183-VK","2017/09/25 19:38:20","新北市中和區中山路三段179巷10號","121.473441666667","25.00578","6500300","中和區"
"235038","185-VK","2017/09/25 19:38:26","新北市中和區立人街69巷5號","121.51995","24.9937883333333","6500300","中和區"
"235013","186-VK","2017/09/25 19:38:30","新北市中和區安平路16號","121.50922","24.9941966666667","6500300","中和區"
"235067","255-BX","2017/09/25 19:31:34","新北市中和區中正路839巷29號","121.483581666667","25.0022766666667","6500300","中和區"
"235044","293-VK","2017/09/25 19:38:22","新北市中和區捷運路81號","121.508405","24.9900516666667","6500300","中和區"
"235072","301-VK","2017/09/25 19:38:33","新北市中和區錦和路93巷4弄2號","121.490423333333","24.99567","6500300","中和區"
"235068","375-QA","2017/09/25 19:38:34","新北市中和區景平路493巷2-6號","121.499753333333","24.9976216666667","6500300","中和區"
"235051","376-QA","2017/09/25 19:38:36","新北市中和區南山路146巷19號","121.503193333333","24.9921966666667","6500300","中和區"
"235061","378-QA","2017/09/25 19:38:20","新北市中和區民利街31巷2弄9號","121.480276666667","24.9984066666667","6500300","中和區"
"235050","4979-A6","2017/09/25 19:38:33","新北市中和區中正路273號","121.495743333333","24.9937216666667","6500300","中和區"
"235042","551-UM","2017/09/25 19:38:35","新北市中和區中和路262巷35-4號","121.509706666667","24.9994516666667","6500300","中和區"
"235070","558-UM","2017/09/25 19:38:17","新北市中和區中和路33號","121.500116666667","25.0017416666667","6500300","中和區"
"235045","565-BX","2017/09/25 19:38:23","新北市中和區景新街383巷63號","121.513836666667","24.9908533333333","6500300","中和區"
"235043","611-BX","2017/09/25 19:38:19","新北市中和區安和路47號","121.509176666667","24.99477","6500300","中和區"
"235054","640-BX","2017/09/25 19:38:34","新北市中和區國光街112巷22弄11號","121.470006666667","25.00239","6500300","中和區"
"235060","647-TV","2017/09/25 19:38:26","新北市中和區中山路二段523巷41號","121.48224","25.0031533333333","6500300","中和區"
"235046","733-UM","2017/09/25 19:38:31","新北市中和區忠孝街51巷2號","121.511471666667","24.9843366666667","6500300","中和區"
"235057","801-TS","2017/09/25 19:38:32","新北市中和區員山路364號","121.480913333333","25.0038416666667","6500300","中和區"
"235041","802-TS","2017/09/25 19:38:18","新北市中和區中和路350巷3弄2號","121.51034","25.0011616666667","6500300","中和區"
"235052","805-TS","2017/09/25 19:38:24","新北市中和區華新街143巷70號","121.506285","24.9791633333333","6500300","中和區"
"235048","896-TW","2017/09/25 19:38:24","新北市中和區忠孝街1巷2-1號","121.509171666667","24.9830366666667","6500300","中和區"
"235053","900-TW","2017/09/25 19:38:25","新北市中和區華順街2巷2號","121.467566666667","24.99877","6500300","中和區"
"235062","911-UM","2017/09/25 19:37:57","新北市新店區薏仁坑路自強巷1號","121.497183333333","24.9578033333333","6500300","中和區"
"235037","AAC-213","2017/09/25 19:38:18","新北市中和區秀朗路三段50巷21號","121.524706666667","24.9950816666667","6500300","中和區"
"235059","AAC-215","2017/09/25 19:38:15","新北市中和區錦和路356號","121.490543333333","24.9914483333333","6500300","中和區"
"220068","013-TV","2017/09/25 19:38:26","新北市板橋區中山路二段531巷52號","121.482358333333","25.0229333333333","6500100","板橋區"
"220065","072-UY","2017/09/25 19:38:31","新北市板橋區國泰街38巷4弄45號","121.46804","25.0066966666667","6500100","板橋區"
"220086","073-UY","2017/09/25 19:38:20","新北市板橋區國光路31號","121.45708","25.017545","6500100","板橋區"
"220106","075-UY","2017/09/25 19:38:30","新北市板橋區文化路二段548巷27號","121.4768","25.0337016666667","6500100","板橋區"
"220069","AAD-861","2017/09/25 19:38:18","新北市板橋區稚暉街13號","121.456433333333","25.0043316666667","6500100","板橋區"
"247004","336-TH","2017/09/25 19:38:20","新北市蘆洲區中華街6巷12號","121.46311","25.0819333333333","6501400","蘆洲區"
"247008","053-VK","2017/09/25 19:38:14","新北市蘆洲區中山一路176號","121.474153333333","25.08118","6501400","蘆洲區"
"226004","312-R5","2017/09/25 19:38:26","新北市平溪區十分里十分街96-2號","121.776683333333","25.04258","6502400","平溪區"
"228003","097-TW","2017/09/25 19:38:20","新北市貢寮區和美里和美街63號","121.922083333333","25.0711666666667","6502600","貢寮區"
"228001","670-TC","2017/09/25 19:38:23","新北市貢寮區真理里延平街61號","121.924613333333","25.05569","6502600","貢寮區"
"224002","639-TC","2017/09/25 19:38:25","新北市瑞芳區民享新村12號","121.816666666667","25.1056633333333","6501200","瑞芳區"
"227008","642-TC","2017/09/25 19:38:21","新北市雙溪區新基里新基北街22號","121.867235","25.0389433333333","6502500","雙溪區"
"227001","400-TW","2017/09/25 19:38:21","新北市雙溪區雙溪里內挖路41號","121.863385","25.0363833333333","6502500","雙溪區"
"208002","742-BX","2017/09/25 19:38:30","新北市金山區四維路25號","121.635045","25.2228466666667","6502700","金山區"
"208003","665-BX","2017/09/25 19:38:34","新北市金山區仁愛路37-26號","121.635338333333","25.2206583333333","6502700","金山區"
"208001","761-BX","2017/09/25 19:38:28","新北市金山區六股里下六股52-3號","121.61673","25.221655","6502700","金山區"
"251009","008-UM","2017/09/25 19:38:21","新北市淡水區中山北路一段186巷11號","121.445416666667","25.1789616666667","6501000","淡水區"
"251001","011-UM","2017/09/25 19:38:23","新北市淡水區民權路89號","121.459918333333","25.13824","6501000","淡水區"
"251007","179-VK","2017/09/25 19:38:31","新北市淡水區中正東路一段3巷21號","121.451963333333","25.1657366666667","6501000","淡水區"
"251008","181-VK","2017/09/25 19:38:20","新北市淡水區中正路一段8巷1弄3號","121.428085","25.1771366666667","6501000","淡水區"
"251013","182-VK","2017/09/25 19:38:25","新北市淡水區頂田寮路143號","121.461315","25.2164283333333","6501000","淡水區"
"251010","413-VK","2017/09/25 19:38:16","新北市淡水區新市二路三段16號","121.431761666667","25.1940466666667","6501000","淡水區"
"251015","442-VK","2017/09/25 19:38:21","新北市淡水區泉洲厝25-5號","121.484293333333","25.1898266666667","6501000","淡水區"
"251005","443-VK","2017/09/25 19:38:28","新北市淡水區原德路115號","121.442893333333","25.1730866666667","6501000","淡水區"
"251006","561-UM","2017/09/25 19:38:21","新北市淡水區中山北路一段207巷52號","121.442416666667","25.1791133333333","6501000","淡水區"
"251011","650-BX","2017/09/25 19:38:35","新北市淡水區八勢一街85號","121.461631666667","25.1540683333333","6501000","淡水區"
"251003","766-UM","2017/09/25 19:38:27","新北市淡水區崁頂105號","121.433688333333","25.2039383333333","6501000","淡水區"
"207003","550-UM","2017/09/25 19:38:34","新北市萬里區大鵬里下社17-4號","121.648211666667","25.2177116666667","6502800","萬里區"
"207004","225-TW","2017/09/25 19:38:27","新北市萬里區萬里里瑪鋉路37號","121.68767","25.1756933333333","6502800","萬里區"
"252002","178-VK","2017/09/25 19:38:32","新北市三芝區中正路一段18巷34-1號","121.503898333333","25.2591866666667","6502100","三芝區"
"252001","292-VK","2017/09/25 19:38:17","新北市三芝區公正街9號","121.49974","25.257485","6502100","三芝區"
"237004","078-UY","2017/09/25 19:38:22","新北市三峽區插角39-3號","121.405718333333","24.8714433333333","6500900","三峽區"
"237007","153-BY","2017/09/25 19:38:34","新北市三峽區二鬮路178號","121.359101666667","24.90685","6500900","三峽區"
"237009","210-TH","2017/09/25 19:38:20","新北市三峽區民權街219號","121.367715","24.9283316666667","6500900","三峽區"
"237013","252-BX","2017/09/25 19:38:31","新北市三峽區介壽路一段350號","121.38161","24.9303233333333","6500900","三峽區"
"237012","275-BY","2017/09/25 19:38:35","新北市三峽區民生街3號","121.374533333333","24.93539","6500900","三峽區"
"237008","302-VK","2017/09/25 19:38:31","新北市三峽區永安街142號","121.374105","24.92875","6500900","三峽區"
"237001","159-BY","2017/09/25 17:36:03","新北市三峽區中山路459巷163-3號","121.348795","24.93308","6500900","三峽區"
"237014","433-BY","2017/09/25 19:38:17","新北市三峽區中山路63巷8號","121.36693","24.9343133333333","6500900","三峽區"
"237006","5529-G3","2017/09/25 19:38:23","新北市三峽區中正路一段336巷15弄2號","121.369958333333","24.9249416666667","6500900","三峽區"
"237015","649-BX","2017/09/25 19:38:33","新北市三峽區成福路57號","121.418286666667","24.92903","6500900","三峽區"
"237010","706-TV","2017/09/25 19:17:48","新北市三峽區復興路9號","121.37412","24.9360016666667","6500900","三峽區"
"237005","AKY-6261","2017/09/25 19:38:21","新北市三峽區中山路219巷9號","121.363143333333","24.9362583333333","6500900","三峽區"
"236069","105-UM","2017/09/25 19:38:32","新北市土城區學士路2號","121.454026666667","24.9832633333333","6501300","土城區"
"236042","107-UM","2017/09/25 19:38:36","新北市土城區學士路28號","121.452916666667","24.9823666666667","6501300","土城區"
"236078","166-UM","2017/09/25 19:38:26","新北市土城區中州路3巷42弄2號","121.413823333333","24.95683","6501300","土城區"
"236030","253-BX","2017/09/25 19:38:35","新北市土城區福祥街55號","121.440898333333","24.98009","6501300","土城區"
"236026","269-VK","2017/09/25 19:38:29","新北市土城區中央路二段61巷26號","121.44327","24.978725","6501300","土城區"
"236036","271-VK","2017/09/25 19:38:36","新北市土城區清水路98巷3弄29號","121.458238333333","24.98086","6501300","土城區"
"236020","401-BY","2017/09/25 19:38:16","新北市土城區金城路三段200-8號","121.46913","24.9875733333333","6501300","土城區"
"236058","912-UM","2017/09/25 19:38:25","新北市土城區中央路二段160號","121.4419","24.9766116666667","6501300","土城區"
"236048","913-UM","2017/09/25 19:38:12","新北市土城區金城路三段3號","121.464483333333","24.98623","6501300","土城區"
"236062","915-UM","2017/09/25 19:38:32","新北市土城區延平街13號","121.468225","24.99094","6501300","土城區"
"236053","AAC-216","2017/09/25 19:38:14","新北市土城區學府路一段232號","121.451911666667","24.98487","6501300","土城區"
"242031","AAC-296","2017/09/25 19:38:24","新北市新莊區新泰路213巷64號","121.444496666667","25.0385383333333","6500500","新莊區"
"242050","751-BX","2017/09/25 19:38:21","新北市新莊區瓊林路73號","121.436513333333","25.0217033333333","6500500","新莊區"
"242058","353-BY","2017/09/25 19:38:26","新北市新莊區新樹路205號","121.43597","25.0241716666667","6500500","新莊區"
"242013","346-TH","2017/09/25 19:38:33","新北市新莊區中誠街145號","121.448785","25.0473933333333","6500500","新莊區"
"242011","351-TH","2017/09/25 19:38:14","新北市泰山區泰林路一段2號","121.442416666667","25.0475533333333","6500500","新莊區"
"238015","755-BX","2017/09/25 19:38:21","新北市樹林區中興街20-5號","121.420865","24.9902466666667","6500700","樹林區"
"238023","601-UM","2017/09/25 19:38:25","新北市樹林區三福街25號","121.408595","25.016655","6500700","樹林區"
"238018","571-TV","2017/09/25 19:38:17","新北市樹林區環河路10號","121.426568333333","24.97877","6500700","樹林區"
"238024","5061-A6","2017/09/25 19:38:33","新北市樹林區中山路三段48號","121.394305","24.97242","6500700","樹林區"
"238021","KEA-2217","2017/09/25 19:38:27","新北市樹林區柑園街二段203巷2號","121.378476666667","24.9519116666667","6500700","樹林區"
"238022","KEA-2213","2017/09/25 19:38:30","新北市樹林區太元街110巷1號","121.419538333333","24.977615","6500700","樹林區"
"238025","303-VK","2017/09/25 19:38:33","新北市樹林區中山路一段135-4號","121.422443333333","24.9898016666667","6500700","樹林區"
"238017","283-BY","2017/09/25 19:38:35","新北市樹林區保安街二段197巷8號","121.413935","25.0030866666667","6500700","樹林區"
"238014","282-BY","2017/09/25 19:38:26","新北市樹林區千歲街4號","121.425","24.9956166666667","6500700","樹林區"
"238020","268-VK","2017/09/25 19:38:37","新北市樹林區俊英街133巷23號","121.423135","25.0107333333333","6500700","樹林區"
"238026","172-UY","2017/09/25 19:38:36","新北市樹林區佳園路二段157-2號","121.389845","24.95676","6500700","樹林區"
"238016","169-UY","2017/09/25 19:38:27","新北市樹林區東和街47巷2號","121.397823333333","24.983985","6500700","樹林區"
"239006","891-R6","2017/09/25 19:38:26","新北市鶯歌區永昌街111號","121.339831666667","24.950325","6500800","鶯歌區"
"239002","359-BY","2017/09/25 19:38:37","新北市鶯歌區大湖路185巷16號","121.343181666667","24.9708083333333","6500800","鶯歌區"
"239004","193-VK","2017/09/25 19:38:35","新北市鶯歌區二甲路佳美巷24號","121.33742","24.9339833333333","6500800","鶯歌區"
"221008","489-VK","2017/09/25 19:38:24","新北市汐止區康寧街143號","121.621556666667","25.0666216666667","6501100","汐止區"
"221036","130-UY","2017/09/25 19:38:30","新北市汐止區汐萬路一段256巷1號","121.651686666667","25.07487","6501100","汐止區"
"221015","131-UY","2017/09/25 19:38:20","新北市汐止區康寧街901號","121.651501666667","25.0748966666667","6501100","汐止區"
"221010","269-BY","2017/09/25 19:38:29","新北市汐止區汐萬路一段420號","121.649941666667","25.0779766666667","6501100","汐止區"
"221012","278-VK","2017/09/25 19:38:29","新北市汐止區汐平路一段5號","121.680766666667","25.0712366666667","6501100","汐止區"
"221023","279-VK","2017/09/25 19:38:34","新北市汐止區明峰街190號","121.628155","25.069765","6501100","汐止區"
"221032","280-BY","2017/09/25 19:38:31","新北市汐止區汐萬路一段181號","121.652586666667","25.0714066666667","6501100","汐止區"
"221027","281-BY","2017/09/25 19:38:22","新北市汐止區忠孝東路9號","121.65826","25.0659733333333","6501100","汐止區"
"221038","297-VK","2017/09/25 19:38:36","新北市汐止區忠孝東路225號","121.662333333333","25.0669033333333","6501100","汐止區"
"221029","298-VK","2017/09/25 19:38:15","新北市汐止區康寧街901號","121.651566666667","25.07497","6501100","汐止區"
"221021","299-VK","2017/09/25 19:38:27","新北市汐止區大同路二段175號","121.651691666667","25.06427","6501100","汐止區"
"221031","353-TW","2017/09/25 19:38:23","新北市汐止區康寧街753巷2弄24號","121.640271666667","25.0746133333333","6501100","汐止區"
"221025","623-UM","2017/09/25 19:38:29","新北市汐止區福安街19號","121.662655","25.0651816666667","6501100","汐止區"
"221033","647-BX","2017/09/25 19:38:21","新北市汐止區南勢街3號","121.627066666667","25.0373883333333","6501100","汐止區"
"221002","707-TV","2017/09/25 19:38:26","新北市汐止區大同路一段211號","121.633493333333","25.0577833333333","6501100","汐止區"
"221018","753-BX","2017/09/25 19:38:15","新北市汐止區康寧街901號","121.651351666667","25.074955","6501100","汐止區"
"220079","145-BY","2017/09/25 19:38:20","新北市板橋區復興街26號","121.458021666667","25.0173883333333","6500100","板橋區"
"220080","200-UY","2017/09/25 19:38:22","新北市板橋區大觀路二段37巷158號","121.449185","25.0012883333333","6500100","板橋區"
"220082","610-BX","2017/09/25 19:38:17","新北市板橋區金門街40號","121.43323","24.993655","6500100","板橋區"
"220101","245-BX","2017/09/25 19:38:31","新北市板橋區縣民大道三段33巷6弄2號","121.473976666667","25.02114","6500100","板橋區"
"220056","276-BY","2017/09/25 19:38:20","新北市板橋區四川路二段47巷1弄2號","121.454126666667","24.9949566666667","6500100","板橋區"
"220072","277-BY","2017/09/25 19:38:30","新北市板橋區金門街253巷17弄1號","121.433201666667","24.988735","6500100","板橋區"
"220064","280-UM","2017/09/25 19:38:23","新北市板橋區民權路33號","121.46224","25.01114","6500100","板橋區"
"220094","283-UM","2017/09/25 19:38:33","新北市板橋區銘傳街41-2號","121.469111666667","25.0314016666667","6500100","板橋區"
"220071","283-VK","2017/09/25 19:38:22","新北市板橋區四川路一段283巷7號","121.459758333333","25.0012183333333","6500100","板橋區"
"220053","285-VK","2017/09/25 19:38:22","新北市板橋區中山路二段148巷29號","121.477248333333","25.0162516666667","6500100","板橋區"
"220083","286-VK","2017/09/25 19:38:30","新北市板橋區大觀路二段174巷171號","121.44193","25.00353","6500100","板橋區"
"220090","288-VK","2017/09/25 19:38:18","新北市板橋區長江路一段136巷6號","121.460703333333","25.0297366666667","6500100","板橋區"
"220061","293-UM","2017/09/25 19:38:28","新北市板橋區中山路一段275號","121.469083333333","25.0135866666667","6500100","板橋區"
"220084","296-UM","2017/09/25 19:38:21","新北市板橋區滿平街84巷110弄22號","121.425898333333","24.9858266666667","6500100","板橋區"
"220075","297-UM","2017/09/25 19:38:21","新北市板橋區大勇街50號","121.452985","25.016695","6500100","板橋區"
"220062","303-R5","2017/09/25 19:38:19","新北市板橋區三民路二段81巷43號","121.48061","25.0170583333333","6500100","板橋區"
"220092","307-R5","2017/09/25 19:38:24","新北市板橋區陽明街25巷4號","121.465838333333","25.0216433333333","6500100","板橋區"
"220098","317-R6","2017/09/25 19:38:25","新北市板橋區民生路三段299巷18號","121.462705","25.03014","6500100","板橋區"
"220089","487-VK","2017/09/25 19:38:23","新北市板橋區英士路199號","121.458868333333","25.0236083333333","6500100","板橋區"
"220088","491-VK","2017/09/25 19:38:36","新北市板橋區文化路二段445號","121.475271666667","25.033305","6500100","板橋區"
"220035","560-BX","2017/09/25 19:38:29","新北市板橋區中正路370號","121.454485","25.02436","6500100","板橋區"
"220103","561-BX","2017/09/25 19:38:35","新北市板橋區文化路一段369-1號","121.46689","25.0213633333333","6500100","板橋區"
"220063","609-BX","2017/09/25 19:38:28","新北市板橋區中山路二段505巷22號","121.482103333333","25.022155","6500100","板橋區"
"220091","637-BX","2017/09/25 19:38:26","新北市板橋區懷德街191巷23號","121.48046","25.029995","6500100","板橋區"
"220057","686-BX","2017/09/25 19:38:28","新北市板橋區干城路10號","121.459816666667","24.993975","6500100","板橋區"
"220077","687-BX","2017/09/25 19:38:25","新北市板橋區僑中三街35號","121.445415","25.00482","6500100","板橋區"
"220093","689-BX","2017/09/25 19:38:24","新北市板橋區新海路407號","121.458418333333","25.0269583333333","6500100","板橋區"
"220054","741-BX","2017/09/25 19:38:33","新北市板橋區忠孝路69號","121.461711666667","25.00218","6500100","板橋區"
"220055","827-TW","2017/09/25 19:38:28","新北市板橋區國慶路149巷5號","121.461191666667","24.996895","6500100","板橋區"
"220102","830-TW","2017/09/25 19:38:27","新北市板橋區松柏街36巷8-1號","121.475338333333","25.02968","6500100","板橋區"
"220096","831-TW","2017/09/25 19:38:31","新北市板橋區民生路二段226巷19號","121.470725","25.0219266666667","6500100","板橋區"
"220074","895-R6","2017/09/25 19:38:28","新北市板橋區北門街25號","121.456698333333","25.0112433333333","6500100","板橋區"
"220073","985-R7","2017/09/25 19:38:19","新北市板橋區國光路49巷17號","121.458948333333","25.0187616666667","6500100","板橋區"
"220097","AAC-210","2017/09/25 19:38:22","新北市板橋區幸福路32巷3號","121.461543333333","25.020585","6500100","板橋區"
"220070","AAC-253","2017/09/25 19:38:21","新北市板橋區民族路178號","121.467705","25.007835","6500100","板橋區"
