"lineid","car","time","location","longitude","latitude","cityid","cityname"
"234046","148-BY","2017/09/25 19:48:31","新北市永和區秀朗路二段97號","121.523355","25.0018516666667","6500400","永和區"
"234013","149-BY","2017/09/25 19:48:25","新北市永和區仁愛路186巷2號","121.510016666667","25.012705","6500400","永和區"
"234007","208-UY","2017/09/25 19:48:22","新北市中和區中和路232號","121.506806666667","24.9995066666667","6500400","永和區"
"234081","298-R6","2017/09/25 19:48:17","新北市永和區國中路4號","121.524326666667","25.0043783333333","6500400","永和區"
"234038","336-UY","2017/09/25 19:48:22","新北市永和區民樂街39巷18弄42號","121.528455","24.9991266666667","6500400","永和區"
"234064","337-UY","2017/09/25 19:48:22","新北市永和區中正路362號","121.517656666667","25.00076","6500400","永和區"
"234086","338-UY","2017/09/25 19:48:32","新北市永和區永亨路128號","121.524536666667","25.0040133333333","6500400","永和區"
"234070","552-UM","2017/09/25 19:48:20","新北市永和區竹林路53號","121.518135","25.0138516666667","6500400","永和區"
"234054","553-UM","2017/09/25 19:48:29","新北市永和區竹林路39巷28弄15號","121.51977","25.0144716666667","6500400","永和區"
"234017","745-BX","2017/09/25 19:48:35","新北市永和區忠孝街26巷8號","121.51538","25.0167016666667","6500400","永和區"
"234030","746-BX","2017/09/25 19:48:20","新北市永和區民生路67巷12號","121.523228333333","24.9971966666667","6500400","永和區"
"241031","841-RS","2017/09/25 16:52:17","新北市永和區保生路55-8號","121.50403","25.0103883333333","6500200","三重區"
"234061","AAD-866","2017/09/25 19:48:29","新北市永和區中正路191號","121.517216666667","24.999175","6500400","永和區"
"234050","847-RS","2017/09/25 19:48:31","新北市永和區仁愛路152號","121.510761666667","25.012915","6500400","永和區"
"234042","862-TW","2017/09/25 19:48:31","新北市永和區中和路305巷16弄2號","121.507268333333","25.0012483333333","6500400","永和區"
"234026","9371-KE","2017/09/25 19:48:23","新北市永和區雙和街25巷4號","121.508885","25.0018766666667","6500400","永和區"
"234011","9373-KE","2017/09/25 19:48:21","新北市永和區仁愛路352巷92弄2號","121.501193333333","25.0080016666667","6500400","永和區"
"249001","173-UM","2017/09/25 19:48:27","新北市八里區中華路二段252號","121.405378333333","25.1496366666667","6502300","八里區"
"249004","303-UY","2017/09/25 19:48:18","新北市八里區仁愛路37號","121.413391666667","25.1606833333333","6502300","八里區"
"249002","305-UY","2017/09/25 19:48:26","新北市八里區頂寮五街22號","121.451258333333","25.126125","6502300","八里區"
"249003","593-UM","2017/09/25 19:48:32","新北市八里區華峰三街68號","121.39876","25.14562","6502300","八里區"
"248014","025-BX","2017/09/25 19:48:23","新北市五股區五福路42巷10號","121.43428","25.0896333333333","6501500","五股區"
"248016","026-BX","2017/09/25 19:48:35","新北市五股區成泰路四段17號","121.453456666667","25.1075233333333","6501500","五股區"
"248008","095-VK","2017/09/25 19:48:35","新北市蘆洲區中山一路417號","121.468756666667","25.0768333333333","6501500","五股區"
"248018","225-UY","2017/09/25 19:33:02","新北市五股區壟路19-2號","121.412863333333","25.08514","6501500","五股區"
"248010","272-BY","2017/09/25 19:48:30","新北市五股區登林路貿商巷1弄1號","121.430491666667","25.0696","6501500","五股區"
"248012","655-BX","2017/09/25 19:48:26","新北市五股區蓬萊路6巷43號","121.43586","25.080325","6501500","五股區"
"248004","677-BX","2017/09/25 19:48:36","新北市五股區成泰路一段197號","121.435083333333","25.0766683333333","6501500","五股區"
"248002","678-BX","2017/09/25 19:48:27","新北市五股區成泰路四段12-1號","121.453235","25.1065933333333","6501500","五股區"
"234077","969-R7","2017/09/25 19:48:29","新北市永和區民治街95號","121.51721","24.9984433333333","6500400","永和區"
"234074","AAC-211","2017/09/25 19:48:21","新北市永和區竹林路213巷44號","121.523203333333","25.00899","6500400","永和區"
"234067","AAC-212","2017/09/25 19:48:20","新北市永和區永貞路422號","121.508431666667","25.0083216666667","6500400","永和區"
"234003","AAC-295","2017/09/25 19:48:31","新北市永和區福和路313號","121.516095","25.00726","6500400","永和區"
"244019","403-UM","2017/09/25 19:48:20","新北市林口區文化二路一段575號","121.375756666667","25.0782516666667","6501700","林口區"
"244011","656-BX","2017/09/25 19:48:32","新北市林口區太平里180號","121.368418333333","25.134525","6501700","林口區"
"243013","AAD-798","2017/09/25 19:48:18","新北市泰山區應化街7號","121.423903333333","25.0437116666667","6501600","泰山區"
"243009","297-R6","2017/09/25 19:48:26","新北市泰山區美寧街60號","121.430881666667","25.064605","6501600","泰山區"
"243015","380-SR","2017/09/25 19:48:22","新北市泰山區明志路二段237巷11號","121.42774","25.0480666666667","6501600","泰山區"
"243014","421-VK","2017/09/25 19:48:19","新北市泰山區泰林路二段33-7號","121.435233333333","25.056515","6501600","泰山區"
"243010","KEA-2215","2017/09/25 19:48:17","新北市泰山區民生路33號","121.430528333333","25.052155","6501600","泰山區"
"243011","KEA-2216","2017/09/25 19:48:17","新北市泰山區明志路三段204巷10弄16號","121.423021666667","25.0387383333333","6501600","泰山區"
"243012","646-TV","2017/09/25 19:48:35","新北市泰山區全興路13號","121.432345","25.0589383333333","6501600","泰山區"
"243016","680-BX","2017/09/25 19:48:28","新北市泰山區貴陽街32號","121.42299","25.0324433333333","6501600","泰山區"
"222003","436-BY","2017/09/25 19:34:25","新北市深坑區深南路51-1號","121.621131666667","25.01004","6501800","深坑區"
"222001","628-TS","2017/09/25 19:48:18","新北市深坑區北深路三段64號","121.607946666667","25.0013783333333","6501800","深坑區"
"222002","659-BX","2017/09/25 19:48:31","新北市深坑區北深路一段361號","121.62247","25.005055","6501800","深坑區"
"231041","002-UM","2017/09/25 19:48:30","新北市新店區中央路224號","121.52959","24.9729466666667","6500600","新店區"
"231055","0293-UT","2017/09/25 19:48:21","新北市新店區新生街3巷4號","121.54026","24.96562","6500600","新店區"
"231059","046-UY","2017/09/25 19:48:31","新北市新店區安和路一段53號","121.517471666667","24.966055","6500600","新店區"
"231061","047-UY","2017/09/25 19:48:24","新北市新店區安民街252號","121.517588333333","24.97318","6500600","新店區"
"231060","106-UY","2017/09/25 19:48:35","新北市新店區安康路二段163號","121.510048333333","24.959245","6500600","新店區"
"231051","107-UY","2017/09/25 19:48:17","新北市新店區中央一街51號","121.527026666667","24.9742683333333","6500600","新店區"
"231047","108-UY","2017/09/25 19:48:18","新北市新店區寶興路49號","121.549296666667","24.9731483333333","6500600","新店區"
"231052","187-VK","2017/09/25 19:48:35","新北市新店區新烏路三段1號","121.551636666667","24.906985","6500600","新店區"
"231050","215-TC","2017/09/25 19:48:29","新北市新店區郵政路4巷17號","121.55668","24.9516566666667","6500600","新店區"
"231057","256-BX","2017/09/25 19:48:33","新北市新店區梅崗三路1號","121.558355","24.9312583333333","6500600","新店區"
"231063","268-BY","2017/09/25 19:48:32","新北市新店區車子路8-1號","121.504375","24.9529433333333","6500600","新店區"
"231046","278-BY","2017/09/25 19:48:32","新北市新店區三民路159巷19弄46號","121.532173333333","24.9732566666667","6500600","新店區"
"231054","AAD-862","2017/09/25 19:48:29","新北市新店區光明街84號","121.53876","24.960145","6500600","新店區"
"231056","4716-K9","2017/09/25 19:48:16","新北市新店區中央四街5-1號","121.530268333333","24.9737983333333","6500600","新店區"
"231067","4772-VM","2017/09/25 19:48:29","新北市新店區精忠路10-1號","121.532651666667","24.9590833333333","6500600","新店區"
"231065","512-UM","2017/09/25 19:48:15","新北市新店區安祥路109巷151弄12號","121.478098333333","24.9588883333333","6500600","新店區"
"231064","515-UM","2017/09/25 19:48:19","新北市新店區安和路一段52巷2號","121.517601666667","24.965965","6500600","新店區"
"231040","619-UM","2017/09/25 19:48:25","新北市新店區北新路一段96巷23號","121.542988333333","24.9688483333333","6500600","新店區"
"231042","641-BX","2017/09/25 19:48:23","新北市新店區中興路一段273號","121.54521","24.9681233333333","6500600","新店區"
"231068","718-UY","2017/09/25 19:48:24","新北市新店區安華路28-1號","121.519431666667","24.9610166666667","6500600","新店區"
"231049","719-UM","2017/09/25 19:48:35","新北市新店區民權路127巷17號","121.53544","24.9817516666667","6500600","新店區"
"231062","720-UM","2017/09/25 19:48:31","新北市新店區永業路46號","121.531621666667","24.9537216666667","6500600","新店區"
"231044","897-TW","2017/09/25 19:48:30","新北市新店區復興路31號","121.538613333333","24.9865883333333","6500600","新店區"
"231045","898-TW","2017/09/25 19:48:23","新北市新店區中生路83巷3號","121.564701666667","24.9518133333333","6500600","新店區"
"231043","899-TW","2017/09/25 19:48:25","新北市新店區中正路211號","121.539868333333","24.972825","6500600","新店區"
"241011","013-R5","2017/09/25 19:48:30","新北市三重區三和路二段226號","121.49768","25.0697716666667","6500200","三重區"
"241028","022-UY","2017/09/25 19:48:20","新北市三重區中正南路157號","121.49383","25.0561333333333","6500200","三重區"
"241008","059-VK","2017/09/25 19:48:14","新北市三重區永福街103號","121.479208333333","25.0774616666667","6500200","三重區"
"241009","060-VK","2017/09/25 19:48:27","新北市三重區三和路四段398號","121.481475","25.07919","6500200","三重區"
"241031","061-VK","2017/09/25 19:48:32","新北市三重區重新路四段250-1號","121.486051666667","25.05353","6500200","三重區"
"241015","062-VK","2017/09/25 19:48:21","新北市三重區三和路一段29號","121.50353","25.0648833333333","6500200","三重區"
"241017","063-VK","2017/09/25 19:48:29","新北市三重區重陽路三段27巷1號","121.489641666667","25.0665733333333","6500200","三重區"
"241024","065-VK","2017/09/25 19:48:28","新北市三重區中正北路193巷35弄36號","121.477281666667","25.0711733333333","6500200","三重區"
"241026","066-VK","2017/09/25 19:48:28","新北市三重區文化南路42號","121.500363333333","25.06031","6500200","三重區"
"241003","091-VK","2017/09/25 19:48:20","新北市三重區五華街93巷38號","121.493173333333","25.0846733333333","6500200","三重區"
"241007","156-TC","2017/09/25 19:48:33","新北市三重區三和路四段135巷6號","121.484845","25.078125","6500200","三重區"
"241016","266-UM","2017/09/25 19:48:24","新北市三重區正德街41巷9號","121.49628","25.0627716666667","6500200","三重區"
"241022","267-UM","2017/09/25 19:48:24","新北市三重區新北大道一段7號","121.489608333333","25.0613833333333","6500200","三重區"
"241013","270-UM","2017/09/25 19:48:26","新北市三重區仁愛街112巷14號","121.494605","25.07405","6500200","三重區"
"241025","271-UM","2017/09/25 19:48:18","新北市三重區頂崁街210巷16號","121.476533333333","25.0677433333333","6500200","三重區"
"241032","KEA-2210","2017/09/25 19:48:30","新北市三重區三陽路14巷1號","121.485935","25.0584716666667","6500200","三重區"
"241020","413-TH","2017/09/25 19:48:18","新北市三重區三和路四段122-1號","121.489448333333","25.07506","6500200","三重區"
"241035","462-BY","2017/09/25 19:48:28","新北市三重區文化北路33號","121.499341666667","25.0641216666667","6500200","三重區"
"241004","475-VK","2017/09/25 19:48:33","新北市三重區五華街74號","121.493421666667","25.0820416666667","6500200","三重區"
"241019","478-VK","2017/09/25 19:48:30","新北市三重區三張街106號","121.487785","25.0697566666667","6500200","三重區"
"241030","480-VK","2017/09/25 19:48:32","新北市三重區環河南路253號","121.491128333333","25.0506733333333","6500200","三重區"
"241014","543-UM","2017/09/25 19:48:27","新北市三重區長元街98巷18弄1號","121.502403333333","25.0676583333333","6500200","三重區"
"241023","545-UM","2017/09/25 19:48:20","新北市三重區頂崁街172號","121.47761","25.0659416666667","6500200","三重區"
"241001","547-UM","2017/09/25 19:48:28","新北市三重區仁愛街327巷78號","121.493876666667","25.0805066666667","6500200","三重區"
"241006","AAD-863","2017/09/25 19:48:33","新北市三重區永福街269號","121.481583333333","25.0741466666667","6500200","三重區"
"241012","941-UM","2017/09/25 19:48:26","新北市三重區仁福街64巷14號","121.497681666667","25.07512","6500200","三重區"
"241029","942-UM","2017/09/25 19:48:23","新北市三重區光明路47號","121.491545","25.0580083333333","6500200","三重區"
"241033","AAC-255","2017/09/25 19:48:28","新北市三重區五谷王南街46巷7號","121.47475","25.0449916666667","6500200","三重區"
"235066","003-UY","2017/09/25 19:48:25","新北市中和區南工路20號","121.505518333333","25.000475","6500300","中和區"
"235064","005-UY","2017/09/25 19:48:33","新北市中和區南山路127巷18弄1號","121.503498333333","24.997425","6500300","中和區"
"235063","006-UY","2017/09/25 19:48:21","新北市中和區安邦街43號","121.496343333333","24.9976366666667","6500300","中和區"
"235056","096-UM","2017/09/25 19:48:21","新北市中和區中山路三段118號","121.475481666667","25.0060916666667","6500300","中和區"
"235039","097-UM","2017/09/25 19:48:31","新北市中和區秀峰街84號","121.51977","24.99099","6500300","中和區"
"235065","098-UM","2017/09/25 19:48:32","新北市中和區中山路二段178巷19號","121.50053","25.0034066666667","6500300","中和區"
"235040","150-BY","2017/09/25 19:48:24","新北市中和區保健路50巷68號","121.509105","24.9951716666667","6500300","中和區"
"235058","151-BY","2017/09/25 19:48:33","新北市中和區員山路155號","121.481123333333","24.996485","6500300","中和區"
"235055","183-VK","2017/09/25 19:48:20","新北市中和區中山路三段181巷18弄11號","121.472716666667","25.0048266666667","6500300","中和區"
"235038","185-VK","2017/09/25 19:48:28","新北市中和區自立路35號","121.522103333333","24.99546","6500300","中和區"
"235013","186-VK","2017/09/25 19:48:30","新北市中和區中正路60號","121.50149","24.993665","6500300","中和區"
"235067","255-BX","2017/09/25 19:48:32","新北市中和區中正路839巷31號","121.483673333333","25.0022833333333","6500300","中和區"
"235044","293-VK","2017/09/25 19:48:22","新北市中和區南山路421巷1弄3號","121.507345","24.98958","6500300","中和區"
"235068","375-QA","2017/09/25 19:48:34","新北市中和區中山路二段191號","121.500153333333","25.00268","6500300","中和區"
"235051","376-QA","2017/09/25 19:48:35","新北市中和區中興街178號","121.499891666667","24.9910366666667","6500300","中和區"
"235061","378-QA","2017/09/25 19:48:20","新北市中和區員山路226巷22弄5號","121.481853333333","25.0000866666667","6500300","中和區"
"235050","4979-A6","2017/09/25 19:48:33","新北市中和區景平路241巷82弄16號","121.507065","24.9921116666667","6500300","中和區"
"235069","4980-A6","2017/09/25 19:48:34","新北市中和區中正路273號","121.49564","24.9938016666667","6500300","中和區"
"235042","551-UM","2017/09/25 19:48:35","新北市中和區景安路79巷37弄1號","121.507493333333","24.9964066666667","6500300","中和區"
"235070","558-UM","2017/09/25 19:48:17","新北市中和區景平路634-16號","121.498228333333","25.00012","6500300","中和區"
"235045","565-BX","2017/09/25 19:48:23","新北市中和區景新街404號","121.512603333333","24.9894083333333","6500300","中和區"
"235043","611-BX","2017/09/25 19:48:20","新北市中和區興南路一段61號","121.510348333333","24.9897016666667","6500300","中和區"
"235054","640-BX","2017/09/25 19:48:14","新北市中和區國光街107巷2弄32號","121.469256666667","24.9990116666667","6500300","中和區"
"235060","647-TV","2017/09/25 19:48:26","新北市中和區新生街18號","121.4831","25.004305","6500300","中和區"
"235046","733-UM","2017/09/25 19:48:31","新北市中和區仁愛街128號","121.511923333333","24.98666","6500300","中和區"
"235057","801-TS","2017/09/25 19:48:32","新北市中和區員山路150-14號","121.481336666667","24.9977016666667","6500300","中和區"
"235041","802-TS","2017/09/25 19:48:18","新北市中和區永貞路249巷18號","121.512426666667","25.00357","6500300","中和區"
"235052","805-TS","2017/09/25 19:48:24","新北市中和區華新街192巷7號","121.506685","24.9824466666667","6500300","中和區"
"235048","896-TW","2017/09/25 19:48:24","新北市中和區興南路一段164號","121.508118333333","24.98667","6500300","中和區"
"235053","900-TW","2017/09/25 19:48:25","新北市中和區國光街205巷2號","121.466825","25.0019566666667","6500300","中和區"
"235062","911-UM","2017/09/25 19:48:17","新北市新店區安忠路102-1號","121.51056","24.9554966666667","6500300","中和區"
"235037","AAC-213","2017/09/25 19:48:18","新北市中和區秀朗路三段104號","121.52551","24.9929933333333","6500300","中和區"
"235059","AAC-215","2017/09/25 19:48:15","新北市中和區圓通路335巷71號","121.494228333333","24.9893566666667","6500300","中和區"
"220068","013-TV","2017/09/25 19:48:26","新北市板橋區光復街133巷10號","121.48457","25.0198633333333","6500100","板橋區"
"220065","072-UY","2017/09/25 19:48:31","新北市板橋區民族路270巷37號","121.46925","25.0061233333333","6500100","板橋區"
"220086","073-UY","2017/09/25 19:48:20","新北市板橋區林園街1號","121.453896666667","25.009185","6500100","板橋區"
"220106","075-UY","2017/09/25 19:48:30","新北市板橋區文化路二段608巷64號","121.480136666667","25.0340566666667","6500100","板橋區"
"220069","AAD-861","2017/09/25 19:48:38","新北市板橋區貴興路106巷27號","121.455145","25.00291","6500100","板橋區"
"247002","337-TH","2017/09/25 19:48:31","新北市蘆洲區永平街28號","121.458831666667","25.0907616666667","6501400","蘆洲區"
"247004","336-TH","2017/09/25 19:48:20","新北市蘆洲區中原路61號","121.458905","25.0820683333333","6501400","蘆洲區"
"247006","056-VK","2017/09/25 19:48:21","新北市蘆洲區永安南路二段28號","121.467213333333","25.0771066666667","6501400","蘆洲區"
"247008","053-VK","2017/09/25 19:48:34","新北市蘆洲區中山一路63號","121.478475","25.0811083333333","6501400","蘆洲區"
"247014","007-UY","2017/09/25 19:48:17","新北市蘆洲區中央路99號","121.472403333333","25.0840833333333","6501400","蘆洲區"
"226004","312-R5","2017/09/25 19:48:26","新北市平溪區十分里十分街58巷18號","121.774623333333","25.0432","6502400","平溪區"
"228003","097-TW","2017/09/25 19:48:20","新北市貢寮區真理里美艷山街4號","121.92756","25.0600233333333","6502600","貢寮區"
"228001","670-TC","2017/09/25 19:48:23","新北市貢寮區真理里新港街118號","121.926861666667","25.0565733333333","6502600","貢寮區"
"224002","639-TC","2017/09/25 19:48:25","新北市瑞芳區員山子路員山巷20-1號","121.816683333333","25.1038583333333","6501200","瑞芳區"
"227008","642-TC","2017/09/25 19:48:21","新北市雙溪區新基里中華路67號","121.865795","25.0382183333333","6502500","雙溪區"
"227001","400-TW","2017/09/25 19:48:21","新北市雙溪區雙溪里內挖路36號","121.863211666667","25.0367216666667","6502500","雙溪區"
"208002","742-BX","2017/09/25 19:48:30","新北市金山區中山路323號","121.635428333333","25.223795","6502700","金山區"
"208003","665-BX","2017/09/25 19:48:20","新北市金山區中山路192號","121.637915","25.2214433333333","6502700","金山區"
"208001","761-BX","2017/09/25 19:48:18","新北市金山區重和里茅埔頭15號","121.601893333333","25.2138383333333","6502700","金山區"
"251009","008-UM","2017/09/25 19:48:21","新北市淡水區中正路38-1號","121.443701666667","25.16927","6501000","淡水區"
"251004","009-UM","2017/09/25 19:48:30","新北市淡水區民權路183巷20號","121.460321666667","25.1341133333333","6501000","淡水區"
"251001","011-UM","2017/09/25 19:48:23","新北市淡水區中正東路二段89號","121.459483333333","25.15257","6501000","淡水區"
"251008","181-VK","2017/09/25 19:48:20","新北市淡水區中正路一段24巷2-4號","121.426825","25.17701","6501000","淡水區"
"251013","182-VK","2017/09/25 19:48:22","新北市淡水區頂田寮17號","121.461626666667","25.214185","6501000","淡水區"
"251012","441-VK","2017/09/25 19:48:25","新北市淡水區埤島5號","121.446501666667","25.1931683333333","6501000","淡水區"
"251015","442-VK","2017/09/25 19:48:21","新北市淡水區商工路329號","121.464186666667","25.1859283333333","6501000","淡水區"
"251005","443-VK","2017/09/25 19:48:28","新北市淡水區學府路88號","121.449281666667","25.1709516666667","6501000","淡水區"
"251006","561-UM","2017/09/25 19:48:21","新北市淡水區中山北路一段168號","121.444313333333","25.17879","6501000","淡水區"
"251011","650-BX","2017/09/25 19:48:34","新北市淡水區水源街二段194號","121.456973333333","25.1757333333333","6501000","淡水區"
"251003","766-UM","2017/09/25 19:48:27","新北市淡水區崁頂78-5號","121.429421666667","25.2071233333333","6501000","淡水區"
"207003","550-UM","2017/09/25 19:48:34","新北市萬里區大鵬里萬里加投192號","121.642821666667","25.21569","6502800","萬里區"
"207004","225-TW","2017/09/25 19:48:24","新北市萬里區萬里里瑪鋉路207號","121.690328333333","25.1793916666667","6502800","萬里區"
"252002","178-VK","2017/09/25 19:48:32","新北市三芝區三民街33-1號","121.504665","25.25854","6502100","三芝區"
"252001","292-VK","2017/09/25 19:48:17","新北市三芝區公正街9號","121.49976","25.2575283333333","6502100","三芝區"
"237004","078-UY","2017/09/25 19:48:22","新北市三峽區添福16-8號","121.375065","24.8991316666667","6500900","三峽區"
"237007","153-BY","2017/09/25 19:48:34","新北市三峽區二鬮路57號","121.35986","24.90783","6500900","三峽區"
"237009","210-TH","2017/09/25 19:48:20","新北市三峽區中園街87號","121.367901666667","24.9250316666667","6500900","三峽區"
"237013","252-BX","2017/09/25 19:47:59","新北市三峽區橫溪路57號","121.397231666667","24.935245","6500900","三峽區"
"237012","275-BY","2017/09/25 19:48:35","新北市三峽區中華路31號","121.37301","24.9312833333333","6500900","三峽區"
"237008","302-VK","2017/09/25 19:48:31","新北市三峽區永安街183號","121.373148333333","24.9268383333333","6500900","三峽區"
"237001","159-BY","2017/09/25 17:36:03","新北市三峽區中山路459巷163-3號","121.348795","24.93308","6500900","三峽區"
"237014","433-BY","2017/09/25 19:48:17","新北市三峽區嘉添1號","121.368336666667","24.9118","6500900","三峽區"
"237006","5529-G3","2017/09/25 19:48:23","新北市三峽區中正路一段336巷15弄2號","121.369945","24.92496","6500900","三峽區"
"237015","649-BX","2017/09/25 19:48:33","新北市三峽區溪東路218巷2-2號","121.407445","24.931775","6500900","三峽區"
"237005","AKY-6261","2017/09/25 19:48:21","新北市三峽區文化路6號","121.37337","24.9356016666667","6500900","三峽區"
"236069","105-UM","2017/09/25 19:48:32","新北市土城區水源街32巷16號","121.441321666667","24.97586","6501300","土城區"
"236042","107-UM","2017/09/25 19:48:16","新北市土城區清水路85巷3弄2號","121.456113333333","24.9820466666667","6501300","土城區"
"236078","166-UM","2017/09/25 19:48:27","新北市土城區中州路27巷76號","121.412616666667","24.956405","6501300","土城區"
"236030","253-BX","2017/09/25 19:48:20","新北市土城區中央路一段290號","121.4433","24.9824283333333","6501300","土城區"
"236026","269-VK","2017/09/25 19:48:29","新北市土城區中央路二段61巷26號","121.443283333333","24.978725","6501300","土城區"
"236036","271-VK","2017/09/25 19:48:16","新北市土城區國際路93號","121.467425","24.9757133333333","6501300","土城區"
"236020","401-BY","2017/09/25 19:48:36","新北市土城區金城路三段200-8號","121.469111666667","24.9875533333333","6501300","土城區"
"236058","912-UM","2017/09/25 19:48:25","新北市土城區中央路二段49號","121.442686666667","24.9796983333333","6501300","土城區"
"236048","913-UM","2017/09/25 19:48:32","新北市土城區青雲路299-1號","121.45903","24.9795566666667","6501300","土城區"
"236062","915-UM","2017/09/25 19:48:34","新北市土城區延平街33巷1號","121.467855","24.9917116666667","6501300","土城區"
"236053","AAC-216","2017/09/25 19:48:34","新北市土城區立德路20號","121.46279","24.9878566666667","6501300","土城區"
"242031","AAC-296","2017/09/25 19:48:30","新北市新莊區公園一路109號","121.444938333333","25.038085","6500500","新莊區"
"242050","751-BX","2017/09/25 19:48:21","新北市新莊區民安路280號","121.42782","25.0214966666667","6500500","新莊區"
"242027","612-BX","2017/09/25 19:48:18","新北市新莊區幸福路842號","121.444546666667","25.0489783333333","6500500","新莊區"
"242044","497-BY","2017/09/25 19:48:26","新北市新莊區新北大道七段712號","121.41235","25.0265066666667","6500500","新莊區"
"242048","441-UM","2017/09/25 19:48:16","新北市新莊區後港一路28巷3弄1號","121.425558333333","25.025525","6500500","新莊區"
"242004","413-TV","2017/09/25 19:48:27","新北市新莊區化成路63巷24弄13號","121.462753333333","25.0459316666667","6500500","新莊區"
"242060","362-BY","2017/09/25 19:48:28","新北市新莊區中正路400號","121.44195","25.0341933333333","6500500","新莊區"
"242058","353-BY","2017/09/25 19:48:26","新北市新莊區民安路185號","121.425925","25.0228316666667","6500500","新莊區"
"242036","133-UY","2017/09/25 19:48:15","新北市新莊區建安街74號","121.426616666667","25.0243383333333","6500500","新莊區"
"242021","135-UY","2017/09/25 19:48:30","新北市新莊區新泰路125號","121.448398333333","25.03615","6500500","新莊區"
"242013","346-TH","2017/09/25 19:48:33","新北市新莊區中誠街71號","121.45061","25.0478583333333","6500500","新莊區"
"242017","350-TH","2017/09/25 19:48:21","新北市新莊區公園路124號","121.451756666667","25.0401366666667","6500500","新莊區"
"242011","351-TH","2017/09/25 19:48:14","新北市新莊區中智街58號","121.447788333333","25.0549283333333","6500500","新莊區"
"238015","755-BX","2017/09/25 19:48:22","新北市樹林區樹德街22號","121.422631666667","24.9915766666667","6500700","樹林區"
"238023","601-UM","2017/09/25 19:48:25","新北市樹林區三福街154號","121.405128333333","25.015955","6500700","樹林區"
"238024","5061-A6","2017/09/25 19:48:33","新北市樹林區育德街78-1號","121.387505","24.9681183333333","6500700","樹林區"
"238021","KEA-2217","2017/09/25 19:48:27","新北市樹林區學成路712號","121.382853333333","24.9462183333333","6500700","樹林區"
"238022","KEA-2213","2017/09/25 19:48:30","新北市樹林區名園街51巷6弄25號","121.420923333333","24.9781316666667","6500700","樹林區"
"238025","303-VK","2017/09/25 19:48:36","新北市樹林區中山路二段168號","121.412241666667","24.98261","6500700","樹林區"
"238017","283-BY","2017/09/25 19:48:27","新北市樹林區保安街二段47號","121.415955","25.0000866666667","6500700","樹林區"
"238014","282-BY","2017/09/25 19:48:18","新北市樹林區千歲街46巷2弄1號","121.426375","24.9966966666667","6500700","樹林區"
"238020","268-VK","2017/09/25 19:48:17","新北市樹林區俊英街121巷16號","121.423713333333","25.01016","6500700","樹林區"
"238026","172-UY","2017/09/25 19:48:35","新北市樹林區佳園路二段15巷9弄7號","121.393883333333","24.9633716666667","6500700","樹林區"
"239006","891-R6","2017/09/25 19:48:26","新北市鶯歌區文化路299號","121.352668333333","24.9525316666667","6500800","鶯歌區"
"221008","489-VK","2017/09/25 19:48:24","新北市汐止區康寧街83巷113號","121.620535","25.0672183333333","6501100","汐止區"
"221036","130-UY","2017/09/25 19:48:30","新北市汐止區汐萬路一段159號","121.65307","25.071055","6501100","汐止區"
"221015","131-UY","2017/09/25 19:48:20","新北市汐止區茄苳路2巷1號","121.66446","25.0708233333333","6501100","汐止區"
"221010","269-BY","2017/09/25 19:48:29","新北市汐止區汐萬路一段343巷1-1號","121.650168333333","25.07678","6501100","汐止區"
"221012","278-VK","2017/09/25 19:48:29","新北市汐止區保長路273巷1號","121.681088333333","25.0740416666667","6501100","汐止區"
"221023","279-VK","2017/09/25 19:48:21","新北市汐止區民族六街6巷2號","121.629758333333","25.0698233333333","6501100","汐止區"
"221032","280-BY","2017/09/25 19:48:31","新北市汐止區橫科路119號","121.620283333333","25.0503166666667","6501100","汐止區"
"221027","281-BY","2017/09/25 19:48:22","新北市汐止區忠孝東路9號","121.65828","25.0659783333333","6501100","汐止區"
"221038","297-VK","2017/09/25 19:48:18","新北市汐止區忠孝東路279號","121.66388","25.068475","6501100","汐止區"
"221029","298-VK","2017/09/25 19:48:35","新北市汐止區康寧街901號","121.65159","25.07496","6501100","汐止區"
"221021","299-VK","2017/09/25 19:48:27","新北市汐止區莊敬街70號","121.656413333333","25.0614183333333","6501100","汐止區"
"221031","353-TW","2017/09/25 19:48:23","新北市汐止區福德三路127號","121.633548333333","25.0675516666667","6501100","汐止區"
"221035","622-UM","2017/09/25 19:48:28","新北市汐止區長江街11號","121.654711666667","25.07121","6501100","汐止區"
"221025","623-UM","2017/09/25 19:48:29","新北市汐止區秀峰路81巷13號","121.66061","25.0646166666667","6501100","汐止區"
"221033","647-BX","2017/09/25 19:48:21","新北市汐止區東勢街109號","121.632786666667","25.0405516666667","6501100","汐止區"
"221018","753-BX","2017/09/25 19:48:34","新北市汐止區茄苳路8號","121.664708333333","25.0706383333333","6501100","汐止區"
"220079","145-BY","2017/09/25 19:48:34","新北市板橋區民權路202巷17弄44號","121.459078333333","25.0168133333333","6500100","板橋區"
"220080","200-UY","2017/09/25 19:48:21","新北市板橋區大觀路二段37巷67號","121.4498","25.0024666666667","6500100","板橋區"
"220082","610-BX","2017/09/25 19:48:19","新北市板橋區篤行路一段22號","121.431673333333","24.9943966666667","6500100","板橋區"
"220101","245-BX","2017/09/25 19:48:32","新北市板橋區莒光路200-1號","121.474198333333","25.0221733333333","6500100","板橋區"
"220056","276-BY","2017/09/25 19:48:36","新北市板橋區四川路二段99-2號","121.452546666667","24.9946566666667","6500100","板橋區"
"220072","277-BY","2017/09/25 19:48:30","新北市板橋區金門街215巷41號","121.433391666667","24.98961","6500100","板橋區"
"220064","280-UM","2017/09/25 19:48:23","新北市板橋區館前東路116-1號","121.463625","25.0076166666667","6500100","板橋區"
"220094","283-UM","2017/09/25 19:48:33","新北市板橋區民生路三段309號","121.4635","25.0310433333333","6500100","板橋區"
"220071","283-VK","2017/09/25 19:48:23","新北市板橋區信義路279巷19號","121.464698333333","24.990325","6500100","板橋區"
"220053","285-VK","2017/09/25 19:48:36","新北市板橋區中山路二段60巷1弄21號","121.47498","25.0157533333333","6500100","板橋區"
"220083","286-VK","2017/09/25 19:48:31","新北市板橋區龍興街65巷62號","121.442263333333","25.001995","6500100","板橋區"
"220090","288-VK","2017/09/25 19:48:19","新北市板橋區新海路431巷20號","121.457711666667","25.0269066666667","6500100","板橋區"
"220061","293-UM","2017/09/25 19:48:28","新北市板橋區漢生東路113巷25號","121.468348333333","25.01562","6500100","板橋區"
"220084","296-UM","2017/09/25 19:48:21","新北市板橋區滿平二街7號","121.425385","24.9865916666667","6500100","板橋區"
"220075","297-UM","2017/09/25 19:48:21","新北市板橋區中正路301號","121.455256666667","25.0195983333333","6500100","板橋區"
"220062","303-R5","2017/09/25 19:48:21","新北市板橋區三民路二段29巷31弄13號","121.48187","25.017725","6500100","板橋區"
"220092","307-R5","2017/09/25 19:48:24","新北市板橋區陽明街164巷15號","121.464045","25.0245366666667","6500100","板橋區"
"220098","317-R6","2017/09/25 19:48:25","新北市板橋區裕民街111巷1號","121.459845","25.02744","6500100","板橋區"
"220089","487-VK","2017/09/25 19:48:23","新北市板橋區龍泉街80號","121.456376666667","25.0255516666667","6500100","板橋區"
"242034","280-VK","2017/09/25 19:48:29","新北市新莊區仁愛街39號","121.444265","25.036675","6500500","新莊區"
"220088","491-VK","2017/09/25 19:48:16","新北市板橋區仁化街103號","121.476608333333","25.0322616666667","6500100","板橋區"
"220035","560-BX","2017/09/25 19:48:29","新北市板橋區金華街104號","121.458576666667","25.020795","6500100","板橋區"
"220103","561-BX","2017/09/25 19:48:30","新北市板橋區陽明街29巷6號","121.464981666667","25.0218283333333","6500100","板橋區"
"220063","609-BX","2017/09/25 19:48:28","新北市板橋區中山路二段385號","121.480186666667","25.0192933333333","6500100","板橋區"
"220091","637-BX","2017/09/25 19:48:26","新北市板橋區懷德街127巷38-3號","121.48006","25.031515","6500100","板橋區"
"220057","686-BX","2017/09/25 19:48:28","新北市板橋區廣和街65號","121.462561666667","24.9928666666667","6500100","板橋區"
"220077","687-BX","2017/09/25 19:48:25","新北市板橋區僑中一街120號","121.446026666667","25.01171","6500100","板橋區"
"220093","689-BX","2017/09/25 19:48:19","新北市板橋區長江路二段165號","121.466443333333","25.0320366666667","6500100","板橋區"
"220054","741-BX","2017/09/25 19:48:33","新北市板橋區忠孝路192號","121.465161666667","25.002535","6500100","板橋區"
"220055","827-TW","2017/09/25 19:48:28","新北市板橋區國慶路149巷29弄1號","121.460823333333","24.99769","6500100","板橋區"
"220102","830-TW","2017/09/25 19:48:27","新北市板橋區松柏街35號","121.475203333333","25.03033","6500100","板橋區"
"220096","831-TW","2017/09/25 19:48:31","新北市板橋區民生路二段240巷65號","121.470095","25.0230033333333","6500100","板橋區"
"220074","895-R6","2017/09/25 19:48:28","新北市板橋區福德街51號","121.456125","25.008335","6500100","板橋區"
"220073","985-R7","2017/09/25 19:48:19","新北市板橋區大仁街11號","121.455816666667","25.016945","6500100","板橋區"
"220097","AAC-210","2017/09/25 19:48:22","新北市板橋區文化路一段285巷20號","121.463821666667","25.0194","6500100","板橋區"
"220070","AAC-253","2017/09/25 19:48:21","新北市板橋區民族路109號","121.466823333333","25.0081966666667","6500100","板橋區"
