"lineid","car","time","location","longitude","latitude","cityid","cityname"
"234081","298-R6","2017/09/25 20:38:17","新北市永和區永貞路80號","121.520143333333","25.005125","6500400","永和區"
"234038","336-UY","2017/09/25 20:38:36","新北市永和區民樂街31巷17弄3號","121.528611666667","25.0019083333333","6500400","永和區"
"234064","337-UY","2017/09/25 20:38:22","新北市永和區環河西路一段99號","121.511298333333","25.017865","6500400","永和區"
"234086","338-UY","2017/09/25 20:38:32","新北市永和區光復街21號","121.516443333333","25.0173933333333","6500400","永和區"
"234070","552-UM","2017/09/25 20:38:20","新北市永和區永亨路6號","121.519558333333","25.00545","6500400","永和區"
"234054","553-UM","2017/09/25 20:38:26","新北市永和區環河東路一段82號","121.51965","25.016455","6500400","永和區"
"234030","746-BX","2017/09/25 20:38:20","新北市中和區景平路280號","121.513615","24.9926333333333","6500400","永和區"
"241031","841-RS","2017/09/25 16:52:17","新北市永和區保生路55-8號","121.50403","25.0103883333333","6500200","三重區"
"234061","AAD-866","2017/09/25 20:38:30","新北市永和區安樂路194巷12號","121.516193333333","25.0007983333333","6500400","永和區"
"234050","847-RS","2017/09/25 20:38:31","新北市永和區文化路179號","121.509751666667","25.0168816666667","6500400","永和區"
"249001","173-UM","2017/09/25 20:38:27","新北市八里區中山路三段372號","121.368715","25.1361483333333","6502300","八里區"
"249004","303-UY","2017/09/25 20:38:18","新北市八里區中山路一段157巷28號","121.412838333333","25.1580916666667","6502300","八里區"
"234023","9380-KE","2017/09/25 20:38:23","新北市永和區文化路115號","121.512731666667","25.015245","6500400","永和區"
"234074","AAC-211","2017/09/25 20:38:20","新北市永和區竹林路119巷69號","121.522941666667","25.0115933333333","6500400","永和區"
"244019","403-UM","2017/09/25 20:38:20","新北市八里區長道坑1號","121.393503333333","25.1262516666667","6501700","林口區"
"243010","KEA-2215","2017/09/25 20:38:17","新北市泰山區公園路89號","121.424943333333","25.0555133333333","6501600","泰山區"
"243016","680-BX","2017/09/25 20:38:25","新北市泰山區泰林路三段778號","121.40073","25.071785","6501600","泰山區"
"222003","436-BY","2017/09/25 20:38:20","新北市深坑區深坑街140號","121.613173333333","25.0012316666667","6501800","深坑區"
"222001","628-TS","2017/09/25 20:38:18","新北市深坑區北深路三段236號","121.600363333333","25.00422","6501800","深坑區"
"222002","659-BX","2017/09/25 20:38:31","新北市深坑區萬福路45號","121.599465","25.006875","6501800","深坑區"
"231041","002-UM","2017/09/25 20:38:28","新北市新店區中正路543-4號","121.533678333333","24.98743","6500600","新店區"
"231059","046-UY","2017/09/25 20:38:31","新北市新店區僑愛五路1號","121.499845","24.944045","6500600","新店區"
"231061","047-UY","2017/09/25 20:38:23","新北市新店區新和街37號","121.519268333333","24.9849683333333","6500600","新店區"
"231060","106-UY","2017/09/25 20:38:34","新北市新店區錦秀路33號","121.479266666667","24.9439083333333","6500600","新店區"
"231051","107-UY","2017/09/25 20:38:17","新北市新店區中央七街7號","121.53047","24.97486","6500600","新店區"
"231047","108-UY","2017/09/25 20:38:18","新北市新店區寶慶街74號","121.541618333333","24.9867183333333","6500600","新店區"
"231052","187-VK","2017/09/25 20:38:35","新北市新店區松林路30號","121.544895","24.91055","6500600","新店區"
"231050","215-TC","2017/09/25 20:38:29","新北市新店區建興街9巷11號","121.53987","24.9762866666667","6500600","新店區"
"231057","256-BX","2017/09/25 20:38:19","新北市新店區花園六路二段1號","121.554008333333","24.9337283333333","6500600","新店區"
"231063","268-BY","2017/09/25 20:38:32","新北市新店區玫瑰路4-1號","121.493625","24.951335","6500600","新店區"
"231054","AAD-862","2017/09/25 20:38:36","新北市新店區中興路一段138號","121.542331666667","24.9635616666667","6500600","新店區"
"231058","3712-VJ","2017/09/25 20:38:27","新北市新店區自由街52號","121.534473333333","24.9736633333333","6500600","新店區"
"231056","4716-K9","2017/09/25 20:38:35","新北市新店區民生路75巷225號","121.531901666667","24.9818783333333","6500600","新店區"
"231065","512-UM","2017/09/25 20:38:17","新北市新店區安祥路102巷135號","121.48682","24.9645933333333","6500600","新店區"
"231064","515-UM","2017/09/25 20:38:19","新北市新店區永安街56巷4號","121.518486666667","24.98643","6500600","新店區"
"231040","619-UM","2017/09/25 20:38:25","新北市新店區中正路263巷2號","121.53841","24.9735083333333","6500600","新店區"
"231042","641-BX","2017/09/25 20:38:23","新北市新店區寶高路25號","121.553113333333","24.97739","6500600","新店區"
"231068","718-UY","2017/09/25 20:38:24","新北市新店區寶慶街12-2號","121.54323","24.9867066666667","6500600","新店區"
"231049","719-UM","2017/09/25 20:38:35","新北市新店區永業路81巷5弄23號","121.53078","24.9496333333333","6500600","新店區"
"231062","720-UM","2017/09/25 20:38:31","新北市新店區安泰路11巷1號","121.485528333333","24.9502116666667","6500600","新店區"
"231044","897-TW","2017/09/25 20:38:30","新北市新店區建國路250號","121.537678333333","24.9824333333333","6500600","新店區"
"231045","898-TW","2017/09/25 20:38:23","新北市新店區長春路176號","121.557908333333","24.961645","6500600","新店區"
"231043","899-TW","2017/09/25 20:38:25","新北市新店區建國路43號","121.540548333333","24.9751683333333","6500600","新店區"
"231066","AKT-0513","2017/09/25 20:38:16","新北市新店區安興路105-1號","121.51461","24.9776983333333","6500600","新店區"
"241011","013-R5","2017/09/25 20:38:30","新北市三重區龍門路164號","121.498828333333","25.0731483333333","6500200","三重區"
"241028","022-UY","2017/09/25 20:38:20","新北市三重區光興街89號","121.497441666667","25.0599516666667","6500200","三重區"
"241008","059-VK","2017/09/25 20:38:34","新北市三重區下竹圍街91號","121.481115","25.074865","6500200","三重區"
"241009","060-VK","2017/09/25 20:38:27","新北市三重區仁愛街578號","121.484878333333","25.0813266666667","6500200","三重區"
"241031","061-VK","2017/09/25 20:38:32","新北市三重區重陽路一段113巷1弄51號","121.488143333333","25.05855","6500200","三重區"
"241015","062-VK","2017/09/25 20:38:21","新北市三重區長壽西街1號","121.498125","25.0676366666667","6500200","三重區"
"241017","063-VK","2017/09/25 20:38:29","新北市三重區安慶街264號","121.490796666667","25.0677283333333","6500200","三重區"
"241024","065-VK","2017/09/25 20:38:28","新北市三重區三民街274號","121.478823333333","25.0681233333333","6500200","三重區"
"241026","066-VK","2017/09/25 20:38:28","新北市三重區福德南路36-1號","121.503081666667","25.06275","6500200","三重區"
"241002","090-VK","2017/09/25 20:38:25","新北市三重區仁義街167巷38弄2號","121.498735","25.0827","6500200","三重區"
"241003","091-VK","2017/09/25 20:38:20","新北市三重區五華街141巷58號","121.493605","25.0867916666667","6500200","三重區"
"241007","156-TC","2017/09/25 20:38:33","新北市三重區自強路四段34號","121.48873","25.0770216666667","6500200","三重區"
"241005","262-UM","2017/09/25 20:38:33","新北市三重區碧華街418號","121.492213333333","25.0852883333333","6500200","三重區"
"241016","266-UM","2017/09/25 20:38:24","新北市三重區長壽西街142-1號","121.494831666667","25.0668833333333","6500200","三重區"
"241022","267-UM","2017/09/25 20:38:24","新北市三重區民生街61巷2號","121.48874","25.0623916666667","6500200","三重區"
"241013","270-UM","2017/09/25 20:38:26","新北市三重區三和路四段1號","121.491671666667","25.074175","6500200","三重區"
"241025","271-UM","2017/09/25 20:38:18","新北市三重區頂崁街210巷23弄1號","121.475853333333","25.06821","6500200","三重區"
"241032","KEA-2210","2017/09/25 20:38:30","新北市三重區重陽路一段120巷35號","121.485153333333","25.060185","6500200","三重區"
"241020","413-TH","2017/09/25 20:38:18","新北市三重區明德街29號","121.492611666667","25.0722083333333","6500200","三重區"
"241035","462-BY","2017/09/25 20:38:28","新北市三重區正義北路276號","121.49577","25.0690966666667","6500200","三重區"
"241004","475-VK","2017/09/25 20:38:33","新北市三重區仁愛街423-1號","121.49033","25.0814883333333","6500200","三重區"
"241019","478-VK","2017/09/25 20:38:30","新北市三重區重陽路四段122號","121.492215","25.071105","6500200","三重區"
"241030","480-VK","2017/09/25 20:38:32","新北市三重區成功路73巷20號","121.489448333333","25.05201","6500200","三重區"
"241014","543-UM","2017/09/25 20:38:27","新北市三重區萬壽街4號","121.4991","25.0693466666667","6500200","三重區"
"241023","545-UM","2017/09/25 20:38:20","新北市三重區自由街37巷1號","121.478875","25.0669383333333","6500200","三重區"
"241001","547-UM","2017/09/25 20:38:28","新北市三重區三和路四段160巷124號","121.486266666667","25.075015","6500200","三重區"
"241012","941-UM","2017/09/25 20:38:26","新北市三重區秀江街2號","121.502788333333","25.0731033333333","6500200","三重區"
"241029","942-UM","2017/09/25 20:38:23","新北市三重區集美街126巷27號","121.490178333333","25.0538583333333","6500200","三重區"
"241033","AAC-255","2017/09/25 20:38:28","新北市三重區光復路二段3-1號","121.473368333333","25.0535016666667","6500200","三重區"
"235067","255-BX","2017/09/25 20:38:18","新北市中和區新生街225號","121.483895","24.9993616666667","6500300","中和區"
"235069","4980-A6","2017/09/25 20:38:34","新北市中和區員山路226巷3弄16號","121.481981666667","25.00111","6500300","中和區"
"235042","551-UM","2017/09/25 20:38:35","新北市中和區圓通路170號","121.4974","24.9948183333333","6500300","中和區"
"235026","911-UM","2017/09/25 20:07:50","新北市中和區員山路36巷16-3號","121.484858333333","24.9915583333333","6500300","中和區"
"235059","AAC-215","2017/09/25 20:38:35","新北市中和區員山路76號","121.48096","24.99383","6500300","中和區"
"220086","073-UY","2017/09/25 20:38:20","新北市五股區成泰路三段544-1號","121.454443333333","25.10339","6500100","板橋區"
"247022","893-R6","2017/09/25 20:38:18","新北市蘆洲區中正路243巷7弄15號","121.467596666667","25.0858016666667","6501400","蘆洲區"
"247012","546-UM","2017/09/25 20:38:23","新北市蘆洲區中興街117-2號","121.482205","25.089225","6501400","蘆洲區"
"247020","500-BY","2017/09/25 20:38:16","新北市蘆洲區民族路422巷3號","121.47396","25.091985","6501400","蘆洲區"
"247010","339-TH","2017/09/25 20:38:30","新北市蘆洲區集賢路320號","121.481375","25.0849316666667","6501400","蘆洲區"
"247002","337-TH","2017/09/25 20:38:31","新北市蘆洲區長安街377號","121.45732","25.0878633333333","6501400","蘆洲區"
"247004","336-TH","2017/09/25 20:38:20","新北市蘆洲區長安街297號","121.458085","25.0847983333333","6501400","蘆洲區"
"247016","057-VK","2017/09/25 20:38:27","新北市蘆洲區中山二路146巷7號","121.471195","25.081725","6501400","蘆洲區"
"247006","056-VK","2017/09/25 20:38:21","新北市蘆洲區和平路138-1號","121.466983333333","25.08084","6501400","蘆洲區"
"247008","053-VK","2017/09/25 20:38:34","新北市蘆洲區重陽街68號","121.481706666667","25.08415","6501400","蘆洲區"
"247014","007-UY","2017/09/25 20:38:17","新北市蘆洲區成功路74號","121.473133333333","25.0811566666667","6501400","蘆洲區"
"247024","002-UY","2017/09/25 20:38:17","新北市蘆洲區長樂路10號","121.463991666667","25.0848566666667","6501400","蘆洲區"
"251001","011-UM","2017/09/25 20:38:23","新北市淡水區淡金路一段102號","121.457691666667","25.1743216666667","6501000","淡水區"
"251013","182-VK","2017/09/25 20:38:22","新北市淡水區下圭柔山28巷17號","121.45791","25.203875","6501000","淡水區"
"251010","413-VK","2017/09/25 20:38:36","新北市淡水區沙崙路181巷15號","121.42397","25.18443","6501000","淡水區"
"251012","441-VK","2017/09/25 20:38:25","新北市淡水區興仁路108號","121.451673333333","25.21817","6501000","淡水區"
"251015","442-VK","2017/09/25 20:38:21","新北市淡水區淡金路四段542巷17號","121.452761666667","25.2270833333333","6501000","淡水區"
"251006","561-UM","2017/09/25 20:38:21","新北市淡水區商工路309號","121.458493333333","25.1861133333333","6501000","淡水區"
"251011","650-BX","2017/09/25 20:38:34","新北市淡水區新市一路一段361號","121.436333333333","25.1862216666667","6501000","淡水區"
"251002","672-BX","2017/09/25 20:38:25","新北市淡水區中正路38-1號","121.443708333333","25.1692433333333","6501000","淡水區"
"251003","766-UM","2017/09/25 20:38:27","新北市淡水區新民街118號","121.437918333333","25.1774966666667","6501000","淡水區"
"252002","178-VK","2017/09/25 20:38:32","新北市三芝區淡金路二段47-2號","121.503701666667","25.260665","6502100","三芝區"
"252001","292-VK","2017/09/25 20:38:17","新北市三芝區中山路一段72號","121.502068333333","25.25668","6502100","三芝區"
"237001","159-BY","2017/09/25 17:36:03","新北市三峽區中山路459巷163-3號","121.348795","24.93308","6500900","三峽區"
"236078","166-UM","2017/09/25 20:38:26","新北市土城區民權街12號","121.41537","24.964295","6501300","土城區"
"242031","AAC-296","2017/09/25 20:38:24","新北市新莊區三泰路23-5號","121.436403333333","25.036125","6500500","新莊區"
"242050","751-BX","2017/09/25 20:38:21","新北市新莊區西盛街259號","121.428105","25.015815","6500500","新莊區"
"242029","705-TV","2017/09/25 20:38:22","新北市新莊區昌隆街3巷1弄2號","121.45408","25.0514183333333","6500500","新莊區"
"242025","615-BX","2017/09/25 20:38:34","新北市新莊區化成路579巷1號","121.464518333333","25.0660633333333","6500500","新莊區"
"242023","613-BX","2017/09/25 20:38:30","新北市新莊區化成路618號","121.46615","25.054835","6500500","新莊區"
"242027","612-BX","2017/09/25 20:38:18","新北市新莊區思源路163號","121.459845","25.04474","6500500","新莊區"
"242039","566-BX","2017/09/25 20:38:31","新北市新莊區民安路309號","121.429828333333","25.02263","6500500","新莊區"
"242044","497-BY","2017/09/25 20:38:28","新北市新莊區龍安路90號","121.41756","25.0207766666667","6500500","新莊區"
"242048","441-UM","2017/09/25 20:38:36","新北市新莊區成功街145號","121.423336666667","25.016685","6500500","新莊區"
"242053","440-UM","2017/09/25 20:38:33","新北市新莊區西盛街323巷24號","121.428916666667","25.0147366666667","6500500","新莊區"
"242004","413-TV","2017/09/25 20:38:27","新北市新莊區中原東路202號","121.460501666667","25.054255","6500500","新莊區"
"242042","400-BY","2017/09/25 20:38:29","新北市新莊區天祥街47巷21號","121.41626","25.0281233333333","6500500","新莊區"
"242060","362-BY","2017/09/25 20:38:28","新北市新莊區新樹路258巷3號","121.43211","25.0155166666667","6500500","新莊區"
"242058","353-BY","2017/09/25 20:38:26","新北市新莊區四維路123-1號","121.423063333333","25.0229433333333","6500500","新莊區"
"242007","132-UY","2017/09/25 20:38:21","新北市新莊區福壽街39號","121.458223333333","25.0485633333333","6500500","新莊區"
"242036","133-UY","2017/09/25 20:38:36","新北市新莊區後港一路56巷7號","121.426738333333","25.0258716666667","6500500","新莊區"
"242021","135-UY","2017/09/25 20:38:30","新北市新莊區中華路一段73號","121.452228333333","25.04008","6500500","新莊區"
"242046","172-VK","2017/09/25 20:38:20","新北市新莊區裕民街46號","121.418741666667","25.0248483333333","6500500","新莊區"
"242009","173-VK","2017/09/25 20:38:33","新北市新莊區福壽街99巷15弄14號","121.456575","25.05022","6500500","新莊區"
"242015","175-VK","2017/09/25 20:38:17","新北市新莊區中平路82巷29號","121.44615","25.044945","6500500","新莊區"
"242002","176-VK","2017/09/25 20:38:32","新北市新莊區中正路147-7號","121.457546666667","25.0372416666667","6500500","新莊區"
"242013","346-TH","2017/09/25 20:38:33","新北市新莊區中和街191巷17號","121.447468333333","25.0508316666667","6500500","新莊區"
"242019","348-TH","2017/09/25 20:38:18","新北市新莊區銘德街101號","121.455841666667","25.043345","6500500","新莊區"
"242056","349-TH","2017/09/25 20:38:19","新北市新莊區瓊泰路65號","121.443225","25.0286983333333","6500500","新莊區"
"242017","350-TH","2017/09/25 20:38:21","新北市新莊區中港三街78號","121.44957","25.0462616666667","6500500","新莊區"
"242011","351-TH","2017/09/25 20:38:34","新北市新莊區中榮街104巷2號","121.447211666667","25.0536283333333","6500500","新莊區"
"221008","489-VK","2017/09/25 20:38:24","新北市汐止區康寧街426號","121.630655","25.0681216666667","6501100","汐止區"
"221036","130-UY","2017/09/25 20:38:30","新北市汐止區新昌路10號","121.662198333333","25.0672516666667","6501100","汐止區"
"221015","131-UY","2017/09/25 20:38:26","新北市汐止區建成路60號","121.663418333333","25.0730183333333","6501100","汐止區"
"221012","278-VK","2017/09/25 20:38:29","新北市汐止區大同路二段341號","121.656485","25.067145","6501100","汐止區"
"221023","279-VK","2017/09/25 20:38:21","新北市汐止區湖東街52號","121.635821666667","25.0726583333333","6501100","汐止區"
"221032","280-BY","2017/09/25 20:38:31","新北市汐止區橫科路52巷14弄1號","121.618738333333","25.0500216666667","6501100","汐止區"
"221027","281-BY","2017/09/25 20:38:22","新北市汐止區大同路二段471號","121.660325","25.0681683333333","6501100","汐止區"
"221038","297-VK","2017/09/25 20:38:18","新北市汐止區水源路一段56號","121.657248333333","25.0656183333333","6501100","汐止區"
"221029","298-VK","2017/09/25 20:38:35","新北市汐止區大同路一段495號","121.643725","25.061505","6501100","汐止區"
"221021","299-VK","2017/09/25 20:38:27","新北市汐止區水源路一段291巷3號","121.654418333333","25.0583883333333","6501100","汐止區"
"221031","353-TW","2017/09/25 20:38:23","新北市汐止區中興路81號","121.632768333333","25.0641983333333","6501100","汐止區"
"221035","622-UM","2017/09/25 20:38:28","新北市汐止區長江街101-5號","121.658688333333","25.0732783333333","6501100","汐止區"
"221025","623-UM","2017/09/25 20:38:29","新北市汐止區水源路二段185號","121.65775","25.053505","6501100","汐止區"
"221033","647-BX","2017/09/25 20:38:21","台北市南港區合順街8巷7弄38號","121.620266666667","25.0418316666667","6501100","汐止區"
"221002","707-TV","2017/09/25 20:38:26","新北市汐止區福德二路134號","121.630995","25.0652983333333","6501100","汐止區"
"221018","753-BX","2017/09/25 20:38:18","新北市汐止區茄苳路202號","121.670406666667","25.0690333333333","6501100","汐止區"
"220064","280-UM","2017/09/25 20:36:03","新北市五股區中直路17-4號","121.422348333333","25.11154","6500100","板橋區"
"220083","286-VK","2017/09/25 20:38:30","新北市板橋區僑中二街106巷2號","121.445733333333","25.0076183333333","6500100","板橋區"
"220062","303-R5","2017/09/25 20:38:19","新北市樹林區中山路三段214號","121.380251666667","24.96795","6500100","板橋區"
"220089","487-VK","2017/09/25 20:38:23","新北市板橋區長江路一段192號","121.46228","25.030475","6500100","板橋區"
"242034","280-VK","2017/09/25 20:38:29","新北市新莊區中正路334巷10號","121.445731666667","25.035335","6500500","新莊區"
"220103","561-BX","2017/09/25 20:38:30","新北市板橋區漢生東路83巷25號","121.467391666667","25.0167733333333","6500100","板橋區"
"220070","AAC-253","2017/09/25 20:38:21","新北市樹林區中山路三段204號","121.387216666667","24.9682533333333","6500100","板橋區"
