"lineid","car","time","location","longitude","latitude","cityid","cityname"
"244005","657-BX","2017/10/21 07:59:46","新北市林口區下福147-11號","121.29977","25.1166533333333","6501700","林口區"
"222004","289-BY","2017/10/21 07:27:52","新北市深坑區昇高坑路53號","121.631626666667","24.98913","6501800","深坑區"
"231007","189-VK","2017/10/21 07:59:40","新北市新店區華城路34-1號","121.528763333333","24.9563783333333","6500600","新店區"
"231008","192-VK","2017/10/21 07:59:37","新北市新店區安康路一段355-3號","121.51973","24.96173","6500600","新店區"
"226005","5620-A6","2017/10/21 07:59:47","新北市平溪區靜安路三段130號","121.773488333333","25.0374983333333","6502400","平溪區"
"226002","7418-A5","2017/10/21 07:59:49","新北市平溪區南山里乾坑11號","121.782456666667","25.0472316666667","6502400","平溪區"
"226003","AGD-0702","2017/10/21 07:51:55","新北市平溪區嶺腳里嶺腳寮83-2號","121.751661666667","25.035515","6502400","平溪區"
"223006","022-BY","2017/10/21 07:59:45","新北市石碇區碇坪路一段2號","121.65164","25.00617","6501900","石碇區"
"223002","198-BX","2017/10/21 07:31:12","新北市石碇區烏塗窟16-2號","121.65629","24.9756116666667","6501900","石碇區"
"223003","205-TH","2017/10/21 07:59:32","新北市石碇區北宜路六段塗潭巷2號","121.645386666667","24.9366716666667","6501900","石碇區"
"223008","406-TH","2017/10/21 07:43:36","新北市石碇區靜安路一段337號","121.69873","25.0146","6501900","石碇區"
"223001","437-BY","2017/10/21 07:59:48","新北市石碇區北宜路六段十三股巷1號","121.64861","24.9484116666667","6501900","石碇區"
"223004","660-BX","2017/10/21 07:59:35","新北市深坑區文山路一段8-1號","121.643698333333","25.0086916666667","6501900","石碇區"
"223007","661-BX","2017/10/21 07:59:50","新北市石碇區靜安路一段337號","121.698975","25.0144733333333","6501900","石碇區"
"223005","677-TV","2017/10/21 07:59:49","新北市深坑區文山路一段8-1號","121.644076666667","25.0086316666667","6501900","石碇區"
"227006","282-VK","2017/10/21 07:59:39","新北市雙溪區牡丹里中正路58巷32號","121.866216666667","25.0419183333333","6502500","雙溪區"
"252004","249-BX","2017/10/21 07:59:42","新北市三芝區興華里車埕15-3號","121.50204","25.196805","6502100","三芝區"
"252007","AAC-283","2017/10/21 07:59:55","新北市三芝區後厝里北勢子45-32號","121.469506666667","25.250845","6502100","三芝區"
"237001","159-UY","2017/10/21 07:59:32","新北市三峽區學成路278-3號","121.376281666667","24.9432666666667","6500900","三峽區"
"236011","165-UM","2017/10/21 07:59:35","新北市土城區清水路242號","121.461165","24.9826383333333","6501300","土城區"
"236002","339-SR","2017/10/21 07:59:51","新北市土城區龍泉路66-2號","121.41483","24.94147","6501300","土城區"
"242001","233-RS","2017/10/21 07:59:47","新北市新莊區中港路301號","121.452886666667","25.044515","6500500","新莊區"
