"lineid","car","time","location","longitude","latitude","cityid","cityname"
"244010","656-BX","2017/10/21 10:39:42","新北市林口區公園路192號","121.374545","25.07464","6501700","林口區"
"231007","189-VK","2017/10/21 09:14:40","新北市新店區新潭路三段215巷25號","121.50818","24.90409","6500600","新店區"
"231008","192-VK","2017/10/21 10:39:37","新北市新店區小坑一路22號","121.532518333333","24.9141833333333","6500600","新店區"
"227006","282-VK","2017/10/21 10:39:39","新北市雙溪區新基里新基東街15-2號","121.872471666667","25.042055","6502500","雙溪區"
"253004","8270-PC","2017/10/21 10:39:39","新北市石門區小坑9號","121.594061666667","25.2875433333333","6502200","石門區"
"252007","AAC-283","2017/10/21 10:39:35","新北市三芝區新庄里番社后29-1號","121.501511666667","25.2707166666667","6502100","三芝區"
"242001","233-RS","2017/10/21 10:03:58","新北市新莊區環河路48-7號","121.436945","25.0098983333333","6500500","新莊區"
