"lineid","car","time","location","longitude","latitude","cityid","cityname"
"244010","656-BX","2017/10/21 11:09:42","新北市林口區中山路41號","121.39475","25.0784533333333","6501700","林口區"
"231007","189-VK","2017/10/21 09:14:40","新北市新店區新潭路三段215巷25號","121.50818","24.90409","6500600","新店區"
"231008","192-VK","2017/10/21 10:55:37","新北市新店區成功路43號","121.542565","24.9006283333333","6500600","新店區"
"235026","800-TS","2017/10/21 01:26:27","新北市中和區員山路36巷16-3號","121.484825","24.9916283333333","6500300","中和區"
"223002","198-BX","2017/10/21 11:09:45","新北市石碇區石崁33號","121.658631666667","24.9914883333333","6501900","石碇區"
"227006","282-VK","2017/10/21 11:09:39","新北市雙溪區魚行里坤溪1號","121.877566666667","25.02011","6502500","雙溪區"
"242001","233-RS","2017/10/21 10:03:58","新北市新莊區環河路48-7號","121.436945","25.0098983333333","6500500","新莊區"
