"lineid","car","time","location","longitude","latitude","cityid","cityname"
"244010","656-BX","2017/10/21 11:34:22","新北市林口區粉寮路二段160巷40號","121.405506666667","25.0911266666667","6501700","林口區"
"231007","189-VK","2017/10/21 09:14:40","新北市新店區新潭路三段215巷25號","121.50818","24.90409","6500600","新店區"
"231008","192-VK","2017/10/21 11:39:37","新北市新店區屈尺路161-2號","121.542283333333","24.9224266666667","6500600","新店區"
"235031","255-BX","2017/10/21 11:35:32","新北市中和區和城路一段271巷1號","121.485591666667","24.991955","6500300","中和區"
"235026","800-TS","2017/10/21 01:26:27","新北市中和區員山路36巷16-3號","121.484825","24.9916283333333","6500300","中和區"
"223002","198-BX","2017/10/21 11:39:36","新北市石碇區小粗坑(潭邊里)9-2號","121.678716666667","24.9857866666667","6501900","石碇區"
"227006","282-VK","2017/10/21 11:39:39","新北市雙溪區魚行里魚杭1號","121.883801666667","25.02662","6502500","雙溪區"
"242001","233-RS","2017/10/21 10:03:58","新北市新莊區環河路48-7號","121.436945","25.0098983333333","6500500","新莊區"
