"lineid","car","time","location","longitude","latitude","cityid","cityname"
"234044","148-BY","2017/10/21 12:29:41","新北市永和區福和路1號","121.526485","25.0099716666667","6500400","永和區"
"234078","298-R6","2017/10/21 12:29:42","新北市永和區環河東路二段90號","121.524333333333","25.01069","6500400","永和區"
"234052","553-UM","2017/10/21 12:29:57","新北市永和區福和路1號","121.526016666667","25.0097033333333","6500400","永和區"
"234028","746-BX","2017/10/21 12:29:52","新北市永和區福和路1號","121.526093333333","25.009935","6500400","永和區"
"234040","862-TW","2017/10/21 12:29:49","新北市永和區福和路1號","121.526448333333","25.0096883333333","6500400","永和區"
"234048","863-TW","2017/10/21 12:29:49","新北市永和區福和路1號","121.52648","25.01","6500400","永和區"
"234076","969-R7","2017/10/21 12:29:46","新北市永和區福和路1號","121.526611666667","25.0098116666667","6500400","永和區"
"244010","656-BX","2017/10/21 11:34:22","新北市林口區粉寮路二段160巷40號","121.405506666667","25.0911266666667","6501700","林口區"
"231007","189-VK","2017/10/21 09:14:40","新北市新店區新潭路三段215巷25號","121.50818","24.90409","6500600","新店區"
"235031","255-BX","2017/10/21 11:35:32","新北市中和區和城路一段271巷1號","121.485591666667","24.991955","6500300","中和區"
"235025","378-QA","2017/10/21 12:20:03","新北市中和區員山路36巷16-2號","121.485271666667","24.9915716666667","6500300","中和區"
"235026","800-TS","2017/10/21 01:26:27","新北市中和區員山路36巷16-3號","121.484825","24.9916283333333","6500300","中和區"
"228005","097-TW","2017/10/21 12:29:57","新北市貢寮區福連里蓬萊街17號","121.976006666667","24.99166","6502600","貢寮區"
"228004","212-TW","2017/10/21 12:29:07","新北市貢寮區龍崗里嵩陽街33號","121.904061666667","25.018065","6502600","貢寮區"
"227010","400-TW","2017/10/21 12:04:11","","121.850926666667","25.0631033333333","6502500","雙溪區"
"242001","233-RS","2017/10/21 10:03:58","新北市新莊區環河路48-7號","121.436945","25.0098983333333","6500500","新莊區"
"221012","276-VK","2017/10/21 12:29:56","新北市汐止區中正路198號","121.658511666667","25.06904","6501100","汐止區"
