"lineid","car","time","location","longitude","latitude","cityid","cityname"
"234044","148-BY","2017/10/21 14:09:41","新北市永和區成功路一段16巷2號","121.526728333333","25.0054583333333","6500400","永和區"
"234012","149-BY","2017/10/21 14:09:50","新北市永和區永貞路415號","121.507436666667","25.009425","6500400","永和區"
"234005","207-UY","2017/10/21 14:09:41","新北市中和區中和路267號","121.505363333333","24.999955","6500400","永和區"
"234078","298-R6","2017/10/21 14:09:42","新北市永和區國中路109巷5弄2號","121.52368","25.00526","6500400","永和區"
"234036","336-UY","2017/10/21 14:09:49","新北市永和區成功路一段54號","121.52692","25.0039816666667","6500400","永和區"
"234062","337-UY","2017/10/21 14:09:38","新北市永和區永利路156號","121.522501666667","25.0027316666667","6500400","永和區"
"234084","338-UY","2017/10/21 14:09:41","新北市永和區福和路219號","121.518966666667","25.0074766666667","6500400","永和區"
"234068","552-UM","2017/10/21 14:09:48","新北市永和區永貞路10巷14號","121.52017","25.0073016666667","6500400","永和區"
"234052","553-UM","2017/10/21 14:09:37","新北市永和區博愛街21巷1號","121.517653333333","25.015925","6500400","永和區"
"234015","745-BX","2017/10/21 14:09:45","新北市永和區仁愛路34號","121.514411666667","25.0134333333333","6500400","永和區"
"234028","746-BX","2017/10/21 14:09:52","新北市永和區民生路22巷25號","121.521225","24.997025","6500400","永和區"
"234060","AAD-866","2017/10/21 14:09:35","新北市永和區安樂路108號","121.514205","24.9995683333333","6500400","永和區"
"234040","862-TW","2017/10/21 14:09:49","新北市永和區雙和街52巷1號","121.508965","25.0031933333333","6500400","永和區"
"234048","863-TW","2017/10/21 14:09:49","新北市永和區環河西路二段59號","121.506958333333","25.0154383333333","6500400","永和區"
"234025","9371-KE","2017/10/21 14:09:37","新北市永和區安樂路270號","121.514516666667","25.0041166666667","6500400","永和區"
"234010","9373-KE","2017/10/21 14:09:35","新北市永和區仁愛路352巷124號","121.500155","25.0085266666667","6500400","永和區"
"248017","225-UY","2017/10/21 14:09:33","新北市五股區民義路一段255-5號","121.426075","25.0915766666667","6501500","五股區"
"234022","9380-KE","2017/10/21 14:09:40","新北市永和區博愛街31巷2號","121.518468333333","25.0159133333333","6500400","永和區"
"234076","969-R7","2017/10/21 14:09:46","新北市永和區民族街75號","121.518366666667","24.9968016666667","6500400","永和區"
"234072","AAC-211","2017/10/21 14:09:50","新北市永和區豫溪街160巷2-1號","121.52301","25.0094633333333","6500400","永和區"
"234066","AAC-212","2017/10/21 14:09:40","新北市永和區保平路232號","121.509378333333","25.0055633333333","6500400","永和區"
"234001","AAC-295","2017/10/21 14:09:44","新北市永和區中正路708號","121.516116666667","25.009955","6500400","永和區"
"244010","656-BX","2017/10/21 11:34:22","新北市林口區粉寮路二段160巷40號","121.405506666667","25.0911266666667","6501700","林口區"
"231002","002-UM","2017/10/21 14:09:38","新北市新店區中正路485號","121.533883333333","24.9819966666667","6500600","新店區"
"231028","046-UY","2017/10/21 14:09:53","新北市新店區安和路二段218-1號","121.51798","24.975195","6500600","新店區"
"231030","047-UY","2017/10/21 14:09:34","新北市新店區安民街65巷21-2號","121.515163333333","24.9674916666667","6500600","新店區"
"231029","106-UY","2017/10/21 14:09:50","新北市新店區安康路二段178號","121.511588333333","24.9602083333333","6500600","新店區"
"231012","108-UY","2017/10/21 14:07:15","新北市新店區五峰路63巷4號","121.54646","24.9683083333333","6500600","新店區"
"231020","187-VK","2017/10/21 14:09:48","新北市新店區自強路251號","121.548116666667","24.9190316666667","6500600","新店區"
"231007","189-VK","2017/10/21 09:14:40","新北市新店區新潭路三段215巷25號","121.50818","24.90409","6500600","新店區"
"231017","KEA-2219","2017/10/21 14:09:42","新北市新店區中生路148號","121.569308333333","24.9488316666667","6500600","新店區"
"231023","AAD-862","2017/10/21 14:09:43","新北市新店區北宜路一段37號","121.538396666667","24.9574566666667","6500600","新店區"
"231027","3712-VJ","2017/10/21 14:09:41","新北市新店區北宜路一段9號","121.538173333333","24.95817","6500600","新店區"
"231025","4716-K9","2017/10/21 14:09:38","新北市新店區中正路328巷42弄4號","121.538365","24.9762433333333","6500600","新店區"
"231038","4715-K9","2017/10/21 14:09:35","新北市新店區溪洲路121號","121.531355","24.9627","6500600","新店區"
"231036","512-UM","2017/10/21 14:09:36","新北市新店區安祥路109巷3弄16號","121.47593","24.9597383333333","6500600","新店區"
"231035","515-UM","2017/10/21 14:09:47","新北市新店區安和路二段73-1號","121.518416666667","24.9687366666667","6500600","新店區"
"231006","617-UM","2017/10/21 14:09:37","新北市新店區北宜路二段401號","121.559835","24.9545","6500600","新店區"
"231001","619-UM","2017/10/21 14:09:31","新北市新店區中華路52號","121.539648333333","24.96859","6500600","新店區"
"231003","641-BX","2017/10/21 14:09:49","新北市新店區中興路一段171號","121.542828333333","24.96454","6500600","新店區"
"231034","645-TV","2017/10/21 14:09:44","新北市新店區黎明路3號","121.503358333333","24.9523233333333","6500600","新店區"
"231013","719-UM","2017/10/21 14:09:41","新北市新店區北新路三段49號","121.541778333333","24.9805733333333","6500600","新店區"
"231018","719-UY","2017/10/21 14:09:34","新北市新店區中央路97號","121.531298333333","24.975075","6500600","新店區"
"231033","720-UM","2017/10/21 14:09:46","新北市新店區碧潭路2號","121.53494","24.95634","6500600","新店區"
"231005","897-TW","2017/10/21 14:09:48","新北市新店區中興路三段238號","121.543218333333","24.9834816666667","6500600","新店區"
"231004","899-TW","2017/10/21 14:09:46","新北市新店區北新路二段160號","121.543096666667","24.9756066666667","6500600","新店區"
"231037","AKT-0513","2017/10/21 14:09:44","新北市新店區安豐路25號","121.501313333333","24.9571966666667","6500600","新店區"
"235030","003-UY","2017/10/21 14:09:43","新北市中和區廣福路36號","121.504523333333","25.0022716666667","6500300","中和區"
"235028","005-UY","2017/10/21 14:09:43","新北市中和區泰和街38巷16號","121.498901666667","25.0008","6500300","中和區"
"235027","006-UY","2017/10/21 14:09:41","新北市中和區連城路249巷21弄4號","121.494116666667","24.99605","6500300","中和區"
"235020","096-UM","2017/10/21 14:09:46","新北市中和區新民街5號","121.482408333333","25.0057266666667","6500300","中和區"
"235003","097-UM","2017/10/21 14:09:39","新北市中和區景平路3號","121.523688333333","24.9902866666667","6500300","中和區"
"235029","098-UM","2017/10/21 14:09:39","新北市中和區中山路二段64巷7弄21號","121.502915","25.0046516666667","6500300","中和區"
"235004","150-BY","2017/10/21 14:09:49","新北市中和區宜安路121號","121.509968333333","24.9979716666667","6500300","中和區"
"235022","151-BY","2017/10/21 14:09:49","新北市中和區連城路525-7號","121.481041666667","24.9950066666667","6500300","中和區"
"235019","183-VK","2017/10/21 14:09:37","新北市中和區德光路111號","121.468185","25.0031933333333","6500300","中和區"
"235002","185-VK","2017/10/21 14:09:47","新北市中和區大智街55巷36號","121.52053","24.9931483333333","6500300","中和區"
"235013","186-VK","2017/10/21 14:09:54","新北市中和區明禮街5號","121.505178333333","24.9957633333333","6500300","中和區"
"235031","255-BX","2017/10/21 14:09:38","新北市中和區新生街164號","121.48368","25.0002633333333","6500300","中和區"
"235008","293-VK","2017/10/21 14:09:37","新北市中和區中興街214號","121.499476666667","24.9899316666667","6500300","中和區"
"235036","301-VK","2017/10/21 14:09:53","新北市中和區中山路二段276號","121.496696666667","25.002485","6500300","中和區"
"235007","352-BY","2017/10/21 14:09:46","新北市中和區景平路120號","121.519335","24.991785","6500300","中和區"
"235015","376-QA","2017/10/21 14:09:34","新北市中和區忠孝街19巷48號","121.50955","24.9851133333333","6500300","中和區"
"235032","377-QA","2017/10/21 14:09:06","新北市中和區連勝街38巷18號","121.49775","24.9980483333333","6500300","中和區"
"235025","378-QA","2017/10/21 14:09:35","新北市中和區台新街35號","121.479325","25.0052416666667","6500300","中和區"
"235034","269-TV","2017/10/21 14:09:37","新北市中和區建一路124號","121.488093333333","25.00004","6500300","中和區"
"235014","4979-A6","2017/10/21 14:09:48","新北市中和區復興路280巷18弄20號","121.501703333333","24.992235","6500300","中和區"
"235033","4980-A6","2017/10/21 14:09:52","新北市中和區中山路二段178巷1號","121.500596666667","25.002855","6500300","中和區"
"235006","551-UM","2017/10/21 14:09:37","新北市中和區自立路16巷4號","121.521538333333","24.99364","6500300","中和區"
"235034","558-UM","2017/10/21 14:09:42","新北市中和區景安路77號","121.506388333333","24.997265","6500300","中和區"
"235009","565-BX","2017/10/21 14:09:37","新北市中和區景新街467巷38弄2號","121.514566666667","24.9885766666667","6500300","中和區"
"235018","640-BX","2017/10/21 14:09:51","新北市中和區國光街107巷2弄29號","121.469438333333","24.9989783333333","6500300","中和區"
"235024","647-TV","2017/10/21 14:09:40","新北市中和區民享街91巷2號","121.47487","25.00071","6500300","中和區"
"235011","732-UM","2017/10/21 14:09:41","新北市中和區景平路239巷33弄48號","121.510013333333","24.9915016666667","6500300","中和區"
"235010","733-UM","2017/10/21 14:09:50","新北市中和區忠孝街1巷68號","121.508386666667","24.9845666666667","6500300","中和區"
"235026","800-TS","2017/10/21 14:09:36","新北市中和區中山路二段340巷41號","121.492865","25.0039033333333","6500300","中和區"
"235021","801-TS","2017/10/21 14:09:45","新北市中和區民利街100巷6弄11號","121.477136666667","24.9985766666667","6500300","中和區"
"235005","802-TS","2017/10/21 14:09:45","新北市中和區中安街104-1號","121.511651666667","25.0011283333333","6500300","中和區"
"235016","805-TS","2017/10/21 14:09:37","新北市中和區興南路二段142巷19弄6號","121.502896666667","24.9834966666667","6500300","中和區"
"235012","896-TW","2017/10/21 14:09:48","新北市中和區工專路139號","121.508433333333","24.978935","6500300","中和區"
"235017","900-TW","2017/10/21 14:09:44","新北市中和區華福街71號","121.467131666667","24.99656","6500300","中和區"
"235001","AAC-213","2017/10/21 14:09:37","新北市中和區秀朗路三段50巷8弄1號","121.524836666667","24.9951133333333","6500300","中和區"
"235023","AAC-215","2017/10/21 14:09:51","新北市中和區圓通路296巷31弄2號","121.48863","24.9905316666667","6500300","中和區"
"220016","013-TV","2017/10/21 14:09:50","新北市板橋區翠華街6巷22號","121.481181666667","25.0242783333333","6500100","板橋區"
"220013","072-UY","2017/10/21 14:09:39","新北市板橋區民族路223號","121.469658333333","25.0073133333333","6500100","板橋區"
"220034","073-UY","2017/10/21 14:09:53","新北市板橋區中正路236巷53號","121.458091666667","25.0194516666667","6500100","板橋區"
"220105","075-UY","2017/10/21 14:09:34","新北市板橋區雙十路三段14號","121.471678333333","25.030355","6500100","板橋區"
"220017","AAD-861","2017/10/21 14:09:49","新北市板橋區華興街50號","121.458235","25.004815","6500100","板橋區"
"247021","893-R6","2017/10/21 14:09:43","新北市蘆洲區三民路165號","121.471376666667","25.087075","6501400","蘆洲區"
"247011","546-UM","2017/10/21 14:09:40","新北市蘆洲區信義路282號","121.477863333333","25.0871983333333","6501400","蘆洲區"
"247019","500-BY","2017/10/21 14:09:51","新北市蘆洲區民族路426巷52號","121.472841666667","25.0936366666667","6501400","蘆洲區"
"247009","339-TH","2017/10/21 14:09:53","新北市蘆洲區信義路158-6號","121.47949","25.0839","6501400","蘆洲區"
"247001","337-TH","2017/10/21 14:09:32","新北市蘆洲區永平街60號","121.457533333333","25.0916183333333","6501400","蘆洲區"
"247003","336-TH","2017/10/21 14:09:42","新北市蘆洲區中華街6巷52號","121.46241","25.0825683333333","6501400","蘆洲區"
"247015","057-VK","2017/10/21 14:09:19","新北市蘆洲區中正路185巷36號","121.46753","25.0851666666667","6501400","蘆洲區"
"247005","056-VK","2017/10/21 14:09:41","新北市蘆洲區永安南路二段16巷17弄4號","121.467646666667","25.0779716666667","6501400","蘆洲區"
"247007","053-VK","2017/10/21 14:09:45","新北市蘆洲區中山一路285號","121.471908333333","25.0795533333333","6501400","蘆洲區"
"247013","007-UY","2017/10/21 14:09:40","新北市蘆洲區三民路155號","121.471488333333","25.0868866666667","6501400","蘆洲區"
"247023","002-UY","2017/10/21 14:09:35","新北市蘆洲區光明路139號","121.464345","25.0886483333333","6501400","蘆洲區"
"247017","001-UY","2017/10/21 14:09:35","新北市蘆洲區復興路111-7號","121.476695","25.0884766666667","6501400","蘆洲區"
"228005","097-TW","2017/10/21 14:09:37","新北市貢寮區美豐里雞母嶺街52號","121.889806666667","25.0680033333333","6502600","貢寮區"
"228004","212-TW","2017/10/21 14:09:47","新北市貢寮區雙玉里下雙溪街10-1號","121.915025","25.0145033333333","6502600","貢寮區"
"227010","400-TW","2017/10/21 12:04:11","","121.850926666667","25.0631033333333","6502500","雙溪區"
"208004","AAC-292","2017/10/21 14:09:48","新北市金山區六股里下六股65號","121.614425","25.223645","6502700","金山區"
"252005","073-UM","2017/10/21 14:09:48","新北市三芝區圓山里二坪頂71號","121.537411666667","25.23942","6502100","三芝區"
"207001","662-BX","2017/10/21 14:09:39","新北市萬里區磺潭里清水18號","121.637871666667","25.1976866666667","6502800","萬里區"
"236068","105-UM","2017/10/21 14:09:45","新北市土城區明德路一段385-1號","121.452766666667","24.9798066666667","6501300","土城區"
"236041","107-UM","2017/10/21 14:09:51","新北市土城區裕生路61號","121.447663333333","24.98617","6501300","土城區"
"236075","166-UM","2017/10/21 14:09:49","新北市土城區永安街85號","121.43097","24.9638783333333","6501300","土城區"
"236029","253-BX","2017/10/21 14:09:36","新北市土城區城林路6巷80號","121.438393333333","24.9798483333333","6501300","土城區"
"236025","269-VK","2017/10/21 14:09:37","新北市土城區承天路67號","121.439575","24.9635966666667","6501300","土城區"
"236013","270-VK","2017/10/21 14:09:39","新北市土城區青雲路33號","121.460521666667","24.9883","6501300","土城區"
"236035","271-VK","2017/10/21 14:09:49","新北市土城區明德路一段361-3號","121.45623","24.977785","6501300","土城區"
"236017","401-BY","2017/10/21 14:09:47","新北市土城區中華路一段247號","121.440835","24.9814933333333","6501300","土城區"
"236006","498-BY","2017/10/21 14:09:45","新北市土城區中華路一段85號","121.444868333333","24.9876633333333","6501300","土城區"
"236057","912-UM","2017/10/21 14:09:36","新北市土城區中央路四段114號","121.418003333333","24.9589633333333","6501300","土城區"
"236045","913-UM","2017/10/21 14:06:02","新北市土城區明德路一段385-1號","121.452766666667","24.979805","6501300","土城區"
"236061","915-UM","2017/10/21 14:09:39","新北市土城區金城路二段217號","121.454881666667","24.9818366666667","6501300","土城區"
"236054","AAC-216","2017/10/21 14:09:41","新北市土城區中華路二段80號","121.438658333333","24.975615","6501300","土城區"
"242001","233-RS","2017/10/21 10:03:58","新北市新莊區環河路48-7號","121.436945","25.0098983333333","6500500","新莊區"
"221036","130-UY","2017/10/21 14:09:40","新北市汐止區東勢街58-1號","121.624791666667","25.0398966666667","6501100","汐止區"
"221012","276-VK","2017/10/21 13:25:54","新北市汐止區汐萬路一段256巷3號","121.653495","25.07464","6501100","汐止區"
"221029","298-VK","2017/10/21 14:09:37","新北市五股區新五路三段19號","121.445598333333","25.0892016666667","6501100","汐止區"
"220027","145-BY","2017/10/21 14:09:49","新北市板橋區民權路202巷12弄2號","121.460513333333","25.0154516666667","6500100","板橋區"
"220028","200-UY","2017/10/21 14:09:48","新北市板橋區大觀路二段7巷36號","121.44829","25.0032733333333","6500100","板橋區"
"220030","610-BX","2017/10/21 14:09:49","新北市板橋區大觀路三段275號","121.428485","24.9923566666667","6500100","板橋區"
"220050","245-BX","2017/10/21 14:09:35","新北市板橋區民生路二段188號","121.470271666667","25.0207583333333","6500100","板橋區"
"220004","276-BY","2017/10/21 14:09:34","新北市板橋區信義路148號","121.458736666667","24.9918133333333","6500100","板橋區"
"220020","277-BY","2017/10/21 14:09:47","新北市板橋區金門街369巷11號","121.428808333333","24.9846383333333","6500100","板橋區"
"220043","280-UM","2017/10/21 14:09:48","新北市板橋區光武街153號","121.465505","25.0295683333333","6500100","板橋區"
"220019","283-VK","2017/10/21 14:09:49","新北市板橋區重慶路327巷15號","121.464406666667","24.9986883333333","6500100","板橋區"
"220001","285-VK","2017/10/21 14:09:42","新北市板橋區懷仁街34巷4號","121.476203333333","25.01935","6500100","板橋區"
"220031","286-VK","2017/10/21 14:09:49","新北市板橋區大觀路二段174巷175號","121.441883333333","25.0036683333333","6500100","板橋區"
"220029","287-VK","2017/10/21 04:27:10","新北市板橋區華東街1-10號","121.448266666667","24.9949683333333","6500100","板橋區"
"220039","288-VK","2017/10/21 14:09:35","新北市板橋區裕民街54號","121.461456666667","25.02872","6500100","板橋區"
"220009","293-UM","2017/10/21 14:09:39","新北市板橋區中山路二段248號","121.478558333333","25.0182966666667","6500100","板橋區"
"220032","296-UM","2017/10/21 14:09:38","新北市板橋區篤行路一段16號","121.431316666667","24.9954366666667","6500100","板橋區"
"220023","297-UM","2017/10/21 14:09:39","新北市板橋區大智街8號","121.456193333333","25.0148066666667","6500100","板橋區"
"220047","299-UM","2017/10/21 14:09:41","新北市板橋區自由路52號","121.46569","25.0236016666667","6500100","板橋區"
"220010","303-R5","2017/10/21 14:09:44","新北市板橋區三民路二段居仁巷2弄23號","121.479966666667","25.0129116666667","6500100","板橋區"
"220041","307-R5","2017/10/21 14:09:49","新北市板橋區吳鳳路50巷20號","121.469121666667","25.0301983333333","6500100","板橋區"
"220012","486-VK","2017/10/21 14:09:40","新北市板橋區板新路96號","121.472493333333","25.014735","6500100","板橋區"
"220038","487-VK","2017/10/21 14:09:41","新北市板橋區文化路二段389號","121.473563333333","25.031525","6500100","板橋區"
"220037","491-VK","2017/10/21 14:09:48","新北市板橋區文化路二段182巷3弄33號","121.472276666667","25.028505","6500100","板橋區"
"220104","560-BX","2017/10/21 14:09:39","新北市板橋區中正路360巷53號","121.456318333333","25.0229516666667","6500100","板橋區"
"220052","561-BX","2017/10/21 14:09:40","新北市板橋區文化路一段188巷9弄15號","121.46801","25.0190816666667","6500100","板橋區"
"220011","609-BX","2017/10/21 14:09:41","新北市板橋區三民路二段83號","121.47954","25.0166166666667","6500100","板橋區"
"220040","637-BX","2017/10/21 14:09:45","新北市板橋區縣民大道247巷41號","121.482108333333","25.0269583333333","6500100","板橋區"
"220005","686-BX","2017/10/21 14:09:38","新北市板橋區重慶路253號","121.4635","24.9999716666667","6500100","板橋區"
"220025","687-BX","2017/10/21 14:09:49","新北市板橋區龍興街32號","121.443068333333","25.0004866666667","6500100","板橋區"
"220042","689-BX","2017/10/21 14:09:41","新北市板橋區民生路三段227號","121.46498","25.0285483333333","6500100","板橋區"
"220002","741-BX","2017/10/21 14:09:51","新北市板橋區重慶路89巷4號","121.462598333333","25.006385","6500100","板橋區"
"220003","827-TW","2017/10/21 14:09:49","新北市板橋區新民街4巷2弄2-1號","121.464081666667","25.009895","6500100","板橋區"
"220014","829-TW","2017/10/21 14:09:43","新北市板橋區中山路二段90巷43弄5號","121.476585","25.0150383333333","6500100","板橋區"
"220051","830-TW","2017/10/21 14:09:49","新北市板橋區田單街49巷1弄4號","121.482883333333","25.0285316666667","6500100","板橋區"
"220045","831-TW","2017/10/21 14:09:35","新北市板橋區大同街4號","121.476905","25.026765","6500100","板橋區"
"220022","895-R6","2017/10/21 14:09:47","新北市板橋區林園街28-2號","121.45379","25.009995","6500100","板橋區"
"220021","985-R7","2017/10/21 14:09:54","新北市板橋區民權路308號","121.457115","25.0162233333333","6500100","板橋區"
"220046","AAC-210","2017/10/21 14:09:45","新北市板橋區英士路76號","121.460161666667","25.02421","6500100","板橋區"
"220018","AAC-253","2017/10/21 14:09:35","新北市板橋區四川路一段487號","121.457166666667","24.9971966666667","6500100","板橋區"
