"lineid","car","time","location","longitude","latitude","cityid","cityname"
"234044","148-BY","2017/10/21 14:19:41","新北市永和區得和路347號","121.524026666667","24.9994416666667","6500400","永和區"
"234012","149-BY","2017/10/21 14:19:30","新北市永和區保生路54號","121.505496666667","25.0087666666667","6500400","永和區"
"234005","207-UY","2017/10/21 14:19:41","新北市永和區中山路一段6號","121.514245","25.0104566666667","6500400","永和區"
"234078","298-R6","2017/10/21 14:19:42","新北市永和區國中路132巷11號","121.523808333333","25.0074633333333","6500400","永和區"
"234036","336-UY","2017/10/21 14:19:49","新北市永和區成功路一段91號","121.527143333333","25.002765","6500400","永和區"
"234062","337-UY","2017/10/21 14:19:38","新北市永和區得和路131號","121.51905","25.0003533333333","6500400","永和區"
"234084","338-UY","2017/10/21 14:19:41","新北市永和區中正路696-1號","121.51646","25.009735","6500400","永和區"
"234068","552-UM","2017/10/21 14:19:36","新北市永和區福和路239號","121.518396666667","25.00743","6500400","永和區"
"234052","553-UM","2017/10/21 14:19:37","新北市永和區光復街2巷23號","121.517201666667","25.0166533333333","6500400","永和區"
"234015","745-BX","2017/10/21 14:19:38","新北市永和區仁愛路97號","121.512901666667","25.0131216666667","6500400","永和區"
"234028","746-BX","2017/10/21 14:19:33","新北市永和區民權路49巷5弄33號","121.52165","24.997935","6500400","永和區"
"234060","AAD-866","2017/10/21 14:19:37","新北市永和區安樂路194巷5號","121.515338333333","25.00124","6500400","永和區"
"234040","862-TW","2017/10/21 14:19:49","新北市中和區安平路161號","121.512353333333","24.9986116666667","6500400","永和區"
"234048","863-TW","2017/10/21 14:19:52","新北市永和區新生路28巷2號","121.508528333333","25.0160983333333","6500400","永和區"
"234025","9371-KE","2017/10/21 14:19:37","新北市永和區中正路101號","121.51501","24.9978566666667","6500400","永和區"
"234010","9373-KE","2017/10/21 14:19:35","新北市永和區保生路55-1號","121.504571666667","25.0109283333333","6500400","永和區"
"248017","225-UY","2017/10/21 14:18:53","新北市五股區壟路16-1號","121.4146","25.0854","6501500","五股區"
"234022","9380-KE","2017/10/21 14:19:40","新北市永和區竹林路5號","121.51638","25.0149283333333","6500400","永和區"
"234076","969-R7","2017/10/21 14:19:46","新北市永和區民族街81巷62號","121.520478333333","24.9963466666667","6500400","永和區"
"234072","AAC-211","2017/10/21 14:19:50","新北市永和區豫溪街191巷7弄28號","121.523098333333","25.0112633333333","6500400","永和區"
"234066","AAC-212","2017/10/21 14:19:47","新北市永和區保平路292巷42號","121.507585","25.005285","6500400","永和區"
"234001","AAC-295","2017/10/21 14:19:44","新北市永和區中正路628號","121.517008333333","25.0080016666667","6500400","永和區"
"244010","656-BX","2017/10/21 11:34:22","新北市林口區粉寮路二段160巷40號","121.405506666667","25.0911266666667","6501700","林口區"
"231002","002-UM","2017/10/21 14:19:38","新北市新店區中央路216-1號","121.529846666667","24.9733166666667","6500600","新店區"
"231028","046-UY","2017/10/21 14:19:43","新北市新店區安和路二段109號","121.518735","24.9698983333333","6500600","新店區"
"231030","047-UY","2017/10/21 14:19:34","新北市新店區安民街14號","121.51535","24.964525","6500600","新店區"
"231029","106-UY","2017/10/21 14:19:50","新北市新店區安康路二段159巷6號","121.510118333333","24.959145","6500600","新店區"
"231012","108-UY","2017/10/21 14:19:46","新北市新店區中興路二段100巷2號","121.547486666667","24.9712266666667","6500600","新店區"
"231020","187-VK","2017/10/21 14:19:49","新北市新店區桂山路51巷2號","121.562645","24.90146","6500600","新店區"
"231007","189-VK","2017/10/21 09:14:40","新北市新店區新潭路三段215巷25號","121.50818","24.90409","6500600","新店區"
"231017","KEA-2219","2017/10/21 14:19:42","新北市新店區北宜路二段392巷4號","121.56556","24.9534133333333","6500600","新店區"
"231023","AAD-862","2017/10/21 14:19:43","新北市新店區光明街94號","121.538981666667","24.9602983333333","6500600","新店區"
"231027","3712-VJ","2017/10/21 14:19:41","新北市新店區光明街286巷15號","121.54092","24.96366","6500600","新店區"
"231025","4716-K9","2017/10/21 14:19:38","新北市新店區二十張路129巷5弄3號","121.536575","24.978745","6500600","新店區"
"231038","4715-K9","2017/10/21 14:19:35","新北市新店區溪洲路6巷82號","121.533535","24.96326","6500600","新店區"
"231036","512-UM","2017/10/21 14:19:36","新北市新店區安祥路109巷90弄76號","121.475945","24.9583883333333","6500600","新店區"
"231035","515-UM","2017/10/21 14:19:47","新北市新店區光華街5巷19號","121.517661666667","24.9683516666667","6500600","新店區"
"231006","617-UM","2017/10/21 14:19:37","新北市新店區北宜路二段599號","121.568295","24.9557216666667","6500600","新店區"
"231001","619-UM","2017/10/21 14:19:31","新北市新店區北新路一段90號","121.541986666667","24.9687183333333","6500600","新店區"
"231003","641-BX","2017/10/21 14:19:48","新北市新店區中興路一段216號","121.543895","24.96578","6500600","新店區"
"231034","645-TV","2017/10/21 14:19:44","新北市新店區黎明路3號","121.503286666667","24.95238","6500600","新店區"
"231013","719-UM","2017/10/21 14:19:41","新北市新店區民權路88-5號","121.536263333333","24.9834766666667","6500600","新店區"
"231018","719-UY","2017/10/21 14:19:34","新北市新店區中央四街85號","121.526096666667","24.975995","6500600","新店區"
"231033","720-UM","2017/10/21 14:19:46","新北市新店區溪洲路121號","121.53102","24.9628083333333","6500600","新店區"
"231005","897-TW","2017/10/21 14:19:48","新北市新店區北新路二段252-1號","121.54333","24.9781583333333","6500600","新店區"
"231004","899-TW","2017/10/21 14:19:46","新北市新店區中正路156號","121.541506666667","24.971705","6500600","新店區"
"231037","AKT-0513","2017/10/21 14:19:44","新北市新店區車子路10-2號","121.504716666667","24.9546916666667","6500600","新店區"
"235030","003-UY","2017/10/21 14:19:43","新北市中和區景新街48號","121.503945","24.9991383333333","6500300","中和區"
"235028","005-UY","2017/10/21 14:19:43","新北市中和區景平路636號","121.498016666667","25.0002416666667","6500300","中和區"
"235027","006-UY","2017/10/21 14:19:41","新北市中和區連勝街119號","121.495003333333","24.9954716666667","6500300","中和區"
"235020","096-UM","2017/10/21 14:19:46","新北市中和區員山路502-1號","121.479715","25.0075133333333","6500300","中和區"
"235003","097-UM","2017/10/21 14:19:39","新北市中和區秀峰街119巷8弄4號","121.519463333333","24.9897516666667","6500300","中和區"
"235029","098-UM","2017/10/21 14:19:39","新北市中和區中山路二段2巷13弄27號","121.503006666667","25.0064316666667","6500300","中和區"
"235004","150-BY","2017/10/21 14:19:49","新北市中和區安平路36巷57號","121.510593333333","24.9947166666667","6500300","中和區"
"235022","151-BY","2017/10/21 14:19:49","新北市中和區員山路36巷16-2號","121.4853","24.9916916666667","6500300","中和區"
"235019","183-VK","2017/10/21 14:19:37","新北市中和區莒光路3巷1號","121.47197","25.00608","6500300","中和區"
"235002","185-VK","2017/10/21 14:19:47","新北市中和區大仁街10巷19號","121.518658333333","24.9925816666667","6500300","中和區"
"235013","186-VK","2017/10/21 14:19:34","新北市中和區景新街230巷3號","121.50818","24.9941266666667","6500300","中和區"
"235031","255-BX","2017/10/21 14:19:38","新北市中和區新生街164號","121.483675","25.00027","6500300","中和區"
"235008","293-VK","2017/10/21 14:19:37","新北市中和區中興街266巷2號","121.49847","24.9875133333333","6500300","中和區"
"235036","301-VK","2017/10/21 14:19:48","新北市中和區莊敬路33巷6號","121.50051","25.0051433333333","6500300","中和區"
"235007","352-BY","2017/10/21 14:19:46","新北市中和區景平路300號","121.512706666667","24.992775","6500300","中和區"
"235015","376-QA","2017/10/21 14:19:34","新北市中和區興南路一段74號","121.51057","24.9900916666667","6500300","中和區"
"235032","377-QA","2017/10/21 14:19:46","新北市中和區景平路493巷12弄31號","121.498376666667","24.996785","6500300","中和區"
"235025","378-QA","2017/10/21 14:19:35","新北市中和區連城路428巷4號","121.480036666667","24.9951866666667","6500300","中和區"
"235034","269-TV","2017/10/21 14:19:37","新北市中和區建六路62號","121.486171666667","25.0019816666667","6500300","中和區"
"235014","4979-A6","2017/10/21 14:19:48","新北市中和區中興街124-1號","121.499743333333","24.99305","6500300","中和區"
"235033","4980-A6","2017/10/21 14:19:52","新北市中和區中山路二段220號","121.499508333333","25.00267","6500300","中和區"
"235006","551-UM","2017/10/21 14:19:37","新北市永和區民有街3-2號","121.515993333333","24.9971683333333","6500300","中和區"
"235034","558-UM","2017/10/21 14:19:42","新北市中和區中和路93號","121.501173333333","25.00064","6500300","中和區"
"235009","565-BX","2017/10/21 14:19:37","新北市中和區景新街467巷37號","121.514923333333","24.9897","6500300","中和區"
"235018","640-BX","2017/10/21 14:19:51","新北市中和區國光街109巷2弄1號","121.469686666667","25.000495","6500300","中和區"
"235024","647-TV","2017/10/21 14:19:40","新北市中和區中山路三段109號","121.474855","25.00583","6500300","中和區"
"235011","732-UM","2017/10/21 14:19:46","新北市中和區景平路241巷5號","121.509501666667","24.9925866666667","6500300","中和區"
"235010","733-UM","2017/10/21 14:19:50","新北市中和區華新街162號","121.507591666667","24.982375","6500300","中和區"
"235026","800-TS","2017/10/21 14:19:36","新北市中和區中山路二段369號","121.48749","25.0046966666667","6500300","中和區"
"235021","801-TS","2017/10/21 14:19:45","新北市中和區員山路212號","121.48131","25.0008433333333","6500300","中和區"
"235005","802-TS","2017/10/21 14:19:45","新北市中和區中安街218號","121.512038333333","24.998995","6500300","中和區"
"235016","805-TS","2017/10/21 14:19:37","新北市中和區華新街133號","121.5067","24.98181","6500300","中和區"
"235012","896-TW","2017/10/21 14:19:48","新北市中和區華新街111號","121.508661666667","24.98135","6500300","中和區"
"235017","900-TW","2017/10/21 14:19:43","新北市中和區華安街21巷9號","121.467446666667","24.9976133333333","6500300","中和區"
"235001","AAC-213","2017/10/21 14:19:37","新北市中和區秀朗路三段10巷14弄54號","121.524166666667","24.9965833333333","6500300","中和區"
"235023","AAC-215","2017/10/21 14:19:31","新北市中和區圓通路286巷26號","121.492038333333","24.9914333333333","6500300","中和區"
"220016","013-TV","2017/10/21 14:19:47","新北市板橋區林森街1巷22號","121.48253","25.0242216666667","6500100","板橋區"
"220013","072-UY","2017/10/21 14:19:39","新北市板橋區民族路129巷14號","121.467678333333","25.0084916666667","6500100","板橋區"
"220034","073-UY","2017/10/21 14:19:33","新北市板橋區中正路216巷53號","121.457445","25.0189133333333","6500100","板橋區"
"220105","075-UY","2017/10/21 14:19:34","新北市板橋區雙十路三段66巷1號","121.470588333333","25.0319966666667","6500100","板橋區"
"220017","AAD-861","2017/10/21 14:19:50","新北市板橋區大華街73號","121.459336666667","25.0034466666667","6500100","板橋區"
"247021","893-R6","2017/10/21 14:19:41","新北市蘆洲區仁愛街212巷28-1號","121.464221666667","25.0946966666667","6501400","蘆洲區"
"247011","546-UM","2017/10/21 14:19:40","新北市蘆洲區民權路3巷22號","121.475406666667","25.0853383333333","6501400","蘆洲區"
"247019","500-BY","2017/10/21 14:19:31","新北市蘆洲區民族路436巷5號","121.472891666667","25.0927416666667","6501400","蘆洲區"
"247009","339-TH","2017/10/21 14:19:34","新北市蘆洲區中山一路122巷53號","121.476283333333","25.0827233333333","6501400","蘆洲區"
"247001","337-TH","2017/10/21 14:19:50","新北市蘆洲區永樂街64號","121.457176666667","25.0886283333333","6501400","蘆洲區"
"247003","336-TH","2017/10/21 14:19:22","新北市蘆洲區長安街154號","121.459731666667","25.0827633333333","6501400","蘆洲區"
"247015","057-VK","2017/10/21 14:17:59","新北市蘆洲區光華路54巷11號","121.467978333333","25.0833133333333","6501400","蘆洲區"
"247005","056-VK","2017/10/21 14:19:41","新北市蘆洲區長安街23巷14號","121.463578333333","25.0786566666667","6501400","蘆洲區"
"247007","053-VK","2017/10/21 14:19:45","新北市蘆洲區中山一路211號","121.473996666667","25.0806533333333","6501400","蘆洲區"
"247013","007-UY","2017/10/21 14:19:40","新北市蘆洲區成功路60號","121.472546666667","25.0804183333333","6501400","蘆洲區"
"247023","002-UY","2017/10/21 14:19:35","新北市蘆洲區三民路589號","121.461436666667","25.0931933333333","6501400","蘆洲區"
"247017","001-UY","2017/10/21 14:19:35","新北市蘆洲區民權路136-2號","121.47316","25.088995","6501400","蘆洲區"
"228005","097-TW","2017/10/21 14:19:37","新北市貢寮區美豐里雞母嶺街63號","121.899501666667","25.06245","6502600","貢寮區"
"228004","212-TW","2017/10/21 14:19:47","新北市貢寮區雙玉里田寮洋街39號","121.925065","25.0139733333333","6502600","貢寮區"
"227010","400-TW","2017/10/21 14:15:45","新北市雙溪區三貂里政光路3-1號","121.850811666667","25.0631483333333","6502500","雙溪區"
"208004","AAC-292","2017/10/21 14:19:47","新北市金山區重和里六股林口71號","121.599183333333","25.21919","6502700","金山區"
"252005","073-UM","2017/10/21 14:19:48","新北市三芝區圓山里二坪頂79號","121.540376666667","25.24511","6502100","三芝區"
"207001","662-BX","2017/10/21 14:19:39","新北市萬里區磺潭里清水18號","121.63785","25.197755","6502800","萬里區"
"236068","105-UM","2017/10/21 14:19:45","新北市土城區明德路一段130號","121.46365","24.9791616666667","6501300","土城區"
"236041","107-UM","2017/10/21 14:19:31","新北市土城區裕生路21巷6弄1號","121.448831666667","24.9870316666667","6501300","土城區"
"236075","166-UM","2017/10/21 14:19:48","新北市土城區永平街15巷10號","121.428633333333","24.9624683333333","6501300","土城區"
"236029","253-BX","2017/10/21 14:19:46","新北市土城區順風路63號","121.440166666667","24.9772866666667","6501300","土城區"
"236025","269-VK","2017/10/21 14:19:37","新北市土城區承天路67號","121.43957","24.9635183333333","6501300","土城區"
"236013","270-VK","2017/10/21 14:19:39","新北市土城區青雲路39巷7號","121.460383333333","24.9876083333333","6501300","土城區"
"236035","271-VK","2017/10/21 14:19:49","新北市土城區青雲路451巷5號","121.459286666667","24.9747216666667","6501300","土城區"
"236017","401-BY","2017/10/21 14:19:47","新北市土城區明峰街55號","121.46771","24.9867083333333","6501300","土城區"
"236006","498-BY","2017/10/21 14:19:44","新北市土城區城林路6巷80號","121.438653333333","24.9798016666667","6501300","土城區"
"236057","912-UM","2017/10/21 14:19:36","新北市土城區中央路四段404號","121.412433333333","24.9538983333333","6501300","土城區"
"236045","913-UM","2017/10/21 14:06:02","新北市土城區明德路一段385-1號","121.452766666667","24.979805","6501300","土城區"
"236061","915-UM","2017/10/21 14:19:39","新北市土城區延壽路44巷11號","121.471388333333","24.9929966666667","6501300","土城區"
"236054","AAC-216","2017/10/21 14:19:41","新北市土城區中華路二段90號","121.438258333333","24.9748083333333","6501300","土城區"
"242001","233-RS","2017/10/21 10:03:58","新北市新莊區環河路48-7號","121.436945","25.0098983333333","6500500","新莊區"
"221036","130-UY","2017/10/21 14:19:40","新北市汐止區汐碇路436巷51-1號","121.646111666667","25.0296266666667","6501100","汐止區"
"221012","276-VK","2017/10/21 13:25:54","新北市汐止區汐萬路一段256巷3號","121.653495","25.07464","6501100","汐止區"
"221029","298-VK","2017/10/21 14:19:37","新北市八里區商港路105巷15號","121.389075","25.147555","6501100","汐止區"
"220027","145-BY","2017/10/21 14:19:46","新北市板橋區民權路260巷22號","121.458641666667","25.0153133333333","6500100","板橋區"
"220028","200-UY","2017/10/21 14:19:48","新北市板橋區大觀路二段19巷23號","121.447681666667","25.0032233333333","6500100","板橋區"
"220030","610-BX","2017/10/21 14:19:49","新北市板橋區篤行路三段玉平巷68弄13號","121.427276666667","24.9861616666667","6500100","板橋區"
"220050","245-BX","2017/10/21 14:19:37","新北市板橋區莊敬路31-1號","121.473513333333","25.0276533333333","6500100","板橋區"
"220004","276-BY","2017/10/21 14:19:34","新北市板橋區和平路4號","121.458005","24.9942766666667","6500100","板橋區"
"220020","277-BY","2017/10/21 14:19:47","新北市板橋區金門街260巷9號","121.429415","24.9867516666667","6500100","板橋區"
"220043","280-UM","2017/10/21 14:19:48","新北市板橋區吳鳳路82號","121.46698","25.0313266666667","6500100","板橋區"
"220019","283-VK","2017/10/21 14:19:49","新北市板橋區忠孝路48巷7弄9號","121.46142","25.0004766666667","6500100","板橋區"
"220001","285-VK","2017/10/21 14:19:42","新北市板橋區縣民大道三段270巷12號","121.478426666667","25.0229516666667","6500100","板橋區"
"220031","286-VK","2017/10/21 14:19:28","新北市板橋區龍興街95巷4號","121.443873333333","25.0025133333333","6500100","板橋區"
"220029","287-VK","2017/10/21 04:27:10","新北市板橋區華東街1-10號","121.448266666667","24.9949683333333","6500100","板橋區"
"220039","288-VK","2017/10/21 14:19:35","新北市板橋區長江路一段106巷13弄20號","121.460811666667","25.0294516666667","6500100","板橋區"
"220009","293-UM","2017/10/21 14:19:39","新北市板橋區光復街192巷20號","121.481466666667","25.0189783333333","6500100","板橋區"
"220032","296-UM","2017/10/21 14:19:38","新北市板橋區溪崑二街56巷36號","121.428296666667","24.991535","6500100","板橋區"
"220023","297-UM","2017/10/21 14:19:39","新北市板橋區南雅南路一段1巷1弄14號","121.456975","25.00629","6500100","板橋區"
"220047","299-UM","2017/10/21 14:19:41","新北市板橋區四維路266巷2弄20號","121.464","25.028055","6500100","板橋區"
"220010","303-R5","2017/10/21 14:19:44","新北市板橋區三民路二段181巷1號","121.47961","25.0144033333333","6500100","板橋區"
"220041","307-R5","2017/10/21 14:19:49","新北市板橋區松江街72巷32號","121.469896666667","25.0277766666667","6500100","板橋區"
"220012","486-VK","2017/10/21 14:19:40","新北市板橋區民權路45號","121.462098333333","25.011155","6500100","板橋區"
"220038","487-VK","2017/10/21 14:19:42","新北市板橋區文化路一段357號","121.46679","25.0210783333333","6500100","板橋區"
"220037","491-VK","2017/10/21 14:19:42","新北市板橋區雙十路二段6-11號","121.476563333333","25.02648","6500100","板橋區"
"220104","560-BX","2017/10/21 14:19:46","新北市板橋區中正路399巷26號","121.45318","25.022625","6500100","板橋區"
"220052","561-BX","2017/10/21 14:19:40","新北市板橋區介壽街84巷10號","121.469801666667","25.01846","6500100","板橋區"
"220011","609-BX","2017/10/21 14:19:41","新北市板橋區三民路二段251號","121.479015","25.01233","6500100","板橋區"
"220040","637-BX","2017/10/21 14:19:42","新北市板橋區文聖街207-1號","121.479883333333","25.0263816666667","6500100","板橋區"
"220005","686-BX","2017/10/21 14:19:39","新北市板橋區和平路161巷26-3號","121.46345","24.9968316666667","6500100","板橋區"
"220025","687-BX","2017/10/21 14:19:46","新北市板橋區大觀路二段123號","121.445951666667","25.0013616666667","6500100","板橋區"
"220042","689-BX","2017/10/21 14:19:35","新北市板橋區漢生西路40號","121.463281666667","25.0183533333333","6500100","板橋區"
"220002","741-BX","2017/10/21 14:19:33","新北市板橋區校前街35號","121.460855","25.0032166666667","6500100","板橋區"
"220003","827-TW","2017/10/21 14:19:47","新北市板橋區館前東路156巷21號","121.464288333333","25.0069266666667","6500100","板橋區"
"220014","829-TW","2017/10/21 14:19:43","新北市板橋區長安街138巷7弄64號","121.47426","25.00936","6500100","板橋區"
"220051","830-TW","2017/10/21 14:19:48","新北市板橋區松柏街1巷31號","121.473305","25.030135","6500100","板橋區"
"220045","831-TW","2017/10/21 14:19:35","新北市板橋區大同街53號","121.47862","25.0275","6500100","板橋區"
"220022","895-R6","2017/10/21 14:19:47","新北市板橋區北門街61號","121.456205","25.0119633333333","6500100","板橋區"
"220021","985-R7","2017/10/21 14:19:47","新北市板橋區中正路194號","121.456066666667","25.0179166666667","6500100","板橋區"
"220046","AAC-210","2017/10/21 14:19:45","新北市板橋區幸福路47號","121.461268333333","25.01994","6500100","板橋區"
"220018","AAC-253","2017/10/21 14:19:35","新北市板橋區忠孝路131號","121.46308","25.0023683333333","6500100","板橋區"
