"lineid","car","time","location","longitude","latitude","cityid","cityname"
"248020","225-UY","2017/10/21 15:33:10","新北市五股區中興路二段83巷26-3號","121.460126666667","25.0753166666667","6501500","五股區"
"244010","656-BX","2017/10/21 11:34:22","新北市林口區粉寮路二段160巷40號","121.405506666667","25.0911266666667","6501700","林口區"
"231007","189-VK","2017/10/21 09:14:40","新北市新店區新潭路三段215巷25號","121.50818","24.90409","6500600","新店區"
"231046","278-BY","2017/10/21 16:19:44","新北市新店區灣潭路3-3號","121.53822","24.9508116666667","6500600","新店區"
"231018","719-UY","2017/10/21 16:19:34","新北市新店區中正路700巷48號","121.535731666667","24.9918116666667","6500600","新店區"
"241011","013-R5","2017/10/21 16:19:33","新北市三重區三和路三段29號","121.496041666667","25.0708933333333","6500200","三重區"
"241028","022-UY","2017/10/21 16:19:32","新北市三重區同安東街50號","121.497981666667","25.0572966666667","6500200","三重區"
"241008","059-VK","2017/10/21 16:19:40","新北市三重區永福街112號","121.479026666667","25.0754133333333","6500200","三重區"
"241009","060-VK","2017/10/21 16:19:33","新北市三重區仁愛街541號","121.486673333333","25.08204","6500200","三重區"
"241031","061-VK","2017/10/21 16:19:43","新北市三重區重新路四段138號","121.486765","25.0563733333333","6500200","三重區"
"241015","062-VK","2017/10/21 16:19:30","新北市三重區三和路一段42號","121.502891666667","25.0653183333333","6500200","三重區"
"241017","063-VK","2017/10/21 16:19:38","新北市三重區大同北路85號","121.494811666667","25.06368","6500200","三重區"
"241026","066-VK","2017/10/21 16:19:36","新北市三重區正義南路38號","121.498228333333","25.060965","6500200","三重區"
"241002","090-VK","2017/10/21 16:19:32","新北市三重區仁義街101巷8號","121.498506666667","25.0796966666667","6500200","三重區"
"241003","091-VK","2017/10/21 16:19:33","新北市三重區仁義街220巷31號","121.494171666667","25.0835683333333","6500200","三重區"
"241005","262-UM","2017/10/21 16:19:35","新北市三重區溪尾街300-2號","121.487411666667","25.0837066666667","6500200","三重區"
"241016","265-UM","2017/10/21 16:19:44","新北市三重區大仁街92號","121.492916666667","25.06548","6500200","三重區"
"241022","267-UM","2017/10/21 16:19:50","新北市三重區新北大道一段3-1號","121.489953333333","25.0616683333333","6500200","三重區"
"241018","268-UM","2017/10/21 16:19:46","新北市三重區重陽路三段15號","121.489271666667","25.066805","6500200","三重區"
"241013","270-UM","2017/10/21 16:19:48","新北市三重區三和路三段98號","121.494181666667","25.0720233333333","6500200","三重區"
"241025","271-UM","2017/10/21 16:19:47","新北市三重區中正北路560巷100弄2號","121.472443333333","25.0682616666667","6500200","三重區"
"241007","398-BY","2017/10/21 16:19:36","新北市三重區仁美街83號","121.486165","25.0795166666667","6500200","三重區"
"241024","KEA-2210","2017/10/21 16:19:40","新北市三重區中正北路145巷3弄11號","121.483736666667","25.0673016666667","6500200","三重區"
"241020","413-TH","2017/10/21 16:19:41","新北市三重區後竹圍街268號","121.483848333333","25.0710233333333","6500200","三重區"
"241004","475-VK","2017/10/21 16:19:42","新北市三重區五華街74號","121.49351","25.081995","6500200","三重區"
"241019","478-VK","2017/10/21 16:19:36","新北市三重區重陽路三段97號","121.490405","25.067985","6500200","三重區"
"241014","543-UM","2017/10/21 16:19:30","新北市三重區龍濱路21號","121.503145","25.067975","6500200","三重區"
"241023","545-UM","2017/10/21 16:19:46","新北市三重區忠孝路二段138號","121.482498333333","25.0683166666667","6500200","三重區"
"241001","547-UM","2017/10/21 16:19:44","新北市三重區自強路四段87號","121.490995","25.079325","6500200","三重區"
"241006","AAD-863","2017/10/21 16:19:38","新北市三重區永福街46巷41弄21號","121.481738333333","25.07717","6500200","三重區"
"241012","941-UM","2017/10/21 16:19:34","新北市三重區龍門路288號","121.502066666667","25.07417","6500200","三重區"
"241029","942-UM","2017/10/21 16:19:49","新北市三重區環河南路220-8號","121.493315","25.0525716666667","6500200","三重區"
"241033","AAC-255","2017/10/21 16:19:50","新北市三重區重新路五段438號","121.474975","25.0472566666667","6500200","三重區"
"235062","800-TS","2017/10/21 15:43:09","新北市中和區員山路36巷16-3號","121.484921666667","24.99186","6500300","中和區"
"228003","097-TW","2017/10/21 15:19:35","新北市貢寮區貢寮里朝陽街1-2號","121.912365","25.0212783333333","6502600","貢寮區"
"224006","676-BX","2017/10/21 16:19:34","新北市瑞芳區中山路67號","121.804093333333","25.1061733333333","6501200","瑞芳區"
"224007","273-VK","2017/10/21 16:19:37","新北市瑞芳區大埔路278號","121.760046666667","25.1025416666667","6501200","瑞芳區"
"224005","271-BY","2017/10/21 16:19:15","新北市瑞芳區岳王路94號","121.811041666667","25.11132","6501200","瑞芳區"
"227002","642-TC","2017/10/21 16:19:43","新北市雙溪區上林里內平林80號","121.828293333333","25.0279383333333","6502500","雙溪區"
"227010","400-TW","2017/10/21 16:19:47","新北市雙溪區三港里雙澳路80號","121.883815","25.0539083333333","6502500","雙溪區"
"251008","181-VK","2017/10/21 16:19:33","新北市淡水區中正東路38-1號","121.449461666667","25.1655833333333","6501000","淡水區"
"242001","233-RS","2017/10/21 10:03:58","新北市新莊區環河路48-7號","121.436945","25.0098983333333","6500500","新莊區"
"221012","276-VK","2017/10/21 13:25:54","新北市汐止區汐萬路一段256巷3號","121.653495","25.07464","6501100","汐止區"
