"lineid","car","time","location","longitude","latitude","cityid","cityname"
"249005","172-UM","2017/10/21 17:09:31","新北市八里區華富山6-8號","121.419916666667","25.1432216666667","6502300","八里區"
"249001","173-UM","2017/10/21 17:09:36","新北市八里區中華路二段201-27號","121.405775","25.14992","6502300","八里區"
"249004","303-UY","2017/10/21 17:09:31","新北市八里區忠八街59-1號","121.419191666667","25.1613283333333","6502300","八里區"
"249002","305-UY","2017/10/21 17:09:49","新北市八里區龍米路二段123號","121.446731666667","25.1445816666667","6502300","八里區"
"249003","759-BX","2017/10/21 17:09:39","新北市八里區訊塘路96號","121.3976","25.14649","6502300","八里區"
"248020","225-UY","2017/10/21 15:33:10","新北市五股區中興路二段83巷26-3號","121.460126666667","25.0753166666667","6501500","五股區"
"244007","080-UY","2017/10/21 17:09:41","新北市林口區菁埔路37號","121.377305","25.09709","6501700","林口區"
"244019","403-UM","2017/10/21 17:09:37","新北市林口區仁愛路二段80號","121.384541666667","25.0755133333333","6501700","林口區"
"244025","742-UY","2017/10/21 17:09:35","新北市林口區粉寮路二段14號","121.401713333333","25.0854616666667","6501700","林口區"
"244009","410-SL","2017/10/21 17:09:47","新北市林口區竹林路320巷2-1號","121.390803333333","25.08223","6501700","林口區"
"244023","483-VK","2017/10/21 17:09:34","新北市林口區仁愛路一段338號","121.390943333333","25.0764816666667","6501700","林口區"
"244010","656-BX","2017/10/21 11:34:22","新北市林口區粉寮路二段160巷40號","121.405506666667","25.0911266666667","6501700","林口區"
"244021","838-TS","2017/10/21 17:09:44","新北市林口區粉寮一街124號","121.404963333333","25.086015","6501700","林口區"
"231007","189-VK","2017/10/21 09:14:40","新北市新店區新潭路三段215巷25號","121.50818","24.90409","6500600","新店區"
"231046","278-BY","2017/10/21 17:09:44","新北市新店區直潭路92號","121.530938333333","24.9376266666667","6500600","新店區"
"241011","013-R5","2017/10/21 17:09:33","新北市三重區龍濱路196號","121.50107","25.0733183333333","6500200","三重區"
"241028","022-UY","2017/10/21 17:09:32","新北市三重區重新路三段110號","121.492286666667","25.0602983333333","6500200","三重區"
"241008","059-VK","2017/10/21 17:09:40","新北市三重區力行路二段136巷9號","121.482041666667","25.0757033333333","6500200","三重區"
"241009","060-VK","2017/10/21 17:09:53","新北市三重區三和路四段215巷12號","121.482236666667","25.0798883333333","6500200","三重區"
"241031","061-VK","2017/10/21 17:09:43","新北市三重區重陽路一段113巷2弄2號","121.487496666667","25.0598666666667","6500200","三重區"
"241015","062-VK","2017/10/21 17:09:50","新北市三重區長生街20號","121.499386666667","25.066385","6500200","三重區"
"241017","063-VK","2017/10/21 17:09:38","新北市三重區國隆路27號","121.492603333333","25.0642366666667","6500200","三重區"
"241026","066-VK","2017/10/21 17:09:36","新北市三重區重新路二段1號","121.499693333333","25.06295","6500200","三重區"
"241002","090-VK","2017/10/21 17:09:52","新北市三重區五華街35巷32號","121.495248333333","25.0813966666667","6500200","三重區"
"241003","091-VK","2017/10/21 17:09:54","新北市三重區富福街111號","121.493541666667","25.0856533333333","6500200","三重區"
"241005","262-UM","2017/10/21 17:09:35","新北市三重區碧華街26號","121.482326666667","25.08075","6500200","三重區"
"241016","265-UM","2017/10/21 17:09:44","新北市三重區中正北路25巷8號","121.493348333333","25.0629033333333","6500200","三重區"
"241022","267-UM","2017/10/21 17:09:50","新北市三重區三民街133號","121.484885","25.06395","6500200","三重區"
"241018","268-UM","2017/10/21 17:09:46","新北市三重區正義北路332-1號","121.494275","25.07043","6500200","三重區"
"241032","269-UM","2017/10/21 17:09:34","新北市三重區三陽路13巷10號","121.485981666667","25.0595116666667","6500200","三重區"
"241013","270-UM","2017/10/21 17:09:48","新北市三重區仁孝街62號","121.497278333333","25.07439","6500200","三重區"
"241025","271-UM","2017/10/21 17:09:47","新北市三重區中正北路560巷89號","121.470926666667","25.0687166666667","6500200","三重區"
"241007","398-BY","2017/10/21 17:09:36","新北市三重區三和路四段163巷42號","121.485773333333","25.0793466666667","6500200","三重區"
"241024","KEA-2210","2017/10/21 17:09:40","新北市三重區中正北路193巷11弄29號","121.478516666667","25.0704766666667","6500200","三重區"
"241020","413-TH","2017/10/21 17:09:41","新北市三重區自強路三段72號","121.486803333333","25.0736766666667","6500200","三重區"
"241004","475-VK","2017/10/21 17:09:42","新北市三重區五華街92-1號","121.492713333333","25.08244","6500200","三重區"
"241019","478-VK","2017/10/21 17:09:48","新北市三重區力行路一段153巷10號","121.485638333333","25.0689766666667","6500200","三重區"
"241030","480-VK","2017/10/21 17:09:46","新北市三重區集成路38號","121.488978333333","25.0525833333333","6500200","三重區"
"241014","543-UM","2017/10/21 17:09:50","新北市三重區龍濱路191號","121.502003333333","25.0710766666667","6500200","三重區"
"241023","545-UM","2017/10/21 17:09:46","新北市三重區忠孝路三段84巷1號","121.480255","25.0645283333333","6500200","三重區"
"241001","547-UM","2017/10/21 17:09:44","新北市三重區仁愛街255巷58號","121.494251666667","25.0790033333333","6500200","三重區"
"241006","AAD-863","2017/10/21 17:09:38","新北市三重區車路頭街143巷18號","121.484686666667","25.0768616666667","6500200","三重區"
"241012","941-UM","2017/10/21 17:09:34","新北市三重區仁壽街172號","121.500343333333","25.0745783333333","6500200","三重區"
"241029","942-UM","2017/10/21 17:09:49","新北市三重區重新路三段157號","121.489655","25.05879","6500200","三重區"
"241033","AAC-255","2017/10/21 17:09:50","新北市三重區中興北街275號","121.469063333333","25.0608666666667","6500200","三重區"
"235062","800-TS","2017/10/21 15:43:09","新北市中和區員山路36巷16-3號","121.484921666667","24.99186","6500300","中和區"
"247022","893-R6","2017/10/21 17:09:36","新北市蘆洲區三民路222號","121.468761666667","25.089285","6501400","蘆洲區"
"247012","546-UM","2017/10/21 17:09:51","新北市蘆洲區信義路292巷7號","121.478","25.0877333333333","6501400","蘆洲區"
"247010","339-TH","2017/10/21 17:09:35","新北市蘆洲區民族路42號","121.476686666667","25.08428","6501400","蘆洲區"
"247002","337-TH","2017/10/21 17:09:35","新北市蘆洲區永樂街52-2號","121.457441666667","25.0884683333333","6501400","蘆洲區"
"247003","336-TH","2017/10/21 17:09:33","新北市蘆洲區永安南路二段274號","121.458455","25.0811433333333","6501400","蘆洲區"
"247020","335-TH","2017/10/21 17:09:47","新北市蘆洲區仁愛街81號","121.47134","25.0938283333333","6501400","蘆洲區"
"247016","057-VK","2017/10/21 17:09:43","新北市蘆洲區光華路65巷13號","121.46865","25.0822633333333","6501400","蘆洲區"
"247006","056-VK","2017/10/21 17:09:41","新北市蘆洲區長安街108巷22號","121.461906666667","25.0821966666667","6501400","蘆洲區"
"247008","053-VK","2017/10/21 17:09:42","新北市蘆洲區信義路30巷115號","121.475201666667","25.0769716666667","6501400","蘆洲區"
"247014","007-UY","2017/10/21 17:09:37","新北市蘆洲區中央路37巷15-17號","121.473146666667","25.0825533333333","6501400","蘆洲區"
"247024","002-UY","2017/10/21 17:09:51","新北市蘆洲區長興路37號","121.463318333333","25.0836433333333","6501400","蘆洲區"
"247018","001-UY","2017/10/21 17:09:36","新北市蘆洲區復興路129號","121.4776","25.088495","6501400","蘆洲區"
"228003","097-TW","2017/10/21 17:09:38","新北市貢寮區福隆里東興街31-1號","121.952323333333","25.020655","6502600","貢寮區"
"228001","212-TW","2017/10/21 17:09:49","新北市貢寮區仁理村尖山腳街20號","121.924565","25.0478333333333","6502600","貢寮區"
"228002","585-TW","2017/10/21 17:09:40","新北市貢寮區雙玉里下雙溪街1號","121.911873333333","25.0168616666667","6502600","貢寮區"
"224006","676-BX","2017/10/21 17:09:45","新北市瑞芳區大寮路106號","121.7815","25.0979183333333","6501200","瑞芳區"
"224009","285-BY","2017/10/21 17:09:15","新北市瑞芳區坑尾巷37-1號","121.844183333333","25.1116066666667","6501200","瑞芳區"
"224008","275-VK","2017/10/21 17:09:50","新北市瑞芳區柴寮路20號","121.824663333333","25.0830083333333","6501200","瑞芳區"
"224007","273-VK","2017/10/21 17:09:40","新北市瑞芳區粗坑口路2號","121.762011666667","25.0987166666667","6501200","瑞芳區"
"224005","271-BY","2017/10/21 17:09:35","新北市瑞芳區鼻頭路113號","121.916235","25.1226716666667","6501200","瑞芳區"
"227002","642-TC","2017/10/21 17:09:43","新北市雙溪區外柑里外柑腳64號","121.807818333333","25.0178066666667","6502500","雙溪區"
"227010","400-TW","2017/10/21 17:09:47","新北市雙溪區三貂里子崙坑1-6號","121.84986","25.0573833333333","6502500","雙溪區"
"251009","008-UM","2017/10/21 17:09:42","新北市淡水區三民街20號","121.43898","25.1717216666667","6501000","淡水區"
"251004","009-UM","2017/10/21 17:09:41","新北市淡水區中正東路79號","121.44752","25.16724","6501000","淡水區"
"251005","010-UM","2017/10/21 17:09:38","新北市淡水區學府路88號","121.449076666667","25.1710433333333","6501000","淡水區"
"251014","180-VK","2017/10/21 17:09:49","新北市淡水區八里堆9號","121.463841666667","25.2233733333333","6501000","淡水區"
"251008","181-VK","2017/10/21 17:09:54","新北市淡水區樹梅坑14號","121.471243333333","25.1433683333333","6501000","淡水區"
"251010","413-VK","2017/10/21 17:09:52","新北市淡水區新市二路三段16號","121.430986666667","25.1942016666667","6501000","淡水區"
"251012","441-VK","2017/10/21 17:09:40","新北市淡水區新民街276號","121.435436666667","25.1815783333333","6501000","淡水區"
"251016","442-VK","2017/10/21 17:09:53","新北市淡水區社厝坑2-5號","121.47589","25.1889683333333","6501000","淡水區"
"251006","561-UM","2017/10/21 17:09:42","新北市淡水區中正路一段112號","121.423683333333","25.1780483333333","6501000","淡水區"
"251007","577-R6","2017/10/21 17:09:41","新北市淡水區中正東路二段129號","121.459555","25.1486083333333","6501000","淡水區"
"251011","650-BX","2017/10/21 17:09:36","新北市淡水區坪頂路42號","121.457651666667","25.1624166666667","6501000","淡水區"
"251003","766-UM","2017/10/21 17:09:52","新北市淡水區中正路二段31號","121.419431666667","25.1815366666667","6501000","淡水區"
"252002","178-VK","2017/10/21 17:09:37","新北市三芝區忠孝街138-1號","121.506086666667","25.2580183333333","6502100","三芝區"
"242051","751-BX","2017/10/21 17:09:50","新北市新莊區三和路10號","121.441935","25.0359066666667","6500500","新莊區"
"242025","705-TV","2017/10/21 17:09:38","新北市新莊區三和路12-12號","121.442328333333","25.037055","6500500","新莊區"
"242023","613-BX","2017/10/21 17:09:34","新北市新莊區新泰路357巷3弄57號","121.44213","25.0391366666667","6500500","新莊區"
"242027","612-BX","2017/10/21 17:09:51","新北市新莊區新泰路357巷3弄57號","121.442151666667","25.0392566666667","6500500","新莊區"
"242039","566-BX","2017/10/21 17:09:36","新北市新莊區三和路12-10號","121.442188333333","25.0367783333333","6500500","新莊區"
"242044","497-BY","2017/10/21 17:09:32","新北市新莊區三和路12-16號","121.441931666667","25.0374266666667","6500500","新莊區"
"242046","442-UM","2017/10/21 15:41:28","新北市新莊區三和路12-21號","121.442","25.03879","6500500","新莊區"
"242048","441-UM","2017/10/21 17:09:52","新北市新莊區中正路556-2號","121.429251666667","25.0310416666667","6500500","新莊區"
"242053","440-UM","2017/10/21 17:09:47","新北市新莊區新泰路401巷29-1號","121.442421666667","25.0438316666667","6500500","新莊區"
"242004","413-TV","2017/10/21 17:09:40","新北市新莊區新泰路357巷3弄57號","121.442156666667","25.0395033333333","6500500","新莊區"
"242042","400-BY","2017/10/21 17:09:39","新北市新莊區新泰路357巷3弄57號","121.442205","25.0395816666667","6500500","新莊區"
"242061","362-BY","2017/10/21 17:09:48","新北市新莊區三和路12-21號","121.442336666667","25.0385966666667","6500500","新莊區"
"242058","353-BY","2017/10/21 17:09:42","新北市新莊區新泰路255巷83號","121.442205","25.0387833333333","6500500","新莊區"
"242007","132-UY","2017/10/21 16:06:37","新北市新莊區新泰路255巷83號","121.442031666667","25.0388516666667","6500500","新莊區"
"242036","133-UY","2017/10/21 17:09:49","新北市新莊區三和路12-21號","121.442341666667","25.0385133333333","6500500","新莊區"
"242021","135-UY","2017/10/21 14:25:11","新北市新莊區新泰路255巷83號","121.442003333333","25.0388883333333","6500500","新莊區"
"242009","173-VK","2017/10/21 15:29:46","新北市新莊區三和路12-21號","121.441981666667","25.0387316666667","6500500","新莊區"
"242015","175-VK","2017/10/21 17:09:39","新北市新莊區三和路12-21號","121.44189","25.03864","6500500","新莊區"
"242002","176-VK","2017/10/21 17:09:39","新北市新莊區三和路12-21號","121.441956666667","25.0384733333333","6500500","新莊區"
"242001","233-RS","2017/10/21 10:03:58","新北市新莊區環河路48-7號","121.436945","25.0098983333333","6500500","新莊區"
"242013","346-TH","2017/10/21 04:25:34","新北市新莊區三和路12-16號","121.441911666667","25.0373916666667","6500500","新莊區"
"242019","348-TH","2017/10/21 17:09:50","新北市新莊區新泰路357巷3弄1號","121.442406666667","25.041465","6500500","新莊區"
"242056","349-TH","2017/10/21 17:09:39","新北市新莊區三和路12-17號","121.442086666667","25.037535","6500500","新莊區"
"242017","350-TH","2017/10/21 17:09:46","新北市新莊區新泰路417-9號","121.442381666667","25.0447933333333","6500500","新莊區"
"242011","351-TH","2017/10/21 17:09:39","新北市新莊區新泰路357巷3弄57號","121.442163333333","25.0395483333333","6500500","新莊區"
"238015","755-BX","2017/10/21 17:09:49","新北市樹林區八德街858號","121.391883333333","24.9685683333333","6500700","樹林區"
"238023","601-UM","2017/10/21 17:09:50","新北市樹林區八德街192號","121.41874","24.9739216666667","6500700","樹林區"
"238019","599-UM","2017/10/21 17:09:44","新北市樹林區八德街418號","121.403338333333","24.9705116666667","6500700","樹林區"
"238018","571-TV","2017/10/21 17:09:39","新北市樹林區太平路269號","121.419445","24.973005","6500700","樹林區"
"238024","5061-A6","2017/10/21 17:09:45","新北市樹林區鎮前街160號","121.424398333333","24.9901066666667","6500700","樹林區"
"238021","KEA-2217","2017/10/21 17:09:51","新北市樹林區西圳街一段156號","121.394913333333","24.9624566666667","6500700","樹林區"
"238022","KEA-2213","2017/10/21 17:09:40","新北市樹林區八德街328號","121.409218333333","24.96987","6500700","樹林區"
"238025","303-VK","2017/10/21 17:09:36","新北市樹林區中洲街3號","121.397383333333","24.9730033333333","6500700","樹林區"
"238017","283-BY","2017/10/21 17:09:45","新北市樹林區中山路三段125-5號","121.398331666667","24.9740116666667","6500700","樹林區"
"238014","282-BY","2017/10/21 17:09:45","新北市樹林區中洲街5號","121.397291666667","24.9726416666667","6500700","樹林區"
"238026","172-UY","2017/10/21 17:09:46","新北市樹林區八德街224號","121.415478333333","24.9718733333333","6500700","樹林區"
"238016","169-UY","2017/10/21 17:09:31","新北市樹林區中洲街5號","121.397315","24.9726733333333","6500700","樹林區"
"239007","AAC-297","2017/10/21 17:09:36","新北市鶯歌區中正一路148號","121.352238333333","24.9558733333333","6500800","鶯歌區"
"239006","891-R6","2017/10/21 17:09:40","新北市鶯歌區八德路29號","121.334885","24.9519933333333","6500800","鶯歌區"
"239008","527-UM","2017/10/21 17:09:40","新北市鶯歌區文化路307號","121.3525","24.9524716666667","6500800","鶯歌區"
"239005","526-UM","2017/10/21 17:09:46","新北市鶯歌區鶯桃路571號","121.329798333333","24.96846","6500800","鶯歌區"
"239001","417-VK","2017/10/21 17:09:42","新北市鶯歌區尖山路140巷12弄4號","121.34633","24.9495116666667","6500800","鶯歌區"
"239003","360-BY","2017/10/21 17:09:49","新北市鶯歌區德昌二街70巷32弄41號","121.330583333333","24.9585783333333","6500800","鶯歌區"
"239002","359-BY","2017/10/21 17:09:46","新北市鶯歌區建國路280號","121.346016666667","24.95318","6500800","鶯歌區"
"239004","193-VK","2017/10/21 17:09:38","新北市鶯歌區文化路226巷7弄37號","121.352126666667","24.94772","6500800","鶯歌區"
"221012","276-VK","2017/10/21 13:25:54","新北市汐止區汐萬路一段256巷3號","121.653495","25.07464","6501100","汐止區"
"242034","280-VK","2017/10/21 17:09:44","新北市新莊區三和路12-21號","121.442073333333","25.0382366666667","6500500","新莊區"
