"lineid","car","time","location","longitude","latitude","cityid","cityname"
"249005","172-UM","2017/10/21 17:29:51","新北市八里區荖阡坑路28-8號","121.403886666667","25.1295583333333","6502300","八里區"
"249001","173-UM","2017/10/21 17:29:56","新北市八里區大崁腳41-3號","121.426026666667","25.15943","6502300","八里區"
"249004","303-UY","2017/10/21 17:29:51","新北市八里區民治街173號","121.413566666667","25.156465","6502300","八里區"
"249002","305-UY","2017/10/21 17:29:49","新北市八里區石壁腳9-5號","121.445465","25.1343666666667","6502300","八里區"
"249003","759-BX","2017/10/21 17:29:39","新北市八里區中山路二段398號","121.400598333333","25.1478466666667","6502300","八里區"
"248020","225-UY","2017/10/21 15:33:10","新北市五股區中興路二段83巷26-3號","121.460126666667","25.0753166666667","6501500","五股區"
"244013","069-UM","2017/10/21 17:29:43","新北市林口區中山路9號","121.396428333333","25.0781966666667","6501700","林口區"
"244007","080-UY","2017/10/21 17:29:41","新北市林口區湖子25號","121.385843333333","25.093615","6501700","林口區"
"244019","403-UM","2017/10/21 17:29:57","新北市林口區文化二路一段380號","121.37418","25.0765933333333","6501700","林口區"
"244025","742-UY","2017/10/21 17:29:35","新北市林口區民族路77號","121.36577","25.0754183333333","6501700","林口區"
"244009","410-SL","2017/10/21 17:29:51","新北市林口區中北一街76號","121.3858","25.0886883333333","6501700","林口區"
"244023","483-VK","2017/10/21 17:29:54","新北市林口區東明一街35巷8號","121.3921","25.0719383333333","6501700","林口區"
"244017","485-VK","2017/10/21 17:29:40","新北市林口區粉寮路60-17號","121.4042","25.0903533333333","6501700","林口區"
"244010","656-BX","2017/10/21 11:34:22","新北市林口區粉寮路二段160巷40號","121.405506666667","25.0911266666667","6501700","林口區"
"244011","701-TV","2017/10/21 17:29:50","新北市林口區佳林路140號","121.38424","25.0772","6501700","林口區"
"244021","838-TS","2017/10/21 17:29:44","新北市林口區粉寮路二段221號","121.403938333333","25.0907766666667","6501700","林口區"
"231007","189-VK","2017/10/21 09:14:40","新北市新店區新潭路三段215巷25號","121.50818","24.90409","6500600","新店區"
"231046","278-BY","2017/10/21 17:29:44","新北市新店區直潭路92號","121.530906666667","24.9376233333333","6500600","新店區"
"241011","013-R5","2017/10/21 17:29:53","新北市三重區河邊北街124巷51號","121.502588333333","25.0712283333333","6500200","三重區"
"241009","060-VK","2017/10/21 17:29:53","新北市三重區車路頭街135-1號","121.48417","25.07597","6500200","三重區"
"241015","062-VK","2017/10/21 17:29:50","新北市三重區長元街65巷20弄18號","121.503591666667","25.06604","6500200","三重區"
"241017","063-VK","2017/10/21 17:29:38","新北市三重區中正北路15號","121.492873333333","25.06181","6500200","三重區"
"241003","091-VK","2017/10/21 17:29:52","新北市三重區碧華街390號","121.491456666667","25.0848083333333","6500200","三重區"
"241005","262-UM","2017/10/21 17:29:55","新北市三重區永安北路二段5巷43號","121.483005","25.08131","6500200","三重區"
"241016","265-UM","2017/10/21 17:29:44","新北市三重區信義西街43號","121.49515","25.06409","6500200","三重區"
"241022","267-UM","2017/10/21 17:29:50","新北市三重區新北大道一段7號","121.489771666667","25.0613816666667","6500200","三重區"
"241018","268-UM","2017/10/21 17:29:46","新北市三重區新北大道一段7號","121.489745","25.0614083333333","6500200","三重區"
"241032","269-UM","2017/10/21 17:29:54","新北市三重區名源街30號","121.482153333333","25.0600283333333","6500200","三重區"
"241013","270-UM","2017/10/21 17:29:48","新北市三重區仁愛街82巷4號","121.495186666667","25.073515","6500200","三重區"
"241025","271-UM","2017/10/21 17:29:47","新北市三重區中正北路392-1號","121.476175","25.0700633333333","6500200","三重區"
"241007","398-BY","2017/10/21 17:29:36","新北市三重區三和路四段145巷201號","121.488506666667","25.0795","6500200","三重區"
"241024","KEA-2210","2017/10/21 17:29:40","新北市三重區國道路一段58巷15號","121.481378333333","25.0720266666667","6500200","三重區"
"241020","413-TH","2017/10/21 17:29:41","新北市三重區忠孝路二段95號","121.484313333333","25.0700033333333","6500200","三重區"
"241019","478-VK","2017/10/21 17:29:56","新北市三重區自強路二段26巷23號","121.488765","25.0690166666667","6500200","三重區"
"241030","480-VK","2017/10/21 17:29:53","新北市三重區中正南路281號","121.492948333333","25.0523216666667","6500200","三重區"
"241014","543-UM","2017/10/21 17:29:50","新北市三重區長壽街82號","121.50157","25.0685533333333","6500200","三重區"
"241023","545-UM","2017/10/21 17:29:46","新北市三重區忠孝路三段84巷32號","121.48155","25.0641333333333","6500200","三重區"
"241012","941-UM","2017/10/21 17:29:54","新北市三重區仁興街24巷1號","121.499283333333","25.0752716666667","6500200","三重區"
"241033","AAC-255","2017/10/21 17:29:50","新北市三重區興德路133號","121.470225","25.0527466666667","6500200","三重區"
"235061","378-QA","2017/10/21 15:05:03","新北市中和區員山路36巷13號","121.484175","24.9911833333333","6500300","中和區"
"235062","800-TS","2017/10/21 15:43:09","新北市中和區員山路36巷16-3號","121.484921666667","24.99186","6500300","中和區"
"247022","893-R6","2017/10/21 17:29:55","新北市蘆洲區三民路222號","121.468901666667","25.0891683333333","6501400","蘆洲區"
"247012","546-UM","2017/10/21 17:29:51","新北市蘆洲區民族路49號","121.478455","25.0853916666667","6501400","蘆洲區"
"247010","339-TH","2017/10/21 17:29:49","新北市蘆洲區集賢路398-1號","121.479995","25.0822116666667","6501400","蘆洲區"
"247002","337-TH","2017/10/21 17:29:55","新北市蘆洲區永樂街38巷69號","121.458558333333","25.0905883333333","6501400","蘆洲區"
"247003","336-TH","2017/10/21 17:29:53","新北市蘆洲區長安街233巷45-1號","121.457676666667","25.08198","6501400","蘆洲區"
"247020","335-TH","2017/10/21 17:29:47","新北市蘆洲區仁愛街145巷3-1號","121.469946666667","25.0947716666667","6501400","蘆洲區"
"247016","057-VK","2017/10/21 17:29:43","新北市蘆洲區光華路22巷35號","121.468468333333","25.0845966666667","6501400","蘆洲區"
"247006","056-VK","2017/10/21 17:29:41","新北市蘆洲區長安街22巷48號","121.465316666667","25.08053","6501400","蘆洲區"
"247008","053-VK","2017/10/21 17:29:42","新北市蘆洲區民生街101號","121.47357","25.078515","6501400","蘆洲區"
"247014","007-UY","2017/10/21 17:29:37","新北市蘆洲區三民路33號","121.475426666667","25.08302","6501400","蘆洲區"
"247024","002-UY","2017/10/21 17:29:51","新北市蘆洲區長興路349號","121.460846666667","25.0909566666667","6501400","蘆洲區"
"247018","001-UY","2017/10/21 17:29:56","新北市蘆洲區民權路136-2號","121.473123333333","25.0888816666667","6501400","蘆洲區"
"228003","097-TW","2017/10/21 17:29:38","新北市貢寮區仁理村研海街62-2號","121.92552","25.0457083333333","6502600","貢寮區"
"228001","212-TW","2017/10/21 17:29:48","新北市貢寮區仁理村仁愛路66巷3號","121.925915","25.053515","6502600","貢寮區"
"228002","585-TW","2017/10/21 17:29:40","新北市貢寮區福隆里興隆街21-1號","121.943428333333","25.016525","6502600","貢寮區"
"224010","AGQ-8101","2017/10/21 17:29:25","新北市瑞芳區明燈路二段2巷8號","121.81408","25.10864","6501200","瑞芳區"
"224006","676-BX","2017/10/21 17:29:56","新北市瑞芳區傑魚坑路181-2號","121.788895","25.1087033333333","6501200","瑞芳區"
"224009","285-BY","2017/10/21 17:29:56","新北市瑞芳區汽車路7-5號","121.845698333333","25.1099283333333","6501200","瑞芳區"
"224008","275-VK","2017/10/21 17:29:50","新北市瑞芳區九芎橋路198號","121.83421","25.1000016666667","6501200","瑞芳區"
"224005","271-BY","2017/10/21 17:29:55","新北市瑞芳區海濱路8-6號","121.831751666667","25.1261166666667","6501200","瑞芳區"
"227002","642-TC","2017/10/21 17:29:43","新北市雙溪區平林里外平林32號","121.855276666667","25.03551","6502500","雙溪區"
"227010","400-TW","2017/10/21 17:29:47","新北市雙溪區三貂里定福路31號","121.852198333333","25.075105","6502500","雙溪區"
"251009","008-UM","2017/10/21 17:29:42","新北市淡水區新生街90巷2-1號","121.439611666667","25.1745","6501000","淡水區"
"251004","009-UM","2017/10/21 17:29:41","新北市淡水區中正東路二段88巷15號","121.459018333333","25.1506283333333","6501000","淡水區"
"251005","010-UM","2017/10/21 17:29:44","新北市淡水區鄧公路31巷6號","121.45152","25.1707216666667","6501000","淡水區"
"251014","180-VK","2017/10/21 17:29:49","新北市淡水區公埔子20-6號","121.470045","25.22662","6501000","淡水區"
"251008","181-VK","2017/10/21 17:29:53","新北市淡水區大同路122巷18號","121.463423333333","25.1397816666667","6501000","淡水區"
"251010","413-VK","2017/10/21 17:29:52","新北市淡水區中正路二段208號","121.426313333333","25.189155","6501000","淡水區"
"251012","441-VK","2017/10/21 17:29:40","新北市淡水區北新路111號","121.448083333333","25.1784633333333","6501000","淡水區"
"251016","442-VK","2017/10/21 17:29:57","新北市淡水區社厝坑9-2號","121.467196666667","25.19248","6501000","淡水區"
"251006","561-UM","2017/10/21 17:29:42","新北市淡水區大仁街9號","121.442218333333","25.1749316666667","6501000","淡水區"
"251007","577-R6","2017/10/21 17:29:41","新北市淡水區民生路47-4號","121.462058333333","25.1380933333333","6501000","淡水區"
"251011","650-BX","2017/10/21 17:29:36","新北市淡水區坪頂路718號","121.482506666667","25.1584383333333","6501000","淡水區"
"251002","672-BX","2017/10/21 17:29:38","新北市淡水區中正路257號","121.433221666667","25.1744716666667","6501000","淡水區"
"251003","766-UM","2017/10/21 17:29:52","新北市淡水區中山路159-1號","121.440765","25.1728883333333","6501000","淡水區"
"207003","550-UM","2017/10/21 17:29:58","新北市萬里區龜吼里翡翠路17號","121.68338","25.18724","6502800","萬里區"
"207004","225-TW","2017/10/21 17:29:47","新北市萬里區萬里里景美路6-1號","121.684093333333","25.1726783333333","6502800","萬里區"
"252002","178-VK","2017/10/21 17:29:37","新北市三芝區忠孝街1-14號","121.505511666667","25.2539683333333","6502100","三芝區"
"252001","292-VK","2017/10/21 17:29:46","新北市三芝區長安街119號","121.498028333333","25.2596716666667","6502100","三芝區"
"237006","5529-G3","2017/10/21 17:29:42","新北市三峽區隆恩街202-1號","121.359988333333","24.9420133333333","6500900","三峽區"
"237011","572-TV","2017/10/21 13:42:46","新北市三峽區中山路459巷163-3號","121.348746666667","24.9326783333333","6500900","三峽區"
"237016","649-BX","2017/10/21 17:29:38","新北市三峽區中園街149-2號","121.36729","24.9229666666667","6500900","三峽區"
"242031","AAC-296","2017/10/21 17:29:45","新北市新莊區新泰路401巷29號","121.442536666667","25.0439733333333","6500500","新莊區"
"242029","986-R7","2017/10/21 17:29:47","新北市新莊區幸福路5號","121.45933","25.0494233333333","6500500","新莊區"
"242051","751-BX","2017/10/21 17:29:50","新北市新莊區新樹路266-1號","121.432615","25.0140466666667","6500500","新莊區"
"242025","705-TV","2017/10/21 17:29:38","新北市新莊區復興路二段31號","121.454308333333","25.0440733333333","6500500","新莊區"
"242023","613-BX","2017/10/21 17:29:54","新北市新莊區公園路148號","121.453065","25.0401083333333","6500500","新莊區"
"242027","612-BX","2017/10/21 17:29:51","新北市新莊區思源路32號","121.460366666667","25.040595","6500500","新莊區"
"242039","566-BX","2017/10/21 17:29:56","新北市新莊區民安東路9號","121.427795","25.0210216666667","6500500","新莊區"
"242044","497-BY","2017/10/21 17:29:52","新北市新莊區富國路64號","121.419665","25.0259583333333","6500500","新莊區"
"242046","442-UM","2017/10/21 17:29:45","新北市新莊區新樹路47號","121.44019","25.03206","6500500","新莊區"
"242048","441-UM","2017/10/21 17:29:52","新北市新莊區龍安路252號","121.421166666667","25.01962","6500500","新莊區"
"242053","440-UM","2017/10/21 17:29:54","新北市新莊區瓊林南路305巷1號","121.434681666667","25.0055633333333","6500500","新莊區"
"242004","413-TV","2017/10/21 17:29:40","新北市新莊區中華路二段24號","121.453518333333","25.0447066666667","6500500","新莊區"
"242042","400-BY","2017/10/21 17:29:43","新北市新莊區新樹路113巷7號","121.437986666667","25.0266933333333","6500500","新莊區"
"242061","362-BY","2017/10/21 17:29:48","新北市新莊區瓊林南路12-2號","121.436296666667","25.0189516666667","6500500","新莊區"
"242058","353-BY","2017/10/21 17:29:42","新北市新莊區中正路615號","121.432338333333","25.031935","6500500","新莊區"
"242007","132-UY","2017/10/21 17:29:37","新北市新莊區自強街19號","121.45473","25.0461433333333","6500500","新莊區"
"242036","133-UY","2017/10/21 17:29:29","新北市新莊區民安路429巷3號","121.433975","25.0233033333333","6500500","新莊區"
"242021","135-UY","2017/10/21 17:29:48","新北市新莊區中正路211號","121.452488333333","25.036075","6500500","新莊區"
"242009","173-VK","2017/10/21 17:29:37","新北市新莊區中原路238號","121.452786666667","25.05464","6500500","新莊區"
"242015","175-VK","2017/10/21 17:29:39","新北市新莊區新泰路182號","121.447273333333","25.0380083333333","6500500","新莊區"
"242002","176-VK","2017/10/21 17:29:47","新北市新莊區新莊路223號","121.4551","25.0352483333333","6500500","新莊區"
"242001","233-RS","2017/10/21 10:03:58","新北市新莊區環河路48-7號","121.436945","25.0098983333333","6500500","新莊區"
"242013","346-TH","2017/10/21 17:29:43","新北市新莊區中誠街16巷16號","121.45198","25.048675","6500500","新莊區"
"242019","348-TH","2017/10/21 17:29:50","新北市新莊區中港路75號","121.455391666667","25.038885","6500500","新莊區"
"242056","349-TH","2017/10/21 17:29:45","新北市新莊區新泰路16號","121.449668333333","25.03308","6500500","新莊區"
"242017","350-TH","2017/10/21 17:29:46","新北市新莊區德豐街6號","121.451628333333","25.044005","6500500","新莊區"
"242011","351-TH","2017/10/21 17:29:39","新北市新莊區中港路495號","121.452146666667","25.0501883333333","6500500","新莊區"
"238015","755-BX","2017/10/21 17:29:49","新北市樹林區大安路267號","121.419061666667","24.9936866666667","6500700","樹林區"
"238023","601-UM","2017/10/21 17:29:50","新北市樹林區中正路433號","121.415041666667","25.0085433333333","6500700","樹林區"
"238019","599-UM","2017/10/21 17:29:44","新北市樹林區太平路56巷3號","121.419023333333","24.9816733333333","6500700","樹林區"
"238018","571-TV","2017/10/21 17:29:39","新北市樹林區鎮前街275-2號","121.419223333333","24.9856016666667","6500700","樹林區"
"238024","5061-A6","2017/10/21 17:29:45","新北市樹林區鎮前街86巷8號","121.425196666667","24.9921066666667","6500700","樹林區"
"238021","KEA-2217","2017/10/21 17:29:57","新北市樹林區民權街46號","121.399325","24.9600716666667","6500700","樹林區"
"238022","KEA-2213","2017/10/21 17:29:40","新北市樹林區信義街3號","121.422218333333","24.9817416666667","6500700","樹林區"
"238025","303-VK","2017/10/21 17:29:56","新北市樹林區保安街一段223號","121.420381666667","24.9964","6500700","樹林區"
"238017","283-BY","2017/10/21 17:29:45","新北市樹林區中正路254號","121.417568333333","25.0073433333333","6500700","樹林區"
"238014","282-BY","2017/10/21 17:29:45","新北市樹林區長壽街84號","121.420041666667","24.9957783333333","6500700","樹林區"
"238020","268-VK","2017/10/21 17:29:53","新北市樹林區俊英街160巷23號","121.427701666667","25.0070933333333","6500700","樹林區"
"238026","172-UY","2017/10/21 17:29:46","新北市樹林區中山路三段27巷1弄2號","121.401648333333","24.974395","6500700","樹林區"
"238016","169-UY","2017/10/21 17:29:31","新北市樹林區長壽街4號","121.423706666667","24.9933383333333","6500700","樹林區"
"239007","AAC-297","2017/10/21 17:29:56","新北市鶯歌區陽明街2-2號","121.341475","24.956615","6500800","鶯歌區"
"239006","891-R6","2017/10/21 17:29:40","新北市鶯歌區莒光街1號","121.3323","24.966315","6500800","鶯歌區"
"239008","527-UM","2017/10/21 17:29:40","新北市鶯歌區大湖路363號","121.331036666667","24.9782416666667","6500800","鶯歌區"
"239005","526-UM","2017/10/21 17:29:46","新北市鶯歌區福隆二街50號","121.324676666667","24.9715483333333","6500800","鶯歌區"
"239001","417-VK","2017/10/21 17:29:42","新北市鶯歌區中正三路91號","121.338333333333","24.941025","6500800","鶯歌區"
"239003","360-BY","2017/10/21 17:29:49","新北市鶯歌區鶯桃路202巷9弄13號","121.337441666667","24.95883","6500800","鶯歌區"
"239002","359-BY","2017/10/21 17:29:47","新北市鶯歌區育英街15號","121.346765","24.955275","6500800","鶯歌區"
"239004","193-VK","2017/10/21 17:29:37","新北市鶯歌區三鶯路29巷33號","121.353991666667","24.939655","6500800","鶯歌區"
"221008","489-VK","2017/10/21 17:29:52","新北市汐止區康寧街901號","121.651376666667","25.07488","6501100","汐止區"
"221012","276-VK","2017/10/21 13:25:54","新北市汐止區汐萬路一段256巷3號","121.653495","25.07464","6501100","汐止區"
"221023","279-VK","2017/10/21 17:29:42","新北市汐止區康寧街901號","121.651668333333","25.07488","6501100","汐止區"
"242034","280-VK","2017/10/21 17:29:54","新北市新莊區新莊路370號","121.44933","25.0334466666667","6500500","新莊區"
