"lineid","car","time","location","longitude","latitude","cityid","cityname"
"234046","148-BY","2017/10/21 19:39:52","新北市永和區秀朗路二段80號","121.52303","25.001615","6500400","永和區"
"234013","149-BY","2017/10/21 19:39:45","新北市永和區中山路一段98-2號","121.51156","25.0107616666667","6500400","永和區"
"234007","207-UY","2017/10/21 19:39:43","新北市永和區中和路473號","121.510283333333","25.0017233333333","6500400","永和區"
"234081","298-R6","2017/10/21 19:39:55","新北市永和區林森路20巷7號","121.525848333333","25.0057216666667","6500400","永和區"
"234038","336-UY","2017/10/21 19:39:39","新北市永和區民樂街20號","121.527461666667","25.0019933333333","6500400","永和區"
"234064","337-UY","2017/10/21 19:39:55","新北市永和區秀朗路一段192巷6弄14號","121.519081666667","25.0022366666667","6500400","永和區"
"234086","338-UY","2017/10/21 19:39:49","新北市永和區永亨路131號","121.52477","25.004","6500400","永和區"
"234070","552-UM","2017/10/21 19:39:53","新北市永和區永和路二段234號","121.515801666667","25.0146016666667","6500400","永和區"
"234054","553-UM","2017/10/21 19:39:43","新北市永和區竹林路39巷25號","121.519063333333","25.014895","6500400","永和區"
"234017","745-BX","2017/10/21 19:39:54","新北市永和區文化路90巷32弄7號","121.513431666667","25.0168816666667","6500400","永和區"
"234030","746-BX","2017/10/21 19:39:53","新北市永和區民生路37巷5號","121.523631666667","24.9980933333333","6500400","永和區"
"234061","AAD-866","2017/10/21 19:39:53","新北市永和區中正路401號","121.517145","25.0044216666667","6500400","永和區"
"234042","862-TW","2017/10/21 19:39:46","新北市永和區中和路575號","121.51194","25.0037166666667","6500400","永和區"
"234050","863-TW","2017/10/21 19:39:49","新北市永和區保安路41號","121.509676666667","25.01605","6500400","永和區"
"234026","9371-KE","2017/10/21 19:39:43","新北市永和區中和路501巷5號","121.510486666667","25.0025966666667","6500400","永和區"
"234011","9373-KE","2017/10/21 19:39:57","新北市永和區保生路55-1號","121.504526666667","25.0108916666667","6500400","永和區"
"249004","303-UY","2017/10/21 19:39:49","新北市八里區博物館路9號","121.415363333333","25.164065","6502300","八里區"
"249002","305-UY","2017/10/21 19:39:49","新北市八里區頂寮二街40號","121.450398333333","25.1253333333333","6502300","八里區"
"249003","759-BX","2017/10/21 19:39:39","新北市八里區華峰三街27號","121.399441666667","25.1459083333333","6502300","八里區"
"248016","026-BX","2017/10/21 19:39:39","新北市五股區成泰路三段544-18號","121.45262","25.1031416666667","6501500","五股區"
"248008","095-VK","2017/10/21 19:39:55","新北市五股區四維路118巷13號","121.469305","25.074245","6501500","五股區"
"248012","247-BX","2017/10/21 19:39:44","新北市五股區成泰路二段97號","121.438053333333","25.0842566666667","6501500","五股區"
"248014","261-SL","2017/10/21 19:39:54","新北市五股區五福路23巷8號","121.433526666667","25.0888766666667","6501500","五股區"
"248010","272-BY","2017/10/21 19:39:48","新北市五股區自強路99號","121.432266666667","25.0712133333333","6501500","五股區"
"248004","677-BX","2017/10/21 19:39:45","新北市五股區工商路132號","121.435658333333","25.0862","6501500","五股區"
"248002","678-BX","2017/10/21 19:36:39","新北市五股區成泰路三段577巷82號","121.449728333333","25.1038066666667","6501500","五股區"
"234077","969-R7","2017/10/21 19:39:41","新北市永和區中正路177號","121.516723333333","24.9987533333333","6500400","永和區"
"234074","AAC-211","2017/10/21 19:39:51","新北市永和區竹林路225巷9號","121.521408333333","25.0085716666667","6500400","永和區"
"234067","AAC-212","2017/10/21 19:39:43","新北市永和區永貞路408號","121.50899","25.0077533333333","6500400","永和區"
"234003","AAC-295","2017/10/21 19:39:51","新北市永和區福和路346號","121.514965","25.00725","6500400","永和區"
"244019","403-UM","2017/10/21 19:39:45","新北市林口區文化二路一段565號","121.375033333333","25.07731","6501700","林口區"
"244010","656-BX","2017/10/21 11:34:22","新北市林口區粉寮路二段160巷40號","121.405506666667","25.0911266666667","6501700","林口區"
"243013","AAD-798","2017/10/21 19:39:37","新北市泰山區應化街7號","121.423878333333","25.0437616666667","6501600","泰山區"
"243009","297-R6","2017/10/21 19:39:48","新北市泰山區美寧街58號","121.430611666667","25.0647083333333","6501600","泰山區"
"243015","380-SR","2017/10/21 19:39:50","新北市泰山區民權街51號","121.428991666667","25.0505333333333","6501600","泰山區"
"243014","421-VK","2017/10/21 19:39:51","新北市泰山區仁愛路159號","121.435088333333","25.05635","6501600","泰山區"
"243010","KEA-2215","2017/10/21 19:39:41","新北市泰山區民生路33號","121.430675","25.05223","6501600","泰山區"
"243011","KEA-2216","2017/10/21 19:39:52","新北市泰山區明志路三段204巷12號","121.422058333333","25.038235","6501600","泰山區"
"243012","646-TV","2017/10/21 19:39:49","新北市泰山區仁愛路100巷56號","121.43376","25.0544483333333","6501600","泰山區"
"243016","680-BX","2017/10/21 19:39:42","新北市泰山區明志路三段452號","121.420958333333","25.0325183333333","6501600","泰山區"
"222003","436-BY","2017/10/21 19:31:50","新北市深坑區深南路51-1號","121.621181666667","25.0100616666667","6501800","深坑區"
"222002","659-BX","2017/10/21 19:39:38","新北市深坑區北深路一段177號","121.632523333333","25.0109166666667","6501800","深坑區"
"231041","002-UM","2017/10/21 19:39:39","新北市新店區中正路485號","121.533923333333","24.9819133333333","6500600","新店區"
"231059","046-UY","2017/10/21 19:39:37","新北市新店區安和路二段191號","121.51809","24.9749433333333","6500600","新店區"
"231061","047-UY","2017/10/21 19:39:42","新北市新店區安民街134號","121.516523333333","24.9693633333333","6500600","新店區"
"231060","106-UY","2017/10/21 19:39:44","新北市新店區安康路二段208號","121.510223333333","24.959555","6500600","新店區"
"231048","108-UY","2017/10/21 19:39:40","新北市新店區五峰路61巷1號","121.548485","24.9696733333333","6500600","新店區"
"231052","187-VK","2017/10/21 19:39:50","新北市新店區新烏路二段489-1號","121.552186666667","24.908685","6500600","新店區"
"231007","189-VK","2017/10/21 09:14:40","新北市新店區新潭路三段215巷25號","121.50818","24.90409","6500600","新店區"
"231050","KEA-2219","2017/10/21 19:39:51","新北市新店區郵政路64號","121.55534","24.9516216666667","6500600","新店區"
"231057","256-BX","2017/10/21 19:39:38","新北市新店區橘園一路11號","121.547956666667","24.934025","6500600","新店區"
"231046","278-BY","2017/10/21 19:39:51","新北市新店區中正路329巷5弄1號","121.53534","24.9743966666667","6500600","新店區"
"231054","AAD-862","2017/10/21 19:39:33","新北市新店區北宜路一段41號","121.53818","24.9571933333333","6500600","新店區"
"231058","3712-VJ","2017/10/21 19:39:56","新北市新店區中正路102巷8弄3號","121.54368","24.9713383333333","6500600","新店區"
"231056","4716-K9","2017/10/21 19:39:48","新北市新店區柴埕路59號","121.513516666667","24.96491","6500600","新店區"
"231067","4772-VM","2017/10/21 19:39:46","新北市新店區精忠路10-1號","121.532703333333","24.95906","6500600","新店區"
"231065","512-UM","2017/10/21 19:39:45","新北市新店區安祥路109巷87號","121.47777","24.9601433333333","6500600","新店區"
"231064","515-UM","2017/10/21 19:39:38","新北市新店區安和路一段51號","121.517533333333","24.9659266666667","6500600","新店區"
"231045","617-UM","2017/10/21 19:39:43","新北市新店區北宜路二段417號","121.560036666667","24.9544766666667","6500600","新店區"
"231040","619-UM","2017/10/21 19:39:52","新北市新店區北新路一段96巷23號","121.542928333333","24.968875","6500600","新店區"
"231042","641-BX","2017/10/21 19:38:14","新北市新店區中興路一段210號","121.543748333333","24.9655716666667","6500600","新店區"
"231063","645-TV","2017/10/21 19:39:54","新北市新店區達觀路14巷2號","121.50342","24.941205","6500600","新店區"
"231068","718-UY","2017/10/21 19:39:47","新北市新店區安華路28-1號","121.519503333333","24.9608566666667","6500600","新店區"
"231049","719-UM","2017/10/21 19:39:38","新北市新店區大豐路72號","121.53902","24.9794066666667","6500600","新店區"
"231051","719-UY","2017/10/21 19:39:50","新北市新店區中央四街95號","121.52558","24.97627","6500600","新店區"
"231062","720-UM","2017/10/21 19:39:37","新北市新店區碧潭路21號","121.534373333333","24.95623","6500600","新店區"
"231044","897-TW","2017/10/21 19:39:56","新北市新店區北新路三段220號","121.54105","24.984395","6500600","新店區"
"231043","899-TW","2017/10/21 19:39:55","新北市新店區中正路133號","121.541835","24.9713883333333","6500600","新店區"
"231066","AKT-0513","2017/10/21 19:39:36","新北市新店區安康路二段341巷5號","121.496945","24.95483","6500600","新店區"
"241011","013-R5","2017/10/21 19:39:52","新北市三重區秀江街224號","121.497023333333","25.071505","6500200","三重區"
"241028","022-UY","2017/10/21 19:39:45","新北市三重區中正南路196號","121.493873333333","25.0559933333333","6500200","三重區"
"241008","059-VK","2017/10/21 19:39:51","新北市三重區永福街74號","121.478905","25.0767866666667","6500200","三重區"
"241009","060-VK","2017/10/21 19:39:53","新北市三重區三和路四段406巷10號","121.480616666667","25.0795316666667","6500200","三重區"
"241031","061-VK","2017/10/21 19:39:43","新北市三重區重新路四段244巷6號","121.486198333333","25.0535716666667","6500200","三重區"
"241015","062-VK","2017/10/21 19:39:47","新北市三重區福德北路46號","121.501975","25.0653916666667","6500200","三重區"
"241017","063-VK","2017/10/21 19:39:58","新北市三重區大同北路190巷8號","121.490631666667","25.0664333333333","6500200","三重區"
"241026","066-VK","2017/10/21 19:39:55","新北市三重區文化南路65巷25號","121.499266666667","25.06079","6500200","三重區"
"241005","262-UM","2017/10/21 19:39:55","新北市三重區仁華街118巷1-10號","121.487155","25.0834066666667","6500200","三重區"
"241016","265-UM","2017/10/21 19:39:44","新北市三重區正義北路28巷14號","121.497008333333","25.0631616666667","6500200","三重區"
"241022","267-UM","2017/10/21 19:39:35","新北市三重區中正北路60-2號","121.486823333333","25.0645083333333","6500200","三重區"
"241018","268-UM","2017/10/21 19:39:46","新北市三重區雙園街57巷34弄75號","121.492795","25.0680183333333","6500200","三重區"
"241032","269-UM","2017/10/21 19:39:36","新北市三重區重陽路一段60巷73號","121.484335","25.0582116666667","6500200","三重區"
"241013","270-UM","2017/10/21 19:39:47","新北市三重區仁愛街129巷4號","121.495875","25.0750816666667","6500200","三重區"
"241025","271-UM","2017/10/21 19:39:42","新北市三重區頂崁街188號","121.4775","25.066365","6500200","三重區"
"241007","398-BY","2017/10/21 19:39:55","新北市三重區仁美街61號","121.48681","25.0783633333333","6500200","三重區"
"241019","478-VK","2017/10/21 19:39:36","新北市三重區六張街194巷1弄13號","121.488076666667","25.0682683333333","6500200","三重區"
"241030","480-VK","2017/10/21 19:39:53","新北市三重區新興路29號","121.492111666667","25.053395","6500200","三重區"
"241014","543-UM","2017/10/21 19:39:49","新北市三重區河邊北街80號","121.50427","25.068745","6500200","三重區"
"241023","545-UM","2017/10/21 19:39:47","新北市三重區忠孝路三段99巷4號","121.480023333333","25.0640216666667","6500200","三重區"
"241001","547-UM","2017/10/21 19:39:51","新北市三重區仁愛街315巷12號","121.493073333333","25.0796033333333","6500200","三重區"
"241035","743-BX","2017/10/21 19:39:48","新北市三重區正義北路63號","121.49748","25.0645533333333","6500200","三重區"
"241012","941-UM","2017/10/21 19:39:54","新北市三重區河邊北街256巷35號","121.500488333333","25.075965","6500200","三重區"
"241029","942-UM","2017/10/21 19:39:38","新北市三重區光明路70號","121.492145","25.0571583333333","6500200","三重區"
"235066","003-UY","2017/10/21 19:39:38","新北市中和區南工路2巷2號","121.505406666667","25.000155","6500300","中和區"
"235064","005-UY","2017/10/21 19:39:43","新北市中和區南山路131號","121.502233333333","24.9967583333333","6500300","中和區"
"235063","006-UY","2017/10/21 19:39:43","新北市中和區安邦街16號","121.495963333333","24.998065","6500300","中和區"
"235056","096-UM","2017/10/21 19:39:48","新北市中和區員山路581巷2-10號","121.477526666667","25.0090666666667","6500300","中和區"
"235039","097-UM","2017/10/21 19:39:52","新北市中和區秀峰街119巷8弄1號","121.519316666667","24.9898316666667","6500300","中和區"
"235065","098-UM","2017/10/21 19:39:39","新北市中和區永和路52號","121.499203333333","25.0040383333333","6500300","中和區"
"235040","150-BY","2017/10/21 19:39:47","新北市中和區保健路46巷20弄15號","121.508363333333","24.9963416666667","6500300","中和區"
"235058","151-BY","2017/10/21 19:39:47","新北市中和區員山路124巷1號","121.48149","24.9959583333333","6500300","中和區"
"235055","183-VK","2017/10/21 19:39:41","新北市中和區中山路三段183號","121.472705","25.0061116666667","6500300","中和區"
"235038","185-VK","2017/10/21 19:39:50","新北市中和區立人街17號","121.521418333333","24.9941166666667","6500300","中和區"
"235049","186-VK","2017/10/21 19:39:54","新北市中和區景新街230號","121.508393333333","24.9942566666667","6500300","中和區"
"235067","255-BX","2017/10/21 19:39:38","新北市中和區新生街198號","121.483795","24.999315","6500300","中和區"
"235044","293-VK","2017/10/21 19:39:48","新北市中和區興南路一段107號","121.509343333333","24.9881566666667","6500300","中和區"
"235072","301-VK","2017/10/21 19:39:52","新北市中和區錦和路91-1號","121.49008","24.995705","6500300","中和區"
"235043","352-BY","2017/10/21 19:39:55","新北市中和區興南路一段29號","121.511105","24.9906016666667","6500300","中和區"
"235051","376-QA","2017/10/21 19:39:53","新北市中和區南山路128號","121.503651666667","24.99289","6500300","中和區"
"235068","377-QA","2017/10/21 19:39:50","新北市中和區莊敬路1-6號","121.499436666667","25.0042983333333","6500300","中和區"
"235061","378-QA","2017/10/21 19:39:55","新北市中和區員山路218號","121.481476666667","25.0009666666667","6500300","中和區"
"235071","269-TV","2017/10/21 19:39:45","新北市中和區中正路820號","121.484941666667","25.0034483333333","6500300","中和區"
"235050","4979-A6","2017/10/21 19:39:38","新北市中和區錦和路350-1號","121.490526666667","24.993595","6500300","中和區"
"235042","551-UM","2017/10/21 19:39:52","新北市中和區中和路350巷8弄16號","121.510193333333","25.0000516666667","6500300","中和區"
"235070","558-UM","2017/10/21 19:39:38","新北市中和區景平路624號","121.500408333333","24.9975266666667","6500300","中和區"
"235045","565-BX","2017/10/21 19:39:49","新北市中和區景新街383巷60號","121.514645","24.9905433333333","6500300","中和區"
"235054","640-BX","2017/10/21 19:39:38","新北市中和區國光街102巷11弄18號","121.470651666667","25.00122","6500300","中和區"
"235060","647-TV","2017/10/21 19:39:38","新北市中和區員山路314巷7弄4號","121.482166666667","25.0031366666667","6500300","中和區"
"235047","732-UM","2017/10/21 19:39:49","新北市中和區景平路381號","121.503836666667","24.9933516666667","6500300","中和區"
"235046","733-UM","2017/10/21 19:39:53","新北市中和區四維街8號","121.513356666667","24.9873083333333","6500300","中和區"
"235062","800-TS","2017/10/21 19:39:46","新北市樹林區佳園路三段87號","121.387521666667","24.9524516666667","6500300","中和區"
"235057","801-TS","2017/10/21 19:39:45","新北市中和區員山路475號","121.480266666667","25.0049933333333","6500300","中和區"
"235041","802-TS","2017/10/21 19:39:38","新北市中和區中和路350巷10號","121.51073","25.000485","6500300","中和區"
"235052","805-TS","2017/10/21 19:39:39","新北市中和區華新街206巷10號","121.506353333333","24.9824","6500300","中和區"
"235048","896-TW","2017/10/21 19:39:49","新北市中和區忠孝街1巷2-1號","121.509185","24.9830533333333","6500300","中和區"
"235053","900-TW","2017/10/21 19:39:46","新北市中和區華順街1號","121.46806","24.9987883333333","6500300","中和區"
"235037","AAC-213","2017/10/21 19:39:48","新北市中和區秀朗路三段10巷31弄6號","121.524645","24.995905","6500300","中和區"
"235059","AAC-215","2017/10/21 19:39:53","新北市中和區錦和路169號","121.490741666667","24.9919683333333","6500300","中和區"
"220068","013-TV","2017/10/21 19:39:47","新北市板橋區萬安街3號","121.484738333333","25.0224616666667","6500100","板橋區"
"220065","072-UY","2017/10/21 19:39:40","新北市板橋區民族路222巷13號","121.468698333333","25.0068166666667","6500100","板橋區"
"220086","073-UY","2017/10/21 19:39:53","新北市板橋區中正路97號","121.456438333333","25.0145916666667","6500100","板橋區"
"220106","075-UY","2017/10/21 19:39:43","新北市板橋區江寧路三段73號","121.472171666667","25.0322983333333","6500100","板橋區"
"220069","AAD-861","2017/10/21 19:39:47","新北市板橋區稚暉街46巷1號","121.456415","25.004275","6500100","板橋區"
"247004","336-TH","2017/10/21 19:39:51","新北市蘆洲區長安街108巷37號","121.462225","25.082635","6501400","蘆洲區"
"226004","312-R5","2017/10/21 19:39:40","新北市平溪區十分里十分街240號","121.778018333333","25.044205","6502400","平溪區"
"228003","097-TW","2017/10/21 19:39:37","新北市貢寮區真理里美艷山街19-1號","121.923476666667","25.0684066666667","6502600","貢寮區"
"228001","212-TW","2017/10/21 19:39:48","新北市貢寮區真理里延平街49號","121.924565","25.0556066666667","6502600","貢寮區"
"224010","AGQ-8101","2017/10/21 19:38:45","新北市瑞芳區基山街30-2號","121.845133333333","25.1086383333333","6501200","瑞芳區"
"224002","639-TC","2017/10/21 19:39:53","新北市瑞芳區民享新村38號","121.817466666667","25.1058083333333","6501200","瑞芳區"
"227002","642-TC","2017/10/21 19:39:44","新北市雙溪區雙溪里太平路33號","121.864583333333","25.0353883333333","6502500","雙溪區"
"227010","400-TW","2017/10/21 19:39:49","新北市雙溪區新基里新基北街18號","121.86718","25.0386533333333","6502500","雙溪區"
"222001","KEA-2212","2017/10/21 19:39:53","新北市深坑區北深路二段204號","121.612885","25.0015816666667","6501800","深坑區"
"208002","742-BX","2017/10/21 19:39:41","新北市金山區三民街3號","121.634763333333","25.222415","6502700","金山區"
"208003","665-BX","2017/10/21 19:39:38","新北市金山區仁愛路31號","121.6367","25.21932","6502700","金山區"
"208001","761-BX","2017/10/21 19:39:46","新北市金山區重和里六股林口31號","121.60303","25.219045","6502700","金山區"
"251009","008-UM","2017/10/21 19:39:42","新北市淡水區中山北路一段217號","121.44441","25.1792283333333","6501000","淡水區"
"251004","009-UM","2017/10/21 19:39:41","新北市淡水區中正東路二段153號","121.459828333333","25.1465233333333","6501000","淡水區"
"251005","010-UM","2017/10/21 19:39:38","新北市淡水區原德路123號","121.443155","25.173335","6501000","淡水區"
"251014","180-VK","2017/10/21 19:39:49","新北市淡水區桂竹圍4-1號","121.474621666667","25.23214","6501000","淡水區"
"251008","181-VK","2017/10/21 19:39:53","新北市淡水區中正路一段22巷6號","121.427555","25.175895","6501000","淡水區"
"251010","413-VK","2017/10/21 19:39:52","新北市淡水區崁頂三路113號","121.432166666667","25.2008","6501000","淡水區"
"251012","441-VK","2017/10/21 19:39:40","新北市淡水區中山北路三段164號","121.44569","25.196515","6501000","淡水區"
"251016","442-VK","2017/10/21 19:39:37","新北市淡水區下圭柔山119-51號","121.450805","25.2084183333333","6501000","淡水區"
"251001","559-UM","2017/10/21 19:39:44","新北市淡水區民權路51號","121.459728333333","25.139075","6501000","淡水區"
"251006","561-UM","2017/10/21 19:39:42","新北市淡水區中山北路一段207巷20號","121.443575","25.179165","6501000","淡水區"
"251007","577-R6","2017/10/21 19:39:42","新北市淡水區中正東路一段111巷1號","121.453736666667","25.16001","6501000","淡水區"
"251011","650-BX","2017/10/21 19:39:36","新北市淡水區八勢路20號","121.460598333333","25.1538833333333","6501000","淡水區"
"251002","672-BX","2017/10/21 19:29:28","新北市淡水區中正路二段31號","121.419246666667","25.1820266666667","6501000","淡水區"
"207003","550-UM","2017/10/21 19:39:38","新北市萬里區大鵬里下社41-1號","121.64906","25.2163916666667","6502800","萬里區"
"207004","225-TW","2017/10/21 19:39:47","新北市萬里區萬里里瑪鋉路5-1號","121.686848333333","25.175285","6502800","萬里區"
"252002","178-VK","2017/10/21 19:39:37","新北市三芝區中正路一段18巷34-1號","121.503913333333","25.2591933333333","6502100","三芝區"
"252001","292-VK","2017/10/21 19:39:46","新北市三芝區公正街9號","121.499725","25.257465","6502100","三芝區"
"237004","078-UY","2017/10/21 19:39:45","新北市三峽區插角23號","121.403468333333","24.8728733333333","6500900","三峽區"
"237007","153-BY","2017/10/21 19:39:44","新北市三峽區二鬮路9號","121.359181666667","24.906965","6500900","三峽區"
"237009","210-TH","2017/10/21 19:39:52","新北市三峽區中園街78號","121.367875","24.925045","6500900","三峽區"
"237013","252-BX","2017/10/21 19:39:41","新北市三峽區介壽路一段550號","121.387135","24.9334533333333","6500900","三峽區"
"237012","275-BY","2017/10/21 19:39:52","新北市三峽區民生街3號","121.374666666667","24.93544","6500900","三峽區"
"237008","302-VK","2017/10/21 19:39:46","新北市三峽區永安街142號","121.374116666667","24.928725","6500900","三峽區"
"237014","433-BY","2017/10/21 19:39:42","新北市三峽區嘉添227-5號","121.37046","24.909585","6500900","三峽區"
"237006","5529-G3","2017/10/21 19:39:42","新北市三峽區中正路一段330-10號","121.369926666667","24.9246216666667","6500900","三峽區"
"237016","649-BX","2017/10/21 19:39:38","新北市三峽區橫溪路99巷70號","121.400948333333","24.9375666666667","6500900","三峽區"
"237005","AKY-6261","2017/10/21 19:39:51","新北市三峽區中山路117號","121.365675","24.935675","6500900","三峽區"
"236073","105-UM","2017/10/21 19:39:40","新北市土城區明德路一段385-1號","121.452411666667","24.98015","6501300","土城區"
"236043","107-UM","2017/10/21 19:39:48","新北市土城區學士路12巷2號","121.453693333333","24.9830133333333","6501300","土城區"
"236079","166-UM","2017/10/21 19:39:46","新北市土城區中州路27巷76號","121.412608333333","24.9564483333333","6501300","土城區"
"236031","253-BX","2017/10/21 19:39:46","新北市土城區福祥街22號","121.44092","24.9800483333333","6501300","土城區"
"236027","269-VK","2017/10/21 19:39:50","新北市土城區中央路二段61巷26號","121.443316666667","24.9788466666667","6501300","土城區"
"236015","270-VK","2017/10/21 19:39:56","新北市土城區廣明街41巷38號","121.453955","24.9925516666667","6501300","土城區"
"236038","271-VK","2017/10/21 19:39:43","新北市土城區清水路98巷3弄34號","121.458546666667","24.9808183333333","6501300","土城區"
"236023","401-BY","2017/10/21 19:39:41","新北市土城區金城路三段200-6號","121.468993333333","24.9874516666667","6501300","土城區"
"236059","912-UM","2017/10/21 19:39:38","新北市土城區中央路二段63號","121.442675","24.97895","6501300","土城區"
"236049","913-UM","2017/10/21 19:30:56","新北市土城區清水路223號","121.46092","24.9824533333333","6501300","土城區"
"236063","915-UM","2017/10/21 19:39:39","新北市土城區延平街38號","121.468048333333","24.9920266666667","6501300","土城區"
"236055","AAC-216","2017/10/21 19:39:49","新北市土城區學成路1號","121.453545","24.9862266666667","6501300","土城區"
"242031","AAC-296","2017/10/21 19:39:55","新北市新莊區新泰路213巷56號","121.444928333333","25.0384633333333","6500500","新莊區"
"242004","413-TV","2017/10/21 19:39:40","新北市新莊區化成路11巷15號","121.464241666667","25.0433266666667","6500500","新莊區"
"242009","173-VK","2017/10/21 19:33:57","新北市新莊區三和路12-21號","121.442036666667","25.0386683333333","6500500","新莊區"
"242001","233-RS","2017/10/21 17:41:36","新北市新莊區環河路48-7號","121.436965","25.0098666666667","6500500","新莊區"
"242013","346-TH","2017/10/21 19:39:42","新北市新莊區中誠街126號","121.449161666667","25.0476583333333","6500500","新莊區"
"242019","348-TH","2017/10/21 19:39:50","新北市新莊區新泰路357巷1弄57號","121.442548333333","25.0396216666667","6500500","新莊區"
"242017","350-TH","2017/10/21 19:39:37","新北市新莊區新泰路255巷83號","121.44195","25.0389316666667","6500500","新莊區"
"238015","755-BX","2017/10/21 19:39:54","新北市樹林區日新街87號","121.421733333333","24.99031","6500700","樹林區"
"238023","601-UM","2017/10/21 19:39:53","新北市樹林區福興街25號","121.404431666667","25.0160933333333","6500700","樹林區"
"238018","571-TV","2017/10/21 19:39:39","新北市樹林區八德街247巷24-1號","121.42068","24.9737866666667","6500700","樹林區"
"238024","5061-A6","2017/10/21 19:39:45","新北市樹林區佳園路一段70號","121.393033333333","24.9701033333333","6500700","樹林區"
"238021","KEA-2217","2017/10/21 19:39:38","新北市樹林區學士路120號","121.383788333333","24.9477666666667","6500700","樹林區"
"238022","KEA-2213","2017/10/21 19:39:40","新北市樹林區國凱街32-1號","121.419773333333","24.9784283333333","6500700","樹林區"
"238025","303-VK","2017/10/21 19:39:55","新北市樹林區中山路一段80號","121.423471666667","24.99152","6500700","樹林區"
"238017","283-BY","2017/10/21 19:39:44","新北市樹林區保安街二段111號","121.415271666667","25.0012366666667","6500700","樹林區"
"238014","282-BY","2017/10/21 19:39:53","新北市樹林區保安二街64巷1弄1號","121.424031666667","24.9953883333333","6500700","樹林區"
"238020","268-VK","2017/10/21 19:39:53","新北市樹林區俊英街111巷8-3號","121.424225","25.009655","6500700","樹林區"
"238016","169-UY","2017/10/21 19:39:51","新北市樹林區東和街35號","121.401806666667","24.9826283333333","6500700","樹林區"
"239007","AAC-297","2017/10/21 19:39:36","新北市鶯歌區大湖路241號","121.346048333333","24.9728883333333","6500800","鶯歌區"
"239006","891-R6","2017/10/21 19:39:40","新北市鶯歌區中正一路395-3號","121.358988333333","24.95691","6500800","鶯歌區"
"239001","417-VK","2017/10/21 19:39:42","新北市鶯歌區中正一路309號","121.356776666667","24.9570466666667","6500800","鶯歌區"
"221008","489-VK","2017/10/21 19:39:35","新北市汐止區康寧街61巷31號","121.619495","25.0674866666667","6501100","汐止區"
"221036","130-UY","2017/10/21 19:39:53","新北市汐止區康寧街901號","121.651585","25.07499","6501100","汐止區"
"221015","131-UY","2017/10/21 19:39:42","新北市汐止區汐萬路一段266號","121.651186666667","25.0737483333333","6501100","汐止區"
"221010","269-BY","2017/10/21 19:39:47","新北市汐止區汐萬路二段23巷1號","121.649501666667","25.0809066666667","6501100","汐止區"
"221012","276-VK","2017/10/21 13:25:54","新北市汐止區汐萬路一段256巷3號","121.653495","25.07464","6501100","汐止區"
"221012","278-VK","2017/10/21 19:39:41","新北市汐止區汐平路一段5號","121.680761666667","25.0711783333333","6501100","汐止區"
"221023","279-VK","2017/10/21 19:39:42","新北市汐止區中興路248-1號","121.629498333333","25.0686016666667","6501100","汐止區"
"221032","280-BY","2017/10/21 19:39:45","新北市汐止區汐萬路一段266號","121.650941666667","25.0739066666667","6501100","汐止區"
"221027","281-BY","2017/10/21 19:39:39","新北市汐止區忠孝東路9號","121.65823","25.065905","6501100","汐止區"
"221029","298-VK","2017/10/21 19:39:42","新北市汐止區康寧街901號","121.651503333333","25.074875","6501100","汐止區"
"221021","299-VK","2017/10/21 19:39:38","新北市汐止區南興路6巷1號","121.651681666667","25.06334","6501100","汐止區"
"221031","353-TW","2017/10/21 19:39:56","新北市汐止區福德二路22號","121.634855","25.06805","6501100","汐止區"
"221025","623-UM","2017/10/21 19:39:46","新北市汐止區秀峰路81巷15弄47號","121.661748333333","25.0649533333333","6501100","汐止區"
"221038","646-BX","2017/10/21 19:39:50","新北市汐止區忠孝東路200號","121.661218333333","25.0658633333333","6501100","汐止區"
"221033","647-BX","2017/10/21 19:39:53","新北市汐止區南勢街1巷3號","121.626895","25.0374683333333","6501100","汐止區"
"221002","707-TV","2017/10/21 19:39:40","新北市汐止區大同路一段219巷25-1號","121.6331","25.0591633333333","6501100","汐止區"
"221018","753-BX","2017/10/21 19:39:35","新北市汐止區康寧街901號","121.651348333333","25.0749516666667","6501100","汐止區"
"220079","145-BY","2017/10/21 19:39:46","新北市板橋區復興街58號","121.458885","25.0174333333333","6500100","板橋區"
"220080","200-UY","2017/10/21 19:39:55","新北市板橋區大觀路二段37巷106號","121.449055","25.0015083333333","6500100","板橋區"
"220082","610-BX","2017/10/21 19:39:50","新北市板橋區大觀路三段240號","121.429171666667","24.992565","6500100","板橋區"
"220101","245-BX","2017/10/21 19:39:44","新北市板橋區縣民大道三段33巷6弄2號","121.473985","25.02114","6500100","板橋區"
"220056","276-BY","2017/10/21 19:39:50","新北市板橋區四川路二段47巷3弄2號","121.454246666667","24.9945116666667","6500100","板橋區"
"220094","280-UM","2017/10/21 19:39:42","新北市板橋區銘傳街78號","121.469131666667","25.0313916666667","6500100","板橋區"
"220071","283-VK","2017/10/21 19:39:53","新北市板橋區四川路一段325巷16號","121.459075","25.00032","6500100","板橋區"
"220053","285-VK","2017/10/21 19:39:42","新北市板橋區民享街91號","121.476998333333","25.0159183333333","6500100","板橋區"
"220083","286-VK","2017/10/21 19:39:39","新北市板橋區大觀路一段38巷156弄2號","121.442341666667","25.0045016666667","6500100","板橋區"
"220081","287-VK","2017/10/21 18:26:36","新北市板橋區華東街1-10號","121.44829","24.9950283333333","6500100","板橋區"
"220090","288-VK","2017/10/21 19:39:49","新北市板橋區長江路一段48巷17號","121.459388333333","25.0281333333333","6500100","板橋區"
"220061","293-UM","2017/10/21 19:39:54","新北市板橋區中山路二段113-1號","121.474691666667","25.0161966666667","6500100","板橋區"
"220084","296-UM","2017/10/21 19:39:43","新北市板橋區滿平二街10巷2弄13號","121.42532","24.9874183333333","6500100","板橋區"
"220075","297-UM","2017/10/21 19:39:44","新北市板橋區大勇街2號","121.45575","25.0177833333333","6500100","板橋區"
"220098","299-UM","2017/10/21 19:39:48","新北市板橋區四維路269巷40號","121.461543333333","25.0276633333333","6500100","板橋區"
"220062","303-R5","2017/10/21 19:39:55","新北市板橋區中山路二段416巷38弄27號","121.481883333333","25.0194666666667","6500100","板橋區"
"220092","307-R5","2017/10/21 19:39:41","新北市板橋區文化路一段387巷16號","121.466436666667","25.02226","6500100","板橋區"
"220064","486-VK","2017/10/21 19:39:54","新北市板橋區民權路7號","121.462968333333","25.010105","6500100","板橋區"
"220089","487-VK","2017/10/21 19:39:49","新北市板橋區陽明街249號","121.462733333333","25.0250683333333","6500100","板橋區"
"220088","491-VK","2017/10/21 19:39:51","新北市板橋區文化路二段568號","121.476485","25.03452","6500100","板橋區"
"220035","560-BX","2017/10/21 19:39:37","新北市板橋區金華街85巷42號","121.459175","25.0213583333333","6500100","板橋區"
"220103","561-BX","2017/10/21 19:39:43","新北市板橋區文化路一段288號","121.4674","25.0214416666667","6500100","板橋區"
"220063","609-BX","2017/10/21 19:39:40","新北市板橋區中山路二段553巷4弄6號","121.48351","25.0226216666667","6500100","板橋區"
"220091","637-BX","2017/10/21 19:39:36","新北市板橋區懷德街139巷20弄6-2號","121.480138333333","25.0306266666667","6500100","板橋區"
"220057","686-BX","2017/10/21 19:39:46","新北市板橋區國慶路157號","121.461656666667","24.996025","6500100","板橋區"
"220077","687-BX","2017/10/21 19:39:57","新北市板橋區僑中二街12巷2號","121.446806666667","25.01059","6500100","板橋區"
"220093","689-BX","2017/10/21 19:39:34","新北市板橋區光武街127巷11號","121.465601666667","25.0285266666667","6500100","板橋區"
"220054","741-BX","2017/10/21 19:39:53","新北市板橋區忠孝路239巷16號","121.466675","25.0033316666667","6500100","板橋區"
"220055","827-TW","2017/10/21 19:39:45","新北市板橋區重慶路290巷22弄27號","121.462188333333","24.9995216666667","6500100","板橋區"
"220067","829-TW","2017/10/21 19:39:47","新北市板橋區長安街253號","121.472663333333","25.01022","6500100","板橋區"
"220102","830-TW","2017/10/21 19:39:55","新北市板橋區雙十路二段70巷29號","121.475888333333","25.0286783333333","6500100","板橋區"
"220096","831-TW","2017/10/21 19:39:46","新北市板橋區民生路二段234巷77號","121.470323333333","25.0226366666667","6500100","板橋區"
"220074","895-R6","2017/10/21 19:39:45","新北市板橋區北門街12號","121.457686666667","25.0105566666667","6500100","板橋區"
"220073","985-R7","2017/10/21 19:39:37","新北市板橋區國光路67巷14號","121.459055","25.01878","6500100","板橋區"
"220097","AAC-210","2017/10/21 19:39:53","新北市板橋區幸福路38號","121.461583333333","25.0202233333333","6500100","板橋區"
"220070","AAC-253","2017/10/21 19:39:49","新北市板橋區民族路282號","121.470163333333","25.0068933333333","6500100","板橋區"
