"lineid","car","time","location","longitude","latitude","cityid","cityname"
"234046","148-BY","2017/10/21 19:49:46","新北市永和區永亨路205號","121.526071666667","25.0026566666667","6500400","永和區"
"234013","149-BY","2017/10/21 19:49:53","新北市永和區永平路246號","121.508695","25.0110333333333","6500400","永和區"
"234007","207-UY","2017/10/21 19:49:43","新北市中和區保平路326巷1號","121.507188333333","25.004325","6500400","永和區"
"234081","298-R6","2017/10/21 19:49:35","新北市永和區永亨路98號","121.523023333333","25.0048516666667","6500400","永和區"
"234038","336-UY","2017/10/21 19:49:39","新北市永和區民樂街57巷6號","121.527968333333","24.9984916666667","6500400","永和區"
"234064","337-UY","2017/10/21 19:49:35","新北市永和區中正路368巷18號","121.518498333333","25.0007566666667","6500400","永和區"
"234086","338-UY","2017/10/21 19:49:49","新北市永和區中正路566號","121.517111666667","25.00611","6500400","永和區"
"234070","552-UM","2017/10/21 19:49:53","新北市永和區竹林路108號","121.519703333333","25.0118266666667","6500400","永和區"
"234054","553-UM","2017/10/21 19:49:44","新北市永和區竹林路64號","121.51823","25.0135566666667","6500400","永和區"
"234017","745-BX","2017/10/21 19:49:54","新北市永和區永和路二段299號","121.515983333333","25.0162183333333","6500400","永和區"
"234030","746-BX","2017/10/21 19:49:53","新北市永和區民生路67巷29號","121.524285","24.99744","6500400","永和區"
"234061","AAD-866","2017/10/21 19:49:48","新北市永和區中正路184號","121.51528","24.9968866666667","6500400","永和區"
"234042","862-TW","2017/10/21 19:49:46","新北市永和區中和路389巷41號","121.508163333333","25.001665","6500400","永和區"
"234050","863-TW","2017/10/21 19:49:37","新北市永和區保安路144號","121.508538333333","25.0148766666667","6500400","永和區"
"234026","9371-KE","2017/10/21 19:49:45","新北市永和區雙和街43號","121.508905","25.00297","6500400","永和區"
"234011","9373-KE","2017/10/21 19:49:37","新北市永和區仁愛路310號","121.503083333333","25.007555","6500400","永和區"
"249001","173-UM","2017/10/21 19:49:43","新北市八里區中華路二段250號","121.405423333333","25.1497333333333","6502300","八里區"
"249004","303-UY","2017/10/21 19:49:09","新北市八里區忠孝路488-1號","121.414405","25.16152","6502300","八里區"
"249002","305-UY","2017/10/21 19:49:49","新北市八里區頂寮五街20號","121.451308333333","25.1262233333333","6502300","八里區"
"249003","759-BX","2017/10/21 19:49:39","新北市八里區中華路二段560巷19號","121.398325","25.1453416666667","6502300","八里區"
"248016","026-BX","2017/10/21 19:49:39","新北市五股區成泰路三段601巷17-1號","121.451735","25.1033183333333","6501500","五股區"
"248008","095-VK","2017/10/21 19:49:55","新北市蘆洲區中山二路320號","121.468436666667","25.0765783333333","6501500","五股區"
"248012","247-BX","2017/10/21 19:49:53","新北市五股區蓬萊路24號","121.434186666667","25.0797833333333","6501500","五股區"
"248014","261-SL","2017/10/21 19:49:54","新北市五股區五福路42巷27號","121.43488","25.0900583333333","6501500","五股區"
"248010","272-BY","2017/10/21 19:49:44","新北市五股區登林路貿商巷2弄2號","121.430531666667","25.06965","6501500","五股區"
"248004","677-BX","2017/10/21 19:49:45","新北市五股區成泰路一段208號","121.435985","25.0789433333333","6501500","五股區"
"248002","678-BX","2017/10/21 19:49:39","新北市五股區成泰路四段15-3號","121.45309","25.1069266666667","6501500","五股區"
"234077","969-R7","2017/10/21 19:49:41","新北市永和區民有街21巷6號","121.516881666667","24.9965916666667","6500400","永和區"
"234074","AAC-211","2017/10/21 19:49:51","新北市永和區竹林路213巷20號","121.521858333333","25.00894","6500400","永和區"
"234067","AAC-212","2017/10/21 19:49:41","新北市永和區永平路173巷7號","121.510251666667","25.0084766666667","6500400","永和區"
"234003","AAC-295","2017/10/21 19:49:41","新北市永和區福和路343號","121.515606666667","25.0071416666667","6500400","永和區"
"244010","656-BX","2017/10/21 11:34:22","新北市林口區粉寮路二段160巷40號","121.405506666667","25.0911266666667","6501700","林口區"
"243013","AAD-798","2017/10/21 19:49:37","新北市泰山區應化街7號","121.423863333333","25.0437516666667","6501600","泰山區"
"243009","297-R6","2017/10/21 19:49:48","新北市泰山區美寧街76號","121.431428333333","25.06454","6501600","泰山區"
"243015","380-SR","2017/10/21 19:49:50","新北市泰山區明志路二段237巷21號","121.428001666667","25.0480583333333","6501600","泰山區"
"243014","421-VK","2017/10/21 19:49:51","新北市泰山區泰林路二段33-7號","121.435176666667","25.0564433333333","6501600","泰山區"
"243010","KEA-2215","2017/10/21 19:49:41","新北市泰山區民生路33號","121.430556666667","25.0521866666667","6501600","泰山區"
"243011","KEA-2216","2017/10/21 19:49:43","新北市泰山區明志路三段196巷32號","121.422473333333","25.0396033333333","6501600","泰山區"
"243012","646-TV","2017/10/21 19:49:49","新北市泰山區全興路13號","121.432321666667","25.0590216666667","6501600","泰山區"
"243016","680-BX","2017/10/21 19:49:42","新北市泰山區中山路三段114號","121.418145","25.0322416666667","6501600","泰山區"
"222003","436-BY","2017/10/21 19:31:50","新北市深坑區深南路51-1號","121.621181666667","25.0100616666667","6501800","深坑區"
"222002","659-BX","2017/10/21 19:49:38","新北市深坑區北深路二段20號","121.620598333333","25.0044916666667","6501800","深坑區"
"231041","002-UM","2017/10/21 19:49:39","新北市新店區中央路218號","121.529788333333","24.9731566666667","6500600","新店區"
"231059","046-UY","2017/10/21 19:49:37","新北市新店區安和路一段45號","121.517348333333","24.9657183333333","6500600","新店區"
"231061","047-UY","2017/10/21 19:49:42","新北市新店區安民街265號","121.517381666667","24.9728816666667","6500600","新店區"
"231060","106-UY","2017/10/21 19:49:44","新北市新店區安康路二段161號","121.510225","24.9593833333333","6500600","新店區"
"231048","108-UY","2017/10/21 19:49:40","新北市新店區中興路二段196號","121.548581666667","24.97381","6500600","新店區"
"231052","187-VK","2017/10/21 19:49:50","新北市新店區新烏路三段140號","121.55216","24.9028783333333","6500600","新店區"
"231007","189-VK","2017/10/21 09:14:40","新北市新店區新潭路三段215巷25號","121.50818","24.90409","6500600","新店區"
"231050","KEA-2219","2017/10/21 19:46:31","新北市新店區北宜路二段579巷2號","121.565325","24.9540533333333","6500600","新店區"
"231057","256-BX","2017/10/21 19:49:38","新北市新店區梅崗三路1號","121.55838","24.93128","6500600","新店區"
"231046","278-BY","2017/10/21 19:49:44","新北市新店區三民路159巷19弄44號","121.532245","24.9732616666667","6500600","新店區"
"231054","AAD-862","2017/10/21 19:49:53","新北市新店區光明街138巷9號","121.53994","24.9611833333333","6500600","新店區"
"231055","3713-VJ","2017/10/21 19:49:33","新北市新店區新生街1號","121.540325","24.9656133333333","6500600","新店區"
"231056","4716-K9","2017/10/21 19:49:48","新北市新店區中正路487號","121.5338","24.982105","6500600","新店區"
"231067","4772-VM","2017/10/21 19:49:46","新北市新店區精忠路10-1號","121.532703333333","24.9590483333333","6500600","新店區"
"231065","512-UM","2017/10/21 19:49:45","新北市新店區安祥路109巷151弄12號","121.478136666667","24.95885","6500600","新店區"
"231064","515-UM","2017/10/21 19:49:38","新北市新店區安和路二段77號","121.518448333333","24.9688316666667","6500600","新店區"
"231045","617-UM","2017/10/21 19:49:43","新北市新店區中生路66號","121.564641666667","24.9526016666667","6500600","新店區"
"231040","619-UM","2017/10/21 19:49:52","新北市新店區北新路一段96巷23號","121.542938333333","24.9688283333333","6500600","新店區"
"231042","641-BX","2017/10/21 19:49:52","新北市新店區中興路一段267號","121.544873333333","24.967665","6500600","新店區"
"231063","645-TV","2017/10/21 19:49:34","新北市新店區黎明路3號","121.503143333333","24.9521483333333","6500600","新店區"
"231068","718-UY","2017/10/21 19:49:47","新北市新店區安華路28-1號","121.519358333333","24.9610233333333","6500600","新店區"
"231049","719-UM","2017/10/21 19:49:38","新北市新店區民權路127巷5號","121.53542","24.9818483333333","6500600","新店區"
"231051","719-UY","2017/10/21 19:49:49","新北市新店區中央二街47號","121.527348333333","24.9742383333333","6500600","新店區"
"231062","720-UM","2017/10/21 19:49:37","新北市新店區永業路121號","121.528401666667","24.947835","6500600","新店區"
"231044","897-TW","2017/10/21 19:49:36","新北市新店區復興路121號","121.53418","24.9879616666667","6500600","新店區"
"231043","899-TW","2017/10/21 19:49:55","新北市新店區中正路263-3號","121.538433333333","24.973865","6500600","新店區"
"231066","AKT-0513","2017/10/21 19:49:36","新北市新店區薏仁坑路自強巷6號","121.496351666667","24.9584616666667","6500600","新店區"
"241011","013-R5","2017/10/21 19:49:53","新北市三重區三和路二段173巷47號","121.499298333333","25.0702066666667","6500200","三重區"
"241028","022-UY","2017/10/21 19:49:45","新北市三重區中正南路163號","121.493781666667","25.056025","6500200","三重區"
"241008","059-VK","2017/10/21 19:49:51","新北市三重區永福街96號","121.47881","25.0758816666667","6500200","三重區"
"241009","060-VK","2017/10/21 19:49:53","新北市三重區三和路四段396巷14號","121.480703333333","25.07899","6500200","三重區"
"241031","061-VK","2017/10/21 19:49:43","新北市三重區重新路四段242-2號","121.485981666667","25.05364","6500200","三重區"
"241015","062-VK","2017/10/21 19:49:47","新北市三重區重新路一段1號","121.503818333333","25.06426","6500200","三重區"
"241017","063-VK","2017/10/21 19:49:38","新北市三重區重陽路三段7-2號","121.489055","25.066495","6500200","三重區"
"241026","066-VK","2017/10/21 19:49:35","新北市三重區文化南路42號","121.500393333333","25.060285","6500200","三重區"
"241003","091-VK","2017/10/21 19:49:43","新北市三重區五華街93巷36號","121.4932","25.0845566666667","6500200","三重區"
"241005","262-UM","2017/10/21 19:49:55","新北市三重區溪尾街308號","121.487623333333","25.0841716666667","6500200","三重區"
"241016","265-UM","2017/10/21 19:49:44","新北市三重區正義北路48巷45號","121.496048333333","25.0636616666667","6500200","三重區"
"241022","267-UM","2017/10/21 19:49:55","新北市三重區過圳街31巷2號","121.489103333333","25.06059","6500200","三重區"
"241018","268-UM","2017/10/21 19:49:46","新北市三重區雙園街57巷3號","121.494875","25.0676266666667","6500200","三重區"
"241032","269-UM","2017/10/21 19:49:36","新北市三重區三陽路1號","121.486525","25.058865","6500200","三重區"
"241013","270-UM","2017/10/21 19:49:47","新北市三重區仁愛街141巷21號","121.496683333333","25.07585","6500200","三重區"
"241025","271-UM","2017/10/21 19:49:42","新北市三重區大有街1-1號","121.477685","25.0653433333333","6500200","三重區"
"241007","398-BY","2017/10/21 19:49:55","新北市三重區三和路四段147號","121.484276666667","25.07831","6500200","三重區"
"241004","475-VK","2017/10/21 19:49:43","新北市三重區仁愛街377巷132號","121.493531666667","25.0819516666667","6500200","三重區"
"241019","478-VK","2017/10/21 19:49:56","新北市三重區自強路二段74巷25號","121.487731666667","25.06965","6500200","三重區"
"241030","480-VK","2017/10/21 19:49:53","新北市三重區環河南路254巷19號","121.490275","25.051045","6500200","三重區"
"241014","543-UM","2017/10/21 19:49:49","新北市三重區三和路二段37-7號","121.501303333333","25.0674733333333","6500200","三重區"
"241023","545-UM","2017/10/21 19:49:47","新北市三重區頂崁街172號","121.477596666667","25.06598","6500200","三重區"
"241001","547-UM","2017/10/21 19:49:51","新北市三重區仁愛街327巷45-1號","121.49334","25.0801583333333","6500200","三重區"
"241006","AAD-863","2017/10/21 19:49:51","新北市三重區永福街281號","121.482531666667","25.0743866666667","6500200","三重區"
"241035","743-BX","2017/10/21 19:49:46","新北市三重區中央北路18巷41號","121.499496666667","25.0638433333333","6500200","三重區"
"241012","941-UM","2017/10/21 19:49:54","新北市三重區仁興街56巷52號","121.497918333333","25.0753983333333","6500200","三重區"
"241029","942-UM","2017/10/21 19:49:38","新北市三重區重新路三段204號","121.490085","25.0584783333333","6500200","三重區"
"241033","AAC-255","2017/10/21 19:49:51","新北市三重區中興南街29-1號","121.470538333333","25.04392","6500200","三重區"
"235066","003-UY","2017/10/21 19:49:38","新北市中和區光華街15號","121.504588333333","25.0042933333333","6500300","中和區"
"235064","005-UY","2017/10/21 19:49:43","新北市中和區南山路28號","121.50192","24.9979983333333","6500300","中和區"
"235063","006-UY","2017/10/21 19:49:43","新北市中和區連城路263巷20號","121.492531666667","24.9947666666667","6500300","中和區"
"235056","096-UM","2017/10/21 19:49:48","新北市中和區中山路三段114巷3號","121.475255","25.0071516666667","6500300","中和區"
"235039","097-UM","2017/10/21 19:49:49","新北市中和區景平路172號","121.516966666667","24.9926383333333","6500300","中和區"
"235065","098-UM","2017/10/21 19:49:51","新北市中和區莊敬路25號","121.5002","25.0045833333333","6500300","中和區"
"235040","150-BY","2017/10/21 19:49:47","新北市中和區安平路38號","121.50991","24.994975","6500300","中和區"
"235058","151-BY","2017/10/21 19:49:47","新北市中和區員山路146巷8號","121.481776666667","24.9967716666667","6500300","中和區"
"235055","183-VK","2017/10/21 19:49:41","新北市中和區中山路三段181巷18弄5號","121.472628333333","25.005225","6500300","中和區"
"235038","185-VK","2017/10/21 19:49:50","新北市中和區自立路117巷4弄21號","121.522745","24.99411","6500300","中和區"
"235049","186-VK","2017/10/21 19:49:54","新北市中和區中興街55號","121.500645","24.993795","6500300","中和區"
"235067","255-BX","2017/10/21 19:49:38","新北市中和區新生街186巷2號","121.483495","24.9997766666667","6500300","中和區"
"235044","293-VK","2017/10/21 19:49:48","新北市中和區南山路325號","121.505138333333","24.9912083333333","6500300","中和區"
"235072","301-VK","2017/10/21 19:49:53","新北市新店區安平路23-14號","121.520595","24.9662583333333","6500300","中和區"
"235043","352-BY","2017/10/21 19:49:55","新北市中和區華新街232巷19號","121.505758333333","24.98212","6500300","中和區"
"235051","376-QA","2017/10/21 19:49:53","新北市中和區中興街123號","121.499935","24.9918216666667","6500300","中和區"
"235068","377-QA","2017/10/21 19:49:50","新北市中和區福美路298-1號","121.497453333333","25.0050166666667","6500300","中和區"
"235061","378-QA","2017/10/21 19:49:55","新北市中和區新生街148巷19弄10號","121.482531666667","25.0002116666667","6500300","中和區"
"235050","4979-A6","2017/10/21 19:49:38","新北市中和區景平路241巷82弄34號","121.506541666667","24.9925116666667","6500300","中和區"
"235069","4980-A6","2017/10/21 19:49:48","新北市中和區南山路37巷3弄1號","121.502786666667","24.9989066666667","6500300","中和區"
"235042","551-UM","2017/10/21 19:49:52","新北市中和區景安路79巷37弄14-5號","121.508196666667","24.9960683333333","6500300","中和區"
"235070","558-UM","2017/10/21 19:48:38","新北市中和區連城路75巷1-3號","121.497781666667","24.99978","6500300","中和區"
"235045","565-BX","2017/10/21 19:49:49","新北市中和區興南路一段2號","121.511633333333","24.9917216666667","6500300","中和區"
"235054","640-BX","2017/10/21 19:49:38","新北市中和區民德路6號","121.46865","25.0031166666667","6500300","中和區"
"235060","647-TV","2017/10/21 19:49:38","新北市中和區新生街18號","121.483193333333","25.0042416666667","6500300","中和區"
"235047","732-UM","2017/10/21 19:49:49","新北市中和區捷運路10-3號","121.509196666667","24.9898116666667","6500300","中和區"
"235046","733-UM","2017/10/21 19:49:53","新北市中和區仁愛街28號","121.510886666667","24.9886316666667","6500300","中和區"
"235062","800-TS","2017/10/21 19:49:46","新北市中和區員山路30-7號","121.485098333333","24.98846","6500300","中和區"
"235057","801-TS","2017/10/21 19:49:38","新北市中和區員山路251號","121.48131","24.9987566666667","6500300","中和區"
"235041","802-TS","2017/10/21 19:49:38","新北市永和區中和路599號","121.51226","25.0042883333333","6500300","中和區"
"235052","805-TS","2017/10/21 19:49:39","新北市中和區華新街30巷16號","121.506825","24.9844466666667","6500300","中和區"
"235048","896-TW","2017/10/21 19:49:49","新北市中和區興南路一段147號","121.508678333333","24.9874316666667","6500300","中和區"
"235053","900-TW","2017/10/21 19:49:46","新北市中和區國光街215巷3號","121.466478333333","25.0016466666667","6500300","中和區"
"235037","AAC-213","2017/10/21 19:49:48","新北市中和區秀朗路三段131號","121.525413333333","24.9927983333333","6500300","中和區"
"235059","AAC-215","2017/10/21 19:49:53","新北市中和區圓通路305巷18號","121.49493","24.9890966666667","6500300","中和區"
"220068","013-TV","2017/10/21 19:49:52","新北市板橋區中山路二段412巷9號","121.48336","25.0206016666667","6500100","板橋區"
"220065","072-UY","2017/10/21 19:49:49","新北市中和區民生街28巷13號","121.469588333333","25.0058116666667","6500100","板橋區"
"220086","073-UY","2017/10/21 19:49:53","新北市板橋區館前西路160巷6號","121.452641666667","25.008875","6500100","板橋區"
"220106","075-UY","2017/10/21 19:49:44","新北市板橋區民治街26巷18號","121.477151666667","25.033645","6500100","板橋區"
"220069","AAD-861","2017/10/21 19:49:47","新北市板橋區稚暉街2巷46號","121.455208333333","25.0029483333333","6500100","板橋區"
"247002","337-TH","2017/10/21 19:49:55","新北市蘆洲區永平街27號","121.45878","25.090635","6501400","蘆洲區"
"247004","336-TH","2017/10/21 19:49:51","新北市蘆洲區中原路73號","121.458383333333","25.0819083333333","6501400","蘆洲區"
"247006","056-VK","2017/10/21 19:49:51","新北市蘆洲區永安南路二段34號","121.466948333333","25.077235","6501400","蘆洲區"
"247008","053-VK","2017/10/21 19:49:34","新北市蘆洲區中山一路54號","121.479223333333","25.08091","6501400","蘆洲區"
"247014","007-UY","2017/10/21 19:49:43","新北市蘆洲區中央路87號","121.472833333333","25.08431","6501400","蘆洲區"
"226004","312-R5","2017/10/21 19:49:40","新北市平溪區靜安路三段392巷3號","121.784395","25.0494833333333","6502400","平溪區"
"228003","097-TW","2017/10/21 19:49:37","新北市貢寮區真理里美艷山街3-1號","121.92585","25.0596483333333","6502600","貢寮區"
"228001","212-TW","2017/10/21 19:49:48","新北市貢寮區真理里新港街117號","121.927031666667","25.056245","6502600","貢寮區"
"224010","AGQ-8101","2017/10/21 19:49:45","新北市瑞芳區基山街3號","121.845245","25.1097683333333","6501200","瑞芳區"
"227002","642-TC","2017/10/21 19:49:45","新北市雙溪區雙溪里內挖路36號","121.863206666667","25.0367233333333","6502500","雙溪區"
"227010","400-TW","2017/10/21 19:49:43","新北市雙溪區新基里自強路7號","121.866185","25.0390433333333","6502500","雙溪區"
"222001","KEA-2212","2017/10/21 19:49:53","新北市深坑區北深路三段70號","121.60779","25.0013766666667","6501800","深坑區"
"208002","742-BX","2017/10/21 19:49:41","新北市金山區中華路366-8號","121.633293333333","25.2244516666667","6502700","金山區"
"208003","665-BX","2017/10/21 19:49:38","新北市金山區中正路29號","121.635271666667","25.222125","6502700","金山區"
"208001","761-BX","2017/10/21 19:49:36","新北市金山區南勢湖42-1號","121.608168333333","25.217505","6502700","金山區"
"251009","008-UM","2017/10/21 19:49:42","新北市淡水區中正路38-1號","121.443698333333","25.16931","6501000","淡水區"
"251004","009-UM","2017/10/21 19:46:40","新北市淡水區民權路177巷55號","121.460466666667","25.133765","6501000","淡水區"
"251005","010-UM","2017/10/21 19:49:38","新北市淡水區學府路104號","121.449786666667","25.1716933333333","6501000","淡水區"
"251014","180-VK","2017/10/21 19:49:49","新北市淡水區番社前4-6號","121.474408333333","25.2363016666667","6501000","淡水區"
"251008","181-VK","2017/10/21 19:49:53","新北市淡水區中正路一段24巷2-4號","121.426796666667","25.1770383333333","6501000","淡水區"
"251012","441-VK","2017/10/21 19:49:40","新北市淡水區中山北路三段164號","121.446015","25.19669","6501000","淡水區"
"251016","442-VK","2017/10/21 19:49:37","新北市淡水區下圭柔山121-12號","121.455026666667","25.2094416666667","6501000","淡水區"
"251001","559-UM","2017/10/21 19:49:44","新北市淡水區中正東路二段67號","121.459415","25.1546516666667","6501000","淡水區"
"251006","561-UM","2017/10/21 19:49:42","新北市淡水區水碓街15號","121.44345","25.1769916666667","6501000","淡水區"
"251011","650-BX","2017/10/21 19:49:56","新北市淡水區淡金路一段160號","121.454515","25.1794533333333","6501000","淡水區"
"251002","672-BX","2017/10/21 19:29:28","新北市淡水區中正路二段31號","121.419246666667","25.1820266666667","6501000","淡水區"
"207003","550-UM","2017/10/21 19:49:38","新北市萬里區磺潭里公館崙4號","121.642178333333","25.2145833333333","6502800","萬里區"
"207004","225-TW","2017/10/21 19:49:47","新北市萬里區萬里里瑪鋉路221號","121.689763333333","25.1798366666667","6502800","萬里區"
"252002","178-VK","2017/10/21 19:49:37","新北市三芝區三民街27巷7號","121.504731666667","25.2583633333333","6502100","三芝區"
"252001","292-VK","2017/10/21 19:49:46","新北市三芝區長安街89號","121.499715","25.25746","6502100","三芝區"
"237004","078-UY","2017/10/21 19:49:45","新北市三峽區添福143-1號","121.3748","24.8997","6500900","三峽區"
"237007","153-BY","2017/10/21 19:49:44","新北市三峽區二鬮路136巷16弄27號","121.359115","24.9088233333333","6500900","三峽區"
"237009","210-TH","2017/10/21 19:49:52","新北市三峽區民族街78巷2弄4號","121.368558333333","24.92989","6500900","三峽區"
"237013","252-BX","2017/10/21 19:49:41","新北市三峽區橫溪路53號","121.396938333333","24.9352766666667","6500900","三峽區"
"237012","275-BY","2017/10/21 19:49:52","新北市三峽區光明路1-12號","121.37282","24.93218","6500900","三峽區"
"237008","302-VK","2017/10/21 19:49:46","新北市三峽區大同路147巷9號","121.371115","24.9264166666667","6500900","三峽區"
"237014","433-BY","2017/10/21 19:49:42","新北市三峽區添福59-5號","121.374535","24.9033716666667","6500900","三峽區"
"237006","5529-G3","2017/10/21 19:49:42","新北市三峽區中正路一段330-10號","121.369938333333","24.92478","6500900","三峽區"
"237016","649-BX","2017/10/21 19:49:38","新北市三峽區介壽路二段138巷16號","121.395908333333","24.9342633333333","6500900","三峽區"
"237005","AKY-6261","2017/10/21 19:49:51","新北市三峽區長泰街79-2號","121.375641666667","24.9331133333333","6500900","三峽區"
"236073","105-UM","2017/10/21 19:49:40","新北市土城區水源街32巷6號","121.441051666667","24.9757466666667","6501300","土城區"
"236043","107-UM","2017/10/21 19:49:48","新北市土城區金城路二段245巷44號","121.455401666667","24.98335","6501300","土城區"
"236079","166-UM","2017/10/21 19:49:48","新北市土城區溪頭路29號","121.412438333333","24.95527","6501300","土城區"
"236031","253-BX","2017/10/21 19:49:46","新北市土城區中央路一段294號","121.443305","24.982365","6501300","土城區"
"236027","269-VK","2017/10/21 19:49:52","新北市土城區中央路二段61巷28號","121.443483333333","24.978715","6501300","土城區"
"236015","270-VK","2017/10/21 19:49:36","新北市土城區廣明街41巷38號","121.453948333333","24.9925516666667","6501300","土城區"
"236038","271-VK","2017/10/21 19:49:44","新北市土城區國際路158巷54號","121.468033333333","24.974935","6501300","土城區"
"236023","401-BY","2017/10/21 19:49:41","新北市土城區峰廷街3號","121.469175","24.9874416666667","6501300","土城區"
"236059","912-UM","2017/10/21 19:49:21","新北市土城區中央路一段271號","121.44472","24.9848433333333","6501300","土城區"
"236049","913-UM","2017/10/21 19:49:10","新北市土城區青雲路315號","121.459031666667","24.9788766666667","6501300","土城區"
"236063","915-UM","2017/10/21 19:49:39","新北市土城區延和路105巷5弄1號","121.467295","24.9910716666667","6501300","土城區"
"236055","AAC-216","2017/10/21 19:49:57","新北市土城區延和路64號","121.465765","24.9890833333333","6501300","土城區"
"242031","AAC-296","2017/10/21 19:49:55","新北市新莊區公園一路112號","121.444613333333","25.03792","6500500","新莊區"
"242029","986-R7","2017/10/21 19:49:53","新北市新莊區新泰路421-7號","121.442506666667","25.045015","6500500","新莊區"
"242051","751-BX","2017/10/21 19:49:50","新北市新莊區民安西路63號","121.427385","25.0202083333333","6500500","新莊區"
"242023","613-BX","2017/10/21 19:49:50","新北市新莊區化成路69號","121.465526666667","25.0459766666667","6500500","新莊區"
"242039","566-BX","2017/10/21 19:49:46","新北市新莊區民安路303號","121.429623333333","25.0224983333333","6500500","新莊區"
"242044","497-BY","2017/10/21 19:49:34","新北市新莊區新北大道七段365號","121.412378333333","25.0266966666667","6500500","新莊區"
"242048","441-UM","2017/10/21 19:49:52","新北市新莊區建安街76巷5弄15號","121.425613333333","25.0250316666667","6500500","新莊區"
"242004","413-TV","2017/10/21 19:49:40","新北市新莊區化成路63巷24弄15號","121.462713333333","25.0459633333333","6500500","新莊區"
"242061","362-BY","2017/10/21 19:49:50","新北市新莊區中正路473-1號","121.441903333333","25.0330866666667","6500500","新莊區"
"242058","353-BY","2017/10/21 19:49:48","新北市新莊區八德街10號","121.425275","25.022675","6500500","新莊區"
"242007","132-UY","2017/10/21 19:49:53","新北市新莊區新北大道三段5號","121.458395","25.0600466666667","6500500","新莊區"
"242036","133-UY","2017/10/21 19:49:49","新北市新莊區建安街60號","121.427201666667","25.0246466666667","6500500","新莊區"
"242021","135-UY","2017/10/21 19:49:56","新北市新莊區建中街31號","121.448725","25.0372666666667","6500500","新莊區"
"242009","173-VK","2017/10/21 19:33:57","新北市新莊區三和路12-21號","121.442036666667","25.0386683333333","6500500","新莊區"
"242001","233-RS","2017/10/21 17:41:36","新北市新莊區環河路48-7號","121.436965","25.0098666666667","6500500","新莊區"
"242013","346-TH","2017/10/21 19:49:41","新北市新莊區中泰街38巷9號","121.450728333333","25.0473483333333","6500500","新莊區"
"242019","348-TH","2017/10/21 19:49:50","新北市新莊區明智街19號","121.454148333333","25.0413416666667","6500500","新莊區"
"242017","350-TH","2017/10/21 19:49:38","新北市新莊區中華路一段101號","121.452683333333","25.0437416666667","6500500","新莊區"
"238015","755-BX","2017/10/21 19:49:23","新北市樹林區中山路一段135-4號","121.422465","24.9898666666667","6500700","樹林區"
"238023","601-UM","2017/10/21 19:49:50","新北市樹林區三福街114號","121.406496666667","25.0162966666667","6500700","樹林區"
"238018","571-TV","2017/10/21 19:49:39","新北市樹林區中山路三段214號","121.3797","24.9674583333333","6500700","樹林區"
"238024","5061-A6","2017/10/21 19:48:45","新北市樹林區中山路三段214號","121.380338333333","24.9678416666667","6500700","樹林區"
"238021","KEA-2217","2017/10/21 19:49:38","新北市樹林區佳園路三段175號","121.385608333333","24.9480733333333","6500700","樹林區"
"238025","303-VK","2017/10/21 19:49:47","新北市樹林區中山路二段2號","121.417863333333","24.985275","6500700","樹林區"
"238017","283-BY","2017/10/21 19:49:44","新北市樹林區保安街一段402號","121.416931666667","24.9993016666667","6500700","樹林區"
"238014","282-BY","2017/10/21 19:49:45","新北市樹林區千歲街44號","121.425821666667","24.99695","6500700","樹林區"
"238020","268-VK","2017/10/21 19:49:53","新北市樹林區樹新路207號","121.429785","24.9980866666667","6500700","樹林區"
"221008","489-VK","2017/10/21 19:49:34","新北市汐止區康寧街39號","121.618563333333","25.06679","6501100","汐止區"
"221036","130-UY","2017/10/21 19:49:53","新北市汐止區大同路二段340號","121.656491666667","25.066985","6501100","汐止區"
"221015","131-UY","2017/10/21 19:49:42","新北市汐止區忠孝東路404號","121.665841666667","25.0710516666667","6501100","汐止區"
"221010","269-BY","2017/10/21 19:49:47","新北市汐止區八連路一段72號","121.64619","25.0806166666667","6501100","汐止區"
"221012","276-VK","2017/10/21 13:25:54","新北市汐止區汐萬路一段256巷3號","121.653495","25.07464","6501100","汐止區"
"221012","278-VK","2017/10/21 19:49:41","新北市汐止區大同路三段549號","121.681341666667","25.0715666666667","6501100","汐止區"
"221023","279-VK","2017/10/21 19:49:45","新北市汐止區明峰街149號","121.629328333333","25.07049","6501100","汐止區"
"221032","280-BY","2017/10/21 19:49:45","新北市汐止區橫科路385巷6弄7號","121.624306666667","25.047855","6501100","汐止區"
"221027","281-BY","2017/10/21 19:49:39","新北市汐止區忠孝東路9號","121.658226666667","25.0659233333333","6501100","汐止區"
"221029","298-VK","2017/10/21 19:49:42","新北市汐止區康寧街901號","121.651581666667","25.074925","6501100","汐止區"
"221021","299-VK","2017/10/21 19:49:37","新北市汐止區莊敬街29巷13號","121.65701","25.060835","6501100","汐止區"
"221031","353-TW","2017/10/21 19:49:36","新北市汐止區福德三路129巷2號","121.633521666667","25.0675116666667","6501100","汐止區"
"221035","622-UM","2017/10/21 19:49:46","新北市汐止區長江街13巷5弄1號","121.654636666667","25.0716133333333","6501100","汐止區"
"221025","623-UM","2017/10/21 19:49:46","新北市汐止區新台五路二段70巷25號","121.661835","25.0648416666667","6501100","汐止區"
"221038","646-BX","2017/10/21 19:49:50","新北市汐止區新昌路60號","121.663051666667","25.0681533333333","6501100","汐止區"
"221033","647-BX","2017/10/21 19:49:53","新北市汐止區東勢街10號","121.631463333333","25.040265","6501100","汐止區"
"221002","707-TV","2017/10/21 19:49:40","新北市汐止區大同路一段219巷25-1號","121.633025","25.0591","6501100","汐止區"
"221018","753-BX","2017/10/21 19:49:56","新北市汐止區大同路二段340號","121.65654","25.06706","6501100","汐止區"
"220079","145-BY","2017/10/21 19:49:52","新北市板橋區建國街52號","121.458788333333","25.01694","6500100","板橋區"
"220080","200-UY","2017/10/21 19:49:39","新北市板橋區大觀路二段37巷338號","121.450156666667","25.00233","6500100","板橋區"
"220082","610-BX","2017/10/21 19:49:30","新北市板橋區溪崑一街46號","121.429781666667","24.9905116666667","6500100","板橋區"
"220101","245-BX","2017/10/21 19:49:39","新北市板橋區莊敬路259號","121.473733333333","25.0215333333333","6500100","板橋區"
"220094","280-UM","2017/10/21 19:49:42","新北市板橋區長江路二段163號","121.466295","25.0319183333333","6500100","板橋區"
"220071","283-VK","2017/10/21 19:49:53","新北市板橋區廣權路79號","121.463925","24.9923916666667","6500100","板橋區"
"220053","285-VK","2017/10/21 19:49:42","新北市板橋區中山路二段90巷10號","121.47527","25.0159266666667","6500100","板橋區"
"220083","286-VK","2017/10/21 19:49:39","新北市板橋區龍興街65巷64號","121.442215","25.0020033333333","6500100","板橋區"
"220081","287-VK","2017/10/21 18:26:36","新北市板橋區華東街1-10號","121.44829","24.9950283333333","6500100","板橋區"
"220090","288-VK","2017/10/21 19:49:45","新北市板橋區龍泉街54巷5號","121.45684","25.0266133333333","6500100","板橋區"
"220061","293-UM","2017/10/21 19:49:54","新北市板橋區漢生東路113巷25號","121.468351666667","25.0156066666667","6500100","板橋區"
"220084","296-UM","2017/10/21 19:49:43","新北市板橋區溪崑二街124巷12號","121.425635","24.988305","6500100","板橋區"
"220075","297-UM","2017/10/21 19:49:57","新北市板橋區金華街10巷48弄55號","121.458933333333","25.0201883333333","6500100","板橋區"
"220098","299-UM","2017/10/21 19:49:40","新北市板橋區裕民街133巷1號","121.459128333333","25.0270333333333","6500100","板橋區"
"220062","303-R5","2017/10/21 19:49:55","新北市板橋區萬安街85巷1弄11號","121.484333333333","25.0249683333333","6500100","板橋區"
"220092","307-R5","2017/10/21 19:49:30","新北市板橋區四維路259巷2號","121.462993333333","25.0280983333333","6500100","板橋區"
"220064","486-VK","2017/10/21 19:49:54","新北市板橋區公園街34巷2號","121.4624","25.00845","6500100","板橋區"
"220089","487-VK","2017/10/21 19:49:28","新北市板橋區綠堤街39-4號","121.455318333333","25.0263166666667","6500100","板橋區"
"242034","280-VK","2017/10/21 19:49:47","新北市新莊區公園一路110號","121.44437","25.03739","6500500","新莊區"
"220088","491-VK","2017/10/21 19:49:51","新北市板橋區仁化街87號","121.476205","25.0319716666667","6500100","板橋區"
"220035","560-BX","2017/10/21 19:49:37","新北市板橋區金華街72-3號","121.457578333333","25.02062","6500100","板橋區"
"220103","561-BX","2017/10/21 19:49:43","新北市板橋區陽明街29巷4號","121.465085","25.0218283333333","6500100","板橋區"
"220063","609-BX","2017/10/21 19:49:40","新北市板橋區三民路一段3巷1號","121.478843333333","25.0236316666667","6500100","板橋區"
"220091","637-BX","2017/10/21 19:49:36","新北市板橋區懷德街127巷23弄33號","121.480338333333","25.03215","6500100","板橋區"
"220057","686-BX","2017/10/21 19:49:46","新北市板橋區廣權路16號","121.461218333333","24.991535","6500100","板橋區"
"220077","687-BX","2017/10/21 19:49:51","新北市板橋區僑中一街102巷3弄15-3號","121.445998333333","25.0123733333333","6500100","板橋區"
"220093","689-BX","2017/10/21 19:49:34","新北市板橋區文化路二段652號","121.478256666667","25.0378416666667","6500100","板橋區"
"220054","741-BX","2017/10/21 19:49:53","新北市板橋區忠孝路忠義巷15弄19號","121.465716666667","25.00418","6500100","板橋區"
"220055","827-TW","2017/10/21 19:49:45","新北市板橋區國慶路149巷13弄3號","121.460845","24.9971183333333","6500100","板橋區"
"220067","829-TW","2017/10/21 19:49:54","新北市板橋區長安街331巷21號","121.473631666667","25.0124416666667","6500100","板橋區"
"220102","830-TW","2017/10/21 19:49:55","新北市板橋區仁化街45號","121.475138333333","25.0316683333333","6500100","板橋區"
"220096","831-TW","2017/10/21 19:49:46","新北市板橋區民生路二段226巷31弄2號","121.471196666667","25.0221716666667","6500100","板橋區"
"220074","895-R6","2017/10/21 19:49:45","新北市板橋區大東街26號","121.456568333333","25.00885","6500100","板橋區"
"220073","985-R7","2017/10/21 19:49:37","新北市板橋區大仁街42號","121.455145","25.016705","6500100","板橋區"
"220097","AAC-210","2017/10/21 19:49:53","新北市板橋區文化路一段285巷2號","121.464495","25.01891","6500100","板橋區"
"220070","AAC-253","2017/10/21 19:49:48","新北市板橋區民族路83號","121.46571","25.00857","6500100","板橋區"
