"lineid","car","time","location","longitude","latitude","cityid","cityname"
"234046","148-BY","2017/10/21 20:49:46","新北市八里區下罟子17號","121.380426666667","25.1434816666667","6500400","永和區"
"234030","746-BX","2017/10/21 20:49:53","新北市五股區凌雲路一段22巷11號","121.453093333333","25.1008066666667","6500400","永和區"
"234011","9373-KE","2017/10/21 20:49:37","新北市永和區仁愛路295號","121.50487","25.0094983333333","6500400","永和區"
"249003","759-BX","2017/10/21 20:49:39","新北市八里區中山路二段341號","121.399621666667","25.14731","6502300","八里區"
"234074","AAC-211","2017/10/21 20:49:51","新北市永和區竹林路39巷26號","121.519093333333","25.0148316666667","6500400","永和區"
"244010","656-BX","2017/10/21 11:34:22","新北市林口區粉寮路二段160巷40號","121.405506666667","25.0911266666667","6501700","林口區"
"243016","680-BX","2017/10/21 20:49:42","新北市泰山區明志路二段202號","121.42737","25.0493283333333","6501600","泰山區"
"222003","436-BY","2017/10/21 20:49:53","新北市深坑區阿柔洋40號","121.610325","24.9984833333333","6501800","深坑區"
"222002","659-BX","2017/10/21 20:49:38","新北市深坑區北深路三段93巷11號","121.605383333333","25.0010016666667","6501800","深坑區"
"231059","046-UY","2017/10/21 20:49:37","新北市新店區僑信路74巷58號","121.498421666667","24.9476383333333","6500600","新店區"
"231061","047-UY","2017/10/21 20:49:42","新北市新店區新和街120號","121.52128","24.9864766666667","6500600","新店區"
"231060","106-UY","2017/10/21 20:49:44","新北市新店區安康路三段738號","121.473923333333","24.9419233333333","6500600","新店區"
"231048","108-UY","2017/10/21 20:49:40","新北市新店區寶元路二段1巷2號","121.550705","24.98407","6500600","新店區"
"231052","187-VK","2017/10/21 20:49:50","新北市新店區新烏路二段50巷3號","121.548235","24.9283216666667","6500600","新店區"
"231007","189-VK","2017/10/21 09:14:40","新北市新店區新潭路三段215巷25號","121.50818","24.90409","6500600","新店區"
"231050","KEA-2219","2017/10/21 20:49:51","新北市新店區中正路263號","121.538638333333","24.973625","6500600","新店區"
"231057","256-BX","2017/10/21 20:49:38","新北市新店區花園六路二段9-2號","121.555786666667","24.9328283333333","6500600","新店區"
"231054","AAD-862","2017/10/21 20:49:53","新北市新店區北新路一段126巷27號","121.543145","24.9696033333333","6500600","新店區"
"231058","3712-VJ","2017/10/21 20:49:36","新北市新店區平等街59號","121.536125","24.9726783333333","6500600","新店區"
"231065","512-UM","2017/10/21 20:49:45","新北市新店區安祥路69巷17號","121.481918333333","24.9613233333333","6500600","新店區"
"231064","515-UM","2017/10/21 20:49:38","新北市新店區安民街389號","121.516021666667","24.97691","6500600","新店區"
"231040","619-UM","2017/10/21 20:49:31","新北市新店區中正路268號","121.539056666667","24.9736566666667","6500600","新店區"
"231042","641-BX","2017/10/21 20:49:55","新北市新店區寶高路118號","121.554506666667","24.976","6500600","新店區"
"231063","645-TV","2017/10/21 20:49:54","新北市新店區如意街11-2號","121.495031666667","24.9482683333333","6500600","新店區"
"231068","718-UY","2017/10/21 20:49:47","新北市新店區寶元路二段11號","121.546131666667","24.982385","6500600","新店區"
"231049","719-UM","2017/10/21 20:49:38","新北市新店區安華路8號","121.519865","24.9621066666667","6500600","新店區"
"231051","719-UY","2017/10/21 20:49:50","新北市新店區中央路125號","121.530596666667","24.97415","6500600","新店區"
"231062","720-UM","2017/10/21 20:49:37","新北市新店區裕合街291號","121.489231666667","24.948555","6500600","新店區"
"231044","897-TW","2017/10/21 20:49:36","新北市新店區民族路162號","121.537505","24.97669","6500600","新店區"
"231043","899-TW","2017/10/21 20:49:51","新北市新店區建國路62號","121.540645","24.9757716666667","6500600","新店區"
"231066","AKT-0513","2017/10/21 20:49:36","新北市新店區安興路105-1號","121.514655","24.9777116666667","6500600","新店區"
"241011","013-R5","2017/10/21 20:49:52","新北市三重區龍濱路249號","121.501475","25.072475","6500200","三重區"
"241028","022-UY","2017/10/21 20:49:45","新北市三重區中正南路41巷1號","121.493813333333","25.0598566666667","6500200","三重區"
"241008","059-VK","2017/10/21 20:49:51","新北市三重區永福街72巷11號","121.479433333333","25.07676","6500200","三重區"
"241009","060-VK","2017/10/21 20:49:52","新北市三重區三和路四段412號","121.48093","25.07982","6500200","三重區"
"241031","061-VK","2017/10/21 20:49:43","新北市三重區重陽路一段113巷1弄1號","121.487493333333","25.059825","6500200","三重區"
"241015","062-VK","2017/10/21 20:49:47","新北市三重區自強路一段8號","121.49891","25.0682266666667","6500200","三重區"
"241017","063-VK","2017/10/21 20:49:38","新北市三重區民生街12號","121.492136666667","25.06751","6500200","三重區"
"241026","066-VK","2017/10/21 20:49:55","新北市三重區文化南路7號","121.500025","25.062315","6500200","三重區"
"241002","090-VK","2017/10/21 20:49:51","新北市三重區仁義街167巷38弄2號","121.498735","25.0826666666667","6500200","三重區"
"241005","262-UM","2017/10/21 20:49:35","新北市三重區五華街141巷11號","121.491483333333","25.084995","6500200","三重區"
"241016","265-UM","2017/10/21 20:49:44","新北市三重區正義北路184號","121.49651","25.066785","6500200","三重區"
"241022","267-UM","2017/10/21 20:49:35","新北市三重區過圳街27-5號","121.487946666667","25.0624033333333","6500200","三重區"
"241018","268-UM","2017/10/21 20:49:46","新北市三重區正義北路279號","121.495275","25.0703","6500200","三重區"
"241032","269-UM","2017/10/21 20:49:36","新北市三重區重陽路一段120巷48號","121.485021666667","25.06017","6500200","三重區"
"241013","270-UM","2017/10/21 20:49:47","新北市三重區仁賢街12-1號","121.495641666667","25.074885","6500200","三重區"
"241025","271-UM","2017/10/21 20:49:42","新北市三重區貴陽街18號","121.484085","25.0618333333333","6500200","三重區"
"241007","398-BY","2017/10/21 20:49:55","新北市三重區慈愛街6號","121.484368333333","25.0783633333333","6500200","三重區"
"241024","KEA-2210","2017/10/21 20:49:44","新北市三重區大勇街82巷15弄30號","121.481228333333","25.0719916666667","6500200","三重區"
"241004","475-VK","2017/10/21 20:49:43","新北市三重區溪尾街165巷12號","121.489488333333","25.08048","6500200","三重區"
"241019","478-VK","2017/10/21 20:49:36","新北市三重區重陽路四段134號","121.492771666667","25.0714666666667","6500200","三重區"
"241030","480-VK","2017/10/21 20:49:53","新北市三重區昌隆街26號","121.491973333333","25.0522566666667","6500200","三重區"
"241014","543-UM","2017/10/21 20:49:49","新北市三重區長壽街120巷60號","121.5017","25.0703283333333","6500200","三重區"
"241023","545-UM","2017/10/21 20:49:47","新北市三重區忠孝路三段84巷1號","121.480355","25.0646433333333","6500200","三重區"
"241001","547-UM","2017/10/21 20:49:51","新北市三重區三和路四段156號","121.488061666667","25.0756483333333","6500200","三重區"
"241006","AAD-863","2017/10/21 20:49:51","新北市三重區車路頭街139巷14號","121.484271666667","25.07622","6500200","三重區"
"241035","743-BX","2017/10/21 20:49:46","新北市三重區三和路三段61號","121.494938333333","25.0717","6500200","三重區"
"241012","941-UM","2017/10/21 20:49:54","新北市三重區龍門路274巷45號","121.501205","25.0755433333333","6500200","三重區"
"241029","942-UM","2017/10/21 20:49:38","新北市三重區重安街18號","121.490346666667","25.058125","6500200","三重區"
"241033","AAC-255","2017/10/21 20:49:50","新北市三重區光復路二段1號","121.472266666667","25.0533016666667","6500200","三重區"
"235067","255-BX","2017/10/21 20:49:38","新北市新莊區五權一路13-3號","121.459831666667","25.0685716666667","6500300","中和區"
"235026","800-TS","2017/10/21 20:14:57","新北市中和區員山路36巷16-3號","121.48474","24.9918283333333","6500300","中和區"
"247022","893-R6","2017/10/21 20:49:51","新北市蘆洲區三民路118號","121.47139","25.0871783333333","6501400","蘆洲區"
"247012","546-UM","2017/10/21 20:49:48","新北市蘆洲區復興路340巷2號","121.48229","25.0902783333333","6501400","蘆洲區"
"247010","339-TH","2017/10/21 20:49:35","新北市蘆洲區鷺江街76號","121.476931666667","25.0837966666667","6501400","蘆洲區"
"247002","337-TH","2017/10/21 20:49:35","新北市蘆洲區永康街30號","121.458573333333","25.085555","6501400","蘆洲區"
"247004","336-TH","2017/10/21 20:49:51","新北市蘆洲區長安街100號","121.461691666667","25.08093","6501400","蘆洲區"
"247020","335-TH","2017/10/21 20:49:40","新北市蘆洲區仁愛街64號","121.471448333333","25.093915","6501400","蘆洲區"
"247016","057-VK","2017/10/21 20:49:35","新北市蘆洲區中山二路211號","121.470476666667","25.08028","6501400","蘆洲區"
"247006","056-VK","2017/10/21 20:49:34","新北市蘆洲區永安南路二段18號","121.467716666667","25.077225","6501400","蘆洲區"
"247008","053-VK","2017/10/21 20:49:54","新北市蘆洲區集賢路269巷27號","121.482321666667","25.0833133333333","6501400","蘆洲區"
"247014","007-UY","2017/10/21 20:49:43","新北市蘆洲區三民路33號","121.475431666667","25.083","6501400","蘆洲區"
"247024","002-UY","2017/10/21 20:49:53","新北市蘆洲區長樂路136號","121.462096666667","25.0901216666667","6501400","蘆洲區"
"222001","KEA-2212","2017/10/21 20:49:53","新北市深坑區北深路三段133號","121.604013333333","25.0024933333333","6501800","深坑區"
"251005","010-UM","2017/10/21 20:49:38","新北市淡水區學府路96號","121.44929","25.1711366666667","6501000","淡水區"
"251014","180-VK","2017/10/21 20:49:49","新北市淡水區公埔子36號","121.461888333333","25.2322916666667","6501000","淡水區"
"251010","413-VK","2017/10/21 20:49:52","新北市淡水區沙崙路147號","121.423618333333","25.1830433333333","6501000","淡水區"
"251012","441-VK","2017/10/21 20:49:40","新北市淡水區淡金路四段191號","121.451706666667","25.221645","6501000","淡水區"
"251016","442-VK","2017/10/21 20:49:37","新北市淡水區興仁路160號","121.451535","25.2202566666667","6501000","淡水區"
"251001","559-UM","2017/10/21 20:49:44","新北市淡水區淡金路218號","121.460558333333","25.16717","6501000","淡水區"
"251007","577-R6","2017/10/21 20:49:42","新北市淡水區學府路102巷66號","121.4535","25.1710883333333","6501000","淡水區"
"251011","650-BX","2017/10/21 20:49:56","新北市淡水區新民街一段13-1號","121.433121666667","25.1846233333333","6501000","淡水區"
"251002","672-BX","2017/10/21 20:49:54","新北市淡水區英專路26號","121.445573333333","25.1699466666667","6501000","淡水區"
"251003","766-UM","2017/10/21 20:49:51","新北市淡水區中山北路一段247巷72號","121.442835","25.179405","6501000","淡水區"
"252002","178-VK","2017/10/21 20:49:37","新北市三芝區淡金路二段89-1號","121.504035","25.2609033333333","6502100","三芝區"
"242031","AAC-296","2017/10/21 20:49:35","新北市新莊區中正路508巷12號","121.437601666667","25.0343933333333","6500500","新莊區"
"242029","986-R7","2017/10/21 20:49:53","新北市新莊區昌平街19號","121.45434","25.0513416666667","6500500","新莊區"
"242027","612-BX","2017/10/21 20:49:50","新北市三重區光復路二段175號","121.472541666667","25.061845","6500500","新莊區"
"242039","566-BX","2017/10/21 20:49:35","新北市新莊區瓊林路59-38號","121.441251666667","25.0235683333333","6500500","新莊區"
"242048","441-UM","2017/10/21 20:49:52","新北市新莊區中正路611號","121.432553333333","25.0320066666667","6500500","新莊區"
"242053","440-UM","2017/10/21 20:49:43","新北市新莊區民安西路189巷10弄24號","121.426508333333","25.0150583333333","6500500","新莊區"
"242042","400-BY","2017/10/21 20:49:44","新北市新莊區中正路694巷24號","121.41815","25.0288316666667","6500500","新莊區"
"242061","362-BY","2017/10/21 20:49:50","新北市新莊區中正路384號","121.442333333333","25.034335","6500500","新莊區"
"242007","132-UY","2017/10/21 20:49:37","新北市三重區重新路5段221巷6弄11-1號","121.478761666667","25.0515883333333","6500500","新莊區"
"242036","133-UY","2017/10/21 20:49:49","新北市新莊區建國一路136號","121.434768333333","25.0283433333333","6500500","新莊區"
"242021","135-UY","2017/10/21 20:49:51","新北市新莊區中華路一段8號","121.45207","25.036785","6500500","新莊區"
"242001","233-RS","2017/10/21 17:41:36","新北市新莊區環河路48-7號","121.436965","25.0098666666667","6500500","新莊區"
"242051","347-TH","2017/10/21 20:49:48","新北市新莊區民安西路191號","121.426101666667","25.0154966666667","6500500","新莊區"
"242056","349-TH","2017/10/21 20:49:39","新北市新莊區中山路一段458號","121.442501666667","25.0570033333333","6500500","新莊區"
"242017","350-TH","2017/10/21 20:49:37","新北市新莊區復興路一段85號","121.448483333333","25.04274","6500500","新莊區"
"221036","130-UY","2017/10/21 20:49:53","新北市汐止區新台五路二段5號","121.662001666667","25.0659266666667","6501100","汐止區"
"221012","276-VK","2017/10/21 13:25:54","新北市汐止區汐萬路一段256巷3號","121.653495","25.07464","6501100","汐止區"
"221032","280-BY","2017/10/21 20:49:45","新北市汐止區大同路二段269號","121.652276666667","25.0666483333333","6501100","汐止區"
"221027","281-BY","2017/10/21 20:49:39","新北市汐止區汐萬路一段39-3號","121.65498","25.06943","6501100","汐止區"
"221029","298-VK","2017/10/21 20:49:42","新北市汐止區樟樹二路314號","121.641436666667","25.0698816666667","6501100","汐止區"
"221031","353-TW","2017/10/21 20:49:36","新北市汐止區康寧街753巷2弄22號","121.640253333333","25.07428","6501100","汐止區"
"221035","622-UM","2017/10/21 20:49:46","新北市汐止區汐萬路一段310號","121.650453333333","25.0749316666667","6501100","汐止區"
"221033","647-BX","2017/10/21 20:49:33","新北市汐止區合順街18巷8弄5號","121.62031","25.0419033333333","6501100","汐止區"
"221002","707-TV","2017/10/21 20:49:40","新北市汐止區福德二路163號","121.631056666667","25.0652383333333","6501100","汐止區"
"221018","753-BX","2017/10/21 20:49:35","新北市汐止區大同路二段599號","121.664","25.0705433333333","6501100","汐止區"
"220083","286-VK","2017/10/21 20:49:46","新北市板橋區僑中二街116巷31號","121.444351666667","25.00658","6500100","板橋區"
"220062","303-R5","2017/10/21 20:49:35","新北市板橋區民生路二段161巷1號","121.469996666667","25.02007","6500100","板橋區"
"242034","280-VK","2017/10/21 20:49:41","新北市新莊區中正路224號","121.448561666667","25.0353266666667","6500500","新莊區"
"220035","560-BX","2017/10/21 20:49:53","新北市板橋區金華街77號","121.457688333333","25.0207566666667","6500100","板橋區"
"220067","829-TW","2017/10/21 20:49:41","新北市八里區中山路三段171號","121.384473333333","25.1411416666667","6500100","板橋區"
"220070","AAC-253","2017/10/21 20:47:48","新北市八里區中山路三段323號","121.377721666667","25.141435","6500100","板橋區"
