"lineid","car","time","location","longitude","latitude","cityid","cityname"
"244010","656-BX","2017/10/21 11:34:22","新北市林口區粉寮路二段160巷40號","121.405506666667","25.0911266666667","6501700","林口區"
"243001","297-R6","2017/10/21 21:14:40","新北市泰山區黎明路25號","121.421856666667","25.060905","6501600","泰山區"
"231061","047-UY","2017/10/21 21:19:42","新北市新店區永平街4號","121.517523333333","24.983475","6500600","新店區"
"231048","108-UY","2017/10/21 21:19:40","新北市新店區中央路91號","121.532016666667","24.9762283333333","6500600","新店區"
"231007","189-VK","2017/10/21 09:14:40","新北市新店區新潭路三段215巷25號","121.50818","24.90409","6500600","新店區"
"231050","KEA-2219","2017/10/21 21:19:31","新北市新店區中華路117巷6弄2號","121.537823333333","24.968785","6500600","新店區"
"231054","AAD-862","2017/10/21 21:19:33","新北市新店區大新街7巷1號","121.543273333333","24.9686416666667","6500600","新店區"
"231040","619-UM","2017/10/21 21:19:31","新北市新店區北新路一段231號","121.540626666667","24.965605","6500600","新店區"
"231063","645-TV","2017/10/21 21:19:34","新北市新店區玫瑰路57巷48號","121.497523333333","24.946405","6500600","新店區"
"231051","719-UY","2017/10/21 21:19:50","新北市新店區中正路618巷7弄4號","121.534728333333","24.9892283333333","6500600","新店區"
"241011","013-R5","2017/10/21 21:19:32","新北市三重區龍濱路197號","121.501833333333","25.0713883333333","6500200","三重區"
"241028","022-UY","2017/10/21 21:19:45","新北市三重區正義南路169號","121.498955","25.0575133333333","6500200","三重區"
"241008","059-VK","2017/10/21 21:19:51","新北市三重區文化北路132巷49號","121.497393333333","25.0665433333333","6500200","三重區"
"241009","060-VK","2017/10/21 21:19:32","新北市三重區新北大道一段190-1號","121.4825","25.0616783333333","6500200","三重區"
"241031","061-VK","2017/10/21 21:19:43","新北市三重區五谷王南街46巷37號","121.475738333333","25.0455216666667","6500200","三重區"
"241017","063-VK","2017/10/21 21:19:38","新北市三重區中正北路25巷2號","121.493193333333","25.062645","6500200","三重區"
"241026","066-VK","2017/10/21 21:19:35","新北市三重區大同南路220號","121.496741666667","25.0561933333333","6500200","三重區"
"241002","090-VK","2017/10/21 21:19:31","新北市三重區五華街14號","121.494893333333","25.0802416666667","6500200","三重區"
"241003","091-VK","2017/10/21 21:19:42","新北市三重區仁義街319號","121.495341666667","25.08427","6500200","三重區"
"241005","262-UM","2017/10/21 21:19:39","新北市三重區仁華街118巷13號","121.486065","25.0833166666667","6500200","三重區"
"241016","265-UM","2017/10/21 21:19:44","新北市三重區自強路一段147-1號","121.493898333333","25.066785","6500200","三重區"
"241018","268-UM","2017/10/21 21:19:46","新北市三重區忠孝路二段70號","121.484371666667","25.07008","6500200","三重區"
"241032","269-UM","2017/10/21 21:19:36","新北市三重區光復路二段146-2號","121.471943333333","25.0598166666667","6500200","三重區"
"241013","270-UM","2017/10/21 21:19:47","新北市三重區仁愛街66號","121.4958","25.07317","6500200","三重區"
"241025","271-UM","2017/10/21 21:19:42","新北市三重區中正北路208巷10弄4號","121.482353333333","25.0669066666667","6500200","三重區"
"241007","398-BY","2017/10/21 21:19:35","新北市三重區忠孝路一段68號","121.490296666667","25.072045","6500200","三重區"
"241024","KEA-2210","2017/10/21 21:19:44","新北市三重區中正北路145巷8弄2號","121.484066666667","25.0677583333333","6500200","三重區"
"241004","475-VK","2017/10/21 21:19:43","新北市三重區碧華街363號","121.492291666667","25.0851366666667","6500200","三重區"
"241019","478-VK","2017/10/21 21:19:36","新北市三重區自強路二段3號","121.490316666667","25.06888","6500200","三重區"
"241030","480-VK","2017/10/21 21:19:33","新北市三重區五谷王北街86號","121.47651","25.05399","6500200","三重區"
"241014","543-UM","2017/10/21 21:19:49","新北市三重區介壽路39巷13號","121.499265","25.0698616666667","6500200","三重區"
"241023","545-UM","2017/10/21 21:19:47","新北市三重區中正北路176巷27號","121.482638333333","25.06597","6500200","三重區"
"241001","547-UM","2017/10/21 21:19:51","新北市三重區福隆路56號","121.492728333333","25.078655","6500200","三重區"
"241006","AAD-863","2017/10/21 21:19:31","新北市三重區重陽路二段67號","121.487735","25.0638633333333","6500200","三重區"
"241012","941-UM","2017/10/21 21:19:34","新北市三重區龍門路284號","121.50199","25.0741966666667","6500200","三重區"
"241033","AAC-255","2017/10/21 21:19:50","新北市三重區光復路二段96號","121.472015","25.0581","6500200","三重區"
"235026","800-TS","2017/10/21 20:14:57","新北市中和區員山路36巷16-3號","121.48474","24.9918283333333","6500300","中和區"
"247022","893-R6","2017/10/21 21:19:51","新北市蘆洲區三民路251號","121.46849","25.0893566666667","6501400","蘆洲區"
"247012","546-UM","2017/10/21 21:19:48","新北市蘆洲區集賢路224巷66號","121.480731666667","25.0881266666667","6501400","蘆洲區"
"247010","339-TH","2017/10/21 21:19:35","新北市蘆洲區鷺江街16-2號","121.478848333333","25.0825183333333","6501400","蘆洲區"
"247002","337-TH","2017/10/21 21:19:35","新北市蘆洲區永樂街37號","121.457861666667","25.088215","6501400","蘆洲區"
"247004","336-TH","2017/10/21 21:19:31","新北市蘆洲區永安南路二段324號","121.456933333333","25.0827433333333","6501400","蘆洲區"
"247020","335-TH","2017/10/21 21:19:40","新北市蘆洲區民族路422巷90號","121.473306666667","25.0939583333333","6501400","蘆洲區"
"247006","056-VK","2017/10/21 21:19:34","新北市蘆洲區長安街55號","121.46311","25.0797383333333","6501400","蘆洲區"
"247008","053-VK","2017/10/21 21:19:34","新北市蘆洲區中山一路103巷25號","121.475898333333","25.0809233333333","6501400","蘆洲區"
"247014","007-UY","2017/10/21 21:19:43","新北市蘆洲區保和街50-6號","121.469828333333","25.08631","6501400","蘆洲區"
"247024","002-UY","2017/10/21 21:19:33","新北市蘆洲區光明路96號","121.463128333333","25.0879766666667","6501400","蘆洲區"
"247018","001-UY","2017/10/21 21:19:43","新北市蘆洲區復興路105巷9號","121.476368333333","25.0882933333333","6501400","蘆洲區"
"251009","008-UM","2017/10/21 21:19:41","新北市淡水區民族路33-1號","121.463056666667","25.135705","6501000","淡水區"
"251004","009-UM","2017/10/21 21:19:41","新北市淡水區民族路33號","121.462255","25.1358233333333","6501000","淡水區"
"251005","010-UM","2017/10/21 21:19:37","新北市淡水區仁愛街15-4號","121.446481666667","25.1704716666667","6501000","淡水區"
"251014","180-VK","2017/10/21 21:19:28","新北市淡水區溪口28號","121.454493333333","25.2362333333333","6501000","淡水區"
"251008","181-VK","2017/10/21 21:19:33","新北市淡水區水源街二段242號","121.461378333333","25.1762483333333","6501000","淡水區"
"251010","413-VK","2017/10/21 21:19:32","新北市淡水區淡海路69巷26號","121.421925","25.1809066666667","6501000","淡水區"
"251012","441-VK","2017/10/21 21:19:40","新北市淡水區石頭埔8號","121.452616666667","25.2345583333333","6501000","淡水區"
"251016","442-VK","2017/10/21 21:19:37","新北市淡水區淡金路三段193號","121.448778333333","25.204645","6501000","淡水區"
"251001","559-UM","2017/10/21 21:19:43","新北市淡水區中山北路二段213號","121.444246666667","25.18572","6501000","淡水區"
"251011","650-BX","2017/10/21 21:19:36","新北市淡水區新民街120巷29號","121.438863333333","25.1787983333333","6501000","淡水區"
"251002","672-BX","2017/10/21 21:15:04","新北市淡水區學府路172巷21號","121.4483","25.1748783333333","6501000","淡水區"
"251003","766-UM","2017/10/21 21:19:31","新北市淡水區崁頂15-5號","121.439111666667","25.185735","6501000","淡水區"
"242029","986-R7","2017/10/21 21:19:33","新北市新莊區中華路二段95號","121.452708333333","25.0495","6500500","新莊區"
"242048","441-UM","2017/10/21 21:19:51","新北市八里區下罟子17號","121.380023333333","25.1432466666667","6500500","新莊區"
"242001","233-RS","2017/10/21 17:41:36","新北市新莊區環河路48-7號","121.436965","25.0098666666667","6500500","新莊區"
"221012","276-VK","2017/10/21 13:25:54","新北市汐止區汐萬路一段256巷3號","121.653495","25.07464","6501100","汐止區"
"220070","AAC-253","2017/10/21 21:19:48","新北市八里區下罟子5-6號","121.387503333333","25.142305","6500100","板橋區"
