"lineid","car","time","location","longitude","latitude","cityid","cityname"
"244010","656-BX","2017/10/21 11:34:22","新北市林口區粉寮路二段160巷40號","121.405506666667","25.0911266666667","6501700","林口區"
"243001","297-R6","2017/10/21 21:14:40","新北市泰山區黎明路25號","121.421856666667","25.060905","6501600","泰山區"
"231007","189-VK","2017/10/21 09:14:40","新北市新店區新潭路三段215巷25號","121.50818","24.90409","6500600","新店區"
"241035","743-BX","2017/10/21 22:49:35","新北市三重區重新路三段49號","121.492953333333","25.0613716666667","6500200","三重區"
"235026","800-TS","2017/10/21 20:14:57","新北市中和區員山路36巷16-3號","121.48474","24.9918283333333","6500300","中和區"
"242001","233-RS","2017/10/21 17:41:36","新北市新莊區環河路48-7號","121.436965","25.0098666666667","6500500","新莊區"
"221012","276-VK","2017/10/21 13:25:54","新北市汐止區汐萬路一段256巷3號","121.653495","25.07464","6501100","汐止區"
