"lineid","car","time","location","longitude","latitude","cityid","cityname"
"234044","148-BY","2017/08/01 13:09:09","新北市永和區永元路25號","121.522086666667","25.0006516666667","6500400","永和區"
"234012","149-BY","2017/08/01 13:09:09","新北市永和區保福路二段56號","121.510985","25.0123616666667","6500400","永和區"
"234005","207-UY","2017/08/01 13:09:02","新北市永和區中山路一段215-1號","121.508306666667","25.0079583333333","6500400","永和區"
"234078","298-R6","2017/08/01 13:09:11","新北市永和區永貞路39巷6弄2號","121.521748333333","25.006515","6500400","永和區"
"234036","336-UY","2017/08/01 13:09:02","新北市永和區民樂街51號","121.52749","24.9987416666667","6500400","永和區"
"234062","337-UY","2017/08/01 13:09:00","新北市永和區秀朗路二段52號","121.522026666667","25.0019833333333","6500400","永和區"
"234084","338-UY","2017/08/01 13:09:05","新北市永和區永貞路45號","121.519731666667","25.0045783333333","6500400","永和區"
"234068","552-UM","2017/08/01 13:09:09","新北市永和區豫溪街96號","121.518741666667","25.0100133333333","6500400","永和區"
"234052","553-UM","2017/08/01 13:08:56","新北市永和區中興街133巷12號","121.518545","25.0126916666667","6500400","永和區"
"234015","745-BX","2017/08/01 13:09:12","新北市永和區文化路90巷19號","121.513611666667","25.0163683333333","6500400","永和區"
"234028","746-BX","2017/08/01 13:09:09","新北市永和區厚德街100號","121.523325","24.998965","6500400","永和區"
"234060","AAD-866","2017/08/01 13:09:08","新北市永和區安樂路451號","121.514321666667","25.004935","6500400","永和區"
"234040","862-TW","2017/08/01 13:08:56","新北市永和區保平路93巷7號","121.511833333333","25.00658","6500400","永和區"
"234048","863-TW","2017/08/01 13:09:14","新北市永和區文化路135巷32弄1號","121.510833333333","25.0140416666667","6500400","永和區"
"234025","9371-KE","2017/08/01 13:09:10","新北市永和區福和路352號","121.514756666667","25.007405","6500400","永和區"
"234010","9373-KE","2017/08/01 13:09:11","新北市永和區文化路126巷1號","121.512985","25.0155266666667","6500400","永和區"
"248017","261-SL","2017/08/01 13:09:05","新北市五股區中興路三段198號","121.44159","25.0819583333333","6501500","五股區"
"234022","9380-KE","2017/08/01 13:09:09","新北市永和區竹林路124巷41號","121.51825","25.0111883333333","6500400","永和區"
"234076","969-R7","2017/08/01 13:08:59","新北市永和區智光街107巷8號","121.515678333333","24.9960333333333","6500400","永和區"
"234072","AAC-211","2017/08/01 13:09:02","新北市永和區竹林路200-1號","121.520485","25.00896","6500400","永和區"
"234066","AAC-212","2017/08/01 13:09:03","新北市永和區永和路一段65巷2號","121.51282","25.0071516666667","6500400","永和區"
"234001","AAC-295","2017/08/01 13:09:10","新北市永和區和平街25號","121.513323333333","25.0099166666667","6500400","永和區"
"244002","248-BX","2017/08/01 13:09:01","新北市林口區文化三路二段302號","121.377491666667","25.0839783333333","6501700","林口區"
"231002","002-UM","2017/08/01 13:08:58","新北市新店區安華路28-1號","121.519753333333","24.9608466666667","6500600","新店區"
"231025","0291-UT","2017/08/01 13:09:12","新北市新店區安華路1-1號","121.519231666667","24.9605616666667","6500600","新店區"
"231028","046-UY","2017/08/01 13:09:07","新北市新店區安華路28-1號","121.519603333333","24.9607966666667","6500600","新店區"
"231030","047-UY","2017/08/01 13:08:59","新北市新店區安華路28-1號","121.519248333333","24.960885","6500600","新店區"
"231029","106-UY","2017/08/01 13:08:58","新北市新店區安華路28-1號","121.519741666667","24.9610183333333","6500600","新店區"
"231018","107-UY","2017/08/01 13:09:01","新北市新店區安華路28-1號","121.519491666667","24.9613033333333","6500600","新店區"
"231012","108-UY","2017/08/01 13:08:55","新北市新店區安華路28-1號","121.519335","24.9609083333333","6500600","新店區"
"231020","187-VK","2017/08/01 13:09:06","新北市新店區安華路28-1號","121.51958","24.9612566666667","6500600","新店區"
"231069","189-VK","2017/08/01 11:59:39","新北市新店區安華路28-1號","121.519621666667","24.9610833333333","6500600","新店區"
"231034","268-BY","2017/08/01 13:08:56","新北市新店區安華路28-1號","121.519343333333","24.9606","6500600","新店區"
"231010","278-BY","2017/08/01 13:05:01","新北市新店區安華路28-1號","121.520058333333","24.9611733333333","6500600","新店區"
"231015","AAD-862","2017/08/01 13:09:01","新北市新店區安華路28-1號","121.520063333333","24.9612166666667","6500600","新店區"
"231027","3712-VJ","2017/08/01 13:09:07","新北市新店區安華路28-1號","121.51921","24.9606016666667","6500600","新店區"
"231024","3713-VJ","2017/08/01 13:09:15","新北市新店區安華路1-1號","121.519238333333","24.9605516666667","6500600","新店區"
"231038","4715-K9","2017/08/01 13:09:05","新北市新店區安華路1-1號","121.519328333333","24.9605116666667","6500600","新店區"
"231036","512-UM","2017/08/01 13:09:13","新北市新店區安華路28-1號","121.519328333333","24.9613766666667","6500600","新店區"
"231023","513-UM","2017/08/01 13:08:59","新北市新店區安華路28-1號","121.519811666667","24.9611516666667","6500600","新店區"
"231035","515-UM","2017/08/01 13:09:06","新北市新店區安華路28-1號","121.519583333333","24.9612183333333","6500600","新店區"
"231006","617-UM","2017/08/01 13:09:05","新北市新店區安華路28-1號","121.51946","24.96095","6500600","新店區"
"231001","619-UM","2017/08/01 13:09:05","新北市新店區安華路28-1號","121.519536666667","24.960915","6500600","新店區"
"231003","641-BX","2017/08/01 13:09:12","新北市新店區安華路28-1號","121.519781666667","24.960915","6500600","新店區"
"231013","719-UM","2017/08/01 13:09:02","新北市新店區安華路28-1號","121.519606666667","24.9612366666667","6500600","新店區"
"231032","720-UM","2017/08/01 13:09:13","新北市新店區安華路28-1號","121.519206666667","24.9611766666667","6500600","新店區"
"231005","897-TW","2017/08/01 13:09:03","新北市新店區安華路28-1號","121.51958","24.960795","6500600","新店區"
"231004","899-TW","2017/08/01 13:09:11","新北市新店區安華路28-1號","121.519111666667","24.960875","6500600","新店區"
"231037","AKT-0513","2017/08/01 13:09:06","新北市新店區安忠路205巷8號","121.509596666667","24.9551216666667","6500600","新店區"
"235030","003-UY","2017/08/01 13:08:56","新北市中和區廣福路93號","121.501856666667","25.00084","6500300","中和區"
"235028","005-UY","2017/08/01 13:09:03","新北市中和區錦和路350-1號","121.490518333333","24.99357","6500300","中和區"
"235027","006-UY","2017/08/01 13:09:00","新北市中和區員山路36巷16-3號","121.485105","24.99138","6500300","中和區"
"235020","096-UM","2017/08/01 13:09:02","新北市中和區員山路36巷16號","121.484473333333","24.9915483333333","6500300","中和區"
"235029","098-UM","2017/08/01 13:09:14","新北市中和區福祥路121號","121.49879","25.0067333333333","6500300","中和區"
"235004","150-BY","2017/08/01 13:09:13","新北市中和區和城路一段271巷1號","121.485446666667","24.9917516666667","6500300","中和區"
"235022","151-BY","2017/08/01 13:09:13","新北市中和區圓通路367巷33弄59號","121.495781666667","24.9860366666667","6500300","中和區"
"235019","183-VK","2017/08/01 13:09:11","新北市中和區連城路469巷79弄2號","121.483516666667","24.9939483333333","6500300","中和區"
"235002","185-VK","2017/08/01 13:09:09","新北市中和區大仁街40號","121.518078333333","24.9939016666667","6500300","中和區"
"235031","255-BX","2017/08/01 13:09:10","新北市中和區新生街177巷2號","121.48401","25.00062","6500300","中和區"
"235036","301-VK","2017/08/01 13:08:59","新北市中和區員山路36巷13號","121.483945","24.9912566666667","6500300","中和區"
"235015","376-QA","2017/08/01 13:09:07","新北市中和區捷運路61巷9號","121.509095","24.9893383333333","6500300","中和區"
"235032","377-QA","2017/08/01 13:09:13","新北市中和區員山路36巷16-3號","121.485266666667","24.9910883333333","6500300","中和區"
"235025","378-QA","2017/08/01 12:45:59","新北市中和區和城路一段271巷1號","121.4854","24.9917333333333","6500300","中和區"
"235014","4979-A6","2017/08/01 13:08:13","新北市中和區員山路36巷16-2號","121.485276666667","24.9917766666667","6500300","中和區"
"235006","551-UM","2017/08/01 13:09:11","新北市中和區景平路293號","121.507125","24.9931733333333","6500300","中和區"
"235018","640-BX","2017/08/01 13:08:54","新北市中和區中正路637巷60弄61號","121.485673333333","24.99323","6500300","中和區"
"235011","732-UM","2017/08/01 13:09:02","新北市中和區建一路179號","121.488438333333","24.9985816666667","6500300","中和區"
"235035","783-BX","2017/08/01 13:09:14","新北市中和區板南路500號","121.484888333333","25.0079783333333","6500300","中和區"
"235026","800-TS","2017/08/01 13:09:10","新北市中和區橋和路150號","121.493861666667","25.0061083333333","6500300","中和區"
"235005","802-TS","2017/08/01 13:09:08","新北市中和區錦和路350-1號","121.490496666667","24.9935466666667","6500300","中和區"
"235016","805-TS","2017/08/01 13:09:09","新北市中和區錦和路350-1號","121.490283333333","24.9935483333333","6500300","中和區"
"235001","AAC-213","2017/08/01 13:09:12","新北市中和區中正路277-3號","121.49535","24.9935616666667","6500300","中和區"
"235023","AAC-215","2017/08/01 13:08:56","新北市中和區和城路一段271巷1號","121.48543","24.9915883333333","6500300","中和區"
"228004","212-TW","2017/08/01 13:09:05","新北市貢寮區吉林里內寮街65-5號","121.892188333333","24.9784966666667","6502600","貢寮區"
"228005","828-UM","2017/08/01 13:09:01","新北市貢寮區雙玉里田寮洋街21號","121.926358333333","25.024925","6502600","貢寮區"
"208004","AAC-292","2017/08/01 13:09:17","新北市金山區中山路192號","121.637881666667","25.2215216666667","6502700","金山區"
"207002","749-BX","2017/08/01 13:09:14","新北市萬里區崁腳里內崁路10-1號","121.641611666667","25.159475","6502800","萬里區"
"252005","073-UM","2017/08/01 13:08:18","新北市三芝區八賢里八連溪18號","121.510848333333","25.2421316666667","6502100","三芝區"
"207001","662-BX","2017/08/01 13:09:11","新北市萬里區萬里里獅頭路22-1號","121.692998333333","25.1782066666667","6502800","萬里區"
"236006","498-BY","2017/08/01 13:09:05","新北市土城區亞洲路60號","121.435358333333","24.9735466666667","6501300","土城區"
"238009","308-TH","2017/08/01 13:09:08","新北市樹林區八德街212巷2號","121.417646666667","24.9731266666667","6500700","樹林區"
"221032","280-BY","2017/08/01 13:09:01","新北市汐止區龍安路28巷14號","121.654723333333","25.0642","6501100","汐止區"
"221002","753-BX","2017/08/01 13:09:12","新北市汐止區福德一路342巷1弄8號","121.629051666667","25.0631683333333","6501100","汐止區"
