"lineid","car","time","location","longitude","latitude","cityid","cityname"
"234044","148-BY","2017/08/01 13:19:10","新北市永和區秀朗路二段148巷12弄1號","121.525248333333","25.0005383333333","6500400","永和區"
"234012","149-BY","2017/08/01 13:19:09","新北市永和區信義路34號","121.513781666667","25.0123816666667","6500400","永和區"
"234005","207-UY","2017/08/01 13:19:02","新北市永和區保平路268巷51弄12號","121.506303333333","25.0064183333333","6500400","永和區"
"234078","298-R6","2017/08/01 13:19:00","新北市永和區福和路7巷7號","121.525355","25.007835","6500400","永和區"
"234036","336-UY","2017/08/01 13:19:02","新北市永和區成功路二段1巷2號","121.527078333333","25.0013916666667","6500400","永和區"
"234062","337-UY","2017/08/01 13:19:00","新北市永和區得和路243巷28弄21號","121.521428333333","25.00104","6500400","永和區"
"234084","338-UY","2017/08/01 13:19:05","新北市永和區永利路42號","121.51873","25.0054783333333","6500400","永和區"
"234068","552-UM","2017/08/01 13:19:09","新北市永和區國光路28號","121.518455","25.00905","6500400","永和區"
"234052","553-UM","2017/08/01 13:19:17","新北市永和區中興街12號","121.51592","25.0119116666667","6500400","永和區"
"234015","745-BX","2017/08/01 13:19:03","新北市永和區環河西路一段95巷7號","121.511918333333","25.017485","6500400","永和區"
"234028","746-BX","2017/08/01 13:19:09","新北市永和區民生路20號","121.522576666667","24.9973683333333","6500400","永和區"
"234060","AAD-866","2017/08/01 13:19:07","新北市永和區秀朗路一段175號","121.516988333333","25.0036916666667","6500400","永和區"
"234040","862-TW","2017/08/01 13:19:15","新北市永和區保平路151巷2弄6-2號","121.509655","25.0053416666667","6500400","永和區"
"234048","863-TW","2017/08/01 13:19:14","新北市永和區保福路二段88巷29號","121.511946666667","25.0137333333333","6500400","永和區"
"234025","9371-KE","2017/08/01 13:18:56","新北市永和區豫溪街52巷20號","121.515686666667","25.0090516666667","6500400","永和區"
"234010","9373-KE","2017/08/01 13:19:11","新北市永和區忠孝街40-1號","121.514466666667","25.0157133333333","6500400","永和區"
"248017","261-SL","2017/08/01 13:19:05","新北市五股區御史路195-5號","121.435793333333","25.0978866666667","6501500","五股區"
"234022","9380-KE","2017/08/01 13:19:09","新北市永和區竹林路91巷21弄11號","121.520896666667","25.0124683333333","6500400","永和區"
"234076","969-R7","2017/08/01 13:18:59","新北市永和區民有街24巷1弄7號","121.517048333333","24.99623","6500400","永和區"
"234072","AAC-211","2017/08/01 13:19:02","新北市永和區竹林路30號","121.517053333333","25.0147316666667","6500400","永和區"
"234066","AAC-212","2017/08/01 13:19:03","新北市永和區保平路50巷8弄1號","121.510978333333","25.0075366666667","6500400","永和區"
"234001","AAC-295","2017/08/01 13:19:10","新北市永和區保福路一段47巷27號","121.511828333333","25.0090333333333","6500400","永和區"
"244002","248-BX","2017/08/01 13:19:01","新北市林口區頂福20-18號","121.355481666667","25.0929016666667","6501700","林口區"
"231002","002-UM","2017/08/01 13:18:58","新北市新店區安華路28-1號","121.519685","24.9608766666667","6500600","新店區"
"231025","0291-UT","2017/08/01 13:19:12","新北市新店區安華路28-1號","121.519798333333","24.9607816666667","6500600","新店區"
"231028","046-UY","2017/08/01 13:19:07","新北市新店區安華路28-1號","121.519618333333","24.961","6500600","新店區"
"231030","047-UY","2017/08/01 13:18:59","新北市新店區安忠路102-1號","121.510163333333","24.955785","6500600","新店區"
"231029","106-UY","2017/08/01 13:18:58","新北市新店區安華路28-1號","121.519911666667","24.9609166666667","6500600","新店區"
"231018","107-UY","2017/08/01 13:19:01","新北市新店區安康路一段89號","121.529161666667","24.9614866666667","6500600","新店區"
"231012","108-UY","2017/08/01 13:19:15","新北市新店區安康路一段50號","121.530308333333","24.9610983333333","6500600","新店區"
"231020","187-VK","2017/08/01 13:19:06","新北市新店區安康路一段128號","121.5268","24.9627683333333","6500600","新店區"
"231069","189-VK","2017/08/01 11:59:39","新北市新店區安華路28-1號","121.519621666667","24.9610833333333","6500600","新店區"
"231026","256-BX","2017/08/01 13:19:08","新北市新店區安華路28-1號","121.519788333333","24.9611416666667","6500600","新店區"
"231034","268-BY","2017/08/01 13:19:16","新北市新店區安華路28-1號","121.519368333333","24.9606416666667","6500600","新店區"
"231010","278-BY","2017/08/01 13:19:01","新北市新店區安康路一段164號","121.52608","24.9629816666667","6500600","新店區"
"231015","AAD-862","2017/08/01 13:19:01","新北市新店區安華路28-1號","121.519953333333","24.9614633333333","6500600","新店區"
"231027","3712-VJ","2017/08/01 13:19:07","新北市新店區環河路15號","121.537675","24.96127","6500600","新店區"
"231024","3713-VJ","2017/08/01 13:18:55","新北市新店區安康路一段76號","121.528251666667","24.961905","6500600","新店區"
"231038","4715-K9","2017/08/01 13:19:05","新北市新店區安華路1-1號","121.519481666667","24.9605266666667","6500600","新店區"
"231036","512-UM","2017/08/01 13:19:13","新北市新店區安忠路205巷8號","121.510125","24.955465","6500600","新店區"
"231023","513-UM","2017/08/01 13:18:59","新北市新店區秀山路70號","121.531165","24.9609483333333","6500600","新店區"
"231035","515-UM","2017/08/01 13:19:06","新北市新店區安華路28-1號","121.519596666667","24.9613866666667","6500600","新店區"
"231006","617-UM","2017/08/01 13:19:05","新北市新店區安華路28-1號","121.519425","24.9609266666667","6500600","新店區"
"231001","619-UM","2017/08/01 13:19:05","新北市新店區安華路28-1號","121.519491666667","24.960895","6500600","新店區"
"231003","641-BX","2017/08/01 13:19:12","新北市新店區北新路一段337號","121.54189","24.968685","6500600","新店區"
"231013","719-UM","2017/08/01 13:19:02","新北市新店區安康路一段215號","121.52586","24.9630016666667","6500600","新店區"
"231032","720-UM","2017/08/01 13:19:13","新北市新店區安華路16號","121.516861666667","24.9580633333333","6500600","新店區"
"231005","897-TW","2017/08/01 13:19:03","新北市新店區安華路28-1號","121.519503333333","24.9607183333333","6500600","新店區"
"231004","899-TW","2017/08/01 13:19:11","新北市新店區安華路28-1號","121.519221666667","24.96085","6500600","新店區"
"231037","AKT-0513","2017/08/01 13:19:06","新北市新店區薏仁坑路57號","121.49095","24.9642966666667","6500600","新店區"
"235030","003-UY","2017/08/01 13:19:15","新北市中和區中山路二段64巷1號","121.50377","25.0048333333333","6500300","中和區"
"235028","005-UY","2017/08/01 13:19:03","新北市中和區中正路166號","121.498516666667","24.9937683333333","6500300","中和區"
"235027","006-UY","2017/08/01 13:19:00","新北市中和區員山路36巷16-3號","121.484941666667","24.9914333333333","6500300","中和區"
"235020","096-UM","2017/08/01 13:19:02","新北市中和區員山路36巷16-3號","121.484625","24.99145","6500300","中和區"
"235003","097-UM","2017/08/01 13:19:12","新北市中和區景安路128號","121.505098333333","24.994545","6500300","中和區"
"235029","098-UM","2017/08/01 13:19:02","新北市中和區莊敬路49巷20弄20號","121.502645","25.0057933333333","6500300","中和區"
"235004","150-BY","2017/08/01 13:19:13","新北市中和區景安路130號","121.505131666667","24.9944683333333","6500300","中和區"
"235022","151-BY","2017/08/01 13:19:13","新北市中和區圓通路367巷62-8號","121.493215","24.9829383333333","6500300","中和區"
"235019","183-VK","2017/08/01 13:19:11","新北市中和區民樂路80巷12號","121.483951666667","25.0009933333333","6500300","中和區"
"235002","185-VK","2017/08/01 13:19:09","新北市中和區大智街57號","121.52116","24.9921616666667","6500300","中和區"
"235031","255-BX","2017/08/01 13:19:10","新北市中和區員山路148巷42-4號","121.48244","24.9970116666667","6500300","中和區"
"235036","301-VK","2017/08/01 13:18:59","新北市中和區中正路637巷52弄1號","121.485525","24.9935533333333","6500300","中和區"
"235007","352-BY","2017/08/01 13:19:06","新北市中和區中正路271-2號","121.495726666667","24.9935516666667","6500300","中和區"
"235015","376-QA","2017/08/01 13:18:47","新北市中和區信義街115號","121.512181666667","24.9868966666667","6500300","中和區"
"235032","377-QA","2017/08/01 13:19:13","新北市中和區員山路36巷16-3號","121.485183333333","24.9910833333333","6500300","中和區"
"235025","378-QA","2017/08/01 13:19:12","新北市中和區民享街482號","121.469351666667","24.9924183333333","6500300","中和區"
"235014","4979-A6","2017/08/01 13:19:13","新北市中和區捷運路8-5號","121.509613333333","24.989605","6500300","中和區"
"235033","4980-A6","2017/08/01 13:18:58","新北市中和區連城路145號","121.495758333333","24.9985533333333","6500300","中和區"
"235006","551-UM","2017/08/01 13:19:11","新北市中和區大仁街20巷25弄21號","121.518761666667","24.9936216666667","6500300","中和區"
"235034","558-UM","2017/08/01 13:19:04","新北市中和區中正路571巷2弄11號","121.486158333333","24.9936866666667","6500300","中和區"
"235009","565-BX","2017/08/01 13:19:09","新北市中和區中興街130號","121.499833333333","24.9925633333333","6500300","中和區"
"235018","640-BX","2017/08/01 13:19:15","新北市中和區國光街6巷1號","121.471865","25.0001966666667","6500300","中和區"
"235011","732-UM","2017/08/01 13:19:02","新北市中和區圓通路162巷13號","121.497023333333","24.9947983333333","6500300","中和區"
"235010","733-UM","2017/08/01 13:18:58","新北市中和區員山路36巷13號","121.484053333333","24.9908583333333","6500300","中和區"
"235035","783-BX","2017/08/01 13:19:14","新北市中和區永和路460號","121.483838333333","25.0119583333333","6500300","中和區"
"235026","800-TS","2017/08/01 13:19:11","新北市中和區中山路二段312巷45弄47號","121.495025","25.0051216666667","6500300","中和區"
"235021","801-TS","2017/08/01 13:19:01","新北市中和區員山路36巷16-3號","121.484851666667","24.9917516666667","6500300","中和區"
"235005","802-TS","2017/08/01 13:18:48","新北市中和區景安路26號","121.507431666667","24.9985516666667","6500300","中和區"
"235016","805-TS","2017/08/01 13:19:09","新北市中和區興南路一段164號","121.507978333333","24.9866416666667","6500300","中和區"
"235017","900-TW","2017/08/01 13:19:14","新北市中和區員山路36巷16-2號","121.48511","24.9918066666667","6500300","中和區"
"235001","AAC-213","2017/08/01 13:19:12","新北市中和區景平路155號","121.513691666667","24.9921383333333","6500300","中和區"
"235023","AAC-215","2017/08/01 13:19:16","新北市中和區員山路36巷16-2號","121.48529","24.99161","6500300","中和區"
"228004","212-TW","2017/08/01 13:19:05","新北市貢寮區吉林里內寮街35號","121.899658333333","24.9806883333333","6502600","貢寮區"
"228005","828-UM","2017/08/01 13:19:01","新北市貢寮區美豐里丹裡街18-2號","121.912616666667","25.0572383333333","6502600","貢寮區"
"208004","AAC-292","2017/08/01 13:18:57","新北市金山區南勢湖55號","121.614543333333","25.2145333333333","6502700","金山區"
"207002","749-BX","2017/08/01 13:18:54","新北市萬里區崁腳里崁腳路166號","121.64513","25.15609","6502800","萬里區"
"252005","073-UM","2017/08/01 13:18:38","新北市三芝區八賢里八連溪87號","121.520281666667","25.2292783333333","6502100","三芝區"
"207001","662-BX","2017/08/01 13:19:10","新北市萬里區龜吼里玉田路50號","121.681265","25.1940433333333","6502800","萬里區"
"236006","498-BY","2017/08/01 13:19:05","新北市土城區大安路138巷26號","121.43424","24.971435","6501300","土城區"
"238009","308-TH","2017/08/01 13:19:08","新北市樹林區東豐街49巷24號","121.41535","24.9745066666667","6500700","樹林區"
"221032","280-BY","2017/08/01 13:19:01","新北市汐止區水源路一段56號","121.657446666667","25.06554","6501100","汐止區"
"221002","753-BX","2017/08/01 13:19:12","新北市汐止區福德一路392巷37弄11號","121.626023333333","25.0619083333333","6501100","汐止區"
"220011","609-BX","2017/08/01 13:19:00","新北市板橋區民生路二段36-1號","121.472565","25.0166783333333","6500100","板橋區"
