"lineid","car","time","location","longitude","latitude","cityid","cityname"
"234044","148-BY","2017/08/01 14:09:09","新北市永和區得和路419號","121.525993333333","24.9991533333333","6500400","永和區"
"234012","149-BY","2017/08/01 14:09:09","新北市永和區保生路3號","121.506381666667","25.0074216666667","6500400","永和區"
"234005","207-UY","2017/08/01 14:09:02","新北市中和區光華街85號","121.50688","25.002625","6500400","永和區"
"234078","298-R6","2017/08/01 14:09:00","新北市永和區國中路148號","121.523025","25.0070433333333","6500400","永和區"
"234036","336-UY","2017/08/01 14:09:02","新北市永和區成功路一段93巷21弄2號","121.528428333333","25.0026716666667","6500400","永和區"
"234062","337-UY","2017/08/01 14:09:00","新北市永和區永利路152號","121.522505","25.0027533333333","6500400","永和區"
"234084","338-UY","2017/08/01 14:09:05","新北市永和區中正路618號","121.516991666667","25.007675","6500400","永和區"
"234068","552-UM","2017/08/01 14:09:09","新北市永和區永寧街97號","121.51857","25.0066783333333","6500400","永和區"
"234052","553-UM","2017/08/01 14:09:05","新北市永和區博愛街19巷1號","121.517423333333","25.015845","6500400","永和區"
"234015","745-BX","2017/08/01 14:09:16","新北市永和區仁愛路45號","121.51389","25.0133316666667","6500400","永和區"
"234028","746-BX","2017/08/01 14:09:09","新北市永和區民族街67巷4號","121.518618333333","24.9971933333333","6500400","永和區"
"234060","AAD-866","2017/08/01 14:09:09","新北市永和區得和路25號","121.515615","25.00041","6500400","永和區"
"234040","862-TW","2017/08/01 14:09:05","新北市永和區雙和街30號","121.508881666667","25.0026883333333","6500400","永和區"
"234048","863-TW","2017/08/01 14:08:55","新北市永和區新生路92巷3弄24號","121.506718333333","25.0148516666667","6500400","永和區"
"234025","9371-KE","2017/08/01 14:08:56","新北市永和區安樂路417號","121.514488333333","25.0039533333333","6500400","永和區"
"234010","9373-KE","2017/08/01 14:09:11","新北市永和區仁愛路352巷134號","121.499956666667","25.0087566666667","6500400","永和區"
"248017","261-SL","2017/08/01 14:09:05","新北市五股區民義路一段255-6號","121.426045","25.0914616666667","6501500","五股區"
"234022","9380-KE","2017/08/01 14:09:09","新北市永和區保安路77號","121.508633333333","25.0149233333333","6500400","永和區"
"234076","969-R7","2017/08/01 14:08:59","新北市永和區民族街81巷62號","121.520236666667","24.9965083333333","6500400","永和區"
"234072","AAC-211","2017/08/01 14:09:02","新北市永和區竹林路201巷14號","121.521621666667","25.0092733333333","6500400","永和區"
"234066","AAC-212","2017/08/01 14:09:03","新北市永和區永貞路313號","121.510076666667","25.0065533333333","6500400","永和區"
"234001","AAC-295","2017/08/01 14:09:10","新北市永和區永和路一段147-1號","121.514165","25.009085","6500400","永和區"
"231002","002-UM","2017/08/01 14:08:58","新北市新店區中正路500-1號","121.534061666667","24.9818816666667","6500600","新店區"
"231025","0291-UT","2017/08/01 14:09:12","新北市新店區中正路330號","121.536856666667","24.9749083333333","6500600","新店區"
"231028","046-UY","2017/08/01 14:09:07","新北市新店區安和路二段251號","121.51657","24.9775666666667","6500600","新店區"
"231030","047-UY","2017/08/01 14:08:59","新北市新店區安民街65巷21-2號","121.515123333333","24.9675433333333","6500600","新店區"
"231029","106-UY","2017/08/01 14:08:58","新北市新店區安康路二段208號","121.510135","24.959565","6500600","新店區"
"231018","107-UY","2017/08/01 14:09:01","新北市新店區中央五街48號","121.52802","24.9751116666667","6500600","新店區"
"231012","108-UY","2017/08/01 14:08:55","新北市新店區五峰路63巷8弄72號","121.548","24.9685033333333","6500600","新店區"
"231020","187-VK","2017/08/01 14:09:06","新北市新店區頂石厝路8號","121.540586666667","24.91965","6500600","新店區"
"231069","189-VK","2017/08/01 11:59:39","新北市新店區安華路28-1號","121.519621666667","24.9610833333333","6500600","新店區"
"231026","256-BX","2017/08/01 14:09:08","新北市新店區安華路3號","121.519286666667","24.9598616666667","6500600","新店區"
"231034","268-BY","2017/08/01 14:09:16","新北市新店區黎明路3號","121.503545","24.9524116666667","6500600","新店區"
"231015","AAD-862","2017/08/01 14:09:01","新北市新店區北宜路二段234號","121.559975","24.95442","6500600","新店區"
"231027","3712-VJ","2017/08/01 14:09:07","新北市新店區中興路一段24-2號","121.53848","24.9581183333333","6500600","新店區"
"231038","4715-K9","2017/08/01 14:09:05","新北市新店區溪洲路121號","121.531368333333","24.96268","6500600","新店區"
"231036","512-UM","2017/08/01 14:09:13","新北市新店區安祥路109巷11號","121.475891666667","24.959025","6500600","新店區"
"231023","513-UM","2017/08/01 14:08:59","新北市新店區北宜路一段47號","121.538398333333","24.9570033333333","6500600","新店區"
"231035","515-UM","2017/08/01 14:09:06","新北市新店區安和路一段52巷2-1號","121.517668333333","24.966275","6500600","新店區"
"231006","617-UM","2017/08/01 14:09:04","新北市新店區北宜路二段126號","121.556845","24.9538933333333","6500600","新店區"
"231001","619-UM","2017/08/01 14:09:05","新北市新店區中華路70巷2號","121.539095","24.96924","6500600","新店區"
"231003","641-BX","2017/08/01 14:09:12","新北市新店區中興路一段110-1號","121.54142","24.9624816666667","6500600","新店區"
"231013","719-UM","2017/08/01 14:09:02","新北市新店區北新路三段65巷34弄21號","121.540016666667","24.9816366666667","6500600","新店區"
"231032","720-UM","2017/08/01 14:09:13","新北市新店區莒光路87巷15號","121.525603333333","24.953325","6500600","新店區"
"231005","897-TW","2017/08/01 14:09:03","新北市新店區中興路三段327號","121.541993333333","24.9864583333333","6500600","新店區"
"231004","899-TW","2017/08/01 14:09:11","新北市新店區北新路二段156-1號","121.543018333333","24.97552","6500600","新店區"
"231037","AKT-0513","2017/08/01 14:09:06","新北市新店區安康路二段341巷13號","121.49704","24.9546583333333","6500600","新店區"
"235030","003-UY","2017/08/01 14:09:15","新北市中和區廣福路30號","121.504791666667","25.00245","6500300","中和區"
"235028","005-UY","2017/08/01 14:09:15","新北市中和區連城路28號","121.498651666667","25.00214","6500300","中和區"
"235027","006-UY","2017/08/01 14:09:00","新北市中和區連城路249巷24號","121.49403","24.9959866666667","6500300","中和區"
"235020","096-UM","2017/08/01 14:09:02","新北市中和區新民街6號","121.48246","25.0056883333333","6500300","中和區"
"235003","097-UM","2017/08/01 14:09:12","新北市中和區景平路3號","121.523928333333","24.990255","6500300","中和區"
"235029","098-UM","2017/08/01 14:09:02","新北市中和區中山路二段2巷3弄1號","121.50489","25.00611","6500300","中和區"
"235004","150-BY","2017/08/01 14:09:13","新北市中和區保健路44巷1號","121.509591666667","24.99721","6500300","中和區"
"235022","151-BY","2017/08/01 14:09:13","新北市中和區員山路75號","121.480643333333","24.9941616666667","6500300","中和區"
"235019","183-VK","2017/08/01 14:05:13","新北市中和區民德路8巷8號","121.468541666667","25.00312","6500300","中和區"
"235002","185-VK","2017/08/01 14:09:09","新北市中和區自強路54號","121.520146666667","24.9947183333333","6500300","中和區"
"235013","186-VK","2017/08/01 14:09:04","新北市中和區南華路44號","121.503905","24.996455","6500300","中和區"
"235031","255-BX","2017/08/01 14:09:10","新北市中和區新生街174號","121.483686666667","25.0000066666667","6500300","中和區"
"235008","293-VK","2017/08/01 14:09:01","新北市中和區中興街161巷6弄2號","121.500666666667","24.9909083333333","6500300","中和區"
"235036","301-VK","2017/08/01 14:08:59","新北市中和區中山路二段258號","121.497398333333","25.00243","6500300","中和區"
"235007","352-BY","2017/08/01 14:09:06","新北市中和區景平路116號","121.519438333333","24.9916383333333","6500300","中和區"
"235015","376-QA","2017/08/01 14:09:06","新北市中和區景新街402號","121.512611666667","24.9895066666667","6500300","中和區"
"235032","377-QA","2017/08/01 14:09:13","新北市中和區連城路89巷66號","121.497741666667","24.9982033333333","6500300","中和區"
"235025","378-QA","2017/08/01 14:09:12","新北市中和區員山路398號","121.480428333333","25.00471","6500300","中和區"
"235014","4979-A6","2017/08/01 14:09:13","新北市中和區復興路280巷18弄20號","121.501761666667","24.9921733333333","6500300","中和區"
"235033","4980-A6","2017/08/01 14:08:58","新北市中和區景平路736巷1弄4號","121.497178333333","25.003955","6500300","中和區"
"235006","551-UM","2017/08/01 14:09:11","新北市中和區自立路16巷2號","121.521743333333","24.9937483333333","6500300","中和區"
"235034","558-UM","2017/08/01 14:09:04","新北市中和區安和路217號","121.505963333333","24.99932","6500300","中和區"
"235009","565-BX","2017/08/01 14:09:09","新北市中和區景新街467巷20弄25號","121.514948333333","24.9875483333333","6500300","中和區"
"235018","640-BX","2017/08/01 14:09:15","新北市中和區國光街85巷10號","121.470433333333","24.9998033333333","6500300","中和區"
"235024","647-TV","2017/08/01 14:09:09","新北市中和區民治街130巷1號","121.47524","25.0026133333333","6500300","中和區"
"235011","732-UM","2017/08/01 14:09:02","新北市中和區興南路一段63-6號","121.510338333333","24.9895616666667","6500300","中和區"
"235010","733-UM","2017/08/01 14:08:58","新北市中和區忠孝街1巷70號","121.508355","24.98465","6500300","中和區"
"235035","783-BX","2017/08/01 14:09:14","新北市中和區立言街48號","121.488258333333","25.006635","6500300","中和區"
"235026","800-TS","2017/08/01 14:09:10","新北市中和區中山路二段366巷13號","121.491455","25.004445","6500300","中和區"
"235021","801-TS","2017/08/01 14:09:02","新北市中和區民利街100巷6弄6號","121.477236666667","24.9985366666667","6500300","中和區"
"235005","802-TS","2017/08/01 14:09:08","新北市中和區新興街6巷1號","121.51224","25.0024883333333","6500300","中和區"
"235016","805-TS","2017/08/01 14:09:09","新北市中和區興南路二段131-15號","121.504193333333","24.9802","6500300","中和區"
"235012","896-TW","2017/08/01 14:09:00","新北市中和區華新街143巷71弄11號","121.508355","24.9787716666667","6500300","中和區"
"235017","900-TW","2017/08/01 14:09:14","新北市中和區和平路250號","121.464641666667","24.9969933333333","6500300","中和區"
"235001","AAC-213","2017/08/01 14:09:12","新北市中和區秀朗路三段10巷37弄4號","121.52412","24.996085","6500300","中和區"
"235023","AAC-215","2017/08/01 14:08:56","新北市中和區圓通路296巷31弄1號","121.488581666667","24.99043","6500300","中和區"
"220016","013-TV","2017/08/01 14:09:09","新北市板橋區翠華街6巷17號","121.481038333333","25.0243066666667","6500100","板橋區"
"220034","073-UY","2017/08/01 14:09:13","新北市板橋區中正路236巷79號","121.459166666667","25.0196616666667","6500100","板橋區"
"220105","075-UY","2017/08/01 14:09:03","新北市板橋區文化路二段102-1號","121.469825","25.026165","6500100","板橋區"
"220017","AAD-861","2017/08/01 14:09:09","新北市板橋區東興街30號","121.458015","25.0052866666667","6500100","板橋區"
"220045","120-SR","2017/08/01 14:09:12","新北市板橋區雙十路二段47巷15號","121.475693333333","25.025765","6500100","板橋區"
"247019","893-R6","2017/08/01 14:09:01","新北市蘆洲區仁愛街6號","121.472733333333","25.0923333333333","6501400","蘆洲區"
"247009","546-UM","2017/08/01 14:09:11","新北市蘆洲區信義路253號","121.479021666667","25.0845633333333","6501400","蘆洲區"
"247017","500-BY","2017/08/01 14:09:00","新北市蘆洲區民族路201巷15號","121.477238333333","25.0888166666667","6501400","蘆洲區"
"247005","341-TH","2017/08/01 14:09:10","新北市蘆洲區永安南路二段16巷17弄17號","121.467465","25.0778916666667","6501400","蘆洲區"
"247007","339-TH","2017/08/01 14:09:14","新北市蘆洲區中山一路285號","121.471958333333","25.0795416666667","6501400","蘆洲區"
"247023","337-TH","2017/08/01 14:09:13","新北市蘆洲區光榮路118-2號","121.464938333333","25.088915","6501400","蘆洲區"
"247001","336-TH","2017/08/01 14:08:54","新北市蘆洲區永平街65號","121.457216666667","25.0916383333333","6501400","蘆洲區"
"247013","057-VK","2017/08/01 14:08:56","新北市蘆洲區三民路110巷2號","121.47164","25.08701","6501400","蘆洲區"
"247003","056-VK","2017/08/01 14:09:09","新北市蘆洲區中華街6巷52號","121.462318333333","25.0827","6501400","蘆洲區"
"247011","007-UY","2017/08/01 14:09:01","新北市蘆洲區信義路333號","121.478033333333","25.0868483333333","6501400","蘆洲區"
"247021","002-UY","2017/08/01 14:09:00","新北市蘆洲區忠孝路57號","121.471346666667","25.0867683333333","6501400","蘆洲區"
"247015","001-UY","2017/08/01 14:09:08","新北市蘆洲區光華路47號","121.468708333333","25.082945","6501400","蘆洲區"
"228004","212-TW","2017/08/01 14:09:05","新北市貢寮區雙玉里下雙溪街6-2號","121.914475","25.0158666666667","6502600","貢寮區"
"228005","828-UM","2017/08/01 14:09:01","新北市貢寮區美豐里雞母嶺街52-1號","121.888588333333","25.0682533333333","6502600","貢寮區"
"208004","AAC-292","2017/08/01 14:08:57","新北市金山區六股里頂六股1號","121.614395","25.2218616666667","6502700","金山區"
"207002","749-BX","2017/08/01 14:09:14","新北市萬里區溪底里瑞泉路21號","121.604086666667","25.1488883333333","6502800","萬里區"
"252005","073-UM","2017/08/01 14:08:38","新北市三芝區橫山里大坑98-1號","121.526098333333","25.2612666666667","6502100","三芝區"
"207001","662-BX","2017/08/01 14:09:10","新北市萬里區磺潭里清水18號","121.637926666667","25.197695","6502800","萬里區"
"236065","105-UM","2017/08/01 14:09:01","新北市土城區金城路二段20號","121.44968","24.9776183333333","6501300","土城區"
"236041","107-UM","2017/08/01 14:09:06","新北市土城區裕生路64號","121.447605","24.986135","6501300","土城區"
"236075","166-UM","2017/08/01 14:09:04","新北市土城區永寧路32巷42弄5號","121.428035","24.961215","6501300","土城區"
"236029","253-BX","2017/08/01 14:09:14","新北市土城區城林路6巷80號","121.438311666667","24.9797933333333","6501300","土城區"
"236025","269-VK","2017/08/01 14:09:14","新北市土城區承天路18號","121.43946","24.9634983333333","6501300","土城區"
"236013","270-VK","2017/08/01 14:09:07","新北市土城區青雲路39巷7號","121.460365","24.9875683333333","6501300","土城區"
"236034","271-VK","2017/08/01 14:09:10","新北市土城區青雲路449-1號","121.458931666667","24.974775","6501300","土城區"
"236017","401-BY","2017/08/01 14:09:10","新北市土城區城林路6巷80號","121.438576666667","24.97972","6501300","土城區"
"236006","498-BY","2017/08/01 14:09:05","新北市土城區裕民路6-1號","121.446808333333","24.9890883333333","6501300","土城區"
"236057","912-UM","2017/08/01 14:09:00","新北市土城區中央路三段260號","121.427243333333","24.9640066666667","6501300","土城區"
"236045","913-UM","2017/08/01 14:09:05","新北市土城區明德路一段365-1號","121.453543333333","24.9790333333333","6501300","土城區"
"236061","915-UM","2017/08/01 14:08:59","新北市土城區中正路82-1號","121.445065","24.9756566666667","6501300","土城區"
"236054","AAC-216","2017/08/01 14:09:02","新北市土城區中華路二段98號","121.438116666667","24.9744383333333","6501300","土城區"
"221002","753-BX","2017/08/01 14:08:32","台北市文山區新光路二段74巷3號","121.5928","24.9931966666667","6501100","汐止區"
"220027","145-BY","2017/08/01 14:09:10","新北市板橋區民權路202巷7弄2-5號","121.460086666667","25.0150533333333","6500100","板橋區"
"220028","200-UY","2017/08/01 14:09:09","新北市板橋區大觀路二段7巷26號","121.447961666667","25.0033533333333","6500100","板橋區"
"220030","610-BX","2017/08/01 14:09:09","新北市板橋區溪崑二街56巷37號","121.427746666667","24.991645","6500100","板橋區"
"220050","245-BX","2017/07/31 21:37:21","新北市板橋區民生路二段120號","121.470686666667","25.0196166666667","6500100","板橋區"
"220004","276-BY","2017/08/01 14:09:04","新北市板橋區信義路74巷1弄1號","121.457263333333","24.99314","6500100","板橋區"
"220020","277-BY","2017/08/01 14:09:16","新北市板橋區金門街369巷57弄7-1號","121.429225","24.984095","6500100","板橋區"
"220043","283-UM","2017/08/01 14:09:13","新北市板橋區光武街151號","121.465486666667","25.029455","6500100","板橋區"
"220001","285-VK","2017/08/01 14:09:13","新北市板橋區懷仁街32號","121.47636","25.0193916666667","6500100","板橋區"
"220031","286-VK","2017/08/01 14:09:03","新北市板橋區大觀路二段174巷176弄16號","121.442786666667","25.00318","6500100","板橋區"
"220029","287-VK","2017/08/01 14:08:59","新北市板橋區光華街39巷2號","121.45359","25.0132083333333","6500100","板橋區"
"220039","288-VK","2017/08/01 14:09:01","新北市板橋區裕民街47號","121.461406666667","25.0286316666667","6500100","板橋區"
"220009","293-UM","2017/08/01 14:09:00","新北市板橋區中山路二段240號","121.4785","25.0181483333333","6500100","板橋區"
"220013","295-UM","2017/08/01 14:08:56","新北市板橋區漢生東路324號","121.471703333333","25.00789","6500100","板橋區"
"220032","296-UM","2017/08/01 14:09:10","新北市板橋區大觀路三段227-8號","121.430973333333","24.9919016666667","6500100","板橋區"
"220023","297-UM","2017/08/01 14:09:15","新北市板橋區大智街25巷28號","121.454255","25.0148266666667","6500100","板橋區"
"220010","303-R5","2017/08/01 14:08:58","新北市板橋區三民路二段居仁巷1弄35號","121.480288333333","25.01365","6500100","板橋區"
"220041","307-R5","2017/08/01 14:09:10","新北市板橋區文化路二段225巷35號","121.469478333333","25.02838","6500100","板橋區"
"220047","317-R6","2017/08/01 14:09:11","新北市板橋區自由路51巷16號","121.464815","25.023495","6500100","板橋區"
"220012","486-VK","2017/08/01 14:09:06","新北市板橋區板新路2號","121.475075","25.0129","6500100","板橋區"
"220038","487-VK","2017/08/01 14:09:16","新北市板橋區文化路二段516號","121.475808333333","25.0335416666667","6500100","板橋區"
"220037","491-VK","2017/08/01 14:09:12","新北市板橋區文化路二段182巷9弄9號","121.47263","25.0269533333333","6500100","板橋區"
"220104","560-BX","2017/08/01 14:09:01","新北市板橋區中正路360巷48號","121.456175","25.0227783333333","6500100","板橋區"
"220052","561-BX","2017/08/01 14:09:07","新北市板橋區文化路一段188巷9弄126號","121.469193333333","25.019055","6500100","板橋區"
"220019","568-UM","2017/08/01 14:09:14","新北市板橋區重慶路245巷42號","121.464871666667","25.000825","6500100","板橋區"
"220011","609-BX","2017/08/01 14:09:00","新北市板橋區三民路二段202號","121.478675","25.0146766666667","6500100","板橋區"
"220040","637-BX","2017/08/01 14:09:10","新北市板橋區文聖街211號","121.480066666667","25.026145","6500100","板橋區"
"220005","686-BX","2017/08/01 14:09:07","新北市板橋區成都街69號","121.46232","25.005015","6500100","板橋區"
"220025","687-BX","2017/08/01 14:09:12","新北市板橋區龍興街71巷1號","121.443716666667","25.0018066666667","6500100","板橋區"
"220042","689-BX","2017/08/01 14:09:09","新北市板橋區民生路三段259號","121.464406666667","25.02939","6500100","板橋區"
"220002","741-BX","2017/08/01 14:09:17","新北市板橋區重慶路85號","121.461891666667","25.006375","6500100","板橋區"
"220003","827-TW","2017/08/01 14:09:03","新北市板橋區中山路一段134號","121.463485","25.010825","6500100","板橋區"
"220014","829-TW","2017/08/01 14:09:05","新北市板橋區三民路二段正隆巷75號","121.476083333333","25.01297","6500100","板橋區"
"220051","830-TW","2017/08/01 14:09:05","新北市板橋區田單街2巷24號","121.481971666667","25.0281566666667","6500100","板橋區"
"220022","895-R6","2017/08/01 14:09:11","新北市板橋區府中路118號","121.45552","25.009585","6500100","板橋區"
"220021","985-R7","2017/08/01 14:09:07","新北市板橋區中正路159巷2號","121.456656666667","25.016235","6500100","板橋區"
"220046","AAC-210","2017/08/01 14:08:58","新北市板橋區英士路76號","121.460151666667","25.02418","6500100","板橋區"
"220018","AAC-253","2017/08/01 14:09:06","新北市板橋區四川路一段268號","121.458988333333","25.0009966666667","6500100","板橋區"
