"lineid","car","time","location","longitude","latitude","cityid","cityname"
"234025","9371-KE","2017/08/01 14:48:56","新北市永和區雙和街60號","121.509036666667","25.0034466666667","6500400","永和區"
"248017","261-SL","2017/08/01 14:30:05","新北市五股區外寮路1-8號","121.425355","25.0756066666667","6501500","五股區"
"234066","AAC-212","2017/08/01 14:49:03","新北市三重區重新路五段326巷25-1號","121.479546666667","25.0428783333333","6500400","永和區"
"231002","002-UM","2017/08/01 14:48:58","新北市新店區建國路249號","121.537491666667","24.98249","6500600","新店區"
"231025","0291-UT","2017/08/01 14:49:12","新北市新店區民族路161號","121.537746666667","24.9769216666667","6500600","新店區"
"231028","046-UY","2017/08/01 14:49:07","新北市新店區安德街154號","121.508203333333","24.95964","6500600","新店區"
"231030","047-UY","2017/08/01 14:48:59","新北市新店區安民街369號","121.516413333333","24.9759483333333","6500600","新店區"
"231029","106-UY","2017/08/01 14:48:58","新北市新店區錦秀路11巷96弄7號","121.479998333333","24.9419316666667","6500600","新店區"
"231018","107-UY","2017/08/01 14:49:01","新北市新店區中央路234號","121.529265","24.9727316666667","6500600","新店區"
"231012","108-UY","2017/08/01 14:48:55","新北市新店區永華街44號","121.545045","24.9751066666667","6500600","新店區"
"231020","187-VK","2017/08/01 14:49:06","新北市新店區桂山路37號","121.562981666667","24.9045366666667","6500600","新店區"
"231069","189-VK","2017/08/01 11:59:39","新北市新店區安華路28-1號","121.519621666667","24.9610833333333","6500600","新店區"
"231034","268-BY","2017/08/01 14:45:50","新北市新店區安康路二段362號","121.501726666667","24.9574633333333","6500600","新店區"
"231015","AAD-862","2017/08/01 14:49:01","新北市新店區北宜路三段187號","121.587161666667","24.9527283333333","6500600","新店區"
"231027","3712-VJ","2017/08/01 14:49:07","新北市新店區中正路328巷1號","121.536901666667","24.9753066666667","6500600","新店區"
"231024","3713-VJ","2017/08/01 14:49:15","新北市新店區新生街1號","121.540361666667","24.9656533333333","6500600","新店區"
"231036","512-UM","2017/08/01 14:49:12","新北市新店區安祥路104巷6弄24號","121.482348333333","24.9623133333333","6500600","新店區"
"231023","513-UM","2017/08/01 14:48:59","新北市新店區檳榔路109號","121.544441666667","24.9614966666667","6500600","新店區"
"231035","515-UM","2017/08/01 14:49:06","新北市新店區安利街26號","121.519228333333","24.9746066666667","6500600","新店區"
"231006","617-UM","2017/08/01 14:49:05","新北市新店區北宜路一段175號","121.544708333333","24.953195","6500600","新店區"
"231001","619-UM","2017/08/01 14:49:13","新北市新店區三民路61號","121.536531666667","24.9712233333333","6500600","新店區"
"231003","641-BX","2017/08/01 14:48:53","新北市新店區中正路2號","121.545993333333","24.9693866666667","6500600","新店區"
"231039","718-UY","2017/08/01 14:49:03","新北市新店區安康路一段222-3號","121.522506666667","24.9637283333333","6500600","新店區"
"231013","719-UM","2017/08/01 14:49:11","新北市新店區北新路二段59巷3號","121.542508333333","24.9731166666667","6500600","新店區"
"231032","719-UY","2017/08/01 14:48:56","新北市新店區永業路46號","121.531686666667","24.9536466666667","6500600","新店區"
"231005","897-TW","2017/08/01 14:49:03","新北市新店區復興路2號","121.532378333333","24.9882933333333","6500600","新店區"
"231004","899-TW","2017/08/01 14:49:11","新北市新店區民族路108號","121.537806666667","24.9771916666667","6500600","新店區"
"231037","AKT-0513","2017/08/01 14:49:06","新北市新店區吉安街41號","121.515396666667","24.9660933333333","6500600","新店區"
"235030","003-UY","2017/08/01 14:48:55","新北市中和區南工路22巷2號","121.505545","25.0007733333333","6500300","中和區"
"235020","096-UM","2017/08/01 14:49:02","新北市中和區民富街78號","121.476555","25.0078883333333","6500300","中和區"
"235003","097-UM","2017/08/01 14:49:12","新北市中和區安平路202號","121.513436666667","24.9995033333333","6500300","中和區"
"235029","098-UM","2017/08/01 14:49:02","新北市中和區永和路63號","121.496851666667","25.0054916666667","6500300","中和區"
"235004","150-BY","2017/08/01 14:49:13","新北市中和區安和路125號","121.507101666667","24.9959166666667","6500300","中和區"
"235022","151-BY","2017/08/01 14:48:53","新北市中和區員山路153-1號","121.481091666667","24.9963633333333","6500300","中和區"
"235019","183-VK","2017/08/01 14:49:10","新北市中和區民德路27號","121.469026666667","25.0026533333333","6500300","中和區"
"235002","185-VK","2017/08/01 14:49:09","新北市中和區自立路141巷3號","121.52243","24.9935966666667","6500300","中和區"
"235013","186-VK","2017/08/01 14:49:04","新北市中和區景平路522號","121.503213333333","24.99404","6500300","中和區"
"235031","255-BX","2017/08/01 14:49:11","新北市中和區新生街216號","121.483753333333","24.9986383333333","6500300","中和區"
"235008","293-VK","2017/08/01 14:49:01","新北市中和區捷運路57號","121.509168333333","24.9896083333333","6500300","中和區"
"235036","301-VK","2017/08/01 14:48:59","新北市中和區中和路74號","121.500705","25.0001533333333","6500300","中和區"
"235007","352-BY","2017/08/01 14:49:06","新北市中和區安和路15號","121.51131","24.993755","6500300","中和區"
"235015","376-QA","2017/08/01 14:49:06","新北市中和區中興街180巷33號","121.498286666667","24.9891416666667","6500300","中和區"
"235032","377-QA","2017/08/01 14:48:53","新北市中和區景平路695號","121.496536666667","25.00331","6500300","中和區"
"235014","4979-A6","2017/08/01 14:48:43","新北市中和區景平路241巷66號","121.507691666667","24.9922316666667","6500300","中和區"
"235033","4980-A6","2017/08/01 14:48:58","新北市中和區景平路630巷11號","121.50052","24.9985433333333","6500300","中和區"
"235034","558-UM","2017/08/01 14:49:04","新北市中和區景平路493-6號","121.49993","24.9978683333333","6500300","中和區"
"235009","565-BX","2017/08/01 14:49:09","新北市中和區景新街342號","121.512048333333","24.9904866666667","6500300","中和區"
"235018","640-BX","2017/08/01 14:48:59","新北市中和區莒光路132號","121.47247","25.0014766666667","6500300","中和區"
"235024","647-TV","2017/08/01 14:49:09","新北市中和區新生街16巷13弄1號","121.482646666667","25.004135","6500300","中和區"
"235011","732-UM","2017/08/01 14:49:02","新北市中和區和平街83號","121.505355","24.9921166666667","6500300","中和區"
"235010","733-UM","2017/08/01 14:48:58","新北市中和區仁愛街112號","121.511588333333","24.9869666666667","6500300","中和區"
"235035","783-BX","2017/08/01 14:49:14","新北市中和區建康路53號","121.487023333333","25.0000883333333","6500300","中和區"
"235026","800-TS","2017/08/01 14:49:10","新北市中和區中山路二段342號","121.493606666667","25.0021433333333","6500300","中和區"
"235021","801-TS","2017/08/01 14:49:01","新北市中和區員山路291號","121.481248333333","24.9998633333333","6500300","中和區"
"235005","802-TS","2017/08/01 14:49:08","新北市中和區永貞路280號","121.5131","25.0040666666667","6500300","中和區"
"235016","805-TS","2017/08/01 14:49:09","新北市中和區華新街192巷5號","121.506731666667","24.9823233333333","6500300","中和區"
"235012","896-TW","2017/08/01 14:49:00","新北市中和區忠孝街99-3號","121.511916666667","24.9861666666667","6500300","中和區"
"235017","900-TW","2017/08/01 14:49:14","新北市中和區國光街144號","121.468251666667","25.00159","6500300","中和區"
"235001","AAC-213","2017/08/01 14:49:12","新北市中和區秀朗路三段50巷7-1號","121.525791666667","24.99535","6500300","中和區"
"235023","AAC-215","2017/08/01 14:48:56","新北市中和區圓通路335巷5弄12號","121.493538333333","24.9899666666667","6500300","中和區"
"220016","013-TV","2017/08/01 14:49:08","新北市板橋區光復街192巷11號","121.486126666667","25.0202216666667","6500100","板橋區"
"220105","075-UY","2017/08/01 14:49:03","新北市板橋區文化路二段652號","121.478563333333","25.03569","6500100","板橋區"
"220017","AAD-861","2017/08/01 14:49:09","新北市板橋區南雅南路二段18號","121.454495","25.003545","6500100","板橋區"
"220045","120-SR","2017/08/01 14:49:12","新北市板橋區民生路二段234巷77號","121.470321666667","25.0226133333333","6500100","板橋區"
"247019","893-R6","2017/08/01 14:49:01","新北市蘆洲區中正路520巷18號","121.465651666667","25.099435","6501400","蘆洲區"
"247007","339-TH","2017/08/01 14:49:14","新北市五股區四維路185巷3號","121.46738","25.0761916666667","6501400","蘆洲區"
"247001","336-TH","2017/08/01 14:49:15","新北市五股區中興路二段182巷17號","121.456411666667","25.0809333333333","6501400","蘆洲區"
"247013","057-VK","2017/08/01 14:48:56","新北市蘆洲區中山二路236號","121.4696","25.0796233333333","6501400","蘆洲區"
"228004","212-TW","2017/08/01 14:49:05","新北市貢寮區福隆里裕隆街5號","121.946158333333","25.0159566666667","6502600","貢寮區"
"228005","828-UM","2017/08/01 14:49:01","新北市貢寮區美豐里丹裡街67號","121.907658333333","25.0582633333333","6502600","貢寮區"
"208004","AAC-292","2017/08/01 14:48:57","新北市金山區兩湖里倒照湖21-1號","121.594313333333","25.2390066666667","6502700","金山區"
"207002","749-BX","2017/08/01 14:49:14","新北市萬里區崁腳里崁腳路73號","121.647591666667","25.1596166666667","6502800","萬里區"
"252005","073-UM","2017/08/01 14:48:38","新北市三芝區福德里埔尾2號","121.502223333333","25.2459683333333","6502100","三芝區"
"207001","662-BX","2017/08/01 14:46:10","新北市萬里區雙興里二坪路1號","121.650038333333","25.1783566666667","6502800","萬里區"
"236065","105-UM","2017/08/01 14:49:01","新北市土城區明德路一段2號","121.464696666667","24.985785","6501300","土城區"
"236041","107-UM","2017/08/01 14:49:06","新北市土城區裕民路116-5號","121.45086","24.9862816666667","6501300","土城區"
"236075","166-UM","2017/08/01 14:49:04","新北市土城區中央路四段67巷34號","121.417788333333","24.9571533333333","6501300","土城區"
"236029","253-BX","2017/08/01 14:49:14","新北市土城區忠義路26巷10號","121.439835","24.9699183333333","6501300","土城區"
"236025","269-VK","2017/08/01 14:48:54","新北市土城區光明街39號","121.442135","24.973965","6501300","土城區"
"236013","270-VK","2017/08/01 14:49:07","新北市土城區金城路二段356號","121.461603333333","24.9851483333333","6501300","土城區"
"236034","271-VK","2017/08/01 14:49:10","新北市土城區明德路一段195巷3弄5號","121.464283333333","24.97857","6501300","土城區"
"236017","401-BY","2017/08/01 14:49:10","新北市土城區德峰街37號","121.467338333333","24.9855866666667","6501300","土城區"
"236057","912-UM","2017/08/01 14:48:58","新北市土城區中央路三段149號","121.432308333333","24.9655516666667","6501300","土城區"
"236045","913-UM","2017/08/01 14:49:05","新北市土城區青雲路87-1號","121.459225","24.98589","6501300","土城區"
"236061","915-UM","2017/08/01 14:48:59","新北市土城區金城路三段207巷6弄13號","121.470788333333","24.9903016666667","6501300","土城區"
"236054","AAC-216","2017/08/01 14:49:02","新北市土城區裕民路156號","121.452081666667","24.98584","6501300","土城區"
"221032","280-BY","2017/08/01 14:49:01","新北市汐止區橫科路18巷32弄8號","121.61751","25.0498","6501100","汐止區"
"220027","145-BY","2017/08/01 14:49:10","新北市板橋區中正路135巷11-6號","121.455695","25.0154616666667","6500100","板橋區"
"220028","200-UY","2017/08/01 14:49:11","新北市板橋區大觀路二段169巷16號","121.446041666667","24.9999133333333","6500100","板橋區"
"220030","610-BX","2017/08/01 14:49:09","新北市板橋區大觀路三段180巷30號","121.429818333333","24.9938266666667","6500100","板橋區"
"220050","245-BX","2017/08/01 14:49:06","新北市板橋區莊敬路263巷2號","121.474118333333","25.0219583333333","6500100","板橋區"
"220004","276-BY","2017/08/01 14:49:02","新北市板橋區四川路二段74號","121.45251","24.9948016666667","6500100","板橋區"
"220020","277-BY","2017/08/01 14:49:02","新北市板橋區金門街127巷10號","121.433301666667","24.9911516666667","6500100","板橋區"
"220043","283-UM","2017/08/01 14:49:13","新北市板橋區陽明街251號","121.46276","25.0251433333333","6500100","板橋區"
"220001","285-VK","2017/08/01 14:49:13","新北市板橋區中山路二段60巷1弄22號","121.475038333333","25.01563","6500100","板橋區"
"220031","286-VK","2017/08/01 14:49:03","新北市板橋區僑中二街10巷26號","121.445968333333","25.0111083333333","6500100","板橋區"
"220029","287-VK","2017/08/01 14:48:59","新北市板橋區大觀路一段28巷111弄2號","121.449723333333","25.0125266666667","6500100","板橋區"
"220039","288-VK","2017/08/01 14:49:01","新北市板橋區龍泉街108巷38號","121.455983333333","25.0243716666667","6500100","板橋區"
"220009","293-UM","2017/08/01 14:49:15","新北市板橋區中山路一段283巷3弄1號","121.470218333333","25.015055","6500100","板橋區"
"220013","295-UM","2017/08/01 14:49:05","新北市板橋區國泰街22號","121.469038333333","25.00682","6500100","板橋區"
"220032","296-UM","2017/08/01 14:49:07","新北市板橋區溪崑二街92巷9號","121.426061666667","24.98973","6500100","板橋區"
"220023","297-UM","2017/08/01 14:48:58","新北市板橋區金華街6號","121.4555","25.01988","6500100","板橋區"
"220010","303-R5","2017/08/01 14:49:00","新北市板橋區中山路二段416巷52-4號","121.48281","25.0192716666667","6500100","板橋區"
"220041","307-R5","2017/08/01 14:49:02","新北市板橋區四維路137巷1弄14號","121.46495","25.024605","6500100","板橋區"
"220047","317-R6","2017/08/01 14:49:11","新北市板橋區新海路385巷24號","121.457905","25.025565","6500100","板橋區"
"220012","486-VK","2017/08/01 14:48:56","新北市板橋區公園街36-1號","121.46237","25.0083833333333","6500100","板橋區"
"220038","487-VK","2017/08/01 14:48:56","新北市板橋區英士路72號","121.460471666667","25.024455","6500100","板橋區"
"220037","491-VK","2017/08/01 14:49:12","新北市板橋區仁化街164號","121.478215","25.03371","6500100","板橋區"
"220052","561-BX","2017/08/01 14:49:07","新北市板橋區陽明街29巷31號","121.463863333333","25.0225116666667","6500100","板橋區"
"220019","568-UM","2017/08/01 14:49:13","新北市板橋區信義路58號","121.457155","24.9937833333333","6500100","板橋區"
"220011","609-BX","2017/08/01 14:49:00","新北市板橋區萬安街27巷22號","121.483905","25.0228866666667","6500100","板橋區"
"220040","637-BX","2017/08/01 14:49:10","新北市板橋區懷德街127巷17號","121.479375","25.0311883333333","6500100","板橋區"
"220005","686-BX","2017/08/01 14:49:09","新北市板橋區廣和街136號","121.462466666667","24.9919933333333","6500100","板橋區"
"220025","687-BX","2017/08/01 14:49:16","新北市板橋區僑中一街114號","121.446256666667","25.0117216666667","6500100","板橋區"
"220042","689-BX","2017/08/01 14:49:09","新北市板橋區長江路二段57號","121.464583333333","25.0313333333333","6500100","板橋區"
"220002","741-BX","2017/08/01 14:49:03","新北市板橋區實踐路93巷44號","121.465655","25.005065","6500100","板橋區"
"220003","827-TW","2017/08/01 14:49:03","新北市板橋區仁愛路60號","121.459793333333","24.999335","6500100","板橋區"
"220014","829-TW","2017/08/01 14:49:04","新北市板橋區板新路95號","121.473023333333","25.0139416666667","6500100","板橋區"
"220051","830-TW","2017/08/01 14:49:04","新北市板橋區文化路二段410巷1弄7號","121.474555","25.031205","6500100","板橋區"
"220022","895-R6","2017/08/01 14:49:11","新北市板橋區文化路一段46巷23號","121.460393333333","25.01141","6500100","板橋區"
"220021","985-R7","2017/08/01 14:49:07","新北市板橋區南雅西路二段267號","121.451831666667","25.015005","6500100","板橋區"
"220046","AAC-210","2017/08/01 14:49:04","新北市板橋區文化路一段285巷2弄1號","121.464641666667","25.019145","6500100","板橋區"
"220018","AAC-253","2017/08/01 14:48:54","新北市板橋區民族路260號","121.469461666667","25.0071733333333","6500100","板橋區"
