"lineid","car","time","location","longitude","latitude","cityid","cityname"
"234025","9371-KE","2017/08/01 14:58:56","新北市永和區永貞路354號","121.510321666667","25.0064266666667","6500400","永和區"
"248017","261-SL","2017/08/01 14:59:05","新北市五股區水碓九路65號","121.42918","25.07343","6501500","五股區"
"231002","002-UM","2017/08/01 14:58:58","新北市新店區民權路91號","121.537548333333","24.9829783333333","6500600","新店區"
"231025","0291-UT","2017/08/01 14:59:12","新北市新店區大同街25號","121.538696666667","24.980735","6500600","新店區"
"231028","046-UY","2017/08/01 14:59:06","新北市新店區安豐路49號","121.499995","24.95488","6500600","新店區"
"231030","047-UY","2017/08/01 14:58:59","新北市新店區安民街339號","121.516893333333","24.9748516666667","6500600","新店區"
"231029","106-UY","2017/08/01 14:58:58","新北市新店區錦秀路56號","121.479023333333","24.9431583333333","6500600","新店區"
"231018","107-UY","2017/08/01 14:59:01","新北市新店區中央路232號","121.529355","24.97273","6500600","新店區"
"231012","108-UY","2017/08/01 14:59:03","新北市新店區中興路三段205巷4號","121.54336","24.9817566666667","6500600","新店區"
"231020","187-VK","2017/08/01 14:59:06","新北市新店區新烏路一段245號","121.54748","24.9299833333333","6500600","新店區"
"231069","189-VK","2017/08/01 11:59:39","新北市新店區安華路28-1號","121.519621666667","24.9610833333333","6500600","新店區"
"231026","256-BX","2017/08/01 14:59:09","新北市新店區中正路220號","121.540511666667","24.9728133333333","6500600","新店區"
"231034","268-BY","2017/08/01 14:58:52","新北市新店區玫瑰路4-1號","121.493588333333","24.9514216666667","6500600","新店區"
"231015","AAD-862","2017/08/01 14:59:01","新北市新店區銀河路68-1號","121.579848333333","24.9587116666667","6500600","新店區"
"231027","3712-VJ","2017/08/01 14:59:07","新北市新店區安和路三段4巷3號","121.51934","24.9809733333333","6500600","新店區"
"231024","3713-VJ","2017/08/01 14:58:35","新北市新店區中華路83巷23號","121.538686666667","24.9680016666667","6500600","新店區"
"231036","512-UM","2017/08/01 14:59:13","新北市新店區安祥路102巷46弄51號","121.486203333333","24.9636333333333","6500600","新店區"
"231023","513-UM","2017/08/01 14:58:59","新北市新店區檳榔路109號","121.5445","24.9615716666667","6500600","新店區"
"231035","515-UM","2017/08/01 14:59:06","新北市新店區永安街74巷20號","121.51925","24.9860366666667","6500600","新店區"
"231006","617-UM","2017/08/01 14:59:05","新北市新店區中興路一段136號","121.542123333333","24.9634233333333","6500600","新店區"
"231001","619-UM","2017/08/01 14:59:05","新北市新店區中正路276號","121.538873333333","24.9737266666667","6500600","新店區"
"231003","641-BX","2017/08/01 14:58:52","新北市新店區中興路二段231-2號","121.547665","24.9750083333333","6500600","新店區"
"231039","718-UY","2017/08/01 14:59:03","新北市新店區北新路三段3號","121.542313333333","24.9792916666667","6500600","新店區"
"231032","719-UY","2017/08/01 14:58:56","新北市新店區溪洲路163號","121.530705","24.9640316666667","6500600","新店區"
"231005","897-TW","2017/08/01 14:59:10","新北市新店區復興路38號","121.538853333333","24.986745","6500600","新店區"
"231004","899-TW","2017/08/01 14:58:51","新北市新店區民族路48巷1號","121.540226666667","24.9786866666667","6500600","新店區"
"231037","AKT-0513","2017/08/01 14:59:06","新北市新店區安興路69-1號","121.515773333333","24.9751533333333","6500600","新店區"
"235030","003-UY","2017/08/01 14:58:55","新北市中和區光華街12號","121.504055","25.0042133333333","6500300","中和區"
"235020","096-UM","2017/08/01 14:59:02","新北市中和區中山路三段136巷39號","121.47385","25.0069283333333","6500300","中和區"
"235003","097-UM","2017/08/01 14:58:52","新北市中和區宜安路18巷6號","121.51357","24.9960833333333","6500300","中和區"
"235029","098-UM","2017/08/01 14:59:02","新北市中和區福美路310號","121.496835","25.0048233333333","6500300","中和區"
"235004","150-BY","2017/08/01 14:58:53","新北市中和區中和路262號","121.508486666667","24.9993966666667","6500300","中和區"
"235022","151-BY","2017/08/01 14:59:09","新北市中和區員山路150巷2弄28號","121.481618333333","24.99738","6500300","中和區"
"235019","183-VK","2017/08/01 14:56:10","新北市中和區員山路263號","121.481063333333","24.9992066666667","6500300","中和區"
"235002","185-VK","2017/08/01 14:59:09","新北市永和區民生路42號","121.522406666667","24.9966983333333","6500300","中和區"
"235013","186-VK","2017/08/01 14:59:04","新北市中和區中興街37號","121.50085","24.994395","6500300","中和區"
"235031","255-BX","2017/08/01 14:59:10","新北市中和區新生街184號","121.483598333333","24.9996733333333","6500300","中和區"
"235008","293-VK","2017/08/01 14:59:01","新北市中和區南山路399巷7號","121.50691","24.99028","6500300","中和區"
"235036","301-VK","2017/08/01 14:58:59","新北市中和區板南路403號","121.49297","24.9993166666667","6500300","中和區"
"235007","352-BY","2017/08/01 14:59:08","新北市中和區華新街232巷23號","121.505713333333","24.9821583333333","6500300","中和區"
"235015","376-QA","2017/08/01 14:59:06","新北市中和區景安路247號","121.504208333333","24.9906116666667","6500300","中和區"
"235032","377-QA","2017/08/01 14:58:53","新北市中和區福祥路89號","121.499018333333","25.0059266666667","6500300","中和區"
"235014","4979-A6","2017/08/01 14:58:52","新北市中和區安樂路60巷1號","121.512386666667","24.9931466666667","6500300","中和區"
"235033","4980-A6","2017/08/01 14:58:58","新北市中和區景新街102號","121.504798333333","24.9984116666667","6500300","中和區"
"235034","558-UM","2017/08/01 14:59:04","新北市中和區連勝街6號","121.498993333333","24.998775","6500300","中和區"
"235018","640-BX","2017/08/01 14:59:02","新北市中和區莒光路132號","121.472481666667","25.0015216666667","6500300","中和區"
"235024","647-TV","2017/08/01 14:59:09","新北市中和區新生街224號","121.483781666667","24.9984033333333","6500300","中和區"
"235010","733-UM","2017/08/01 14:58:58","新北市中和區興南路一段93巷40號","121.510368333333","24.986475","6500300","中和區"
"235035","783-BX","2017/08/01 14:59:14","新北市中和區建三路36號","121.485728333333","25.00164","6500300","中和區"
"235005","802-TS","2017/08/01 14:59:08","新北市中和區安平路17號","121.509143333333","24.9941433333333","6500300","中和區"
"235016","805-TS","2017/08/01 14:59:09","新北市中和區華新街144巷9號","121.507476666667","24.9831166666667","6500300","中和區"
"235012","896-TW","2017/08/01 14:59:00","新北市中和區忠孝街2-6號","121.509106666667","24.98288","6500300","中和區"
"235017","900-TW","2017/08/01 14:59:14","新北市中和區國光街189巷12弄2號","121.467473333333","25.0014516666667","6500300","中和區"
"235001","AAC-213","2017/08/01 14:59:12","新北市中和區秀朗路三段173-2號","121.524398333333","24.9913316666667","6500300","中和區"
"235023","AAC-215","2017/08/01 14:58:56","新北市中和區圓通路355號","121.491368333333","24.99013","6500300","中和區"
"220016","013-TV","2017/08/01 14:59:08","新北市板橋區中山路二段300號","121.479733333333","25.0189616666667","6500100","板橋區"
"220105","075-UY","2017/08/01 14:59:03","新北市板橋區民治街50號","121.479441666667","25.033285","6500100","板橋區"
"220017","AAD-861","2017/08/01 14:59:09","新北市板橋區貴興路117號","121.455548333333","25.0024233333333","6500100","板橋區"
"220045","120-SR","2017/08/01 14:58:52","新北市板橋區莒光路16巷19號","121.46946","25.023875","6500100","板橋區"
"247007","339-TH","2017/08/01 14:58:54","新北市五股區中興路三段2巷10號","121.44871","25.0814133333333","6501400","蘆洲區"
"228004","212-TW","2017/08/01 14:59:05","新北市貢寮區雙玉里田寮洋街1號","121.927976666667","25.0182833333333","6502600","貢寮區"
"208004","AAC-292","2017/08/01 14:59:05","新北市金山區半嶺61號","121.608971666667","25.2370683333333","6502700","金山區"
"207002","749-BX","2017/08/01 14:58:54","新北市萬里區崁腳里崁腳路40號","121.65094","25.1608016666667","6502800","萬里區"
"252005","073-UM","2017/08/01 14:58:38","新北市三芝區育英街15號","121.501556666667","25.2582466666667","6502100","三芝區"
"207001","662-BX","2017/08/01 14:59:10","新北市萬里區雙興里二坪路11號","121.646155","25.1750166666667","6502800","萬里區"
"236065","105-UM","2017/08/01 14:59:01","新北市土城區明德路二段231號","121.445651666667","24.9838933333333","6501300","土城區"
"236041","107-UM","2017/08/01 14:59:06","新北市土城區學府路一段189巷8號","121.452415","24.98458","6501300","土城區"
"236075","166-UM","2017/08/01 14:59:04","新北市土城區大暖坑11-2號","121.418845","24.9536633333333","6501300","土城區"
"236029","253-BX","2017/08/01 14:59:14","新北市土城區慶利街16號","121.439643333333","24.9736416666667","6501300","土城區"
"236025","269-VK","2017/08/01 14:59:14","新北市土城區中正路43號","121.44395","24.975525","6501300","土城區"
"236013","270-VK","2017/08/01 14:59:07","新北市土城區永豐路21號","121.46286","24.9880716666667","6501300","土城區"
"236034","271-VK","2017/08/01 14:59:10","新北市土城區仁愛路8-1號","121.46002","24.9809283333333","6501300","土城區"
"236017","401-BY","2017/08/01 14:59:10","新北市土城區延吉街217巷1弄2號","121.468593333333","24.984955","6501300","土城區"
"236057","912-UM","2017/08/01 14:58:58","新北市土城區金城路一段112號","121.446583333333","24.9752816666667","6501300","土城區"
"236045","913-UM","2017/08/01 14:59:05","新北市土城區明德路一段398-1號","121.45364","24.97911","6501300","土城區"
"236061","915-UM","2017/08/01 14:58:59","新北市土城區延和路41巷6弄8號","121.466275","24.99003","6501300","土城區"
"236054","AAC-216","2017/08/01 14:59:02","新北市土城區裕民路34號","121.447966666667","24.988435","6501300","土城區"
"221002","707-TV","2017/08/01 14:59:01","新北市汐止區莊敬街33-1號","121.65666","25.0611833333333","6501100","汐止區"
"220027","145-BY","2017/08/01 14:59:10","新北市板橋區僑中一街124巷70-5號","121.449533333333","25.0166233333333","6500100","板橋區"
"220028","200-UY","2017/08/01 14:59:07","新北市板橋區大觀路二段力行2巷65號","121.445928333333","24.998965","6500100","板橋區"
"220030","610-BX","2017/08/01 14:59:09","新北市板橋區大觀路三段263號","121.42913","24.9922033333333","6500100","板橋區"
"220050","245-BX","2017/08/01 14:59:06","新北市板橋區縣民大道三段132號","121.474608333333","25.020825","6500100","板橋區"
"220020","277-BY","2017/08/01 14:59:02","新北市板橋區金門街105號","121.433248333333","24.99221","6500100","板橋區"
"220043","283-UM","2017/08/01 14:53:32","新北市板橋區新海路135巷1號","121.46062","25.02342","6500100","板橋區"
"220001","285-VK","2017/08/01 14:59:13","新北市板橋區永豐街145號","121.47504","25.0200266666667","6500100","板橋區"
"220031","286-VK","2017/08/01 14:59:13","新北市板橋區僑中二街88巷34號","121.444685","25.0096566666667","6500100","板橋區"
"220029","287-VK","2017/08/01 14:58:59","新北市板橋區僑中一街124巷20弄35號","121.44756","25.0138833333333","6500100","板橋區"
"220039","288-VK","2017/08/01 14:59:01","新北市板橋區幸福路32巷59號","121.460318333333","25.022185","6500100","板橋區"
"220009","293-UM","2017/08/01 14:58:55","新北市板橋區觀光街88號","121.469513333333","25.0168983333333","6500100","板橋區"
"220013","295-UM","2017/08/01 14:58:56","新北市板橋區民族路168-2號","121.467281666667","25.0079933333333","6500100","板橋區"
"220032","296-UM","2017/08/01 14:59:07","新北市樹林區博愛街179號","121.4249","24.9891033333333","6500100","板橋區"
"220023","297-UM","2017/08/01 14:58:58","新北市板橋區金華街10巷127號","121.459733333333","25.0206583333333","6500100","板橋區"
"220010","303-R5","2017/08/01 14:58:58","新北市板橋區萬安街85巷18-1號","121.48427","25.0256083333333","6500100","板橋區"
"220041","307-R5","2017/08/01 14:59:03","新北市板橋區新海路382巷9號","121.459665","25.02637","6500100","板橋區"
"220047","317-R6","2017/08/01 14:59:11","新北市板橋區新海路72巷13號","121.462425","25.0221283333333","6500100","板橋區"
"220012","486-VK","2017/08/01 14:58:56","新北市板橋區實踐路132號","121.464471666667","25.0025716666667","6500100","板橋區"
"220038","487-VK","2017/08/01 14:58:56","新北市板橋區龍泉街82巷10號","121.4559","25.0255566666667","6500100","板橋區"
"220037","491-VK","2017/08/01 14:58:52","新北市板橋區大同街55號","121.478758333333","25.0275816666667","6500100","板橋區"
"220052","561-BX","2017/08/01 14:59:07","新北市板橋區文化路一段421巷11弄15號","121.466826666667","25.0225633333333","6500100","板橋區"
"220019","568-UM","2017/08/01 14:58:53","新北市板橋區五權街30巷37弄8號","121.463438333333","24.9924933333333","6500100","板橋區"
"220011","609-BX","2017/08/01 14:59:00","新北市板橋區三民路一段210號","121.47913","25.0195333333333","6500100","板橋區"
"220040","637-BX","2017/08/01 14:59:10","新北市板橋區文聖街101巷31號","121.478636666667","25.029935","6500100","板橋區"
"220005","686-BX","2017/08/01 14:59:07","新北市板橋區四川路二段50號","121.453515","24.99525","6500100","板橋區"
"220025","687-BX","2017/08/01 14:59:10","新北市板橋區僑中一街124巷29號","121.446431666667","25.0150533333333","6500100","板橋區"
"220042","689-BX","2017/08/01 14:59:09","新北市板橋區長江路三段21號","121.472248333333","25.0336516666667","6500100","板橋區"
"220002","741-BX","2017/08/01 14:58:56","新北市板橋區實踐路93巷19號","121.464891666667","25.0054533333333","6500100","板橋區"
"220003","827-TW","2017/08/01 14:59:03","新北市板橋區重慶路278-2號","121.463236666667","24.999595","6500100","板橋區"
"220014","829-TW","2017/08/01 14:59:04","新北市板橋區三民路一段131號","121.479243333333","25.020365","6500100","板橋區"
"220051","830-TW","2017/08/01 14:59:04","新北市板橋區懷德街66巷36號","121.47638","25.0316966666667","6500100","板橋區"
"220022","895-R6","2017/08/01 14:59:11","新北市板橋區府後街7號","121.458773333333","25.01039","6500100","板橋區"
"220021","985-R7","2017/08/01 14:59:07","新北市板橋區大觀路一段16號","121.450375","25.0085483333333","6500100","板橋區"
"220046","AAC-210","2017/08/01 14:59:01","新北市板橋區文化路一段221巷10號","121.46322","25.0178016666667","6500100","板橋區"
"220018","AAC-253","2017/08/01 14:58:54","新北市板橋區民族路83號","121.46573","25.0085583333333","6500100","板橋區"
