"lineid","car","time","location","longitude","latitude","cityid","cityname"
"234046","148-BY","2017/08/01 18:48:51","新北市永和區得和路373巷31弄12號","121.524298333333","25.0004166666667","6500400","永和區"
"234013","149-BY","2017/08/01 18:48:45","新北市永和區仁愛路202巷26號","121.508886666667","25.012965","6500400","永和區"
"234007","207-UY","2017/08/01 18:49:02","新北市永和區永和路二段174號","121.515428333333","25.0133416666667","6500400","永和區"
"234081","298-R6","2017/08/01 18:48:44","新北市永和區永利路108號","121.521171666667","25.0034283333333","6500400","永和區"
"234038","336-UY","2017/08/01 18:48:56","新北市永和區成功路二段119號","121.526668333333","24.998455","6500400","永和區"
"234064","337-UY","2017/08/01 18:48:50","新北市永和區福和路1號","121.526326666667","25.0099266666667","6500400","永和區"
"234086","338-UY","2017/08/01 18:48:57","新北市永和區中正路39-1號","121.514318333333","24.9959783333333","6500400","永和區"
"234070","552-UM","2017/08/01 18:48:49","新北市永和區竹林路96巷4號","121.519121666667","25.0121033333333","6500400","永和區"
"234054","553-UM","2017/08/01 18:48:41","新北市永和區竹林路69號","121.518431666667","25.0134766666667","6500400","永和區"
"234017","745-BX","2017/08/01 18:48:58","新北市永和區忠孝街26巷27弄1號","121.515253333333","25.017","6500400","永和區"
"234030","746-BX","2017/08/01 18:48:56","新北市永和區得和路321號","121.523388333333","24.9996783333333","6500400","永和區"
"234061","AAD-866","2017/08/01 18:48:49","新北市永和區福和路307號","121.516285","25.0072716666667","6500400","永和區"
"234042","862-TW","2017/08/01 18:48:49","新北市永和區永貞路308號","121.511863333333","25.00489","6500400","永和區"
"234050","863-TW","2017/08/01 18:48:48","新北市永和區保安路2號","121.510861666667","25.0176083333333","6500400","永和區"
"234026","9371-KE","2017/08/01 18:48:54","新北市永和區自由街50號","121.51385","25.0060966666667","6500400","永和區"
"234011","9373-KE","2017/08/01 18:48:47","新北市永和區文化路128號","121.513028333333","25.015315","6500400","永和區"
"249005","172-UM","2017/08/01 18:48:53","新北市八里區長道坑17號","121.396476666667","25.1155416666667","6502300","八里區"
"249001","173-UM","2017/08/01 18:48:49","新北市八里區龍米路二段58-1號","121.448108333333","25.140835","6502300","八里區"
"249004","303-UY","2017/08/01 18:48:46","新北市八里區中山路一段268巷2號","121.414198333333","25.16003","6502300","八里區"
"248014","025-BX","2017/08/01 18:48:44","新北市五股區民義路一段107巷23號","121.431986666667","25.084565","6501500","五股區"
"248016","026-BX","2017/08/01 18:48:44","新北市五股區凌雲路一段149巷42號","121.448653333333","25.1010166666667","6501500","五股區"
"248006","077-UY","2017/08/01 18:48:54","新北市五股區四維路1巷3-1號","121.465866666667","25.0704116666667","6501500","五股區"
"248008","095-VK","2017/08/01 18:48:53","新北市五股區中興路一段151巷21號","121.465215","25.0724666666667","6501500","五股區"
"248012","247-BX","2017/07/31 21:14:53","新北市五股區中興路二段182巷5號","121.456766666667","25.07862","6501500","五股區"
"248020","261-SL","2017/08/01 18:48:53","新北市五股區凌雲路三段100號","121.427001666667","25.12261","6501500","五股區"
"248010","272-BY","2017/08/01 18:48:57","新北市五股區水碓一路61號","121.431575","25.072485","6501500","五股區"
"248002","655-BX","2017/08/01 18:48:59","新北市五股區西雲路274號","121.449258333333","25.0977583333333","6501500","五股區"
"248004","677-BX","2017/08/01 18:48:52","新北市五股區民義路二段52-3號","121.410163333333","25.10469","6501500","五股區"
"234023","9380-KE","2017/08/01 18:48:59","新北市永和區竹林路119巷45號","121.521981666667","25.0118816666667","6500400","永和區"
"234077","969-R7","2017/08/01 18:48:45","新北市中和區安樂路68號","121.512273333333","24.9934883333333","6500400","永和區"
"234074","AAC-211","2017/08/01 18:48:57","新北市永和區福和路1號","121.526145","25.00976","6500400","永和區"
"234067","AAC-212","2017/08/01 18:48:56","新北市永和區永和路一段22號","121.512903333333","25.0047583333333","6500400","永和區"
"234003","AAC-295","2017/08/01 18:48:46","新北市永和區中正路655號","121.514951666667","25.0101316666667","6500400","永和區"
"232011","375-UM","2017/08/01 18:48:51","新北市坪林區坪雙路一段5號","121.711215","24.940175","6502000","坪林區"
"244013","069-UM","2017/08/01 18:49:00","新北市林口區文化一路二段92號","121.382035","25.0786066666667","6501700","林口區"
"244007","080-UY","2017/08/01 18:48:56","新北市林口區後湖60-1號","121.384043333333","25.10846","6501700","林口區"
"244019","742-UY","2017/08/01 18:48:42","新北市林口區忠孝路646巷28號","121.379071666667","25.067235","6501700","林口區"
"244023","483-VK","2017/08/01 18:48:47","新北市林口區文化三路二段211巷95號","121.375283333333","25.08476","6501700","林口區"
"244017","485-VK","2017/08/01 18:48:48","新北市林口區文化二路一段20巷13號","121.365331666667","25.0672116666667","6501700","林口區"
"244025","656-BX","2017/08/01 18:48:52","新北市林口區南勢街163號","121.359423333333","25.0750116666667","6501700","林口區"
"244009","658-BX","2017/08/01 18:48:54","新北市林口區林口路80號","121.389068333333","25.080665","6501700","林口區"
"244011","701-TV","2017/08/01 18:48:43","新北市林口區新寮1-63號","121.392953333333","25.0766583333333","6501700","林口區"
"243013","AAD-798","2017/08/01 18:48:54","新北市泰山區明志路三段206巷3號","121.42331","25.0379283333333","6501600","泰山區"
"243015","380-SR","2017/08/01 18:48:57","新北市泰山區憲訓路36號","121.42905","25.065","6501600","泰山區"
"243014","421-VK","2017/08/01 18:48:48","新北市泰山區黎明路25號","121.422443333333","25.0607316666667","6501600","泰山區"
"243012","646-TV","2017/08/01 18:48:51","新北市泰山區福興三街13號","121.434396666667","25.05777","6501600","泰山區"
"243016","680-BX","2017/08/01 18:48:55","新北市泰山區明志路二段135號","121.427678333333","25.0508183333333","6501600","泰山區"
"222003","436-BY","2017/08/01 18:48:49","新北市深坑區翠谷街17巷1號","121.626518333333","25.0084433333333","6501800","深坑區"
"222002","659-BX","2017/08/01 18:48:55","新北市深坑區文山路一段62巷3號","121.622885","25.0008266666667","6501800","深坑區"
"222001","696-SL","2017/08/01 18:48:50","新北市深坑區松柏街43巷1號","121.638721666667","25.011935","6501800","深坑區"
"231041","002-UM","2017/08/01 18:48:55","新北市新店區安華路28-1號","121.519716666667","24.9608116666667","6500600","新店區"
"231056","0291-UT","2017/08/01 18:48:52","新北市新店區建國路190號","121.538041666667","24.9804116666667","6500600","新店區"
"231059","046-UY","2017/08/01 18:49:00","新北市新店區安華路28-1號","121.519735","24.9615283333333","6500600","新店區"
"231061","047-UY","2017/08/01 18:48:46","新北市新店區安華路28-1號","121.51973","24.9612333333333","6500600","新店區"
"231060","106-UY","2017/08/01 18:48:57","新北市新店區安華路28-1號","121.519641666667","24.96073","6500600","新店區"
"231051","107-UY","2017/08/01 18:48:47","新北市新店區中央路81號","121.532201666667","24.9765716666667","6500600","新店區"
"231048","108-UY","2017/08/01 18:48:47","新北市新店區德正街22號","121.54386","24.972185","6500600","新店區"
"231062","110-UY","2017/08/01 18:48:48","新北市新店區安華路30巷12-1號","121.518501666667","24.9577366666667","6500600","新店區"
"231053","187-VK","2017/08/01 18:48:46","新北市新店區長興路26號","121.547413333333","24.939215","6500600","新店區"
"231069","189-VK","2017/08/01 11:59:39","新北市新店區安華路28-1號","121.519621666667","24.9610833333333","6500600","新店區"
"231063","268-BY","2017/08/01 18:48:55","新北市新店區車子路109號","121.50524","24.9521266666667","6500600","新店區"
"231046","278-BY","2017/08/01 18:48:41","新北市新店區直潭路41號","121.53373","24.9426033333333","6500600","新店區"
"231050","AAD-862","2017/08/01 18:48:52","新北市新店區安康路一段9-2號","121.53398","24.9606233333333","6500600","新店區"
"231058","3712-VJ","2017/08/01 18:48:47","新北市新店區北宜路一段105巷4弄13號","121.54071","24.95552","6500600","新店區"
"231055","3713-VJ","2017/08/01 18:48:40","新北市新店區新生街55號","121.53886","24.9669666666667","6500600","新店區"
"231067","4772-VM","2017/08/01 18:48:50","新北市新店區安康路一段76巷9號","121.528453333333","24.962405","6500600","新店區"
"231065","512-UM","2017/08/01 18:48:58","新北市新店區車子路18-1號","121.505803333333","24.9545983333333","6500600","新店區"
"231054","513-UM","2017/08/01 18:48:58","新北市新店區新店路13號","121.540315","24.9529266666667","6500600","新店區"
"231064","515-UM","2017/08/01 18:48:46","新北市新店區安華路28-1號","121.519738333333","24.9614033333333","6500600","新店區"
"231045","617-UM","2017/08/01 18:48:57","新北市新店區安華路28-1號","121.519763333333","24.9610216666667","6500600","新店區"
"231040","619-UM","2017/08/01 18:48:59","新北市新店區力行路15號","121.537045","24.9655583333333","6500600","新店區"
"231042","641-BX","2017/08/01 18:48:45","新北市新店區中正路86號","121.543485","24.9702833333333","6500600","新店區"
"231049","719-UM","2017/08/01 18:48:44","新北市新店區中央路87號","121.532201666667","24.9764316666667","6500600","新店區"
"231044","897-TW","2017/08/01 18:48:48","新北市新店區北新路一段128-3號","121.542358333333","24.97003","6500600","新店區"
"231043","899-TW","2017/08/01 18:48:47","新北市新店區安華路28-1號","121.519673333333","24.9610483333333","6500600","新店區"
"231066","AKT-0513","2017/08/01 18:49:01","新北市新店區安豐路22巷15號","121.502948333333","24.954945","6500600","新店區"
"241005","262-UM","2017/08/01 18:48:49","新北市五股區凌雲路一段21號","121.455138333333","25.0977483333333","6500200","三重區"
"241035","462-BY","2017/08/01 18:48:46","新北市三重區重新路四段121號","121.48483","25.0520533333333","6500200","三重區"
"235066","003-UY","2017/08/01 18:48:44","新北市中和區光華街10號","121.504265","25.0041616666667","6500300","中和區"
"235064","005-UY","2017/08/01 18:49:00","新北市中和區連城路75巷2-2號","121.497695","24.9997083333333","6500300","中和區"
"235063","006-UY","2017/08/01 18:48:54","新北市中和區連城路319巷3弄1號","121.489203333333","24.9956783333333","6500300","中和區"
"235056","096-UM","2017/08/01 18:48:40","新北市中和區員山路611巷5弄1號","121.477948333333","25.0112533333333","6500300","中和區"
"235039","097-UM","2017/08/01 18:48:44","新北市中和區宜安路26巷5號","121.513516666667","24.99604","6500300","中和區"
"235065","098-UM","2017/08/01 18:48:47","新北市中和區莊敬路49巷18號","121.50162","25.00614","6500300","中和區"
"235040","150-BY","2017/08/01 18:48:46","新北市中和區保健路72號","121.511398333333","24.9964933333333","6500300","中和區"
"235058","151-BY","2017/08/01 18:48:50","新北市中和區連城路559-1號","121.479751666667","24.9946333333333","6500300","中和區"
"235055","183-VK","2017/08/01 18:48:50","新北市中和區民生街56號","121.469243333333","25.00507","6500300","中和區"
"235038","185-VK","2017/08/01 18:48:45","新北市中和區立人街14巷40弄2號","121.5192","24.9955483333333","6500300","中和區"
"235049","186-VK","2017/08/01 18:48:48","新北市中和區景安路132巷11號","121.504465","24.99421","6500300","中和區"
"235067","255-BX","2017/08/01 18:48:49","新北市中和區新生街11號","121.4832","25.00433","6500300","中和區"
"235044","293-VK","2017/08/01 18:48:55","新北市中和區復興路280巷3弄1號","121.502211666667","24.9908433333333","6500300","中和區"
"235072","301-VK","2017/08/01 18:48:54","新北市中和區中山路二段167號","121.501346666667","25.002665","6500300","中和區"
"235043","352-BY","2017/08/01 18:48:47","新北市中和區成功路139號","121.525828333333","24.9903783333333","6500300","中和區"
"235051","376-QA","2017/08/01 18:48:48","新北市中和區華新街143巷106弄30號","121.506151666667","24.9787933333333","6500300","中和區"
"235068","377-QA","2017/08/01 18:48:41","新北市中和區中正路219號","121.496563333333","24.9935333333333","6500300","中和區"
"235061","378-QA","2017/08/01 18:48:35","新北市中和區民享街37號","121.474031666667","25.0036833333333","6500300","中和區"
"235050","4979-A6","2017/08/01 18:48:47","新北市中和區忠孝街62巷42號","121.513098333333","24.9837116666667","6500300","中和區"
"235069","4980-A6","2017/08/01 18:48:41","新北市中和區圓通路109巷20號","121.499988333333","24.9963166666667","6500300","中和區"
"235042","551-UM","2017/08/01 18:48:42","新北市中和區秀朗路三段135巷1號","121.525385","24.9925266666667","6500300","中和區"
"235070","558-UM","2017/08/01 18:48:45","新北市中和區景安路77號","121.506381666667","24.9973583333333","6500300","中和區"
"235045","565-BX","2017/08/01 18:48:54","新北市中和區南山路208巷1弄11號","121.506483333333","24.989895","6500300","中和區"
"235054","640-BX","2017/08/01 18:48:58","新北市中和區民享街52號","121.474018333333","25.0025383333333","6500300","中和區"
"235060","647-TV","2017/08/01 18:48:41","新北市中和區中山路三段117號","121.474558333333","25.0062016666667","6500300","中和區"
"235047","732-UM","2017/08/01 18:48:42","新北市中和區興南路二段34巷69號","121.504906666667","24.9852516666667","6500300","中和區"
"235071","783-BX","2017/08/01 18:48:59","新北市中和區員山路36巷16-3號","121.485228333333","24.991065","6500300","中和區"
"235062","800-TS","2017/08/01 18:48:59","新北市中和區中山路二段310號","121.49568","25.002325","6500300","中和區"
"235057","801-TS","2017/08/01 18:48:47","新北市中和區民安街2巷37弄10號","121.47995","25.0011866666667","6500300","中和區"
"235041","802-TS","2017/08/01 18:48:47","新北市中和區宜安路170號","121.508903333333","24.9990933333333","6500300","中和區"
"235052","805-TS","2017/08/01 18:48:48","新北市中和區興南路二段399巷38號","121.49922","24.978855","6500300","中和區"
"235048","896-TW","2017/08/01 18:48:57","新北市中和區南山路300號","121.507791666667","24.9871383333333","6500300","中和區"
"235053","900-TW","2017/08/01 18:48:40","新北市中和區華福街6號","121.465481666667","24.996815","6500300","中和區"
"235037","AAC-213","2017/08/01 18:48:57","新北市中和區景德街63號","121.517153333333","24.9914833333333","6500300","中和區"
"235059","AAC-215","2017/08/01 18:48:53","新北市中和區圓通路385號","121.490261666667","24.9892533333333","6500300","中和區"
"220068","013-TV","2017/08/01 18:48:49","新北市板橋區民生路二段36-1號","121.47256","25.0165466666667","6500100","板橋區"
"220086","073-UY","2017/08/01 18:48:43","新北市板橋區大智街71巷40號","121.452956666667","25.0143566666667","6500100","板橋區"
"220106","075-UY","2017/08/01 18:48:46","新北市板橋區民生路二段161巷7號","121.470243333333","25.0196816666667","6500100","板橋區"
"220096","120-SR","2017/08/01 18:48:46","新北市板橋區民生路二段120號","121.470308333333","25.0197116666667","6500100","板橋區"
"247006","341-TH","2017/08/01 18:48:29","新北市五股區芳洲九路36號","121.447688333333","25.0880933333333","6501400","蘆洲區"
"226004","205-ST","2017/08/01 18:48:49","新北市平溪區平溪里平溪街22號","121.738791666667","25.02534","6502400","平溪區"
"228001","212-TW","2017/08/01 18:48:54","新北市貢寮區仁理村保健街69號","121.923641666667","25.0516316666667","6502600","貢寮區"
"228002","663-BX","2017/08/01 18:48:42","新北市貢寮區福隆里東興街6-11號","121.950773333333","25.0210733333333","6502600","貢寮區"
"228003","828-UM","2017/08/01 18:48:59","新北市瑞芳區鼻頭路127號","121.91669","25.1217566666667","6502600","貢寮區"
"224006","676-BX","2017/08/01 18:48:51","新北市瑞芳區中正路91號","121.80511","25.1076083333333","6501200","瑞芳區"
"224011","420-VK","2017/08/01 18:48:47","新北市瑞芳區崙頂路1-6號","121.847045","25.10472","6501200","瑞芳區"
"224009","285-BY","2017/08/01 18:48:41","新北市瑞芳區祈堂路2號","121.85992","25.1117","6501200","瑞芳區"
"224008","275-VK","2017/08/01 18:48:45","新北市瑞芳區逢甲路277號","121.801591666667","25.1119716666667","6501200","瑞芳區"
"224007","273-VK","2017/08/01 18:48:47","新北市瑞芳區大埔路146-1號","121.76157","25.1010733333333","6501200","瑞芳區"
"224005","271-BY","2017/08/01 18:48:42","新北市瑞芳區瑞濱路85號","121.821026666667","25.1210483333333","6501200","瑞芳區"
"227003","642-TC","2017/08/01 18:48:45","新北市雙溪區平林里梅竹蹊28號","121.861611666667","25.0360733333333","6502500","雙溪區"
"227009","400-TW","2017/08/01 18:48:45","新北市雙溪區牡丹里聖南26號","121.856595","25.0531016666667","6502500","雙溪區"
"253006","032-BX","2017/08/01 18:48:44","新北市石門區下員坑16號","121.510761666667","25.2835033333333","6502200","石門區"
"253005","295-VK","2017/08/01 18:48:45","新北市石門區中山路28-3號","121.565698333333","25.2898416666667","6502200","石門區"
"253001","4710-YM","2017/08/01 18:48:42","新北市石門區老梅路52巷12弄21號","121.547521666667","25.2882866666667","6502200","石門區"
"208003","665-BX","2017/08/01 18:48:47","新北市金山區中山路393號","121.633441666667","25.22526","6502700","金山區"
"208001","761-BX","2017/08/01 18:48:53","新北市金山區文化三路66巷2弄1號","121.634303333333","25.2256933333333","6502700","金山區"
"251014","180-VK","2017/08/01 18:48:46","新北市淡水區崙頂32號","121.487463333333","25.2228633333333","6501000","淡水區"
"251008","181-VK","2017/08/01 18:48:52","新北市淡水區北投子14-6號","121.447323333333","25.18515","6501000","淡水區"
"251010","413-VK","2017/08/01 18:48:44","新北市淡水區沙崙路9號","121.421086666667","25.1812083333333","6501000","淡水區"
"251012","441-VK","2017/08/01 18:48:58","新北市淡水區中山北路一段156號","121.443963333333","25.1779933333333","6501000","淡水區"
"251016","442-VK","2017/08/01 18:48:43","新北市淡水區下圭柔山71-1號","121.446458333333","25.2059283333333","6501000","淡水區"
"251001","559-UM","2017/08/01 18:48:54","新北市淡水區自強路108-1號","121.461763333333","25.1305183333333","6501000","淡水區"
"251009","575-R6","2017/08/01 18:48:51","新北市淡水區重建街172號","121.440711666667","25.1740566666667","6501000","淡水區"
"251011","650-BX","2017/08/01 18:49:00","新北市淡水區學府路55號","121.448153333333","25.1694033333333","6501000","淡水區"
"251002","672-BX","2017/08/01 18:48:49","新北市淡水區學府路71號","121.448463333333","25.169845","6501000","淡水區"
"251003","673-BX","2017/08/01 18:48:53","新北市淡水區中山北路一段143號","121.442893333333","25.1774683333333","6501000","淡水區"
"207003","550-UM","2017/08/01 18:48:55","新北市萬里區大鵬里頂社2-1號","121.658951666667","25.2080633333333","6502800","萬里區"
"207004","225-TW","2017/08/01 18:48:49","新北市萬里區萬里里獅頭路23號","121.693233333333","25.178225","6502800","萬里區"
"252002","178-VK","2017/08/01 18:48:56","新北市三芝區智成街72-1號","121.50491","25.2559233333333","6502100","三芝區"
"252003","249-BX","2017/08/01 18:48:52","新北市三芝區後厝里土地公坑57-1號","121.461593333333","25.2477233333333","6502100","三芝區"
"252001","702-TV","2017/08/01 18:48:48","新北市三芝區中正路三段9號","121.502848333333","25.253985","6502100","三芝區"
"208002","170-UY","2017/08/01 18:48:52","新北市金山區信義路61號","121.635738333333","25.2189533333333","6502700","金山區"
"237004","078-UY","2017/08/01 18:48:51","新北市三峽區有木130-1號","121.436036666667","24.85598","6500900","三峽區"
"237007","153-BY","2017/08/01 18:48:55","新北市三峽區柑樹路2巷76號","121.361823333333","24.904655","6500900","三峽區"
"237009","210-TH","2017/08/01 18:48:50","新北市三峽區中山路80號","121.366915","24.93518","6500900","三峽區"
"237013","252-BX","2017/08/01 18:48:56","新北市三峽區光明路69巷25號","121.376528333333","24.92927","6500900","三峽區"
"237012","275-BY","2017/08/01 18:48:26","新北市三峽區三樹路340號","121.383956666667","24.94333","6500900","三峽區"
"237008","302-VK","2017/08/01 18:49:01","新北市三峽區白雞67號","121.396126666667","24.91107","6500900","三峽區"
"237014","433-BY","2017/08/01 18:48:44","新北市三峽區隆恩街170號","121.36322","24.942925","6500900","三峽區"
"237006","5529-G3","2017/08/01 18:48:49","新北市三峽區溪東路233巷4弄13號","121.40707","24.9337133333333","6500900","三峽區"
"237011","572-TV","2017/08/01 18:03:35","新北市三峽區溪北街2號","121.396006666667","24.9362216666667","6500900","三峽區"
"237016","649-BX","2017/08/01 18:48:57","新北市三峽區竹崙路72號","121.43219","24.919035","6500900","三峽區"
"237010","706-TV","2017/08/01 18:48:58","新北市三峽區復興路119-3號","121.369766666667","24.9386383333333","6500900","三峽區"
"237005","AKY-6261","2017/08/01 18:48:44","新北市三峽區文化路205號","121.366388333333","24.9356316666667","6500900","三峽區"
"236070","105-UM","2017/08/01 18:48:38","新北市土城區延和路21巷43號","121.463545","24.9892916666667","6501300","土城區"
"236043","107-UM","2017/08/01 18:48:59","新北市土城區裕民路92巷25弄7號","121.449851666667","24.98576","6501300","土城區"
"236079","166-UM","2017/08/01 18:48:51","新北市土城區中央路四段162號","121.416883333333","24.9582316666667","6501300","土城區"
"236031","253-BX","2017/08/01 18:48:54","新北市土城區中央路二段328號","121.440076666667","24.97246","6501300","土城區"
"236027","269-VK","2017/08/01 18:48:59","新北市土城區興城路38號","121.441803333333","24.9729033333333","6501300","土城區"
"236015","270-VK","2017/08/01 18:48:54","新北市土城區金城路二段354巷8號","121.460838333333","24.9844816666667","6501300","土城區"
"236038","271-VK","2017/08/01 18:48:55","新北市土城區明德路一段247巷21號","121.463108333333","24.9774066666667","6501300","土城區"
"236023","401-BY","2017/08/01 18:48:56","新北市土城區延吉街253巷15號","121.467921666667","24.9843133333333","6501300","土城區"
"236059","912-UM","2017/08/01 18:48:53","新北市土城區中央路三段149號","121.432303333333","24.96542","6501300","土城區"
"236049","913-UM","2017/08/01 18:48:58","新北市土城區青雲路38號","121.459958333333","24.9883533333333","6501300","土城區"
"236063","915-UM","2017/08/01 18:48:58","新北市土城區金城路三段207巷6弄23號","121.470425","24.990565","6501300","土城區"
"236055","AAC-216","2017/08/01 18:48:55","新北市土城區裕民路169號","121.453048333333","24.9851383333333","6501300","土城區"
"242054","349-TH","2017/08/01 18:48:55","新北市板橋區大觀路三段50巷79號","121.431451666667","24.9963033333333","6500500","新莊區"
"238023","601-UM","2017/08/01 18:48:53","新北市樹林區三福街114號","121.40643","25.016275","6500700","樹林區"
"238019","599-UM","2017/08/01 18:48:54","新北市樹林區東榮街147巷4弄16號","121.414373333333","24.9809533333333","6500700","樹林區"
"238018","571-TV","2017/08/01 18:48:25","新北市樹林區樹新路59號","121.427418333333","24.99503","6500700","樹林區"
"238024","5061-A6","2017/08/01 18:48:57","新北市樹林區太順街49巷5號","121.418115","24.9788833333333","6500700","樹林區"
"238022","312-TH","2017/08/01 18:48:54","新北市樹林區東大街1號","121.413978333333","24.9765733333333","6500700","樹林區"
"238025","303-VK","2017/08/01 18:48:48","新北市樹林區中山路三段22號","121.395623333333","24.9729666666667","6500700","樹林區"
"238017","283-BY","2017/08/01 18:48:51","新北市樹林區光興街50號","121.409853333333","25.0027116666667","6500700","樹林區"
"238014","282-BY","2017/08/01 18:48:55","新北市樹林區大安路111巷11號","121.423113333333","24.99768","6500700","樹林區"
"238020","268-VK","2017/08/01 18:48:50","新北市樹林區俊英街83巷2號","121.425636666667","25.00853","6500700","樹林區"
"238026","172-UY","2017/08/01 18:48:43","新北市樹林區信和街98號","121.388506666667","24.9733566666667","6500700","樹林區"
"238016","169-UY","2017/08/01 18:48:55","新北市樹林區文化街23號","121.419315","24.9876266666667","6500700","樹林區"
"239007","AAC-297","2017/08/01 18:48:55","新北市鶯歌區成功街6巷8號","121.358856666667","24.9573583333333","6500800","鶯歌區"
"239006","891-R6","2017/08/01 18:48:52","新北市鶯歌區鶯桃路296巷84弄30號","121.33731","24.961265","6500800","鶯歌區"
"239008","527-UM","2017/08/01 18:48:42","新北市鶯歌區國際二路68號","121.334951666667","24.9763383333333","6500800","鶯歌區"
"239005","526-UM","2017/08/01 18:48:55","新北市鶯歌區大湖路361巷26號","121.33053","24.977925","6500800","鶯歌區"
"239001","417-VK","2017/08/01 18:48:53","新北市鶯歌區鶯桃路132號","121.338116666667","24.9547283333333","6500800","鶯歌區"
"239003","360-BY","2017/08/01 18:48:48","新北市鶯歌區鶯桃路561號","121.33019","24.96833","6500800","鶯歌區"
"239002","359-BY","2017/08/01 18:48:43","新北市鶯歌區中正一路302號","121.35588","24.9570883333333","6500800","鶯歌區"
"239004","193-VK","2017/08/01 18:48:51","新北市鶯歌區國中街179號","121.338831666667","24.9394716666667","6500800","鶯歌區"
"221008","489-VK","2017/08/01 18:48:46","新北市汐止區康寧街901號","121.65141","25.0749983333333","6501100","汐止區"
"221036","130-UY","2017/08/01 18:48:43","新北市汐止區水碓街49號","121.665188333333","25.0694316666667","6501100","汐止區"
"221015","131-UY","2017/08/01 18:48:43","新北市汐止區鄉長路一段55巷24號","121.664946666667","25.0762683333333","6501100","汐止區"
"221010","269-BY","2017/08/01 18:48:43","新北市汐止區汐萬路三段223-1號","121.643976666667","25.1035183333333","6501100","汐止區"
"221012","278-VK","2017/08/01 01:06:22","新北市汐止區汐萬路一段256巷1號","121.65184","25.0748733333333","6501100","汐止區"
"221023","279-VK","2017/08/01 02:10:31","新北市汐止區汐萬路一段256巷1號","121.651796666667","25.0748816666667","6501100","汐止區"
"221032","280-BY","2017/08/01 18:48:39","新北市汐止區橫科路322巷24弄6-1號","121.62042","25.0503183333333","6501100","汐止區"
"221027","281-BY","2017/08/01 18:48:50","新北市汐止區汐萬路一段256巷3號","121.652828333333","25.0744216666667","6501100","汐止區"
"221038","297-VK","2017/08/01 18:49:02","新北市汐止區汐萬路一段312號","121.650688333333","25.075305","6501100","汐止區"
"221029","298-VK","2017/08/01 18:48:40","新北市汐止區工建路40號","121.64144","25.0630566666667","6501100","汐止區"
"221021","299-VK","2017/08/01 18:48:32","新北市汐止區大同路二段175號","121.651298333333","25.0642233333333","6501100","汐止區"
"221031","353-TW","2017/08/01 18:48:48","新北市汐止區福德一路272巷9號","121.631886666667","25.0642283333333","6501100","汐止區"
"221035","622-UM","2017/08/01 18:48:41","新北市汐止區大同路二段330號","121.656346666667","25.067015","6501100","汐止區"
"221025","623-UM","2017/08/01 18:48:59","新北市汐止區秀峰路87號","121.660066666667","25.063965","6501100","汐止區"
"221033","647-BX","2017/08/01 18:48:42","新北市汐止區南勢街1巷1號","121.626976666667","25.03739","6501100","汐止區"
"221002","707-TV","2017/08/01 18:48:43","新北市汐止區大同路一段161號","121.632656666667","25.05657","6501100","汐止區"
"220079","145-BY","2017/08/01 18:48:53","新北市板橋區民權路202巷7弄2號","121.460011666667","25.0148283333333","6500100","板橋區"
"220080","200-UY","2017/08/01 18:48:58","新北市板橋區大觀路二段265巷76弄1號","121.442405","24.99655","6500100","板橋區"
"220082","610-BX","2017/08/01 18:48:51","新北市板橋區篤行路二段136號","121.429893333333","24.9884983333333","6500100","板橋區"
"220101","245-BX","2017/08/01 15:38:46","新北市板橋區民生路二段89-6號","121.470503333333","25.0193266666667","6500100","板橋區"
"220056","276-BY","2017/08/01 18:48:58","新北市板橋區四川路二段14號","121.45614","24.9962216666667","6500100","板橋區"
"220072","277-BY","2017/08/01 18:49:00","新北市板橋區大觀路三段79號","121.433471666667","24.9948933333333","6500100","板橋區"
"220094","283-UM","2017/08/01 18:48:47","新北市板橋區民生路二段120號","121.470353333333","25.019805","6500100","板橋區"
"220053","285-VK","2017/08/01 16:41:27","新北市板橋區民生路二段15-1號","121.472683333333","25.0165066666667","6500100","板橋區"
"220083","286-VK","2017/08/01 18:48:58","新北市板橋區大觀路二段22巷29號","121.445178333333","25.0034933333333","6500100","板橋區"
"220081","287-VK","2017/08/01 18:48:56","新北市板橋區大觀路一段28巷82號","121.44976","25.0108483333333","6500100","板橋區"
"220090","288-VK","2017/08/01 18:48:42","新北市板橋區民生路二段161巷9號","121.470261666667","25.0196566666667","6500100","板橋區"
"220061","293-UM","2017/08/01 18:48:58","新北市板橋區民生路二段36-1號","121.472353333333","25.01671","6500100","板橋區"
"220053","295-UM","2017/08/01 18:48:45","新北市板橋區民生路二段36-1號","121.472545","25.016815","6500100","板橋區"
"220084","296-UM","2017/08/01 18:48:51","新北市板橋區大觀路二段148巷25號","121.441861666667","25.0002266666667","6500100","板橋區"
"220075","297-UM","2017/08/01 18:48:55","新北市板橋區大觀路一段28巷106-3號","121.451106666667","25.0107616666667","6500100","板橋區"
"220062","303-R5","2017/08/01 18:48:46","新北市板橋區民生路二段36-1號","121.472198333333","25.0169366666667","6500100","板橋區"
"220092","307-R5","2017/08/01 18:48:54","新北市板橋區民生路二段120號","121.470433333333","25.0196633333333","6500100","板橋區"
"220098","317-R6","2017/08/01 18:48:54","新北市板橋區民生路二段120號","121.47046","25.0197433333333","6500100","板橋區"
"220064","486-VK","2017/08/01 15:28:30","新北市板橋區中山路二段89巷5弄12號","121.472875","25.0168","6500100","板橋區"
"220089","487-VK","2017/08/01 18:48:52","新北市板橋區民生路二段120號","121.470551666667","25.0195466666667","6500100","板橋區"
"220088","491-VK","2017/08/01 18:48:57","新北市板橋區民生路二段161巷5號","121.469996666667","25.0196483333333","6500100","板橋區"
"220035","560-BX","2017/08/01 18:48:59","新北市板橋區中正路275巷59-4號","121.452988333333","25.0179483333333","6500100","板橋區"
"220103","561-BX","2017/08/01 18:48:47","新北市板橋區民生路二段120號","121.470525","25.019555","6500100","板橋區"
"220071","568-UM","2017/08/01 18:48:57","新北市板橋區民生路二段36-1號","121.472496666667","25.0168266666667","6500100","板橋區"
"220063","609-BX","2017/08/01 15:19:09","新北市板橋區民生路二段36-1號","121.47255","25.0165183333333","6500100","板橋區"
"220091","637-BX","2017/08/01 18:48:38","新北市板橋區民生路二段161巷1號","121.470223333333","25.020025","6500100","板橋區"
"220057","686-BX","2017/08/01 18:48:51","新北市板橋區民生路二段17號","121.472513333333","25.0164666666667","6500100","板橋區"
"220077","687-BX","2017/08/01 18:48:51","新北市板橋區大觀路二段174巷165弄2號","121.441891666667","25.0034133333333","6500100","板橋區"
"220054","741-BX","2017/08/01 18:48:57","新北市板橋區民生路二段56-1號","121.472391666667","25.0169933333333","6500100","板橋區"
"220055","827-TW","2017/08/01 18:48:41","新北市板橋區民生路二段15-1號","121.472768333333","25.0163283333333","6500100","板橋區"
"220067","829-TW","2017/08/01 18:48:43","新北市板橋區民生路二段36-1號","121.472291666667","25.016945","6500100","板橋區"
"220102","830-TW","2017/08/01 15:59:15","新北市板橋區民生路二段184號","121.471308333333","25.02011","6500100","板橋區"
"220074","895-R6","2017/08/01 18:49:01","新北市板橋區南門街44號","121.456955","25.0081266666667","6500100","板橋區"
"220073","985-R7","2017/08/01 18:48:47","新北市板橋區館前西路121號","121.456715","25.00747","6500100","板橋區"
"220097","AAC-210","2017/08/01 18:48:48","新北市板橋區民生路二段120號","121.470426666667","25.0196366666667","6500100","板橋區"
"220070","AAC-253","2017/08/01 18:48:52","新北市板橋區民生路二段17號","121.47252","25.0164816666667","6500100","板橋區"
