"lineid","car","time","location","longitude","latitude","cityid","cityname"
"234046","148-BY","2017/08/01 18:58:51","新北市永和區秀朗路二段148巷7弄16號","121.525856666667","25.000305","6500400","永和區"
"234013","149-BY","2017/08/01 18:58:44","新北市永和區保福路二段2號","121.511161666667","25.0107733333333","6500400","永和區"
"234007","207-UY","2017/08/01 18:58:50","新北市永和區中山路一段65號","121.512785","25.0106016666667","6500400","永和區"
"234081","298-R6","2017/08/01 18:58:56","新北市永和區永亨路71號","121.521515","25.0058716666667","6500400","永和區"
"234038","336-UY","2017/08/01 18:58:54","新北市永和區民樂街92巷1號","121.527318333333","24.9971016666667","6500400","永和區"
"234064","337-UY","2017/08/01 18:58:50","新北市永和區秀朗路一段183號","121.517423333333","25.00353","6500400","永和區"
"234086","338-UY","2017/08/01 18:58:55","新北市永和區永寧街121號","121.517991666667","25.0056783333333","6500400","永和區"
"234070","552-UM","2017/08/01 18:58:49","新北市永和區豫溪街95巷10弄1號","121.518011666667","25.0107816666667","6500400","永和區"
"234054","553-UM","2017/08/01 18:58:41","新北市永和區竹林路66巷5號","121.518195","25.01329","6500400","永和區"
"234017","745-BX","2017/08/01 18:58:38","新北市永和區永和路二段299號","121.516091666667","25.0161833333333","6500400","永和區"
"234030","746-BX","2017/08/01 18:58:54","新北市永和區四維街44號","121.525155","24.9980966666667","6500400","永和區"
"234061","AAD-866","2017/08/01 18:58:49","新北市永和區福和路307號","121.516208333333","25.007155","6500400","永和區"
"234042","862-TW","2017/08/01 18:58:49","新北市永和區永貞路308號","121.511816666667","25.0048916666667","6500400","永和區"
"234050","863-TW","2017/08/01 18:58:48","新北市永和區文化路194號","121.510815","25.0162133333333","6500400","永和區"
"234026","9371-KE","2017/08/01 18:58:54","新北市永和區安樂路473巷2號","121.51421","25.005795","6500400","永和區"
"234011","9373-KE","2017/08/01 18:58:47","新北市永和區永和路二段405巷39號","121.514466666667","25.0168833333333","6500400","永和區"
"249005","172-UM","2017/08/01 18:58:49","新北市八里區長道坑11號","121.395471666667","25.1216666666667","6502300","八里區"
"249001","173-UM","2017/08/01 18:58:49","新北市八里區龍米路二段203-1號","121.432806666667","25.1583383333333","6502300","八里區"
"248016","026-BX","2017/08/01 18:58:44","新北市五股區成泰路三段543巷52-1號","121.449843333333","25.102955","6501500","五股區"
"248006","077-UY","2017/08/01 18:58:54","新北市五股區中興路一段50號","121.468035","25.0726116666667","6501500","五股區"
"248008","095-VK","2017/08/01 18:58:53","新北市五股區中興路一段126號","121.465538333333","25.0736016666667","6501500","五股區"
"248012","247-BX","2017/07/31 21:14:53","新北市五股區中興路二段182巷5號","121.456766666667","25.07862","6501500","五股區"
"248020","261-SL","2017/08/01 18:58:53","新北市五股區凌雲路三段57號","121.425311666667","25.125015","6501500","五股區"
"248010","272-BY","2017/08/01 18:58:46","新北市五股區水碓五路80號","121.430138333333","25.07176","6501500","五股區"
"248002","655-BX","2017/08/01 18:58:59","新北市五股區凌雲路一段89號","121.450611666667","25.10144","6501500","五股區"
"248004","677-BX","2017/08/01 18:58:52","新北市五股區民義路二段41號","121.41372","25.10149","6501500","五股區"
"234023","9380-KE","2017/08/01 18:58:59","新北市永和區環河東路一段140號","121.520963333333","25.0150883333333","6500400","永和區"
"234077","969-R7","2017/08/01 18:58:45","新北市永和區民治街80號","121.517466666667","24.9983516666667","6500400","永和區"
"234074","AAC-211","2017/08/01 18:58:57","新北市永和區福和路1號","121.525795","25.00969","6500400","永和區"
"234067","AAC-212","2017/08/01 18:58:56","新北市永和區中和路625號","121.51288","25.004775","6500400","永和區"
"234003","AAC-295","2017/08/01 18:58:46","新北市永和區和平街30號","121.513371666667","25.01001","6500400","永和區"
"232011","375-UM","2017/08/01 18:58:51","新北市坪林區水聳淒坑27號","121.71136","24.9340533333333","6502000","坪林區"
"244013","069-UM","2017/08/01 18:58:41","新北市林口區麗園一街6巷7-3號","121.37515","25.0709466666667","6501700","林口區"
"244007","080-UY","2017/08/01 18:58:56","新北市林口區太平里16號","121.377361666667","25.115195","6501700","林口區"
"244019","742-UY","2017/08/01 18:58:42","新北市林口區麗園二街47巷49號","121.382591666667","25.0695466666667","6501700","林口區"
"244023","483-VK","2017/08/01 18:58:47","新北市林口區文林六街48號","121.37122","25.0815316666667","6501700","林口區"
"244017","485-VK","2017/08/01 18:58:47","新北市林口區文化二路一段120巷5號","121.367893333333","25.069955","6501700","林口區"
"244025","656-BX","2017/08/01 18:58:52","新北市林口區文化北路一段478-1號","121.365938333333","25.0775366666667","6501700","林口區"
"244009","658-BX","2017/08/01 18:58:54","新北市林口區竹林路344號","121.391588333333","25.0837133333333","6501700","林口區"
"244011","701-TV","2017/08/01 18:58:43","新北市林口區仁愛路一段285巷13號","121.394973333333","25.0742466666667","6501700","林口區"
"243013","AAD-798","2017/08/01 18:58:54","新北市泰山區明志路三段349號","121.421956666667","25.0352333333333","6501600","泰山區"
"243009","297-R6","2017/08/01 18:58:43","新北市泰山區泰林路二段365號","121.427926666667","25.0636666666667","6501600","泰山區"
"243015","380-SR","2017/08/01 18:58:57","新北市泰山區泰林路二段244號","121.432091666667","25.06221","6501600","泰山區"
"243014","421-VK","2017/08/01 18:58:48","新北市泰山區黎明路23號","121.420915","25.062665","6501600","泰山區"
"243010","548-UM","2017/08/01 18:58:48","新北市泰山區辭修路24號","121.428991666667","25.0581133333333","6501600","泰山區"
"243011","549-UM","2017/08/01 18:58:39","新北市泰山區明志路二段320巷2弄7號","121.426095","25.0465966666667","6501600","泰山區"
"243012","646-TV","2017/08/01 18:58:54","新北市泰山區福興三街185號","121.43305","25.057015","6501600","泰山區"
"243016","680-BX","2017/08/01 18:58:49","新北市泰山區明志路二段183號","121.427451666667","25.0498733333333","6501600","泰山區"
"222003","436-BY","2017/08/01 18:58:49","新北市深坑區深南路50號","121.620086666667","25.0089733333333","6501800","深坑區"
"222002","659-BX","2017/08/01 18:58:55","新北市深坑區文山路一段33號","121.629533333333","25.0038","6501800","深坑區"
"222001","696-SL","2017/08/01 18:58:50","新北市深坑區北深路一段170號","121.634071666667","25.0107016666667","6501800","深坑區"
"231041","002-UM","2017/08/01 18:58:55","新北市新店區安康路一段35-1號","121.532156666667","24.9605216666667","6500600","新店區"
"231056","0291-UT","2017/08/01 18:58:52","新北市新店區大同街25號","121.538778333333","24.9806916666667","6500600","新店區"
"231059","046-UY","2017/08/01 18:58:40","新北市新店區安康路一段355號","121.519921666667","24.96381","6500600","新店區"
"231061","047-UY","2017/08/01 18:58:46","新北市新店區安康路一段355-4號","121.517383333333","24.9637966666667","6500600","新店區"
"231060","106-UY","2017/08/01 18:58:57","新北市新店區安忠路97號","121.510961666667","24.9563266666667","6500600","新店區"
"231051","107-UY","2017/08/01 18:58:47","新北市新店區百忍街12號","121.534776666667","24.9756466666667","6500600","新店區"
"231048","108-UY","2017/08/01 18:58:47","新北市新店區德正街27巷29弄14號","121.545795","24.971965","6500600","新店區"
"231062","110-UY","2017/08/01 18:58:48","新北市新店區安德街60巷26號","121.511421666667","24.9640883333333","6500600","新店區"
"231053","187-VK","2017/08/01 18:58:46","新北市新店區新烏路二段7號","121.543575","24.92967","6500600","新店區"
"231069","189-VK","2017/08/01 11:59:39","新北市新店區安華路28-1號","121.519621666667","24.9610833333333","6500600","新店區"
"231063","268-BY","2017/08/01 18:58:55","新北市新店區車子路109號","121.505226666667","24.9521216666667","6500600","新店區"
"231046","278-BY","2017/08/01 18:58:41","新北市新店區直潭五街47號","121.532998333333","24.9407316666667","6500600","新店區"
"231050","AAD-862","2017/08/01 18:58:52","新北市新店區新烏路一段11巷13號","121.547646666667","24.9510266666667","6500600","新店區"
"231058","3712-VJ","2017/08/01 18:58:46","新北市新店區中興路一段203號","121.543581666667","24.9654866666667","6500600","新店區"
"231055","3713-VJ","2017/08/01 18:58:40","新北市新店區新生街13巷13號","121.539455","24.9659366666667","6500600","新店區"
"231067","4772-VM","2017/08/01 18:58:50","新北市新店區安康路一段291巷54號","121.522845","24.9613766666667","6500600","新店區"
"231065","512-UM","2017/08/01 18:58:50","新北市新店區安康路三段410號","121.48579","24.95159","6500600","新店區"
"231054","513-UM","2017/08/01 18:58:58","新北市新店區新店路13號","121.540296666667","24.95291","6500600","新店區"
"231064","515-UM","2017/08/01 18:58:46","新北市新店區安康路一段355號","121.519818333333","24.96339","6500600","新店區"
"231045","617-UM","2017/08/01 18:58:57","新北市新店區安康路一段35-1號","121.532118333333","24.96058","6500600","新店區"
"231040","619-UM","2017/08/01 18:58:59","新北市新店區中正路396號","121.534583333333","24.9773633333333","6500600","新店區"
"231042","641-BX","2017/08/01 18:58:44","新北市新店區中正路45號","121.54477","24.9698783333333","6500600","新店區"
"231049","719-UM","2017/08/01 18:58:44","新北市新店區中正路454-5號","121.534473333333","24.9790116666667","6500600","新店區"
"231044","897-TW","2017/08/01 18:58:48","新北市新店區寶中路72號","121.547868333333","24.9806216666667","6500600","新店區"
"231043","899-TW","2017/08/01 18:58:47","新北市新店區北新路二段1號","121.54271","24.9712716666667","6500600","新店區"
"231066","AKT-0513","2017/08/01 18:58:41","新北市新店區安祥路35-2號","121.490416666667","24.9570333333333","6500600","新店區"
"241005","262-UM","2017/08/01 18:58:49","新北市三重區溪尾街340號","121.488428333333","25.08509","6500200","三重區"
"241035","462-BY","2017/08/01 18:58:46","新北市三重區重新路四段121號","121.484863333333","25.052055","6500200","三重區"
"235066","003-UY","2017/08/01 18:58:44","新北市中和區中山路二段131巷11-1號","121.502898333333","25.002325","6500300","中和區"
"235064","005-UY","2017/08/01 18:58:40","新北市中和區泰和街25號","121.499331666667","25.0000566666667","6500300","中和區"
"235063","006-UY","2017/08/01 18:58:54","新北市中和區中正路510號","121.488466666667","24.9944566666667","6500300","中和區"
"235056","096-UM","2017/08/01 18:58:40","新北市中和區員山路466巷21弄1號","121.480641666667","25.0070366666667","6500300","中和區"
"235039","097-UM","2017/08/01 18:58:44","新北市中和區宜安路52巷22號","121.512613333333","24.9974","6500300","中和區"
"235065","098-UM","2017/08/01 18:58:47","新北市中和區中山路二段2巷45弄26-8號","121.50118","25.007","6500300","中和區"
"235040","150-BY","2017/08/01 18:58:46","新北市中和區宜安路7號","121.51347","24.995455","6500300","中和區"
"235058","151-BY","2017/08/01 18:58:50","新北市中和區連城路585號","121.478651666667","24.994145","6500300","中和區"
"235055","183-VK","2017/08/01 18:58:50","新北市中和區民德路31號","121.46891","25.0025183333333","6500300","中和區"
"235038","185-VK","2017/08/01 18:58:45","新北市中和區大勇街43巷8號","121.517515","24.99474","6500300","中和區"
"235049","186-VK","2017/08/01 18:58:48","新北市中和區景新街210巷2弄4號","121.50696","24.9942933333333","6500300","中和區"
"235067","255-BX","2017/08/01 18:58:49","新北市中和區中正路803號","121.48462","25.00122","6500300","中和區"
"235044","293-VK","2017/08/01 18:58:52","新北市中和區中興街133號","121.49993","24.9915216666667","6500300","中和區"
"235072","301-VK","2017/08/01 18:58:54","新北市中和區景平路758號","121.496305","25.00474","6500300","中和區"
"235043","352-BY","2017/08/01 18:58:47","新北市中和區秀朗路三段74-3號","121.526246666667","24.9941116666667","6500300","中和區"
"235051","376-QA","2017/08/01 18:58:48","新北市中和區忠孝街106巷39號","121.513528333333","24.984275","6500300","中和區"
"235068","377-QA","2017/08/01 18:58:41","新北市中和區中正路211巷23號","121.497635","24.992845","6500300","中和區"
"235061","378-QA","2017/08/01 18:58:55","新北市中和區民享街89巷9弄6號","121.474988333333","25.00199","6500300","中和區"
"235050","4979-A6","2017/08/01 18:58:47","新北市中和區華新街50巷8號","121.507625","24.9839683333333","6500300","中和區"
"235069","4980-A6","2017/08/01 18:59:01","新北市中和區中和路217巷10號","121.504401666667","25.0005433333333","6500300","中和區"
"235042","551-UM","2017/08/01 18:58:42","新北市中和區秀朗路三段128巷36弄2號","121.524845","24.9937116666667","6500300","中和區"
"235070","558-UM","2017/08/01 18:58:45","新北市中和區圓通路39號","121.500916666667","24.9976983333333","6500300","中和區"
"235045","565-BX","2017/08/01 18:58:54","新北市中和區興南路一段14號","121.511433333333","24.9912616666667","6500300","中和區"
"235054","640-BX","2017/08/01 18:58:58","新北市中和區民治街28號","121.47525","25.0038733333333","6500300","中和區"
"235060","647-TV","2017/08/01 18:58:41","新北市中和區民治街6巷1號","121.47489","25.005405","6500300","中和區"
"235047","732-UM","2017/08/01 18:58:59","新北市中和區興南路二段55號","121.507101666667","24.98535","6500300","中和區"
"235071","783-BX","2017/08/01 18:58:39","新北市中和區員山路36巷16-3號","121.485233333333","24.9910733333333","6500300","中和區"
"235062","800-TS","2017/08/01 18:58:59","新北市中和區中山路二段356號","121.492838333333","25.00308","6500300","中和區"
"235057","801-TS","2017/08/01 18:58:47","新北市中和區民利街33號","121.480016666667","24.9989616666667","6500300","中和區"
"235041","802-TS","2017/08/01 18:58:47","新北市中和區中安街178巷13弄6號","121.510268333333","24.9986283333333","6500300","中和區"
"235052","805-TS","2017/08/01 18:58:48","新北市中和區興南路二段347號","121.500118333333","24.980095","6500300","中和區"
"235048","896-TW","2017/08/01 18:58:57","新北市中和區華新街90號","121.508455","24.9832466666667","6500300","中和區"
"235053","900-TW","2017/08/01 18:58:40","新北市中和區民德路306號","121.467165","24.99526","6500300","中和區"
"235037","AAC-213","2017/08/01 18:58:57","新北市中和區秀朗路三段128巷13號","121.52445","24.9933583333333","6500300","中和區"
"235059","AAC-215","2017/08/01 18:58:53","新北市中和區圓通路367巷18-2號","121.491866666667","24.98875","6500300","中和區"
"220068","013-TV","2017/08/01 18:58:49","新北市板橋區三民路一段31巷57號","121.48088","25.0231266666667","6500100","板橋區"
"220086","073-UY","2017/08/01 18:58:53","新北市板橋區中正路80巷11號","121.457321666667","25.0145883333333","6500100","板橋區"
"220106","075-UY","2017/08/01 18:58:46","新北市板橋區文化路二段124巷8號","121.470535","25.0259683333333","6500100","板橋區"
"220069","AAD-861","2017/08/01 18:58:51","新北市板橋區中山路一段68號","121.46147","25.009915","6500100","板橋區"
"220096","120-SR","2017/08/01 18:58:46","新北市板橋區莊敬路171號","121.47101","25.0238233333333","6500100","板橋區"
"247006","341-TH","2017/08/01 18:57:00","新北市五股區中興路三段163號","121.449406666667","25.0808466666667","6501400","蘆洲區"
"247008","339-TH","2017/08/01 18:58:53","新北市五股區中興路三段163號","121.449251666667","25.0807733333333","6501400","蘆洲區"
"226004","205-ST","2017/08/01 18:58:49","新北市平溪區嶺腳里嶺腳寮13號","121.747843333333","25.0298716666667","6502400","平溪區"
"228001","212-TW","2017/08/01 18:58:54","新北市貢寮區仁理村保健街71號","121.923683333333","25.0516366666667","6502600","貢寮區"
"228002","663-BX","2017/08/01 18:58:42","新北市貢寮區福隆里東興街80-2號","121.947316666667","25.017195","6502600","貢寮區"
"228003","828-UM","2017/08/01 18:58:59","新北市貢寮區和美里龍洞街56-2號","121.912125","25.1139583333333","6502600","貢寮區"
"224010","AGQ-8101","2017/08/01 18:55:51","新北市瑞芳區基山街4-6號","121.84525","25.1094733333333","6501200","瑞芳區"
"224006","676-BX","2017/08/01 18:58:51","新北市瑞芳區中正路38號","121.806988333333","25.10735","6501200","瑞芳區"
"224011","420-VK","2017/08/01 18:58:47","新北市瑞芳區崙頂路1-6號","121.847056666667","25.1046966666667","6501200","瑞芳區"
"224009","285-BY","2017/08/01 18:58:41","新北市瑞芳區祈堂路53-1號","121.859595","25.11078","6501200","瑞芳區"
"224008","275-VK","2017/08/01 18:58:45","新北市瑞芳區逢甲路341-1號","121.800598333333","25.1122966666667","6501200","瑞芳區"
"224007","273-VK","2017/08/01 18:58:47","新北市瑞芳區中央路48巷吉祥園7號","121.75964","25.1037216666667","6501200","瑞芳區"
"224005","271-BY","2017/08/01 18:58:46","新北市瑞芳區海濱路155-1號","121.829633333333","25.1219716666667","6501200","瑞芳區"
"227003","642-TC","2017/08/01 18:58:45","新北市雙溪區平林里康福家園10號","121.858765","25.0373483333333","6502500","雙溪區"
"227009","400-TW","2017/08/01 18:58:45","新北市雙溪區牡丹里中正路58巷23號","121.866453333333","25.041625","6502500","雙溪區"
"253006","032-BX","2017/08/01 18:58:44","新北市石門區八甲4-3號","121.520921666667","25.2831383333333","6502200","石門區"
"253005","295-VK","2017/08/01 18:58:50","新北市石門區中央路32號","121.567943333333","25.292455","6502200","石門區"
"253001","4710-YM","2017/08/01 18:58:42","新北市石門區中山路70號","121.567686666667","25.2916583333333","6502200","石門區"
"208003","665-BX","2017/08/01 18:58:52","新北市金山區中正路32號","121.635431666667","25.222195","6502700","金山區"
"208001","761-BX","2017/08/01 18:58:53","新北市金山區中山路91號","121.640141666667","25.218845","6502700","金山區"
"251014","180-VK","2017/08/01 18:58:46","新北市淡水區小中寮32-1號","121.491568333333","25.226075","6501000","淡水區"
"251008","181-VK","2017/08/01 18:58:32","新北市淡水區下圭柔山90-8號","121.431195","25.2102516666667","6501000","淡水區"
"251010","413-VK","2017/08/01 18:58:44","新北市淡水區沙崙路25巷20號","121.421186666667","25.1822866666667","6501000","淡水區"
"251012","441-VK","2017/08/01 18:58:58","新北市淡水區新民街322巷1號","121.435351666667","25.1837366666667","6501000","淡水區"
"251016","442-VK","2017/08/01 18:58:43","新北市淡水區淡金路三段329號","121.448848333333","25.206285","6501000","淡水區"
"251001","559-UM","2017/08/01 18:58:54","新北市淡水區自強路58號","121.463201666667","25.127575","6501000","淡水區"
"251009","575-R6","2017/08/01 18:58:51","新北市淡水區重建街36號","121.439926666667","25.17125","6501000","淡水區"
"251011","650-BX","2017/08/01 18:58:53","新北市淡水區中正東路二段145號","121.45961","25.1471533333333","6501000","淡水區"
"251002","672-BX","2017/08/01 18:58:56","新北市淡水區中正東路65號","121.44709","25.1676","6501000","淡水區"
"251003","673-BX","2017/08/01 18:58:52","新北市淡水區中山北路一段149巷24號","121.442888333333","25.17795","6501000","淡水區"
"207003","550-UM","2017/08/01 18:58:55","新北市萬里區大鵬里頂社22號","121.65623","25.2106833333333","6502800","萬里區"
"207004","225-TW","2017/08/01 18:58:49","新北市萬里區萬里里獅頭路23號","121.693206666667","25.178215","6502800","萬里區"
"252002","178-VK","2017/08/01 18:58:56","新北市三芝區中正路一段67號","121.504051666667","25.257295","6502100","三芝區"
"252003","249-BX","2017/08/01 18:58:52","新北市三芝區錫板里海尾15-10號","121.47599","25.25655","6502100","三芝區"
"252001","702-TV","2017/08/01 18:58:47","新北市三芝區中興街二段260號","121.501733333333","25.2530366666667","6502100","三芝區"
"208002","170-UY","2017/08/01 18:58:52","新北市金山區信義路32號","121.635206666667","25.2196483333333","6502700","金山區"
"237004","078-UY","2017/08/01 18:58:51","新北市三峽區有木205-1號","121.439036666667","24.85144","6500900","三峽區"
"237007","153-BY","2017/08/01 18:58:59","新北市三峽區大埔路80號","121.36644","24.9073216666667","6500900","三峽區"
"237013","252-BX","2017/08/01 18:58:36","新北市三峽區光明路69巷25號","121.376506666667","24.9292383333333","6500900","三峽區"
"237012","275-BY","2017/08/01 18:58:46","新北市樹林區佳園路三段546號","121.3811","24.94409","6500900","三峽區"
"237008","302-VK","2017/08/01 18:58:41","新北市三峽區白雞33-60號","121.370908333333","24.9131116666667","6500900","三峽區"
"237014","433-BY","2017/08/01 18:58:44","新北市三峽區大勇路1-3號","121.367093333333","24.938465","6500900","三峽區"
"237006","5529-G3","2017/08/01 18:58:49","新北市三峽區溪東路233巷4弄17號","121.407198333333","24.93393","6500900","三峽區"
"237011","572-TV","2017/08/01 18:03:35","新北市三峽區溪北街2號","121.396006666667","24.9362216666667","6500900","三峽區"
"237016","649-BX","2017/08/01 18:58:57","新北市三峽區安坑13-3號","121.443948333333","24.9265016666667","6500900","三峽區"
"237010","706-TV","2017/08/01 18:58:41","新北市三峽區國光街364巷3號","121.371011666667","24.93996","6500900","三峽區"
"237005","AKY-6261","2017/08/01 18:58:44","新北市三峽區中山路459巷163-3號","121.349073333333","24.93329","6500900","三峽區"
"236070","105-UM","2017/08/01 18:58:38","新北市土城區清水路99巷13號","121.456788333333","24.98234","6501300","土城區"
"236043","107-UM","2017/08/01 18:58:59","新北市土城區學府路一段229巷2號","121.451265","24.9839533333333","6501300","土城區"
"236079","166-UM","2017/08/01 18:58:51","新北市土城區中央路四段125巷9弄1-1號","121.41693","24.95742","6501300","土城區"
"236031","253-BX","2017/08/01 18:58:55","新北市土城區興城路49巷2號","121.440833333333","24.9712066666667","6501300","土城區"
"236027","269-VK","2017/08/01 18:58:40","新北市土城區光明街11號","121.442025","24.9746866666667","6501300","土城區"
"236015","270-VK","2017/08/01 18:58:57","新北市土城區永豐路29巷1號","121.462961666667","24.9882666666667","6501300","土城區"
"236038","271-VK","2017/08/01 18:58:55","新北市土城區明德路一段196巷7號","121.461596666667","24.978275","6501300","土城區"
"236023","401-BY","2017/08/01 18:58:53","新北市土城區明峰街48號","121.467665","24.9863583333333","6501300","土城區"
"236059","912-UM","2017/08/01 18:58:53","新北市土城區金城路二段26號","121.450308333333","24.9780633333333","6501300","土城區"
"236049","913-UM","2017/08/01 18:58:38","新北市土城區青雲路136號","121.459018333333","24.9851583333333","6501300","土城區"
"236063","915-UM","2017/08/01 18:58:58","新北市土城區金城路三段139巷11號","121.467798333333","24.9886766666667","6501300","土城區"
"236055","AAC-216","2017/08/01 18:58:55","新北市土城區學成路168號","121.448031666667","24.9890783333333","6501300","土城區"
"238023","601-UM","2017/08/01 18:58:53","新北市樹林區工興街14巷1號","121.398966666667","25.0136283333333","6500700","樹林區"
"238019","599-UM","2017/08/01 18:58:54","新北市樹林區東榮街91巷2弄17號","121.415476666667","24.9820066666667","6500700","樹林區"
"238018","571-TV","2017/08/01 18:58:45","新北市樹林區鎮前街275-2號","121.419246666667","24.98558","6500700","樹林區"
"238024","5061-A6","2017/08/01 18:58:57","新北市樹林區八德街1016號","121.391273333333","24.9685416666667","6500700","樹林區"
"238022","312-TH","2017/08/01 18:58:54","新北市樹林區東興街2-1號","121.409126666667","24.9797083333333","6500700","樹林區"
"238025","303-VK","2017/08/01 18:58:48","新北市樹林區中山路三段136號","121.391841666667","24.9721983333333","6500700","樹林區"
"238017","283-BY","2017/08/01 18:58:50","新北市樹林區光興街50號","121.409835","25.0027","6500700","樹林區"
"238014","282-BY","2017/08/01 18:58:55","新北市樹林區潭興街143巷11號","121.42541","24.999985","6500700","樹林區"
"238020","268-VK","2017/08/01 18:58:49","新北市樹林區俊英街190號","121.425953333333","25.0079883333333","6500700","樹林區"
"238026","172-UY","2017/08/01 18:58:43","新北市樹林區信和街6巷13號","121.390028333333","24.97172","6500700","樹林區"
"238016","169-UY","2017/08/01 18:58:55","新北市樹林區文化街28號","121.419221666667","24.9876966666667","6500700","樹林區"
"239007","AAC-297","2017/08/01 18:58:55","新北市鶯歌區中正一路258號","121.354671666667","24.9569816666667","6500800","鶯歌區"
"239006","891-R6","2017/08/01 18:58:52","新北市鶯歌區鶯桃路296巷48-3號","121.336025","24.9612066666667","6500800","鶯歌區"
"239008","527-UM","2017/08/01 18:58:42","新北市鶯歌區國際二路12巷1號","121.337785","24.97444","6500800","鶯歌區"
"239005","526-UM","2017/08/01 18:58:55","新北市鶯歌區中湖街10號","121.346548333333","24.9729083333333","6500800","鶯歌區"
"239001","417-VK","2017/08/01 18:58:53","新北市鶯歌區永安街38號","121.337835","24.95611","6500800","鶯歌區"
"239003","360-BY","2017/08/01 18:58:48","新北市鶯歌區鶯桃路566號","121.330625","24.96768","6500800","鶯歌區"
"239002","359-BY","2017/08/01 18:58:43","新北市鶯歌區中山路271號","121.345121666667","24.9569966666667","6500800","鶯歌區"
"239004","193-VK","2017/08/01 18:58:51","新北市鶯歌區環河路179號","121.343763333333","24.93339","6500800","鶯歌區"
"221008","489-VK","2017/08/01 18:58:46","新北市汐止區康寧街777-1號","121.645255","25.0759133333333","6501100","汐止區"
"221036","130-UY","2017/08/01 18:58:43","新北市汐止區南昌街21號","121.663341666667","25.0693733333333","6501100","汐止區"
"221015","131-UY","2017/08/01 18:58:43","新北市汐止區大同路二段383號","121.657623333333","25.0672316666667","6501100","汐止區"
"221010","269-BY","2017/08/01 18:58:43","新北市汐止區汐萬路一段256巷3號","121.652548333333","25.0744916666667","6501100","汐止區"
"221012","278-VK","2017/08/01 01:06:22","新北市汐止區汐萬路一段256巷1號","121.65184","25.0748733333333","6501100","汐止區"
"221023","279-VK","2017/08/01 02:10:31","新北市汐止區汐萬路一段256巷1號","121.651796666667","25.0748816666667","6501100","汐止區"
"221032","280-BY","2017/08/01 18:58:59","新北市汐止區橫科路407巷30弄28號","121.627373333333","25.0484","6501100","汐止區"
"221027","281-BY","2017/08/01 18:58:39","新北市汐止區康寧街901號","121.650781666667","25.0752133333333","6501100","汐止區"
"221038","297-VK","2017/08/01 18:58:42","新北市汐止區汐萬路一段312號","121.650606666667","25.0752866666667","6501100","汐止區"
"221029","298-VK","2017/08/01 18:59:00","新北市汐止區樟樹一路234號","121.642323333333","25.0667783333333","6501100","汐止區"
"221021","299-VK","2017/08/01 18:58:52","新北市汐止區康寧街901號","121.651543333333","25.0751983333333","6501100","汐止區"
"221031","353-TW","2017/08/01 18:58:48","新北市汐止區福德二路162號","121.630043333333","25.065025","6501100","汐止區"
"221035","622-UM","2017/08/01 18:59:01","新北市汐止區汐萬路一段256巷3號","121.653266666667","25.07462","6501100","汐止區"
"221025","623-UM","2017/08/01 18:58:11","新北市汐止區康寧街901號","121.651213333333","25.0751216666667","6501100","汐止區"
"221033","647-BX","2017/08/01 18:58:42","新北市汐止區南勢街1巷1號","121.62704","25.0374166666667","6501100","汐止區"
"221002","707-TV","2017/08/01 18:58:43","新北市汐止區大同路一段2號","121.621031666667","25.05504","6501100","汐止區"
"220079","145-BY","2017/08/01 18:58:53","新北市板橋區民權路202巷10弄1號","121.460456666667","25.015305","6500100","板橋區"
"220080","200-UY","2017/08/01 18:58:57","新北市板橋區大觀路二段265巷3弄15號","121.4435","24.9981033333333","6500100","板橋區"
"220082","610-BX","2017/08/01 18:58:47","新北市板橋區篤行路三段13號","121.429095","24.9874733333333","6500100","板橋區"
"220101","245-BX","2017/08/01 15:38:46","新北市板橋區民生路二段89-6號","121.470503333333","25.0193266666667","6500100","板橋區"
"220056","276-BY","2017/08/01 18:59:00","新北市板橋區信義路144號","121.458836666667","24.99207","6500100","板橋區"
"220072","277-BY","2017/08/01 18:59:00","新北市板橋區大觀路三段50巷59號","121.431733333333","24.9960016666667","6500100","板橋區"
"220094","283-UM","2017/08/01 18:58:47","新北市板橋區文化路二段76號","121.469511666667","25.025065","6500100","板橋區"
"220053","285-VK","2017/08/01 18:58:54","新北市板橋區中山路二段89巷34號","121.473833333333","25.0168166666667","6500100","板橋區"
"220083","286-VK","2017/08/01 18:58:51","新北市板橋區大觀路一段38巷156弄95號","121.443205","25.0072733333333","6500100","板橋區"
"220081","287-VK","2017/08/01 18:58:56","新北市板橋區光華街15巷2號","121.453993333333","25.0118583333333","6500100","板橋區"
"220090","288-VK","2017/08/01 18:58:42","新北市板橋區四維路126號","121.465378333333","25.0251383333333","6500100","板橋區"
"220061","293-UM","2017/08/01 18:58:58","新北市板橋區富山街109巷63弄27號","121.47536","25.020555","6500100","板橋區"
"220065","295-UM","2017/08/01 18:58:50","新北市板橋區民族路247巷9弄12號","121.471036666667","25.0083316666667","6500100","板橋區"
"220084","296-UM","2017/08/01 18:58:54","新北市板橋區大觀路二段156巷44號","121.441286666667","25.0002233333333","6500100","板橋區"
"220075","297-UM","2017/08/01 18:58:58","新北市板橋區館前西路213巷22號","121.454231666667","25.0080533333333","6500100","板橋區"
"220062","303-R5","2017/08/01 18:58:46","新北市板橋區中山路二段178號","121.477383333333","25.017205","6500100","板橋區"
"220092","307-R5","2017/08/01 18:58:54","新北市板橋區縣民大道二段101號","121.466655","25.01548","6500100","板橋區"
"220098","317-R6","2017/08/01 18:58:54","新北市板橋區民有街18號","121.466283333333","25.0249733333333","6500100","板橋區"
"220064","486-VK","2017/08/01 18:58:46","新北市板橋區板新路209號","121.468491666667","25.01587","6500100","板橋區"
"220089","487-VK","2017/08/01 18:58:52","新北市板橋區文化路二段248號","121.471028333333","25.0283066666667","6500100","板橋區"
"220088","491-VK","2017/08/01 18:58:57","新北市板橋區民生路二段120號","121.470523333333","25.01996","6500100","板橋區"
"220035","560-BX","2017/08/01 18:58:55","新北市板橋區中正路325巷8號","121.4544","25.01981","6500100","板橋區"
"220103","561-BX","2017/08/01 18:58:47","新北市板橋區民生路二段123號","121.470615","25.0185733333333","6500100","板橋區"
"220071","568-UM","2017/08/01 18:58:57","新北市板橋區實踐路130號","121.464456666667","25.002845","6500100","板橋區"
"220063","609-BX","2017/08/01 18:58:43","新北市板橋區民生路一段80號","121.473525","25.01545","6500100","板橋區"
"220091","637-BX","2017/08/01 18:58:58","新北市板橋區莒光路167-3號","121.474148333333","25.0237966666667","6500100","板橋區"
"220057","686-BX","2017/08/01 18:58:51","新北市板橋區民權路41號","121.462136666667","25.0111133333333","6500100","板橋區"
"220077","687-BX","2017/08/01 18:58:51","新北市板橋區龍興街38號","121.443091666667","25.0006266666667","6500100","板橋區"
"220093","689-BX","2017/08/01 18:58:45","新北市板橋區民生路二段188號","121.470261666667","25.0202233333333","6500100","板橋區"
"220054","741-BX","2017/08/01 18:58:57","新北市板橋區後埔街10號","121.460361666667","25.00679","6500100","板橋區"
"220055","827-TW","2017/08/01 18:58:55","新北市板橋區中山路一段160號","121.466555","25.0122516666667","6500100","板橋區"
"220067","829-TW","2017/08/01 18:58:43","新北市板橋區三民路二段正隆巷12弄12號","121.477905","25.013255","6500100","板橋區"
"220102","830-TW","2017/08/01 18:58:42","新北市板橋區萬板路190號","121.476296666667","25.02397","6500100","板橋區"
"220074","895-R6","2017/08/01 18:59:01","新北市板橋區林園街50號","121.453686666667","25.0106","6500100","板橋區"
"220073","985-R7","2017/08/01 18:58:52","新北市板橋區民權路215號","121.457886666667","25.01515","6500100","板橋區"
"220097","AAC-210","2017/08/01 18:58:48","新北市板橋區四維路134號","121.465146666667","25.0253233333333","6500100","板橋區"
"220070","AAC-253","2017/08/01 18:58:52","新北市板橋區中山路一段91號","121.461621666667","25.0101333333333","6500100","板橋區"
