"lineid","car","time","location","longitude","latitude","cityid","cityname"
"234046","148-BY","2017/08/01 19:18:58","新北市永和區得和路373巷14號","121.52501","25.000165","6500400","永和區"
"234013","149-BY","2017/08/01 19:18:44","新北市永和區保福路二段67號","121.510751666667","25.012515","6500400","永和區"
"234007","207-UY","2017/08/01 19:18:49","新北市永和區中山路一段238號","121.50744","25.007605","6500400","永和區"
"234081","298-R6","2017/08/01 19:15:23","新北市永和區福和路57巷14弄4號","121.52276","25.007105","6500400","永和區"
"234038","336-UY","2017/08/01 19:18:59","新北市永和區民樂街38號","121.527428333333","25.0007183333333","6500400","永和區"
"234064","337-UY","2017/08/01 19:18:59","新北市永和區永元路34號","121.522213333333","25.000805","6500400","永和區"
"234086","338-UY","2017/08/01 19:18:55","新北市永和區永利路69號","121.519513333333","25.00486","6500400","永和區"
"234070","552-UM","2017/08/01 19:18:49","新北市永和區中正路666巷51號","121.518611666667","25.00909","6500400","永和區"
"234054","553-UM","2017/08/01 19:18:41","新北市永和區中興街39號","121.516311666667","25.0118183333333","6500400","永和區"
"234017","745-BX","2017/08/01 19:18:58","新北市永和區環河西路一段95巷19弄3號","121.51175","25.0171","6500400","永和區"
"234030","746-BX","2017/08/01 19:18:54","新北市永和區民生路12號","121.522643333333","24.9976966666667","6500400","永和區"
"234061","AAD-866","2017/08/01 19:18:49","新北市永和區秀朗路一段175號","121.516975","25.00374","6500400","永和區"
"234042","862-TW","2017/08/01 19:18:59","新北市永和區保平路151巷2弄2號","121.509956666667","25.005565","6500400","永和區"
"234050","863-TW","2017/08/01 19:18:49","新北市永和區信義路88號","121.5125","25.01355","6500400","永和區"
"234026","9371-KE","2017/08/01 19:18:54","新北市中和區安樂路161-1號","121.514676666667","24.9973416666667","6500400","永和區"
"234011","9373-KE","2017/08/01 19:18:47","新北市永和區保福路二段23巷19號","121.51014","25.01121","6500400","永和區"
"249005","172-UM","2017/08/01 19:18:49","新北市八里區中華路三段170-1號","121.392233333333","25.1303866666667","6502300","八里區"
"249001","173-UM","2017/08/01 19:18:49","新北市八里區中華路二段61-1號","121.41058","25.1527216666667","6502300","八里區"
"249003","593-UM","2017/08/01 19:18:49","新北市八里區中山路二段466巷36弄20號","121.398296666667","25.1491933333333","6502300","八里區"
"248014","025-BX","2017/08/01 19:18:54","新北市五股區民義路一段107巷32號","121.432618333333","25.0845816666667","6501500","五股區"
"248016","026-BX","2017/08/01 19:18:44","新北市五股區成洲五路12號","121.45236","25.1015233333333","6501500","五股區"
"248012","247-BX","2017/07/31 21:14:53","新北市五股區中興路二段182巷5號","121.456766666667","25.07862","6501500","五股區"
"248020","261-SL","2017/08/01 19:18:53","新北市五股區凌雲路三段57號","121.425276666667","25.1250183333333","6501500","五股區"
"248010","272-BY","2017/08/01 19:18:46","新北市五股區自強路90巷72號","121.430698333333","25.0712366666667","6501500","五股區"
"248002","655-BX","2017/08/01 19:18:59","新北市五股區凌雲路一段158巷20號","121.447908333333","25.1036133333333","6501500","五股區"
"248004","677-BX","2017/08/01 19:18:52","新北市五股區五福路21號","121.434003333333","25.0890683333333","6501500","五股區"
"234023","9380-KE","2017/08/01 19:18:39","新北市永和區竹林路117-1號","121.51996","25.01142","6500400","永和區"
"234077","969-R7","2017/08/01 19:18:47","新北市永和區民族街41巷13號","121.519161666667","24.9989283333333","6500400","永和區"
"234074","AAC-211","2017/08/01 19:18:57","新北市永和區竹林路133-3號","121.520218333333","25.0108566666667","6500400","永和區"
"234067","AAC-212","2017/08/01 19:18:56","新北市永和區保平路50巷1號","121.511263333333","25.0072066666667","6500400","永和區"
"234003","AAC-295","2017/08/01 19:18:46","新北市永和區永平路173號","121.510596666667","25.00904","6500400","永和區"
"244013","069-UM","2017/08/01 19:19:00","新北市林口區麗園一街9巷1號","121.376613333333","25.0713166666667","6501700","林口區"
"244019","742-UY","2017/08/01 19:18:42","新北市林口區麗園二街3巷6號","121.378625","25.070045","6501700","林口區"
"244023","483-VK","2017/08/01 19:18:47","新北市林口區民有街30號","121.372135","25.076625","6501700","林口區"
"244025","656-BX","2017/08/01 19:18:52","新北市林口區頂福里5鄰34號","121.35263","25.0999416666667","6501700","林口區"
"244009","658-BX","2017/08/01 19:18:54","新北市林口區林口路78號","121.389348333333","25.0806516666667","6501700","林口區"
"244011","701-TV","2017/08/01 19:18:48","新北市林口區中山路97巷15號","121.389563333333","25.0780683333333","6501700","林口區"
"243013","AAD-798","2017/08/01 19:18:54","新北市泰山區明志路三段145巷2弄8號","121.425081666667","25.039715","6501600","泰山區"
"243009","297-R6","2017/08/01 19:18:43","新北市泰山區和平街15號","121.434378333333","25.064625","6501600","泰山區"
"243015","380-SR","2017/08/01 19:18:37","新北市泰山區公園路71號","121.426338333333","25.0554016666667","6501600","泰山區"
"243014","421-VK","2017/08/01 19:18:48","新北市泰山區泰林路二段222號","121.432501666667","25.0619583333333","6501600","泰山區"
"243010","548-UM","2017/08/01 19:18:48","新北市泰山區明志路一段492巷7號","121.429916666667","25.0548133333333","6501600","泰山區"
"243011","549-UM","2017/08/01 19:18:59","新北市泰山區貴子路15巷2弄1號","121.4265","25.04206","6501600","泰山區"
"243012","646-TV","2017/08/01 19:18:51","新北市泰山區仁愛路67號","121.433046666667","25.055505","6501600","泰山區"
"243016","680-BX","2017/08/01 19:18:44","新北市泰山區工專路10號","121.423863333333","25.0395566666667","6501600","泰山區"
"222003","436-BY","2017/08/01 19:18:49","新北市深坑區深南路204號","121.626588333333","25.0160033333333","6501800","深坑區"
"222002","659-BX","2017/08/01 19:18:55","新北市深坑區北深路一段177號","121.632546666667","25.0108983333333","6501800","深坑區"
"222001","696-SL","2017/08/01 19:18:50","新北市深坑區北深路二段51-1號","121.619191666667","25.0041416666667","6501800","深坑區"
"231041","002-UM","2017/08/01 19:18:55","新北市新店區溪園路245-6號","121.525291666667","24.9831883333333","6500600","新店區"
"231059","046-UY","2017/08/01 19:18:40","新北市新店區安和路三段22-4號","121.517953333333","24.9816616666667","6500600","新店區"
"231061","047-UY","2017/08/01 19:18:46","新北市新店區安康路一段222號","121.523743333333","24.96362","6500600","新店區"
"231060","106-UY","2017/08/01 19:18:57","新北市新店區安康路二段109號","121.512573333333","24.9619166666667","6500600","新店區"
"231051","107-UY","2017/08/01 19:18:47","新北市新店區百忍街70號","121.532865","24.9770066666667","6500600","新店區"
"231048","108-UY","2017/08/01 19:18:47","新北市新店區中興路二段77號","121.54689","24.971075","6500600","新店區"
"231062","110-UY","2017/08/01 19:18:48","新北市新店區安華路28-1號","121.519698333333","24.9614","6500600","新店區"
"231053","187-VK","2017/08/01 19:18:46","新北市新店區自強路236號","121.547146666667","24.9186733333333","6500600","新店區"
"231069","189-VK","2017/08/01 11:59:39","新北市新店區安華路28-1號","121.519621666667","24.9610833333333","6500600","新店區"
"231063","268-BY","2017/08/01 19:18:55","新北市新店區達觀路14巷5號","121.503606666667","24.9427033333333","6500600","新店區"
"231046","278-BY","2017/08/01 19:19:01","新北市新店區華城路6-1號","121.529291666667","24.958735","6500600","新店區"
"231050","AAD-862","2017/08/01 19:18:52","新北市新店區竹林路94號","121.553811666667","24.94985","6500600","新店區"
"231058","3712-VJ","2017/08/01 19:18:47","新北市新店區檳榔路36巷14號","121.541088333333","24.9634116666667","6500600","新店區"
"231067","4772-VM","2017/08/01 19:18:50","新北市新店區安康路一段266巷4號","121.519986666667","24.96397","6500600","新店區"
"231065","512-UM","2017/08/01 19:18:50","新北市新店區安祥路110巷12號","121.474475","24.9567833333333","6500600","新店區"
"231054","513-UM","2017/08/01 19:18:58","新北市新店區國校路45-1號","121.537936666667","24.955075","6500600","新店區"
"231064","515-UM","2017/08/01 19:18:46","新北市新店區安忠路57巷26弄2號","121.512906666667","24.9587716666667","6500600","新店區"
"231045","617-UM","2017/08/01 19:18:57","新北市新店區北宜路一段260號","121.54578","24.9527466666667","6500600","新店區"
"231040","619-UM","2017/08/01 19:18:39","新北市新店區三民路40號","121.536161666667","24.97149","6500600","新店區"
"231042","641-BX","2017/08/01 19:18:44","新北市新店區北宜路一段3號","121.538501666667","24.9585416666667","6500600","新店區"
"231068","718-UY","2017/08/01 19:10:15","新北市新店區安華路28-1號","121.51949","24.9610583333333","6500600","新店區"
"231049","719-UM","2017/08/01 19:18:44","新北市新店區民族路2號","121.542281666667","24.979015","6500600","新店區"
"231044","897-TW","2017/08/01 19:18:55","新北市新店區中興路三段298號","121.542378333333","24.9850066666667","6500600","新店區"
"231043","899-TW","2017/08/01 19:18:52","新北市新店區北新路二段131號","121.54296","24.9752866666667","6500600","新店區"
"231066","AKT-0513","2017/08/01 19:19:01","新北市新店區安康路三段355巷23號","121.484885","24.9501466666667","6500600","新店區"
"241009","060-VK","2017/08/01 19:18:59","新北市三重區溪尾街230巷50號","121.485941666667","25.0810233333333","6500200","三重區"
"241031","061-VK","2017/08/01 19:18:53","新北市三重區重新路四段206-5號","121.485876666667","25.0544316666667","6500200","三重區"
"241017","063-VK","2017/08/01 19:18:39","新北市三重區大同北路217號","121.491523333333","25.0660033333333","6500200","三重區"
"241026","066-VK","2017/08/01 19:19:02","新北市三重區中正南路216號","121.493851666667","25.0551566666667","6500200","三重區"
"241005","262-UM","2017/08/01 19:18:49","新北市三重區溪尾街264-1號","121.48745","25.083355","6500200","三重區"
"241020","265-UM","2017/08/01 19:18:41","新北市三重區後竹圍街102號","121.489163333333","25.0728033333333","6500200","三重區"
"241022","267-UM","2017/08/01 19:18:41","新北市三重區中正北路60-2號","121.486815","25.0644183333333","6500200","三重區"
"241025","271-UM","2017/08/01 19:18:59","新北市三重區中正北路406號","121.475316666667","25.0704083333333","6500200","三重區"
"241035","462-BY","2017/08/01 19:18:46","新北市三重區大智街23號","121.49414","25.0659016666667","6500200","三重區"
"241030","480-VK","2017/08/01 19:18:47","新北市三重區新興路41號","121.491688333333","25.0536966666667","6500200","三重區"
"241006","AAD-863","2017/08/01 19:18:49","新北市三重區車路頭街139巷2號","121.483996666667","25.0763166666667","6500200","三重區"
"241032","887-TS","2017/08/01 19:18:51","新北市三重區新生街96號","121.483455","25.059355","6500200","三重區"
"241029","942-UM","2017/08/01 19:19:00","新北市三重區重安街17號","121.490615","25.0574716666667","6500200","三重區"
"235066","003-UY","2017/08/01 19:18:44","新北市中和區中和路103號","121.501601666667","25.0005866666667","6500300","中和區"
"235064","005-UY","2017/08/01 19:19:00","新北市中和區泰和街2號","121.499873333333","25.0013633333333","6500300","中和區"
"235063","006-UY","2017/08/01 19:18:54","新北市中和區連城路249巷12弄1號","121.493883333333","24.99627","6500300","中和區"
"235056","096-UM","2017/08/01 19:18:40","新北市中和區員山路566號","121.479095","25.0107","6500300","中和區"
"235039","097-UM","2017/08/01 19:18:44","新北市中和區景平路64巷14弄15號","121.522775","24.9912766666667","6500300","中和區"
"235065","098-UM","2017/08/01 19:18:57","新北市中和區中山路二段136巷6弄8號","121.502181666667","25.004005","6500300","中和區"
"235040","150-BY","2017/08/01 19:18:46","新北市中和區保健路50巷7號","121.51019","24.9965566666667","6500300","中和區"
"235058","151-BY","2017/08/01 19:18:50","新北市中和區連城路523巷9弄1號","121.481826666667","24.9945883333333","6500300","中和區"
"235055","183-VK","2017/08/01 19:18:50","新北市中和區德光路93號","121.46898","25.003535","6500300","中和區"
"235038","185-VK","2017/08/01 19:18:45","新北市中和區大仁街20巷22號","121.518643333333","24.9932283333333","6500300","中和區"
"235049","186-VK","2017/08/01 19:18:48","新北市中和區景新街225號","121.5078","24.9947433333333","6500300","中和區"
"235067","255-BX","2017/08/01 19:18:49","新北市中和區民樂路42-1號","121.482796666667","25.00072","6500300","中和區"
"235044","293-VK","2017/08/01 19:18:44","新北市中和區復興路327巷1號","121.500746666667","24.9900233333333","6500300","中和區"
"235072","301-VK","2017/08/01 19:18:54","新北市中和區連城路265巷3號","121.491443333333","24.9961366666667","6500300","中和區"
"235043","352-BY","2017/08/01 19:18:50","新北市中和區景平路420號","121.507818333333","24.9932","6500300","中和區"
"235051","376-QA","2017/08/01 19:18:48","新北市中和區興南路一段75號","121.510183333333","24.9891983333333","6500300","中和區"
"235068","377-QA","2017/08/01 19:18:41","新北市中和區圓通路158巷1弄9號","121.497211666667","24.9960416666667","6500300","中和區"
"235061","378-QA","2017/08/01 19:18:55","新北市中和區員山路314巷8號","121.481955","25.0026233333333","6500300","中和區"
"235050","4979-A6","2017/08/01 19:18:49","新北市中和區景安路208巷8號","121.503563333333","24.9912233333333","6500300","中和區"
"235069","4980-A6","2017/08/01 19:18:41","新北市中和區景平路997巷2號","121.495731666667","25.0058","6500300","中和區"
"235042","551-UM","2017/08/01 19:18:42","新北市永和區民有街24巷1弄7號","121.517093333333","24.996165","6500300","中和區"
"235070","558-UM","2017/08/01 19:18:45","新北市中和區中和路162號","121.504036666667","24.99964","6500300","中和區"
"235045","565-BX","2017/08/01 19:18:54","新北市中和區景新街437巷22號","121.51446","24.989295","6500300","中和區"
"235054","640-BX","2017/08/01 19:18:38","新北市中和區民德路148號","121.468595","25.0003283333333","6500300","中和區"
"235060","647-TV","2017/08/01 19:18:41","新北市中和區員山路469巷1號","121.480235","25.00443","6500300","中和區"
"235047","732-UM","2017/08/01 19:18:42","新北市中和區和平街38巷3號","121.509265","24.9907816666667","6500300","中和區"
"235071","783-BX","2017/08/01 19:18:59","新北市中和區中正路637巷46號","121.485506666667","24.99423","6500300","中和區"
"235057","801-TS","2017/08/01 19:18:47","新北市中和區民利街87號","121.478205","24.9981416666667","6500300","中和區"
"235041","802-TS","2017/08/01 19:18:47","新北市中和區景安路33號","121.507661666667","24.9984883333333","6500300","中和區"
"235052","805-TS","2017/08/01 19:18:48","新北市中和區興南路二段142巷8號","121.503601666667","24.983485","6500300","中和區"
"235048","896-TW","2017/08/01 19:18:45","新北市中和區忠孝街39-8號","121.511915","24.9841533333333","6500300","中和區"
"235053","900-TW","2017/08/01 19:19:00","新北市中和區華福街71巷2號","121.467238333333","24.9968016666667","6500300","中和區"
"235037","AAC-213","2017/08/01 19:18:57","新北市中和區秀朗路三段56號","121.526208333333","24.99516","6500300","中和區"
"235059","AAC-215","2017/08/01 19:18:53","新北市中和區錦和路193號","121.490783333333","24.99071","6500300","中和區"
"220068","013-TV","2017/08/01 19:19:01","新北市板橋區翠華街6巷52號","121.481375","25.0248616666667","6500100","板橋區"
"220086","073-UY","2017/08/01 19:18:46","新北市板橋區中正路216巷106號","121.45903","25.0191283333333","6500100","板橋區"
"220106","075-UY","2017/08/01 19:18:50","新北市板橋區雙十路三段60號","121.470776666667","25.0316266666667","6500100","板橋區"
"220069","AAD-861","2017/08/01 19:18:51","新北市板橋區四川路一段102號","121.459491666667","25.0047016666667","6500100","板橋區"
"220096","120-SR","2017/08/01 19:18:46","新北市板橋區大同街10號","121.477076666667","25.026745","6500100","板橋區"
"247006","341-TH","2017/08/01 18:57:00","新北市五股區中興路三段163號","121.449406666667","25.0808466666667","6501400","蘆洲區"
"247008","339-TH","2017/08/01 19:18:41","新北市五股區工商路8號","121.440858333333","25.0828233333333","6501400","蘆洲區"
"247014","057-VK","2017/08/01 19:18:40","新北市蘆洲區復興路56號","121.473005","25.0855283333333","6501400","蘆洲區"
"226004","205-ST","2017/08/01 19:18:49","新北市平溪區十分里十分街138號","121.777478333333","25.04329","6502400","平溪區"
"228001","212-TW","2017/08/01 19:18:54","新北市貢寮區真理里新港街10號","121.92549","25.05438","6502600","貢寮區"
"228002","663-BX","2017/08/01 19:18:42","新北市貢寮區雙玉里田寮洋街22號","121.928685","25.0221016666667","6502600","貢寮區"
"228003","828-UM","2017/08/01 19:18:59","新北市貢寮區和美里和美街22-1號","121.912801666667","25.0826433333333","6502600","貢寮區"
"224010","AGQ-8101","2017/08/01 19:18:51","新北市瑞芳區基山街101號","121.844606666667","25.1084933333333","6501200","瑞芳區"
"224006","676-BX","2017/08/01 19:18:51","新北市瑞芳區中山路205號","121.801371666667","25.106705","6501200","瑞芳區"
"224011","420-VK","2017/08/01 19:18:47","新北市瑞芳區崙頂路1-6號","121.847078333333","25.10472","6501200","瑞芳區"
"224009","285-BY","2017/08/01 19:18:41","新北市瑞芳區洞頂路101巷56號","121.860488333333","25.1219683333333","6501200","瑞芳區"
"224008","275-VK","2017/08/01 19:18:45","新北市瑞芳區一坑路162-2號","121.801571666667","25.1091783333333","6501200","瑞芳區"
"224005","271-BY","2017/08/01 19:18:42","新北市瑞芳區三爪子坑路335號","121.81885","25.104955","6501200","瑞芳區"
"227003","642-TC","2017/08/01 19:18:45","新北市雙溪區平林里梅竹蹊66-1號","121.860401666667","25.0358116666667","6502500","雙溪區"
"227009","400-TW","2017/08/01 19:18:45","新北市雙溪區新基里新基北街33號","121.869761666667","25.0385666666667","6502500","雙溪區"
"253006","032-BX","2017/08/01 19:18:44","新北市石門區楓林18號","121.536576666667","25.2909816666667","6502200","石門區"
"253005","295-VK","2017/08/01 19:18:45","新北市石門區阿里荖8號","121.609216666667","25.2800316666667","6502200","石門區"
"253001","4710-YM","2017/08/01 19:18:42","新北市石門區中山路64-1號","121.567428333333","25.290435","6502200","石門區"
"208003","665-BX","2017/08/01 19:18:47","新北市金山區忠孝一路21號","121.63859","25.2192583333333","6502700","金山區"
"208001","761-BX","2017/08/01 19:18:53","新北市金山區民生路69號","121.640113333333","25.2196566666667","6502700","金山區"
"251014","180-VK","2017/08/01 19:18:46","新北市淡水區小中寮19-7號","121.484778333333","25.2296316666667","6501000","淡水區"
"251008","181-VK","2017/08/01 19:18:52","新北市淡水區沙崙路126號","121.423386666667","25.1829133333333","6501000","淡水區"
"251010","413-VK","2017/08/01 19:18:44","新北市淡水區沙崙路30號","121.421471666667","25.1814416666667","6501000","淡水區"
"251016","442-VK","2017/08/01 19:18:43","新北市淡水區下圭柔山119-51號","121.450808333333","25.2084","6501000","淡水區"
"251005","443-VK","2017/08/01 19:18:43","新北市淡水區原德路11號","121.442128333333","25.1711933333333","6501000","淡水區"
"251001","559-UM","2017/08/01 19:18:54","新北市淡水區自強路201巷39號","121.46213","25.1268033333333","6501000","淡水區"
"251009","575-R6","2017/08/01 19:18:51","新北市淡水區大仁街2號","121.442046666667","25.1746916666667","6501000","淡水區"
"251007","577-R6","2017/08/01 19:18:38","新北市淡水區八勢一街26號","121.460838333333","25.1559383333333","6501000","淡水區"
"251011","650-BX","2017/08/01 19:18:53","新北市淡水區中正東路二段143巷2弄1號","121.460716666667","25.1473683333333","6501000","淡水區"
"251002","672-BX","2017/08/01 19:18:49","新北市淡水區中正路358號","121.434248333333","25.174205","6501000","淡水區"
"251003","673-BX","2017/08/01 19:18:53","新北市淡水區中山路185號","121.441318333333","25.1743116666667","6501000","淡水區"
"207003","550-UM","2017/08/01 19:18:55","新北市萬里區大鵬里萬里加投79-3號","121.64738","25.2123383333333","6502800","萬里區"
"207004","225-TW","2017/08/01 19:18:49","新北市萬里區萬里里成功新村44號","121.687735","25.1746116666667","6502800","萬里區"
"252002","178-VK","2017/08/01 19:18:56","新北市三芝區忠孝街15號","121.50612","25.25523","6502100","三芝區"
"252003","249-BX","2017/08/01 19:18:52","新北市三芝區埔坪里埔頭坑41號","121.504678333333","25.2646283333333","6502100","三芝區"
"252001","702-TV","2017/08/01 19:18:47","新北市三芝區長勤街9巷11弄1號","121.501743333333","25.254825","6502100","三芝區"
"208002","170-UY","2017/08/01 19:18:52","新北市金山區中華路159號","121.63268","25.22186","6502700","金山區"
"237004","078-UY","2017/08/01 19:18:51","新北市三峽區有木206號","121.439156666667","24.8515533333333","6500900","三峽區"
"237007","153-BY","2017/08/01 19:18:55","新北市三峽區麻園35-1號","121.363741666667","24.919195","6500900","三峽區"
"237013","252-BX","2017/08/01 19:18:56","新北市三峽區光明路75巷20號","121.377528333333","24.9281283333333","6500900","三峽區"
"237012","275-BY","2017/08/01 19:18:46","新北市三峽區三樹路222巷236弄8-3號","121.391408333333","24.9429533333333","6500900","三峽區"
"237008","302-VK","2017/08/01 19:18:41","新北市三峽區大同路125號","121.374048333333","24.9267683333333","6500900","三峽區"
"237014","433-BY","2017/08/01 19:18:44","新北市三峽區中山路63巷8號","121.366923333333","24.9343366666667","6500900","三峽區"
"237006","5529-G3","2017/08/01 19:18:49","新北市三峽區永安街183號","121.373221666667","24.926695","6500900","三峽區"
"237011","572-TV","2017/08/01 19:05:43","新北市三峽區光明路48號","121.374288333333","24.9295766666667","6500900","三峽區"
"237016","649-BX","2017/08/01 19:18:57","新北市三峽區安坑66號","121.470648333333","24.9287483333333","6500900","三峽區"
"237010","706-TV","2017/08/01 19:18:41","新北市三峽區復興路98號","121.372745","24.9375216666667","6500900","三峽區"
"237005","AKY-6261","2017/08/01 19:18:44","新北市三峽區中山路459巷24號","121.357511666667","24.9389883333333","6500900","三峽區"
"236070","105-UM","2017/08/01 19:18:38","新北市土城區中央路一段65號","121.447798333333","24.9899933333333","6501300","土城區"
"236079","166-UM","2017/08/01 19:19:01","新北市土城區中央路四段321巷32-2號","121.411841666667","24.951225","6501300","土城區"
"236027","269-VK","2017/08/01 19:18:59","新北市土城區中央路二段149巷30弄2號","121.443093333333","24.976615","6501300","土城區"
"236015","270-VK","2017/08/01 19:19:01","新北市土城區學府路一段23巷25弄34號","121.457961666667","24.9865266666667","6501300","土城區"
"236023","401-BY","2017/08/01 19:18:50","新北市土城區峰廷街3號","121.469113333333","24.9873516666667","6501300","土城區"
"236059","912-UM","2017/08/01 19:18:53","新北市土城區金城路一段39號","121.440255","24.9692583333333","6501300","土城區"
"236049","913-UM","2017/08/01 19:18:38","新北市土城區明德路一段398-1號","121.453643333333","24.9790666666667","6501300","土城區"
"238023","601-UM","2017/08/01 19:18:53","新北市樹林區三興路39號","121.395991666667","25.01456","6500700","樹林區"
"238019","599-UM","2017/08/01 19:18:54","新北市樹林區鎮前街411巷1弄12號","121.415435","24.98309","6500700","樹林區"
"238018","571-TV","2017/08/01 19:18:45","新北市樹林區太平路48號","121.419045","24.9825516666667","6500700","樹林區"
"238024","5061-A6","2017/08/01 19:18:57","新北市樹林區中山路二段237號","121.402085","24.9759483333333","6500700","樹林區"
"238022","312-TH","2017/08/01 19:18:54","新北市樹林區中山路二段131號","121.40734","24.9794666666667","6500700","樹林區"
"238025","303-VK","2017/08/01 19:18:48","新北市樹林區中山路三段57號","121.40082","24.975095","6500700","樹林區"
"238017","283-BY","2017/08/01 19:18:31","新北市樹林區光興街313號","121.406321666667","25.00561","6500700","樹林區"
"238014","282-BY","2017/08/01 19:18:55","新北市樹林區中正路21號","121.427645","24.999335","6500700","樹林區"
"238020","268-VK","2017/08/01 19:18:49","新北市樹林區俊英街155巷37號","121.423101666667","25.0120933333333","6500700","樹林區"
"238026","172-UY","2017/08/01 19:18:43","新北市樹林區佳園路二段175號","121.38967","24.9564083333333","6500700","樹林區"
"238016","169-UY","2017/08/01 19:18:55","新北市樹林區中山路一段414號","121.417968333333","24.9853166666667","6500700","樹林區"
"239007","AAC-297","2017/08/01 19:18:55","新北市鶯歌區大湖路余厝巷11號","121.341933333333","24.961525","6500800","鶯歌區"
"239006","891-R6","2017/08/01 19:18:52","新北市鶯歌區鶯桃路36號","121.341738333333","24.9524933333333","6500800","鶯歌區"
"239008","527-UM","2017/08/01 19:18:42","新北市鶯歌區大湖路333號","121.341376666667","24.9724616666667","6500800","鶯歌區"
"239005","526-UM","2017/08/01 19:18:55","新北市鶯歌區中湖街305巷2號","121.34737","24.97778","6500800","鶯歌區"
"239001","417-VK","2017/08/01 19:18:53","新北市鶯歌區建國路546號","121.338476666667","24.9502483333333","6500800","鶯歌區"
"239003","360-BY","2017/08/01 19:18:48","新北市鶯歌區中正二路7號","121.351661666667","24.95157","6500800","鶯歌區"
"239002","359-BY","2017/08/01 19:18:43","新北市鶯歌區大湖路402號","121.342925","24.973245","6500800","鶯歌區"
"221008","489-VK","2017/08/01 19:18:46","新北市汐止區康寧街302-1號","121.626255","25.0671083333333","6501100","汐止區"
"221036","130-UY","2017/08/01 19:18:42","新北市汐止區汐萬路一段256巷3號","121.652545","25.07451","6501100","汐止區"
"221015","131-UY","2017/08/01 19:18:43","新北市汐止區康寧街901號","121.651591666667","25.0749","6501100","汐止區"
"221010","269-BY","2017/08/01 19:18:43","新北市汐止區康寧街901號","121.651405","25.07503","6501100","汐止區"
"221012","278-VK","2017/08/01 01:06:22","新北市汐止區汐萬路一段256巷1號","121.65184","25.0748733333333","6501100","汐止區"
"221023","279-VK","2017/08/01 02:10:31","新北市汐止區汐萬路一段256巷1號","121.651796666667","25.0748816666667","6501100","汐止區"
"221027","281-BY","2017/08/01 19:18:39","新北市汐止區康寧街901號","121.650886666667","25.0752466666667","6501100","汐止區"
"221038","297-VK","2017/08/01 19:18:42","新北市汐止區汐萬路一段312號","121.650651666667","25.0753183333333","6501100","汐止區"
"221029","298-VK","2017/08/01 19:18:40","新北市汐止區康寧街901號","121.651611666667","25.074975","6501100","汐止區"
"221021","299-VK","2017/08/01 19:14:12","新北市汐止區康寧街901號","121.651458333333","25.0749883333333","6501100","汐止區"
"221031","353-TW","2017/08/01 19:18:48","新北市汐止區康寧街901號","121.65155","25.074955","6501100","汐止區"
"221025","623-UM","2017/08/01 19:18:51","新北市汐止區康寧街901號","121.65152","25.07498","6501100","汐止區"
"221033","647-BX","2017/08/01 19:18:42","新北市汐止區南勢街1巷1號","121.627051666667","25.0374233333333","6501100","汐止區"
"221002","707-TV","2017/08/01 19:18:43","新北市汐止區大同路一段336號","121.637943333333","25.0589733333333","6501100","汐止區"
"220079","145-BY","2017/08/01 19:18:53","新北市板橋區民權路202巷26號","121.460671666667","25.0172866666667","6500100","板橋區"
"220080","200-UY","2017/08/01 19:18:57","新北市板橋區大觀路二段1巷38號","121.450018333333","25.0036216666667","6500100","板橋區"
"220082","610-BX","2017/08/01 19:18:44","新北市板橋區溪崑二街134號","121.425881666667","24.987805","6500100","板橋區"
"220101","245-BX","2017/08/01 15:38:46","新北市板橋區民生路二段89-6號","121.470503333333","25.0193266666667","6500100","板橋區"
"220056","276-BY","2017/08/01 19:18:38","新北市板橋區信義路54巷2號","121.457118333333","24.9939966666667","6500100","板橋區"
"220072","277-BY","2017/08/01 19:19:00","新北市板橋區金門街278-3號","121.429486666667","24.9860683333333","6500100","板橋區"
"220094","283-UM","2017/08/01 19:18:47","新北市板橋區吳鳳路19-5號","121.467245","25.030845","6500100","板橋區"
"220053","285-VK","2017/08/01 19:18:47","新北市板橋區富山街16號","121.478376666667","25.02185","6500100","板橋區"
"220083","286-VK","2017/08/01 19:18:44","新北市板橋區大觀路二段174巷196弄11號","121.442936666667","25.0037283333333","6500100","板橋區"
"220081","287-VK","2017/08/01 19:18:56","新北市板橋區南雅西路二段189號","121.45186","25.0130033333333","6500100","板橋區"
"220090","288-VK","2017/08/01 19:18:43","新北市板橋區長江路一段106巷13弄18號","121.460795","25.0293783333333","6500100","板橋區"
"220061","293-UM","2017/08/01 19:18:58","新北市板橋區三民路二段29巷9弄42號","121.480633333333","25.01823","6500100","板橋區"
"220065","295-UM","2017/08/01 19:18:45","新北市板橋區民族路129巷12弄5號","121.468113333333","25.0083316666667","6500100","板橋區"
"220084","296-UM","2017/08/01 19:18:51","新北市板橋區溪崑二街66巷31號","121.427195","24.9909433333333","6500100","板橋區"
"220075","297-UM","2017/08/01 19:18:55","新北市板橋區南雅西路一段88號","121.453271666667","25.0058333333333","6500100","板橋區"
"220062","303-R5","2017/08/01 19:18:46","新北市板橋區三民路二段153巷34弄1號","121.48111","25.01425","6500100","板橋區"
"220092","307-R5","2017/08/01 19:18:54","新北市板橋區光武街36巷30號","121.468505","25.0263066666667","6500100","板橋區"
"220098","317-R6","2017/08/01 19:18:54","新北市板橋區民有街89巷8弄1號","121.464236666667","25.027375","6500100","板橋區"
"220064","486-VK","2017/08/01 19:18:56","新北市板橋區中山路一段50-7號","121.46118","25.0093766666667","6500100","板橋區"
"220089","487-VK","2017/08/01 19:18:52","新北市板橋區文化路二段1號","121.468265","25.0237366666667","6500100","板橋區"
"220088","491-VK","2017/08/01 19:18:58","新北市板橋區雙十路二段149號","121.474713333333","25.0281416666667","6500100","板橋區"
"220035","560-BX","2017/08/01 19:18:59","新北市板橋區中正路360巷27號","121.455396666667","25.02345","6500100","板橋區"
"220103","561-BX","2017/08/01 19:18:47","新北市板橋區介壽街20號","121.467598333333","25.0200616666667","6500100","板橋區"
"220071","568-UM","2017/08/01 19:19:00","新北市板橋區重慶路327巷24弄11號","121.465123333333","24.99823","6500100","板橋區"
"220063","609-BX","2017/08/01 19:18:43","新北市板橋區三民路二段72號","121.479296666667","25.0170933333333","6500100","板橋區"
"220091","637-BX","2017/08/01 19:18:58","新北市板橋區萬板路472號","121.479903333333","25.02594","6500100","板橋區"
"220057","686-BX","2017/08/01 19:18:51","新北市板橋區重慶路290號","121.463536666667","24.9990633333333","6500100","板橋區"
"220077","687-BX","2017/08/01 19:18:51","新北市板橋區大觀路一段28巷42號","121.449873333333","25.0098616666667","6500100","板橋區"
"220093","689-BX","2017/08/01 19:18:53","新北市板橋區文化路一段383號","121.467295","25.021755","6500100","板橋區"
"220054","741-BX","2017/08/01 19:18:57","新北市板橋區四川路一段189號","121.46093","25.0039333333333","6500100","板橋區"
"220055","827-TW","2017/08/01 19:18:56","新北市板橋區館前東路156巷7弄1號","121.464463333333","25.0074666666667","6500100","板橋區"
"220067","829-TW","2017/08/01 19:18:43","新北市板橋區長安街138巷1弄54號","121.474013333333","25.0101466666667","6500100","板橋區"
"220102","830-TW","2017/08/01 19:18:42","新北市板橋區田單街4-2號","121.482153333333","25.0290483333333","6500100","板橋區"
"220074","895-R6","2017/08/01 19:18:53","新北市板橋區中正路自強新村51號","121.454673333333","25.0137383333333","6500100","板橋區"
"220073","985-R7","2017/08/01 19:18:59","新北市板橋區新生街56號","121.456955","25.0209433333333","6500100","板橋區"
"220097","AAC-210","2017/08/01 19:18:56","新北市板橋區幸福路32巷1弄12號","121.460961666667","25.0204433333333","6500100","板橋區"
"220070","AAC-253","2017/08/01 19:18:52","新北市板橋區遠東路9號","121.457718333333","24.9984666666667","6500100","板橋區"
