"lineid","car","time","location","longitude","latitude","cityid","cityname"
"234046","148-BY","2017/08/01 20:18:51","新北市永和區永元路120號","121.522755","25.0027216666667","6500400","永和區"
"234013","149-BY","2017/08/01 20:18:44","新北市永和區保生路5巷3號","121.506035","25.007015","6500400","永和區"
"234007","207-UY","2017/08/01 20:18:50","新北市永和區仁愛路306巷28號","121.502156666667","25.0088666666667","6500400","永和區"
"234081","298-R6","2017/08/01 20:18:43","新北市永和區福和路19巷1弄1號","121.52425","25.0078066666667","6500400","永和區"
"234038","336-UY","2017/08/01 20:18:57","新北市永和區成功路一段19號","121.52712","25.004805","6500400","永和區"
"234064","337-UY","2017/08/01 20:18:49","新北市永和區得和路106號","121.518163333333","25.0000216666667","6500400","永和區"
"234086","338-UY","2017/08/01 20:18:55","新北市永和區永和路二段22號","121.5148","25.0100766666667","6500400","永和區"
"234070","552-UM","2017/08/01 20:18:49","新北市永和區永寧街2號","121.520373333333","25.0065633333333","6500400","永和區"
"234054","553-UM","2017/08/01 20:18:43","新北市永和區光復街2巷16弄3號","121.517191666667","25.0163983333333","6500400","永和區"
"234017","745-BX","2017/08/01 20:18:58","新北市永和區仁愛路95號","121.51288","25.0129966666667","6500400","永和區"
"234030","746-BX","2017/08/01 20:18:54","新北市中和區立人街14巷40弄24號","121.519565","24.99594","6500400","永和區"
"234061","AAD-866","2017/08/01 20:18:51","新北市永和區安樂路166號","121.514673333333","25.0008116666667","6500400","永和區"
"234042","862-TW","2017/08/01 20:18:49","新北市永和區雙和街2號","121.509841666667","25.00173","6500400","永和區"
"234050","863-TW","2017/08/01 20:18:48","新北市永和區新生路4號","121.509193333333","25.0166416666667","6500400","永和區"
"234011","9373-KE","2017/08/01 20:18:47","新北市永和區仁愛路352巷122弄13號","121.500701666667","25.00893","6500400","永和區"
"249005","172-UM","2017/08/01 20:18:49","新北市八里區下罟子2-17號","121.388153333333","25.1411466666667","6502300","八里區"
"249001","173-UM","2017/08/01 20:18:55","新北市八里區中華路二段536-2號","121.39923","25.1451816666667","6502300","八里區"
"249004","303-UY","2017/08/01 20:18:45","新北市八里區中山路一段370號","121.412295","25.15876","6502300","八里區"
"249002","305-UY","2017/08/01 20:18:58","新北市八里區龍米路二段32巷15號","121.449065","25.1406083333333","6502300","八里區"
"249003","593-UM","2017/08/01 20:18:49","新北市八里區中山路二段447巷2號","121.396981666667","25.1452833333333","6502300","八里區"
"248016","026-BX","2017/08/01 20:18:58","新北市五股區凌雲路一段158巷39弄2號","121.44685","25.1037783333333","6501500","五股區"
"248012","247-BX","2017/08/01 20:18:59","新北市五股區六合街76號","121.43168","25.0900716666667","6501500","五股區"
"248010","272-BY","2017/08/01 20:18:46","新北市五股區成泰路一段2-9號","121.43421","25.067255","6501500","五股區"
"248002","655-BX","2017/08/01 20:18:39","新北市五股區成泰路三段163號","121.445138333333","25.0917583333333","6501500","五股區"
"248004","677-BX","2017/08/01 20:18:52","新北市五股區成泰路一段194-1號","121.435566666667","25.0777883333333","6501500","五股區"
"234023","9380-KE","2017/08/01 20:18:38","新北市永和區永和路二段276巷2弄1號","121.516453333333","25.0152683333333","6500400","永和區"
"234077","969-R7","2017/08/01 20:18:45","新北市永和區中正路106號","121.5145","24.995925","6500400","永和區"
"234074","AAC-211","2017/08/01 20:18:57","新北市永和區竹林路201巷24弄6號","121.522321666667","25.0095766666667","6500400","永和區"
"234067","AAC-212","2017/08/01 20:18:56","新北市永和區保平路214巷8弄2號","121.509556666667","25.0061983333333","6500400","永和區"
"234003","AAC-295","2017/08/01 20:18:46","新北市永和區自強街2號","121.514115","25.0080283333333","6500400","永和區"
"243013","AAD-798","2017/08/01 20:18:54","新北市泰山區新民路14巷3號","121.426415","25.0445783333333","6501600","泰山區"
"243009","297-R6","2017/08/01 20:18:50","新北市泰山區泰林路二段109-1號","121.434333333333","25.059135","6501600","泰山區"
"243015","380-SR","2017/08/01 20:18:57","新北市泰山區仁德路67號","121.434235","25.0566533333333","6501600","泰山區"
"243014","421-VK","2017/08/01 20:18:48","新北市泰山區泰林路二段361號","121.42808","25.0639416666667","6501600","泰山區"
"243010","548-UM","2017/08/01 20:18:48","新北市泰山區明志路二段254巷1號","121.426473333333","25.0475783333333","6501600","泰山區"
"243011","549-UM","2017/08/01 20:18:41","新北市泰山區新北大道六段369號","121.422558333333","25.03278","6501600","泰山區"
"243012","646-TV","2017/08/01 20:18:51","新北市泰山區楓江路57號","121.43586","25.062675","6501600","泰山區"
"243016","680-BX","2017/08/01 20:18:48","新北市泰山區明志路二段368號","121.425595","25.04487","6501600","泰山區"
"222003","436-BY","2017/08/01 20:18:55","新北市深坑區文化街78號","121.618046666667","25.0019566666667","6501800","深坑區"
"222002","659-BX","2017/08/01 20:18:55","新北市深坑區萬福路75巷8號","121.600693333333","25.0093616666667","6501800","深坑區"
"222001","696-SL","2017/08/01 20:18:50","新北市深坑區北深路三段213號","121.600331666667","25.0040166666667","6501800","深坑區"
"231041","002-UM","2017/08/01 20:18:54","新北市新店區民權路44號","121.540225","24.9829983333333","6500600","新店區"
"231056","0291-UT","2017/08/01 20:18:52","新北市新店區中正路275巷19號","121.53712","24.973415","6500600","新店區"
"231059","046-UY","2017/08/01 20:18:40","新北市新店區安德街139號","121.508621666667","24.96024","6500600","新店區"
"231061","047-UY","2017/08/01 20:18:46","新北市新店區安興路32號","121.515745","24.9703883333333","6500600","新店區"
"231060","106-UY","2017/08/01 20:18:57","新北市新店區錦秀路1-3號","121.479078333333","24.9454516666667","6500600","新店區"
"231051","107-UY","2017/08/01 20:18:47","新北市新店區中央六街29號","121.529153333333","24.9751583333333","6500600","新店區"
"231048","108-UY","2017/08/01 20:18:47","新北市新店區中興路三段210號","121.543686666667","24.9822933333333","6500600","新店區"
"231053","187-VK","2017/08/01 20:18:46","新北市新店區新烏路三段1號","121.552225","24.906445","6500600","新店區"
"231069","189-VK","2017/08/01 11:59:39","新北市新店區安華路28-1號","121.519621666667","24.9610833333333","6500600","新店區"
"231057","256-BX","2017/08/01 20:18:56","新北市新店區花園五路二段11號","121.554046666667","24.9343983333333","6500600","新店區"
"231063","268-BY","2017/08/01 20:18:55","新北市新店區安康路二段320巷6號","121.50456","24.9595883333333","6500600","新店區"
"231050","AAD-862","2017/08/01 20:18:52","新北市新店區北宜路一段3號","121.538048333333","24.9584966666667","6500600","新店區"
"231055","3713-VJ","2017/08/01 20:18:40","新北市新店區新明街24號","121.540831666667","24.96847","6500600","新店區"
"231067","4772-VM","2017/08/01 20:18:50","新北市新店區溪洲路8巷120-1號","121.533","24.9632183333333","6500600","新店區"
"231065","512-UM","2017/08/01 20:18:50","新北市新店區安祥路106巷44號","121.476905","24.9616816666667","6500600","新店區"
"231054","513-UM","2017/08/01 20:18:38","新北市新店區檳榔路109號","121.544506666667","24.9616116666667","6500600","新店區"
"231064","515-UM","2017/08/01 20:18:56","新北市新店區安樂街14巷2號","121.520565","24.973575","6500600","新店區"
"231045","617-UM","2017/08/01 20:18:57","新北市新店區新坡一街16號","121.548478333333","24.9619533333333","6500600","新店區"
"231040","619-UM","2017/08/01 20:18:59","新北市新店區北新路二段2號","121.542933333333","24.970805","6500600","新店區"
"231042","641-BX","2017/08/01 20:18:44","新北市新店區中興路二段231-2號","121.54791","24.9749766666667","6500600","新店區"
"231068","718-UY","2017/08/01 20:18:57","新北市新店區寶安街18號","121.542136666667","24.98183","6500600","新店區"
"231049","719-UM","2017/08/01 20:18:44","新北市新店區北新路二段17號","121.542773333333","24.97146","6500600","新店區"
"231062","719-UY","2017/08/01 20:18:48","新北市新店區安康路三段184號","121.489185","24.9517733333333","6500600","新店區"
"231044","897-TW","2017/08/01 20:18:48","新北市新店區北新路三段196號","121.541488333333","24.9834233333333","6500600","新店區"
"231043","899-TW","2017/08/01 20:18:47","新北市新店區民族路71-1號","121.539335","24.9780883333333","6500600","新店區"
"231066","AKT-0513","2017/08/01 20:18:41","新北市新店區柴埕路60巷17號","121.507983333333","24.965615","6500600","新店區"
"241011","013-R5","2017/08/01 20:18:56","新北市三重區龍門路138號","121.498271666667","25.0729833333333","6500200","三重區"
"241028","022-UY","2017/08/01 20:18:47","新北市三重區大同南路127-2號","121.496433333333","25.0579933333333","6500200","三重區"
"241009","060-VK","2017/08/01 20:18:59","新北市三重區三和路四段382巷59號","121.481031666667","25.0786","6500200","三重區"
"241031","061-VK","2017/08/01 20:18:53","新北市三重區過圳街9-1號","121.48906","25.0602533333333","6500200","三重區"
"241015","062-VK","2017/08/01 20:18:56","新北市三重區重新路一段113號","121.500425","25.0631566666667","6500200","三重區"
"241017","063-VK","2017/08/01 20:18:39","新北市三重區新北大道一段7號","121.48964","25.06117","6500200","三重區"
"241024","065-VK","2017/08/01 20:18:44","新北市三重區忠孝路三段4號","121.481906666667","25.0675933333333","6500200","三重區"
"241026","066-VK","2017/08/01 20:19:00","新北市三重區和平街44號","121.502335","25.0627383333333","6500200","三重區"
"241002","090-VK","2017/08/01 20:18:44","新北市三重區仁義街101巷36號","121.498938333333","25.08067","6500200","三重區"
"241003","091-VK","2017/08/01 20:18:46","新北市三重區富華街70號","121.49059","25.0831833333333","6500200","三重區"
"241023","156-TC","2017/08/01 20:18:45","新北市三重區自由街14號","121.479871666667","25.066495","6500200","三重區"
"241005","262-UM","2017/08/01 20:18:49","新北市三重區碧華街211-1號","121.488531666667","25.082655","6500200","三重區"
"241020","265-UM","2017/08/01 20:18:41","新北市三重區重陽路四段158號","121.493208333333","25.0720133333333","6500200","三重區"
"241016","266-UM","2017/08/01 20:18:43","新北市三重區重新路三段82號","121.493111666667","25.0610483333333","6500200","三重區"
"241022","267-UM","2017/08/01 20:18:49","新北市三重區中正北路2號","121.489363333333","25.0629233333333","6500200","三重區"
"241018","268-UM","2017/08/01 20:18:56","新北市三重區自強路一段155-1號","121.49368","25.06725","6500200","三重區"
"241013","270-UM","2017/08/01 20:18:52","新北市三重區三和路三段167巷4號","121.49207","25.074165","6500200","三重區"
"241025","271-UM","2017/08/01 20:18:39","新北市三重區三民街220號","121.480223333333","25.0671783333333","6500200","三重區"
"241007","398-BY","2017/08/01 20:18:47","新北市三重區溪尾街108巷67號","121.487268333333","25.0781966666667","6500200","三重區"
"241008","412-TH","2017/08/01 20:18:48","新北市三重區永福街211巷11號","121.479525","25.0741583333333","6500200","三重區"
"241035","462-BY","2017/08/01 20:18:45","新北市三重區正義北路33巷48號","121.499013333333","25.0639166666667","6500200","三重區"
"241004","475-VK","2017/08/01 20:17:16","新北市三重區仁政街200巷1號","121.490573333333","25.0803116666667","6500200","三重區"
"241019","478-VK","2017/08/01 20:18:43","新北市三重區大智街218號","121.490311666667","25.0715166666667","6500200","三重區"
"241030","480-VK","2017/08/01 20:18:47","新北市三重區環河南路254巷53號","121.48801","25.0522666666667","6500200","三重區"
"241014","543-UM","2017/08/01 20:18:58","新北市三重區龍濱路94號","121.502263333333","25.0699883333333","6500200","三重區"
"241001","547-UM","2017/08/01 20:18:51","新北市三重區自強路四段31巷28號","121.490426666667","25.0770183333333","6500200","三重區"
"241032","887-TS","2017/08/01 20:18:51","新北市三重區捷運路37巷16號","121.48414","25.0567183333333","6500200","三重區"
"241012","941-UM","2017/08/01 20:18:49","新北市三重區河邊北街262號","121.501685","25.0764333333333","6500200","三重區"
"241029","942-UM","2017/08/01 20:18:49","新北市三重區光明路123號","121.492383333333","25.056555","6500200","三重區"
"241033","AAC-255","2017/08/01 20:18:53","新北市三重區五谷王北街50巷22號","121.475491666667","25.051395","6500200","三重區"
"235066","003-UY","2017/08/01 20:18:43","新北市中和區保平路318號","121.507228333333","25.00433","6500300","中和區"
"235039","097-UM","2017/08/01 20:18:44","新北市中和區大勇街32號","121.517246666667","24.99319","6500300","中和區"
"235065","098-UM","2017/08/01 20:18:47","新北市中和區永和路128巷9號","121.49766","25.0069333333333","6500300","中和區"
"235040","150-BY","2017/08/01 20:18:45","新北市中和區保健路60號","121.510843333333","24.9966733333333","6500300","中和區"
"235058","151-BY","2017/08/01 20:18:50","新北市板橋區民生路二段192號","121.469785","25.0205233333333","6500300","中和區"
"235044","293-VK","2017/08/01 20:18:50","新北市中和區中興街204號","121.499915","24.9901883333333","6500300","中和區"
"235072","301-VK","2017/08/01 20:18:54","新北市中和區興南路二段342-10號","121.499188333333","24.9801533333333","6500300","中和區"
"235051","376-QA","2017/08/01 20:18:48","新北市中和區復興路259號","121.502953333333","24.9903583333333","6500300","中和區"
"235068","377-QA","2017/08/01 20:18:53","新北市中和區勝利路35巷3弄1號","121.499081666667","25.007225","6500300","中和區"
"235050","4979-A6","2017/08/01 20:18:47","新北市中和區景安路177巷4號","121.505541666667","24.9939383333333","6500300","中和區"
"235069","4980-A6","2017/08/01 20:18:55","新北市中和區連城路265巷14弄12號","121.491166666667","24.9948233333333","6500300","中和區"
"235070","558-UM","2017/08/01 20:18:45","新北市中和區圓通路233號","121.496276666667","24.99416","6500300","中和區"
"235026","800-TS","2017/08/01 20:17:33","新北市中和區員山路36巷16-3號","121.484953333333","24.9916833333333","6500300","中和區"
"235041","802-TS","2017/08/01 20:18:47","新北市中和區安平路68-1號","121.510715","24.9962166666667","6500300","中和區"
"235037","AAC-213","2017/08/01 20:18:57","新北市中和區立人街51號","121.520515","24.9942083333333","6500300","中和區"
"235059","AAC-215","2017/08/01 20:18:53","新北市中和區圓通路296巷1號","121.48728","24.9884","6500300","中和區"
"220069","AAD-861","2017/08/01 20:18:51","新北市板橋區大明街25巷2弄23號","121.457523333333","25.0025333333333","6500100","板橋區"
"247020","893-R6","2017/08/01 20:18:48","新北市蘆洲區仁愛街81號","121.471316666667","25.0939633333333","6501400","蘆洲區"
"247010","546-UM","2017/08/01 20:18:54","新北市蘆洲區信義路188巷23號","121.480186666667","25.08458","6501400","蘆洲區"
"247018","500-BY","2017/08/01 20:18:32","新北市蘆洲區民族路368號","121.475846666667","25.0909733333333","6501400","蘆洲區"
"247006","341-TH","2017/08/01 20:19:01","新北市蘆洲區九芎街136號","121.465008333333","25.0790583333333","6501400","蘆洲區"
"247008","339-TH","2017/08/01 20:18:41","新北市蘆洲區集賢路223-1號","121.482603333333","25.0863866666667","6501400","蘆洲區"
"247024","337-TH","2017/08/01 20:18:55","新北市蘆洲區長興路81號","121.46227","25.0846883333333","6501400","蘆洲區"
"247002","336-TH","2017/08/01 20:19:00","新北市蘆洲區長安街276號","121.457246666667","25.0870883333333","6501400","蘆洲區"
"247014","057-VK","2017/08/01 20:18:40","新北市蘆洲區中山二路137巷46號","121.47254","25.0805316666667","6501400","蘆洲區"
"247004","056-VK","2017/08/01 20:19:00","新北市蘆洲區長安街220巷18號","121.45937","25.0850033333333","6501400","蘆洲區"
"247012","007-UY","2017/08/01 20:18:57","新北市蘆洲區民族路123號","121.479815","25.0871133333333","6501400","蘆洲區"
"247022","002-UY","2017/08/01 20:18:50","新北市蘆洲區民族路451號","121.46752","25.088535","6501400","蘆洲區"
"247016","001-UY","2017/08/01 20:18:57","新北市蘆洲區光華路139號","121.466193333333","25.0822816666667","6501400","蘆洲區"
"224011","420-VK","2017/08/01 20:18:47","新北市瑞芳區汽車路111號","121.840978333333","25.1088033333333","6501200","瑞芳區"
"227010","400-TW","2017/08/01 20:17:32","新北市雙溪區三貂里政光路3-1號","121.850871666667","25.0630383333333","6502500","雙溪區"
"251014","180-VK","2017/08/01 20:18:46","新北市淡水區石頭厝1號","121.458743333333","25.2355266666667","6501000","淡水區"
"251008","181-VK","2017/08/01 20:18:52","新北市淡水區淡海路180巷20號","121.42137","25.1845733333333","6501000","淡水區"
"251010","413-VK","2017/08/01 20:18:44","新北市淡水區新民街一段134號","121.42754","25.1888683333333","6501000","淡水區"
"251012","441-VK","2017/08/01 20:18:58","新北市淡水區淡金路三段352號","121.449338333333","25.20905","6501000","淡水區"
"251016","442-VK","2017/08/01 20:18:43","新北市淡水區淡金路五段20號","121.4534","25.2323683333333","6501000","淡水區"
"251001","559-UM","2017/08/01 20:18:54","新北市淡水區新市二路四段265號","121.44575","25.1925033333333","6501000","淡水區"
"251006","561-UM","2017/08/01 20:18:43","新北市淡水區北新路213號","121.451445","25.17991","6501000","淡水區"
"251009","575-R6","2017/08/01 20:18:51","新北市淡水區中正路38-1號","121.443718333333","25.1692816666667","6501000","淡水區"
"251002","672-BX","2017/08/01 20:18:54","新北市淡水區中正路129號","121.439425","25.1703466666667","6501000","淡水區"
"251003","673-BX","2017/08/01 20:18:52","新北市淡水區中山北路一段196號","121.444528333333","25.1794733333333","6501000","淡水區"
"207004","225-TW","2017/08/01 20:18:49","新北市萬里區北基里仁六街2-1號","121.681525","25.1750766666667","6502800","萬里區"
"252002","178-VK","2017/08/01 20:18:56","新北市三芝區淡金路二段19巷4號","121.503041666667","25.2593266666667","6502100","三芝區"
"252001","702-TV","2017/08/01 20:18:47","新北市三芝區中山路一段14號","121.500683333333","25.258015","6502100","三芝區"
"237007","153-BY","2017/08/01 20:18:55","新北市三峽區麻園46號","121.363818333333","24.9212283333333","6500900","三峽區"
"237008","302-VK","2017/08/01 20:18:41","新北市三峽區中正路一段174巷9號","121.371905","24.9288283333333","6500900","三峽區"
"237006","5529-G3","2017/08/01 20:18:49","新北市三峽區嘉添11號","121.368648333333","24.9119866666667","6500900","三峽區"
"237016","649-BX","2017/08/01 20:18:57","新北市三峽區介壽路二段138巷6號","121.395188333333","24.9352566666667","6500900","三峽區"
"236070","105-UM","2017/08/01 20:18:58","新北市土城區大安路126號","121.434028333333","24.9697666666667","6501300","土城區"
"236043","107-UM","2017/08/01 20:18:59","新北市土城區學享街41號","121.451581666667","24.98726","6501300","土城區"
"236031","253-BX","2017/08/01 20:18:54","新北市土城區中央路一段45巷11號","121.449078333333","24.99006","6501300","土城區"
"236027","269-VK","2017/08/01 20:18:57","新北市土城區中央路一段249巷23號","121.446215","24.98547","6501300","土城區"
"236015","270-VK","2017/08/01 20:18:54","新北市土城區廣明街90巷7號","121.455121666667","24.994455","6501300","土城區"
"236038","271-VK","2017/08/01 20:18:55","新北市土城區明德路一段42號","121.465205","24.98433","6501300","土城區"
"236023","401-BY","2017/08/01 20:18:55","新北市土城區和城路二段253-2號","121.47314","24.9874083333333","6501300","土城區"
"236059","912-UM","2017/08/01 20:18:53","新北市土城區中央路三段65號","121.438798333333","24.9694116666667","6501300","土城區"
"236055","AAC-216","2017/08/01 20:18:55","新北市土城區慶祥街18號","121.43765","24.9754616666667","6501300","土城區"
"242021","AAC-296","2017/08/01 20:18:50","新北市新莊區中興街6-1號","121.449271666667","25.0359883333333","6500500","新莊區"
"242029","986-R7","2017/08/01 20:18:48","新北市新莊區中原路251號","121.448973333333","25.0542566666667","6500500","新莊區"
"242048","751-BX","2017/08/01 20:18:55","新北市新莊區四維路212巷4弄10號","121.42124","25.020685","6500500","新莊區"
"242025","615-BX","2017/08/01 20:18:56","新北市新莊區五工二路70巷21號","121.46084","25.0664583333333","6500500","新莊區"
"242023","613-BX","2017/08/01 20:18:51","新北市新莊區化成路752-7號","121.465416666667","25.0581916666667","6500500","新莊區"
"242027","612-BX","2017/08/01 20:18:53","新北市新莊區幸福路558號","121.454705","25.0493016666667","6500500","新莊區"
"242037","566-BX","2017/08/01 20:18:53","新北市新莊區建安街68號","121.426865","25.0245116666667","6500500","新莊區"
"242005","442-UM","2017/08/01 20:18:41","新北市新莊區頭興街3巷1號","121.463376666667","25.053655","6500500","新莊區"
"242046","441-UM","2017/08/01 20:18:48","新北市新莊區裕民街126號","121.418123333333","25.0224016666667","6500500","新莊區"
"242051","440-UM","2017/08/01 20:18:41","新北市新莊區民安西路210號","121.42577","25.014875","6500500","新莊區"
"242032","415-TV","2017/08/01 20:18:58","新北市新莊區三泰路2-1號","121.440863333333","25.0339516666667","6500500","新莊區"
"242039","400-BY","2017/08/01 20:18:47","新北市新莊區成功街77號","121.42463","25.0197666666667","6500500","新莊區"
"242061","362-BY","2017/08/01 20:18:43","新北市新莊區新樹路172-13號","121.43462","25.0216366666667","6500500","新莊區"
"242058","353-BY","2017/08/01 20:18:56","新北市新莊區龍安路268號","121.421855","25.0193533333333","6500500","新莊區"
"242042","132-UY","2017/08/01 20:18:48","新北市新莊區壽山路61-2號","121.410715","25.0326733333333","6500500","新莊區"
"242034","133-UY","2017/08/01 20:18:42","新北市新莊區建中街90巷3弄12號","121.446293333333","25.037145","6500500","新莊區"
"242019","135-UY","2017/08/01 20:18:43","新北市新莊區復興路二段181號","121.458955","25.044555","6500500","新莊區"
"242044","172-VK","2017/08/01 20:18:54","新北市新莊區中正路新建巷28弄75號","121.413378333333","25.0210066666667","6500500","新莊區"
"242007","173-VK","2017/08/01 20:18:41","新北市新莊區福壽街94巷24號","121.45919","25.05011","6500500","新莊區"
"242013","175-VK","2017/08/01 20:18:45","新北市新莊區中信街63巷4弄4號","121.44896","25.0502683333333","6500500","新莊區"
"242056","176-VK","2017/08/01 20:18:51","新北市新莊區豐年街30號","121.446251666667","25.0323966666667","6500500","新莊區"
"242011","346-TH","2017/08/01 20:18:49","新北市新莊區中信街30號","121.450391666667","25.05085","6500500","新莊區"
"242002","347-TH","2017/08/01 20:18:51","新北市新莊區中正路33號","121.46383","25.0409816666667","6500500","新莊區"
"242017","348-TH","2017/08/01 20:18:45","新北市新莊區中港一街119號","121.448583333333","25.0450533333333","6500500","新莊區"
"242054","349-TH","2017/08/01 20:18:55","新北市新莊區民安西路269-1號","121.42617","25.0127183333333","6500500","新莊區"
"242015","350-TH","2017/08/01 20:18:56","新北市新莊區中和街45號","121.44804","25.044445","6500500","新莊區"
"242009","351-TH","2017/08/01 20:18:56","新北市新莊區昌盛街77號","121.455311666667","25.0499483333333","6500500","新莊區"
"238023","601-UM","2017/08/01 20:16:33","新北市樹林區中山路三段214號","121.379958333333","24.9677716666667","6500700","樹林區"
"221008","489-VK","2017/08/01 20:18:46","新北市汐止區康寧街85號","121.619838333333","25.0664483333333","6501100","汐止區"
"221036","130-UY","2017/08/01 20:15:27","新北市汐止區福安街59巷10號","121.664386666667","25.0637733333333","6501100","汐止區"
"221015","131-UY","2017/08/01 20:18:43","新北市汐止區建成路160巷16號","121.661813333333","25.0740366666667","6501100","汐止區"
"221010","269-BY","2017/08/01 20:18:43","新北市汐止區八連路二段228巷1-1號","121.632731666667","25.09723","6501100","汐止區"
"221012","278-VK","2017/08/01 01:06:22","新北市汐止區汐萬路一段256巷1號","121.65184","25.0748733333333","6501100","汐止區"
"221023","279-VK","2017/08/01 02:10:31","新北市汐止區汐萬路一段256巷1號","121.651796666667","25.0748816666667","6501100","汐止區"
"221032","280-BY","2017/08/01 20:18:39","新北市汐止區民權街二段47號","121.619436666667","25.0491833333333","6501100","汐止區"
"221027","281-BY","2017/08/01 20:18:59","新北市汐止區水源路一段2號","121.657091666667","25.06718","6501100","汐止區"
"221038","297-VK","2017/08/01 20:18:42","新北市汐止區大同路三段66-3號","121.668106666667","25.07731","6501100","汐止區"
"221029","298-VK","2017/08/01 20:18:40","新北市汐止區樟樹一路99巷7弄1號","121.641258333333","25.0636133333333","6501100","汐止區"
"221021","299-VK","2017/08/01 19:44:52","新北市汐止區連興街136號","121.65394","25.061625","6501100","汐止區"
"221031","353-TW","2017/08/01 20:18:48","新北市汐止區原興路60巷8-1號","121.633151666667","25.0656933333333","6501100","汐止區"
"221035","622-UM","2017/08/01 20:18:41","新北市汐止區長江街101-5號","121.658686666667","25.0732166666667","6501100","汐止區"
"221025","623-UM","2017/08/01 20:18:51","新北市汐止區水源路二段46號","121.655258333333","25.0569433333333","6501100","汐止區"
"221033","647-BX","2017/08/01 20:18:42","新北市汐止區東勢街201巷37號","121.634803333333","25.0432816666667","6501100","汐止區"
"221002","707-TV","2017/08/01 20:18:43","新北市汐止區福德三路67號","121.636761666667","25.069315","6501100","汐止區"
"221002","753-BX","2017/08/01 20:18:52","新北市汐止區茄苳路256號","121.671691666667","25.0682766666667","6501100","汐止區"
"220079","145-BY","2017/08/01 20:18:53","新北市八里區中山路三段112號","121.386743333333","25.1459283333333","6500100","板橋區"
"220080","200-UY","2017/08/01 20:18:57","新北市板橋區大觀路二段153巷44弄23號","121.44613","24.99922","6500100","板橋區"
"220101","245-BX","2017/08/01 20:17:36","新北市板橋區莊敬路28-2號","121.473343333333","25.0278933333333","6500100","板橋區"
"220072","277-BY","2017/08/01 20:19:00","新北市板橋區金門街369巷99號","121.428413333333","24.9810133333333","6500100","板橋區"
"220083","286-VK","2017/08/01 20:18:43","新北市板橋區僑中二街102巷38號","121.444691666667","25.008655","6500100","板橋區"
"220081","287-VK","2017/08/01 20:18:56","新北市板橋區僑中一街80巷5弄8號","121.447455","25.0126333333333","6500100","板橋區"
"220061","293-UM","2017/08/01 20:18:57","新北市板橋區中山路一段54號","121.461206666667","25.0096433333333","6500100","板橋區"
"220065","295-UM","2017/08/01 20:18:45","新北市板橋區懷德街201巷32號","121.482388333333","25.0307633333333","6500100","板橋區"
"220092","307-R5","2017/08/01 20:18:54","新北市板橋區文化路一段99號","121.46154","25.0142116666667","6500100","板橋區"
"220089","487-VK","2017/08/01 20:18:52","新北市板橋區四維路174號","121.464615","25.0263566666667","6500100","板橋區"
"220103","561-BX","2017/08/01 20:18:47","新北市板橋區陽明街279巷4-4號","121.461818333333","25.02607","6500100","板橋區"
"220071","568-UM","2017/08/01 20:18:57","新北市中和區莒光路260-1號","121.467221666667","24.993745","6500100","板橋區"
"220055","827-TW","2017/08/01 20:18:41","新北市板橋區仁愛路28號","121.458861666667","24.999405","6500100","板橋區"
"220102","830-TW","2017/08/01 20:18:42","新北市板橋區縣民大道二段281號","121.470135","25.017935","6500100","板橋區"
"220074","895-R6","2017/08/01 20:18:59","新北市板橋區府後街1巷5號","121.459086666667","25.0108133333333","6500100","板橋區"
"220097","AAC-210","2017/08/01 20:18:52","新北市板橋區國光路188號","121.461126666667","25.0181583333333","6500100","板橋區"
"220070","AAC-253","2017/08/01 20:18:52","新北市板橋區德興街17號","121.453433333333","24.9942533333333","6500100","板橋區"
