"lineid","car","time","location","longitude","latitude","cityid","cityname"
"234081","298-R6","2017/08/01 20:38:43","新北市永和區環河東路三段65號","121.529336666667","25.0069733333333","6500400","永和區"
"234054","553-UM","2017/08/01 20:38:41","新北市永和區環河東路一段80號","121.5196","25.01646","6500400","永和區"
"234030","746-BX","2017/08/01 20:38:54","新北市新店區安興路105號","121.514985","24.97782","6500400","永和區"
"234061","AAD-866","2017/08/01 20:38:54","新北市永和區秀安街15巷1號","121.516063333333","25.0036216666667","6500400","永和區"
"234042","862-TW","2017/08/01 20:38:49","新北市永和區福和路277號","121.517496666667","25.007375","6500400","永和區"
"249001","173-UM","2017/08/01 20:38:45","新北市八里區下罟子23號","121.376721666667","25.1387","6502300","八里區"
"249004","303-UY","2017/08/01 20:38:45","新北市八里區中山路一段219號","121.411246666667","25.1578666666667","6502300","八里區"
"234023","9380-KE","2017/08/01 20:38:59","新北市永和區文化路176號","121.511625","25.0155783333333","6500400","永和區"
"234074","AAC-211","2017/08/01 20:38:57","新北市永和區復興街91號","121.517731666667","25.0141816666667","6500400","永和區"
"234067","AAC-212","2017/08/01 20:38:56","新北市永和區保平路292巷46弄2號","121.507468333333","25.0053166666667","6500400","永和區"
"243009","297-R6","2017/08/01 20:38:53","新北市泰山區忠孝街14-1號","121.427665","25.06501","6501600","泰山區"
"243010","548-UM","2017/08/01 20:38:48","新北市泰山區公園路80號","121.423721666667","25.0558966666667","6501600","泰山區"
"243011","549-UM","2017/08/01 20:38:59","新北市泰山區黎明路23-1號","121.421278333333","25.0611483333333","6501600","泰山區"
"222003","436-BY","2017/08/01 20:38:55","新北市深坑區阿柔洋25-1號","121.613115","24.999085","6501800","深坑區"
"222002","659-BX","2017/08/01 20:38:55","新北市深坑區萬福路45號","121.599428333333","25.00686","6501800","深坑區"
"222001","696-SL","2017/08/01 20:38:50","新北市深坑區北深路三段234號","121.600576666667","25.0040133333333","6501800","深坑區"
"231041","002-UM","2017/08/01 20:38:54","新北市新店區中正路543-4號","121.533745","24.9875","6500600","新店區"
"231056","0291-UT","2017/08/01 20:38:52","新北市新店區民生路75巷225號","121.531981666667","24.9819183333333","6500600","新店區"
"231059","046-UY","2017/08/01 20:38:40","新北市新店區僑信路113號","121.500635","24.9462133333333","6500600","新店區"
"231061","047-UY","2017/08/01 20:38:46","新北市新店區新和街39號","121.519318333333","24.9849816666667","6500600","新店區"
"231060","106-UY","2017/08/01 20:38:53","新北市新店區安康路三段712號","121.474075","24.942205","6500600","新店區"
"231051","107-UY","2017/08/01 20:38:47","新北市新店區中央七街5號","121.530605","24.9748366666667","6500600","新店區"
"231048","108-UY","2017/08/01 20:38:47","新北市新店區寶慶街5號","121.543885","24.986605","6500600","新店區"
"231053","187-VK","2017/08/01 20:38:46","新北市新店區廣興路7-10號","121.54568","24.9117283333333","6500600","新店區"
"231069","189-VK","2017/08/01 11:59:39","新北市新店區安華路28-1號","121.519621666667","24.9610833333333","6500600","新店區"
"231057","256-BX","2017/08/01 20:38:56","新北市新店區花園六路二段1-8號","121.554116666667","24.9331966666667","6500600","新店區"
"231063","268-BY","2017/08/01 20:38:55","新北市新店區玫瑰路4-1號","121.493636666667","24.9513766666667","6500600","新店區"
"231050","AAD-862","2017/08/01 20:38:52","新北市新店區建興街6號","121.539896666667","24.976465","6500600","新店區"
"231058","3712-VJ","2017/08/01 20:38:46","新北市新店區自由街19號","121.535168333333","24.97467","6500600","新店區"
"231065","512-UM","2017/08/01 20:38:50","新北市新店區安祥路102巷112號","121.486968333333","24.964075","6500600","新店區"
"231054","513-UM","2017/08/01 20:38:38","新北市新店區北新路一段64巷37號","121.54216","24.9656516666667","6500600","新店區"
"231064","515-UM","2017/08/01 20:38:46","新北市新店區安和路三段120巷20號","121.517681666667","24.985805","6500600","新店區"
"231045","617-UM","2017/08/01 20:38:57","新北市新店區長春路187號","121.558783333333","24.9620033333333","6500600","新店區"
"231040","619-UM","2017/08/01 20:38:39","新北市新店區中正路265巷21號","121.537786666667","24.9731133333333","6500600","新店區"
"231042","641-BX","2017/08/01 20:38:44","新北市新店區寶高路120巷1-1號","121.554635","24.9759566666667","6500600","新店區"
"231068","718-UY","2017/08/01 20:38:57","新北市新店區寶元路一段85巷8號","121.543161666667","24.9858883333333","6500600","新店區"
"231049","719-UM","2017/08/01 20:38:44","新北市新店區永業路81巷3弄2號","121.529928333333","24.9491166666667","6500600","新店區"
"231062","719-UY","2017/08/01 20:38:48","新北市新店區安泰路19巷1號","121.485283333333","24.9496933333333","6500600","新店區"
"231044","897-TW","2017/08/01 20:38:48","新北市新店區民權路90巷36號","121.537056666667","24.9844516666667","6500600","新店區"
"231043","899-TW","2017/08/01 20:38:47","新北市新店區建國路51號","121.540553333333","24.97565","6500600","新店區"
"231066","AKT-0513","2017/08/01 20:38:41","新北市新店區安興路112號","121.514623333333","24.977645","6500600","新店區"
"241011","013-R5","2017/08/01 20:38:56","新北市三重區龍濱路219巷15號","121.502376666667","25.0721533333333","6500200","三重區"
"241028","022-UY","2017/08/01 20:38:47","新北市三重區光興街97號","121.4972","25.0599816666667","6500200","三重區"
"241009","060-VK","2017/08/01 20:38:39","新北市三重區碧華街55號","121.48472","25.0812466666667","6500200","三重區"
"241031","061-VK","2017/08/01 20:38:53","新北市三重區重陽路一段113巷1弄49號","121.488126666667","25.058655","6500200","三重區"
"241015","062-VK","2017/08/01 20:38:56","新北市三重區文化北路103號","121.497853333333","25.0684383333333","6500200","三重區"
"241017","063-VK","2017/08/01 20:38:59","新北市三重區安慶街270號","121.490688333333","25.0676133333333","6500200","三重區"
"241024","065-VK","2017/08/01 20:38:44","新北市三重區三民街206巷2號","121.480706666667","25.0667266666667","6500200","三重區"
"241026","066-VK","2017/08/01 20:38:42","新北市三重區文化南路3號","121.500005","25.062475","6500200","三重區"
"241002","090-VK","2017/08/01 20:38:47","新北市三重區仁義街167巷41號","121.498355","25.0821816666667","6500200","三重區"
"241003","091-VK","2017/08/01 20:38:46","新北市三重區五華街141巷58號","121.493576666667","25.086795","6500200","三重區"
"241023","156-TC","2017/08/01 20:38:45","新北市三重區自由街51號","121.478688333333","25.06654","6500200","三重區"
"241005","262-UM","2017/08/01 20:38:49","新北市三重區碧華街373號","121.492576666667","25.0854383333333","6500200","三重區"
"241020","265-UM","2017/08/01 20:38:41","新北市三重區忠孝路一段31號","121.491628333333","25.07183","6500200","三重區"
"241016","266-UM","2017/08/01 20:38:43","新北市三重區長壽西街143-3號","121.494285","25.0666733333333","6500200","三重區"
"241022","267-UM","2017/08/01 20:38:41","新北市三重區過圳街27-5號","121.488005","25.06235","6500200","三重區"
"241018","268-UM","2017/08/01 20:38:56","新北市三重區自強路一段320號","121.491033333333","25.068575","6500200","三重區"
"241013","270-UM","2017/08/01 20:38:52","新北市三重區仁愛街118號","121.495193333333","25.0745033333333","6500200","三重區"
"241025","271-UM","2017/08/01 20:38:59","新北市三重區頂崁街210巷23弄1號","121.475861666667","25.068165","6500200","三重區"
"241007","398-BY","2017/08/01 20:38:47","新北市三重區三和路四段109號","121.4863","25.0769983333333","6500200","三重區"
"241008","412-TH","2017/08/01 20:38:48","新北市三重區下竹圍街85號","121.481195","25.075095","6500200","三重區"
"241035","462-BY","2017/08/01 20:38:45","新北市三重區正義北路281-1號","121.495041666667","25.0702966666667","6500200","三重區"
"241004","475-VK","2017/08/01 20:38:56","新北市三重區仁愛街403號","121.490975","25.0811016666667","6500200","三重區"
"241019","478-VK","2017/08/01 20:38:43","新北市三重區重陽路四段114巷1號","121.492028333333","25.0706783333333","6500200","三重區"
"241030","480-VK","2017/08/01 20:38:47","新北市三重區成功路73巷20號","121.489461666667","25.0519733333333","6500200","三重區"
"241014","543-UM","2017/08/01 20:38:39","新北市三重區萬壽街14號","121.499421666667","25.0693933333333","6500200","三重區"
"241001","547-UM","2017/08/01 20:38:51","新北市三重區自強路三段110巷37號","121.485855","25.0745816666667","6500200","三重區"
"241032","887-TS","2017/08/01 20:38:51","新北市三重區重陽路一段120巷48號","121.48505","25.06015","6500200","三重區"
"241012","941-UM","2017/08/01 20:38:49","新北市三重區河邊北街168號","121.502948333333","25.073185","6500200","三重區"
"241029","942-UM","2017/08/01 20:38:49","新北市三重區集美街126巷26號","121.490038333333","25.0538833333333","6500200","三重區"
"241033","AAC-255","2017/08/01 20:38:53","新北市三重區光復路二段47-5號","121.474153333333","25.0555466666667","6500200","三重區"
"235040","150-BY","2017/08/01 20:38:45","新北市新店區薏仁坑路自強巷6號","121.496768333333","24.9583466666667","6500300","中和區"
"235058","151-BY","2017/08/01 20:38:50","新北市八里區中山路三段415號","121.370748333333","25.137215","6500300","中和區"
"235069","4980-A6","2017/08/01 20:38:41","新北市中和區新生街260號","121.483723333333","24.9973416666667","6500300","中和區"
"235026","800-TS","2017/08/01 20:17:33","新北市中和區員山路36巷16-3號","121.484953333333","24.9916833333333","6500300","中和區"
"247020","893-R6","2017/08/01 20:38:48","新北市蘆洲區民族路337號","121.472965","25.0918633333333","6501400","蘆洲區"
"247010","546-UM","2017/08/01 20:38:54","新北市蘆洲區集賢路224巷1號","121.482261666667","25.0865983333333","6501400","蘆洲區"
"247006","341-TH","2017/08/01 20:38:41","新北市蘆洲區和平路126號","121.467355","25.08035","6501400","蘆洲區"
"247008","339-TH","2017/08/01 20:38:42","新北市蘆洲區集賢路407號","121.480475","25.0812983333333","6501400","蘆洲區"
"247024","337-TH","2017/08/01 20:38:55","新北市蘆洲區長樂路231號","121.461858333333","25.089635","6501400","蘆洲區"
"247002","336-TH","2017/08/01 20:38:59","新北市蘆洲區長榮路396號","121.45956","25.0876166666667","6501400","蘆洲區"
"247014","057-VK","2017/08/01 20:38:40","新北市蘆洲區中山一路204號","121.473386666667","25.08085","6501400","蘆洲區"
"247004","056-VK","2017/08/01 20:38:40","新北市蘆洲區長安街297號","121.458093333333","25.084865","6501400","蘆洲區"
"247012","007-UY","2017/08/01 20:38:57","新北市蘆洲區集賢路224巷13號","121.481936666667","25.086815","6501400","蘆洲區"
"247022","002-UY","2017/08/01 20:38:48","新北市蘆洲區中正路243巷9號","121.467241666667","25.086285","6501400","蘆洲區"
"247016","001-UY","2017/08/01 20:38:37","新北市蘆洲區中山二路288號","121.46881","25.0778116666667","6501400","蘆洲區"
"224011","420-VK","2017/08/01 20:27:44","新北市瑞芳區明燈路二段66號","121.809325","25.1075833333333","6501200","瑞芳區"
"227010","400-TW","2017/08/01 20:17:32","新北市雙溪區三貂里政光路3-1號","121.850871666667","25.0630383333333","6502500","雙溪區"
"251014","180-VK","2017/08/01 20:38:46","新北市淡水區桂竹圍12-9號","121.471773333333","25.2322016666667","6501000","淡水區"
"251010","413-VK","2017/08/01 20:38:44","新北市淡水區沙崙路181巷1號","121.424066666667","25.1843016666667","6501000","淡水區"
"251012","441-VK","2017/08/01 20:38:38","新北市淡水區興仁路108號","121.451646666667","25.2181616666667","6501000","淡水區"
"251016","442-VK","2017/08/01 20:38:43","新北市淡水區後洲子16-1號","121.44951","25.2240416666667","6501000","淡水區"
"251001","559-UM","2017/08/01 20:38:54","新北市淡水區淡金路218號","121.460463333333","25.1675583333333","6501000","淡水區"
"251006","561-UM","2017/08/01 20:38:43","新北市淡水區商工路186巷35號","121.451158333333","25.1864566666667","6501000","淡水區"
"251002","672-BX","2017/08/01 20:38:54","新北市淡水區中正路38-1號","121.443745","25.1692333333333","6501000","淡水區"
"251003","673-BX","2017/08/01 20:38:52","新北市淡水區新民街120巷3號","121.438043333333","25.1778883333333","6501000","淡水區"
"252001","702-TV","2017/08/01 20:38:47","新北市三芝區長安街49號","121.501361666667","25.25644","6502100","三芝區"
"242021","AAC-296","2017/08/01 20:38:51","新北市新莊區公園路46號","121.44907","25.03927","6500500","新莊區"
"242029","986-R7","2017/08/01 20:38:48","新北市新莊區昌隆街3巷1弄2號","121.454241666667","25.051365","6500500","新莊區"
"242048","751-BX","2017/08/01 20:38:56","新北市新莊區中正路857-4號","121.419258333333","25.0278583333333","6500500","新莊區"
"242025","615-BX","2017/08/01 20:38:56","新北市新莊區化成路579巷1號","121.464286666667","25.06607","6500500","新莊區"
"242023","613-BX","2017/08/01 20:38:51","新北市新莊區化成路37號","121.464821666667","25.0445083333333","6500500","新莊區"
"242027","612-BX","2017/08/01 20:38:53","新北市新莊區思源路55號","121.459971666667","25.0402283333333","6500500","新莊區"
"242037","566-BX","2017/08/01 20:38:51","新北市新莊區後港一路94巷3弄2號","121.428055","25.02621","6500500","新莊區"
"242005","442-UM","2017/08/01 20:38:41","新北市新莊區化成路387號","121.465313333333","25.0584816666667","6500500","新莊區"
"242046","441-UM","2017/08/01 20:38:48","新北市新莊區富國路22巷19號","121.418348333333","25.025815","6500500","新莊區"
"242051","440-UM","2017/08/01 20:38:41","新北市新莊區民安西路171號","121.426208333333","25.0160066666667","6500500","新莊區"
"242032","415-TV","2017/08/01 20:38:58","新北市新莊區三泰路23號","121.437358333333","25.0354983333333","6500500","新莊區"
"242039","400-BY","2017/08/01 20:38:50","新北市新莊區民安路445號","121.434261666667","25.0225566666667","6500500","新莊區"
"242061","362-BY","2017/08/01 20:38:46","新北市新莊區新樹路260-2號","121.432408333333","25.0151916666667","6500500","新莊區"
"242058","353-BY","2017/08/01 20:38:39","新北市新莊區四維路130號","121.423316666667","25.0238283333333","6500500","新莊區"
"242042","132-UY","2017/08/01 20:38:43","新北市新莊區天祥街47巷29號","121.416113333333","25.027845","6500500","新莊區"
"242034","133-UY","2017/08/01 20:38:55","新北市新莊區建中街127號","121.445375","25.036425","6500500","新莊區"
"242019","135-UY","2017/08/01 20:38:43","新北市新莊區銘德街142號","121.454636666667","25.0428183333333","6500500","新莊區"
"242044","172-VK","2017/08/01 20:39:01","新北市新莊區龍安路100號","121.41812","25.0205833333333","6500500","新莊區"
"242007","173-VK","2017/08/01 20:38:41","新北市新莊區福壽街47號","121.458266666667","25.0488133333333","6500500","新莊區"
"242013","175-VK","2017/08/01 20:38:58","新北市新莊區中和街191巷1-1號","121.447916666667","25.051145","6500500","新莊區"
"242056","176-VK","2017/08/01 20:38:54","新北市新莊區瓊泰路95號","121.443251666667","25.029815","6500500","新莊區"
"242011","346-TH","2017/08/01 20:38:49","新北市新莊區中信街99巷8號","121.44725","25.05355","6500500","新莊區"
"242002","347-TH","2017/08/01 20:38:49","新北市新莊區中港路五守新村10號","121.45469","25.0387316666667","6500500","新莊區"
"242017","348-TH","2017/08/01 20:38:45","新北市新莊區中港二街151號","121.447856666667","25.045405","6500500","新莊區"
"242054","349-TH","2017/08/01 20:38:55","新北市新莊區西盛街325號","121.42812","25.0147","6500500","新莊區"
"242015","350-TH","2017/08/01 20:38:42","新北市新莊區中平路82巷9號","121.445528333333","25.0449533333333","6500500","新莊區"
"242009","351-TH","2017/08/01 20:38:44","新北市新莊區幸福路564巷2弄1號","121.454513333333","25.049645","6500500","新莊區"
"238023","601-UM","2017/08/01 20:38:53","新北市樹林區育德街78-1號","121.387458333333","24.96826","6500700","樹林區"
"221008","489-VK","2017/08/01 20:38:45","新北市汐止區康寧街706-2號","121.63848","25.0730233333333","6501100","汐止區"
"221036","130-UY","2017/08/01 20:38:42","新北市汐止區忠孝東路255巷10號","121.66233","25.067895","6501100","汐止區"
"221015","131-UY","2017/08/01 20:38:43","新北市汐止區建成路52號","121.663613333333","25.0728783333333","6501100","汐止區"
"221012","278-VK","2017/08/01 01:06:22","新北市汐止區汐萬路一段256巷1號","121.65184","25.0748733333333","6501100","汐止區"
"221023","279-VK","2017/08/01 02:10:31","新北市汐止區汐萬路一段256巷1號","121.651796666667","25.0748816666667","6501100","汐止區"
"221032","280-BY","2017/08/01 20:38:59","新北市汐止區橫科路221巷19-1號","121.621505","25.0494933333333","6501100","汐止區"
"221027","281-BY","2017/08/01 20:38:39","新北市汐止區大同路二段477號","121.660558333333","25.068285","6501100","汐止區"
"221038","297-VK","2017/08/01 20:38:42","新北市汐止區水源路一段56號","121.657418333333","25.0656333333333","6501100","汐止區"
"221029","298-VK","2017/08/01 20:38:40","新北市汐止區大同路一段513號","121.645436666667","25.062395","6501100","汐止區"
"221021","299-VK","2017/08/01 19:44:52","新北市汐止區連興街136號","121.65394","25.061625","6501100","汐止區"
"221031","353-TW","2017/08/01 20:38:48","新北市汐止區中興路110巷3-1號","121.633223333333","25.0637516666667","6501100","汐止區"
"221035","622-UM","2017/08/01 20:38:41","新北市汐止區長江街101-5號","121.658663333333","25.0732416666667","6501100","汐止區"
"221025","623-UM","2017/08/01 20:38:51","新北市汐止區水源路二段189號","121.657841666667","25.0529466666667","6501100","汐止區"
"221033","647-BX","2017/08/01 20:38:42","台北市南港區合順街8巷7弄38號","121.620273333333","25.0419183333333","6501100","汐止區"
"221002","707-TV","2017/08/01 20:38:43","新北市汐止區福德二路136號","121.630846666667","25.065215","6501100","汐止區"
"221002","753-BX","2017/08/01 20:38:52","新北市汐止區茄苳路70號","121.666761666667","25.0706233333333","6501100","汐止區"
"220079","145-BY","2017/08/01 20:37:14","新北市八里區荖阡坑路34號","121.402166666667","25.1287933333333","6500100","板橋區"
"220072","277-BY","2017/08/01 20:38:20","新北市五股區中直路17-4號","121.422816666667","25.11129","6500100","板橋區"
"220083","286-VK","2017/08/01 20:38:52","新北市板橋區僑中二街116巷27號","121.444461666667","25.0065033333333","6500100","板橋區"
"220081","287-VK","2017/08/01 20:38:56","新北市板橋區大觀路一段28巷86號","121.44982","25.01093","6500100","板橋區"
"220103","561-BX","2017/08/01 20:38:52","新北市板橋區漢生東路73巷25號","121.467161666667","25.0169916666667","6500100","板橋區"
"220070","AAC-253","2017/08/01 20:38:52","新北市新莊區瓊泰路63巷21弄9號","121.44248","25.0283866666667","6500100","板橋區"
