"lineid","car","time","location","longitude","latitude","cityid","cityname"
"231069","189-VK","2017/08/01 11:59:39","新北市新店區安華路28-1號","121.519621666667","24.9610833333333","6500600","新店區"
"231063","268-BY","2017/08/01 22:09:54","新北市樹林區柑園街一段253巷40號","121.396875","24.9514933333333","6500600","新店區"
"231064","515-UM","2017/08/01 22:09:46","新北市樹林區太平路277號","121.418893333333","24.9727083333333","6500600","新店區"
"241024","065-VK","2017/08/01 22:09:44","新北市八里區下罟子8-6號","121.384326666667","25.1411183333333","6500200","三重區"
"241020","265-UM","2017/08/01 22:09:40","新北市五股區新五路二段258號","121.441025","25.08214","6500200","三重區"
"235039","097-UM","2017/08/01 21:54:53","新北市中和區和城路一段271巷1號","121.485433333333","24.9915933333333","6500300","中和區"
"235026","800-TS","2017/08/01 20:17:33","新北市中和區員山路36巷16-3號","121.484953333333","24.9916833333333","6500300","中和區"
"227010","400-TW","2017/08/01 20:17:32","新北市雙溪區三貂里政光路3-1號","121.850871666667","25.0630383333333","6502500","雙溪區"
"251004","009-UM","2017/08/01 22:09:45","新北市淡水區民族路33號","121.462228333333","25.13581","6501000","淡水區"
"251008","181-VK","2017/08/01 22:09:51","新北市淡水區學府路104號","121.449815","25.1717883333333","6501000","淡水區"
"251016","442-VK","2017/08/01 22:09:42","新北市淡水區水碓街7號","121.443156666667","25.17717","6501000","淡水區"
"251005","443-VK","2017/08/01 22:09:42","新北市淡水區鄧公路19號","121.451448333333","25.1700066666667","6501000","淡水區"
"251007","577-R6","2017/08/01 22:09:38","新北市淡水區北新路180號","121.449356666667","25.1788133333333","6501000","淡水區"
