"lineid","car","time","location","longitude","latitude","cityid","cityname"
"232001","290-BY","2017/10/19 08:08:37","新北市坪林區坪雙路一段100號","121.722483333333","24.946455","6502000","坪林區"
"232014","291-BY","2017/10/19 08:09:39","新北市坪林區金瓜寮3-2號","121.681285","24.9186516666667","6502000","坪林區"
"232018","705-BZ","2017/10/19 07:48:56","新北市坪林區坪雙路一段25號","121.711548333333","24.942395","6502000","坪林區"
"244012","069-UM","2017/10/19 08:09:53","新北市林口區粉寮路一段149-5號","121.399446666667","25.0815466666667","6501700","林口區"
"244006","080-UY","2017/10/19 08:09:43","新北市林口區中湖43-16號","121.380858333333","25.0929466666667","6501700","林口區"
"244024","742-UY","2017/10/19 08:09:40","新北市林口區中山路262-1號","121.384388333333","25.0801216666667","6501700","林口區"
"244008","410-SL","2017/10/19 08:09:46","新北市林口區文化一路二段398號","121.385913333333","25.0858333333333","6501700","林口區"
"244022","483-VK","2017/10/19 08:09:38","新北市林口區仁愛路一段285巷116號","121.395216666667","25.0758583333333","6501700","林口區"
"244016","485-VK","2017/10/19 08:09:54","新北市林口區中山路319號","121.383486666667","25.0805683333333","6501700","林口區"
"244003","657-BX","2017/10/19 08:08:25","新北市林口區嘉寶里67-5號","121.33763","25.109265","6501700","林口區"
"244010","701-TV","2017/10/19 08:09:41","新北市林口區佳林路154號","121.384183333333","25.077115","6501700","林口區"
"244020","838-TS","2017/10/19 08:09:41","新北市林口區粉寮路二段148-1號","121.404351666667","25.09282","6501700","林口區"
"222004","289-BY","2017/10/19 08:09:41","新北市深坑區北深路三段20號","121.609421666667","25.0010383333333","6501800","深坑區"
"231069","189-VK","2017/10/19 08:09:50","新北市新店區新潭路一段18巷7號","121.522395","24.9430516666667","6500600","新店區"
"231008","192-VK","2017/10/19 08:09:35","新北市新店區安康路一段75-1號","121.530091666667","24.9611416666667","6500600","新店區"
"226005","5620-A6","2017/10/19 08:09:40","新北市平溪區南山里南山坪101-1號","121.77891","25.0425716666667","6502400","平溪區"
"226002","7418-A5","2017/10/19 08:09:49","新北市平溪區東勢里芊蓁林31號","121.75127","25.0190316666667","6502400","平溪區"
"226003","AGD-0702","2017/10/19 08:03:06","新北市平溪區嶺腳里嶺腳寮83-2號","121.750935","25.0352816666667","6502400","平溪區"
"223006","022-BY","2017/10/19 08:09:49","新北市深坑區文山路一段64號","121.624071666667","25.000835","6501900","石碇區"
"223002","198-BX","2017/10/19 08:02:51","新北市石碇區北宜路五段80號","121.64654","24.9517483333333","6501900","石碇區"
"223003","205-TH","2017/10/19 08:09:47","新北市石碇區北宜路六段塗潭巷28號","121.648588333333","24.9327216666667","6501900","石碇區"
"223008","406-TH","2017/10/19 07:46:33","新北市石碇區靜安路一段337號","121.698733333333","25.0146516666667","6501900","石碇區"
"223001","592-UM","2017/10/19 08:09:26","新北市石碇區北宜路六段十三股巷2-1號","121.648916666667","24.945785","6501900","石碇區"
"223004","660-BX","2017/10/19 08:09:45","新北市石碇區外按9-2號","121.650605","24.9974","6501900","石碇區"
"223007","661-BX","2017/10/19 08:09:47","新北市石碇區靜安路一段337號","121.699053333333","25.0146183333333","6501900","石碇區"
"223005","677-TV","2017/10/19 08:09:48","新北市石碇區外按12號","121.650615","24.9974616666667","6501900","石碇區"
"224002","640-TC","2017/10/19 08:09:41","新北市瑞芳區民權街4巷1-1號","121.807848333333","25.1065366666667","6501200","瑞芳區"
"253003","6232-TK","2017/10/19 08:09:36","新北市石門區石崩山6號","121.564775","25.2822616666667","6502200","石門區"
"253001","6251-TK","2017/10/19 08:09:50","新北市石門區老梅路43號","121.545328333333","25.2895816666667","6502200","石門區"
"253002","637-UY","2017/10/19 08:09:50","新北市石門區九芎林1號","121.556511666667","25.2760883333333","6502200","石門區"
"253004","8270-PC","2017/10/19 08:09:34","新北市石門區小坑12號","121.592601666667","25.287845","6502200","石門區"
"252004","249-BX","2017/10/19 08:09:41","新北市三芝區興華里車埕15-3號","121.502","25.196755","6502100","三芝區"
"252007","AAC-283","2017/10/19 08:09:44","新北市三芝區海景二街23號","121.472558333333","25.2465666666667","6502100","三芝區"
"237001","159-UY","2017/10/19 08:09:40","新北市三峽區大學路86號","121.375923333333","24.942065","6500900","三峽區"
"236009","165-UM","2017/10/19 08:09:47","新北市土城區青雲路322巷18號","121.457671666667","24.9763033333333","6501300","土城區"
"236003","339-SR","2017/10/19 08:09:40","新北市土城區龍泉路85號","121.441018333333","24.9430533333333","6501300","土城區"
"236005","498-BY","2017/10/19 08:09:33","新北市土城區永平街51號","121.427541666667","24.9591766666667","6501300","土城區"
"242030","AAC-296","2017/10/19 08:09:47","新北市新莊區新泰路321巷1弄2號","121.444713333333","25.0413533333333","6500500","新莊區"
"242028","986-R7","2017/10/19 08:09:46","新北市新莊區復興路二段102號","121.456411666667","25.044205","6500500","新莊區"
"242049","751-BX","2017/10/19 08:09:37","新北市新莊區西盛街232巷1-1號","121.428038333333","25.0163533333333","6500500","新莊區"
"242024","705-TV","2017/10/19 08:09:50","新北市新莊區思源路226號","121.460148333333","25.0479383333333","6500500","新莊區"
"242022","613-BX","2017/10/19 08:09:41","新北市新莊區長青街2號","121.457913333333","25.0427066666667","6500500","新莊區"
"242026","612-BX","2017/10/19 08:09:49","新北市新莊區福壽街91號","121.458116666667","25.0502216666667","6500500","新莊區"
"242043","497-BY","2017/10/19 08:09:46","新北市新莊區中正路871巷9弄44號","121.41985","25.0266766666667","6500500","新莊區"
"242038","442-UM","2017/10/19 08:09:37","新北市新莊區民安東路8號","121.428008333333","25.0208066666667","6500500","新莊區"
"242047","441-UM","2017/10/19 08:09:40","新北市新莊區萬安街113號","121.42078","25.02275","6500500","新莊區"
"242052","440-UM","2017/10/19 08:09:47","新北市樹林區樹新路120巷22號","121.430586666667","24.996685","6500500","新莊區"
"242040","400-BY","2017/10/19 08:09:36","新北市泰山區中山路二段760號","121.424728333333","25.0347383333333","6500500","新莊區"
"242059","362-BY","2017/10/19 08:09:51","新北市新莊區瓊林南路118-16號","121.434686666667","25.0086066666667","6500500","新莊區"
"242057","353-BY","2017/10/19 08:09:45","新北市新莊區中正路626號","121.422145","25.0288433333333","6500500","新莊區"
"242006","132-UY","2017/10/19 08:09:38","新北市新莊區福樂街106號","121.45743","25.047695","6500500","新莊區"
"242035","133-UY","2017/10/19 08:09:34","新北市新莊區建福路59巷45號","121.428603333333","25.02787","6500500","新莊區"
"242020","135-UY","2017/10/19 08:09:33","新北市新莊區中華路一段65號","121.452038333333","25.039575","6500500","新莊區"
"242045","172-VK","2017/10/19 08:09:47","新北市新莊區中正路585號","121.434425","25.032285","6500500","新莊區"
"242008","173-VK","2017/10/19 08:09:49","新北市新莊區福壽街169巷14號","121.457171666667","25.0537716666667","6500500","新莊區"
"242014","175-VK","2017/10/19 08:09:48","新北市新莊區中平路37號","121.444575","25.0439183333333","6500500","新莊區"
"242001","176-VK","2017/10/19 08:09:37","新北市新莊區新莊路421號","121.45053","25.03361","6500500","新莊區"
"242012","347-TH","2017/10/19 08:09:40","新北市新莊區中誠街125號","121.449293333333","25.0474366666667","6500500","新莊區"
"242018","348-TH","2017/10/19 08:09:48","新北市新莊區中港路177號","121.45483","25.0413683333333","6500500","新莊區"
"242055","349-TH","2017/10/19 08:09:42","新北市新莊區瓊林路13-7號","121.448338333333","25.0303633333333","6500500","新莊區"
"242016","350-TH","2017/10/19 08:09:50","新北市新莊區永安街185號","121.448558333333","25.0442883333333","6500500","新莊區"
"242010","351-TH","2017/10/19 08:09:47","新北市新莊區中港路626號","121.451038333333","25.0550616666667","6500500","新莊區"
"220064","282-UM","2017/10/19 08:09:45","新北市板橋區華東街330號","121.45293","25.0038016666667","6500100","板橋區"
"242033","280-VK","2017/10/19 08:09:43","新北市新莊區新莊路546號","121.445133333333","25.0328683333333","6500500","新莊區"
