"lineid","car","time","location","longitude","latitude","cityid","cityname"
"232001","290-BY","2017/10/19 08:29:37","新北市坪林區虎寮潭1-5號","121.744286666667","24.95533","6502000","坪林區"
"232014","291-BY","2017/10/19 08:29:39","新北市坪林區北宜路八段6號","121.70114","24.9357916666667","6502000","坪林區"
"244012","069-UM","2017/10/19 08:29:37","新北市林口區中正路398號","121.384825","25.0779783333333","6501700","林口區"
"244006","080-UY","2017/10/19 08:29:42","新北市林口區湖子15-5號","121.386501666667","25.0906766666667","6501700","林口區"
"244024","742-UY","2017/10/19 08:29:40","新北市林口區文化三路一段41-1號","121.361028333333","25.0671466666667","6501700","林口區"
"244008","410-SL","2017/10/19 08:29:46","新北市林口區文化一路二段217-2號","121.384426666667","25.0835233333333","6501700","林口區"
"244022","483-VK","2017/10/19 08:29:38","新北市林口區東明一街68號","121.391806666667","25.071765","6501700","林口區"
"244016","485-VK","2017/10/19 08:29:34","新北市林口區文化二路一段226-1號","121.369436666667","25.072525","6501700","林口區"
"244003","657-BX","2017/10/19 08:29:45","新北市林口區下福里66號","121.309205","25.1146983333333","6501700","林口區"
"244010","701-TV","2017/10/19 08:29:41","新北市林口區中正路103號","121.39393","25.0772433333333","6501700","林口區"
"244020","838-TS","2017/10/19 08:29:41","新北市林口區自強八街1號","121.400603333333","25.0765033333333","6501700","林口區"
"222004","289-BY","2017/10/19 08:29:41","新北市深坑區萬福路175號","121.615375","25.0154616666667","6501800","深坑區"
"231069","189-VK","2017/10/19 08:29:49","新北市新店區新潭路二段120號","121.51343","24.922745","6500600","新店區"
"231008","192-VK","2017/10/19 08:29:35","新北市新店區新烏路一段58-2號","121.546076666667","24.9471066666667","6500600","新店區"
"226005","5620-A6","2017/10/19 08:29:40","新北市平溪區南山里南山坪105號","121.78169","25.0429066666667","6502400","平溪區"
"226002","7418-A5","2017/10/19 08:29:49","新北市平溪區東勢里芊蓁坑30號","121.72749","24.979115","6502400","平溪區"
"226003","AGD-0702","2017/10/19 08:29:47","新北市平溪區十分里十分街311號","121.77507","25.04389","6502400","平溪區"
"223006","022-BY","2017/10/19 08:29:28","新北市深坑區昇高坑路26號","121.626475","25.0005083333333","6501900","石碇區"
"223002","198-BX","2017/10/19 08:29:48","新北市石碇區烏塗窟1號","121.656268333333","24.975695","6501900","石碇區"
"223003","205-TH","2017/10/19 08:29:47","新北市石碇區北宜路六段柑腳巷3-1號","121.658913333333","24.9377716666667","6501900","石碇區"
"223008","406-TH","2017/10/19 08:29:43","新北市石碇區番子坑109號","121.674978333333","25.0112033333333","6501900","石碇區"
"223001","592-UM","2017/10/19 08:29:46","新北市石碇區北宜路六段柑腳巷3-1號","121.65907","24.93779","6501900","石碇區"
"223004","660-BX","2017/10/19 08:29:45","新北市石碇區碇坪路一段282號","121.676475","24.9767233333333","6501900","石碇區"
"223007","661-BX","2017/10/19 08:29:47","新北市石碇區番子坑38-3號","121.678785","25.010535","6501900","石碇區"
"223005","677-TV","2017/10/19 08:29:48","新北市石碇區碇坪路一段282號","121.676613333333","24.976655","6501900","石碇區"
"224002","640-TC","2017/10/19 08:29:21","新北市瑞芳區逢甲路17號","121.8096","25.10845","6501200","瑞芳區"
"253003","6232-TK","2017/10/19 08:29:36","新北市石門區石崩山19號","121.56702","25.2690033333333","6502200","石門區"
"253001","6251-TK","2017/10/19 08:29:50","新北市石門區下員坑42-3號","121.517526666667","25.2776333333333","6502200","石門區"
"253002","637-UY","2017/10/19 08:29:50","新北市石門區九芎林5-3號","121.559818333333","25.269945","6502200","石門區"
"253004","8270-PC","2017/10/19 08:29:34","新北市石門區阿里荖67號","121.609451666667","25.273155","6502200","石門區"
"252004","249-BX","2017/10/19 08:29:41","新北市三芝區興華里車埕1號","121.501166666667","25.2027633333333","6502100","三芝區"
"252007","AAC-283","2017/10/19 08:29:44","新北市淡水區石頭厝6號","121.461231666667","25.2400083333333","6502100","三芝區"
"237001","159-UY","2017/10/19 08:29:40","新北市三峽區三樹路281號","121.378991666667","24.943255","6500900","三峽區"
"236009","165-UM","2017/10/19 08:29:47","新北市土城區石門路95號","121.46892","24.9596633333333","6501300","土城區"
"236003","339-SR","2017/10/19 08:29:40","新北市土城區中央路四段281-3號","121.412325","24.9536533333333","6501300","土城區"
"236005","498-BY","2017/10/19 08:29:33","新北市土城區大暖路70號","121.42284","24.9590366666667","6501300","土城區"
"242030","AAC-296","2017/10/19 08:29:47","新北市新莊區新泰路277巷61號","121.44333","25.0400083333333","6500500","新莊區"
"242028","986-R7","2017/10/19 08:29:46","新北市新莊區中平路61號","121.444671666667","25.0446016666667","6500500","新莊區"
"242049","751-BX","2017/10/19 08:29:37","新北市新莊區民本街33巷20號","121.429","25.0184883333333","6500500","新莊區"
"242024","705-TV","2017/10/19 08:29:49","新北市新莊區五權一路72號","121.458713333333","25.0666066666667","6500500","新莊區"
"242022","613-BX","2017/10/19 08:29:41","新北市新莊區化成路163號","121.465503333333","25.04935","6500500","新莊區"
"242026","612-BX","2017/10/19 08:29:48","新北市新莊區思源路449號","121.459686666667","25.05323","6500500","新莊區"
"242043","497-BY","2017/10/19 08:29:46","新北市新莊區中正路力行巷46號","121.415851666667","25.02697","6500500","新莊區"
"242038","442-UM","2017/10/19 08:29:35","新北市新莊區民安西路88巷12弄19號","121.42596","25.0204533333333","6500500","新莊區"
"242047","441-UM","2017/10/19 08:29:50","新北市新莊區萬安街2-1號","121.421641666667","25.0252016666667","6500500","新莊區"
"242052","440-UM","2017/10/19 08:29:42","新北市新莊區民安西路472號","121.431916666667","25.0077516666667","6500500","新莊區"
"242040","400-BY","2017/10/19 08:29:36","新北市新莊區天祥街92巷51號","121.415023333333","25.030415","6500500","新莊區"
"242059","362-BY","2017/10/19 08:29:49","新北市新莊區新樹路172-13號","121.43456","25.021755","6500500","新莊區"
"242057","353-BY","2017/10/19 08:29:40","新北市新莊區中山路三段157號","121.4126","25.0292083333333","6500500","新莊區"
"242006","132-UY","2017/10/19 08:29:38","新北市新莊區自治街1號","121.45316","25.04786","6500500","新莊區"
"242035","133-UY","2017/10/19 08:29:34","新北市新莊區建福路58巷3號","121.426348333333","25.0269916666667","6500500","新莊區"
"242020","135-UY","2017/10/19 08:29:34","新北市新莊區建興街61號","121.44997","25.0378116666667","6500500","新莊區"
"242045","172-VK","2017/10/19 08:29:33","新北市新莊區福營路199號","121.431005","25.0302883333333","6500500","新莊區"
"242008","173-VK","2017/10/19 08:29:49","新北市新莊區昌平街30號","121.45481","25.0530816666667","6500500","新莊區"
"242014","175-VK","2017/10/19 08:29:41","新北市新莊區中和街59巷12號","121.446845","25.0468816666667","6500500","新莊區"
"242001","176-VK","2017/10/19 08:29:41","新北市新莊區新莊路78號","121.45733","25.0366183333333","6500500","新莊區"
"242012","347-TH","2017/10/19 08:29:50","新北市新莊區中誠街134號","121.448986666667","25.0475883333333","6500500","新莊區"
"242018","348-TH","2017/10/19 08:29:43","新北市新莊區明中街43巷10號","121.457196666667","25.03877","6500500","新莊區"
"242055","349-TH","2017/10/19 08:29:42","新北市新莊區豐年街豐1巷21號","121.447351666667","25.0312216666667","6500500","新莊區"
"242016","350-TH","2017/10/19 08:29:50","新北市新莊區中華路二段3巷29號","121.45309","25.046395","6500500","新莊區"
"242010","351-TH","2017/10/19 08:29:47","新北市新莊區中信街94巷11號","121.448513333333","25.0536566666667","6500500","新莊區"
"220064","282-UM","2017/10/19 08:29:45","新北市五股區凌雲路三段24巷9號","121.436203333333","25.106935","6500100","板橋區"
"242033","280-VK","2017/10/19 08:29:43","新北市新莊區中正路377巷8號","121.446203333333","25.034215","6500500","新莊區"
