"lineid","car","time","location","longitude","latitude","cityid","cityname"
"232001","290-BY","2017/10/19 08:39:17","新北市坪林區大粗坑6-1號","121.731675","24.9492533333333","6502000","坪林區"
"244012","069-UM","2017/10/19 08:39:53","新北市林口區中山路39號","121.39489","25.0784166666667","6501700","林口區"
"244006","080-UY","2017/10/19 08:39:42","新北市林口區林口路201號","121.387388333333","25.0828083333333","6501700","林口區"
"244024","742-UY","2017/10/19 08:39:40","新北市林口區南勢四街82巷2號","121.355331666667","25.070945","6501700","林口區"
"244008","410-SL","2017/10/19 08:39:46","新北市林口區佳林路56巷13號","121.385466666667","25.08151","6501700","林口區"
"244022","483-VK","2017/10/19 08:39:38","新北市林口區興林路221巷27號","121.38975","25.0717833333333","6501700","林口區"
"244016","485-VK","2017/10/19 08:39:54","新北市林口區八德路20巷1號","121.368201666667","25.0672216666667","6501700","林口區"
"244003","657-BX","2017/10/19 08:39:45","新北市林口區下福里147號","121.300056666667","25.116955","6501700","林口區"
"244010","701-TV","2017/10/19 08:39:41","新北市林口區中正路74巷5弄4號","121.394535","25.0780316666667","6501700","林口區"
"244020","838-TS","2017/10/19 08:39:41","新北市林口區自強三街27號","121.398161666667","25.07736","6501700","林口區"
"222004","289-BY","2017/10/19 08:39:41","新北市深坑區風格街18號","121.627323333333","25.0170316666667","6501800","深坑區"
"231069","189-VK","2017/10/19 08:39:49","新北市新店區新潭路三段220號","121.50326","24.9048966666667","6500600","新店區"
"231008","192-VK","2017/10/19 08:39:55","新北市新店區新烏路二段142號","121.548521666667","24.9184866666667","6500600","新店區"
"226005","5620-A6","2017/10/19 08:39:40","新北市平溪區十分里十分街259號","121.778201666667","25.04496","6502400","平溪區"
"226002","7418-A5","2017/10/19 08:39:49","新北市平溪區東勢里芊蓁坑30號","121.727485","24.97911","6502400","平溪區"
"226003","AGD-0702","2017/10/19 08:39:47","新北市平溪區十分里十分街58巷6號","121.775465","25.0418533333333","6502400","平溪區"
"223006","022-BY","2017/10/19 08:39:49","新北市深坑區文山路一段10號","121.643043333333","25.00863","6501900","石碇區"
"223002","198-BX","2017/10/19 08:31:39","新北市石碇區烏塗窟1號","121.656265","24.9757016666667","6501900","石碇區"
"223003","205-TH","2017/10/19 08:39:47","新北市石碇區北宜路五段80號","121.646803333333","24.9512016666667","6501900","石碇區"
"223008","406-TH","2017/10/19 08:39:43","新北市石碇區串空湖9號","121.668878333333","25.0016116666667","6501900","石碇區"
"223001","592-UM","2017/10/19 08:39:46","新北市石碇區北宜路六段十三股巷1號","121.649111666667","24.949275","6501900","石碇區"
"223004","660-BX","2017/10/19 08:39:45","新北市石碇區崩山24-2號","121.678601666667","24.9678783333333","6501900","石碇區"
"223007","661-BX","2017/10/19 08:39:47","新北市石碇區雙溪96號","121.664195","25.0073916666667","6501900","石碇區"
"223005","677-TV","2017/10/19 08:39:48","新北市石碇區崩山24-2號","121.678575","24.9678433333333","6501900","石碇區"
"224002","640-TC","2017/10/19 08:39:41","新北市瑞芳區建基路一段1號","121.819881666667","25.1209816666667","6501200","瑞芳區"
"253003","6232-TK","2017/10/19 08:39:56","新北市石門區尖子鹿13號","121.572096666667","25.2798816666667","6502200","石門區"
"253001","6251-TK","2017/10/19 08:39:10","新北市石門區白沙灣別墅37號","121.509615","25.2785066666667","6502200","石門區"
"253002","637-UY","2017/10/19 08:39:50","新北市石門區九芎林35-1號","121.567781666667","25.255725","6502200","石門區"
"253004","8270-PC","2017/10/19 08:38:54","新北市石門區竹子湖11號","121.61771","25.2583516666667","6502200","石門區"
"252004","249-BX","2017/10/19 08:39:41","新北市三芝區興華里田心子10-5號","121.495581666667","25.2059033333333","6502100","三芝區"
"252007","AAC-283","2017/10/19 08:39:44","新北市三芝區後厝里番社后38號","121.472333333333","25.24259","6502100","三芝區"
"237001","159-UY","2017/10/19 08:39:40","新北市三峽區大德路70號","121.37741","24.94293","6500900","三峽區"
"236009","165-UM","2017/10/19 08:39:47","新北市土城區石門路59-2號","121.457833333333","24.9634283333333","6501300","土城區"
"236003","339-SR","2017/10/19 08:39:40","新北市土城區中州路78號","121.411876666667","24.9588833333333","6501300","土城區"
"236005","498-BY","2017/10/19 08:39:53","新北市土城區中央路三段249巷13號","121.428065","24.9635266666667","6501300","土城區"
"242030","AAC-296","2017/10/19 08:39:47","新北市新莊區新泰路255巷41號","121.444555","25.0395816666667","6500500","新莊區"
"242028","986-R7","2017/10/19 08:39:49","新北市新莊區中平路188號","121.444723333333","25.048045","6500500","新莊區"
"242049","751-BX","2017/10/19 08:39:37","新北市新莊區民本街9號","121.427818333333","25.0199633333333","6500500","新莊區"
"242024","705-TV","2017/10/19 08:39:49","新北市新莊區五工三路94巷14號","121.458715","25.0659933333333","6500500","新莊區"
"242022","613-BX","2017/10/19 08:39:41","新北市新莊區化成路256號","121.465635","25.047225","6500500","新莊區"
"242026","612-BX","2017/10/19 08:39:48","新北市新莊區幸福路579號","121.453885","25.0492416666667","6500500","新莊區"
"242043","497-BY","2017/10/19 08:39:46","新北市新莊區鳳山街56巷59號","121.413093333333","25.02739","6500500","新莊區"
"242038","442-UM","2017/10/19 08:39:55","新北市新莊區民安路299巷37號","121.429335","25.0232633333333","6500500","新莊區"
"242047","441-UM","2017/10/19 08:39:53","新北市新莊區後港一路1號","121.424041666667","25.0262916666667","6500500","新莊區"
"242052","440-UM","2017/10/19 08:39:56","新北市新莊區光華街25號","121.428833333333","25.0110116666667","6500500","新莊區"
"242040","400-BY","2017/10/19 08:39:36","新北市新莊區天祥街69號","121.415835","25.0290566666667","6500500","新莊區"
"242059","362-BY","2017/10/19 08:39:42","新北市新莊區新樹路138-1號","121.43535","25.02341","6500500","新莊區"
"242057","353-BY","2017/10/19 08:39:40","新北市新莊區新北大道七段351號","121.412103333333","25.027335","6500500","新莊區"
"242006","132-UY","2017/10/19 08:39:38","新北市新莊區中原路45號","121.458038333333","25.0547716666667","6500500","新莊區"
"242035","133-UY","2017/10/19 08:39:54","新北市新莊區後港一路32號","121.425443333333","25.0260916666667","6500500","新莊區"
"242020","135-UY","2017/10/19 08:39:53","新北市新莊區新興街35號","121.45066","25.0376633333333","6500500","新莊區"
"242045","172-VK","2017/10/19 08:39:53","新北市新莊區福營路300號","121.422548333333","25.0274366666667","6500500","新莊區"
"242008","173-VK","2017/10/19 08:39:54","新北市新莊區昌盛街30號","121.454101666667","25.049945","6500500","新莊區"
"242014","175-VK","2017/10/19 08:39:35","新北市新莊區中平路184巷10弄7號","121.445505","25.048345","6500500","新莊區"
"242001","176-VK","2017/10/19 08:39:37","新北市新莊區武前街29號","121.450355","25.0325166666667","6500500","新莊區"
"242012","347-TH","2017/10/19 08:39:40","新北市新莊區中港路417巷18號","121.451583333333","25.0475433333333","6500500","新莊區"
"242018","348-TH","2017/10/19 08:39:36","新北市新莊區長青街37巷22弄5號","121.456053333333","25.04109","6500500","新莊區"
"242055","349-TH","2017/10/19 08:39:42","新北市新莊區瓊林路13-2號","121.449055","25.0311683333333","6500500","新莊區"
"242016","350-TH","2017/10/19 08:39:50","新北市新莊區中港路397號","121.451818333333","25.0468616666667","6500500","新莊區"
"242010","351-TH","2017/10/19 08:39:47","新北市新莊區中港路591巷23號","121.449946666667","25.0523766666667","6500500","新莊區"
"220064","282-UM","2017/10/19 08:39:45","新北市八里區中山路三段335號","121.376466666667","25.139925","6500100","板橋區"
"242033","280-VK","2017/10/19 08:39:43","新北市新莊區景德路229號","121.448851666667","25.03371","6500500","新莊區"
