"lineid","car","time","location","longitude","latitude","cityid","cityname"
"232001","290-BY","2017/10/19 08:59:37","新北市坪林區北宜路八段301號","121.710933333333","24.933795","6502000","坪林區"
"244012","069-UM","2017/10/19 08:59:53","新北市林口區中山路143號","121.387451666667","25.0792583333333","6501700","林口區"
"244006","080-UY","2017/10/19 08:59:43","新北市林口區竹林路560號","121.387035","25.0840366666667","6501700","林口區"
"244018","403-UM","2017/10/19 08:59:54","新北市林口區忠孝路512巷25號","121.371101666667","25.0683233333333","6501700","林口區"
"244024","742-UY","2017/10/19 08:59:40","新北市林口區南勢街163號","121.35944","25.075025","6501700","林口區"
"244008","410-SL","2017/10/19 08:59:47","新北市林口區文林一街115巷7號","121.378751666667","25.0875166666667","6501700","林口區"
"244022","483-VK","2017/10/19 08:59:38","新北市林口區東湖路93巷11號","121.384471666667","25.0727583333333","6501700","林口區"
"244016","485-VK","2017/10/19 08:59:54","新北市林口區文化二路一段20巷25弄13號","121.365425","25.0673233333333","6501700","林口區"
"244003","657-BX","2017/10/19 08:59:45","新北市林口區下福里14鄰80號","121.307838333333","25.1214766666667","6501700","林口區"
"244010","701-TV","2017/10/19 08:59:41","新北市林口區仁愛路一段326號","121.391255","25.076465","6501700","林口區"
"222004","289-BY","2017/10/19 08:57:14","新北市深坑區土庫尖路75-1號","121.63129","25.018205","6501800","深坑區"
"231069","189-VK","2017/10/19 08:59:49","新北市新店區新潭路三段215巷36號","121.509336666667","24.9042916666667","6500600","新店區"
"231008","192-VK","2017/10/19 08:59:55","新北市新店區新烏路三段290巷5號","121.548746666667","24.8975416666667","6500600","新店區"
"226005","5620-A6","2017/10/19 08:59:40","新北市平溪區十分里十分街238號","121.77812","25.044175","6502400","平溪區"
"226002","7418-A5","2017/10/19 08:59:49","新北市平溪區東勢里芊蓁林32-2號","121.726905","24.9779933333333","6502400","平溪區"
"226003","AGD-0702","2017/10/19 08:59:47","新北市平溪區十分里十分街238號","121.778051666667","25.0441133333333","6502400","平溪區"
"223002","198-BX","2017/10/19 08:31:39","新北市石碇區烏塗窟1號","121.656265","24.9757016666667","6501900","石碇區"
"223003","205-TH","2017/10/19 08:59:47","新北市石碇區北宜路五段58號","121.634375","24.95323","6501900","石碇區"
"223008","406-TH","2017/10/19 08:59:43","新北市石碇區碇南路二段松柏崎巷8-2號","121.674953333333","25.0200933333333","6501900","石碇區"
"223001","592-UM","2017/10/19 08:59:46","新北市石碇區北宜路五段22號","121.630631666667","24.9567066666667","6501900","石碇區"
"223004","660-BX","2017/10/19 08:59:45","新北市石碇區磨石坑36號","121.691258333333","24.9680483333333","6501900","石碇區"
"223007","661-BX","2017/10/19 08:59:47","新北市石碇區碇南路二段松柏崎巷10號","121.67481","25.0183266666667","6501900","石碇區"
"223005","677-TV","2017/10/19 08:59:48","新北市石碇區磨石坑24-5號","121.690593333333","24.971235","6501900","石碇區"
"224002","640-TC","2017/10/19 08:59:41","新北市瑞芳區瑞芳街1號","121.806916666667","25.11003","6501200","瑞芳區"
"253003","6232-TK","2017/10/19 08:59:36","新北市石門區尖子鹿8號","121.575181666667","25.2799516666667","6502200","石門區"
"253001","6251-TK","2017/10/19 08:59:50","新北市石門區下員坑50-1號","121.518596666667","25.27227","6502200","石門區"
"253002","637-UY","2017/10/19 08:56:30","新北市石門區尖山湖18-1號","121.560305","25.24649","6502200","石門區"
"253004","8270-PC","2017/10/19 08:59:53","新北市石門區阿里荖40號","121.60467","25.278915","6502200","石門區"
"252004","249-BX","2017/10/19 08:59:41","新北市三芝區興華里田心子22-1號","121.492151666667","25.1997716666667","6502100","三芝區"
"252007","AAC-283","2017/10/19 08:59:47","新北市三芝區後厝里北勢子23-2號","121.474125","25.2516866666667","6502100","三芝區"
"237001","159-UY","2017/10/19 08:59:40","新北市三峽區學勤路117號","121.375538333333","24.9466516666667","6500900","三峽區"
"236009","165-UM","2017/10/19 08:59:47","新北市土城區金城路二段46巷5-8號","121.453231666667","24.97437","6501300","土城區"
"236003","339-SR","2017/10/19 08:59:40","新北市土城區金城路一段16號","121.43931","24.9688916666667","6501300","土城區"
"236005","498-BY","2017/10/19 08:59:53","新北市土城區承天路4巷10-1號","121.43828","24.9591183333333","6501300","土城區"
"242030","AAC-296","2017/10/19 08:59:47","新北市新莊區新泰路213巷56號","121.444891666667","25.0384983333333","6500500","新莊區"
"242028","986-R7","2017/10/19 08:59:46","新北市新莊區中榮街152巷46號","121.445383333333","25.0537316666667","6500500","新莊區"
"242049","751-BX","2017/10/19 08:59:43","新北市新莊區民安西路212巷6號","121.425373333333","25.0148683333333","6500500","新莊區"
"242024","705-TV","2017/10/19 08:59:49","新北市新莊區五工三路78巷7號","121.459226666667","25.0653566666667","6500500","新莊區"
"242022","613-BX","2017/10/19 08:59:41","新北市新莊區化成路373-1號","121.465446666667","25.0577816666667","6500500","新莊區"
"242026","612-BX","2017/10/19 08:59:48","新北市新莊區立信三街12巷14號","121.44415","25.051095","6500500","新莊區"
"242043","497-BY","2017/10/19 08:59:46","新北市新莊區新北大道七段323號","121.412241666667","25.0283766666667","6500500","新莊區"
"242038","442-UM","2017/10/19 08:59:55","新北市新莊區民安西路87號","121.427063333333","25.0191466666667","6500500","新莊區"
"242047","441-UM","2017/10/19 08:59:53","新北市新莊區民安路104號","121.424051666667","25.0258466666667","6500500","新莊區"
"242052","440-UM","2017/10/19 08:59:42","新北市新莊區西盛街397號","121.427876666667","25.0128533333333","6500500","新莊區"
"242040","400-BY","2017/10/19 08:59:56","新北市新莊區青山路一段20號","121.411143333333","25.0275416666667","6500500","新莊區"
"242059","362-BY","2017/10/19 08:59:42","新北市新莊區瓊林路63-2號","121.438195","25.0209466666667","6500500","新莊區"
"242057","353-BY","2017/10/19 08:59:42","新北市新莊區中正路891-14號","121.413076666667","25.022485","6500500","新莊區"
"242006","132-UY","2017/10/19 08:59:51","新北市新莊區福壽街136巷38號","121.45921","25.0516266666667","6500500","新莊區"
"242035","133-UY","2017/10/19 08:59:33","新北市新莊區建安街41巷10號","121.429138333333","25.0251633333333","6500500","新莊區"
"242020","135-UY","2017/10/19 08:59:33","新北市新莊區建中街48巷2號","121.448476666667","25.03749","6500500","新莊區"
"242045","172-VK","2017/10/19 08:59:53","新北市新莊區富國路77巷23號","121.420405","25.0265283333333","6500500","新莊區"
"242008","173-VK","2017/10/19 08:59:53","新北市新莊區昌隆街67號","121.457063333333","25.051035","6500500","新莊區"
"242014","175-VK","2017/10/19 08:59:55","新北市新莊區中和街51號","121.447895","25.0445683333333","6500500","新莊區"
"242001","176-VK","2017/10/19 08:59:46","新北市新莊區中正路71號","121.461201666667","25.0392716666667","6500500","新莊區"
"242012","347-TH","2017/10/19 08:59:20","新北市新莊區中和街155巷24弄83號","121.446388333333","25.0513916666667","6500500","新莊區"
"242018","348-TH","2017/10/19 08:59:50","新北市新莊區長青街17號","121.458761666667","25.0423433333333","6500500","新莊區"
"242055","349-TH","2017/10/19 08:59:42","新北市新莊區新豐街53號","121.447353333333","25.0338366666667","6500500","新莊區"
"242016","350-TH","2017/10/19 08:59:50","新北市新莊區中港三街78號","121.44955","25.0462633333333","6500500","新莊區"
"242010","351-TH","2017/10/19 08:59:47","新北市新莊區中信街52號","121.449311666667","25.0508183333333","6500500","新莊區"
"220064","282-UM","2017/10/19 08:58:05","新北市八里區荖阡坑路34-2號","121.401258333333","25.1300016666667","6500100","板橋區"
"242033","280-VK","2017/10/19 08:59:43","新北市新莊區公園一路110號","121.444306666667","25.037415","6500500","新莊區"
