"lineid","car","time","location","longitude","latitude","cityid","cityname"
"231007","189-VK","2017/10/19 11:54:07","新北市新店區安華路28-1號","121.519428333333","24.96108","6500600","新店區"
"247003","336-TH","2017/10/19 22:33:44","新北市五股區中興路三段163號","121.449225","25.0809516666667","6501400","蘆洲區"
"247008","053-VK","2017/10/19 22:33:31","新北市五股區中直路3-19號","121.427783333333","25.1091266666667","6501400","蘆洲區"
"221012","276-VK","2017/10/19 13:28:15","新北市汐止區汐萬路一段256巷3號","121.65344","25.0746566666667","6501100","汐止區"
"220080","461-BY","2017/10/19 18:56:33","新北市板橋區華東街1-9號","121.448076666667","24.994875","6500100","板橋區"
