"lineid","car","time","location","longitude","latitude","cityid","cityname"
"248005","653-BX","2017/08/31 08:28:50","新北市五股區明德路8號","121.43335","25.0716766666667","6501500","五股區"
"232001","291-BY","2017/08/31 08:28:58","新北市坪林區粗石斛4號","121.74736","24.9535683333333","6502000","坪林區"
"232014","705-BZ","2017/08/31 08:28:56","新北市坪林區北宜路八段6號","121.701228333333","24.93578","6502000","坪林區"
"232018","758-BX","2017/08/31 07:59:10","新北市坪林區坪雙路一段43號","121.711593333333","24.9426316666667","6502000","坪林區"
"244006","080-UY","2017/08/31 08:28:58","新北市林口區湖子12號","121.386943333333","25.0895716666667","6501700","林口區"
"244003","248-BX","2017/08/31 08:28:52","新北市林口區下福34號","121.309463333333","25.1115766666667","6501700","林口區"
"244018","403-UM","2017/08/31 08:28:56","新北市林口區文化二路一段368號","121.373563333333","25.0758783333333","6501700","林口區"
"244008","410-SL","2017/08/31 08:29:03","新北市林口區文化一路二段360號","121.384718333333","25.08361","6501700","林口區"
"244016","656-BX","2017/08/31 08:29:01","新北市林口區公園路167號","121.370726666667","25.07197","6501700","林口區"
"244022","657-BX","2017/08/31 08:28:52","新北市林口區東明一街15巷15號","121.393136666667","25.0719933333333","6501700","林口區"
"244012","658-BX","2017/08/31 08:29:05","新北市林口區中山路153號","121.38669","25.0792283333333","6501700","林口區"
"244010","701-TV","2017/08/31 08:28:51","新北市林口區中正路179號","121.392298333333","25.07738","6501700","林口區"
"244024","837-TS","2017/08/31 08:28:54","新北市林口區忠孝三路5號","121.361323333333","25.0690883333333","6501700","林口區"
"244020","838-TS","2017/08/31 08:28:48","新北市林口區自強一街52號","121.399486666667","25.0773833333333","6501700","林口區"
"222006","289-BY","2017/08/31 08:29:05","新北市深坑區深南路21號","121.620041666667","25.0117583333333","6501800","深坑區"
"231069","189-VK","2017/08/31 08:29:08","新北市新店區新潭路二段80號","121.51779","24.9251633333333","6500600","新店區"
"231008","192-VK","2017/08/31 08:28:49","新北市新店區永興路102-4號","121.54601","24.930245","6500600","新店區"
"235043","352-BY","2017/08/31 08:28:46","新北市中和區興南路一段134巷12弄8號","121.509525","24.9886583333333","6500300","中和區"
"220034","015-TV","2017/08/31 08:28:47","新北市八里區商港路105巷15-1號","121.392005","25.149695","6500100","板橋區"
"226005","5620-A6","2017/08/31 08:29:09","新北市平溪區南山里六分3號","121.794196666667","25.0491","6502400","平溪區"
"226002","7418-A5","2017/08/31 08:29:10","新北市平溪區東勢里芊蓁林59-1號","121.751971666667","25.0066966666667","6502400","平溪區"
"226003","AGD-0702","2017/08/31 08:28:55","新北市平溪區十分里十分街45號","121.774481666667","25.0407716666667","6502400","平溪區"
"223006","022-BY","2017/08/31 08:29:02","新北市深坑區昇高坑路51-1號","121.6305","24.993905","6501900","石碇區"
"223002","198-BX","2017/08/31 08:21:36","新北市石碇區北宜路五段80號","121.64682","24.9519316666667","6501900","石碇區"
"223003","205-TH","2017/08/31 08:29:06","新北市石碇區小粗坑(格頭里)1號","121.654788333333","24.9546966666667","6501900","石碇區"
"223008","406-TH","2017/08/31 08:28:53","新北市石碇區石碇子埔97-4號","121.668486666667","25.005095","6501900","石碇區"
"223001","437-BY","2017/08/31 08:28:58","新北市石碇區小粗坑(格頭里)1號","121.65504","24.954555","6501900","石碇區"
"223004","660-BX","2017/08/31 08:28:52","新北市石碇區碇坪路一段282號","121.676543333333","24.9765533333333","6501900","石碇區"
"223007","661-BX","2017/08/31 08:28:55","新北市石碇區靜安路一段97號","121.661623333333","25.0076216666667","6501900","石碇區"
"223005","677-TV","2017/08/31 08:29:07","新北市石碇區崩山20-1號","121.676996666667","24.9740266666667","6501900","石碇區"
"253002","4710-YM","2017/08/31 08:29:05","新北市石門區九芎林29號","121.558321666667","25.2672933333333","6502200","石門區"
"253003","6232-TK","2017/08/31 08:28:52","新北市石門區內石門50-1號","121.571775","25.2618016666667","6502200","石門區"
"253001","6251-TK","2017/08/31 08:28:54","新北市石門區下員坑30-7號","121.519033333333","25.2811066666667","6502200","石門區"
"253004","8270-PC","2017/08/31 08:28:51","新北市石門區阿里荖2號","121.613193333333","25.27904","6502200","石門區"
"252004","249-BX","2017/08/31 08:29:07","新北市三芝區興華里車埕8號","121.501425","25.2015683333333","6502100","三芝區"
"252007","AAC-283","2017/08/31 08:28:49","新北市三芝區後厝里番社后39號","121.467456666667","25.243185","6502100","三芝區"
"237001","159-UY","2017/08/31 08:28:50","新北市三峽區大德路70號","121.377343333333","24.9430783333333","6500900","三峽區"
"236009","165-UM","2017/08/31 08:29:05","新北市土城區石門路95號","121.468608333333","24.9597766666667","6501300","土城區"
"236003","339-SR","2017/08/31 08:29:02","新北市土城區中州路76號","121.412023333333","24.9583683333333","6501300","土城區"
"236005","498-BY","2017/08/31 08:28:48","新北市土城區中央路四段37巷25號","121.424033333333","24.96093","6501300","土城區"
"242020","AAC-296","2017/08/31 08:28:50","新北市新莊區建興街67號","121.449941666667","25.037965","6500500","新莊區"
"242028","986-R7","2017/08/31 08:28:51","新北市新莊區中平路79號","121.444741666667","25.0452433333333","6500500","新莊區"
"242047","751-BX","2017/08/31 08:28:50","新北市新莊區萬安街47巷28號","121.42271","25.0241033333333","6500500","新莊區"
"242024","615-BX","2017/08/31 08:28:58","新北市新莊區五權一路7-2號","121.45844","25.0666","6500500","新莊區"
"242022","613-BX","2017/08/31 08:29:04","新北市新莊區化成路344號","121.465751666667","25.0489066666667","6500500","新莊區"
"242026","612-BX","2017/08/31 08:29:01","新北市新莊區思源路375號","121.459818333333","25.0510833333333","6500500","新莊區"
"242035","566-BX","2017/08/31 08:29:04","新北市新莊區後港一路65號","121.426528333333","25.0265766666667","6500500","新莊區"
"242040","497-BY","2017/08/31 08:28:59","新北市新莊區天祥街123號","121.414408333333","25.02976","6500500","新莊區"
"242045","441-UM","2017/08/31 08:28:58","新北市新莊區福營路179號","121.43148","25.0308783333333","6500500","新莊區"
"242049","440-UM","2017/08/31 08:29:07","新北市新莊區民本街23巷19號","121.42918","25.019795","6500500","新莊區"
"242030","415-TV","2017/08/31 08:29:06","新北市新莊區新泰路277巷71號","121.442958333333","25.039995","6500500","新莊區"
"242001","413-TV","2017/08/31 08:29:09","新北市新莊區新莊路80號","121.457305","25.0365416666667","6500500","新莊區"
"242038","400-BY","2017/08/31 08:29:07","新北市新莊區民安西路26號","121.426823333333","25.0212683333333","6500500","新莊區"
"242059","362-BY","2017/08/31 08:29:03","新北市新莊區新樹路172-13號","121.434581666667","25.0216533333333","6500500","新莊區"
"242057","353-BY","2017/08/31 08:29:05","桃園市龜山區萬壽路一段16號","121.409731666667","25.0205","6500500","新莊區"
"242003","132-UY","2017/08/31 08:28:57","新北市新莊區福樂街35號","121.457623333333","25.0469","6500500","新莊區"
"242033","133-UY","2017/08/31 08:29:06","新北市新莊區中正路377巷8號","121.446165","25.034115","6500500","新莊區"
"242018","135-UY","2017/08/31 08:29:05","新北市新莊區民樂街28號","121.457746666667","25.0406966666667","6500500","新莊區"
"242043","172-VK","2017/08/31 08:28:59","新北市新莊區雙鳳路135號","121.413048333333","25.0274466666667","6500500","新莊區"
"242006","173-VK","2017/08/31 08:29:05","新北市新莊區自重街2號","121.453325","25.04747","6500500","新莊區"
"242012","175-VK","2017/08/31 08:29:07","新北市新莊區中和街114號","121.447571666667","25.0474933333333","6500500","新莊區"
"242055","176-VK","2017/08/31 08:29:04","新北市新莊區豐年街豐1巷19號","121.447316666667","25.0312166666667","6500500","新莊區"
"242010","346-TH","2017/08/31 08:29:07","新北市新莊區中榮街56巷11號","121.449156666667","25.0533333333333","6500500","新莊區"
"242016","348-TH","2017/08/31 08:28:52","新北市新莊區中和街58號","121.448021666667","25.0446916666667","6500500","新莊區"
"242052","349-TH","2017/08/31 08:28:53","新北市新莊區民安西路468-1號","121.431646666667","25.0078583333333","6500500","新莊區"
"242014","350-TH","2017/08/31 08:28:52","新北市新莊區中平路132巷5號","121.445598333333","25.046725","6500500","新莊區"
"242008","351-TH","2017/08/31 08:29:03","新北市新莊區昌平街71巷15號","121.453873333333","25.0536166666667","6500500","新莊區"
