"lineid","car","time","location","longitude","latitude","cityid","cityname"
"248005","653-BX","2017/08/31 08:48:50","新北市五股區明德路12巷1號","121.433293333333","25.0716633333333","6501500","五股區"
"232018","758-BX","2017/08/31 07:59:10","新北市坪林區坪雙路一段43號","121.711593333333","24.9426316666667","6502000","坪林區"
"244006","080-UY","2017/08/31 08:48:58","新北市林口區竹林路77-7號","121.388591666667","25.0796066666667","6501700","林口區"
"244003","248-BX","2017/08/31 08:48:52","新北市林口區下福90號","121.303248333333","25.1226866666667","6501700","林口區"
"244018","403-UM","2017/08/31 08:48:56","新北市林口區文化一路一段89-5號","121.37193","25.0704033333333","6501700","林口區"
"244008","410-SL","2017/08/31 08:49:03","新北市林口區佳林路82-1號","121.385711666667","25.0802966666667","6501700","林口區"
"244016","656-BX","2017/08/31 08:49:01","新北市林口區公園路45-1號","121.367435","25.06859","6501700","林口區"
"244022","657-BX","2017/08/31 08:48:52","新北市林口區東湖路86號","121.386511666667","25.0739366666667","6501700","林口區"
"244012","658-BX","2017/08/31 08:48:55","新北市林口區中山路160巷11號","121.391486666667","25.07969","6501700","林口區"
"244010","701-TV","2017/08/31 08:48:59","新北市林口區中原街23號","121.392801666667","25.0781866666667","6501700","林口區"
"244024","837-TS","2017/08/31 08:48:53","新北市林口區南勢四街192號","121.356608333333","25.07302","6501700","林口區"
"244020","838-TS","2017/08/31 08:48:47","新北市林口區工六路62-5號","121.399856666667","25.0776616666667","6501700","林口區"
"222006","289-BY","2017/08/31 08:48:45","新北市深坑區土庫尖路75-1號","121.63129","25.018195","6501800","深坑區"
"231069","189-VK","2017/08/31 08:42:28","新北市新店區新潭路三段236號","121.501521666667","24.90292","6500600","新店區"
"231008","192-VK","2017/08/31 08:48:49","新北市新店區新烏路三段寶島巷2弄3號","121.552","24.8986366666667","6500600","新店區"
"235043","352-BY","2017/08/31 08:49:06","新北市中和區圓通路435巷3-15號","121.488205","24.985745","6500300","中和區"
"220034","015-TV","2017/08/31 08:48:47","新北市八里區荖阡坑路41-3號","121.399783333333","25.1324533333333","6500100","板橋區"
"226005","5620-A6","2017/08/31 08:48:49","新北市平溪區十分里十分街271-2號","121.779088333333","25.0448483333333","6502400","平溪區"
"226002","7418-A5","2017/08/31 08:48:50","新北市平溪區東勢里芊蓁坑30號","121.727515","24.9791333333333","6502400","平溪區"
"226003","AGD-0702","2017/08/31 08:48:54","新北市平溪區靜安路三段369號","121.780715","25.0461766666667","6502400","平溪區"
"223006","022-BY","2017/08/31 08:48:10","新北市深坑區文山路一段10號","121.642978333333","25.0085833333333","6501900","石碇區"
"223002","198-BX","2017/08/31 08:21:36","新北市石碇區北宜路五段80號","121.64682","24.9519316666667","6501900","石碇區"
"223003","205-TH","2017/08/31 08:48:46","新北市石碇區北宜路六段塗潭巷56號","121.653848333333","24.9353083333333","6501900","石碇區"
"223008","406-TH","2017/08/31 08:48:53","新北市石碇區碇南路二段松柏崎巷51號","121.678818333333","25.0259316666667","6501900","石碇區"
"223001","437-BY","2017/08/31 08:48:57","新北市石碇區北宜路六段塗潭巷9號","121.646586666667","24.9323583333333","6501900","石碇區"
"223004","660-BX","2017/08/31 08:48:52","新北市石碇區崩山51-2號","121.681481666667","24.9692233333333","6501900","石碇區"
"223007","661-BX","2017/08/31 08:48:55","新北市石碇區十八重溪68-2號","121.671685","25.0179033333333","6501900","石碇區"
"223005","677-TV","2017/08/31 08:48:47","新北市石碇區崩山53號","121.682393333333","24.9688316666667","6501900","石碇區"
"253002","4710-YM","2017/08/31 08:49:05","新北市石門區九芎林43號","121.56636","25.2511283333333","6502200","石門區"
"253003","6232-TK","2017/08/31 08:48:52","新北市石門區尖子鹿8-1號","121.575218333333","25.2798183333333","6502200","石門區"
"253001","6251-TK","2017/08/31 08:48:54","新北市石門區下員坑16-20號","121.509036666667","25.2795666666667","6502200","石門區"
"253004","8270-PC","2017/08/31 08:47:24","新北市石門區竹子湖11號","121.61815","25.2569283333333","6502200","石門區"
"252004","249-BX","2017/08/31 08:49:07","新北市三芝區興華里田心子14號","121.492185","25.204985","6502100","三芝區"
"252007","AAC-283","2017/08/31 08:48:49","新北市三芝區後厝里北勢子22號","121.473451666667","25.2532366666667","6502100","三芝區"
"237001","159-UY","2017/08/31 08:48:50","新北市三峽區學勤路97號","121.374681666667","24.9461683333333","6500900","三峽區"
"236009","165-UM","2017/08/31 08:49:05","新北市土城區清水路32巷14號","121.457103333333","24.9812433333333","6501300","土城區"
"236003","339-SR","2017/08/31 08:49:02","新北市土城區中央路三段253號","121.4273","24.96372","6501300","土城區"
"236005","498-BY","2017/08/31 08:49:03","新北市土城區承天路4巷2-16號","121.436473333333","24.9629333333333","6501300","土城區"
"242020","AAC-296","2017/08/31 08:49:03","新北市新莊區建中街44號","121.448716666667","25.037355","6500500","新莊區"
"242028","986-R7","2017/08/31 08:48:51","新北市新莊區幸福路914號","121.442505","25.0488966666667","6500500","新莊區"
"242047","751-BX","2017/08/31 08:48:50","新北市新莊區後港一路28巷3弄1號","121.425545","25.0254566666667","6500500","新莊區"
"242024","615-BX","2017/08/31 08:48:52","新北市新莊區五工三路86巷10號","121.458943333333","25.065575","6500500","新莊區"
"242022","613-BX","2017/08/31 08:49:05","新北市新莊區化成路540-1號","121.466291666667","25.0532683333333","6500500","新莊區"
"242026","612-BX","2017/08/31 08:49:01","新北市新莊區立信三街42號","121.443018333333","25.0508816666667","6500500","新莊區"
"242035","566-BX","2017/08/31 08:49:04","新北市新莊區民安路196號","121.425558333333","25.02336","6500500","新莊區"
"242040","497-BY","2017/08/31 08:49:00","新北市新莊區天祥街100號","121.414833333333","25.0296666666667","6500500","新莊區"
"242045","441-UM","2017/08/31 08:48:58","新北市新莊區中正路831號","121.420781666667","25.0279366666667","6500500","新莊區"
"242049","440-UM","2017/08/31 08:49:06","新北市新莊區民安西路172巷8號","121.425125","25.0161933333333","6500500","新莊區"
"242030","415-TV","2017/08/31 08:49:06","新北市新莊區新泰路225巷9號","121.446005","25.0391383333333","6500500","新莊區"
"242001","413-TV","2017/08/31 08:49:03","新北市新莊區中正路180號","121.449931666667","25.035595","6500500","新莊區"
"242038","400-BY","2017/08/31 08:49:07","新北市新莊區民安路299巷19號","121.428916666667","25.0230183333333","6500500","新莊區"
"242059","362-BY","2017/08/31 08:49:07","新北市新莊區富國路176巷1號","121.424166666667","25.0243316666667","6500500","新莊區"
"242057","353-BY","2017/08/31 08:49:02","新北市新莊區八德街45號","121.425005","25.0221833333333","6500500","新莊區"
"242003","132-UY","2017/08/31 08:48:56","新北市新莊區化成路11巷91號","121.462171666667","25.0434766666667","6500500","新莊區"
"242033","133-UY","2017/08/31 08:48:46","新北市新莊區仁愛街16-5號","121.444243333333","25.0355683333333","6500500","新莊區"
"242018","135-UY","2017/08/31 08:49:06","新北市新莊區長青街17號","121.458725","25.0423683333333","6500500","新莊區"
"242043","172-VK","2017/08/31 08:48:52","新北市新莊區龍安路71號","121.41581","25.021885","6500500","新莊區"
"242006","173-VK","2017/08/31 08:49:05","新北市新莊區思源路585號","121.459961666667","25.0594083333333","6500500","新莊區"
"242012","175-VK","2017/08/31 08:48:47","新北市新莊區中華路二段85號","121.45247","25.0489916666667","6500500","新莊區"
"242055","176-VK","2017/08/31 08:48:56","新北市新莊區瓊泰路77巷16號","121.442621666667","25.02924","6500500","新莊區"
"242010","346-TH","2017/08/31 08:49:07","新北市新莊區中港路531巷6號","121.451336666667","25.0515916666667","6500500","新莊區"
"242016","348-TH","2017/08/31 08:48:52","新北市新莊區中港路338號","121.452183333333","25.0459716666667","6500500","新莊區"
"242052","349-TH","2017/08/31 08:48:53","新北市新莊區民安西路410巷8弄1號","121.428415","25.0094633333333","6500500","新莊區"
"242014","350-TH","2017/08/31 08:49:07","新北市新莊區泰安街46號","121.446958333333","25.0423983333333","6500500","新莊區"
"242008","351-TH","2017/08/31 08:49:03","新北市新莊區昌隆街84號","121.455868333333","25.05089","6500500","新莊區"
