"lineid","car","time","location","longitude","latitude","cityid","cityname"
"248005","653-BX","2017/08/31 09:38:50","新北市五股區成泰路一段7巷38號","121.43266","25.067045","6501500","五股區"
"244018","403-UM","2017/08/31 09:38:55","新北市林口區忠孝路594巷1號","121.375881666667","25.0681033333333","6501700","林口區"
"244008","410-SL","2017/08/31 09:39:03","新北市林口區台電新村146號","121.388745","25.08767","6501700","林口區"
"244022","657-BX","2017/08/31 09:38:52","新北市林口區民權路10-5號","121.371601666667","25.079725","6501700","林口區"
"244012","658-BX","2017/08/31 09:38:55","新北市林口區麗園一街11巷1號","121.377096666667","25.0704183333333","6501700","林口區"
"222006","289-BY","2017/08/31 09:38:54","新北市深坑區昇高坑路46號","121.627998333333","24.9992183333333","6501800","深坑區"
"231069","189-VK","2017/08/31 09:39:08","新北市新店區新潭路三段215巷25號","121.50811","24.9040816666667","6500600","新店區"
"231008","192-VK","2017/08/31 09:38:49","新北市新店區平廣路一段125-1號","121.526678333333","24.8935683333333","6500600","新店區"
"223002","198-BX","2017/08/31 09:38:36","新北市石碇區小粗坑(潭邊里)6號","121.675055","24.9842383333333","6501900","石碇區"
"223003","205-TH","2017/08/31 09:39:06","新北市石碇區北宜路五段6號","121.630326666667","24.95678","6501900","石碇區"
"223008","406-TH","2017/08/31 09:38:53","新北市石碇區玉桂嶺3號","121.7017","25.0108966666667","6501900","石碇區"
"223001","437-BY","2017/08/31 09:38:57","新北市石碇區北宜路五段12號","121.629468333333","24.9540116666667","6501900","石碇區"
"223007","661-BX","2017/08/31 09:38:55","新北市石碇區藤寮坑2號","121.702471666667","25.00953","6501900","石碇區"
"253002","4710-YM","2017/08/31 09:37:24","新北市三芝區橫山里橫山39-3號","121.545753333333","25.2546316666667","6502200","石門區"
"253003","6232-TK","2017/08/31 09:38:52","新北市石門區內石門73號","121.582896666667","25.2596416666667","6502200","石門區"
"253001","6251-TK","2017/08/31 09:38:54","新北市石門區八甲3-1號","121.52116","25.2836566666667","6502200","石門區"
"253004","8270-PC","2017/08/31 09:38:51","新北市石門區坪林50號","121.588413333333","25.2689933333333","6502200","石門區"
"252004","249-BX","2017/08/31 09:39:07","新北市三芝區圓山里石曹子坑43-6號","121.515336666667","25.217155","6502100","三芝區"
"252007","AAC-283","2017/08/31 09:38:50","新北市三芝區陽明路2號","121.518483333333","25.26352","6502100","三芝區"
"237014","756-BX","2017/08/31 09:34:18","新北市三峽區中山路459巷163-3號","121.348908333333","24.9331033333333","6500900","三峽區"
"236009","165-UM","2017/08/31 09:39:05","新北市土城區中央路四段321巷34弄5號","121.412903333333","24.9502066666667","6501300","土城區"
"242028","986-R7","2017/08/31 09:38:51","新北市新莊區中華路二段119號","121.45283","25.05029","6500500","新莊區"
"242047","751-BX","2017/08/31 09:39:08","新北市新莊區中正路867-8號","121.418191666667","25.0272233333333","6500500","新莊區"
"242035","566-BX","2017/08/31 09:39:04","新北市新莊區後港一路141號","121.430628333333","25.0276566666667","6500500","新莊區"
"242045","441-UM","2017/08/31 09:38:58","新北市樹林區中正路280-1號","121.415895","25.0096083333333","6500500","新莊區"
"242030","415-TV","2017/08/31 09:38:46","新北市新莊區三和路56號","121.437443333333","25.03842","6500500","新莊區"
"242001","413-TV","2017/08/31 09:38:49","新北市新莊區瓊林路13-3號","121.448966666667","25.030935","6500500","新莊區"
"242059","362-BY","2017/08/31 09:39:07","新北市新莊區民安路289-1號","121.429171666667","25.0223033333333","6500500","新莊區"
"242057","353-BY","2017/08/31 09:39:04","新北市新莊區四維路95號","121.423518333333","25.023955","6500500","新莊區"
"242003","132-UY","2017/08/31 09:38:56","新北市新莊區頭前路15巷2號","121.467883333333","25.052175","6500500","新莊區"
"242033","133-UY","2017/08/31 09:39:06","新北市新莊區中正路334巷27號","121.44555","25.0358816666667","6500500","新莊區"
"242043","172-VK","2017/08/31 09:38:52","新北市新莊區龍安路116號","121.418725","25.0203516666667","6500500","新莊區"
