"lineid","car","time","location","longitude","latitude","cityid","cityname"
"248005","653-BX","2017/08/31 09:48:50","新北市五股區成泰路一段153號","121.435311666667","25.0739183333333","6501500","五股區"
"244018","403-UM","2017/08/31 09:48:55","新北市林口區忠孝路642號","121.378843333333","25.0684983333333","6501700","林口區"
"244022","657-BX","2017/08/31 09:48:52","新北市林口區仁愛路二段371號","121.370395","25.079725","6501700","林口區"
"244012","658-BX","2017/08/31 09:48:55","新北市林口區麗園一街1號","121.375803333333","25.0724966666667","6501700","林口區"
"222006","289-BY","2017/08/31 09:48:54","新北市深坑區大崙腳2-2號","121.614453333333","24.99426","6501800","深坑區"
"231069","189-VK","2017/08/31 09:48:48","新北市新店區新潭路三段215巷25號","121.50812","24.9040766666667","6500600","新店區"
"231008","192-VK","2017/08/31 09:47:59","新北市新店區平廣路一段256號","121.507871666667","24.8883","6500600","新店區"
"223002","198-BX","2017/08/31 09:38:36","新北市石碇區小粗坑(潭邊里)6號","121.675055","24.9842383333333","6501900","石碇區"
"223003","205-TH","2017/08/31 09:49:06","新北市石碇區北宜路四段26號","121.623165","24.957915","6501900","石碇區"
"223008","406-TH","2017/08/31 09:48:33","新北市石碇區南勢坑2-2號","121.698353333333","24.988535","6501900","石碇區"
"223001","437-BY","2017/08/31 09:48:57","新北市石碇區北宜路四段23號","121.621291666667","24.9581566666667","6501900","石碇區"
"223007","661-BX","2017/08/31 09:47:15","新北市石碇區南勢坑2-3號","121.70027","24.9912233333333","6501900","石碇區"
"253002","4710-YM","2017/08/31 09:49:04","新北市石門區七股12-6號","121.547981666667","25.266215","6502200","石門區"
"253003","6232-TK","2017/08/31 09:48:52","新北市石門區尖子鹿90號","121.580291666667","25.288905","6502200","石門區"
"253001","6251-TK","2017/08/31 09:48:54","新北市石門區崁子腳84號","121.533515","25.2777233333333","6502200","石門區"
"253004","8270-PC","2017/08/31 09:48:51","新北市石門區內阿里磅2-1號","121.592038333333","25.25265","6502200","石門區"
"252004","249-BX","2017/08/31 09:48:47","新北市三芝區圓山里石曹子坑66號","121.523176666667","25.2136166666667","6502100","三芝區"
"252007","AAC-283","2017/08/31 09:48:49","新北市三芝區新庄里新庄子95-9號","121.513998333333","25.2743133333333","6502100","三芝區"
"237001","159-UY","2017/08/31 09:48:50","新北市三峽區隆恩街245號","121.35774","24.9409116666667","6500900","三峽區"
"237014","756-BX","2017/08/31 09:34:18","新北市三峽區中山路459巷163-3號","121.348908333333","24.9331033333333","6500900","三峽區"
"242047","751-BX","2017/08/31 09:48:50","新北市新莊區中正路597號","121.43289","25.0320416666667","6500500","新莊區"
"242030","415-TV","2017/08/31 09:49:06","新北市新莊區中正路508巷2號","121.436021666667","25.0331316666667","6500500","新莊區"
"242001","413-TV","2017/08/31 09:48:49","新北市新莊區瓊林路27號","121.445493333333","25.0286016666667","6500500","新莊區"
"242059","362-BY","2017/08/31 09:49:07","新北市新莊區新樹路258巷3號","121.432173333333","25.0155266666667","6500500","新莊區"
"242003","132-UY","2017/08/31 09:48:56","新北市新莊區化成路405號","121.464926666667","25.058785","6500500","新莊區"
"242033","133-UY","2017/08/31 09:48:46","新北市新莊區新豐街8號","121.448828333333","25.03458","6500500","新莊區"
