"lineid","car","time","location","longitude","latitude","cityid","cityname"
"244018","403-UM","2017/08/31 10:28:55","新北市林口區麗園一街4巷1號","121.376406666667","25.0714316666667","6501700","林口區"
"244025","837-TS","2017/08/31 09:57:53","新北市林口區粉寮路二段160巷28號","121.4052","25.09076","6501700","林口區"
"222006","289-BY","2017/08/31 10:28:54","新北市深坑區王軍寮14-1號","121.622801666667","24.984355","6501800","深坑區"
"231069","189-VK","2017/08/31 09:49:08","新北市新店區新潭路三段215巷25號","121.50812","24.9040766666667","6500600","新店區"
"231008","192-VK","2017/08/31 10:29:09","新北市新店區小坑一路22號","121.5314","24.9133816666667","6500600","新店區"
"223002","198-BX","2017/08/31 10:28:58","新北市石碇區小粗坑(潭邊里)9-2號","121.678853333333","24.9862333333333","6501900","石碇區"
"253002","4710-YM","2017/08/31 10:29:04","新北市石門區小坑12號","121.59156","25.29076","6502200","石門區"
"253003","6232-TK","2017/08/31 10:28:52","新北市石門區小坑9號","121.594415","25.2883616666667","6502200","石門區"
"253001","6251-TK","2017/08/31 10:28:54","新北市石門區中央路56號","121.568198333333","25.2933","6502200","石門區"
"253004","8270-PC","2017/08/31 10:28:11","新北市石門區小坑24-2號","121.59479","25.2772183333333","6502200","石門區"
"252007","AAC-283","2017/08/31 10:28:49","新北市三芝區新庄里番社后24-1號","121.50067","25.2724316666667","6502100","三芝區"
"237014","756-BX","2017/08/31 09:34:18","新北市三峽區中山路459巷163-3號","121.348908333333","24.9331033333333","6500900","三峽區"
