"lineid","car","time","location","longitude","latitude","cityid","cityname"
"234044","148-BY","2017/08/31 13:08:38","新北市永和區永元路52巷18號","121.523048333333","25.0009616666667","6500400","永和區"
"234012","149-BY","2017/08/31 13:08:55","新北市永和區仁愛路152號","121.510611666667","25.0128716666667","6500400","永和區"
"234005","207-UY","2017/08/31 13:08:40","新北市永和區中山路一段161號","121.509731666667","25.00926","6500400","永和區"
"234078","298-R6","2017/08/31 13:08:44","新北市永和區福和路57巷14弄10號","121.522345","25.00729","6500400","永和區"
"234036","336-UY","2017/08/31 13:08:51","新北市永和區環河東路四段84號","121.528285","24.9977816666667","6500400","永和區"
"234062","337-UY","2017/08/31 13:08:35","新北市永和區秀朗路二段51號","121.521783333333","25.0022666666667","6500400","永和區"
"234084","338-UY","2017/08/31 13:08:54","新北市永和區永貞路113號","121.517575","25.0043333333333","6500400","永和區"
"234068","552-UM","2017/08/31 13:08:55","新北市永和區豫溪街123號","121.519428333333","25.0100833333333","6500400","永和區"
"234052","553-UM","2017/08/31 13:08:55","新北市永和區中興街133巷14號","121.518286666667","25.0127233333333","6500400","永和區"
"234015","745-BX","2017/08/31 13:08:45","新北市永和區文化路90巷9弄2號","121.513731666667","25.015825","6500400","永和區"
"234028","746-BX","2017/08/31 13:08:53","新北市永和區民生路21號","121.5228","24.9988383333333","6500400","永和區"
"234060","AAD-866","2017/08/31 13:08:41","新北市永和區安樂路304巷7號","121.514546666667","25.005155","6500400","永和區"
"234040","862-TW","2017/08/31 13:08:48","新北市永和區保平路174巷2號","121.510956666667","25.006785","6500400","永和區"
"234048","863-TW","2017/08/31 13:08:50","新北市永和區文化路135巷26弄2號","121.51064","25.0145966666667","6500400","永和區"
"234025","9371-KE","2017/08/31 13:08:56","新北市永和區自由街16號","121.514631666667","25.0067116666667","6500400","永和區"
"234010","9373-KE","2017/08/31 13:08:46","新北市永和區仁愛路31巷2弄8號","121.513851666667","25.0130116666667","6500400","永和區"
"248013","025-BX","2017/08/31 13:08:52","新北市五股區中興路四段61號","121.437898333333","25.082975","6501500","五股區"
"248015","026-BX","2017/08/31 13:08:40","新北市五股區新五路二段258號","121.44095","25.0821833333333","6501500","五股區"
"248005","077-UY","2017/08/31 13:08:37","新北市五股區中興路二段94號","121.46044","25.0775183333333","6501500","五股區"
"248007","095-VK","2017/08/31 13:08:54","新北市蘆洲區永安南路二段298號","121.457183333333","25.0821633333333","6501500","五股區"
"248011","247-BX","2017/08/31 13:08:36","新北市五股區中興路三段190-2號","121.443343333333","25.0815483333333","6501500","五股區"
"248017","261-SL","2017/08/31 13:08:49","新北市五股區中興路三段163號","121.44821","25.0801916666667","6501500","五股區"
"248009","272-BY","2017/08/31 13:08:56","新北市五股區中興路三段198號","121.441225","25.0820516666667","6501500","五股區"
"248003","677-BX","2017/08/31 13:08:40","新北市五股區工商路55號","121.439121666667","25.083995","6501500","五股區"
"248001","678-BX","2017/08/31 13:08:54","新北市五股區新五路三段38號","121.444225","25.0878833333333","6501500","五股區"
"234022","9380-KE","2017/08/31 13:08:43","新北市永和區中興街86號","121.518496666667","25.0121516666667","6500400","永和區"
"234076","969-R7","2017/08/31 13:08:50","新北市永和區民光街12號","121.51553","24.996095","6500400","永和區"
"234072","AAC-211","2017/08/31 13:08:57","新北市永和區竹林路206號","121.520606666667","25.0085516666667","6500400","永和區"
"234066","AAC-212","2017/08/31 13:08:40","新北市永和區保平路23號","121.512663333333","25.0074116666667","6500400","永和區"
"234001","AAC-295","2017/08/31 13:08:46","新北市永和區中山路一段36號","121.513466666667","25.0105666666667","6500400","永和區"
"244003","248-BX","2017/08/31 13:08:37","新北市林口區福林路113號","121.377825","25.0891166666667","6501700","林口區"
"244025","837-TS","2017/08/31 09:57:53","新北市林口區粉寮路二段160巷28號","121.4052","25.09076","6501700","林口區"
"243005","AAD-798","2017/08/31 13:08:50","新北市泰山區黎明路47號","121.421738333333","25.0583716666667","6501600","泰山區"
"243001","297-R6","2017/08/31 12:03:56","新北市泰山區黎明路31號","121.421706666667","25.0609683333333","6501600","泰山區"
"243008","680-BX","2017/08/31 09:14:13","新北市泰山區黎明路25號","121.422228333333","25.0607366666667","6501600","泰山區"
"231028","001-UM","2017/08/31 13:08:37","新北市新店區安華路28-1號","121.519533333333","24.96067","6500600","新店區"
"231002","002-UM","2017/08/31 13:08:49","新北市新店區安華路28-1號","121.519775","24.960815","6500600","新店區"
"231030","047-UY","2017/08/31 13:08:43","新北市新店區安華路28-1號","121.519205","24.9612516666667","6500600","新店區"
"231029","106-UY","2017/08/31 13:08:51","新北市新店區安華路28-1號","121.51959","24.9607633333333","6500600","新店區"
"231018","107-UY","2017/08/31 13:08:50","新北市新店區安康路一段355-3號","121.519508333333","24.9615066666667","6500600","新店區"
"231011","108-UY","2017/08/31 13:08:39","新北市新店區安華路28-1號","121.51957","24.9611716666667","6500600","新店區"
"231021","187-VK","2017/08/31 13:08:48","新北市新店區安華路28-1號","121.519576666667","24.961115","6500600","新店區"
"231069","189-VK","2017/08/31 09:49:08","新北市新店區新潭路三段215巷25號","121.50812","24.9040766666667","6500600","新店區"
"231026","256-BX","2017/08/31 13:08:55","新北市新店區安華路28-1號","121.519511666667","24.9611433333333","6500600","新店區"
"231010","278-BY","2017/08/31 13:08:42","新北市新店區安華路28-1號","121.519515","24.9609633333333","6500600","新店區"
"231017","AAD-862","2017/08/31 13:08:43","新北市新店區安華路28-1號","121.519961666667","24.9610433333333","6500600","新店區"
"231027","3712-VJ","2017/08/31 13:08:43","新北市新店區安華路1-1號","121.519246666667","24.9604116666667","6500600","新店區"
"231024","3713-VJ","2017/08/31 13:08:50","新北市新店區安華路1-1號","121.519245","24.9604216666667","6500600","新店區"
"231025","4716-K9","2017/08/31 13:08:50","新北市新店區安華路28-1號","121.519638333333","24.9610466666667","6500600","新店區"
"231036","512-UM","2017/08/31 13:08:51","新北市新店區安華路28-1號","121.519125","24.961315","6500600","新店區"
"231023","513-UM","2017/08/31 13:08:36","新北市新店區安華路28-1號","121.519636666667","24.9611633333333","6500600","新店區"
"231035","515-UM","2017/08/31 13:08:55","新北市新店區安華路28-1號","121.519941666667","24.96142","6500600","新店區"
"231003","616-UM","2017/08/31 13:08:46","新北市新店區安華路1-1號","121.519435","24.9604166666667","6500600","新店區"
"231001","619-UM","2017/08/31 13:08:41","新北市新店區安華路28-1號","121.519596666667","24.9607433333333","6500600","新店區"
"231034","645-TV","2017/08/31 13:08:30","新北市新店區安華路1-1號","121.519351666667","24.960405","6500600","新店區"
"231013","719-UM","2017/08/31 13:08:44","新北市新店區安華路28-1號","121.519526666667","24.9611","6500600","新店區"
"231031","720-UM","2017/08/31 13:08:48","新北市新店區安華路28-1號","121.519331666667","24.9611883333333","6500600","新店區"
"231005","897-TW","2017/08/31 13:08:48","新北市新店區安華路28-1號","121.519706666667","24.9606916666667","6500600","新店區"
"231006","898-TW","2017/08/31 13:08:53","新北市新店區安華路28-1號","121.51934","24.9607783333333","6500600","新店區"
"231004","899-TW","2017/08/31 13:08:46","新北市新店區安華路28-1號","121.51892","24.9611533333333","6500600","新店區"
"231037","AKT-0513","2017/08/31 13:08:45","新北市新店區安華路1-1號","121.519461666667","24.96039","6500600","新店區"
"235027","006-UY","2017/08/31 13:08:49","新北市中和區員山路36巷16-2號","121.485215","24.9917283333333","6500300","中和區"
"235028","031-BX","2017/08/31 13:08:55","新北市中和區中正路358號","121.493591666667","24.993905","6500300","中和區"
"235003","097-UM","2017/08/31 13:08:36","新北市中和區中正路303號","121.492896666667","24.9939733333333","6500300","中和區"
"235004","150-BY","2017/08/31 13:08:51","新北市中和區和城路一段271巷1號","121.48545","24.99166","6500300","中和區"
"235022","151-BY","2017/08/31 13:08:39","新北市中和區圓通路367巷21-1號","121.49291","24.9857533333333","6500300","中和區"
"235002","185-VK","2017/08/31 13:08:40","新北市中和區自立路15巷1號","121.522461666667","24.99619","6500300","中和區"
"235031","255-BX","2017/08/31 13:08:52","新北市中和區中正路849巷1號","121.484596666667","25.00282","6500300","中和區"
"235036","301-VK","2017/08/31 13:08:44","新北市中和區員山路36巷12號","121.483963333333","24.9909883333333","6500300","中和區"
"235015","376-QA","2017/08/31 13:08:56","新北市中和區中興街118巷10號","121.499808333333","24.9932833333333","6500300","中和區"
"235025","378-QA","2017/08/31 12:30:14","新北市中和區和城路一段271巷1號","121.485435","24.99182","6500300","中和區"
"235033","4980-A6","2017/08/31 13:08:26","新北市中和區中正路637巷60弄61號","121.485471666667","24.9930033333333","6500300","中和區"
"235006","551-UM","2017/08/31 13:08:54","新北市中和區景平路321號","121.50608","24.9932866666667","6500300","中和區"
"235018","640-BX","2017/08/31 13:08:50","新北市中和區中正路637巷60弄61號","121.485398333333","24.9928066666667","6500300","中和區"
"235011","732-UM","2017/08/31 13:08:50","新北市中和區錦和路350-1號","121.490723333333","24.993665","6500300","中和區"
"235026","800-TS","2017/08/31 13:08:52","新北市中和區錦和路138號","121.489328333333","24.997865","6500300","中和區"
"235021","801-TS","2017/08/31 13:08:50","新北市中和區員山路36巷16-3號","121.484778333333","24.9916283333333","6500300","中和區"
"235005","802-TS","2017/08/31 13:08:36","新北市中和區錦和路350-1號","121.490481666667","24.99357","6500300","中和區"
"235016","805-TS","2017/08/31 13:08:49","新北市中和區中正路637巷52弄1號","121.485608333333","24.993525","6500300","中和區"
"235001","AAC-213","2017/08/31 13:08:41","新北市中和區中興街55號","121.500666666667","24.9937833333333","6500300","中和區"
"235023","AAC-215","2017/08/31 00:40:57","新北市中和區員山路36巷16-3號","121.485103333333","24.9913166666667","6500300","中和區"
"228005","097-TW","2017/08/31 13:08:42","新北市貢寮區仁理村仁和路122號","121.922981666667","25.0511483333333","6502600","貢寮區"
"228004","212-TW","2017/08/31 13:08:47","新北市貢寮區吉林里內寮街65-5號","121.891558333333","24.9784833333333","6502600","貢寮區"
"208004","AAC-292","2017/08/31 13:08:47","新北市金山區中山路192號","121.637801666667","25.2214866666667","6502700","金山區"
"207002","749-BX","2017/08/31 13:07:20","新北市萬里區溪底里香員林路7號","121.632691666667","25.1648066666667","6502800","萬里區"
"252005","249-BX","2017/08/31 13:08:52","新北市三芝區埔頭里埔頭2-3號","121.506183333333","25.2504416666667","6502100","三芝區"
"207001","662-BX","2017/08/31 13:08:42","新北市萬里區萬里里瑪鋉路143號","121.689326666667","25.1778033333333","6502800","萬里區"
"237014","756-BX","2017/08/31 13:01:08","新北市三峽區金敏41號","121.396908333333","24.886555","6500900","三峽區"
"236005","498-BY","2017/08/31 13:08:37","新北市土城區亞洲路82-2號","121.434875","24.9728316666667","6501300","土城區"
"238008","308-TH","2017/08/31 13:08:52","新北市樹林區東豐街10-2號","121.416925","24.9752966666667","6500700","樹林區"
"221012","276-VK","2017/08/31 13:08:45","新北市汐止區汐萬路一段216號","121.651883333333","25.072635","6501100","汐止區"
"221032","280-BY","2017/08/31 13:08:43","新北市汐止區龍安路44號","121.65421","25.0636233333333","6501100","汐止區"
"221002","753-BX","2017/08/31 13:08:40","新北市汐止區福德一路342巷1弄8號","121.628998333333","25.063205","6501100","汐止區"
"220010","303-R5","2017/08/31 13:08:50","新北市板橋區民生路二段15-1號","121.47272","25.0164016666667","6500100","板橋區"
