"lineid","car","time","location","longitude","latitude","cityid","cityname"
"234044","148-BY","2017/08/31 13:38:38","新北市永和區成功路二段28號","121.526503333333","25.0006266666667","6500400","永和區"
"234012","149-BY","2017/08/31 13:38:46","新北市永和區永平路226巷26號","121.509138333333","25.011355","6500400","永和區"
"234005","207-UY","2017/08/31 13:38:40","新北市永和區中山路一段6號","121.514243333333","25.010375","6500400","永和區"
"234078","298-R6","2017/08/31 13:38:44","新北市永和區林森路20巷3號","121.525903333333","25.0055066666667","6500400","永和區"
"234036","336-UY","2017/08/31 13:38:51","新北市永和區環河東路四段20號","121.528625","24.9996516666667","6500400","永和區"
"234062","337-UY","2017/08/31 13:38:35","新北市永和區秀朗路一段192巷6弄14號","121.519206666667","25.0021983333333","6500400","永和區"
"234084","338-UY","2017/08/31 13:38:49","新北市永和區林森路42號","121.5252","25.0048066666667","6500400","永和區"
"234068","552-UM","2017/08/31 13:38:47","新北市永和區竹林路53號","121.518123333333","25.0138083333333","6500400","永和區"
"234052","553-UM","2017/08/31 13:38:43","新北市永和區復興街91號","121.517756666667","25.0140833333333","6500400","永和區"
"234015","745-BX","2017/08/31 13:38:45","新北市永和區永和路二段405巷2號","121.515296666667","25.0173233333333","6500400","永和區"
"234028","746-BX","2017/08/31 13:38:41","新北市永和區四維街103巷4號","121.523818333333","24.9977733333333","6500400","永和區"
"234060","AAD-866","2017/08/31 13:38:21","新北市永和區永貞路184號","121.516195","25.0041733333333","6500400","永和區"
"234040","862-TW","2017/08/31 13:38:48","新北市永和區中和路449號","121.509835","25.0013183333333","6500400","永和區"
"234048","863-TW","2017/08/31 13:38:50","新北市永和區保安路132號","121.508926666667","25.0153516666667","6500400","永和區"
"234025","9371-KE","2017/08/31 13:38:36","新北市永和區保生路55號","121.504585","25.0108416666667","6500400","永和區"
"234010","9373-KE","2017/08/31 13:38:46","新北市永和區保福路二段9巷15弄2號","121.510178333333","25.0108883333333","6500400","永和區"
"248013","025-BX","2017/08/31 13:38:32","新北市五股區中興路四段70號","121.436958333333","25.083475","6501500","五股區"
"248015","026-BX","2017/08/31 13:38:40","新北市五股區凌雲路一段149巷5-1號","121.448963333333","25.1017716666667","6501500","五股區"
"248005","077-UY","2017/08/31 13:38:37","新北市五股區中興路一段48號","121.46815","25.0726066666667","6501500","五股區"
"248007","095-VK","2017/08/31 13:38:54","新北市五股區中興路一段150巷13-1號","121.464621666667","25.07458","6501500","五股區"
"248011","247-BX","2017/08/31 13:38:36","新北市五股區成泰路三段51-1號","121.442543333333","25.0896033333333","6501500","五股區"
"248017","261-SL","2017/08/31 13:38:49","新北市五股區民義路二段84號","121.406038333333","25.109105","6501500","五股區"
"248009","272-BY","2017/08/31 13:38:36","新北市五股區水碓一路92號","121.43182","25.07364","6501500","五股區"
"248003","677-BX","2017/08/31 13:38:53","新北市五股區民義路一段236-5號","121.427335","25.09137","6501500","五股區"
"248001","678-BX","2017/08/31 13:38:34","新北市五股區成泰路三段435巷11號","121.44933","25.0979366666667","6501500","五股區"
"234022","9380-KE","2017/08/31 13:38:43","新北市永和區豫溪街173號","121.522248333333","25.010495","6500400","永和區"
"234076","969-R7","2017/08/31 13:38:48","新北市永和區得和路168號","121.519488333333","25.0000983333333","6500400","永和區"
"234072","AAC-211","2017/08/31 13:38:37","新北市永和區竹林路213巷16號","121.521631666667","25.0089133333333","6500400","永和區"
"234066","AAC-212","2017/08/31 13:38:40","新北市永和區永平路173巷8號","121.51042","25.0089366666667","6500400","永和區"
"234001","AAC-295","2017/08/31 13:38:46","新北市永和區秀朗路一段42號","121.514661666667","25.0065283333333","6500400","永和區"
"244003","248-BX","2017/08/31 13:38:37","新北市林口區瑞樹坑59-1號","121.343238333333","25.1261966666667","6501700","林口區"
"244025","837-TS","2017/08/31 09:57:53","新北市林口區粉寮路二段160巷28號","121.4052","25.09076","6501700","林口區"
"243005","AAD-798","2017/08/31 13:38:50","新北市泰山區明志路三段206巷3號","121.423308333333","25.0379533333333","6501600","泰山區"
"243001","297-R6","2017/08/31 12:03:56","新北市泰山區黎明路31號","121.421706666667","25.0609683333333","6501600","泰山區"
"243007","380-SR","2017/08/31 03:20:18","新北市泰山區犁頭窠3-1號","121.422088333333","25.060515","6501600","泰山區"
"243002","548-UM","2017/08/31 13:38:48","新北市泰山區黎明路25號","121.42222","25.0608583333333","6501600","泰山區"
"243004","646-TV","2017/08/31 13:38:42","新北市泰山區黎明路3號","121.421083333333","25.0632366666667","6501600","泰山區"
"243008","680-BX","2017/08/31 09:14:13","新北市泰山區黎明路25號","121.422228333333","25.0607366666667","6501600","泰山區"
"231028","001-UM","2017/08/31 13:38:37","新北市新店區安和路二段138-3號","121.519443333333","24.9720466666667","6500600","新店區"
"231002","002-UM","2017/08/31 13:38:49","新北市新店區中央三街127號","121.52406","24.97687","6500600","新店區"
"231030","047-UY","2017/08/31 13:38:43","新北市新店區安康路一段96號","121.5276","24.96233","6500600","新店區"
"231029","106-UY","2017/08/31 13:38:51","新北市新店區安康路二段288號","121.508101666667","24.95859","6500600","新店區"
"231018","107-UY","2017/08/31 13:38:50","新北市新店區中正路430號","121.534338333333","24.9781816666667","6500600","新店區"
"231011","108-UY","2017/08/31 13:38:39","新北市新店區德正街27巷36號","121.545756666667","24.9714983333333","6500600","新店區"
"231021","187-VK","2017/08/31 13:38:48","新北市新店區永興路88-3號","121.544123333333","24.9329883333333","6500600","新店區"
"231069","189-VK","2017/08/31 09:49:08","新北市新店區新潭路三段215巷25號","121.50812","24.9040766666667","6500600","新店區"
"231026","256-BX","2017/08/31 13:38:55","新北市新店區光明街109號","121.538973333333","24.961425","6500600","新店區"
"231010","278-BY","2017/08/31 13:38:42","新北市新店區中正路307巷17號","121.535831666667","24.9737233333333","6500600","新店區"
"231017","AAD-862","2017/08/31 13:38:43","新北市新店區竹林路2巷31號","121.550413333333","24.9502133333333","6500600","新店區"
"231027","3712-VJ","2017/08/31 13:38:43","新北市新店區北宜路一段105巷4弄13號","121.540711666667","24.9555316666667","6500600","新店區"
"231024","3713-VJ","2017/08/31 13:38:50","新北市新店區華興街15號","121.537825","24.9695166666667","6500600","新店區"
"231025","4716-K9","2017/08/31 13:38:50","新北市新店區中央六街56號","121.527896666667","24.97576","6500600","新店區"
"231038","4715-K9","2017/08/31 13:38:44","新北市新店區安華路30巷1號","121.519593333333","24.959275","6500600","新店區"
"231036","512-UM","2017/08/31 13:38:52","新北市新店區安祥路147巷37號","121.476555","24.9565816666667","6500600","新店區"
"231023","513-UM","2017/08/31 13:38:35","新北市新店區新店路144號","121.537155","24.9553216666667","6500600","新店區"
"231035","515-UM","2017/08/31 13:38:55","新北市新店區安忠路56巷6號","121.51294","24.9594533333333","6500600","新店區"
"231003","616-UM","2017/08/31 13:38:46","新北市新店區北新路一段126巷23號","121.543045","24.9701216666667","6500600","新店區"
"231001","619-UM","2017/08/31 13:38:41","新北市新店區中正路434號","121.534161666667","24.9782066666667","6500600","新店區"
"231034","645-TV","2017/08/31 13:38:50","新北市新店區車子路109號","121.505233333333","24.9521283333333","6500600","新店區"
"231013","719-UM","2017/08/31 13:38:44","新北市新店區中正路454-5號","121.534445","24.979055","6500600","新店區"
"231031","720-UM","2017/08/31 13:38:48","新北市新店區莒光路44巷21弄11號","121.519255","24.9527116666667","6500600","新店區"
"231005","897-TW","2017/08/31 13:38:48","新北市新店區寶中路72號","121.547888333333","24.9806416666667","6500600","新店區"
"231006","898-TW","2017/08/31 13:38:53","新北市新店區光明街1-1號","121.53813","24.9590916666667","6500600","新店區"
"231004","899-TW","2017/08/31 13:38:46","新北市新店區北新路二段1號","121.542648333333","24.9712316666667","6500600","新店區"
"231037","AKT-0513","2017/08/31 13:38:45","新北市新店區安康路二段422-1號","121.496053333333","24.9556833333333","6500600","新店區"
"235030","003-UY","2017/08/31 13:38:46","新北市中和區水源路31號","121.504128333333","25.0036","6500300","中和區"
"235027","006-UY","2017/08/31 13:38:49","新北市中和區連城路347巷16弄36號","121.486908333333","24.9950983333333","6500300","中和區"
"235028","031-BX","2017/08/31 13:38:49","新北市中和區連城路97號","121.496666666667","24.9998333333333","6500300","中和區"
"235020","096-UM","2017/08/31 13:38:48","新北市中和區中山路二段439巷21號","121.48516","25.0043916666667","6500300","中和區"
"235003","097-UM","2017/08/31 13:38:36","新北市中和區大勇街25巷29弄3號","121.51515","24.99365","6500300","中和區"
"235004","150-BY","2017/08/31 13:38:51","新北市中和區安平路59號","121.509496666667","24.995245","6500300","中和區"
"235022","151-BY","2017/08/31 13:38:39","新北市中和區圓通路369巷39號","121.489726666667","24.9859616666667","6500300","中和區"
"235019","183-VK","2017/08/31 03:53:50","新北市中和區員山路36巷16-3號","121.485025","24.9913933333333","6500300","中和區"
"235002","185-VK","2017/08/31 13:38:40","新北市中和區自立路151號","121.522703333333","24.9930083333333","6500300","中和區"
"235013","186-VK","2017/08/31 13:38:35","新北市中和區景安路141號","121.505695","24.995505","6500300","中和區"
"235031","255-BX","2017/08/31 13:38:52","新北市中和區新生街220巷17號","121.482906666667","24.998485","6500300","中和區"
"235008","293-VK","2017/08/31 13:38:35","新北市中和區復興路301巷31號","121.502158333333","24.989705","6500300","中和區"
"235036","301-VK","2017/08/31 13:38:44","新北市中和區連城路169號","121.495441666667","24.9984483333333","6500300","中和區"
"235007","352-BY","2017/08/31 13:38:37","新北市中和區景平路163號","121.512371666667","24.9925433333333","6500300","中和區"
"235015","376-QA","2017/08/31 13:38:56","新北市中和區華新街232巷8號","121.50592","24.9820633333333","6500300","中和區"
"235032","377-QA","2017/08/31 13:38:37","新北市中和區中正路271-3號","121.495733333333","24.9934766666667","6500300","中和區"
"235025","378-QA","2017/08/31 13:38:46","新北市中和區民享街114巷23號","121.47363","24.9993783333333","6500300","中和區"
"235014","4979-A6","2017/08/31 13:38:33","新北市中和區景新街496巷28弄12號","121.51291","24.985935","6500300","中和區"
"235033","4980-A6","2017/08/31 13:38:46","新北市中和區連城路65巷5號","121.4978","25.00105","6500300","中和區"
"235006","551-UM","2017/08/31 13:38:37","新北市中和區成功路97巷2號","121.526663333333","24.9917533333333","6500300","中和區"
"235034","558-UM","2017/08/31 13:38:41","新北市中和區南山路127巷18弄44號","121.503456666667","24.9963233333333","6500300","中和區"
"235009","565-BX","2017/08/31 13:38:51","新北市中和區復興路49巷2號","121.50455","24.98984","6500300","中和區"
"235018","640-BX","2017/08/31 13:38:50","新北市中和區民享街86巷15號","121.473726666667","25.000685","6500300","中和區"
"235024","647-TV","2017/08/31 13:38:45","新北市中和區中山路二段561號","121.480705","25.0056","6500300","中和區"
"235011","732-UM","2017/08/31 13:38:50","新北市中和區南山路320巷10弄14號","121.506936666667","24.9867316666667","6500300","中和區"
"235010","733-UM","2017/08/31 13:38:42","新北市中和區捷運路1號","121.50974","24.98935","6500300","中和區"
"235026","800-TS","2017/08/31 13:38:52","新北市中和區景平路720號","121.49676","25.0029516666667","6500300","中和區"
"235021","801-TS","2017/08/31 13:38:50","新北市中和區民安街42巷36號","121.479005","25.0013266666667","6500300","中和區"
"235005","802-TS","2017/08/31 13:38:40","新北市永和區中和路517號","121.511041666667","25.0025833333333","6500300","中和區"
"235016","805-TS","2017/08/31 13:38:49","新北市中和區興南路三段35號","121.496918333333","24.97848","6500300","中和區"
"235012","896-TW","2017/08/31 13:38:45","新北市中和區中正路79號","121.50082","24.9935016666667","6500300","中和區"
"235017","900-TW","2017/08/31 13:38:38","新北市中和區民享街462號","121.469803333333","24.9924716666667","6500300","中和區"
"235001","AAC-213","2017/08/31 13:38:41","新北市中和區景平路111巷31弄2號","121.515831666667","24.9902583333333","6500300","中和區"
"235023","AAC-215","2017/08/31 13:38:52","新北市中和區員山路36巷16-3號","121.484846666667","24.9911683333333","6500300","中和區"
"220016","013-TV","2017/08/31 13:38:33","新北市板橋區民生路二段15-1號","121.472801666667","25.016435","6500100","板橋區"
"220034","073-UY","2017/08/31 13:38:37","新北市板橋區南雅西路二段175巷2號","121.451528333333","25.0125266666667","6500100","板橋區"
"220017","AAD-861","2017/08/31 13:38:49","新北市板橋區民生路二段17號","121.472643333333","25.016505","6500100","板橋區"
"247007","339-TH","2017/08/31 13:36:04","新北市蘆洲區中山二路309號","121.468745","25.07737","6501400","蘆洲區"
"247013","057-VK","2017/08/31 13:38:45","新北市蘆洲區中正路516巷5號","121.461121666667","25.097775","6501400","蘆洲區"
"247003","056-VK","2017/08/31 13:38:43","新北市五股區中興路二段182巷50號","121.45451","25.0812033333333","6501400","蘆洲區"
"247005","053-VK","2017/08/31 13:38:52","新北市蘆洲區中原路90號","121.457295","25.0815766666667","6501400","蘆洲區"
"247015","001-UY","2017/08/31 13:38:49","新北市五股區成洲一路23號","121.450038333333","25.0956833333333","6501400","蘆洲區"
"228005","097-TW","2017/08/31 13:38:42","新北市貢寮區美豐里文秀坑8號","121.902593333333","25.0504633333333","6502600","貢寮區"
"228004","212-TW","2017/08/31 13:38:46","新北市貢寮區龍崗里嵩陽街41號","121.905183333333","25.013015","6502600","貢寮區"
"208004","AAC-292","2017/08/31 13:38:13","新北市金山區重和里三重橋7-2號","121.593895","25.19504","6502700","金山區"
"207002","749-BX","2017/08/31 13:38:40","新北市萬里區崁腳里崁腳路166號","121.645073333333","25.1558366666667","6502800","萬里區"
"252005","249-BX","2017/08/31 13:38:52","新北市三芝區圓山里木屐寮30號","121.531875","25.22134","6502100","三芝區"
"207001","662-BX","2017/08/31 13:38:42","新北市萬里區磺潭里公館崙49號","121.628655","25.2063","6502800","萬里區"
"237014","756-BX","2017/08/31 13:38:48","新北市三峽區中山路459巷163-3號","121.348893333333","24.9330833333333","6500900","三峽區"
"236066","105-UM","2017/08/31 13:38:50","新北市土城區城林路6巷80號","121.438386666667","24.979765","6501300","土城區"
"236040","107-UM","2017/08/31 13:38:51","新北市土城區城林路6巷80號","121.438326666667","24.9798183333333","6501300","土城區"
"236012","270-VK","2017/08/31 13:38:40","新北市土城區城林路6巷80號","121.438565","24.9797416666667","6501300","土城區"
"236018","401-BY","2017/08/31 13:38:42","新北市土城區城林路6巷80號","121.438595","24.979795","6501300","土城區"
"236005","498-BY","2017/08/31 13:38:51","新北市土城區慶祥街16號","121.437758333333","24.974815","6501300","土城區"
"236056","912-UM","2017/08/31 13:38:39","新北市土城區城林路6巷80號","121.438413333333","24.9798533333333","6501300","土城區"
"236047","913-UM","2017/08/31 13:38:54","新北市土城區城林路6巷80號","121.438425","24.979755","6501300","土城區"
"236060","915-UM","2017/08/31 13:38:38","新北市土城區城林路6巷80號","121.438581666667","24.9797616666667","6501300","土城區"
"236052","AAC-216","2017/08/31 13:38:43","新北市土城區城林路6巷80號","121.438363333333","24.9798016666667","6501300","土城區"
"221012","276-VK","2017/08/31 13:24:39","新北市汐止區汐萬路一段256巷3號","121.653478333333","25.0746316666667","6501100","汐止區"
"221032","280-BY","2017/08/31 13:38:43","新北市汐止區仁愛路1-2號","121.658928333333","25.0647516666667","6501100","汐止區"
"221002","753-BX","2017/08/31 13:38:40","新北市汐止區福德二路91巷12號","121.63315","25.06586","6501100","汐止區"
"220027","145-BY","2017/08/31 13:38:53","新北市板橋區林園街42號","121.45401","25.010365","6500100","板橋區"
"220028","200-UY","2017/08/31 13:38:40","新北市板橋區華東街1-9號","121.448248333333","24.9948633333333","6500100","板橋區"
"220030","610-BX","2017/08/31 13:38:40","新北市板橋區華東街1-10號","121.448311666667","24.994935","6500100","板橋區"
"220050","245-BX","2017/08/29 21:35:19","新北市板橋區民生路二段120號","121.47041","25.0196266666667","6500100","板橋區"
"220023","256-TC","2017/08/31 13:38:46","新北市板橋區華東街1-9號","121.448145","24.9949","6500100","板橋區"
"220004","276-BY","2017/08/31 13:38:47","新北市板橋區四川路二段140巷16弄23號","121.448576666667","24.9942216666667","6500100","板橋區"
"220020","277-BY","2017/08/31 13:38:52","新北市板橋區華東街1-10號","121.448326666667","24.9951166666667","6500100","板橋區"
"220019","283-VK","2017/08/31 13:38:55","新北市板橋區中山路二段89巷5弄12號","121.47283","25.0168566666667","6500100","板橋區"
"220001","285-VK","2017/08/31 13:38:37","新北市板橋區中山路二段89巷5弄12號","121.472778333333","25.0167566666667","6500100","板橋區"
"220009","293-UM","2017/08/31 13:38:39","新北市板橋區民生路二段22號","121.472725","25.0166266666667","6500100","板橋區"
"220032","296-UM","2017/08/31 13:38:44","新北市板橋區華東街1-9號","121.44815","24.99493","6500100","板橋區"
"220010","303-R5","2017/08/31 13:38:50","新北市板橋區民生路二段16號","121.472975","25.0164733333333","6500100","板橋區"
"220104","560-BX","2017/08/31 13:38:53","新北市板橋區林園街46號","121.45395","25.0104983333333","6500100","板橋區"
"220011","609-BX","2017/08/31 13:38:30","新北市板橋區民生路二段22號","121.472728333333","25.01668","6500100","板橋區"
"220031","630-UY","2017/08/31 13:38:51","新北市板橋區華東街1-10號","121.448325","24.9951216666667","6500100","板橋區"
"220005","686-BX","2017/08/31 13:38:52","新北市板橋區民生路二段22號","121.472743333333","25.016535","6500100","板橋區"
"220025","687-BX","2017/08/31 13:38:41","新北市板橋區大觀路三段212巷72號","121.42972","24.993515","6500100","板橋區"
"220002","741-BX","2017/08/31 13:38:42","新北市板橋區民生路二段36-1號","121.47266","25.016575","6500100","板橋區"
"220014","829-TW","2017/08/31 13:38:40","新北市板橋區民生路二段15-1號","121.472983333333","25.0162966666667","6500100","板橋區"
"220022","895-R6","2017/08/31 13:38:45","新北市板橋區南雅南路一段131號","121.455091666667","25.0044583333333","6500100","板橋區"
"220021","985-R7","2017/08/31 13:38:53","新北市板橋區華東街1-10號","121.448335","24.9949816666667","6500100","板橋區"
"220018","AAC-253","2017/08/31 13:38:38","新北市板橋區民生路二段36-1號","121.472563333333","25.0167716666667","6500100","板橋區"
