"lineid","car","time","location","longitude","latitude","cityid","cityname"
"234044","148-BY","2017/08/31 13:58:38","新北市永和區永利路248號","121.524221666667","25.002895","6500400","永和區"
"234012","149-BY","2017/08/31 13:58:35","新北市永和區保生路55號","121.50472","25.0106066666667","6500400","永和區"
"234005","207-UY","2017/08/31 13:58:40","新北市永和區中和路483-3號","121.510518333333","25.00207","6500400","永和區"
"234078","298-R6","2017/08/31 13:58:44","新北市永和區國中路17號","121.524305","25.0049466666667","6500400","永和區"
"234036","336-UY","2017/08/31 13:58:51","新北市永和區成功路二段155號","121.52662","24.997485","6500400","永和區"
"234062","337-UY","2017/08/31 13:58:35","新北市永和區中正路412巷2弄11號","121.518538333333","25.0019233333333","6500400","永和區"
"234084","338-UY","2017/08/31 13:58:51","新北市永和區中正路499號","121.516991666667","25.006775","6500400","永和區"
"234068","552-UM","2017/08/31 13:58:47","新北市永和區中正路636號","121.517148333333","25.0081666666667","6500400","永和區"
"234052","553-UM","2017/08/31 13:58:42","新北市永和區竹林路54號","121.517886666667","25.0141516666667","6500400","永和區"
"234015","745-BX","2017/08/31 13:58:45","新北市永和區文化路130號","121.512761666667","25.0152933333333","6500400","永和區"
"234028","746-BX","2017/08/31 13:58:41","新北市永和區民權路47號","121.520141666667","24.9972183333333","6500400","永和區"
"234060","AAD-866","2017/08/31 13:58:49","新北市永和區中正路283巷28號","121.516936666667","25.0006816666667","6500400","永和區"
"234040","862-TW","2017/08/31 13:58:48","新北市永和區中和路335巷18弄5號","121.507611666667","25.000395","6500400","永和區"
"234048","863-TW","2017/08/31 13:58:50","新北市永和區保安路232號","121.50702","25.013255","6500400","永和區"
"234025","9371-KE","2017/08/31 13:58:36","新北市永和區安樂路304巷7號","121.514398333333","25.0050916666667","6500400","永和區"
"234010","9373-KE","2017/08/31 13:58:46","新北市永和區仁愛路352巷94號","121.501173333333","25.008025","6500400","永和區"
"248015","026-BX","2017/08/31 13:58:40","新北市五股區成泰路三段543巷18號","121.450875","25.1022066666667","6501500","五股區"
"248007","095-VK","2017/08/31 13:58:34","新北市五股區中興路一段128巷57號","121.465738333333","25.0754016666667","6501500","五股區"
"248011","247-BX","2017/08/31 13:58:36","新北市五股區成泰路二段195巷1號","121.44042","25.0873966666667","6501500","五股區"
"248017","261-SL","2017/08/31 13:58:49","新北市五股區民義路一段287巷2-2號","121.423865","25.09112","6501500","五股區"
"248009","272-BY","2017/08/31 13:58:36","新北市五股區自強路90巷72號","121.430746666667","25.0713616666667","6501500","五股區"
"248003","677-BX","2017/08/31 13:58:40","新北市五股區民義路三段1號","121.403518333333","25.1132483333333","6501500","五股區"
"248001","678-BX","2017/08/31 13:58:34","新北市五股區凌雲路一段144號","121.44936","25.1022633333333","6501500","五股區"
"234022","9380-KE","2017/08/31 13:58:43","新北市永和區復興街2巷4號","121.515711666667","25.0126116666667","6500400","永和區"
"234076","969-R7","2017/08/31 13:58:48","新北市永和區民族街61號","121.518325","24.9978383333333","6500400","永和區"
"234072","AAC-211","2017/08/31 13:58:37","新北市永和區豫溪街151號","121.521123333333","25.0103833333333","6500400","永和區"
"234066","AAC-212","2017/08/31 13:58:42","新北市永和區保平路214巷3弄1號","121.509328333333","25.0063033333333","6500400","永和區"
"234001","AAC-295","2017/08/31 13:58:50","新北市永和區福和路326號","121.515573333333","25.0072216666667","6500400","永和區"
"244025","837-TS","2017/08/31 09:57:53","新北市林口區粉寮路二段160巷28號","121.4052","25.09076","6501700","林口區"
"243005","AAD-798","2017/08/31 13:58:50","新北市泰山區明志路三段206巷3號","121.423311666667","25.0379733333333","6501600","泰山區"
"243001","297-R6","2017/08/31 13:58:40","新北市泰山區泰林路二段262號","121.431676666667","25.0623083333333","6501600","泰山區"
"243007","380-SR","2017/08/31 13:58:42","新北市泰山區泰林路二段318號","121.43037","25.0629916666667","6501600","泰山區"
"243006","421-VK","2017/08/31 13:58:49","新北市泰山區黎明路23號","121.420908333333","25.0626066666667","6501600","泰山區"
"243002","548-UM","2017/08/31 13:58:48","新北市泰山區辭修路24號","121.428998333333","25.058105","6501600","泰山區"
"243003","549-UM","2017/08/31 13:58:42","新北市泰山區明志路二段246-1號","121.427091666667","25.0481783333333","6501600","泰山區"
"243004","646-TV","2017/08/31 13:58:42","新北市泰山區全興路101號","121.43371","25.0574433333333","6501600","泰山區"
"243008","680-BX","2017/08/31 13:58:45","新北市泰山區明志路二段189號","121.42758","25.0494083333333","6501600","泰山區"
"231028","001-UM","2017/08/31 13:58:37","新北市新店區安和路三段141號","121.516953333333","24.9854416666667","6500600","新店區"
"231002","002-UM","2017/08/31 13:58:49","新北市新店區中正路676號","121.534005","24.9898616666667","6500600","新店區"
"231030","047-UY","2017/08/31 13:58:23","新北市新店區安民街65巷21-2號","121.51523","24.96745","6500600","新店區"
"231029","106-UY","2017/08/31 13:58:31","新北市新店區安康路二段68號","121.514666666667","24.9636183333333","6500600","新店區"
"231018","107-UY","2017/08/31 13:58:50","新北市新店區中央路116號","121.531116666667","24.9751183333333","6500600","新店區"
"231011","108-UY","2017/08/31 13:58:42","新北市新店區中興路二段79巷3號","121.546535","24.9710983333333","6500600","新店區"
"231021","187-VK","2017/08/31 13:58:48","新北市新店區自強路74巷8號","121.54538","24.9251466666667","6500600","新店區"
"231069","189-VK","2017/08/31 09:49:08","新北市新店區新潭路三段215巷25號","121.50812","24.9040766666667","6500600","新店區"
"231026","256-BX","2017/08/31 13:58:35","新北市新店區三民路159巷19弄1號","121.532778333333","24.9741066666667","6500600","新店區"
"231017","AAD-862","2017/08/31 13:58:43","新北市新店區竹林路82號","121.554405","24.950505","6500600","新店區"
"231027","3712-VJ","2017/08/31 13:58:43","新北市新店區北宜路一段39巷20號","121.53886","24.9583483333333","6500600","新店區"
"231024","3713-VJ","2017/08/31 13:58:50","新北市新店區新生街13巷7號","121.539678333333","24.9660133333333","6500600","新店區"
"231025","4716-K9","2017/08/31 13:58:50","新北市新店區中正路406號","121.534523333333","24.9775966666667","6500600","新店區"
"231038","4715-K9","2017/08/31 13:58:44","新北市新店區溪洲路121號","121.531355","24.9626666666667","6500600","新店區"
"231036","512-UM","2017/08/31 13:58:51","新北市新店區安祥路109巷3弄40號","121.47665","24.96052","6500600","新店區"
"231023","513-UM","2017/08/31 13:58:35","新北市新店區文中路40號","121.539801666667","24.95657","6500600","新店區"
"231035","515-UM","2017/08/31 13:58:55","新北市新店區安康路二段85巷17號","121.513981666667","24.961865","6500600","新店區"
"231003","616-UM","2017/08/31 13:58:46","新北市新店區北宜路一段3號","121.538496666667","24.9585783333333","6500600","新店區"
"231001","619-UM","2017/08/31 13:58:41","新北市新店區三民路24號","121.537136666667","24.9709633333333","6500600","新店區"
"231034","645-TV","2017/08/31 13:58:50","新北市新店區達觀路41號","121.502623333333","24.9383416666667","6500600","新店區"
"231013","719-UM","2017/08/31 13:58:44","新北市新店區明德路64號","121.541551666667","24.9794316666667","6500600","新店區"
"231031","720-UM","2017/08/31 13:58:48","新北市新店區華城路2號","121.530565","24.9605983333333","6500600","新店區"
"231005","897-TW","2017/08/31 13:58:48","新北市新店區寶中路51號","121.546726666667","24.9801383333333","6500600","新店區"
"231006","898-TW","2017/08/31 13:58:52","新北市新店區北宜路二段209號","121.553191666667","24.9533233333333","6500600","新店區"
"231004","899-TW","2017/08/31 13:58:46","新北市新店區寶橋路8號","121.543741666667","24.97368","6500600","新店區"
"231037","AKT-0513","2017/08/31 13:58:45","新北市新店區安康路三段207巷15號","121.488375","24.950765","6500600","新店區"
"235030","003-UY","2017/08/31 13:58:46","新北市中和區中山路二段131巷7號","121.502738333333","25.0026566666667","6500300","中和區"
"235027","006-UY","2017/08/31 13:58:49","新北市中和區中正路484號","121.489385","24.99429","6500300","中和區"
"235028","031-BX","2017/08/31 13:58:50","新北市中和區泰和街12號","121.499941666667","25.0010733333333","6500300","中和區"
"235020","096-UM","2017/08/31 13:58:48","新北市中和區立德街329號","121.481536666667","25.0104966666667","6500300","中和區"
"235003","097-UM","2017/08/31 13:58:36","新北市中和區景平路64巷18號","121.522406666667","24.9913066666667","6500300","中和區"
"235004","150-BY","2017/08/31 13:58:51","新北市中和區宜安路81號","121.510913333333","24.99742","6500300","中和區"
"235022","151-BY","2017/08/31 13:58:39","新北市中和區連城路591號","121.478605","24.9938666666667","6500300","中和區"
"235019","183-VK","2017/08/31 03:53:50","新北市中和區員山路36巷16-3號","121.485025","24.9913933333333","6500300","中和區"
"235002","185-VK","2017/08/31 13:58:40","新北市中和區大勇街50號","121.517706666667","24.9941","6500300","中和區"
"235013","186-VK","2017/08/31 13:58:35","新北市中和區景安路167巷30號","121.506796666667","24.9948916666667","6500300","中和區"
"235031","255-BX","2017/08/31 13:58:33","新北市中和區新生街264號","121.483571666667","24.9972616666667","6500300","中和區"
"235008","293-VK","2017/08/31 13:58:35","新北市中和區復興路348號","121.499921666667","24.9903783333333","6500300","中和區"
"235036","301-VK","2017/08/31 13:58:44","新北市中和區中山路二段131號","121.502466666667","25.0033183333333","6500300","中和區"
"235007","352-BY","2017/08/31 13:58:37","新北市永和區成功路二段213號","121.526578333333","24.99572","6500300","中和區"
"235015","376-QA","2017/08/31 13:58:35","新北市中和區忠孝街5-3號","121.509823333333","24.9829216666667","6500300","中和區"
"235032","377-QA","2017/08/31 13:58:36","新北市中和區圓通路265巷47號","121.496341666667","24.9925066666667","6500300","中和區"
"235025","378-QA","2017/08/31 13:58:46","新北市中和區民有街1號","121.47557","25.0059416666667","6500300","中和區"
"235014","4979-A6","2017/08/31 13:58:33","新北市中和區華新街50巷7號","121.507636666667","24.983845","6500300","中和區"
"235033","4980-A6","2017/08/31 13:58:46","新北市中和區南山路57號","121.502096666667","24.998385","6500300","中和區"
"235006","551-UM","2017/08/31 13:58:33","新北市中和區秀朗路三段36巷12號","121.52596","24.9959816666667","6500300","中和區"
"235034","558-UM","2017/08/31 13:58:41","新北市中和區中和路143號","121.50209","24.9998366666667","6500300","中和區"
"235009","565-BX","2017/08/31 13:58:51","新北市中和區景新街385號","121.512361666667","24.9901916666667","6500300","中和區"
"235018","640-BX","2017/08/31 13:58:50","新北市中和區民治街8巷16號","121.474151666667","25.005155","6500300","中和區"
"235024","647-TV","2017/08/31 13:58:36","新北市中和區中山路三段109號","121.47484","25.005935","6500300","中和區"
"235011","732-UM","2017/08/31 13:58:50","新北市中和區興南路二段54巷2-8號","121.505988333333","24.9855883333333","6500300","中和區"
"235010","733-UM","2017/08/31 13:58:42","新北市中和區興南路二段3巷17號","121.508528333333","24.9861933333333","6500300","中和區"
"235026","800-TS","2017/08/31 13:58:52","新北市中和區中山路二段332巷39號","121.493568333333","25.003855","6500300","中和區"
"235021","801-TS","2017/08/31 13:58:50","新北市中和區民利街12號","121.480673333333","24.999265","6500300","中和區"
"235005","802-TS","2017/08/31 13:58:52","新北市中和區永貞路264號","121.513758333333","25.0035983333333","6500300","中和區"
"235016","805-TS","2017/08/31 13:58:49","新北市中和區興南路二段399巷86號","121.500091666667","24.9784083333333","6500300","中和區"
"235012","896-TW","2017/08/31 13:58:45","新北市中和區華新街25號","121.507653333333","24.9849083333333","6500300","中和區"
"235017","900-TW","2017/08/31 13:58:38","新北市中和區壽德街3號","121.464991666667","24.9960483333333","6500300","中和區"
"235001","AAC-213","2017/08/31 13:58:41","新北市中和區自立路99巷24號","121.523346666667","24.9946583333333","6500300","中和區"
"235023","AAC-215","2017/08/31 13:58:32","新北市中和區圓通路367巷18-5號","121.491688333333","24.9884483333333","6500300","中和區"
"220016","013-TV","2017/08/31 13:58:33","新北市板橋區三民路一段31巷36弄1號","121.480878333333","25.0230216666667","6500100","板橋區"
"220013","072-UY","2017/08/31 13:58:48","新北市板橋區漢生東路328號","121.471591666667","25.0078283333333","6500100","板橋區"
"220034","073-UY","2017/08/31 13:58:45","新北市板橋區民權路258-6號","121.457938333333","25.0151716666667","6500100","板橋區"
"220105","075-UY","2017/08/31 13:58:50","新北市板橋區文化路二段124巷3號","121.470483333333","25.026005","6500100","板橋區"
"220017","AAD-861","2017/08/31 13:58:49","新北市板橋區縣民大道二段68-1號","121.463523333333","25.0131683333333","6500100","板橋區"
"220051","120-SR","2017/08/31 13:58:34","新北市板橋區莒光路140巷6號","121.47294","25.0234416666667","6500100","板橋區"
"247019","893-R6","2017/08/31 13:58:43","新北市蘆洲區民族路426巷40弄11號","121.473395","25.0930366666667","6501400","蘆洲區"
"247009","546-UM","2017/08/31 13:58:48","新北市蘆洲區集賢路396號","121.480331666667","25.0823033333333","6501400","蘆洲區"
"247017","500-BY","2017/08/31 13:58:42","新北市蘆洲區民族路255巷12號","121.47614","25.0896333333333","6501400","蘆洲區"
"247007","339-TH","2017/08/31 13:58:34","新北市三重區仁愛街749號","121.481385","25.0804866666667","6501400","蘆洲區"
"247023","337-TH","2017/08/31 13:58:50","新北市蘆洲區光榮路120巷9號","121.465196666667","25.0887783333333","6501400","蘆洲區"
"247001","336-TH","2017/08/31 13:58:36","新北市蘆洲區三民路607號","121.46054","25.0937933333333","6501400","蘆洲區"
"247013","057-VK","2017/08/31 13:58:45","新北市蘆洲區中正路187號","121.468608333333","25.0855483333333","6501400","蘆洲區"
"247003","056-VK","2017/08/31 13:58:43","新北市蘆洲區長榮路1號","121.463835","25.08204","6501400","蘆洲區"
"247005","053-VK","2017/08/31 13:58:52","新北市蘆洲區永安南路二段50號","121.465956666667","25.0776383333333","6501400","蘆洲區"
"247011","007-UY","2017/08/31 13:58:50","新北市蘆洲區民族路158號","121.479598333333","25.086225","6501400","蘆洲區"
"247015","001-UY","2017/08/31 13:58:49","新北市蘆洲區光華路42號","121.46888","25.0830683333333","6501400","蘆洲區"
"228005","097-TW","2017/08/31 13:54:42","新北市貢寮區美豐里雞母嶺街53-1號","121.888493333333","25.06874","6502600","貢寮區"
"228004","212-TW","2017/08/31 13:58:46","新北市貢寮區龍崗里嵩陽街35-1號","121.906701666667","25.017475","6502600","貢寮區"
"208004","AAC-292","2017/08/31 13:58:47","新北市金山區重和里六股林口75號","121.601258333333","25.216855","6502700","金山區"
"207002","749-BX","2017/08/31 13:58:40","新北市萬里區溪底里烏塗炭9號","121.636871666667","25.151385","6502800","萬里區"
"252005","249-BX","2017/08/31 13:58:32","新北市三芝區圓山里二坪頂67號","121.540281666667","25.232965","6502100","三芝區"
"207001","662-BX","2017/08/31 13:58:42","新北市萬里區磺潭里清水15號","121.638018333333","25.198135","6502800","萬里區"
"237014","756-BX","2017/08/31 13:39:20","新北市三峽區中山路459巷163-3號","121.348895","24.9330783333333","6500900","三峽區"
"236066","105-UM","2017/08/31 13:58:50","新北市土城區城林路6巷80號","121.438545","24.9796566666667","6501300","土城區"
"236040","107-UM","2017/08/31 13:58:31","新北市土城區裕生路61號","121.447623333333","24.9860883333333","6501300","土城區"
"236076","166-UM","2017/08/31 13:58:50","新北市土城區永寧路29號","121.43043","24.96326","6501300","土城區"
"236028","253-BX","2017/08/31 13:58:37","新北市土城區城林路6巷80號","121.438411666667","24.9798466666667","6501300","土城區"
"236024","269-VK","2017/08/31 13:58:46","新北市土城區承天路18號","121.439488333333","24.963465","6501300","土城區"
"236012","270-VK","2017/08/31 13:58:40","新北市土城區中央路二段276-1號","121.440856666667","24.9742466666667","6501300","土城區"
"236033","271-VK","2017/08/31 13:58:42","新北市土城區光明街3號","121.442013333333","24.974805","6501300","土城區"
"236018","401-BY","2017/08/31 13:58:42","新北市土城區城林路6巷80號","121.438186666667","24.9796866666667","6501300","土城區"
"236005","498-BY","2017/08/31 13:58:37","新北市土城區中央路一段170號","121.445793333333","24.98676","6501300","土城區"
"236056","912-UM","2017/08/31 13:58:39","新北市土城區永寧路1號","121.430488333333","24.9647466666667","6501300","土城區"
"236047","913-UM","2017/08/31 13:58:54","新北市土城區城林路6巷80號","121.438526666667","24.9794766666667","6501300","土城區"
"236060","915-UM","2017/08/31 13:58:38","新北市土城區中華路二段2號","121.438878333333","24.9798133333333","6501300","土城區"
"236052","AAC-216","2017/08/31 13:58:43","新北市土城區城林路6巷80號","121.438385","24.9798166666667","6501300","土城區"
"221012","276-VK","2017/08/31 13:24:39","新北市汐止區汐萬路一段256巷3號","121.653478333333","25.0746316666667","6501100","汐止區"
"221002","753-BX","2017/08/31 13:57:40","台北市南港區研究院路四段21巷4號","121.601715","25.0237133333333","6501100","汐止區"
"220027","145-BY","2017/08/31 13:58:33","新北市板橋區民權路202巷5弄2號","121.460008333333","25.0145766666667","6500100","板橋區"
"220038","146-RM","2017/08/31 13:58:45","新北市板橋區文化路二段294號","121.472045","25.02951","6500100","板橋區"
"220028","200-UY","2017/08/31 13:58:51","新北市板橋區大觀路二段265巷20弄5號","121.442616666667","24.998175","6500100","板橋區"
"220030","610-BX","2017/08/31 13:58:40","新北市板橋區篤行路三段99號","121.426063333333","24.9846466666667","6500100","板橋區"
"220050","245-BX","2017/08/31 13:58:33","新北市板橋區民生路二段234巷2弄9號","121.469483333333","25.02244","6500100","板橋區"
"220023","256-TC","2017/08/31 13:58:46","新北市板橋區南興路36號","121.454648333333","25.0075983333333","6500100","板橋區"
"220004","276-BY","2017/08/31 13:58:47","新北市板橋區信義路143號","121.458078333333","24.99298","6500100","板橋區"
"220020","277-BY","2017/08/31 13:58:31","新北市板橋區大觀路三段36巷5-3號","121.433043333333","24.9959166666667","6500100","板橋區"
"220043","283-UM","2017/08/31 13:58:42","新北市板橋區文化路二段78號","121.4695","25.0251183333333","6500100","板橋區"
"220019","283-VK","2017/08/31 13:58:35","新北市板橋區忠孝路176巷5弄2號","121.464748333333","25.0019533333333","6500100","板橋區"
"220001","285-VK","2017/08/31 13:58:36","新北市板橋區成功路10號","121.475513333333","25.01693","6500100","板橋區"
"220029","287-VK","2017/08/31 13:58:46","新北市板橋區光華街15巷21號","121.453248333333","25.011625","6500100","板橋區"
"220039","288-VK","2017/08/31 13:58:41","新北市板橋區四維路156號","121.464845","25.0259133333333","6500100","板橋區"
"220009","293-UM","2017/08/31 13:58:39","新北市板橋區太和街3巷2號","121.473821666667","25.0198466666667","6500100","板橋區"
"220032","296-UM","2017/08/31 13:58:44","新北市板橋區大觀路二段174巷102弄13號","121.441316666667","25.0012083333333","6500100","板橋區"
"220010","303-R5","2017/08/31 13:58:50","新北市板橋區民生路一段16號","121.478185","25.01131","6500100","板橋區"
"220041","307-R5","2017/08/31 13:58:41","新北市板橋區縣民大道二段190號","121.468848333333","25.0168316666667","6500100","板橋區"
"220047","317-R6","2017/08/31 13:58:49","新北市板橋區民生路二段236號","121.468076666667","25.0232516666667","6500100","板橋區"
"220012","486-VK","2017/08/31 13:58:52","新北市板橋區漢生東路133號","121.46786","25.0141833333333","6500100","板橋區"
"220037","491-VK","2017/08/31 13:58:38","新北市板橋區民生路二段120號","121.470695","25.019525","6500100","板橋區"
"220104","560-BX","2017/08/31 13:58:53","新北市板橋區中正路275巷19號","121.454076666667","25.0183616666667","6500100","板橋區"
"220052","561-BX","2017/08/31 13:58:50","新北市板橋區民生路二段123號","121.470631666667","25.018505","6500100","板橋區"
"220011","609-BX","2017/08/31 13:58:50","新北市板橋區民生路一段72號","121.473831666667","25.0153716666667","6500100","板橋區"
"220031","630-UY","2017/08/31 13:58:51","新北市板橋區大觀路一段38巷156弄127號","121.443378333333","25.008165","6500100","板橋區"
"220040","637-BX","2017/08/31 13:58:51","新北市板橋區萬板路66號","121.472501666667","25.0233716666667","6500100","板橋區"
"220005","686-BX","2017/08/31 13:58:52","新北市板橋區民權路45號","121.462036666667","25.0112833333333","6500100","板橋區"
"220025","687-BX","2017/08/31 13:58:21","新北市板橋區大觀路二段443-2號","121.441043333333","24.9955466666667","6500100","板橋區"
"220042","689-BX","2017/08/31 13:58:49","新北市板橋區民生路二段232-13號","121.468456666667","25.0224416666667","6500100","板橋區"
"220002","741-BX","2017/08/31 13:58:42","新北市板橋區後埔街21號","121.460475","25.0064766666667","6500100","板橋區"
"220003","827-TW","2017/08/31 13:58:41","新北市板橋區中山路一段160-6號","121.466413333333","25.0122183333333","6500100","板橋區"
"220014","829-TW","2017/08/31 13:58:49","新北市板橋區三民路二段正隆巷21號","121.4774","25.0131233333333","6500100","板橋區"
"220045","831-TW","2017/08/31 13:58:44","新北市板橋區莊敬路179號","121.471401666667","25.02333","6500100","板橋區"
"220022","895-R6","2017/08/31 13:50:57","新北市板橋區府中路23號","121.459101666667","25.0094233333333","6500100","板橋區"
"220021","985-R7","2017/08/31 13:58:45","新北市板橋區館前西路195號","121.455196666667","25.0083266666667","6500100","板橋區"
"220046","AAC-210","2017/08/31 13:58:47","新北市板橋區四維路137巷17號","121.464273333333","25.024855","6500100","板橋區"
"220018","AAC-253","2017/08/31 13:58:41","新北市板橋區四川路一段89號","121.459706666667","25.0056783333333","6500100","板橋區"
