"lineid","car","time","location","longitude","latitude","cityid","cityname"
"234028","746-BX","2017/08/31 15:18:31","新北市新店區薏仁坑路6號","121.500085","24.9581266666667","6500400","永和區"
"248017","261-SL","2017/08/31 15:18:29","新北市五股區登林路91-1號","121.42195","25.071535","6501500","五股區"
"244025","837-TS","2017/08/31 09:57:53","新北市林口區粉寮路二段160巷28號","121.4052","25.09076","6501700","林口區"
"243007","380-SR","2017/08/31 15:18:42","新北市泰山區泰林路三段778號","121.400681666667","25.0716583333333","6501600","泰山區"
"243003","549-UM","2017/08/31 15:18:42","新北市泰山區貴子路82號","121.427273333333","25.0411816666667","6501600","泰山區"
"231028","001-UM","2017/08/31 15:18:37","新北市新店區僑信路108巷42號","121.498983333333","24.946545","6500600","新店區"
"231002","002-UM","2017/08/31 15:18:29","新北市新店區中正路700巷1號","121.533903333333","24.9912433333333","6500600","新店區"
"231030","047-UY","2017/08/31 15:18:43","新北市新店區安民街354號","121.51678","24.975845","6500600","新店區"
"231029","106-UY","2017/08/31 15:18:31","新北市新店區安康路三段738號","121.473886666667","24.94199","6500600","新店區"
"231018","107-UY","2017/08/31 15:18:30","新北市新店區中央七街58號","121.528136666667","24.97614","6500600","新店區"
"231011","108-UY","2017/08/31 15:18:39","新北市新店區復興路1巷1號","121.54042","24.9866966666667","6500600","新店區"
"231021","187-VK","2017/08/31 15:18:28","新北市新店區湖興路131-1號","121.56315","24.937295","6500600","新店區"
"231069","189-VK","2017/08/31 09:49:08","新北市新店區新潭路三段215巷25號","121.50812","24.9040766666667","6500600","新店區"
"231026","256-BX","2017/08/31 15:18:29","新北市新店區中正路263巷8號","121.538306666667","24.9732516666667","6500600","新店區"
"231017","AAD-862","2017/08/31 15:18:43","新北市新店區明山路45號","121.563851666667","24.9558916666667","6500600","新店區"
"231024","3713-VJ","2017/08/31 15:18:30","新北市新店區新明街26巷11號","121.54101","24.96869","6500600","新店區"
"231025","4716-K9","2017/08/31 15:18:30","新北市新店區中央路97號","121.531181666667","24.9750766666667","6500600","新店區"
"231036","512-UM","2017/08/31 15:18:31","新北市新店區安祥路69巷19號","121.481893333333","24.961325","6500600","新店區"
"231023","513-UM","2017/08/31 15:18:35","新北市新店區行政街20號","121.543206666667","24.9658533333333","6500600","新店區"
"231035","515-UM","2017/08/31 15:18:35","新北市新店區永平街27號","121.5169","24.9835033333333","6500600","新店區"
"231003","616-UM","2017/08/31 15:18:46","新北市新店區寶橋路210號","121.550868333333","24.978525","6500600","新店區"
"231001","619-UM","2017/08/31 15:18:43","新北市新店區北新路一段283號","121.541201666667","24.966825","6500600","新店區"
"231034","645-TV","2017/08/31 15:18:30","新北市新店區玫瑰路28號","121.495096666667","24.9502783333333","6500600","新店區"
"231039","718-UY","2017/08/31 15:18:43","新北市新店區寶元路一段63巷50號","121.542341666667","24.9866083333333","6500600","新店區"
"231031","720-UM","2017/08/31 15:18:28","新北市新店區和成街18巷41號","121.488656666667","24.94628","6500600","新店區"
"231005","897-TW","2017/08/31 15:18:48","新北市新店區民族路1號","121.542283333333","24.9788916666667","6500600","新店區"
"231006","898-TW","2017/08/31 15:18:41","新北市新店區新坡一街101號","121.547985","24.96287","6500600","新店區"
"231004","899-TW","2017/08/31 15:18:46","新北市新店區博愛街13巷24號","121.540271666667","24.974075","6500600","新店區"
"231037","AKT-0513","2017/08/31 15:18:45","新北市新店區安興路85-58號","121.514213333333","24.9757133333333","6500600","新店區"
"241026","887-TS","2017/08/31 15:18:33","新北市三重區重新路四段121號","121.484861666667","25.0519883333333","6500200","三重區"
"235030","003-UY","2017/08/31 15:18:26","新北市中和區南工路94巷2號","121.507186666667","25.00285","6500300","中和區"
"235003","097-UM","2017/08/31 15:18:36","新北市中和區安平路128號","121.512025","24.997765","6500300","中和區"
"235004","150-BY","2017/08/31 15:18:31","新北市中和區景新街462號","121.513471666667","24.987615","6500300","中和區"
"235013","186-VK","2017/08/31 15:18:35","新北市五股區五工一路110號","121.456573333333","25.0709416666667","6500300","中和區"
"235036","301-VK","2017/08/31 15:18:44","新北市林口區汕頭32號","121.366256666667","25.134805","6500300","中和區"
"235032","377-QA","2017/08/31 15:18:36","新北市中和區福美路276號","121.497925","25.00509","6500300","中和區"
"235014","4979-A6","2017/08/31 15:18:46","新北市中和區景平路470號","121.505536666667","24.993695","6500300","中和區"
"235033","4980-A6","2017/08/31 15:18:26","新北市中和區圓通路198巷2弄2號","121.496283333333","24.9947416666667","6500300","中和區"
"235034","558-UM","2017/08/31 15:09:41","新北市中和區景平路545巷1弄17號","121.498841666667","24.9987883333333","6500300","中和區"
"235012","896-TW","2017/08/31 15:18:45","新北市中和區興南路一段20-2號","121.511378333333","24.9911366666667","6500300","中和區"
"235001","AAC-213","2017/08/31 15:18:41","新北市中和區景平路25號","121.522573333333","24.9905866666667","6500300","中和區"
"235023","AAC-215","2017/08/31 15:18:32","新北市中和區圓通路435巷3-3號","121.488113333333","24.9862433333333","6500300","中和區"
"220016","013-TV","2017/08/31 15:18:27","新北市板橋區光復街234-1號","121.484683333333","25.0214316666667","6500100","板橋區"
"220017","AAD-861","2017/08/31 15:18:45","新北市板橋區大明街25巷2弄26號","121.457351666667","25.0027083333333","6500100","板橋區"
"220051","120-SR","2017/08/31 15:18:33","新北市板橋區縣民大道三段81號","121.475425","25.021785","6500100","板橋區"
"247005","053-VK","2017/08/31 15:18:32","新北市八里區下罟子30-35號","121.36773","25.1351566666667","6501400","蘆洲區"
"208004","AAC-292","2017/08/31 15:18:26","新北市金山區六股里下六股9號","121.626185","25.22396","6502700","金山區"
"207001","662-BX","2017/08/31 15:18:42","新北市萬里區大鵬里頂社2-1號","121.661413333333","25.206505","6502800","萬里區"
"237014","756-BX","2017/08/31 13:39:20","新北市三峽區中山路459巷163-3號","121.348895","24.9330783333333","6500900","三峽區"
"236066","105-UM","2017/08/31 15:18:30","新北市土城區學成路20號","121.453001666667","24.98689","6501300","土城區"
"236040","107-UM","2017/08/31 15:18:31","新北市土城區裕民路288號","121.455683333333","24.98182","6501300","土城區"
"236076","166-UM","2017/08/31 15:18:30","新北市土城區溪頭路43號","121.412071666667","24.9550783333333","6501300","土城區"
"236028","253-BX","2017/08/31 15:18:37","新北市土城區中央路一段290號","121.443306666667","24.9824583333333","6501300","土城區"
"236024","269-VK","2017/08/31 15:18:26","新北市土城區員林街12巷12號","121.443165","24.977085","6501300","土城區"
"236012","270-VK","2017/08/31 15:18:40","新北市土城區學府路一段40號","121.457986666667","24.98856","6501300","土城區"
"236033","271-VK","2017/08/31 15:18:42","新北市土城區國際路139巷55號","121.468416666667","24.97756","6501300","土城區"
"236018","401-BY","2017/08/31 15:18:42","新北市土城區峰廷街3號","121.469145","24.987385","6501300","土城區"
"236056","912-UM","2017/08/31 15:18:39","新北市土城區金城路一段131號","121.444828333333","24.973725","6501300","土城區"
"236047","913-UM","2017/08/31 15:18:34","新北市土城區金城路二段396號","121.463945","24.9856133333333","6501300","土城區"
"236060","915-UM","2017/08/31 15:18:38","新北市土城區延平街71號","121.467703333333","24.9929866666667","6501300","土城區"
"236052","AAC-216","2017/08/31 15:18:43","新北市土城區學府路一段276號","121.44996","24.9830333333333","6501300","土城區"
"242047","751-BX","2017/08/31 14:37:59","新北市新莊區新泰路357巷3弄57號","121.441863333333","25.039065","6500500","新莊區"
"238002","755-BX","2017/08/31 15:18:46","新北市樹林區大安路531號","121.413681666667","24.985555","6500700","樹林區"
"238010","601-UM","2017/08/31 15:18:32","新北市樹林區大安路227號","121.41994","24.9949166666667","6500700","樹林區"
"238006","599-UM","2017/08/31 15:18:41","新北市樹林區八德街293號","121.422538333333","24.9788216666667","6500700","樹林區"
"238005","571-TV","2017/08/31 15:18:44","新北市板橋區大觀路三段24號","121.434281666667","24.99578","6500700","樹林區"
"238011","5061-A6","2017/08/31 15:18:40","新北市樹林區鎮前街72號","121.425545","24.9921283333333","6500700","樹林區"
"238009","312-TH","2017/08/31 15:18:40","新北市樹林區國凱街156號","121.424218333333","24.9808183333333","6500700","樹林區"
"238008","311-TH","2017/08/31 15:17:52","新北市樹林區西圳街一段165巷21號","121.395695","24.9616616666667","6500700","樹林區"
"238004","283-BY","2017/08/31 15:18:44","新北市樹林區太平路247巷30號","121.420921666667","24.9758466666667","6500700","樹林區"
"238001","282-BY","2017/08/31 15:18:42","新北市樹林區大安路301號","121.417961666667","24.9924966666667","6500700","樹林區"
"238007","268-VK","2017/08/31 02:04:22","新北市樹林區中山路三段204號","121.386883333333","24.9683183333333","6500700","樹林區"
"238013","172-UY","2017/08/31 15:18:02","新北市樹林區東順街79巷1號","121.409843333333","24.9764966666667","6500700","樹林區"
"238003","169-UY","2017/08/31 15:18:40","新北市樹林區八德街1號","121.41754","24.984985","6500700","樹林區"
"221012","276-VK","2017/08/31 13:24:39","新北市汐止區汐萬路一段256巷3號","121.653478333333","25.0746316666667","6501100","汐止區"
"220038","146-RM","2017/08/31 15:18:45","新北市板橋區互助街1巷1號","121.463308333333","25.0277416666667","6500100","板橋區"
"220050","245-BX","2017/08/31 15:18:33","新北市板橋區雙十路二段87號","121.475506666667","25.026855","6500100","板橋區"
"220029","287-VK","2017/08/31 15:18:32","新北市板橋區僑中二街108巷2號","121.445853333333","25.0073466666667","6500100","板橋區"
"220009","293-UM","2017/08/31 15:18:46","新北市板橋區四川路一段286巷7號","121.458285","25.000965","6500100","板橋區"
"220012","486-VK","2017/08/31 15:18:32","新北市板橋區民族路166號","121.464805","25.00849","6500100","板橋區"
"220011","609-BX","2017/08/31 15:18:38","新北市板橋區三民路一段89號","121.47963","25.0218","6500100","板橋區"
"220031","630-UY","2017/08/31 15:18:31","新北市板橋區僑中二街100巷22-4號","121.445133333333","25.008655","6500100","板橋區"
"220042","689-BX","2017/08/31 15:18:29","新北市板橋區長江路二段8號","121.464578333333","25.0312633333333","6500100","板橋區"
"220022","895-R6","2017/08/31 13:50:57","新北市板橋區府中路23號","121.459101666667","25.0094233333333","6500100","板橋區"
"220046","AAC-210","2017/08/31 15:18:26","新北市板橋區光正街40號","121.461855","25.01738","6500100","板橋區"
"220018","AAC-253","2017/08/31 15:18:38","新北市板橋區四川路二段245巷93號","121.452855","24.99314","6500100","板橋區"
