"lineid","car","time","location","longitude","latitude","cityid","cityname"
"234028","746-BX","2017/08/31 15:28:31","新北市新店區薏仁坑路6號","121.500093333333","24.9581216666667","6500400","永和區"
"248010","272-BY","2017/08/31 15:28:36","新北市五股區中興路二段83巷26-6號","121.46007","25.0750766666667","6501500","五股區"
"244025","837-TS","2017/08/31 09:57:53","新北市林口區粉寮路二段160巷28號","121.4052","25.09076","6501700","林口區"
"231028","001-UM","2017/08/31 15:28:37","新北市新店區僑信路52號","121.499355","24.9502683333333","6500600","新店區"
"231002","002-UM","2017/08/31 15:28:29","新北市新店區環河路114巷4-1號","121.535811666667","24.9651983333333","6500600","新店區"
"231030","047-UY","2017/08/31 15:28:43","新北市新店區新和街36號","121.519283333333","24.9848983333333","6500600","新店區"
"231029","106-UY","2017/08/31 15:28:31","新北市新店區安康路三段570號","121.481471666667","24.9487283333333","6500600","新店區"
"231018","107-UY","2017/08/31 15:28:30","新北市新店區中央八街104號","121.526255","24.9778166666667","6500600","新店區"
"231011","108-UY","2017/08/31 15:28:39","新北市新店區寶元路一段91-1號","121.543428333333","24.9850716666667","6500600","新店區"
"231021","187-VK","2017/08/31 15:28:28","新北市新店區湖興路128號","121.56335","24.9304933333333","6500600","新店區"
"231069","189-VK","2017/08/31 09:49:08","新北市新店區新潭路三段215巷25號","121.50812","24.9040766666667","6500600","新店區"
"231026","256-BX","2017/08/31 15:28:29","新北市新店區三民路42-1號","121.536023333333","24.97159","6500600","新店區"
"231025","4716-K9","2017/08/31 15:28:30","新北市新店區環河路182-3號","121.53432","24.9698433333333","6500600","新店區"
"231036","512-UM","2017/08/31 15:28:45","新北市新店區安祥路67巷50弄5號","121.484663333333","24.95899","6500600","新店區"
"231023","513-UM","2017/08/31 15:28:35","新北市新店區北新路一段96巷23號","121.5428","24.9687166666667","6500600","新店區"
"231035","515-UM","2017/08/31 15:28:35","新北市新店區安興路96-1號","121.515205","24.97651","6500600","新店區"
"231003","616-UM","2017/08/31 15:28:26","新北市新店區寶高路120巷1號","121.554578333333","24.9759883333333","6500600","新店區"
"231034","645-TV","2017/08/31 15:28:30","新北市新店區富貴街16巷2號","121.494041666667","24.9487316666667","6500600","新店區"
"231039","718-UY","2017/08/31 15:28:45","新北市新店區寶元路一段70號","121.544051666667","24.9842783333333","6500600","新店區"
"231031","720-UM","2017/08/31 15:28:28","新北市新店區雙城路41巷1號","121.492425","24.9490466666667","6500600","新店區"
"231005","897-TW","2017/08/31 15:28:48","新北市新店區民權路90巷36號","121.537055","24.984365","6500600","新店區"
"231004","899-TW","2017/08/31 15:28:46","新北市新店區民族路81號","121.538968333333","24.9779033333333","6500600","新店區"
"231037","AKT-0513","2017/08/31 15:28:45","新北市新店區安興路112號","121.514596666667","24.9776383333333","6500600","新店區"
"241011","013-R5","2017/08/31 15:28:30","新北市三重區竹圍(仔)街17-5號","121.486428333333","25.0481116666667","6500200","三重區"
"241015","062-VK","2017/08/31 15:28:30","新北市三重區重新路四段121號","121.485113333333","25.0520433333333","6500200","三重區"
"241003","091-VK","2017/08/31 15:28:39","新北市三重區重新路四段121號","121.48486","25.0518266666667","6500200","三重區"
"241013","270-UM","2017/08/31 15:28:43","新北市三重區重新路四段121號","121.484868333333","25.0525883333333","6500200","三重區"
"241026","887-TS","2017/08/31 15:28:33","新北市三重區重新路四段121號","121.484838333333","25.051965","6500200","三重區"
"241018","942-UM","2017/08/31 15:28:42","新北市三重區重新路四段121號","121.485018333333","25.0519366666667","6500200","三重區"
"241033","AAC-255","2017/08/31 03:51:04","新北市三重區重新路四段121號","121.48461","25.0520966666667","6500200","三重區"
"235030","003-UY","2017/08/31 15:28:46","新北市中和區中山路二段3巷22弄24號","121.505836666667","25.00456","6500300","中和區"
"235004","150-BY","2017/08/31 15:28:31","新北市新店區安德街60巷5-3號","121.509608333333","24.9625783333333","6500300","中和區"
"235013","186-VK","2017/08/31 15:28:35","新北市八里區商港路88-1號","121.393636666667","25.1489616666667","6500300","中和區"
"235036","301-VK","2017/08/31 15:28:44","新北市八里區中山路三段409號","121.368405","25.1350783333333","6500300","中和區"
"235014","4979-A6","2017/08/31 15:28:33","新北市中和區景平路391號","121.502498333333","24.9943283333333","6500300","中和區"
"235033","4980-A6","2017/08/31 15:28:26","新北市中和區中正路632號","121.485435","24.9960583333333","6500300","中和區"
"235012","896-TW","2017/08/31 15:28:45","新北市中和區景新街426號","121.513011666667","24.9888066666667","6500300","中和區"
"235001","AAC-213","2017/08/31 15:28:41","新北市三重區五谷王北街161-1號","121.47778","25.0543683333333","6500300","中和區"
"235023","AAC-215","2017/08/31 15:28:32","新北市中和區員山路28-7號","121.482503333333","24.98722","6500300","中和區"
"220016","013-TV","2017/08/31 15:28:46","新北市五股區中興路三段2-3號","121.452616666667","25.074975","6500100","板橋區"
"220017","AAD-861","2017/08/31 15:28:29","新北市板橋區貴興路94號","121.455806666667","25.00271","6500100","板橋區"
"220051","120-SR","2017/08/31 15:28:33","新北市板橋區文化路一段160號","121.465455","25.019245","6500100","板橋區"
"247005","053-VK","2017/08/31 15:28:32","新北市八里區荖阡坑路34-2號","121.401441666667","25.1299033333333","6501400","蘆洲區"
"208004","AAC-292","2017/08/31 15:28:46","新北市金山區南勢21-9號","121.630786666667","25.216685","6502700","金山區"
"207001","662-BX","2017/08/31 15:28:42","新北市萬里區龜吼里玉田路4-2號","121.681676666667","25.1840483333333","6502800","萬里區"
"237014","756-BX","2017/08/31 13:39:20","新北市三峽區中山路459巷163-3號","121.348895","24.9330783333333","6500900","三峽區"
"236066","105-UM","2017/08/31 15:28:30","新北市土城區學士路120號","121.448453333333","24.9782366666667","6501300","土城區"
"236040","107-UM","2017/08/31 15:28:31","新北市土城區學府路一段143巷6號","121.45385","24.985835","6501300","土城區"
"236076","166-UM","2017/08/31 15:28:30","新北市土城區中央路四段323號","121.410505","24.9511","6501300","土城區"
"236028","253-BX","2017/08/31 15:28:37","新北市土城區中央路一段250巷2-5號","121.443861666667","24.984815","6501300","土城區"
"236024","269-VK","2017/08/31 15:28:26","新北市土城區中央路二段94號","121.442331666667","24.9786516666667","6501300","土城區"
"236012","270-VK","2017/08/31 15:28:40","新北市土城區廣明街42號","121.455423333333","24.992985","6501300","土城區"
"236033","271-VK","2017/08/31 15:28:42","新北市土城區明德路一段20巷2弄1號","121.464545","24.984885","6501300","土城區"
"236018","401-BY","2017/08/31 15:28:42","新北市土城區峰廷街3號","121.469093333333","24.98744","6501300","土城區"
"236056","912-UM","2017/08/31 15:28:39","新北市土城區中央路二段223-15號","121.440455","24.9729566666667","6501300","土城區"
"236047","913-UM","2017/08/31 15:28:34","新北市土城區青雲路316號","121.458976666667","24.9781133333333","6501300","土城區"
"236060","915-UM","2017/08/31 15:28:38","新北市土城區延平街1號","121.468326666667","24.990455","6501300","土城區"
"236052","AAC-216","2017/08/31 15:28:43","新北市土城區立德路15號","121.461261666667","24.98821","6501300","土城區"
"242047","751-BX","2017/08/31 14:37:59","新北市新莊區新泰路357巷3弄57號","121.441863333333","25.039065","6500500","新莊區"
"238002","755-BX","2017/08/31 15:28:26","新北市樹林區復興路186號","121.420133333333","24.99119","6500700","樹林區"
"238010","601-UM","2017/08/31 15:28:32","新北市樹林區中正路433號","121.415068333333","25.0086733333333","6500700","樹林區"
"238006","599-UM","2017/08/31 15:28:41","新北市樹林區太平路19號","121.419118333333","24.9834666666667","6500700","樹林區"
"238005","571-TV","2017/08/31 15:28:43","新北市樹林區中正路241號","121.430181666667","24.9985833333333","6500700","樹林區"
"238011","5061-A6","2017/08/31 15:28:40","新北市樹林區太平路146號","121.418553333333","24.9782333333333","6500700","樹林區"
"238009","312-TH","2017/08/31 15:28:39","新北市樹林區忠孝街35號","121.423693333333","24.9820566666667","6500700","樹林區"
"238008","311-TH","2017/08/31 15:17:52","新北市樹林區西圳街一段165巷21號","121.395695","24.9616616666667","6500700","樹林區"
"238012","303-VK","2017/08/31 15:28:36","新北市樹林區中山路一段163號","121.421878333333","24.98865","6500700","樹林區"
"238004","283-BY","2017/08/31 15:28:44","新北市樹林區保安街二段37-1號","121.416298333333","25.000065","6500700","樹林區"
"238001","282-BY","2017/08/31 15:28:42","新北市樹林區大安路147號","121.42172","24.9971666666667","6500700","樹林區"
"238007","268-VK","2017/08/31 02:04:22","新北市樹林區中山路三段204號","121.386883333333","24.9683183333333","6500700","樹林區"
"238013","172-UY","2017/08/31 15:28:42","新北市樹林區新興街19巷26號","121.401403333333","24.9734083333333","6500700","樹林區"
"238003","169-UY","2017/08/31 15:28:40","新北市樹林區中山路一段184號","121.421715","24.9887133333333","6500700","樹林區"
"221012","276-VK","2017/08/31 13:24:39","新北市汐止區汐萬路一段256巷3號","121.653478333333","25.0746316666667","6501100","汐止區"
"220038","146-RM","2017/08/31 15:28:30","新北市板橋區四維路137巷31號","121.463723333333","25.0246","6500100","板橋區"
"220050","245-BX","2017/08/31 15:28:46","新北市板橋區縣民大道三段31號","121.473915","25.0206133333333","6500100","板橋區"
"220012","486-VK","2017/08/31 15:28:41","新北市板橋區長安街331巷90-3號","121.472091666667","25.0127633333333","6500100","板橋區"
"220052","561-BX","2017/08/31 15:28:30","新北市板橋區漢生東路23巷15號","121.465468333333","25.0175833333333","6500100","板橋區"
"220031","630-UY","2017/08/31 15:28:31","新北市板橋區僑中二街104巷6號","121.44572","25.0079633333333","6500100","板橋區"
"220022","895-R6","2017/08/31 13:50:57","新北市板橋區府中路23號","121.459101666667","25.0094233333333","6500100","板橋區"
"220018","AAC-253","2017/08/31 15:28:38","新北市板橋區南雅南路二段29號","121.451536666667","24.995005","6500100","板橋區"
