"lineid","car","time","location","longitude","latitude","cityid","cityname"
"249005","172-UM","2017/08/31 16:39:24","新北市八里區仁愛路10號","121.413335","25.16225","6502300","八里區"
"249002","305-UY","2017/08/31 16:39:36","新北市八里區大堀湖13號","121.42672","25.148715","6502300","八里區"
"249003","593-UM","2017/08/31 16:39:45","新北市八里區博物館路9號","121.41544","25.1641266666667","6502300","八里區"
"248010","272-BY","2017/08/31 15:32:07","新北市五股區中興路二段37巷28號","121.460155","25.07507","6501500","五股區"
"248010","682-TV","2017/08/31 15:57:30","新北市五股區中興路二段63巷17號","121.460178333333","25.0756133333333","6501500","五股區"
"244007","080-UY","2017/08/31 16:39:26","新北市林口區粉寮69號","121.40493","25.09092","6501700","林口區"
"244025","837-TS","2017/08/31 16:39:32","新北市林口區粉寮路二段160巷28號","121.405208333333","25.0907516666667","6501700","林口區"
"243009","297-R6","2017/08/31 16:29:57","新北市泰山區黎明路25號","121.422065","25.06086","6501600","泰山區"
"231069","189-VK","2017/08/31 09:49:08","新北市新店區新潭路三段215巷25號","121.50812","24.9040766666667","6500600","新店區"
"231046","278-BY","2017/08/31 16:39:34","新北市新店區灣潭路60-1號","121.539966666667","24.9422216666667","6500600","新店區"
"241011","013-R5","2017/08/31 16:39:30","新北市三重區秀江街231號","121.496983333333","25.071735","6500200","三重區"
"241028","022-UY","2017/08/31 16:39:32","新北市三重區重新路三段90號","121.49303","25.0608066666667","6500200","三重區"
"241008","059-VK","2017/08/31 16:39:33","新北市三重區永安北路一段27巷18號","121.477125","25.0755683333333","6500200","三重區"
"241009","060-VK","2017/08/31 16:39:24","新北市三重區三和路四段203巷57號","121.483378333333","25.0797716666667","6500200","三重區"
"241031","061-VK","2017/08/31 16:39:32","新北市三重區重新路四段43號","121.487941666667","25.0576466666667","6500200","三重區"
"241015","062-VK","2017/08/31 16:39:30","新北市三重區文化北路37號","121.498988333333","25.0650383333333","6500200","三重區"
"241017","063-VK","2017/08/31 16:39:35","新北市三重區中正北路25巷2號","121.493215","25.0626916666667","6500200","三重區"
"241024","065-VK","2017/08/31 16:39:40","新北市三重區中正北路315巷6弄80號","121.477188333333","25.0725433333333","6500200","三重區"
"241002","090-VK","2017/08/31 16:39:35","新北市三重區自強路五段87號","121.495291666667","25.082035","6500200","三重區"
"241003","091-VK","2017/08/31 16:39:33","新北市三重區五華街71巷47號","121.493488333333","25.0834116666667","6500200","三重區"
"241005","156-TC","2017/08/31 16:39:27","新北市三重區仁華街119號","121.48709","25.083045","6500200","三重區"
"241016","266-UM","2017/08/31 16:39:41","新北市三重區大智街17號","121.494465","25.0653333333333","6500200","三重區"
"241022","267-UM","2017/08/31 16:39:38","新北市三重區重陽路二段7號","121.486875","25.0618966666667","6500200","三重區"
"241018","268-UM","2017/08/31 16:39:27","新北市三重區六張街71號","121.493626666667","25.0701483333333","6500200","三重區"
"241032","269-UM","2017/08/31 16:39:41","新北市三重區新北大道一段160號","121.483843333333","25.0614483333333","6500200","三重區"
"241013","270-UM","2017/08/31 16:39:43","新北市三重區仁愛街62號","121.495623333333","25.07294","6500200","三重區"
"241025","271-UM","2017/08/31 16:39:35","新北市三重區中正北路428巷7弄28號","121.474223333333","25.0692933333333","6500200","三重區"
"241007","398-BY","2017/08/31 16:39:29","新北市三重區三和路四段167巷78號","121.484965","25.0794166666667","6500200","三重區"
"241020","413-TH","2017/08/31 16:39:31","新北市三重區後竹圍街197號","121.485066666667","25.0714816666667","6500200","三重區"
"241004","475-VK","2017/08/31 16:39:30","新北市三重區五福街16號","121.492855","25.0814366666667","6500200","三重區"
"241019","478-VK","2017/08/31 16:39:35","新北市三重區力行路一段2號","121.488435","25.06661","6500200","三重區"
"241030","480-VK","2017/08/31 16:39:33","新北市三重區環河南路286號","121.489041666667","25.0488933333333","6500200","三重區"
"241014","543-UM","2017/08/31 16:39:27","新北市三重區長安街120號","121.502916666667","25.0679883333333","6500200","三重區"
"241023","545-UM","2017/08/31 16:39:24","新北市三重區忠孝路三段50巷47號","121.48299","25.0643633333333","6500200","三重區"
"241001","547-UM","2017/08/31 16:39:26","新北市三重區仁愛街266號","121.493116666667","25.0783433333333","6500200","三重區"
"241006","AAD-863","2017/08/31 16:39:34","新北市三重區力行路二段162巷3號","121.482746666667","25.0765816666667","6500200","三重區"
"241026","887-TS","2017/08/31 16:39:33","新北市三重區福德南路56號","121.503208333333","25.0617766666667","6500200","三重區"
"241012","941-UM","2017/08/31 16:39:28","新北市三重區仁興街3巷12號","121.5002","25.07391","6500200","三重區"
"241029","942-UM","2017/08/31 16:39:42","新北市三重區集美街142-1號","121.489506666667","25.0531166666667","6500200","三重區"
"241033","AAC-255","2017/08/31 16:39:30","新北市三重區光復路二段131號","121.472225","25.0589316666667","6500200","三重區"
"235067","255-BX","2017/08/31 16:33:06","新北市中和區員山路36巷16號","121.484446666667","24.991495","6500300","中和區"
"235026","800-TS","2017/08/31 16:39:32","新北市中和區連城路220號","121.491268333333","24.996655","6500300","中和區"
"247014","057-VK","2017/08/31 16:39:39","新北市蘆洲區三民路378號","121.46402","25.091765","6501400","蘆洲區"
"247004","056-VK","2017/08/31 16:39:26","新北市蘆洲區長安街172巷10號","121.459495","25.0834916666667","6501400","蘆洲區"
"224006","676-BX","2017/08/31 16:39:26","新北市瑞芳區大寮路356-1號","121.784945","25.1033033333333","6501200","瑞芳區"
"224008","275-VK","2017/08/31 16:39:42","新北市瑞芳區民權街3-1號","121.809311666667","25.1083783333333","6501200","瑞芳區"
"224007","273-VK","2017/08/31 16:39:39","新北市瑞芳區月眉路7號","121.760326666667","25.1060666666667","6501200","瑞芳區"
"224005","271-BY","2017/08/31 16:39:35","新北市瑞芳區明里路122號","121.863288333333","25.1227016666667","6501200","瑞芳區"
"227004","642-TC","2017/08/31 16:39:45","新北市雙溪區外柑里外柑腳51號","121.808488333333","25.0179916666667","6502500","雙溪區"
"227010","400-TW","2017/08/31 16:39:30","新北市雙溪區牡丹里中正路97號","121.861976666667","25.0471483333333","6502500","雙溪區"
"251008","181-VK","2017/08/31 16:39:38","新北市淡水區樹梅坑9號","121.472815","25.142625","6501000","淡水區"
"251014","182-VK","2017/08/31 16:39:45","新北市淡水區淡金路三段344號","121.449151666667","25.2087783333333","6501000","淡水區"
"251016","442-VK","2017/08/31 16:39:43","新北市淡水區北新路137號","121.449408333333","25.1788316666667","6501000","淡水區"
"252002","178-VK","2017/08/31 16:39:39","新北市三芝區迎旭街71號","121.510205","25.2581633333333","6502100","三芝區"
"237014","756-BX","2017/08/31 15:38:10","新北市三峽區中山路459巷163-3號","121.348888333333","24.9331033333333","6500900","三峽區"
"242047","751-BX","2017/08/31 14:37:59","新北市新莊區新泰路357巷3弄57號","121.441863333333","25.039065","6500500","新莊區"
"242011","346-TH","2017/08/31 16:39:33","新北市新莊區三和路12-16號","121.442005","25.0373766666667","6500500","新莊區"
"238010","601-UM","2017/08/31 16:39:31","新北市樹林區中山路二段219號","121.403101666667","24.9765633333333","6500700","樹林區"
"238012","303-VK","2017/08/31 16:39:36","新北市樹林區中正路22-1號","121.427823333333","24.9993583333333","6500700","樹林區"
"238004","283-BY","2017/08/31 16:39:44","新北市樹林區三多路123號","121.41481","25.0065783333333","6500700","樹林區"
"238001","282-BY","2017/08/31 16:39:42","新北市樹林區中正路25號","121.427425","24.9993966666667","6500700","樹林區"
"238007","268-VK","2017/08/31 02:04:22","新北市樹林區中山路三段204號","121.386883333333","24.9683183333333","6500700","樹林區"
"221012","276-VK","2017/08/31 13:24:39","新北市汐止區汐萬路一段256巷3號","121.653478333333","25.0746316666667","6501100","汐止區"
"220022","895-R6","2017/08/31 13:50:57","新北市板橋區府中路23號","121.459101666667","25.0094233333333","6500100","板橋區"
"220018","AAC-253","2017/08/31 16:39:38","新北市八里區商港路48號","121.393753333333","25.1440583333333","6500100","板橋區"
