"lineid","car","time","location","longitude","latitude","cityid","cityname"
"249005","172-UM","2017/08/31 17:19:24","新北市五股區民義路二段129號","121.414911666667","25.1230416666667","6502300","八里區"
"249001","173-UM","2017/08/31 17:19:34","新北市八里區中華路二段165巷3號","121.407656666667","25.150875","6502300","八里區"
"249004","303-UY","2017/08/31 17:19:31","新北市八里區中山路一段43號","121.419385","25.1597416666667","6502300","八里區"
"249002","305-UY","2017/08/31 17:19:36","新北市八里區龍米路二段117巷31號","121.445833333333","25.1430133333333","6502300","八里區"
"249003","593-UM","2017/08/31 17:19:25","新北市八里區商港路80號","121.395495","25.1463566666667","6502300","八里區"
"248010","272-BY","2017/08/31 15:32:07","新北市五股區中興路二段37巷28號","121.460155","25.07507","6501500","五股區"
"248010","682-TV","2017/08/31 15:57:30","新北市五股區中興路二段63巷17號","121.460178333333","25.0756133333333","6501500","五股區"
"244007","080-UY","2017/08/31 17:19:26","新北市林口區中湖40-9號","121.383206666667","25.09121","6501700","林口區"
"244019","403-UM","2017/08/31 17:19:27","新北市林口區公園路233-4號","121.37599","25.075445","6501700","林口區"
"244009","410-SL","2017/08/31 17:19:25","新北市林口區文化北路二段550巷20弄37號","121.377913333333","25.09131","6501700","林口區"
"244017","656-BX","2017/08/31 17:19:25","新北市林口區粉寮69號","121.404938333333","25.0908783333333","6501700","林口區"
"244023","657-BX","2017/08/31 17:19:20","新北市林口區仁愛路一段669號","121.387768333333","25.0766533333333","6501700","林口區"
"244013","658-BX","2017/08/31 17:19:19","新北市林口區粉寮69號","121.405071666667","25.0908266666667","6501700","林口區"
"244011","701-TV","2017/08/31 17:19:30","新北市林口區仁愛路一段246號","121.395851666667","25.0758016666667","6501700","林口區"
"244025","837-TS","2017/08/31 17:19:32","新北市林口區中山路577號","121.38052","25.0821333333333","6501700","林口區"
"244021","838-TS","2017/08/31 17:19:29","新北市林口區粉寮路二段160巷28號","121.405445","25.0907666666667","6501700","林口區"
"243009","297-R6","2017/08/31 16:29:57","新北市泰山區黎明路25號","121.422065","25.06086","6501600","泰山區"
"231069","189-VK","2017/08/31 09:49:08","新北市新店區新潭路三段215巷25號","121.50812","24.9040766666667","6500600","新店區"
"231046","278-BY","2017/08/31 17:19:34","新北市新店區直潭路92號","121.53093","24.9375883333333","6500600","新店區"
"241011","013-R5","2017/08/31 17:19:30","新北市三重區河邊北街100巷4號","121.503683333333","25.0703733333333","6500200","三重區"
"241028","022-UY","2017/08/31 17:19:32","新北市三重區中正南路41巷16號","121.49354","25.0595733333333","6500200","三重區"
"241008","059-VK","2017/08/31 17:19:33","新北市三重區下竹圍街6號","121.480931666667","25.0760083333333","6500200","三重區"
"241009","060-VK","2017/08/31 17:19:24","新北市三重區仁愛街604號","121.483878333333","25.0806666666667","6500200","三重區"
"241015","062-VK","2017/08/31 17:19:10","新北市三重區福德北路89號","121.501881666667","25.06626","6500200","三重區"
"241017","063-VK","2017/08/31 17:19:35","新北市三重區大同北路55號","121.495148333333","25.0632333333333","6500200","三重區"
"241024","065-VK","2017/08/31 17:19:40","新北市三重區中正北路193巷21弄22號","121.477658333333","25.070735","6500200","三重區"
"241002","090-VK","2017/08/31 17:19:35","新北市三重區仁愛街357巷53號","121.493285","25.0807833333333","6500200","三重區"
"241003","091-VK","2017/08/31 17:19:33","新北市三重區富福街47號","121.491608333333","25.084245","6500200","三重區"
"241005","156-TC","2017/08/31 17:19:43","新北市三重區永安北路二段13號","121.482073333333","25.081575","6500200","三重區"
"241016","266-UM","2017/08/31 17:19:41","新北市三重區重新路三段80號","121.493131666667","25.06107","6500200","三重區"
"241022","267-UM","2017/08/31 17:19:38","新北市三重區中正北路111-1號","121.485755","25.0653133333333","6500200","三重區"
"241018","268-UM","2017/08/31 17:19:27","新北市三重區安慶街132號","121.494791666667","25.0688766666667","6500200","三重區"
"241032","269-UM","2017/08/31 17:19:22","新北市三重區興華街145號","121.482851666667","25.0598983333333","6500200","三重區"
"241013","270-UM","2017/08/31 17:19:23","新北市三重區仁愛街104號","121.495348333333","25.0741483333333","6500200","三重區"
"241025","271-UM","2017/08/31 17:19:42","新北市三重區中正北路255號","121.475306666667","25.0707283333333","6500200","三重區"
"241007","398-BY","2017/08/31 17:19:29","新北市三重區慈愛街7號","121.485008333333","25.0786283333333","6500200","三重區"
"241020","413-TH","2017/08/31 17:19:38","新北市三重區自強路三段7巷3號","121.488668333333","25.072375","6500200","三重區"
"241004","475-VK","2017/08/31 17:19:30","新北市三重區仁愛街425巷68號","121.491745","25.082535","6500200","三重區"
"241019","478-VK","2017/08/31 17:19:31","新北市三重區自強路二段100號","121.487366666667","25.0712883333333","6500200","三重區"
"241030","480-VK","2017/08/31 17:19:33","新北市三重區集成路36號","121.48881","25.052515","6500200","三重區"
"241014","543-UM","2017/08/31 17:19:27","新北市三重區龍濱路190號","121.501135","25.0732766666667","6500200","三重區"
"241023","545-UM","2017/08/31 17:19:24","新北市三重區三民街172號","121.482068333333","25.06557","6500200","三重區"
"241001","547-UM","2017/08/31 17:19:26","新北市三重區仁愛街269巷35號","121.494016666667","25.0791966666667","6500200","三重區"
"241006","AAD-863","2017/08/31 17:19:34","新北市三重區三和路四段264巷2弄13號","121.485136666667","25.07682","6500200","三重區"
"241024","743-BX","2017/08/31 17:19:38","新北市三重區新北大道一段250號","121.479883333333","25.0612616666667","6500200","三重區"
"241026","887-TS","2017/08/31 17:19:33","新北市三重區重新路一段52-1號","121.502836666667","25.0634183333333","6500200","三重區"
"241012","941-UM","2017/08/31 17:19:28","新北市三重區河邊北街256巷18號","121.501286666667","25.076065","6500200","三重區"
"241029","942-UM","2017/08/31 17:19:22","新北市三重區重新路四段120號","121.486948333333","25.0567466666667","6500200","三重區"
"241033","AAC-255","2017/08/31 17:19:30","新北市三重區中興北街191號","121.469028333333","25.0565266666667","6500200","三重區"
"235067","255-BX","2017/08/31 16:33:06","新北市中和區員山路36巷16號","121.484446666667","24.991495","6500300","中和區"
"235062","800-TS","2017/08/31 17:02:36","新北市中和區員山路36巷16-3號","121.485146666667","24.9913716666667","6500300","中和區"
"247020","893-R6","2017/08/31 17:19:32","新北市蘆洲區仁愛街35巷15弄3號","121.471701666667","25.0925383333333","6501400","蘆洲區"
"247010","546-UM","2017/08/31 17:19:25","新北市蘆洲區中山一路120巷7弄32號","121.477148333333","25.0823","6501400","蘆洲區"
"247018","500-BY","2017/08/31 17:19:37","新北市蘆洲區民權路70號","121.475036666667","25.0873783333333","6501400","蘆洲區"
"247008","339-TH","2017/08/31 17:19:22","新北市蘆洲區信義路30巷135號","121.475356666667","25.0766516666667","6501400","蘆洲區"
"247024","337-TH","2017/08/31 17:19:29","新北市蘆洲區長榮路66號","121.462535","25.0834316666667","6501400","蘆洲區"
"247002","336-TH","2017/08/31 17:19:36","新北市蘆洲區永樂街38巷43號","121.45833","25.0898416666667","6501400","蘆洲區"
"247014","057-VK","2017/08/31 17:19:39","新北市蘆洲區中正路85號","121.470041666667","25.0837116666667","6501400","蘆洲區"
"247004","056-VK","2017/08/31 17:19:26","新北市蘆洲區永安南路二段286號","121.457603333333","25.0813033333333","6501400","蘆洲區"
"247006","053-VK","2017/08/31 17:19:22","新北市蘆洲區長安街73巷25號","121.46197","25.0792933333333","6501400","蘆洲區"
"247012","007-UY","2017/08/31 17:19:21","新北市蘆洲區信義路319巷5號","121.478063333333","25.08625","6501400","蘆洲區"
"247022","002-UY","2017/08/31 17:19:25","新北市蘆洲區三民路128巷92號","121.469708333333","25.0901083333333","6501400","蘆洲區"
"247016","001-UY","2017/08/31 17:19:31","新北市蘆洲區正和街96巷39號","121.467376666667","25.0816483333333","6501400","蘆洲區"
"228003","097-TW","2017/08/31 17:19:37","新北市貢寮區福隆里裕隆街16-1號","121.945665","25.0168883333333","6502600","貢寮區"
"228001","212-TW","2017/08/31 17:19:31","新北市貢寮區仁理村尖山腳街18-3號","121.925528333333","25.048315","6502600","貢寮區"
"228002","585-TW","2017/08/31 17:19:37","新北市貢寮區雙玉里下雙溪街26號","121.923083333333","25.0099733333333","6502600","貢寮區"
"224010","AGQ-8101","2017/08/31 09:12:57","新北市瑞芳區民族街75號","121.80626","25.1063983333333","6501200","瑞芳區"
"224006","676-BX","2017/08/31 17:19:26","新北市瑞芳區大寮路58-2號","121.781691666667","25.09807","6501200","瑞芳區"
"224009","285-BY","2017/08/31 17:19:38","新北市瑞芳區石崁巷49號","121.837723333333","25.1096683333333","6501200","瑞芳區"
"224008","275-VK","2017/08/31 17:19:22","新北市瑞芳區侯硐路288號","121.831166666667","25.08951","6501200","瑞芳區"
"224005","271-BY","2017/08/31 17:19:35","新北市瑞芳區鼻頭路247號","121.912088333333","25.1233","6501200","瑞芳區"
"227004","642-TC","2017/08/31 17:19:25","新北市雙溪區上林里內平林90號","121.827565","25.0275133333333","6502500","雙溪區"
"227010","400-TW","2017/08/31 17:19:30","新北市雙溪區三貂里定福路1號","121.849291666667","25.064285","6502500","雙溪區"
"251009","008-UM","2017/08/31 17:19:29","新北市淡水區三民街20號","121.439013333333","25.1717083333333","6501000","淡水區"
"251004","009-UM","2017/08/31 17:19:40","新北市淡水區中正東路二段88巷15號","121.459026666667","25.1504883333333","6501000","淡水區"
"251007","179-VK","2017/08/31 17:19:21","新北市淡水區民生路60號","121.462138333333","25.1378883333333","6501000","淡水區"
"251008","181-VK","2017/08/31 17:19:38","新北市淡水區大同路269號","121.46702","25.14222","6501000","淡水區"
"251014","182-VK","2017/08/31 17:19:25","新北市淡水區公埔子43號","121.463745","25.2299883333333","6501000","淡水區"
"251010","413-VK","2017/08/31 17:19:39","新北市淡水區中正路二段211號","121.426178333333","25.1891716666667","6501000","淡水區"
"251012","441-VK","2017/08/31 17:19:34","新北市淡水區北新路2號","121.44425","25.1777933333333","6501000","淡水區"
"251016","442-VK","2017/08/31 17:19:23","新北市淡水區鄒厝崙13-1號","121.462393333333","25.190615","6501000","淡水區"
"251005","443-VK","2017/08/31 17:19:38","新北市淡水區鄧公路23巷1-5號","121.450236666667","25.169935","6501000","淡水區"
"251006","561-UM","2017/08/31 17:19:29","新北市淡水區新生街122-2號","121.44083","25.1746266666667","6501000","淡水區"
"251011","650-BX","2017/08/31 17:19:20","新北市淡水區坪頂路128號","121.465061666667","25.1611383333333","6501000","淡水區"
"251002","672-BX","2017/08/31 17:19:31","新北市淡水區中正路二段31號","121.419391666667","25.1816266666667","6501000","淡水區"
"251003","766-UM","2017/08/31 17:19:24","新北市淡水區中正路二段18號","121.42002","25.181245","6501000","淡水區"
"207003","550-UM","2017/08/31 17:19:40","新北市萬里區萬里里瑪鋉路340號","121.687663333333","25.1832933333333","6502800","萬里區"
"252002","178-VK","2017/08/31 17:19:39","新北市三芝區忠孝街1-14號","121.50549","25.2539066666667","6502100","三芝區"
"252001","292-VK","2017/08/31 17:19:40","新北市三芝區長安街119號","121.49804","25.2596983333333","6502100","三芝區"
"237014","756-BX","2017/08/31 15:38:10","新北市三峽區中山路459巷163-3號","121.348888333333","24.9331033333333","6500900","三峽區"
"242021","AAC-296","2017/08/31 17:19:39","新北市新莊區中港一街142號","121.446591666667","25.0449316666667","6500500","新莊區"
"242029","986-R7","2017/08/31 17:19:23","新北市新莊區新泰路488號","121.442615","25.0458533333333","6500500","新莊區"
"242048","751-BX","2017/08/31 17:19:33","新北市新莊區龍安路249巷1號","121.419025","25.0206866666667","6500500","新莊區"
"242025","615-BX","2017/08/31 17:19:32","新北市新莊區中平路82巷18號","121.445543333333","25.0448866666667","6500500","新莊區"
"242023","613-BX","2017/08/31 17:19:40","新北市新莊區新泰路502巷2號","121.442681666667","25.0462983333333","6500500","新莊區"
"242027","612-BX","2017/08/31 17:19:29","新北市新莊區中平路82巷29號","121.446118333333","25.0449616666667","6500500","新莊區"
"242036","566-BX","2017/08/31 17:19:32","新北市新莊區新樹路66號","121.436981666667","25.026025","6500500","新莊區"
"242042","497-BY","2017/08/31 17:19:30","新北市新莊區新樹路52-3號","121.43753","25.0269966666667","6500500","新莊區"
"242046","441-UM","2017/08/31 17:19:35","新北市新莊區中環路一段287號","121.441976666667","25.0319783333333","6500500","新莊區"
"242051","440-UM","2017/08/31 17:19:24","新北市新莊區瓊林南路12-3號","121.436248333333","25.01883","6500500","新莊區"
"242031","415-TV","2017/08/31 17:19:35","新北市新莊區新泰路462號","121.443193333333","25.0447883333333","6500500","新莊區"
"242002","413-TV","2017/08/31 16:12:54","新北市新莊區新泰路357巷3弄57號","121.442225","25.0396066666667","6500500","新莊區"
"242039","400-BY","2017/08/31 17:19:26","新北市新莊區新樹路52-26號","121.437438333333","25.0268616666667","6500500","新莊區"
"242061","362-BY","2017/08/31 17:19:32","新北市新莊區三和路12-13號","121.441698333333","25.037145","6500500","新莊區"
"242058","353-BY","2017/08/31 17:19:31","新北市新莊區新泰路357巷1弄51號","121.44283","25.039775","6500500","新莊區"
"242004","132-UY","2017/08/31 17:19:27","新北市新莊區三和路12-19號","121.442333333333","25.0377433333333","6500500","新莊區"
"242034","133-UY","2017/08/31 17:19:24","新北市新莊區瓊林路50-12號","121.446088333333","25.0287766666667","6500500","新莊區"
"242019","135-UY","2017/08/31 17:19:24","新北市新莊區中港路303號","121.452823333333","25.0444983333333","6500500","新莊區"
"242044","172-VK","2017/08/31 17:19:37","新北市新莊區富國路101-1號","121.421388333333","25.02551","6500500","新莊區"
"242007","173-VK","2017/08/31 10:57:17","新北市新莊區三和路12-21號","121.441926666667","25.0386516666667","6500500","新莊區"
"242013","175-VK","2017/08/31 17:19:23","新北市新莊區新泰路357巷3弄1號","121.442563333333","25.0411483333333","6500500","新莊區"
"242056","176-VK","2017/08/31 17:19:38","新北市新莊區三和路12-11號","121.441868333333","25.0369016666667","6500500","新莊區"
"242011","346-TH","2017/08/31 17:19:33","新北市新莊區中平路107號","121.444618333333","25.0462966666667","6500500","新莊區"
"242017","348-TH","2017/08/31 17:19:34","新北市新莊區中港路303號","121.452883333333","25.0445283333333","6500500","新莊區"
"242053","349-TH","2017/08/31 17:19:35","新北市新莊區瓊林路59-70號","121.442193333333","25.0239716666667","6500500","新莊區"
"242015","350-TH","2017/08/31 17:19:32","新北市新莊區新泰路361巷23號","121.442383333333","25.0427983333333","6500500","新莊區"
"242009","351-TH","2017/08/31 17:19:24","新北市新莊區立信三街35巷7號","121.442635","25.0507233333333","6500500","新莊區"
"238015","755-BX","2017/08/31 17:19:38","新北市樹林區中山路三段125-1號","121.397378333333","24.9730783333333","6500700","樹林區"
"238023","601-UM","2017/08/31 17:19:31","新北市樹林區保安街一段296號","121.419048333333","24.997315","6500700","樹林區"
"238019","599-UM","2017/08/31 17:19:21","新北市樹林區八德街257號","121.421765","24.9782066666667","6500700","樹林區"
"238018","571-TV","2017/08/31 17:19:43","新北市樹林區中華路1-6號","121.425698333333","24.9844916666667","6500700","樹林區"
"238024","5061-A6","2017/08/31 17:19:36","新北市樹林區鎮前街6號","121.426378333333","24.99359","6500700","樹林區"
"238022","312-TH","2017/08/31 17:19:39","新北市樹林區和平街53號","121.424035","24.98231","6500700","樹林區"
"238021","311-TH","2017/08/31 16:09:11","新北市樹林區西圳街二段97巷21號","121.386438333333","24.9575133333333","6500700","樹林區"
"238025","303-VK","2017/08/31 17:19:36","新北市樹林區保安二街67號","121.42469","24.9948466666667","6500700","樹林區"
"238017","283-BY","2017/08/31 17:19:23","新北市樹林區光武街28號","121.415801666667","25.0055383333333","6500700","樹林區"
"238001","282-BY","2017/08/31 17:19:21","新北市樹林區中正路21號","121.42759","24.9993966666667","6500700","樹林區"
"238020","268-VK","2017/08/31 02:04:22","新北市樹林區中山路三段204號","121.386883333333","24.9683183333333","6500700","樹林區"
"238026","172-UY","2017/08/31 17:19:32","新北市樹林區東大街166號","121.409383333333","24.97571","6500700","樹林區"
"238016","169-UY","2017/08/31 17:19:40","新北市樹林區中山路二段10號","121.417568333333","24.985025","6500700","樹林區"
"239007","AAC-297","2017/08/31 17:19:20","新北市鶯歌區行政路3-1號","121.350885","24.9553566666667","6500800","鶯歌區"
"239006","891-R6","2017/08/31 17:19:28","新北市鶯歌區福昌街12號","121.33319","24.9608566666667","6500800","鶯歌區"
"239008","527-UM","2017/08/31 17:19:33","新北市鶯歌區西湖街289巷5-1號","121.340468333333","24.9691083333333","6500800","鶯歌區"
"239005","526-UM","2017/08/31 17:19:20","新北市鶯歌區福德三街12號","121.329713333333","24.9676033333333","6500800","鶯歌區"
"239001","417-VK","2017/08/31 17:19:21","新北市鶯歌區尖山路228號","121.343185","24.9468266666667","6500800","鶯歌區"
"239003","360-BY","2017/08/31 17:19:37","新北市鶯歌區德昌街98號","121.33236","24.9602383333333","6500800","鶯歌區"
"239002","359-BY","2017/08/31 17:19:23","新北市鶯歌區南雅路16號","121.349418333333","24.9541116666667","6500800","鶯歌區"
"239004","193-VK","2017/08/31 17:19:36","新北市鶯歌區文化路479號","121.35347","24.9488633333333","6500800","鶯歌區"
"221012","276-VK","2017/08/31 13:24:39","新北市汐止區汐萬路一段256巷3號","121.653478333333","25.0746316666667","6501100","汐止區"
"220022","895-R6","2017/08/31 13:50:57","新北市板橋區府中路23號","121.459101666667","25.0094233333333","6500100","板橋區"
