"lineid","car","time","location","longitude","latitude","cityid","cityname"
"249005","172-UM","2017/08/31 17:29:04","新北市八里區荖阡坑路69號","121.40629","25.1271716666667","6502300","八里區"
"249001","173-UM","2017/08/31 17:29:34","新北市八里區龍米路三段49-1號","121.424121666667","25.15888","6502300","八里區"
"249004","303-UY","2017/08/31 17:29:22","新北市八里區賢一街217號","121.415768333333","25.1559533333333","6502300","八里區"
"249002","305-UY","2017/08/31 17:29:37","新北市八里區石壁腳10號","121.442588333333","25.1352416666667","6502300","八里區"
"249003","593-UM","2017/08/31 17:29:38","新北市八里區中山路二段422號","121.400008333333","25.1475316666667","6502300","八里區"
"248010","272-BY","2017/08/31 15:32:07","新北市五股區中興路二段37巷28號","121.460155","25.07507","6501500","五股區"
"248010","682-TV","2017/08/31 15:57:30","新北市五股區中興路二段63巷17號","121.460178333333","25.0756133333333","6501500","五股區"
"244007","080-UY","2017/08/31 17:29:26","新北市林口區湖子19-9號","121.38702","25.0929916666667","6501700","林口區"
"244019","403-UM","2017/08/31 17:29:26","新北市林口區公園路122號","121.370938333333","25.0713466666667","6501700","林口區"
"244009","410-SL","2017/08/31 17:29:25","新北市林口區中華路265號","121.384473333333","25.0904233333333","6501700","林口區"
"244017","656-BX","2017/08/31 17:29:25","新北市林口區粉寮路一段183號","121.399923333333","25.082195","6501700","林口區"
"244023","657-BX","2017/08/31 17:29:20","新北市林口區興林一街96巷23號","121.391006666667","25.0718083333333","6501700","林口區"
"244013","658-BX","2017/08/31 17:29:39","新北市林口區粉寮路17巷1號","121.398395","25.0806333333333","6501700","林口區"
"244011","701-TV","2017/08/31 17:29:30","新北市林口區仁愛路一段643號","121.388735","25.0766933333333","6501700","林口區"
"244025","837-TS","2017/08/31 17:29:32","新北市林口區民族路157號","121.367046666667","25.07645","6501700","林口區"
"244021","838-TS","2017/08/31 17:29:29","新北市林口區粉寮路二段227-1號","121.403633333333","25.09105","6501700","林口區"
"243009","297-R6","2017/08/31 16:29:57","新北市泰山區黎明路25號","121.422065","25.06086","6501600","泰山區"
"243016","680-BX","2017/08/31 17:29:33","新北市泰山區黎明路25號","121.421731666667","25.0611166666667","6501600","泰山區"
"231069","189-VK","2017/08/31 09:49:08","新北市新店區新潭路三段215巷25號","121.50812","24.9040766666667","6500600","新店區"
"231046","278-BY","2017/08/31 17:29:34","新北市新店區直潭路92號","121.530925","24.937575","6500600","新店區"
"241011","013-R5","2017/08/31 17:29:30","新北市三重區河邊北街110巷19號","121.503455","25.0707933333333","6500200","三重區"
"241009","060-VK","2017/08/31 17:29:24","新北市三重區力行路二段182-3號","121.48346","25.077415","6500200","三重區"
"241015","062-VK","2017/08/31 17:29:30","新北市三重區長元街65巷8弄18號","121.503408333333","25.066535","6500200","三重區"
"241017","063-VK","2017/08/31 17:29:35","新北市三重區中正北路25巷9-1號","121.492738333333","25.0622566666667","6500200","三重區"
"241024","065-VK","2017/08/31 17:29:20","新北市三重區大勇街82巷15弄7號","121.480088333333","25.0718","6500200","三重區"
"241003","091-VK","2017/08/31 17:29:33","新北市三重區碧華街378號","121.490955","25.0843516666667","6500200","三重區"
"241005","156-TC","2017/08/31 17:29:40","新北市三重區永安北路二段5巷2號","121.481701666667","25.08115","6500200","三重區"
"241016","266-UM","2017/08/31 17:29:41","新北市三重區信義西街41號","121.495298333333","25.0640016666667","6500200","三重區"
"241022","267-UM","2017/08/31 17:29:38","新北市三重區重陽路二段63號","121.487383333333","25.0637","6500200","三重區"
"241018","268-UM","2017/08/31 17:29:27","新北市三重區大智街45號","121.493523333333","25.0663616666667","6500200","三重區"
"241032","269-UM","2017/08/31 17:29:42","新北市三重區名源街38號","121.482401666667","25.0596483333333","6500200","三重區"
"241013","270-UM","2017/08/31 17:29:23","新北市三重區仁愛街90號","121.495318333333","25.0738","6500200","三重區"
"241025","271-UM","2017/08/31 17:29:35","新北市三重區中正北路380號","121.476525","25.0697183333333","6500200","三重區"
"241007","398-BY","2017/08/31 17:29:29","新北市三重區三和路四段145巷151號","121.487516666667","25.0791566666667","6500200","三重區"
"241020","413-TH","2017/08/31 17:29:31","新北市三重區忠孝路二段34號","121.485905","25.071035","6500200","三重區"
"241019","478-VK","2017/08/31 17:29:31","新北市三重區自強路二段24號","121.489588333333","25.0692366666667","6500200","三重區"
"241030","480-VK","2017/08/31 17:29:33","新北市三重區集美街149號","121.490576666667","25.053165","6500200","三重區"
"241014","543-UM","2017/08/31 17:29:31","新北市三重區長壽街50號","121.500601666667","25.0682233333333","6500200","三重區"
"241023","545-UM","2017/08/31 17:29:24","新北市三重區三民街146巷3弄2號","121.48168","25.0645733333333","6500200","三重區"
"241024","743-BX","2017/08/31 17:29:38","新北市三重區大勇街82巷15弄30號","121.481046666667","25.0719966666667","6500200","三重區"
"241026","887-TS","2017/08/31 17:29:32","新北市三重區正義南路15-2號","121.498011666667","25.0614516666667","6500200","三重區"
"241012","941-UM","2017/08/31 17:29:29","新北市三重區仁興街28巷46號","121.498336666667","25.0748783333333","6500200","三重區"
"241033","AAC-255","2017/08/31 17:29:38","新北市三重區興德路145號","121.469511666667","25.0526466666667","6500200","三重區"
"235067","255-BX","2017/08/31 16:33:06","新北市中和區員山路36巷16號","121.484446666667","24.991495","6500300","中和區"
"235062","800-TS","2017/08/31 17:02:36","新北市中和區員山路36巷16-3號","121.485146666667","24.9913716666667","6500300","中和區"
"247020","893-R6","2017/08/31 17:29:32","新北市蘆洲區水湳街106號","121.469625","25.093005","6501400","蘆洲區"
"247010","546-UM","2017/08/31 17:29:25","新北市蘆洲區信義路118號","121.47984","25.0823933333333","6501400","蘆洲區"
"247018","500-BY","2017/08/31 17:29:37","新北市蘆洲區民權路136-2號","121.473171666667","25.08887","6501400","蘆洲區"
"247008","339-TH","2017/08/31 17:29:22","新北市蘆洲區信義路34巷35號","121.47497","25.078455","6501400","蘆洲區"
"247024","337-TH","2017/08/31 17:29:29","新北市蘆洲區三民路589號","121.46151","25.093145","6501400","蘆洲區"
"247002","336-TH","2017/08/31 17:29:36","新北市蘆洲區永樂街38巷67弄24號","121.457543333333","25.0910633333333","6501400","蘆洲區"
"247014","057-VK","2017/08/31 17:29:19","新北市蘆洲區三民路33號","121.475465","25.0830133333333","6501400","蘆洲區"
"247004","056-VK","2017/08/31 17:29:25","新北市蘆洲區長安街160號","121.459446666667","25.0829083333333","6501400","蘆洲區"
"247006","053-VK","2017/08/31 17:29:22","新北市蘆洲區長安街68巷28號","121.464135","25.0810483333333","6501400","蘆洲區"
"247012","007-UY","2017/08/31 17:29:41","新北市蘆洲區民族路92號","121.478018333333","25.08505","6501400","蘆洲區"
"247022","002-UY","2017/08/31 17:29:25","新北市蘆洲區三民路301號","121.465381666667","25.09101","6501400","蘆洲區"
"247016","001-UY","2017/08/31 17:29:31","新北市蘆洲區光華路22巷57號","121.468013333333","25.0851516666667","6501400","蘆洲區"
"228003","097-TW","2017/08/31 17:29:37","新北市貢寮區福隆里興隆街100巷7號","121.936271666667","25.018235","6502600","貢寮區"
"228001","212-TW","2017/08/31 17:29:31","新北市貢寮區仁理村仁愛路32號","121.924906666667","25.05325","6502600","貢寮區"
"228002","585-TW","2017/08/31 17:29:37","新北市貢寮區福隆里興隆街21-2號","121.933111666667","25.0188866666667","6502600","貢寮區"
"224010","AGQ-8101","2017/08/31 17:28:12","新北市瑞芳區明燈路二段2巷8號","121.814111666667","25.10867","6501200","瑞芳區"
"224006","676-BX","2017/08/31 17:29:26","新北市瑞芳區傑魚坑路185號","121.788373333333","25.107935","6501200","瑞芳區"
"224009","285-BY","2017/08/31 17:29:38","新北市瑞芳區汽車路9-12號","121.845888333333","25.111015","6501200","瑞芳區"
"224008","275-VK","2017/08/31 17:29:41","新北市瑞芳區九芎橋路17號","121.832766666667","25.0927583333333","6501200","瑞芳區"
"224005","271-BY","2017/08/31 17:29:35","新北市瑞芳區籠山路10號","121.832183333333","25.12607","6501200","瑞芳區"
"227004","642-TC","2017/08/31 17:29:25","新北市雙溪區平林里外平林72號","121.844148333333","25.0327033333333","6502500","雙溪區"
"227010","400-TW","2017/08/31 17:29:30","新北市雙溪區三貂里定福路22-1號","121.85148","25.0730083333333","6502500","雙溪區"
"251009","008-UM","2017/08/31 17:29:29","新北市淡水區新生街92號","121.439555","25.1746783333333","6501000","淡水區"
"251004","009-UM","2017/08/31 17:29:40","新北市淡水區中正東路二段88巷15號","121.459035","25.15045","6501000","淡水區"
"251007","179-VK","2017/08/31 17:29:41","新北市淡水區民生路60號","121.462185","25.137865","6501000","淡水區"
"251008","181-VK","2017/08/31 17:29:38","新北市淡水區大同路120巷18號","121.463096666667","25.13967","6501000","淡水區"
"251014","182-VK","2017/08/31 17:29:25","新北市淡水區公埔子20-6號","121.470825","25.2268116666667","6501000","淡水區"
"251010","413-VK","2017/08/31 17:29:39","新北市淡水區中正路二段211號","121.426193333333","25.1891733333333","6501000","淡水區"
"251012","441-VK","2017/08/31 17:29:34","新北市淡水區北新路100號","121.447513333333","25.1783916666667","6501000","淡水區"
"251016","442-VK","2017/08/31 17:29:22","新北市淡水區大竹圍10號","121.464638333333","25.1926883333333","6501000","淡水區"
"251005","443-VK","2017/08/31 17:29:38","新北市淡水區鄧公路31巷3號","121.451386666667","25.1708183333333","6501000","淡水區"
"251001","559-UM","2017/08/31 17:29:26","新北市淡水區民權路92巷35-1號","121.462208333333","25.1267233333333","6501000","淡水區"
"251006","561-UM","2017/08/31 17:29:34","新北市淡水區大仁街19號","121.442473333333","25.1751516666667","6501000","淡水區"
"251011","650-BX","2017/08/31 17:29:20","新北市淡水區坪頂路712號","121.48249","25.158495","6501000","淡水區"
"251002","672-BX","2017/08/31 17:29:31","新北市淡水區中正路一段8巷1弄11號","121.428061666667","25.1755966666667","6501000","淡水區"
"251003","766-UM","2017/08/31 17:29:24","新北市淡水區中山路158號","121.440773333333","25.1728816666667","6501000","淡水區"
"207003","550-UM","2017/08/31 17:29:40","新北市萬里區龜吼里翡翠路17號","121.68339","25.1872283333333","6502800","萬里區"
"207004","225-TW","2017/08/31 17:29:41","新北市萬里區萬里里景美路11-2號","121.685481666667","25.1728583333333","6502800","萬里區"
"252002","178-VK","2017/08/31 17:29:39","新北市三芝區忠孝街1-14號","121.505458333333","25.2538916666667","6502100","三芝區"
"252001","292-VK","2017/08/31 17:29:40","新北市三芝區長安街119號","121.498058333333","25.25967","6502100","三芝區"
"237011","572-TV","2017/08/31 17:29:26","新北市三峽區中山路459巷163-3號","121.34869","24.9330666666667","6500900","三峽區"
"237014","756-BX","2017/08/31 15:38:10","新北市三峽區中山路459巷163-3號","121.348888333333","24.9331033333333","6500900","三峽區"
"242021","AAC-296","2017/08/31 17:29:39","新北市新莊區中正路197號","121.452791666667","25.036095","6500500","新莊區"
"242029","986-R7","2017/08/31 17:29:43","新北市新莊區思源路307號","121.459761666667","25.04894","6500500","新莊區"
"242048","751-BX","2017/08/31 17:29:33","新北市新莊區四維路210號","121.421318333333","25.020125","6500500","新莊區"
"242025","615-BX","2017/08/31 17:29:32","新北市新莊區中港路281號","121.453213333333","25.0438133333333","6500500","新莊區"
"242023","613-BX","2017/08/31 17:29:40","新北市新莊區公園路148號","121.453121666667","25.0401266666667","6500500","新莊區"
"242027","612-BX","2017/08/31 17:29:29","新北市新莊區思源路32號","121.460225","25.0405","6500500","新莊區"
"242036","566-BX","2017/08/31 17:29:39","新北市新莊區建國二路1號","121.435065","25.0237533333333","6500500","新莊區"
"242042","497-BY","2017/08/31 17:29:31","新北市新莊區新樹路52-33號","121.434925","25.026715","6500500","新莊區"
"242046","441-UM","2017/08/31 17:29:35","新北市新莊區新樹路65-5號","121.439455","25.030805","6500500","新莊區"
"242051","440-UM","2017/08/31 17:29:24","新北市新莊區瓊林南路52號","121.434711666667","25.0141733333333","6500500","新莊區"
"242031","415-TV","2017/08/31 17:29:35","新北市新莊區新泰路393號","121.443551666667","25.0439883333333","6500500","新莊區"
"242002","413-TV","2017/08/31 17:29:36","新北市新莊區中正路31巷3-5號","121.463763333333","25.0404666666667","6500500","新莊區"
"242039","400-BY","2017/08/31 17:29:26","新北市新莊區民安東路37號","121.428833333333","25.020925","6500500","新莊區"
"242061","362-BY","2017/08/31 17:29:32","新北市新莊區瓊林路190-2號","121.439478333333","25.0209466666667","6500500","新莊區"
"242058","353-BY","2017/08/31 17:29:31","新北市新莊區中正路585號","121.434391666667","25.0326766666667","6500500","新莊區"
"242004","132-UY","2017/08/31 17:29:27","新北市新莊區復興路一段220號","121.453043333333","25.0437183333333","6500500","新莊區"
"242034","133-UY","2017/08/31 17:29:24","新北市新莊區新莊路374號","121.449291666667","25.0334516666667","6500500","新莊區"
"242019","135-UY","2017/08/31 17:29:24","新北市新莊區中港路76號","121.455483333333","25.0390183333333","6500500","新莊區"
"242044","172-VK","2017/08/31 17:29:37","新北市新莊區富國路89號","121.42057","25.02577","6500500","新莊區"
"242007","173-VK","2017/08/31 17:29:30","新北市新莊區自強街24號","121.454895","25.0460383333333","6500500","新莊區"
"242013","175-VK","2017/08/31 17:29:23","新北市新莊區中誠街14號","121.452033333333","25.0482666666667","6500500","新莊區"
"242056","176-VK","2017/08/31 17:29:38","新北市新莊區景德路207號","121.449393333333","25.03374","6500500","新莊區"
"242011","346-TH","2017/08/31 17:29:37","新北市新莊區中港路390號","121.452381666667","25.0493116666667","6500500","新莊區"
"242017","348-TH","2017/08/31 17:29:34","新北市新莊區中港路276號","121.452983333333","25.0439966666667","6500500","新莊區"
"242053","349-TH","2017/08/31 17:29:35","新北市新莊區瓊林南路305巷7號","121.434886666667","25.00543","6500500","新莊區"
"242015","350-TH","2017/08/31 17:29:32","新北市新莊區新泰路178號","121.447311666667","25.0379333333333","6500500","新莊區"
"242009","351-TH","2017/08/31 17:29:38","新北市新莊區中原路85-1號","121.45681","25.05432","6500500","新莊區"
"238015","755-BX","2017/08/31 17:29:38","新北市樹林區大安路265號","121.41912","24.9937283333333","6500700","樹林區"
"238023","601-UM","2017/08/31 17:29:31","新北市樹林區中正路433-2號","121.414896666667","25.0081966666667","6500700","樹林區"
"238019","599-UM","2017/08/31 17:29:21","新北市樹林區太平路1-7號","121.418691666667","24.9845633333333","6500700","樹林區"
"238018","571-TV","2017/08/31 17:29:23","新北市樹林區鎮前街269巷34號","121.41933","24.9850066666667","6500700","樹林區"
"238024","5061-A6","2017/08/31 17:29:36","新北市樹林區鎮前街86巷8號","121.4252","24.9921416666667","6500700","樹林區"
"238022","312-TH","2017/08/31 17:29:39","新北市樹林區信義街6號","121.422316666667","24.9817533333333","6500700","樹林區"
"238021","311-TH","2017/08/31 16:09:11","新北市樹林區西圳街二段97巷21號","121.386438333333","24.9575133333333","6500700","樹林區"
"238025","303-VK","2017/08/31 17:29:36","新北市樹林區保安街一段296號","121.419131666667","24.9972533333333","6500700","樹林區"
"238017","283-BY","2017/08/31 17:29:37","新北市樹林區光武街11-6號","121.415936666667","25.0057566666667","6500700","樹林區"
"238001","282-BY","2017/08/31 17:29:21","新北市樹林區長壽街70巷35弄9號","121.421378333333","24.9951583333333","6500700","樹林區"
"238020","268-VK","2017/08/31 02:04:22","新北市樹林區中山路三段204號","121.386883333333","24.9683183333333","6500700","樹林區"
"238026","172-UY","2017/08/31 17:29:32","新北市樹林區味王街14號","121.403035","24.9760116666667","6500700","樹林區"
"238016","169-UY","2017/08/31 17:29:20","新北市樹林區中山路一段91-1號","121.423323333333","24.991135","6500700","樹林區"
"239007","AAC-297","2017/08/31 17:29:40","新北市鶯歌區中正一路187號","121.353218333333","24.9570966666667","6500800","鶯歌區"
"239006","891-R6","2017/08/31 17:29:28","新北市鶯歌區福安街7巷24弄52號","121.33475","24.966175","6500800","鶯歌區"
"239008","527-UM","2017/08/31 17:29:33","桃園市龜山區宏德司法新村126號","121.332668333333","24.9780133333333","6500800","鶯歌區"
"239005","526-UM","2017/08/31 17:29:40","新北市鶯歌區鶯桃路二段9號","121.32591","24.9719933333333","6500800","鶯歌區"
"239001","417-VK","2017/08/31 17:29:21","新北市鶯歌區中正三路153-1號","121.3366","24.9400933333333","6500800","鶯歌區"
"239003","360-BY","2017/08/31 17:29:37","新北市鶯歌區鶯桃路193號","121.337523333333","24.9586616666667","6500800","鶯歌區"
"239002","359-BY","2017/08/31 17:29:43","新北市鶯歌區育才街30-2號","121.34879","24.9550316666667","6500800","鶯歌區"
"239004","193-VK","2017/08/31 17:29:36","新北市鶯歌區三鶯路16號","121.356418333333","24.9412983333333","6500800","鶯歌區"
"221012","276-VK","2017/08/31 13:24:39","新北市汐止區汐萬路一段256巷3號","121.653478333333","25.0746316666667","6501100","汐止區"
"221033","647-BX","2017/08/31 17:29:14","新北市汐止區連峰街3巷1號","121.647383333333","25.076205","6501100","汐止區"
"221018","753-BX","2017/08/31 17:29:41","新北市汐止區汐萬路一段256巷1號","121.651918333333","25.0747883333333","6501100","汐止區"
"220022","895-R6","2017/08/31 13:50:57","新北市板橋區府中路23號","121.459101666667","25.0094233333333","6500100","板橋區"
