"lineid","car","time","location","longitude","latitude","cityid","cityname"
"234026","9371-KE","2017/08/31 17:49:28","新北市永和區和平街95巷12號","121.511266666667","25.0095283333333","6500400","永和區"
"249005","172-UM","2017/08/31 17:49:24","新北市八里區荖阡坑路41-6號","121.402336666667","25.132615","6502300","八里區"
"249001","173-UM","2017/08/31 17:49:34","新北市八里區龍米路二段125巷25號","121.446125","25.1459933333333","6502300","八里區"
"249004","303-UY","2017/08/31 17:49:24","新北市八里區中華路一段81巷18號","121.419578333333","25.1558066666667","6502300","八里區"
"249002","305-UY","2017/08/31 17:49:36","新北市八里區龍形五街37巷3-1號","121.448711666667","25.132575","6502300","八里區"
"249003","593-UM","2017/08/31 17:49:25","新北市八里區中山路二段123號","121.405481666667","25.151905","6502300","八里區"
"248014","025-BX","2017/08/31 17:49:33","新北市五股區中興路二段83巷26-6號","121.46012","25.0752566666667","6501500","五股區"
"248016","026-BX","2017/08/31 17:49:26","新北市五股區中興路二段83巷26-6號","121.459928333333","25.075175","6501500","五股區"
"248008","095-VK","2017/08/31 17:49:24","新北市五股區中興路二段83巷26-6號","121.460118333333","25.0750966666667","6501500","五股區"
"248020","261-SL","2017/08/31 17:49:37","新北市五股區中興路二段63巷17號","121.460241666667","25.075295","6501500","五股區"
"248010","272-BY","2017/08/31 17:49:40","新北市五股區中興路二段83巷26-6號","121.459765","25.0750333333333","6501500","五股區"
"248004","677-BX","2017/08/31 17:49:21","新北市五股區中興路二段83巷26-6號","121.460098333333","25.0750916666667","6501500","五股區"
"248002","678-BX","2017/08/31 17:49:34","新北市五股區中興路二段37巷28號","121.460005","25.074865","6501500","五股區"
"248010","682-TV","2017/08/31 15:57:30","新北市五股區中興路二段63巷17號","121.460178333333","25.0756133333333","6501500","五股區"
"232011","375-UM","2017/08/31 17:49:37","新北市坪林區北宜路八段192號","121.708031666667","24.9346666666667","6502000","坪林區"
"244007","080-UY","2017/08/31 17:49:26","新北市林口區林口路226號","121.38676","25.0838266666667","6501700","林口區"
"244019","403-UM","2017/08/31 17:49:26","新北市林口區忠孝路539號","121.372126666667","25.0688316666667","6501700","林口區"
"244009","410-SL","2017/08/31 17:49:25","新北市林口區中北三街61號","121.384671666667","25.0854933333333","6501700","林口區"
"244017","656-BX","2017/08/31 17:49:24","新北市林口區忠孝路407號","121.370373333333","25.0706183333333","6501700","林口區"
"244023","657-BX","2017/08/31 17:49:40","新北市林口區東湖路58號","121.3876","25.0741616666667","6501700","林口區"
"244013","658-BX","2017/08/31 17:49:19","新北市林口區中正路505巷19號","121.383446666667","25.0771116666667","6501700","林口區"
"244011","701-TV","2017/08/31 17:49:32","新北市林口區中正路313號","121.388888333333","25.0774116666667","6501700","林口區"
"244025","837-TS","2017/08/31 17:49:36","新北市林口區文化三路一段191巷20號","121.361243333333","25.07058","6501700","林口區"
"244021","838-TS","2017/08/31 17:49:29","新北市林口區仁愛路一段159巷41號","121.397531666667","25.0720383333333","6501700","林口區"
"243013","AAD-798","2017/08/31 17:49:27","新北市泰山區錢厝坑7號","121.407458333333","25.0505083333333","6501600","泰山區"
"243009","297-R6","2017/08/31 16:29:57","新北市泰山區黎明路25號","121.422065","25.06086","6501600","泰山區"
"243016","680-BX","2017/08/31 17:31:40","新北市泰山區黎明路25號","121.421846666667","25.0609783333333","6501600","泰山區"
"222002","659-BX","2017/08/31 17:49:38","新北市深坑區平埔街22巷8號","121.614911666667","25.0008933333333","6501800","深坑區"
"231069","189-VK","2017/08/31 09:49:08","新北市新店區新潭路三段215巷25號","121.50812","24.9040766666667","6500600","新店區"
"231046","278-BY","2017/08/31 17:49:34","新北市新店區下石厝路18號","121.533313333333","24.9278783333333","6500600","新店區"
"241005","156-TC","2017/08/31 17:49:27","新北市三重區集賢路87-1號","121.493901666667","25.08704","6500200","三重區"
"241016","266-UM","2017/08/31 17:49:21","新北市三重區新北大道一段3-1號","121.490136666667","25.0613633333333","6500200","三重區"
"241024","743-BX","2017/08/31 17:49:38","新北市三重區力行路二段9巷12號","121.48297","25.0723833333333","6500200","三重區"
"241012","941-UM","2017/08/31 17:49:28","新北市三重區龍門路236號","121.500681666667","25.0736066666667","6500200","三重區"
"241033","AAC-255","2017/08/31 17:49:30","新北市三重區重新路五段567號","121.470303333333","25.0459866666667","6500200","三重區"
"235067","255-BX","2017/08/31 16:33:06","新北市中和區員山路36巷16號","121.484446666667","24.991495","6500300","中和區"
"235062","800-TS","2017/08/31 17:02:36","新北市中和區員山路36巷16-3號","121.485146666667","24.9913716666667","6500300","中和區"
"247020","893-R6","2017/08/31 17:49:32","新北市蘆洲區民權路186號","121.471788333333","25.0904866666667","6501400","蘆洲區"
"247010","546-UM","2017/08/31 17:49:25","新北市蘆洲區民族路48號","121.476915","25.0844966666667","6501400","蘆洲區"
"247018","500-BY","2017/08/31 17:49:37","新北市蘆洲區復興路242號","121.479605","25.0895033333333","6501400","蘆洲區"
"247008","339-TH","2017/08/31 17:49:42","新北市蘆洲區中山一路198號","121.473671666667","25.0808483333333","6501400","蘆洲區"
"247024","337-TH","2017/08/31 17:49:29","新北市蘆洲區長樂路118號","121.461926666667","25.0897933333333","6501400","蘆洲區"
"247002","336-TH","2017/08/31 17:49:36","新北市蘆洲區永平街32巷33弄18號","121.458688333333","25.0923866666667","6501400","蘆洲區"
"247004","056-VK","2017/08/31 17:49:25","新北市蘆洲區長安街194巷3號","121.45904","25.083985","6501400","蘆洲區"
"247006","053-VK","2017/08/31 17:49:22","新北市蘆洲區九芎街107號","121.465761666667","25.0798016666667","6501400","蘆洲區"
"247012","007-UY","2017/08/31 17:49:41","新北市蘆洲區復興路80號","121.47515","25.08673","6501400","蘆洲區"
"247022","002-UY","2017/08/31 17:49:25","新北市蘆洲區中正路284-1號","121.465055","25.09026","6501400","蘆洲區"
"247016","001-UY","2017/08/31 17:49:11","新北市蘆洲區中正路185巷23弄15號","121.467436666667","25.08421","6501400","蘆洲區"
"228003","097-TW","2017/08/31 17:49:37","新北市貢寮區真理里延平街62號","121.92488","25.0574016666667","6502600","貢寮區"
"228001","212-TW","2017/08/31 17:49:31","新北市貢寮區仁理村仁愛路95-1號","121.927698333333","25.05548","6502600","貢寮區"
"228002","585-TW","2017/08/31 17:49:37","新北市貢寮區福隆里外隆林街14-1號","121.959161666667","25.0036133333333","6502600","貢寮區"
"224006","676-BX","2017/08/31 17:49:26","新北市瑞芳區傑魚坑路88號","121.792468333333","25.110495","6501200","瑞芳區"
"224009","285-BY","2017/08/31 17:49:38","新北市瑞芳區金光路376號","121.850778333333","25.1111383333333","6501200","瑞芳區"
"224008","275-VK","2017/08/31 17:49:22","新北市瑞芳區明燈路一段206號","121.818548333333","25.1089033333333","6501200","瑞芳區"
"224007","273-VK","2017/08/31 17:49:39","新北市瑞芳區八分寮路6號","121.796576666667","25.093145","6501200","瑞芳區"
"224005","271-BY","2017/08/31 17:49:35","新北市瑞芳區瑞芳街32-10號","121.822168333333","25.121095","6501200","瑞芳區"
"253006","032-BX","2017/08/31 17:49:34","新北市石門區中山路64-1號","121.567373333333","25.2903116666667","6502200","石門區"
"208003","665-BX","2017/08/31 17:49:29","新北市金山區磺清路135號","121.63946","25.227805","6502700","金山區"
"208001","761-BX","2017/08/31 17:49:23","新北市金山區磺清路135號","121.639245","25.2277016666667","6502700","金山區"
"251009","008-UM","2017/08/31 17:49:29","新北市淡水區長興街29號","121.443998333333","25.1711733333333","6501000","淡水區"
"251004","009-UM","2017/08/31 17:49:20","新北市淡水區民權一街25號","121.458991666667","25.13636","6501000","淡水區"
"251007","179-VK","2017/08/31 17:49:41","新北市淡水區民生路46號","121.461675","25.1379266666667","6501000","淡水區"
"251008","181-VK","2017/08/31 17:49:38","新北市淡水區八勢路一段133號","121.467056666667","25.15766","6501000","淡水區"
"251014","182-VK","2017/08/31 17:49:25","新北市淡水區公埔子16-6號","121.48102","25.2245516666667","6501000","淡水區"
"251010","413-VK","2017/08/31 17:49:19","新北市淡水區中正路二段96號","121.417716666667","25.1856116666667","6501000","淡水區"
"251012","441-VK","2017/08/31 17:49:34","新北市淡水區北新路一段403號","121.467551666667","25.1825066666667","6501000","淡水區"
"251016","442-VK","2017/08/31 17:49:22","新北市淡水區埤島39-15號","121.452755","25.195925","6501000","淡水區"
"251005","443-VK","2017/08/31 17:49:37","新北市淡水區學府路96號","121.449256666667","25.1711566666667","6501000","淡水區"
"251001","559-UM","2017/08/31 17:49:26","新北市淡水區民權路92巷35-1號","121.46214","25.1267083333333","6501000","淡水區"
"251006","561-UM","2017/08/31 17:49:29","新北市淡水區大信街1巷9號","121.440845","25.176665","6501000","淡水區"
"251011","650-BX","2017/08/31 17:49:40","新北市淡水區吳(仔)厝28號","121.479536666667","25.1493033333333","6501000","淡水區"
"251002","672-BX","2017/08/31 17:49:38","新北市淡水區中山路88號","121.443023333333","25.170555","6501000","淡水區"
"251003","766-UM","2017/08/31 17:49:24","新北市淡水區大忠街13號","121.443403333333","25.1759566666667","6501000","淡水區"
"207003","550-UM","2017/08/31 17:49:40","新北市萬里區野柳里東澳路66號","121.692736666667","25.2009616666667","6502800","萬里區"
"207004","225-TW","2017/08/31 17:49:21","新北市萬里區萬里里瑪鋉頂街61號","121.68837","25.1804616666667","6502800","萬里區"
"252002","178-VK","2017/08/31 17:49:39","新北市三芝區智成街73號","121.50455","25.2560066666667","6502100","三芝區"
"252001","292-VK","2017/08/31 17:49:40","新北市三芝區淡金路一段59號","121.50028","25.2590266666667","6502100","三芝區"
"237004","078-UY","2017/08/31 17:49:24","新北市三峽區中山路117號","121.365603333333","24.9358316666667","6500900","三峽區"
"237009","210-TH","2017/08/31 17:49:34","新北市三峽區大勇路3巷41號","121.36743","24.9367683333333","6500900","三峽區"
"237013","252-BX","2017/08/31 17:49:40","新北市三峽區愛國路6巷6號","121.373713333333","24.933725","6500900","三峽區"
"237012","275-BY","2017/08/31 17:49:23","新北市三峽區文化路164號","121.369901666667","24.9361633333333","6500900","三峽區"
"237008","302-VK","2017/08/31 17:49:35","新北市三峽區中園街237-1號","121.366831666667","24.9195","6500900","三峽區"
"237014","433-BY","2017/08/31 17:49:25","新北市三峽區文化路120巷18號","121.371103333333","24.936765","6500900","三峽區"
"237006","5529-G3","2017/08/31 17:49:40","新北市三峽區介壽路二段38巷75-1號","121.392003333333","24.9338316666667","6500900","三峽區"
"237011","572-TV","2017/08/31 17:49:26","新北市三峽區光明路96號","121.37574","24.928425","6500900","三峽區"
"237016","649-BX","2017/08/31 17:49:38","新北市三峽區白雞57-15號","121.38984","24.91181","6500900","三峽區"
"237010","706-TV","2017/08/31 17:49:40","新北市三峽區和平街24-1號","121.37032","24.93632","6500900","三峽區"
"237014","756-BX","2017/08/31 15:38:10","新北市三峽區中山路459巷163-3號","121.348888333333","24.9331033333333","6500900","三峽區"
"237005","AKY-6261","2017/08/31 17:49:21","新北市三峽區中山路459巷163-1號","121.349573333333","24.9333016666667","6500900","三峽區"
"236071","105-UM","2017/08/31 17:49:36","新北市土城區明德路一段385-1號","121.45237","24.9802166666667","6501300","土城區"
"236042","107-UM","2017/08/31 17:49:35","新北市土城區城林路6巷80號","121.438495","24.9796466666667","6501300","土城區"
"236078","166-UM","2017/08/31 17:49:40","新北市土城區中華路二段198號","121.437563333333","24.9700216666667","6501300","土城區"
"236030","253-BX","2017/08/31 17:49:27","新北市土城區城林路6巷80號","121.43839","24.9796566666667","6501300","土城區"
"236037","271-VK","2017/08/31 17:49:38","新北市土城區城林路6巷80號","121.43847","24.979815","6501300","土城區"
"236021","401-BY","2017/08/31 17:49:39","新北市土城區城林路6巷80號","121.438753333333","24.9796833333333","6501300","土城區"
"236058","912-UM","2017/08/31 17:49:37","新北市土城區城林路6巷80號","121.43847","24.9796416666667","6501300","土城區"
"236051","913-UM","2017/08/31 17:49:26","新北市土城區城林路6巷80號","121.438593333333","24.9797783333333","6501300","土城區"
"236062","915-UM","2017/08/31 17:49:37","新北市土城區城林路6巷80號","121.438573333333","24.9797233333333","6501300","土城區"
"236053","AAC-216","2017/08/31 17:49:22","新北市土城區城林路6巷80號","121.438498333333","24.97979","6501300","土城區"
"242021","AAC-296","2017/08/31 17:49:38","新北市新莊區中港路134號","121.455241666667","25.04073","6500500","新莊區"
"242029","986-R7","2017/08/31 17:49:23","新北市新莊區復興路一段89號","121.448645","25.0427166666667","6500500","新莊區"
"242048","751-BX","2017/08/31 17:49:33","新北市新莊區萬安街60巷13號","121.42055","25.0232266666667","6500500","新莊區"
"242025","615-BX","2017/08/31 17:49:32","新北市三重區新北大道二段27號","121.471276666667","25.0612683333333","6500500","新莊區"
"242023","613-BX","2017/08/31 17:49:40","新北市新莊區福樂街66號","121.457671666667","25.0462816666667","6500500","新莊區"
"242027","612-BX","2017/08/31 17:49:29","新北市新莊區福壽街139號","121.457995","25.0526633333333","6500500","新莊區"
"242036","566-BX","2017/08/31 17:49:32","新北市新莊區建福路68號","121.426805","25.0269116666667","6500500","新莊區"
"242042","497-BY","2017/08/31 17:49:30","新北市新莊區中正路612-1號","121.426155","25.0301766666667","6500500","新莊區"
"242046","441-UM","2017/08/31 17:49:35","新北市新莊區福營路97巷17號","121.43515","25.0317916666667","6500500","新莊區"
"242051","440-UM","2017/08/31 17:49:24","新北市新莊區西盛街311巷14號","121.428761666667","25.0151666666667","6500500","新莊區"
"242031","415-TV","2017/08/31 17:49:35","新北市新莊區新泰路321巷30號","121.443445","25.04139","6500500","新莊區"
"242002","413-TV","2017/08/31 17:49:36","新北市新莊區景德路93號","121.451976666667","25.0348133333333","6500500","新莊區"
"242039","400-BY","2017/08/31 17:49:26","新北市新莊區民安路138號","121.424306666667","25.0253066666667","6500500","新莊區"
"242061","362-BY","2017/08/31 17:49:32","新北市新莊區瓊林南路206號","121.434018333333","25.0064466666667","6500500","新莊區"
"242058","353-BY","2017/08/31 17:49:40","新北市新莊區中正路726-10號","121.415466666667","25.0239716666667","6500500","新莊區"
"242004","132-UY","2017/08/31 17:49:27","新北市新莊區自立街198號","121.456591666667","25.0455783333333","6500500","新莊區"
"242034","133-UY","2017/08/31 17:49:41","新北市新莊區新樹路13號","121.44072","25.0329","6500500","新莊區"
"242019","135-UY","2017/08/31 17:49:24","新北市新莊區民樂街48號","121.458058333333","25.04146","6500500","新莊區"
"242044","172-VK","2017/08/31 17:49:37","新北市新莊區中正路857號","121.419688333333","25.0278483333333","6500500","新莊區"
"242007","173-VK","2017/08/31 17:49:30","新北市新莊區福樂街108巷2號","121.45751","25.0477866666667","6500500","新莊區"
"242013","175-VK","2017/08/31 17:49:23","新北市新莊區中誠街164號","121.448153333333","25.0474016666667","6500500","新莊區"
"242056","176-VK","2017/08/31 17:49:38","新北市新莊區瓊林路38巷39號","121.446508333333","25.0303583333333","6500500","新莊區"
"242011","346-TH","2017/08/31 17:49:35","新北市新莊區中港路697號","121.450685","25.0568","6500500","新莊區"
"242017","348-TH","2017/08/31 17:49:34","新北市新莊區永安街95號","121.450528333333","25.0445316666667","6500500","新莊區"
"242053","349-TH","2017/08/31 17:49:35","新北市新莊區新樹路563號","121.432866666667","25.00721","6500500","新莊區"
"242015","350-TH","2017/08/31 17:49:32","新北市新莊區新泰路502巷40號","121.443713333333","25.0463366666667","6500500","新莊區"
"242009","351-TH","2017/08/31 17:49:41","新北市新莊區昌平街59巷20號","121.454106666667","25.0531866666667","6500500","新莊區"
"238015","755-BX","2017/08/31 17:49:38","新北市樹林區復興路61號","121.421798333333","24.9933283333333","6500700","樹林區"
"238023","601-UM","2017/08/31 17:49:31","新北市樹林區福興街3巷11號","121.404798333333","25.01678","6500700","樹林區"
"238019","599-UM","2017/08/31 17:49:20","新北市樹林區太平路215號","121.418666666667","24.9775566666667","6500700","樹林區"
"238018","571-TV","2017/08/31 17:49:23","新北市樹林區鎮前街17號","121.425906666667","24.992635","6500700","樹林區"
"238022","312-TH","2017/08/31 17:49:39","新北市樹林區太順街49巷2號","121.417906666667","24.979175","6500700","樹林區"
"238021","311-TH","2017/08/31 17:49:03","新北市樹林區柑園街一段194號","121.394985","24.9564733333333","6500700","樹林區"
"238025","303-VK","2017/08/31 17:49:36","新北市樹林區三俊街35號","121.41231","25.0156216666667","6500700","樹林區"
"238017","283-BY","2017/08/31 17:49:23","新北市樹林區中正路450號","121.413178333333","25.01203","6500700","樹林區"
"238014","282-BY","2017/08/31 17:49:21","新北市樹林區保安街一段313巷28號","121.417033333333","24.9974433333333","6500700","樹林區"
"238020","268-VK","2017/08/31 02:04:22","新北市樹林區中山路三段204號","121.386883333333","24.9683183333333","6500700","樹林區"
"238026","172-UY","2017/08/31 17:49:32","新北市樹林區新興街17號","121.400228333333","24.9727433333333","6500700","樹林區"
"238016","169-UY","2017/08/31 17:49:40","新北市樹林區復興路321號","121.418291666667","24.9884583333333","6500700","樹林區"
"239007","AAC-297","2017/08/31 17:49:40","新北市鶯歌區鶯桃路永富巷2-1號","121.338835","24.9546316666667","6500800","鶯歌區"
"239006","891-R6","2017/08/31 17:49:28","新北市鶯歌區鶯桃路440號","121.333156666667","24.96489","6500800","鶯歌區"
"239008","527-UM","2017/08/31 17:49:33","新北市鶯歌區香賓街11巷2號","121.336798333333","24.9795016666667","6500800","鶯歌區"
"239005","526-UM","2017/08/31 17:49:40","新北市鶯歌區鳳吉五街13號","121.326795","24.9723833333333","6500800","鶯歌區"
"239001","417-VK","2017/08/31 17:49:21","新北市鶯歌區中正三路444號","121.323633333333","24.93463","6500800","鶯歌區"
"239003","360-BY","2017/08/31 17:49:37","新北市鶯歌區永吉街45號","121.335571666667","24.9573116666667","6500800","鶯歌區"
"239002","359-BY","2017/08/31 17:49:23","新北市鶯歌區國華路71-1號","121.342836666667","24.9544933333333","6500800","鶯歌區"
"239004","193-VK","2017/08/31 17:49:36","新北市鶯歌區尖山路34-1號","121.351153333333","24.95022","6500800","鶯歌區"
"221036","130-UY","2017/08/31 17:49:30","新北市汐止區長江街89號","121.657756666667","25.0724983333333","6501100","汐止區"
"221015","131-UY","2017/08/31 17:49:39","新北市汐止區長江街249-1號","121.662821666667","25.07933","6501100","汐止區"
"221010","269-BY","2017/08/31 17:49:41","新北市汐止區汐萬路一段407號","121.649365","25.0792266666667","6501100","汐止區"
"221012","276-VK","2017/08/31 13:24:39","新北市汐止區汐萬路一段256巷3號","121.653478333333","25.0746316666667","6501100","汐止區"
"221031","277-VK","2017/08/31 17:49:41","新北市汐止區汐萬路一段256巷3號","121.652503333333","25.0746183333333","6501100","汐止區"
"221012","278-VK","2017/08/31 17:49:24","新北市汐止區長江街61號","121.656623333333","25.0717716666667","6501100","汐止區"
"221023","279-VK","2017/08/31 17:49:35","新北市汐止區康寧街591巷4號","121.63489","25.0705016666667","6501100","汐止區"
"221032","280-BY","2017/08/31 17:49:26","新北市汐止區環河街207號","121.626243333333","25.0550983333333","6501100","汐止區"
"221027","281-BY","2017/08/31 17:49:27","新北市汐止區康寧街901號","121.65177","25.0749666666667","6501100","汐止區"
"221038","297-VK","2017/08/31 17:49:23","新北市汐止區汐萬路一段312號","121.650593333333","25.0753783333333","6501100","汐止區"
"221029","298-VK","2017/08/31 17:49:23","新北市汐止區康寧街901號","121.65145","25.07485","6501100","汐止區"
"221021","299-VK","2017/08/31 17:49:34","新北市汐止區汐萬路一段2號","121.656195","25.0672216666667","6501100","汐止區"
"221008","358-BY","2017/08/31 17:49:34","新北市汐止區康寧街901號","121.651343333333","25.0750583333333","6501100","汐止區"
"221035","622-UM","2017/08/31 17:49:33","新北市汐止區汐萬路一段211巷15號","121.651476666667","25.0718933333333","6501100","汐止區"
"221025","623-UM","2017/08/31 17:49:28","新北市汐止區新台五路一段262號","121.658506666667","25.0642016666667","6501100","汐止區"
"221033","647-BX","2017/08/31 17:49:34","新北市汐止區橫科路73巷20弄24號","121.619783333333","25.0517116666667","6501100","汐止區"
"221018","753-BX","2017/08/31 17:49:20","新北市汐止區忠孝東路382巷3弄1號","121.665676666667","25.0697283333333","6501100","汐止區"
"220022","895-R6","2017/08/31 13:50:57","新北市板橋區府中路23號","121.459101666667","25.0094233333333","6500100","板橋區"
