"lineid","car","time","location","longitude","latitude","cityid","cityname"
"234046","148-BY","2017/08/31 18:39:31","新北市永和區林森路100號","121.522873333333","25.003605","6500400","永和區"
"234013","149-BY","2017/08/31 18:39:24","新北市永和區保福路二段105號","121.510173333333","25.0133016666667","6500400","永和區"
"234007","207-UY","2017/08/31 18:39:28","新北市永和區文化路170號","121.511846666667","25.01553","6500400","永和區"
"234081","298-R6","2017/08/31 18:39:07","新北市永和區林森路75號","121.524098333333","25.00379","6500400","永和區"
"234064","337-UY","2017/08/31 18:39:24","新北市永和區福和路1號","121.526633333333","25.010065","6500400","永和區"
"234086","338-UY","2017/08/31 18:39:42","新北市中和區安平路107號","121.51152","24.997445","6500400","永和區"
"234070","552-UM","2017/08/31 18:39:29","新北市永和區竹林路96巷7號","121.519193333333","25.0120666666667","6500400","永和區"
"234054","553-UM","2017/08/31 18:39:37","新北市永和區福和路1號","121.525923333333","25.00963","6500400","永和區"
"234017","745-BX","2017/08/31 18:39:31","新北市永和區福和路1號","121.526593333333","25.00995","6500400","永和區"
"234030","746-BX","2017/08/31 18:39:21","新北市永和區得和路326號","121.523208333333","24.9995266666667","6500400","永和區"
"234061","AAD-866","2017/08/31 18:39:38","新北市永和區福和路1號","121.525676666667","25.0094783333333","6500400","永和區"
"234042","862-TW","2017/08/31 18:39:37","新北市永和區永貞路304號","121.51194","25.0048133333333","6500400","永和區"
"234050","863-TW","2017/08/31 18:39:35","新北市永和區環河東路二段20號","121.522536666667","25.0130733333333","6500400","永和區"
"234026","9371-KE","2017/08/31 18:39:28","新北市永和區仁愛路281號","121.505696666667","25.0097233333333","6500400","永和區"
"234011","9373-KE","2017/08/31 18:39:26","新北市永和區永和路二段231巷1號","121.515276666667","25.01414","6500400","永和區"
"249005","172-UM","2017/08/31 18:39:25","新北市八里區中華路三段212號","121.388771666667","25.1254116666667","6502300","八里區"
"249001","173-UM","2017/08/31 18:39:34","新北市八里區龍米路一段360號","121.451578333333","25.1313316666667","6502300","八里區"
"249004","303-UY","2017/08/31 18:39:22","新北市八里區大崁腳48-53號","121.424836666667","25.1594116666667","6502300","八里區"
"248014","025-BX","2017/08/31 18:39:38","新北市五股區中興路四段54號","121.438035","25.083015","6501500","五股區"
"248016","026-BX","2017/08/31 18:39:26","新北市五股區凌雲路一段149巷42號","121.448601666667","25.1010316666667","6501500","五股區"
"248008","095-VK","2017/08/31 18:39:24","新北市五股區中興路一段150巷13-1號","121.46466","25.07447","6501500","五股區"
"248012","247-BX","2017/08/31 18:39:25","新北市五股區成泰路三段2巷1-10號","121.441371666667","25.08694","6501500","五股區"
"248020","261-SL","2017/08/31 18:39:37","新北市五股區凌雲路三段田埔巷35-1號","121.43971","25.1223583333333","6501500","五股區"
"248010","272-BY","2017/08/31 18:39:39","新北市五股區水碓一路92號","121.431753333333","25.0736183333333","6501500","五股區"
"248004","677-BX","2017/08/31 18:39:30","新北市五股區民義路一段216-1號","121.430096666667","25.089355","6501500","五股區"
"248002","678-BX","2017/08/31 18:39:34","新北市五股區西雲路248號","121.448826666667","25.0968616666667","6501500","五股區"
"248010","682-TV","2017/08/31 15:57:30","新北市五股區中興路二段63巷17號","121.460178333333","25.0756133333333","6501500","五股區"
"234023","9380-KE","2017/08/31 18:39:22","新北市永和區福和路76巷5弄12號","121.522443333333","25.0083583333333","6500400","永和區"
"234077","969-R7","2017/08/31 18:39:30","新北市永和區中正路446號","121.517441666667","25.00262","6500400","永和區"
"234067","AAC-212","2017/08/31 18:39:38","新北市永和區中正路606號","121.517025","25.0070466666667","6500400","永和區"
"234003","AAC-295","2017/08/31 18:39:36","新北市永和區福和路1號","121.526435","25.0099766666667","6500400","永和區"
"232011","375-UM","2017/08/31 18:18:11","新北市坪林區坪雙路一段43號","121.711753333333","24.942445","6502000","坪林區"
"244007","080-UY","2017/08/31 18:39:26","新北市林口區後湖17-25號","121.388948333333","25.0965883333333","6501700","林口區"
"244019","403-UM","2017/08/31 18:39:26","新北市林口區忠孝路606號","121.37652","25.0679933333333","6501700","林口區"
"244009","410-SL","2017/08/31 18:39:25","新北市林口區中山路630號","121.374756666667","25.0865516666667","6501700","林口區"
"244017","656-BX","2017/08/31 18:39:24","新北市林口區文化二路一段271號","121.367606666667","25.0709483333333","6501700","林口區"
"244023","657-BX","2017/08/31 18:39:40","新北市林口區文化二路二段98號","121.378738333333","25.0816383333333","6501700","林口區"
"244013","658-BX","2017/08/31 18:39:26","新北市林口區中山路267號","121.38529","25.079545","6501700","林口區"
"244011","701-TV","2017/08/31 18:39:30","新北市林口區新寮1-60號","121.393005","25.0768033333333","6501700","林口區"
"244025","837-TS","2017/08/31 18:39:32","新北市林口區南勢四街321號","121.356566666667","25.074755","6501700","林口區"
"244021","838-TS","2017/08/31 18:39:29","新北市林口區粉寮路一段64號","121.397065","25.07859","6501700","林口區"
"243013","AAD-798","2017/08/31 18:39:27","新北市泰山區明志路三段206巷3號","121.42331","25.03791","6501600","泰山區"
"243009","297-R6","2017/08/31 18:39:24","新北市泰山區黎明路25號","121.42199","25.0606533333333","6501600","泰山區"
"243015","380-SR","2017/08/31 18:39:25","新北市泰山區犁頭窠3-1號","121.422175","25.0603983333333","6501600","泰山區"
"243012","646-TV","2017/08/31 18:39:38","新北市泰山區福興三街13號","121.434498333333","25.057685","6501600","泰山區"
"243016","680-BX","2017/08/31 18:39:31","新北市泰山區黎明路3號","121.421181666667","25.063295","6501600","泰山區"
"222003","436-BY","2017/08/31 18:39:27","新北市深坑區翠谷街81巷6號","121.62805","25.0093166666667","6501800","深坑區"
"222002","659-BX","2017/08/31 18:39:38","新北市深坑區雲鄉路28號","121.621488333333","24.999735","6501800","深坑區"
"222001","696-SL","2017/08/31 18:39:32","新北市深坑區北深路一段82號","121.636355","25.01071","6501800","深坑區"
"231059","001-UM","2017/08/31 18:39:30","新北市新店區安華路28-1號","121.519486666667","24.96088","6500600","新店區"
"231041","002-UM","2017/08/31 18:39:41","新北市新店區安華路28-1號","121.519798333333","24.9607433333333","6500600","新店區"
"231061","047-UY","2017/08/31 18:39:24","新北市新店區安華路28-1號","121.519253333333","24.960855","6500600","新店區"
"231060","106-UY","2017/08/31 18:39:39","新北市新店區安華路28-1號","121.519683333333","24.9607783333333","6500600","新店區"
"231051","107-UY","2017/08/31 18:39:35","新北市新店區安康路一段355-10號","121.520291666667","24.9638166666667","6500600","新店區"
"231047","108-UY","2017/08/31 18:39:39","新北市新店區光明街195號","121.539898333333","24.9635083333333","6500600","新店區"
"231052","187-VK","2017/08/31 18:39:32","新北市新店區永興路9號","121.544376666667","24.93944","6500600","新店區"
"231069","189-VK","2017/08/31 09:49:08","新北市新店區新潭路三段215巷25號","121.50812","24.9040766666667","6500600","新店區"
"231057","256-BX","2017/08/31 18:39:30","新北市新店區新烏路一段215號","121.549126666667","24.9314633333333","6500600","新店區"
"231046","278-BY","2017/08/31 18:39:34","新北市新店區直潭二街1號","121.535551666667","24.9431983333333","6500600","新店區"
"231050","AAD-862","2017/08/31 18:39:29","新北市新店區安華路28-1號","121.519753333333","24.9612066666667","6500600","新店區"
"231058","3712-VJ","2017/08/31 18:39:39","新北市新店區新店路13號","121.540381666667","24.9528716666667","6500600","新店區"
"231055","3713-VJ","2017/08/31 18:39:32","新北市新店區華興街6號","121.537946666667","24.9698966666667","6500600","新店區"
"231056","4716-K9","2017/08/31 18:39:39","新北市新店區自立街58號","121.537798333333","24.9793633333333","6500600","新店區"
"231067","4772-VM","2017/08/31 18:39:22","新北市新店區安華路1-1號","121.519148333333","24.960445","6500600","新店區"
"231065","512-UM","2017/08/31 18:39:26","新北市新店區安華路28-1號","121.519211666667","24.961005","6500600","新店區"
"231054","513-UM","2017/08/31 18:39:24","新北市新店區安華路28-1號","121.519688333333","24.96108","6500600","新店區"
"231064","515-UM","2017/08/31 18:39:23","新北市新店區安華路28-1號","121.519401666667","24.9610783333333","6500600","新店區"
"231042","616-UM","2017/08/31 18:39:26","新北市新店區安康路一段214號","121.524031666667","24.963545","6500600","新店區"
"231040","619-UM","2017/08/31 18:39:22","新北市新店區安華路28-1號","121.519601666667","24.9606016666667","6500600","新店區"
"231063","645-TV","2017/08/31 18:39:22","新北市新店區安華路1-1號","121.519371666667","24.96041","6500600","新店區"
"231049","719-UM","2017/08/31 18:39:36","新北市新店區安康路一段70號","121.52841","24.9618183333333","6500600","新店區"
"231062","720-UM","2017/08/31 18:39:23","新北市新店區安華路28-1號","121.519063333333","24.9611866666667","6500600","新店區"
"231044","897-TW","2017/08/31 18:39:28","新北市新店區安康路一段75-1號","121.530065","24.961115","6500600","新店區"
"231045","898-TW","2017/08/31 18:39:33","新北市新店區安華路28-1號","121.519353333333","24.9610816666667","6500600","新店區"
"231043","899-TW","2017/08/31 18:39:23","新北市新店區安華路28-1號","121.519191666667","24.9608133333333","6500600","新店區"
"231066","AKT-0513","2017/08/31 18:39:28","新北市新店區安華路1-1號","121.519465","24.9603516666667","6500600","新店區"
"235066","003-UY","2017/08/31 18:39:25","新北市中和區水源路33號","121.504306666667","25.0035716666667","6500300","中和區"
"235063","006-UY","2017/08/31 18:39:22","新北市中和區中正路700號","121.486151666667","24.996315","6500300","中和區"
"235064","031-BX","2017/08/31 18:39:24","新北市中和區連城路139巷3號","121.496061666667","24.9985833333333","6500300","中和區"
"235056","096-UM","2017/08/31 18:39:29","新北市中和區員山路611巷1號","121.477896666667","25.011275","6500300","中和區"
"235039","097-UM","2017/08/31 18:39:28","新北市中和區安樂路185號","121.515006666667","24.99804","6500300","中和區"
"235040","150-BY","2017/08/31 18:39:41","新北市中和區宜安路49號","121.511881666667","24.9965533333333","6500300","中和區"
"235058","151-BY","2017/08/31 18:39:35","新北市中和區圓通路369巷35號","121.488871666667","24.9871433333333","6500300","中和區"
"235055","183-VK","2017/08/31 03:53:50","新北市中和區員山路36巷16-3號","121.485025","24.9913933333333","6500300","中和區"
"235038","185-VK","2017/08/31 18:39:33","新北市中和區自強路20號","121.520233333333","24.9954116666667","6500300","中和區"
"235049","186-VK","2017/08/31 18:39:36","新北市中和區景平路480號","121.505118333333","24.9936916666667","6500300","中和區"
"235067","255-BX","2017/08/31 18:39:42","新北市中和區中山路二段479號","121.483101666667","25.004785","6500300","中和區"
"235044","293-VK","2017/08/31 18:39:29","新北市中和區景安路220巷1弄3號","121.503275","24.9906066666667","6500300","中和區"
"235072","301-VK","2017/08/31 18:39:27","新北市中和區景平路597號","121.496958333333","25.0004716666667","6500300","中和區"
"235043","352-BY","2017/08/31 18:39:34","新北市中和區景平路105號","121.516928333333","24.9917066666667","6500300","中和區"
"235051","376-QA","2017/08/31 18:39:20","新北市中和區興南路二段114巷12號","121.504016666667","24.9845633333333","6500300","中和區"
"235068","377-QA","2017/08/31 18:39:28","新北市中和區中正路221號","121.496158333333","24.993755","6500300","中和區"
"235061","378-QA","2017/08/31 18:39:25","新北市中和區民享街90巷20號","121.473583333333","25.000125","6500300","中和區"
"235050","4979-A6","2017/08/31 18:39:29","新北市中和區景新街496巷35弄1號","121.51351","24.9856633333333","6500300","中和區"
"235069","4980-A6","2017/08/31 18:39:21","新北市中和區連城路87號","121.49688","25.0004633333333","6500300","中和區"
"235042","551-UM","2017/08/31 18:39:18","新北市中和區成功路97巷5弄2號","121.52655","24.9925516666667","6500300","中和區"
"235070","558-UM","2017/08/31 18:39:34","新北市中和區南華路61號","121.504418333333","24.9970733333333","6500300","中和區"
"235045","565-BX","2017/08/31 18:39:38","新北市中和區復興路12號","121.505895","24.989805","6500300","中和區"
"235054","640-BX","2017/08/31 18:39:28","新北市中和區民享街91-9號","121.474546666667","25.00093","6500300","中和區"
"235060","647-TV","2017/08/31 18:39:39","新北市中和區員山路390號","121.480491666667","25.0045066666667","6500300","中和區"
"235047","732-UM","2017/08/31 18:39:28","新北市中和區興南路二段30巷10號","121.507093333333","24.986195","6500300","中和區"
"235046","733-UM","2017/08/31 18:39:27","新北市中和區捷運路57號","121.509323333333","24.98958","6500300","中和區"
"235062","800-TS","2017/08/31 18:39:23","新北市中和區中山路二段312巷12號","121.495375","25.00367","6500300","中和區"
"235057","801-TS","2017/08/31 18:39:22","新北市中和區民安街42巷36號","121.479028333333","25.0010983333333","6500300","中和區"
"235052","805-TS","2017/08/31 18:39:27","新北市中和區興南路三段42-3號","121.495668333333","24.9771316666667","6500300","中和區"
"235048","896-TW","2017/08/31 18:39:32","新北市中和區南山路231號","121.50355","24.9932466666667","6500300","中和區"
"235053","900-TW","2017/08/31 18:39:21","新北市中和區民享街467號","121.469836666667","24.99248","6500300","中和區"
"235037","AAC-213","2017/08/31 18:39:21","新北市中和區景平路111巷52號","121.51538","24.990395","6500300","中和區"
"235059","AAC-215","2017/08/31 18:39:26","新北市中和區連城路275號","121.490598333333","24.99628","6500300","中和區"
"220065","072-UY","2017/08/31 18:39:30","新北市板橋區華東街1-10號","121.448718333333","24.99478","6500100","板橋區"
"220086","073-UY","2017/08/31 18:39:32","新北市板橋區南雅西路二段192巷1弄3號","121.452008333333","25.0145216666667","6500100","板橋區"
"220102","120-SR","2017/08/31 18:39:22","新北市板橋區民生路二段161巷1號","121.470255","25.020005","6500100","板橋區"
"226004","312-R5","2017/08/31 18:39:32","新北市平溪區平溪里三坑路49-1號","121.731786666667","25.0335216666667","6502400","平溪區"
"228003","097-TW","2017/08/31 18:39:37","新北市貢寮區和美里龍洞街35-2號","121.916846666667","25.1116983333333","6502600","貢寮區"
"228001","212-TW","2017/08/31 18:39:31","新北市貢寮區仁理村研海街12-1號","121.923891666667","25.0516633333333","6502600","貢寮區"
"228002","585-TW","2017/08/31 18:39:37","新北市貢寮區福隆里東興街6-11號","121.950753333333","25.021075","6502600","貢寮區"
"224010","AGQ-8101","2017/08/31 18:35:13","新北市瑞芳區崙頂路43號","121.844738333333","25.1072683333333","6501200","瑞芳區"
"224006","676-BX","2017/08/31 18:39:26","新北市瑞芳區明燈路三段86號","121.805643333333","25.1082583333333","6501200","瑞芳區"
"224002","639-TC","2017/08/31 18:39:28","新北市瑞芳區中山路251號","121.797593333333","25.1097083333333","6501200","瑞芳區"
"224009","285-BY","2017/08/31 18:39:38","新北市瑞芳區祈堂路233號","121.856555","25.108795","6501200","瑞芳區"
"224008","275-VK","2017/08/31 18:39:22","新北市瑞芳區瑞芳街21號","121.806538333333","25.1095133333333","6501200","瑞芳區"
"224007","273-VK","2017/08/31 18:39:39","新北市瑞芳區大埔路93號","121.76371","25.101305","6501200","瑞芳區"
"224005","271-BY","2017/08/31 18:39:35","新北市瑞芳區永龍新村1號","121.819406666667","25.1196816666667","6501200","瑞芳區"
"227004","642-TC","2017/08/31 18:39:30","新北市雙溪區魚行里坤溪3-5號","121.875876666667","25.0211333333333","6502500","雙溪區"
"227010","400-TW","2017/08/31 18:39:24","新北市雙溪區牡丹里下坑11號","121.851016666667","25.0561816666667","6502500","雙溪區"
"253006","032-BX","2017/08/31 18:39:34","新北市石門區崁子腳1-1號","121.531835","25.2880216666667","6502200","石門區"
"253005","295-VK","2017/08/31 18:39:33","新北市石門區石門街3號","121.565888333333","25.2910333333333","6502200","石門區"
"208002","742-BX","2017/08/31 18:39:33","新北市金山區忠孝一路15巷11號","121.63836","25.2187266666667","6502700","金山區"
"208003","665-BX","2017/08/31 18:39:29","新北市金山區中山路346號","121.633403333333","25.2253183333333","6502700","金山區"
"208001","761-BX","2017/08/31 18:39:23","新北市金山區文化三路26號","121.635738333333","25.2246","6502700","金山區"
"251004","009-UM","2017/08/31 18:39:40","新北市淡水區中正東路二段143巷2弄1號","121.460705","25.14734","6501000","淡水區"
"251008","181-VK","2017/08/31 18:39:18","新北市淡水區北投子17-3號","121.453356666667","25.1831033333333","6501000","淡水區"
"251014","182-VK","2017/08/31 18:39:25","新北市淡水區崙頂12-8號","121.495566666667","25.2172266666667","6501000","淡水區"
"251010","413-VK","2017/08/31 18:39:19","新北市淡水區沙崙路122號","121.423388333333","25.1826833333333","6501000","淡水區"
"251012","441-VK","2017/08/31 18:39:34","新北市淡水區北新路121號","121.448901666667","25.1786883333333","6501000","淡水區"
"251016","442-VK","2017/08/31 18:39:22","新北市淡水區下圭柔山83號","121.437846666667","25.2054033333333","6501000","淡水區"
"251001","559-UM","2017/08/31 18:39:26","新北市淡水區自強路415巷2號","121.46548","25.13425","6501000","淡水區"
"251006","561-UM","2017/08/31 18:39:29","新北市淡水區崁頂64號","121.438866666667","25.2008383333333","6501000","淡水區"
"251011","650-BX","2017/08/31 18:39:40","新北市淡水區鄧公路36巷7號","121.456651666667","25.1690866666667","6501000","淡水區"
"251002","672-BX","2017/08/31 18:39:31","新北市淡水區中正東路71-4號","121.447355","25.1675266666667","6501000","淡水區"
"251003","766-UM","2017/08/31 18:39:24","新北市淡水區中山北路一段212巷34號","121.446106666667","25.179245","6501000","淡水區"
"207003","550-UM","2017/08/31 18:39:39","新北市萬里區大鵬里頂社2-1號","121.660376666667","25.2072366666667","6502800","萬里區"
"207004","225-TW","2017/08/31 18:39:21","新北市萬里區萬里里獅頭路7號","121.692005","25.1783383333333","6502800","萬里區"
"252002","178-VK","2017/08/31 18:39:19","新北市三芝區民生街54巷4號","121.503856666667","25.25542","6502100","三芝區"
"252003","249-BX","2017/08/31 18:39:33","新北市三芝區後厝里土地公坑54-17號","121.465746666667","25.249495","6502100","三芝區"
"252001","292-VK","2017/08/31 18:39:20","新北市三芝區中興街二段50號","121.499563333333","25.2549683333333","6502100","三芝區"
"237004","078-UY","2017/08/31 18:39:24","新北市三峽區金敏17號","121.39221","24.8739383333333","6500900","三峽區"
"237007","153-BY","2017/08/31 18:39:32","新北市三峽區柑樹路2巷5號","121.362213333333","24.905505","6500900","三峽區"
"237009","210-TH","2017/08/31 18:39:34","新北市三峽區大同路254號","121.36591","24.92536","6500900","三峽區"
"237013","252-BX","2017/08/31 18:39:40","新北市三峽區光明路69巷25號","121.37672","24.929305","6500900","三峽區"
"237012","275-BY","2017/08/31 18:39:23","新北市三峽區三樹路306號","121.381128333333","24.9440116666667","6500900","三峽區"
"237008","302-VK","2017/08/31 18:39:35","新北市三峽區白雞129-1號","121.396115","24.90829","6500900","三峽區"
"237014","433-BY","2017/08/31 18:39:25","新北市三峽區復興路174巷2號","121.370525","24.9384816666667","6500900","三峽區"
"237006","5529-G3","2017/08/31 18:39:20","新北市三峽區溪東路281號","121.409095","24.931305","6500900","三峽區"
"237011","572-TV","2017/08/31 18:39:25","新北市三峽區溪東路5號","121.399271666667","24.9352216666667","6500900","三峽區"
"237016","649-BX","2017/08/31 18:39:38","新北市三峽區成福路282巷2號","121.428436666667","24.9233","6500900","三峽區"
"237010","706-TV","2017/08/31 18:39:20","新北市三峽區復興路355號","121.363871666667","24.9387183333333","6500900","三峽區"
"237014","756-BX","2017/08/31 15:38:10","新北市三峽區中山路459巷163-3號","121.348888333333","24.9331033333333","6500900","三峽區"
"237005","AKY-6261","2017/08/31 18:39:21","新北市三峽區民生街104巷15號","121.373563333333","24.9360416666667","6500900","三峽區"
"236071","105-UM","2017/08/31 18:39:36","新北市土城區永豐路157巷29弄6-1號","121.468363333333","24.9814766666667","6501300","土城區"
"236042","107-UM","2017/08/31 18:39:35","新北市土城區學成路108巷11號","121.450138333333","24.9897283333333","6501300","土城區"
"236078","166-UM","2017/08/31 18:39:20","新北市土城區頂埔街57號","121.417188333333","24.9592983333333","6501300","土城區"
"236030","253-BX","2017/08/31 18:39:27","新北市土城區福仁街65號","121.439513333333","24.974625","6501300","土城區"
"236026","269-VK","2017/08/31 18:39:40","新北市土城區忠義路49號","121.440495","24.96913","6501300","土城區"
"236014","270-VK","2017/08/31 18:39:20","新北市土城區清水路207巷25號","121.459733333333","24.9826466666667","6501300","土城區"
"236037","271-VK","2017/08/31 18:39:38","新北市土城區青山路59號","121.463725","24.9752666666667","6501300","土城區"
"236021","401-BY","2017/08/31 18:39:39","新北市土城區延吉街327-1號","121.465518333333","24.9841583333333","6501300","土城區"
"236058","912-UM","2017/08/31 18:39:37","新北市土城區中央路四段76-3號","121.41907","24.9594683333333","6501300","土城區"
"236051","913-UM","2017/08/31 18:39:26","新北市土城區明德路一段95號","121.465633333333","24.9831166666667","6501300","土城區"
"236062","915-UM","2017/08/31 18:39:37","新北市土城區延和路177巷11弄2號","121.469905","24.9906716666667","6501300","土城區"
"236053","AAC-216","2017/08/31 18:39:32","新北市土城區中華路一段181號","121.443496666667","24.985705","6501300","土城區"
"242046","441-UM","2017/08/31 18:39:35","新北市樹林區俊興街242號","121.418086666667","25.016045","6500500","新莊區"
"242061","362-BY","2017/08/31 18:39:31","新北市新莊區民安西路13號","121.42674","25.0215283333333","6500500","新莊區"
"242058","353-BY","2017/08/31 18:39:31","新北市新莊區中正路881-12號","121.41729","25.0251733333333","6500500","新莊區"
"242004","132-UY","2017/08/31 18:39:27","新北市新莊區自由街6號","121.455805","25.04784","6500500","新莊區"
"242044","172-VK","2017/08/31 18:39:37","新北市新莊區中正路692-8號","121.419763333333","25.0283733333333","6500500","新莊區"
"242053","349-TH","2017/08/31 18:39:35","新北市板橋區大觀路三段59巷17弄7號","121.434591666667","24.995385","6500500","新莊區"
"238015","755-BX","2017/08/31 18:39:18","新北市樹林區備內街79號","121.409128333333","24.9895866666667","6500700","樹林區"
"238023","601-UM","2017/08/31 18:39:31","新北市樹林區三福街114號","121.406423333333","25.016315","6500700","樹林區"
"238019","599-UM","2017/08/31 18:39:20","新北市樹林區東榮街147巷27弄1號","121.414755","24.9807066666667","6500700","樹林區"
"238018","571-TV","2017/08/31 18:39:30","新北市樹林區樹新路86號","121.429436666667","24.99743","6500700","樹林區"
"238024","5061-A6","2017/08/31 18:39:36","新北市樹林區太順街79巷17號","121.417083333333","24.9780566666667","6500700","樹林區"
"238025","303-VK","2017/08/31 18:39:36","新北市樹林區中山路三段174號","121.388643333333","24.96989","6500700","樹林區"
"238017","283-BY","2017/08/31 18:39:23","新北市樹林區光榮街20號","121.411993333333","25.0037116666667","6500700","樹林區"
"238014","282-BY","2017/08/31 18:39:21","新北市樹林區中山路三段210-2號","121.381496666667","24.965545","6500700","樹林區"
"238020","268-VK","2017/08/31 02:04:22","新北市樹林區中山路三段204號","121.386883333333","24.9683183333333","6500700","樹林區"
"238026","172-UY","2017/08/31 18:39:32","新北市樹林區中山路三段206-1號","121.384766666667","24.9676566666667","6500700","樹林區"
"238016","169-UY","2017/08/31 18:39:20","新北市樹林區文化街28號","121.419315","24.98773","6500700","樹林區"
"239007","AAC-297","2017/08/31 18:39:39","新北市鶯歌區中正一路461-2號","121.363206666667","24.956655","6500800","鶯歌區"
"239008","527-UM","2017/08/31 18:39:33","新北市鶯歌區國際一路179號","121.336213333333","24.9764783333333","6500800","鶯歌區"
"239005","526-UM","2017/08/31 18:39:20","新北市鶯歌區鳳吉三街31巷1號","121.327436666667","24.9740233333333","6500800","鶯歌區"
"239001","417-VK","2017/08/31 18:39:21","新北市鶯歌區國中街195號","121.338278333333","24.9391516666667","6500800","鶯歌區"
"239003","360-BY","2017/08/31 18:39:37","新北市鶯歌區永和街178號","121.336196666667","24.97049","6500800","鶯歌區"
"239002","359-BY","2017/08/31 18:39:22","新北市鶯歌區中正一路230號","121.353985","24.956935","6500800","鶯歌區"
"239004","193-VK","2017/08/31 18:39:35","新北市鶯歌區中正三路156巷31號","121.333371666667","24.9396633333333","6500800","鶯歌區"
"221036","130-UY","2017/08/31 18:39:29","新北市汐止區橋東街46號","121.665758333333","25.0751966666667","6501100","汐止區"
"221015","131-UY","2017/08/31 18:39:39","新北市汐止區吉祥街12巷12號","121.668855","25.0805033333333","6501100","汐止區"
"221010","269-BY","2017/08/31 18:39:36","新北市汐止區汐萬路三段235號","121.643701666667","25.1051683333333","6501100","汐止區"
"221012","276-VK","2017/08/31 13:24:39","新北市汐止區汐萬路一段256巷3號","121.653478333333","25.0746316666667","6501100","汐止區"
"221031","277-VK","2017/08/31 18:39:21","新北市汐止區大同路一段290號","121.635075","25.0578016666667","6501100","汐止區"
"221012","278-VK","2017/08/31 18:39:24","新北市汐止區鄉長路二段12號","121.668723333333","25.0810433333333","6501100","汐止區"
"221023","279-VK","2017/08/31 18:39:35","新北市汐止區伯爵街2巷21號","121.642718333333","25.0755383333333","6501100","汐止區"
"221032","280-BY","2017/08/31 18:39:26","新北市汐止區民權街二段79號","121.619185","25.0480166666667","6501100","汐止區"
"221027","281-BY","2017/08/31 18:39:27","新北市汐止區和平街21號","121.66279","25.0707266666667","6501100","汐止區"
"221038","297-VK","2017/08/31 18:39:23","新北市汐止區汐萬路一段153號","121.653246666667","25.0710366666667","6501100","汐止區"
"221029","298-VK","2017/08/31 18:39:23","新北市汐止區樟樹一路142號","121.642251666667","25.06503","6501100","汐止區"
"221021","299-VK","2017/08/31 18:39:34","新北市汐止區復興路53巷2號","121.656896666667","25.06257","6501100","汐止區"
"221008","358-BY","2017/08/31 18:39:34","新北市汐止區康寧街901號","121.651425","25.0750433333333","6501100","汐止區"
"221035","622-UM","2017/08/31 18:39:33","新北市汐止區大同路二段278號","121.654813333333","25.0662833333333","6501100","汐止區"
"221025","623-UM","2017/08/31 18:39:28","新北市汐止區仁愛路119巷25號","121.662036666667","25.0643666666667","6501100","汐止區"
"221033","647-BX","2017/08/31 18:39:34","新北市汐止區南勢街1巷1號","121.627068333333","25.0374433333333","6501100","汐止區"
"221002","707-TV","2017/08/31 18:39:27","新北市汐止區中興路25號","121.636945","25.0596216666667","6501100","汐止區"
"221018","753-BX","2017/08/31 18:39:20","新北市汐止區茄苳路277號","121.672306666667","25.0679533333333","6501100","汐止區"
"220079","145-BY","2017/08/31 18:39:32","新北市板橋區大觀路一段31號","121.449796666667","25.008475","6500100","板橋區"
"220080","200-UY","2017/08/31 18:39:34","新北市板橋區華東街1-10號","121.448368333333","24.9950933333333","6500100","板橋區"
"220082","610-BX","2017/08/31 18:39:21","新北市板橋區華東街1-10號","121.448286666667","24.994885","6500100","板橋區"
"220075","256-TC","2017/08/31 18:39:32","新北市板橋區板城路421號","121.448088333333","24.9956483333333","6500100","板橋區"
"220056","276-BY","2017/08/31 18:39:38","新北市板橋區四川路二段113號","121.451586666667","24.99435","6500100","板橋區"
"220072","277-BY","2017/08/31 18:39:38","新北市板橋區四川路二段橋頭1號","121.446415","24.9941333333333","6500100","板橋區"
"220094","283-UM","2017/08/31 18:39:36","新北市板橋區民生路二段161巷1號","121.47","25.019815","6500100","板橋區"
"220071","283-VK","2017/08/31 18:39:27","新北市板橋區華東街1-9號","121.448021666667","24.99487","6500100","板橋區"
"220053","285-VK","2017/08/31 18:39:34","新北市板橋區民生路二段120號","121.470573333333","25.0196933333333","6500100","板橋區"
"220081","287-VK","2017/08/31 18:39:32","新北市板橋區華東街1-8號","121.447715","24.9948683333333","6500100","板橋區"
"220090","288-VK","2017/08/31 18:39:27","新北市板橋區民生路二段161巷3號","121.470196666667","25.0197816666667","6500100","板橋區"
"220061","293-UM","2017/08/31 18:39:30","新北市板橋區民生路二段120號","121.470446666667","25.0196416666667","6500100","板橋區"
"220084","296-UM","2017/08/31 18:39:23","新北市板橋區華東街1-8號","121.447881666667","24.99479","6500100","板橋區"
"220062","303-R5","2017/08/31 18:39:25","新北市板橋區民生路二段161巷9號","121.4702","25.01957","6500100","板橋區"
"220098","317-R6","2017/08/31 16:50:32","新北市板橋區民生路二段161巷5號","121.470206666667","25.0197416666667","6500100","板橋區"
"220064","486-VK","2017/08/31 18:39:20","新北市板橋區民生路二段36-1號","121.472048333333","25.0169416666667","6500100","板橋區"
"220035","560-BX","2017/08/31 18:39:28","新北市板橋區南雅西路二段145巷6號","121.451621666667","25.0118333333333","6500100","板橋區"
"220103","561-BX","2017/08/31 18:39:27","新北市板橋區民生路二段161巷1號","121.47004","25.019845","6500100","板橋區"
"220083","630-UY","2017/08/31 18:39:20","新北市板橋區華東街1-10號","121.448251666667","24.9950216666667","6500100","板橋區"
"220057","686-BX","2017/08/31 18:39:29","新北市板橋區華東街1-9號","121.448181666667","24.9948783333333","6500100","板橋區"
"220077","687-BX","2017/08/31 18:39:39","新北市板橋區華東街1-8號","121.447736666667","24.9948483333333","6500100","板橋區"
"220054","741-BX","2017/08/31 18:39:23","新北市板橋區華東街1-9號","121.448148333333","24.9948933333333","6500100","板橋區"
"220055","827-TW","2017/08/31 18:39:40","新北市板橋區板城路407號","121.447476666667","24.9952366666667","6500100","板橋區"
"220067","829-TW","2017/08/31 18:39:32","新北市板橋區民生路二段161巷9號","121.470186666667","25.019555","6500100","板橋區"
"220074","895-R6","2017/08/31 18:39:26","新北市板橋區華東街1-9號","121.44819","24.9950066666667","6500100","板橋區"
"220073","985-R7","2017/08/31 18:39:32","新北市板橋區華東街1-10號","121.448578333333","24.9949033333333","6500100","板橋區"
"220070","AAC-253","2017/08/31 18:39:23","新北市板橋區華東街1-9號","121.448253333333","24.9948633333333","6500100","板橋區"
