"lineid","car","time","location","longitude","latitude","cityid","cityname"
"234046","148-BY","2017/08/31 18:49:31","新北市永和區秀朗路二段148巷12弄15號","121.524681666667","25.0009016666667","6500400","永和區"
"234013","149-BY","2017/08/31 18:49:24","新北市永和區保福路二段131號","121.509813333333","25.0138916666667","6500400","永和區"
"234007","207-UY","2017/08/31 18:49:28","新北市永和區文化路10號","121.51549","25.0150783333333","6500400","永和區"
"234081","298-R6","2017/08/31 18:49:32","新北市永和區林森路112巷9弄1號","121.522283333333","25.004235","6500400","永和區"
"234038","336-UY","2017/08/31 18:49:34","新北市永和區成功路二段177-1號","121.526661666667","24.996745","6500400","永和區"
"234064","337-UY","2017/08/31 18:49:24","新北市永和區福和路1號","121.52506","25.0089216666667","6500400","永和區"
"234086","338-UY","2017/08/31 18:49:35","新北市永和區中正路7號","121.51399","24.995635","6500400","永和區"
"234070","552-UM","2017/08/31 18:49:29","新北市永和區中興街84巷8號","121.518536666667","25.0116633333333","6500400","永和區"
"234054","553-UM","2017/08/31 18:49:37","新北市永和區竹林路66巷2號","121.51824","25.01336","6500400","永和區"
"234017","745-BX","2017/08/31 18:49:31","新北市永和區永和路二段303號","121.515958333333","25.0164533333333","6500400","永和區"
"234030","746-BX","2017/08/31 18:49:22","新北市永和區得和路361號","121.524656666667","24.9994533333333","6500400","永和區"
"234061","AAD-866","2017/08/31 18:49:18","新北市永和區福和路307號","121.516225","25.0071333333333","6500400","永和區"
"234042","862-TW","2017/08/31 18:49:37","新北市永和區永貞路267號","121.511843333333","25.0047733333333","6500400","永和區"
"234050","863-TW","2017/08/31 18:49:35","新北市永和區環河西路一段101號","121.511055","25.017815","6500400","永和區"
"234026","9371-KE","2017/08/31 18:49:28","新北市永和區中山路一段320號","121.506696666667","25.007095","6500400","永和區"
"234011","9373-KE","2017/08/31 18:49:22","新北市永和區文化路124號","121.513085","25.015385","6500400","永和區"
"249005","172-UM","2017/08/31 18:49:23","新北市八里區長道坑16-2號","121.395146666667","25.1170233333333","6502300","八里區"
"249001","173-UM","2017/08/31 18:49:34","新北市八里區龍米路二段30號","121.448635","25.1398066666667","6502300","八里區"
"249004","303-UY","2017/08/31 18:49:23","新北市八里區中山路一段150巷80號","121.41595","25.1603533333333","6502300","八里區"
"248014","025-BX","2017/08/31 18:49:33","新北市五股區民義路一段107巷21號","121.432911666667","25.0850783333333","6501500","五股區"
"248016","026-BX","2017/08/31 18:49:26","新北市五股區凌雲路一段133巷22號","121.449226666667","25.1015866666667","6501500","五股區"
"248006","077-UY","2017/08/31 18:49:30","新北市五股區中興路一段171巷63號","121.465608333333","25.0706","6501500","五股區"
"248008","095-VK","2017/08/31 18:49:23","新北市五股區中興路一段151巷13號","121.465215","25.0726216666667","6501500","五股區"
"248012","247-BX","2017/08/31 18:49:23","新北市五股區成泰路二段147巷34-1號","121.437066666667","25.0884183333333","6501500","五股區"
"248020","261-SL","2017/08/31 18:49:37","新北市五股區凌雲路三段41-2號","121.42987","25.1180766666667","6501500","五股區"
"248010","272-BY","2017/08/31 18:49:39","新北市五股區水碓七路81號","121.42971","25.0722116666667","6501500","五股區"
"248004","677-BX","2017/08/31 18:49:36","新北市五股區民義路二段46-6號","121.413606666667","25.101705","6501500","五股區"
"248002","678-BX","2017/08/31 18:49:34","新北市五股區成泰路三段454號","121.451463333333","25.1003916666667","6501500","五股區"
"248010","682-TV","2017/08/31 15:57:30","新北市五股區中興路二段63巷17號","121.460178333333","25.0756133333333","6501500","五股區"
"234023","9380-KE","2017/08/31 18:49:22","新北市永和區竹林路119巷45號","121.521896666667","25.0118533333333","6500400","永和區"
"234077","969-R7","2017/08/31 18:49:30","新北市永和區中正路2巷29弄2-2號","121.513858333333","24.993785","6500400","永和區"
"234067","AAC-212","2017/08/31 18:49:18","新北市永和區永和路一段7號","121.512916666667","25.0052916666667","6500400","永和區"
"234003","AAC-295","2017/08/31 18:49:36","新北市永和區中正路748號","121.514795","25.0102933333333","6500400","永和區"
"232011","375-UM","2017/08/31 18:49:21","新北市坪林區坪碇路71號","121.71146","24.9376016666667","6502000","坪林區"
"244007","080-UY","2017/08/31 18:49:26","新北市林口區湖北里55號","121.384965","25.1064266666667","6501700","林口區"
"244019","403-UM","2017/08/31 18:49:26","新北市林口區忠孝路646巷12號","121.379065","25.0679566666667","6501700","林口區"
"244009","410-SL","2017/08/31 18:49:38","新北市林口區竹林路320巷6號","121.390783333333","25.0821416666667","6501700","林口區"
"244017","656-BX","2017/08/31 18:49:24","新北市林口區文化二路一段68巷18-2號","121.366143333333","25.0677516666667","6501700","林口區"
"244023","657-BX","2017/08/31 18:49:20","新北市林口區文化三路二段77巷39號","121.373051666667","25.0802866666667","6501700","林口區"
"244013","658-BX","2017/08/31 18:49:19","新北市林口區文化一路一段223號","121.37912","25.0757366666667","6501700","林口區"
"244011","701-TV","2017/08/31 18:49:30","新北市林口區仁愛路一段285巷38號","121.395546666667","25.0750333333333","6501700","林口區"
"244025","837-TS","2017/08/31 18:49:32","新北市林口區忠孝一路174號","121.359126666667","25.0740166666667","6501700","林口區"
"243013","AAD-798","2017/08/31 18:49:27","新北市泰山區明志路三段206巷3號","121.423286666667","25.0378816666667","6501600","泰山區"
"243009","297-R6","2017/08/31 18:49:24","新北市泰山區黎明路25號","121.421998333333","25.0606616666667","6501600","泰山區"
"243015","380-SR","2017/08/31 18:49:25","新北市泰山區美寧街57巷37弄2號","121.429485","25.0650933333333","6501600","泰山區"
"243012","646-TV","2017/08/31 18:49:38","新北市泰山區福興三街13號","121.434476666667","25.0576766666667","6501600","泰山區"
"243016","680-BX","2017/08/31 18:49:31","新北市泰山區明志路二段129號","121.42779","25.0511483333333","6501600","泰山區"
"222003","436-BY","2017/08/31 18:49:27","新北市深坑區翠谷街17巷30號","121.62593","25.0097683333333","6501800","深坑區"
"222002","659-BX","2017/08/31 18:49:38","新北市深坑區文山路一段69號","121.626983333333","25.001875","6501800","深坑區"
"222001","696-SL","2017/08/31 18:49:32","新北市深坑區松柏街42號","121.63875","25.0115433333333","6501800","深坑區"
"231059","001-UM","2017/08/31 18:49:30","新北市新店區安華路28-1號","121.519415","24.9608033333333","6500600","新店區"
"231041","002-UM","2017/08/31 18:49:21","新北市新店區安華路28-1號","121.519743333333","24.9608666666667","6500600","新店區"
"231061","047-UY","2017/08/31 18:49:24","新北市新店區安和路一段2-3號","121.516978333333","24.9644283333333","6500600","新店區"
"231060","106-UY","2017/08/31 18:49:39","新北市新店區安華路28-1號","121.519585","24.9608083333333","6500600","新店區"
"231051","107-UY","2017/08/31 18:49:35","新北市新店區環河路120號","121.536536666667","24.9685316666667","6500600","新店區"
"231047","108-UY","2017/08/31 18:49:39","新北市新店區德正街23巷4號","121.544251666667","24.97196","6500600","新店區"
"231052","187-VK","2017/08/31 18:49:32","新北市新店區新烏路一段100-2號","121.54605","24.9370983333333","6500600","新店區"
"231069","189-VK","2017/08/31 09:49:08","新北市新店區新潭路三段215巷25號","121.50812","24.9040766666667","6500600","新店區"
"231046","278-BY","2017/08/31 18:49:34","新北市新店區直潭路57號","121.532985","24.94244","6500600","新店區"
"231050","AAD-862","2017/08/31 18:49:29","新北市新店區安康路一段50-1號","121.529561666667","24.96143","6500600","新店區"
"231058","3712-VJ","2017/08/31 18:49:19","新北市新店區北宜路一段107號","121.53938","24.95533","6500600","新店區"
"231055","3713-VJ","2017/08/31 18:49:32","新北市新店區新生街55號","121.538931666667","24.9669283333333","6500600","新店區"
"231056","4716-K9","2017/08/31 18:49:39","新北市新店區大豐路68巷5號","121.538875","24.9799516666667","6500600","新店區"
"231067","4772-VM","2017/08/31 18:49:24","新北市新店區安康路一段76巷28-1號","121.52808","24.9631783333333","6500600","新店區"
"231065","512-UM","2017/08/31 18:49:26","新北市新店區安豐路48號","121.500248333333","24.95409","6500600","新店區"
"231054","513-UM","2017/08/31 18:49:24","新北市新店區北新路一段41號","121.53807","24.9592933333333","6500600","新店區"
"231064","515-UM","2017/08/31 18:49:23","新北市新店區安華路28-1號","121.519595","24.960965","6500600","新店區"
"231042","616-UM","2017/08/31 18:49:26","新北市新店區中正路71號","121.543483333333","24.969915","6500600","新店區"
"231040","619-UM","2017/08/31 18:49:22","新北市新店區力行路15號","121.537046666667","24.9652033333333","6500600","新店區"
"231063","645-TV","2017/08/31 18:49:22","新北市新店區車子路115號","121.505401666667","24.9533883333333","6500600","新店區"
"231049","719-UM","2017/08/31 18:49:36","新北市新店區中正路454-5號","121.534488333333","24.9790666666667","6500600","新店區"
"231062","720-UM","2017/08/31 18:49:23","新北市新店區安忠路57巷11弄2號","121.514023333333","24.9576916666667","6500600","新店區"
"231044","897-TW","2017/08/31 18:49:28","新北市新店區中正路31號","121.54515","24.9696183333333","6500600","新店區"
"231045","898-TW","2017/08/31 18:49:33","新北市新店區安康路一段355號","121.519998333333","24.9636333333333","6500600","新店區"
"231043","899-TW","2017/08/31 18:49:23","新北市新店區安康路一段83-2號","121.529576666667","24.9613833333333","6500600","新店區"
"231066","AKT-0513","2017/08/31 18:49:28","新北市新店區安豐路49號","121.500021666667","24.9540166666667","6500600","新店區"
"235066","003-UY","2017/08/31 18:49:25","新北市中和區水源路29巷2號","121.504078333333","25.0037316666667","6500300","中和區"
"235063","006-UY","2017/08/31 18:49:22","新北市中和區錦和路95號","121.490066666667","24.9955816666667","6500300","中和區"
"235064","031-BX","2017/08/31 18:49:24","新北市中和區連城路111號","121.496488333333","24.9993233333333","6500300","中和區"
"235056","096-UM","2017/08/31 18:49:36","新北市中和區員山路611巷5弄5號","121.478106666667","25.0112233333333","6500300","中和區"
"235039","097-UM","2017/08/31 18:49:28","新北市中和區宜安路18巷11號","121.513993333333","24.9962866666667","6500300","中和區"
"235040","150-BY","2017/08/31 18:49:21","新北市中和區保健路74號","121.511475","24.9964883333333","6500300","中和區"
"235058","151-BY","2017/08/31 18:49:35","新北市中和區連城路571號","121.479185","24.9944533333333","6500300","中和區"
"235055","183-VK","2017/08/31 03:53:50","新北市中和區員山路36巷16-3號","121.485025","24.9913933333333","6500300","中和區"
"235038","185-VK","2017/08/31 18:49:23","新北市中和區大勇街76號","121.518278333333","24.9947516666667","6500300","中和區"
"235049","186-VK","2017/08/31 18:49:36","新北市中和區景安路132巷15號","121.504406666667","24.994105","6500300","中和區"
"235067","255-BX","2017/08/31 18:49:42","新北市中和區中山路二段465號","121.483578333333","25.00502","6500300","中和區"
"235044","293-VK","2017/08/31 18:49:29","新北市中和區中興街117號","121.49997","24.992035","6500300","中和區"
"235072","301-VK","2017/08/31 18:49:27","新北市中和區中山路二段23號","121.504958333333","25.0053916666667","6500300","中和區"
"235043","352-BY","2017/08/31 18:49:34","新北市中和區成功路129號","121.525936666667","24.9908033333333","6500300","中和區"
"235051","376-QA","2017/08/31 18:49:22","新北市中和區華新街143巷106弄8號","121.505906666667","24.979165","6500300","中和區"
"235068","377-QA","2017/08/31 18:49:35","新北市中和區中正路211巷6號","121.497033333333","24.99343","6500300","中和區"
"235061","378-QA","2017/08/31 18:49:25","新北市中和區民享街30巷1號","121.473975","25.0035183333333","6500300","中和區"
"235050","4979-A6","2017/08/31 18:49:29","新北市中和區忠孝街62巷7弄13號","121.512423333333","24.983655","6500300","中和區"
"235069","4980-A6","2017/08/31 18:49:21","新北市中和區南山路7號","121.502203333333","24.9994283333333","6500300","中和區"
"235042","551-UM","2017/08/31 18:49:38","新北市中和區秀朗路三段135巷7弄1號","121.525423333333","24.9919066666667","6500300","中和區"
"235070","558-UM","2017/08/31 18:49:33","新北市中和區圓通路46號","121.500765","24.9976466666667","6500300","中和區"
"235045","565-BX","2017/08/31 18:49:38","新北市中和區復興路32號","121.505088333333","24.9900033333333","6500300","中和區"
"235054","640-BX","2017/08/31 18:49:28","新北市中和區民享街56號","121.473953333333","25.0023833333333","6500300","中和區"
"235060","647-TV","2017/08/31 18:49:39","新北市中和區中山路三段31號","121.479143333333","25.0059133333333","6500300","中和區"
"235047","732-UM","2017/08/31 18:49:27","新北市中和區興南路二段34巷71號","121.504996666667","24.9850466666667","6500300","中和區"
"235046","733-UM","2017/08/31 18:49:26","新北市中和區仁愛街36巷44號","121.511383333333","24.986255","6500300","中和區"
"235062","800-TS","2017/08/31 18:49:23","新北市中和區景平路718號","121.49671","25.0028916666667","6500300","中和區"
"235057","801-TS","2017/08/31 18:49:22","新北市中和區民安街22巷9號","121.479933333333","25.0011466666667","6500300","中和區"
"235041","802-TS","2017/08/31 18:49:22","新北市中和區宜安路118巷42號","121.511281666667","24.9991083333333","6500300","中和區"
"235052","805-TS","2017/08/31 18:49:27","新北市中和區興南路二段399巷90-2號","121.500295","24.977785","6500300","中和區"
"235048","896-TW","2017/08/31 18:49:32","新北市中和區南山路300號","121.507905","24.9870766666667","6500300","中和區"
"235053","900-TW","2017/08/31 18:49:20","新北市中和區華福街9號","121.465538333333","24.996865","6500300","中和區"
"235037","AAC-213","2017/08/31 18:49:21","新北市中和區秀朗路三段175巷10號","121.524966666667","24.9913733333333","6500300","中和區"
"235059","AAC-215","2017/08/31 18:49:21","新北市中和區圓通路391-1號","121.490018333333","24.9891666666667","6500300","中和區"
"220068","013-TV","2017/08/31 18:49:29","新北市板橋區民生路二段120號","121.470368333333","25.019605","6500100","板橋區"
"220065","072-UY","2017/08/31 18:49:30","新北市板橋區縣民大道二段102號","121.4666","25.0151116666667","6500100","板橋區"
"220086","073-UY","2017/08/31 18:49:32","新北市板橋區大智街71巷7弄1號","121.453133333333","25.014705","6500100","板橋區"
"220106","075-UY","2017/08/31 18:49:27","新北市板橋區民生路二段161巷5號","121.470193333333","25.0196933333333","6500100","板橋區"
"220069","AAD-861","2017/08/31 18:49:41","新北市板橋區南雅南路二段4巷2號","121.454261666667","25.0038233333333","6500100","板橋區"
"220102","120-SR","2017/08/31 18:49:22","新北市板橋區民生路二段161巷1號","121.470211666667","25.0200516666667","6500100","板橋區"
"226004","312-R5","2017/08/31 18:49:32","新北市平溪區平溪里平溪街45號","121.738386666667","25.0266083333333","6502400","平溪區"
"228003","097-TW","2017/08/31 18:49:37","新北市貢寮區和美里龍洞街60號","121.913896666667","25.115725","6502600","貢寮區"
"228001","212-TW","2017/08/31 18:49:31","新北市貢寮區仁理村仁義街12號","121.923881666667","25.0517616666667","6502600","貢寮區"
"228002","585-TW","2017/08/31 18:49:36","新北市貢寮區福隆里東興街6-11號","121.950748333333","25.0210416666667","6502600","貢寮區"
"224006","676-BX","2017/08/31 18:49:26","新北市瑞芳區中正路88號","121.805363333333","25.1076883333333","6501200","瑞芳區"
"224009","285-BY","2017/08/31 18:49:37","新北市瑞芳區祈堂路137號","121.859043333333","25.10935","6501200","瑞芳區"
"224008","275-VK","2017/08/31 18:49:22","新北市瑞芳區逢甲路277號","121.801538333333","25.1119533333333","6501200","瑞芳區"
"224007","273-VK","2017/08/31 18:49:38","新北市瑞芳區大埔路192-1號","121.761541666667","25.1011233333333","6501200","瑞芳區"
"224005","271-BY","2017/08/31 18:49:35","新北市瑞芳區瑞濱路1-4號","121.82775","25.121545","6501200","瑞芳區"
"227004","642-TC","2017/08/31 18:49:25","新北市雙溪區平林里梅竹蹊28號","121.861611666667","25.03607","6502500","雙溪區"
"227010","400-TW","2017/08/31 18:49:24","新北市雙溪區牡丹里聖南8號","121.859421666667","25.0520666666667","6502500","雙溪區"
"253006","032-BX","2017/08/31 18:49:34","新北市石門區下員坑16號","121.510586666667","25.2838383333333","6502200","石門區"
"253005","295-VK","2017/08/31 18:49:33","新北市石門區中山路28-3號","121.565798333333","25.2898816666667","6502200","石門區"
"208002","742-BX","2017/08/31 18:49:34","新北市金山區信義路62號","121.63564","25.2190133333333","6502700","金山區"
"208003","665-BX","2017/08/31 18:49:29","新北市金山區中山路346號","121.633423333333","25.22532","6502700","金山區"
"208001","761-BX","2017/08/31 18:49:23","新北市金山區文化三路66巷2弄1號","121.634311666667","25.2257","6502700","金山區"
"251009","008-UM","2017/08/31 18:49:29","新北市淡水區重建街226號","121.441395","25.17501","6501000","淡水區"
"251014","182-VK","2017/08/31 18:49:25","新北市淡水區崙頂16-3號","121.487963333333","25.221925","6501000","淡水區"
"251010","413-VK","2017/08/31 18:49:19","新北市淡水區沙崙路13號","121.421165","25.1812833333333","6501000","淡水區"
"251012","441-VK","2017/08/31 18:49:34","新北市淡水區大義街3號","121.443888333333","25.1781033333333","6501000","淡水區"
"251016","442-VK","2017/08/31 18:49:23","新北市淡水區下圭柔山71-3號","121.447103333333","25.20615","6501000","淡水區"
"251001","559-UM","2017/08/31 18:49:26","新北市淡水區自強路86號","121.462741666667","25.1282516666667","6501000","淡水區"
"251011","650-BX","2017/08/31 18:49:40","新北市淡水區學府路41號","121.447898333333","25.16912","6501000","淡水區"
"251002","672-BX","2017/08/31 18:49:31","新北市淡水區鄧公路15號","121.448376666667","25.169385","6501000","淡水區"
"251003","766-UM","2017/08/31 18:49:24","新北市淡水區中山北路一段149巷11號","121.44275","25.17755","6501000","淡水區"
"207003","550-UM","2017/08/31 18:49:19","新北市萬里區大鵬里頂社1號","121.657003333333","25.209705","6502800","萬里區"
"207004","225-TW","2017/08/31 18:49:21","新北市萬里區萬里里獅頭路23號","121.693243333333","25.178245","6502800","萬里區"
"252002","178-VK","2017/08/31 18:49:39","新北市三芝區中正路一段73號","121.504163333333","25.2570883333333","6502100","三芝區"
"252003","249-BX","2017/08/31 18:49:33","新北市三芝區後厝里大片頭107號","121.458345","25.2424033333333","6502100","三芝區"
"252001","292-VK","2017/08/31 18:49:40","新北市三芝區中正路三段9號","121.502856666667","25.254005","6502100","三芝區"
"237004","078-UY","2017/08/31 18:49:24","新北市三峽區插角220號","121.415051666667","24.8676483333333","6500900","三峽區"
"237007","153-BY","2017/08/31 18:49:32","新北市三峽區中正路二段399號","121.365023333333","24.90754","6500900","三峽區"
"237009","210-TH","2017/08/31 18:49:31","新北市三峽區民權街132號","121.36847","24.932065","6500900","三峽區"
"237013","252-BX","2017/08/31 18:49:20","新北市三峽區光明路69巷25號","121.37671","24.9292933333333","6500900","三峽區"
"237012","275-BY","2017/08/31 18:49:23","新北市三峽區三樹路340號","121.383938333333","24.9433416666667","6500900","三峽區"
"237008","302-VK","2017/08/31 18:49:35","新北市三峽區白雞57-30號","121.390733333333","24.91157","6500900","三峽區"
"237014","433-BY","2017/08/31 18:49:25","新北市三峽區隆恩街551號","121.357418333333","24.9401833333333","6500900","三峽區"
"237006","5529-G3","2017/08/31 18:49:20","新北市三峽區溪東路233巷4弄29號","121.407673333333","24.93392","6500900","三峽區"
"237011","572-TV","2017/08/31 18:49:25","新北市三峽區介壽路三段235號","121.406985","24.9488966666667","6500900","三峽區"
"237016","649-BX","2017/08/31 18:49:38","新北市三峽區建安80-3號","121.452751666667","24.92362","6500900","三峽區"
"237010","706-TV","2017/08/31 18:49:20","新北市三峽區復興路174巷8-2號","121.370748333333","24.939005","6500900","三峽區"
"237014","756-BX","2017/08/31 15:38:10","新北市三峽區中山路459巷163-3號","121.348888333333","24.9331033333333","6500900","三峽區"
"237005","AKY-6261","2017/08/31 18:49:41","新北市三峽區中山路170-1號","121.36442","24.9366016666667","6500900","三峽區"
"236071","105-UM","2017/08/31 18:49:36","新北市土城區延和路21巷5號","121.464095","24.988625","6501300","土城區"
"236042","107-UM","2017/08/31 18:49:34","新北市土城區裕民路92巷25弄5號","121.449758333333","24.9858633333333","6501300","土城區"
"236078","166-UM","2017/08/31 18:49:21","新北市土城區中央路四段67巷6號","121.41777","24.9575383333333","6501300","土城區"
"236030","253-BX","2017/08/31 18:49:27","新北市土城區忠義路26巷10號","121.439876666667","24.969945","6501300","土城區"
"236026","269-VK","2017/08/31 18:49:20","新北市土城區慶安街45巷11號","121.44151","24.972775","6501300","土城區"
"236014","270-VK","2017/08/31 18:49:23","新北市土城區金城路二段354巷18號","121.460905","24.9841616666667","6501300","土城區"
"236037","271-VK","2017/08/31 18:49:38","新北市土城區明德路一段289號","121.460263333333","24.977285","6501300","土城區"
"236021","401-BY","2017/08/31 18:49:22","新北市土城區延吉街253巷15號","121.467955","24.9843116666667","6501300","土城區"
"236058","912-UM","2017/08/31 18:49:37","新北市土城區中央路三段141-2號","121.433371666667","24.965395","6501300","土城區"
"236051","913-UM","2017/08/31 18:49:26","新北市板橋區信義路208號","121.460123333333","24.99064","6501300","土城區"
"236062","915-UM","2017/08/31 18:49:37","新北市土城區金城路三段155號","121.468755","24.98843","6501300","土城區"
"236053","AAC-216","2017/08/31 18:49:24","新北市土城區裕民路103號","121.45088","24.9868266666667","6501300","土城區"
"242061","362-BY","2017/08/31 18:49:31","新北市新莊區中正路384號","121.442323333333","25.035035","6500500","新莊區"
"242004","132-UY","2017/08/31 18:49:27","新北市新莊區自立街64號","121.4541","25.0454","6500500","新莊區"
"242044","172-VK","2017/08/31 18:49:37","新北市泰山區中山路六段767-9號","121.428043333333","25.0380366666667","6500500","新莊區"
"238023","601-UM","2017/08/31 18:49:31","新北市樹林區三福街114號","121.406386666667","25.0163483333333","6500700","樹林區"
"238019","599-UM","2017/08/31 18:49:40","新北市樹林區東榮街180號","121.414353333333","24.9819216666667","6500700","樹林區"
"238018","571-TV","2017/08/31 18:49:31","新北市樹林區鎮前街164號","121.424365","24.989995","6500700","樹林區"
"238024","5061-A6","2017/08/31 18:49:36","新北市樹林區太平路247巷24-4號","121.41977","24.97486","6500700","樹林區"
"238022","312-TH","2017/08/31 18:49:39","新北市樹林區中華路379巷25號","121.413693333333","24.9779","6500700","樹林區"
"238021","311-TH","2017/08/31 18:49:23","新北市樹林區西圳街二段13號","121.389686666667","24.96197","6500700","樹林區"
"238025","303-VK","2017/08/31 18:49:36","新北市樹林區中山路三段22號","121.395663333333","24.97297","6500700","樹林區"
"238014","282-BY","2017/08/31 18:49:21","新北市樹林區大安路277號","121.418573333333","24.9931933333333","6500700","樹林區"
"238020","268-VK","2017/08/31 02:04:22","新北市樹林區中山路三段204號","121.386883333333","24.9683183333333","6500700","樹林區"
"238026","172-UY","2017/08/31 18:49:32","新北市樹林區中和街2號","121.391336666667","24.9732183333333","6500700","樹林區"
"238016","169-UY","2017/08/31 18:49:40","新北市樹林區文化街26號","121.419435","24.9876316666667","6500700","樹林區"
"239007","AAC-297","2017/08/31 18:49:20","新北市鶯歌區中正一路建德巷38號","121.364515","24.9577933333333","6500800","鶯歌區"
"239008","527-UM","2017/08/31 18:49:33","新北市鶯歌區朝陽路居易巷6號","121.336746666667","24.9763966666667","6500800","鶯歌區"
"239005","526-UM","2017/08/31 18:49:20","新北市鶯歌區鳳吉二街52號","121.32657","24.9737066666667","6500800","鶯歌區"
"239001","417-VK","2017/08/31 18:49:21","新北市鶯歌區二橋街83巷6號","121.337331666667","24.938425","6500800","鶯歌區"
"239003","360-BY","2017/08/31 18:49:36","新北市鶯歌區鶯桃路586號","121.330481666667","24.968105","6500800","鶯歌區"
"239002","359-BY","2017/08/31 18:49:22","新北市鶯歌區中山路288號","121.343956666667","24.9569916666667","6500800","鶯歌區"
"239004","193-VK","2017/08/31 18:49:35","新北市鶯歌區中正三路247巷67弄8號","121.334126666667","24.9363416666667","6500800","鶯歌區"
"221036","130-UY","2017/08/31 18:49:29","新北市汐止區忠孝東路341號","121.665275","25.07014","6501100","汐止區"
"221015","131-UY","2017/08/31 18:49:39","新北市汐止區鄉長路一段55巷17號","121.664826666667","25.076285","6501100","汐止區"
"221010","269-BY","2017/08/31 18:49:21","新北市汐止區汐萬路一段420號","121.649873333333","25.0781016666667","6501100","汐止區"
"221012","276-VK","2017/08/31 13:24:39","新北市汐止區汐萬路一段256巷3號","121.653478333333","25.0746316666667","6501100","汐止區"
"221031","277-VK","2017/08/31 18:49:21","新北市汐止區福德一路274號","121.632165","25.0639283333333","6501100","汐止區"
"221012","278-VK","2017/08/31 18:49:24","新北市汐止區汐萬路一段256巷3號","121.653218333333","25.074455","6501100","汐止區"
"221023","279-VK","2017/08/31 18:49:35","新北市汐止區康寧街901號","121.651038333333","25.075195","6501100","汐止區"
"221032","280-BY","2017/08/31 18:49:26","新北市汐止區橫科路121巷52弄3號","121.622666666667","25.050985","6501100","汐止區"
"221027","281-BY","2017/08/31 18:49:27","新北市汐止區汐萬路一段256巷3號","121.653305","25.0746683333333","6501100","汐止區"
"221038","297-VK","2017/08/31 18:49:23","新北市汐止區汐萬路一段312號","121.650668333333","25.0753283333333","6501100","汐止區"
"221029","298-VK","2017/08/31 18:49:23","新北市汐止區工建路40號","121.641473333333","25.0630833333333","6501100","汐止區"
"221021","299-VK","2017/08/31 18:49:34","新北市汐止區新台五路一段131號","121.652301666667","25.0618883333333","6501100","汐止區"
"221008","358-BY","2017/08/31 18:49:34","新北市汐止區康寧街901號","121.651425","25.0750266666667","6501100","汐止區"
"221035","622-UM","2017/08/31 18:49:35","新北市汐止區禮門街10號","121.656685","25.0676016666667","6501100","汐止區"
"221025","623-UM","2017/08/31 18:49:28","新北市汐止區秀峰路68號","121.659875","25.0644833333333","6501100","汐止區"
"221033","647-BX","2017/08/31 18:49:34","新北市汐止區南勢街1巷1號","121.627035","25.0375283333333","6501100","汐止區"
"221002","707-TV","2017/08/31 18:49:27","新北市汐止區大同路一段183號","121.63301","25.0569416666667","6501100","汐止區"
"221018","753-BX","2017/08/31 18:49:38","新北市汐止區茄苳路62號","121.66648","25.0706533333333","6501100","汐止區"
"220079","145-BY","2017/08/31 18:49:32","新北市板橋區民權路202巷7弄2-1號","121.460016666667","25.01486","6500100","板橋區"
"220089","146-RM","2017/08/31 18:49:26","新北市板橋區民生路二段120號","121.470391666667","25.0198916666667","6500100","板橋區"
"220080","200-UY","2017/08/31 18:49:34","新北市板橋區大觀路二段力行3巷1-6號","121.442558333333","24.9967183333333","6500100","板橋區"
"220082","610-BX","2017/08/31 18:49:41","新北市板橋區篤行路三段玉平巷45號","121.428678333333","24.9869116666667","6500100","板橋區"
"220101","245-BX","2017/08/31 17:09:37","新北市板橋區民生路二段161巷1號","121.469983333333","25.01984","6500100","板橋區"
"220075","256-TC","2017/08/31 18:49:32","新北市板橋區館前西路162號","121.452888333333","25.0085933333333","6500100","板橋區"
"220056","276-BY","2017/08/31 18:49:38","新北市板橋區四川路二段1-15號","121.456853333333","24.9963516666667","6500100","板橋區"
"220072","277-BY","2017/08/31 18:49:38","新北市板橋區大觀路三段59巷12號","121.433816666667","24.9951216666667","6500100","板橋區"
"220094","283-UM","2017/08/31 18:49:36","新北市板橋區民生路二段161巷3號","121.470193333333","25.0198166666667","6500100","板橋區"
"220071","283-VK","2017/08/31 18:49:27","新北市板橋區忠孝路176巷5弄2號","121.464788333333","25.0019783333333","6500100","板橋區"
"220053","285-VK","2017/08/31 18:49:34","新北市板橋區民生路二段120號","121.470618333333","25.019585","6500100","板橋區"
"220081","287-VK","2017/08/31 18:49:31","新北市板橋區南雅西路二段108號","121.452205","25.011935","6500100","板橋區"
"220090","288-VK","2017/08/31 18:49:27","新北市板橋區民生路二段161巷7號","121.470273333333","25.01971","6500100","板橋區"
"220061","293-UM","2017/08/31 18:49:30","新北市板橋區民生路二段120號","121.470606666667","25.0194633333333","6500100","板橋區"
"220084","296-UM","2017/08/31 18:49:23","新北市板橋區大觀路二段148巷39-1號","121.441795","25.000645","6500100","板橋區"
"220062","303-R5","2017/08/31 18:49:25","新北市板橋區民生路二段120號","121.470646666667","25.0194866666667","6500100","板橋區"
"220098","317-R6","2017/08/31 16:50:32","新北市板橋區民生路二段161巷5號","121.470206666667","25.0197416666667","6500100","板橋區"
"220064","486-VK","2017/08/31 18:49:20","新北市板橋區民生路二段5號","121.472886666667","25.0158066666667","6500100","板橋區"
"220088","491-VK","2017/08/31 18:49:20","新北市板橋區民生路二段188號","121.469978333333","25.0202916666667","6500100","板橋區"
"220035","560-BX","2017/08/31 18:49:28","新北市板橋區中正路275巷77號","121.452315","25.01813","6500100","板橋區"
"220103","561-BX","2017/08/31 18:49:27","新北市板橋區民生路二段120號","121.47037","25.0199166666667","6500100","板橋區"
"220063","609-BX","2017/08/31 16:58:28","新北市板橋區民生路二段161巷1號","121.469943333333","25.0198116666667","6500100","板橋區"
"220083","630-UY","2017/08/31 18:49:40","新北市板橋區大觀路二段22巷32號","121.445083333333","25.003685","6500100","板橋區"
"220091","637-BX","2017/08/31 18:49:26","新北市板橋區民生路二段161巷1號","121.470156666667","25.0201816666667","6500100","板橋區"
"220057","686-BX","2017/08/31 18:49:38","新北市板橋區館前西路4-1號","121.459141666667","25.0071483333333","6500100","板橋區"
"220077","687-BX","2017/08/31 18:49:39","新北市板橋區大觀路二段174巷193弄2號","121.442216666667","25.0039366666667","6500100","板橋區"
"220093","689-BX","2017/08/31 17:02:16","新北市板橋區民生路二段161巷1號","121.47017","25.019995","6500100","板橋區"
"220054","741-BX","2017/08/31 18:49:23","新北市板橋區館前西路4-1號","121.45918","25.0071483333333","6500100","板橋區"
"220055","827-TW","2017/08/31 18:49:19","新北市板橋區新府路1-1號","121.46447","25.0119983333333","6500100","板橋區"
"220067","829-TW","2017/08/31 18:49:32","新北市板橋區民生路二段120號","121.470381666667","25.019565","6500100","板橋區"
"220096","831-TW","2017/08/31 16:46:44","新北市板橋區民生路二段161巷3號","121.470265","25.019825","6500100","板橋區"
"220074","895-R6","2017/08/31 18:49:36","新北市板橋區南門街14號","121.45727","25.00896","6500100","板橋區"
"220073","985-R7","2017/08/31 18:49:37","新北市板橋區館前西路93號","121.457175","25.007325","6500100","板橋區"
"220097","AAC-210","2017/08/31 18:49:21","新北市板橋區民生路二段120號","121.470318333333","25.0197583333333","6500100","板橋區"
"220070","AAC-253","2017/08/31 18:49:23","新北市板橋區館前西路46巷2號","121.45891","25.0070033333333","6500100","板橋區"
