"lineid","car","time","location","longitude","latitude","cityid","cityname"
"234081","298-R6","2017/08/31 20:31:47","新北市永和區永貞路78號","121.520203333333","25.00512","6500400","永和區"
"234038","336-UY","2017/08/31 20:31:50","新北市永和區環河東路四段40號","121.52884","24.9988883333333","6500400","永和區"
"234064","337-UY","2017/08/31 20:31:44","新北市永和區中正路637號","121.51539","25.0100066666667","6500400","永和區"
"234086","338-UY","2017/08/31 20:31:43","新北市永和區永和路二段298號","121.51611","25.0158066666667","6500400","永和區"
"234054","553-UM","2017/08/31 20:31:37","新北市永和區環河東路一段82號","121.519581666667","25.016375","6500400","永和區"
"234030","746-BX","2017/08/31 20:31:41","新北市永和區秀朗路二段259號","121.5263","24.9991016666667","6500400","永和區"
"234061","AAD-866","2017/08/31 20:31:38","新北市永和區安樂路194巷39弄6號","121.516338333333","25.0014483333333","6500400","永和區"
"234042","862-TW","2017/08/31 20:31:37","新北市永和區安樂路439號","121.514266666667","25.00475","6500400","永和區"
"234050","863-TW","2017/08/31 20:30:36","新北市永和區新生路118巷1弄9號","121.50678","25.01449","6500400","永和區"
"249001","173-UM","2017/08/31 20:31:34","新北市八里區下罟子5-11號","121.386831666667","25.1423233333333","6502300","八里區"
"249004","303-UY","2017/08/31 20:31:39","新北市八里區中山路一段151號","121.412781666667","25.1590333333333","6502300","八里區"
"249002","305-UY","2017/08/31 20:31:37","新北市八里區龍米路二段123號","121.446555","25.1445966666667","6502300","八里區"
"249003","593-UM","2017/08/31 20:31:45","新北市八里區華峰一街18號","121.399311666667","25.1467633333333","6502300","八里區"
"248010","682-TV","2017/08/31 15:57:30","新北市五股區中興路二段63巷17號","121.460178333333","25.0756133333333","6501500","五股區"
"234023","9380-KE","2017/08/31 20:31:42","新北市永和區光復街4號","121.516456666667","25.0167633333333","6500400","永和區"
"234074","AAC-211","2017/08/31 20:31:47","新北市永和區竹林路119巷30弄8號","121.522476666667","25.0115783333333","6500400","永和區"
"234067","AAC-212","2017/08/31 20:31:37","新北市永和區保平路292巷4號","121.507901666667","25.0047833333333","6500400","永和區"
"234003","AAC-295","2017/08/31 20:31:36","新北市永和區福和路368號","121.514496666667","25.00776","6500400","永和區"
"243009","297-R6","2017/08/31 20:31:44","新北市泰山區忠孝街43號","121.428706666667","25.0655666666667","6501600","泰山區"
"243015","380-SR","2017/08/31 20:31:45","新北市泰山區福興三街9號","121.434751666667","25.0578333333333","6501600","泰山區"
"243014","421-VK","2017/08/31 20:31:44","新北市泰山區橫窠雅36號","121.403246666667","25.07324","6501600","泰山區"
"243010","548-UM","2017/08/31 20:31:30","新北市泰山區文程路18巷32號","121.428078333333","25.048275","6501600","泰山區"
"243011","549-UM","2017/08/31 20:31:41","新北市泰山區明志路三段44號","121.42482","25.0425316666667","6501600","泰山區"
"243012","646-TV","2017/08/31 20:31:38","新北市泰山區忠孝街17巷1號","121.427573333333","25.0651916666667","6501600","泰山區"
"243016","680-BX","2017/08/31 20:31:30","新北市泰山區明志路二段194號","121.427441666667","25.04956","6501600","泰山區"
"222003","436-BY","2017/08/31 20:31:30","新北市深坑區深坑街37號","121.615763333333","25.0022516666667","6501800","深坑區"
"222002","659-BX","2017/08/31 20:30:58","新北市深坑區萬福路16巷36-1號","121.611713333333","25.008255","6501800","深坑區"
"222001","696-SL","2017/08/31 20:31:32","新北市深坑區北深路三段327號","121.597465","25.0050233333333","6501800","深坑區"
"231059","001-UM","2017/08/31 20:31:30","新北市新店區安豐路46號","121.500113333333","24.9549733333333","6500600","新店區"
"231041","002-UM","2017/08/31 20:31:41","新北市新店區中正路501-4號","121.533515","24.98381","6500600","新店區"
"231061","047-UY","2017/08/31 20:31:44","新北市新店區新和街36號","121.519325","24.98491","6500600","新店區"
"231060","106-UY","2017/08/31 20:31:39","新北市新店區錦秀路68巷1號","121.478856666667","24.942535","6500600","新店區"
"231051","107-UY","2017/08/31 20:31:35","新北市新店區中央七街69號","121.527681666667","24.976465","6500600","新店區"
"231047","108-UY","2017/08/31 20:31:39","新北市新店區寶慶街58巷21-1號","121.541971666667","24.9873716666667","6500600","新店區"
"231052","187-VK","2017/08/31 20:31:44","新北市新店區松林路55號","121.544448333333","24.9112766666667","6500600","新店區"
"231069","189-VK","2017/08/31 09:49:08","新北市新店區新潭路三段215巷25號","121.50812","24.9040766666667","6500600","新店區"
"231057","256-BX","2017/08/31 20:31:42","新北市新店區花園五路二段3號","121.553631666667","24.9341966666667","6500600","新店區"
"231050","AAD-862","2017/08/31 20:31:49","新北市新店區建國路33巷2號","121.540296666667","24.9742616666667","6500600","新店區"
"231058","3712-VJ","2017/08/31 20:31:39","新北市新店區安興路112號","121.51522","24.9773466666667","6500600","新店區"
"231056","4716-K9","2017/08/31 20:31:39","新北市新店區中正路338號","121.536675","24.975075","6500600","新店區"
"231067","4772-VM","2017/08/31 20:31:41","新北市新店區安華路28-1號","121.519666666667","24.9611133333333","6500600","新店區"
"231065","512-UM","2017/08/31 20:31:46","新北市新店區安祥路102巷46弄87號","121.48729","24.9632333333333","6500600","新店區"
"231054","513-UM","2017/08/31 20:31:43","新北市新店區檳榔路174號","121.544218333333","24.9618766666667","6500600","新店區"
"231064","515-UM","2017/08/31 20:31:43","新北市新店區永安街74巷19號","121.519185","24.985785","6500600","新店區"
"231042","616-UM","2017/08/31 20:31:46","新北市新店區寶橋路228號","121.551295","24.9788233333333","6500600","新店區"
"231040","619-UM","2017/08/31 20:31:42","新北市新店區中正路348號","121.536251666667","24.9752283333333","6500600","新店區"
"231063","645-TV","2017/08/31 20:31:42","新北市新店區安康路二段382號","121.500366666667","24.957135","6500600","新店區"
"231068","718-UY","2017/08/31 20:31:44","新北市新店區寶元路一段61號","121.542215","24.985915","6500600","新店區"
"231049","719-UM","2017/08/31 20:31:36","新北市新店區永業路81巷34號","121.530125","24.94839","6500600","新店區"
"231062","720-UM","2017/08/31 20:31:42","新北市新店區安泰路60巷10號","121.4839","24.946745","6500600","新店區"
"231044","897-TW","2017/08/31 20:31:48","新北市新店區建國路134號","121.538975","24.978875","6500600","新店區"
"231045","898-TW","2017/08/31 20:31:40","新北市新店區新坡一街2號","121.548205","24.9606483333333","6500600","新店區"
"231043","899-TW","2017/08/31 20:31:49","新北市新店區建國路121號","121.539783333333","24.977825","6500600","新店區"
"231066","AKT-0513","2017/08/31 20:31:48","新北市新店區安興路112號","121.514588333333","24.977615","6500600","新店區"
"241011","013-R5","2017/08/31 20:31:47","新北市三重區龍門路76號","121.497005","25.0727","6500200","三重區"
"241028","022-UY","2017/08/31 20:31:32","新北市三重區光興街91號","121.497411666667","25.05994","6500200","三重區"
"241008","059-VK","2017/08/31 20:31:43","新北市三重區下竹圍街89號","121.481253333333","25.0749283333333","6500200","三重區"
"241009","060-VK","2017/08/31 20:31:44","新北市三重區永福街58巷1弄3號","121.481223333333","25.077765","6500200","三重區"
"241031","061-VK","2017/08/31 20:31:31","新北市三重區過圳街7巷14號","121.489731666667","25.05932","6500200","三重區"
"241015","062-VK","2017/08/31 20:31:45","新北市三重區文化北路61號","121.49866","25.0661883333333","6500200","三重區"
"241017","063-VK","2017/08/31 20:31:35","新北市三重區大仁街1號","121.49163","25.0635016666667","6500200","三重區"
"241024","065-VK","2017/08/31 20:31:40","新北市三重區忠孝路三段15巷50號","121.479696666667","25.0681916666667","6500200","三重區"
"241026","066-VK","2017/08/31 20:31:40","新北市三重區福德南路24巷9號","121.503238333333","25.0630866666667","6500200","三重區"
"241002","090-VK","2017/08/31 20:31:35","新北市三重區仁義街211巷33號","121.497771666667","25.0823733333333","6500200","三重區"
"241003","091-VK","2017/08/31 20:31:32","新北市三重區富華街174號","121.492771666667","25.0847333333333","6500200","三重區"
"241005","156-TC","2017/08/31 20:31:47","新北市三重區碧華街306號","121.489901666667","25.0835066666667","6500200","三重區"
"241016","266-UM","2017/08/31 20:31:40","新北市三重區正義北路190巷31號","121.495578333333","25.0667683333333","6500200","三重區"
"241022","267-UM","2017/08/31 20:31:39","新北市三重區中正北路20巷11號","121.48794","25.0629966666667","6500200","三重區"
"241018","268-UM","2017/08/31 20:31:46","新北市三重區自強路一段75號","121.496395","25.0665433333333","6500200","三重區"
"241032","269-UM","2017/08/31 20:31:46","新北市三重區重陽路一段120巷48號","121.485031666667","25.060195","6500200","三重區"
"241013","270-UM","2017/08/31 20:31:43","新北市三重區溪尾街5巷42號","121.492895","25.0748333333333","6500200","三重區"
"241025","271-UM","2017/08/31 20:31:50","新北市三重區頂崁街210巷27號","121.475791666667","25.068225","6500200","三重區"
"241007","398-BY","2017/08/31 20:31:49","新北市三重區三和路四段95號","121.488266666667","25.07601","6500200","三重區"
"241020","413-TH","2017/08/31 20:31:29","新北市三重區忠孝路一段13號","121.492248333333","25.0718333333333","6500200","三重區"
"241035","462-BY","2017/08/31 20:31:32","新北市三重區正義北路128號","121.49684","25.0656366666667","6500200","三重區"
"241004","475-VK","2017/08/31 20:31:39","新北市三重區溪尾街188號","121.488393333333","25.080865","6500200","三重區"
"241019","478-VK","2017/08/31 20:31:30","新北市三重區重陽路四段132號","121.492635","25.07124","6500200","三重區"
"241030","480-VK","2017/08/31 20:31:32","新北市三重區成功路62號","121.488571666667","25.0508383333333","6500200","三重區"
"241014","543-UM","2017/08/31 20:31:47","新北市三重區長興街59號","121.501105","25.06886","6500200","三重區"
"241023","545-UM","2017/08/31 20:31:44","新北市三重區三民街223號","121.480545","25.06709","6500200","三重區"
"241001","547-UM","2017/08/31 20:31:38","新北市三重區溪尾街58號","121.490353333333","25.077535","6500200","三重區"
"241012","941-UM","2017/08/31 20:31:48","新北市三重區龍濱路277號","121.501313333333","25.073305","6500200","三重區"
"241029","942-UM","2017/08/31 20:31:36","新北市三重區集美街223號","121.491863333333","25.05497","6500200","三重區"
"241033","AAC-255","2017/08/31 20:31:47","新北市三重區五谷王北街139號","121.476138333333","25.0521766666667","6500200","三重區"
"235066","003-UY","2017/08/31 20:31:45","新北市中和區光華街69號","121.506583333333","25.00291","6500300","中和區"
"235039","097-UM","2017/08/31 20:31:48","新北市中和區大勇街29巷12-2號","121.515866666667","24.9945916666667","6500300","中和區"
"235072","301-VK","2017/08/31 20:31:47","新北市三重區後埔街80-1號","121.478148333333","25.0454133333333","6500300","中和區"
"235050","4979-A6","2017/08/31 20:31:49","新北市中和區景平路385巷9弄43號","121.501968333333","24.994","6500300","中和區"
"235069","4980-A6","2017/08/31 20:31:41","新北市中和區員山路327巷22號","121.48086","25.0015316666667","6500300","中和區"
"235026","800-TS","2017/08/31 20:31:03","新北市中和區員山路36巷16-2號","121.48516","24.991655","6500300","中和區"
"235059","AAC-215","2017/08/31 20:31:46","新北市中和區員山路36巷13號","121.484031666667","24.991295","6500300","中和區"
"220102","120-SR","2017/08/31 20:31:48","新北市板橋區民生路二段201號","121.469283333333","25.0205733333333","6500100","板橋區"
"247020","893-R6","2017/08/31 20:31:46","新北市蘆洲區民族路331號","121.473831666667","25.0916516666667","6501400","蘆洲區"
"247010","546-UM","2017/08/31 20:31:43","新北市蘆洲區信義路228號","121.478841666667","25.0855416666667","6501400","蘆洲區"
"247018","500-BY","2017/08/31 20:31:45","新北市蘆洲區民族路314巷3弄11號","121.477055","25.09074","6501400","蘆洲區"
"247008","339-TH","2017/08/31 20:31:46","新北市蘆洲區永安北路二段48號","121.482796666667","25.0834016666667","6501400","蘆洲區"
"247024","337-TH","2017/08/31 20:31:49","新北市蘆洲區中正路185巷78弄17號","121.465768333333","25.084715","6501400","蘆洲區"
"247002","336-TH","2017/08/31 20:31:45","新北市蘆洲區長安街361巷3號","121.456991666667","25.0872866666667","6501400","蘆洲區"
"247014","057-VK","2017/08/31 20:31:38","新北市蘆洲區中山二路28號","121.474823333333","25.0819766666667","6501400","蘆洲區"
"247004","056-VK","2017/08/31 20:31:42","新北市蘆洲區永康街49號","121.456886666667","25.08519","6501400","蘆洲區"
"247006","053-VK","2017/08/31 20:31:42","新北市蘆洲區光華路169號","121.465008333333","25.0820033333333","6501400","蘆洲區"
"247012","007-UY","2017/08/31 20:31:37","新北市蘆洲區復興路252號","121.479831666667","25.089645","6501400","蘆洲區"
"247022","002-UY","2017/08/31 20:31:34","新北市蘆洲區中正路323號","121.466123333333","25.088755","6501400","蘆洲區"
"247016","001-UY","2017/08/31 20:31:39","新北市蘆洲區光華路158號","121.465633333333","25.08221","6501400","蘆洲區"
"251008","181-VK","2017/08/31 20:31:41","新北市淡水區淡海路189巷1號","121.420175","25.1844883333333","6501000","淡水區"
"251014","182-VK","2017/08/31 20:31:44","新北市淡水區石頭厝12-1號","121.460291666667","25.2362483333333","6501000","淡水區"
"251010","413-VK","2017/08/31 20:31:39","新北市淡水區沙崙路181巷15號","121.423971666667","25.1844516666667","6501000","淡水區"
"251012","441-VK","2017/08/31 20:31:43","新北市淡水區頂田寮路23號","121.45478","25.2165066666667","6501000","淡水區"
"251016","442-VK","2017/08/31 20:31:42","新北市淡水區後洲子8-2號","121.44956","25.2240333333333","6501000","淡水區"
"251001","559-UM","2017/08/31 20:31:46","新北市淡水區新市一路三段2號","121.444926666667","25.1828016666667","6501000","淡水區"
"251006","561-UM","2017/08/31 20:31:29","新北市淡水區商工路296號","121.460636666667","25.1860583333333","6501000","淡水區"
"251011","650-BX","2017/08/31 20:31:40","新北市淡水區義山路一段1號","121.437485","25.1869233333333","6501000","淡水區"
"251002","672-BX","2017/08/31 20:31:38","新北市淡水區中正路63號","121.441538333333","25.1694933333333","6501000","淡水區"
"251003","766-UM","2017/08/31 20:31:44","新北市淡水區新民街21號","121.439391666667","25.1752933333333","6501000","淡水區"
"207004","225-TW","2017/08/31 20:31:41","新北市萬里區萬里里瑪鋉路5號","121.686356666667","25.1751183333333","6502800","萬里區"
"252002","178-VK","2017/08/31 20:31:39","新北市三芝區淡金路二段47-2號","121.503668333333","25.2605533333333","6502100","三芝區"
"252001","292-VK","2017/08/31 20:31:40","新北市三芝區中山路一段65號","121.500986666667","25.25718","6502100","三芝區"
"237009","210-TH","2017/08/31 20:31:34","新北市鶯歌區三鶯路5號","121.356905","24.9407166666667","6500900","三峽區"
"237014","756-BX","2017/08/31 15:38:10","新北市三峽區中山路459巷163-3號","121.348888333333","24.9331033333333","6500900","三峽區"
"236026","269-VK","2017/08/31 20:31:39","新北市土城區城林路6巷80號","121.438093333333","24.9795333333333","6501300","土城區"
"236014","270-VK","2017/08/31 20:31:43","新北市板橋區四川路二段243號","121.45039","24.9934816666667","6501300","土城區"
"236021","401-BY","2017/08/31 20:31:39","新北市土城區金城路三段198號","121.468568333333","24.98789","6501300","土城區"
"242021","AAC-296","2017/08/31 20:31:38","新北市新莊區公園路38號","121.44888","25.03928","6500500","新莊區"
"242029","986-R7","2017/08/31 20:31:42","新北市新莊區昌平街31巷11號","121.454226666667","25.0514033333333","6500500","新莊區"
"242048","751-BX","2017/08/31 20:31:42","新北市新莊區成功街206號","121.42136","25.0179333333333","6500500","新莊區"
"242025","615-BX","2017/08/31 20:31:33","新北市新莊區五工二路51號","121.46083","25.06521","6500500","新莊區"
"242023","613-BX","2017/08/31 20:31:46","新北市新莊區化成路539-1號","121.465083333333","25.06467","6500500","新莊區"
"242027","612-BX","2017/08/31 20:31:40","新北市新莊區思源路279號","121.459755","25.0480783333333","6500500","新莊區"
"242036","566-BX","2017/08/31 20:31:32","新北市新莊區後港一路76巷10弄2號","121.427086666667","25.0261133333333","6500500","新莊區"
"242042","497-BY","2017/08/31 20:31:30","新北市新莊區中正路694巷22號","121.41822","25.0285666666667","6500500","新莊區"
"242046","441-UM","2017/08/31 20:31:35","新北市新莊區中正路新雅巷2弄13號","121.417851666667","25.0250133333333","6500500","新莊區"
"242051","440-UM","2017/08/31 20:31:35","新北市新莊區民安西路189巷36弄2號","121.427311666667","25.0151083333333","6500500","新莊區"
"242031","415-TV","2017/08/31 20:31:45","新北市新莊區三和路54號","121.437505","25.038355","6500500","新莊區"
"242002","413-TV","2017/08/31 20:31:33","新北市新莊區明中街43巷29號","121.45696","25.0385166666667","6500500","新莊區"
"242039","400-BY","2017/08/31 20:31:40","新北市新莊區民安路312號","121.428436666667","25.022015","6500500","新莊區"
"242061","362-BY","2017/08/31 20:31:32","新北市新莊區新樹路383號","121.432843333333","25.0174033333333","6500500","新莊區"
"242058","353-BY","2017/08/31 20:31:29","新北市新莊區四維路154號","121.422743333333","25.022575","6500500","新莊區"
"242004","132-UY","2017/08/31 20:31:47","新北市新莊區化成路524巷3號","121.4667","25.05274","6500500","新莊區"
"242034","133-UY","2017/08/31 20:31:44","新北市新莊區中正路222號","121.448548333333","25.0356716666667","6500500","新莊區"
"242019","135-UY","2017/08/31 20:31:33","新北市新莊區銘德街62號","121.456693333333","25.0437133333333","6500500","新莊區"
"242044","172-VK","2017/08/31 20:31:37","新北市新莊區龍安路18號","121.414456666667","25.022545","6500500","新莊區"
"242007","173-VK","2017/08/31 20:31:50","新北市新莊區思源路287巷1弄2號","121.459266666667","25.04796","6500500","新莊區"
"242013","175-VK","2017/08/31 20:31:43","新北市新莊區中平路270巷3號","121.445168333333","25.0503366666667","6500500","新莊區"
"242056","176-VK","2017/08/31 20:31:45","新北市新莊區瓊泰路181號","121.442951666667","25.0316266666667","6500500","新莊區"
"242011","346-TH","2017/08/31 20:31:33","新北市新莊區中信街54號","121.449123333333","25.0509566666667","6500500","新莊區"
"242017","348-TH","2017/08/31 20:31:30","新北市新莊區中港二街45號","121.450513333333","25.0458766666667","6500500","新莊區"
"242053","349-TH","2017/08/31 20:31:43","新北市新莊區民安西路244號","121.42601","25.01397","6500500","新莊區"
"242015","350-TH","2017/08/31 20:31:32","新北市新莊區中平路57號","121.444738333333","25.0444466666667","6500500","新莊區"
"242009","351-TH","2017/08/31 20:31:34","新北市新莊區昌盛街105-6號","121.456458333333","25.050015","6500500","新莊區"
"238023","601-UM","2017/08/31 20:31:51","新北市樹林區育德街78-1號","121.387455","24.9682433333333","6500700","樹林區"
"239002","359-BY","2017/08/31 20:16:22","新北市鶯歌區二甲路171-1號","121.344088333333","24.9355083333333","6500800","鶯歌區"
"221036","130-UY","2017/08/31 20:31:49","新北市汐止區仁愛路151巷46號","121.663513333333","25.06577","6501100","汐止區"
"221015","131-UY","2017/08/31 20:31:39","新北市汐止區建成路154號","121.661921666667","25.0735816666667","6501100","汐止區"
"221010","269-BY","2017/08/31 20:31:41","新北市汐止區八連路二段494號","121.62859","25.1064383333333","6501100","汐止區"
"221012","276-VK","2017/08/31 13:24:39","新北市汐止區汐萬路一段256巷3號","121.653478333333","25.0746316666667","6501100","汐止區"
"221031","277-VK","2017/08/31 20:31:37","新北市汐止區中興路110巷9弄2號","121.633715","25.0641833333333","6501100","汐止區"
"221012","278-VK","2017/08/31 20:31:44","新北市汐止區大同路三段279號","121.674195","25.0750733333333","6501100","汐止區"
"221023","279-VK","2017/08/31 20:31:35","新北市汐止區湖東街76巷1號","121.63582","25.07354","6501100","汐止區"
"221032","280-BY","2017/08/31 20:31:46","新北市汐止區弘道街53巷19弄2號","121.618731666667","25.04951","6501100","汐止區"
"221027","281-BY","2017/08/31 20:31:47","新北市汐止區中正路226號","121.658011666667","25.0688716666667","6501100","汐止區"
"221038","297-VK","2017/08/31 20:31:43","新北市汐止區忠孝東路332號","121.664925","25.0693816666667","6501100","汐止區"
"221029","298-VK","2017/08/31 20:31:43","新北市汐止區樟樹一路135巷1號","121.642156666667","25.0654033333333","6501100","汐止區"
"221021","299-VK","2017/08/31 20:31:34","新北市汐止區水源路一段293號","121.654301666667","25.058325","6501100","汐止區"
"221008","358-BY","2017/08/31 20:31:34","新北市汐止區康寧街543號","121.634445","25.06932","6501100","汐止區"
"221035","622-UM","2017/08/31 20:31:33","新北市汐止區長江街101-5號","121.65891","25.0732333333333","6501100","汐止區"
"221025","623-UM","2017/08/31 20:31:46","新北市汐止區水源路二段108號","121.656771666667","25.0555516666667","6501100","汐止區"
"221033","647-BX","2017/08/31 20:31:41","新北市汐止區林森街73巷35號","121.623771666667","25.04156","6501100","汐止區"
"221018","753-BX","2017/08/31 20:31:40","新北市汐止區茄苳路225巷11弄22號","121.670883333333","25.0697933333333","6501100","汐止區"
"220089","146-RM","2017/08/31 20:31:46","新北市板橋區四維路319號","121.462948333333","25.02897","6500100","板橋區"
"220103","561-BX","2017/08/31 20:31:47","新北市板橋區漢生東路43巷2號","121.46582","25.01691","6500100","板橋區"
"220083","630-UY","2017/08/31 20:31:40","新北市板橋區僑中二街102巷46號","121.444408333333","25.0086733333333","6500100","板橋區"
"220074","895-R6","2017/08/31 20:31:46","新北市板橋區大觀路一段28巷1弄104號","121.451873333333","25.0059133333333","6500100","板橋區"
"220070","AAC-253","2017/08/31 20:31:43","新北市五股區新五路二段119-10號","121.438675","25.078735","6500100","板橋區"
