"lineid","car","time","location","longitude","latitude","cityid","cityname"
"222005","289-BY","2017/10/20 09:09:47","新北市深坑區土庫尖路75-1號","121.631165","25.0182333333333","6501800","深坑區"
"231007","189-VK","2017/10/20 09:06:33","新北市新店區新潭路三段275-1號","121.502118333333","24.9025366666667","6500600","新店區"
"231009","192-VK","2017/10/20 09:09:44","新北市新店區廣興路66巷3號","121.538808333333","24.9136866666667","6500600","新店區"
"226001","7418-A5","2017/10/20 08:59:02","新北市平溪區東勢里番仔坑34-2號","121.749978333333","24.9831183333333","6502400","平溪區"
"226003","AGD-0702","2017/10/20 09:09:48","新北市平溪區靜安路二段295號","121.732668333333","25.0244533333333","6502400","平溪區"
"223002","198-BX","2017/10/20 09:05:40","新北市石碇區八分寮47-1號","121.642945","25.013345","6501900","石碇區"
"223008","406-TH","2017/10/20 09:09:18","新北市石碇區光明路32號","121.69633","25.02075","6501900","石碇區"
"223004","660-BX","2017/10/20 09:09:32","新北市石碇區磨石坑7-2號","121.68964","24.9751533333333","6501900","石碇區"
"223007","661-BX","2017/10/20 09:09:43","新北市石碇區光明路32號","121.695088333333","25.022515","6501900","石碇區"
"223005","677-TV","2017/10/20 09:09:35","新北市石碇區磨石坑24-3號","121.690645","24.970425","6501900","石碇區"
"227005","282-VK","2017/10/20 09:04:54","新北市雙溪區泰平里溪尾寮3號","121.818103333333","24.9703916666667","6502500","雙溪區"
"237001","159-UY","2017/10/20 09:09:34","新北市三峽區大觀路80號","121.374211666667","24.9459666666667","6500900","三峽區"
"236010","165-UM","2017/10/20 09:09:34","新北市土城區金城路一段118號","121.445648333333","24.9744883333333","6501300","土城區"
"236004","339-SR","2017/10/20 07:30:05","新北市土城區龍泉路114號","121.44859","24.94275","6501300","土城區"
"236006","498-BY","2017/10/20 09:09:31","新北市土城區中央路三段80號","121.436281666667","24.9671633333333","6501300","土城區"
"220080","461-BY","2017/10/20 09:09:31","新北市板橋區大觀路一段29巷131弄125號","121.4516","25.005635","6500100","板橋區"
