"lineid","car","time","location","longitude","latitude","cityid","cityname"
"234044","148-BY","2017/10/20 14:19:35","新北市永和區得和路392號","121.525278333333","24.99925","6500400","永和區"
"234012","149-BY","2017/10/20 14:19:41","新北市永和區保生路55號","121.504846666667","25.010655","6500400","永和區"
"234005","207-UY","2017/10/20 14:19:51","新北市永和區中正路646號","121.517013333333","25.0083966666667","6500400","永和區"
"234078","298-R6","2017/10/20 14:19:50","新北市永和區國中路132巷5號","121.523635","25.007145","6500400","永和區"
"234036","336-UY","2017/10/20 14:19:44","新北市永和區成功路一段108號","121.526803333333","25.0027783333333","6500400","永和區"
"234062","337-UY","2017/10/20 14:19:39","新北市永和區得和路131號","121.519146666667","25.0002283333333","6500400","永和區"
"234084","338-UY","2017/10/20 14:19:40","新北市永和區永和路二段131號","121.515035","25.0122516666667","6500400","永和區"
"234068","552-UM","2017/10/20 14:19:42","新北市永和區福和路272號","121.518031666667","25.00755","6500400","永和區"
"234052","553-UM","2017/10/20 14:19:38","新北市永和區光復街2巷5號","121.516833333333","25.0165766666667","6500400","永和區"
"234028","746-BX","2017/10/20 14:19:54","新北市永和區民權路49巷9號","121.52068","24.99728","6500400","永和區"
"234060","AAD-866","2017/10/20 14:19:46","新北市永和區安樂路194巷17弄9號","121.516043333333","25.0013983333333","6500400","永和區"
"234040","862-TW","2017/10/20 14:19:52","新北市中和區中安街220號","121.512078333333","24.99882","6500400","永和區"
"234048","863-TW","2017/10/20 14:19:46","新北市永和區新生路22號","121.508856666667","25.01641","6500400","永和區"
"234025","9371-KE","2017/10/20 14:19:31","新北市永和區安樂路86號","121.51445","24.9986716666667","6500400","永和區"
"248019","225-UY","2017/10/20 14:03:22","新北市五股區凌雲路三段57號","121.425195","25.12505","6501500","五股區"
"234076","969-R7","2017/10/20 14:19:32","新北市永和區民族街81巷50號","121.519963333333","24.9965833333333","6500400","永和區"
"234072","AAC-211","2017/10/20 14:19:40","新北市永和區福和路5-2號","121.524833333333","25.008715","6500400","永和區"
"234066","AAC-212","2017/10/20 14:19:39","新北市永和區保平路268巷51弄20號","121.506775","25.00613","6500400","永和區"
"234001","AAC-295","2017/10/20 14:19:36","新北市永和區中正路626號","121.516955","25.00796","6500400","永和區"
"244004","657-BX","2017/10/20 14:02:25","新北市林口區林口路76號","121.389708333333","25.08065","6501700","林口區"
"231002","002-UM","2017/10/20 14:19:36","新北市新店區中央六街1號","121.530545","24.9743883333333","6500600","新店區"
"231028","046-UY","2017/10/20 14:19:43","新北市新店區安康路二段38號","121.515553333333","24.9638033333333","6500600","新店區"
"231030","047-UY","2017/10/20 14:19:35","新北市新店區安民街11號","121.515331666667","24.964505","6500600","新店區"
"231029","106-UY","2017/10/20 14:19:40","新北市新店區安康路二段163號","121.5101","24.9592333333333","6500600","新店區"
"231012","108-UY","2017/10/20 14:19:48","新北市新店區中興路二段100巷1號","121.547671666667","24.9716733333333","6500600","新店區"
"231022","187-VK","2017/10/20 14:19:45","新北市新店區桂山路37號","121.56033","24.9031416666667","6500600","新店區"
"231016","KEA-2219","2017/10/20 14:19:36","新北市新店區北宜路二段406號","121.566781666667","24.9532916666667","6500600","新店區"
"231023","AAD-862","2017/10/20 14:19:43","新北市新店區光明街138巷18號","121.54005","24.96109","6500600","新店區"
"231027","3712-VJ","2017/10/20 14:19:45","新北市新店區檳榔路22巷12號","121.540671666667","24.9639283333333","6500600","新店區"
"231025","4716-K9","2017/10/20 14:19:49","新北市新店區二十張路129巷1弄1號","121.536013333333","24.97911","6500600","新店區"
"231038","4715-K9","2017/10/20 14:19:33","新北市新店區溪洲路6巷28號","121.533928333333","24.9624533333333","6500600","新店區"
"231036","512-UM","2017/10/20 14:19:38","新北市新店區安祥路109巷151弄12號","121.47806","24.95893","6500600","新店區"
"231035","515-UM","2017/10/20 14:19:43","新北市新店區光華街32號","121.516728333333","24.9693983333333","6500600","新店區"
"231006","617-UM","2017/10/20 14:19:50","新北市新店區北宜路二段599號","121.568133333333","24.9555183333333","6500600","新店區"
"231001","619-UM","2017/10/20 14:19:46","新北市新店區北新路一段341號","121.541951666667","24.96883","6500600","新店區"
"231003","641-BX","2017/10/20 14:19:44","新北市新店區中興路一段216號","121.543943333333","24.9657916666667","6500600","新店區"
"231034","645-TV","2017/10/20 14:19:50","新北市新店區黎明路3號","121.503418333333","24.9523533333333","6500600","新店區"
"231013","719-UM","2017/10/20 14:19:49","新北市新店區民權路100-1號","121.536251666667","24.9834133333333","6500600","新店區"
"231018","719-UY","2017/10/20 14:19:35","新北市新店區中央四街60號","121.52728","24.9752016666667","6500600","新店區"
"231032","720-UM","2017/10/20 14:19:45","新北市新店區溪洲路160-1號","121.530276666667","24.9651016666667","6500600","新店區"
"231005","897-TW","2017/10/20 14:19:51","新北市新店區中興路三段169號","121.544216666667","24.98058","6500600","新店區"
"231004","899-TW","2017/10/20 14:19:36","新北市新店區中正路146號","121.541766666667","24.971515","6500600","新店區"
"231037","AKT-0513","2017/10/20 14:19:50","新北市新店區車子路10-4號","121.504621666667","24.9545533333333","6500600","新店區"
"235030","003-UY","2017/10/20 14:19:37","新北市中和區景新街56號","121.504001666667","24.9991016666667","6500300","中和區"
"235028","005-UY","2017/10/20 14:19:47","新北市中和區南山路81巷19號","121.502541666667","24.9980583333333","6500300","中和區"
"235027","006-UY","2017/10/20 14:19:41","新北市中和區連勝街123巷2號","121.494813333333","24.9949783333333","6500300","中和區"
"235020","096-UM","2017/10/20 14:19:35","新北市中和區員山路575號","121.479455","25.0079216666667","6500300","中和區"
"235003","097-UM","2017/10/20 14:19:32","新北市中和區秀峰街127巷15號","121.519095","24.9902433333333","6500300","中和區"
"235029","098-UM","2017/10/20 14:19:46","新北市中和區永和路60-2號","121.498891666667","25.0043616666667","6500300","中和區"
"235004","150-BY","2017/10/20 14:19:48","新北市中和區安樂路51巷2號","121.512","24.9937916666667","6500300","中和區"
"235022","151-BY","2017/10/20 14:19:50","新北市中和區建八路1號","121.485391666667","24.9985516666667","6500300","中和區"
"235019","183-VK","2017/10/20 14:19:41","新北市中和區中山路三段209號","121.471873333333","25.006305","6500300","中和區"
"235002","185-VK","2017/10/20 14:19:49","新北市中和區大仁街20巷26號","121.518915","24.99312","6500300","中和區"
"235013","186-VK","2017/10/20 14:19:51","新北市中和區景新街230巷2號","121.508136666667","24.994115","6500300","中和區"
"235031","255-BX","2017/10/20 14:19:37","新北市中和區新生街164號","121.483683333333","25.000255","6500300","中和區"
"235008","293-VK","2017/10/20 14:19:44","新北市中和區中興街241號","121.500451666667","24.9890116666667","6500300","中和區"
"235036","301-VK","2017/10/20 14:19:47","新北市中和區永和路76號","121.497708333333","25.0050716666667","6500300","中和區"
"235007","352-BY","2017/10/20 14:19:50","新北市中和區景平路304號","121.512695","24.9929083333333","6500300","中和區"
"235015","376-QA","2017/10/20 14:19:34","新北市中和區和平街29-1號","121.507288333333","24.991005","6500300","中和區"
"235032","377-QA","2017/10/20 14:19:48","新北市中和區景平路493巷12弄4號","121.499003333333","24.9971966666667","6500300","中和區"
"235025","378-QA","2017/10/20 14:19:49","新北市中和區員山路143巷48號","121.4786","24.9953566666667","6500300","中和區"
"235035","269-TV","2017/10/20 14:19:36","新北市中和區中正路774號","121.485393333333","25.0001466666667","6500300","中和區"
"235014","4979-A6","2017/10/20 14:19:47","新北市中和區中正路422號","121.491715","24.9943","6500300","中和區"
"235033","4980-A6","2017/10/20 14:19:51","新北市中和區連城路134巷11號","121.495246666667","24.99999","6500300","中和區"
"235006","551-UM","2017/10/20 14:19:38","新北市永和區民有街1號","121.515723333333","24.99732","6500300","中和區"
"235034","558-UM","2017/10/20 14:19:38","新北市中和區中和路35-1號","121.500171666667","25.0014583333333","6500300","中和區"
"235009","565-BX","2017/10/20 14:19:40","新北市中和區景新街437巷31號","121.514651666667","24.98951","6500300","中和區"
"235018","640-BX","2017/10/20 14:19:35","新北市中和區民德路142號","121.468691666667","25.0004816666667","6500300","中和區"
"235024","647-TV","2017/10/20 14:19:40","新北市中和區中山路三段111號","121.474776666667","25.0059716666667","6500300","中和區"
"235011","732-UM","2017/10/20 14:19:46","新北市中和區景平路241巷57號","121.508086666667","24.9920883333333","6500300","中和區"
"235010","733-UM","2017/10/20 14:19:36","新北市中和區忠孝街2巷13弄2號","121.510491666667","24.98188","6500300","中和區"
"235026","800-TS","2017/10/20 14:19:54","新北市中和區中山路二段488-1號","121.487431666667","25.0049716666667","6500300","中和區"
"235021","801-TS","2017/10/20 14:19:25","新北市中和區員山路186號","121.481275","25.0003133333333","6500300","中和區"
"235005","802-TS","2017/10/20 14:19:42","新北市中和區宜安路102號","121.510503333333","24.997925","6500300","中和區"
"235016","805-TS","2017/10/20 14:19:41","新北市中和區興南路二段142巷17弄32號","121.50272","24.9827566666667","6500300","中和區"
"235012","896-TW","2017/10/20 14:19:53","新北市中和區華新街109巷1-3號","121.509111666667","24.9823183333333","6500300","中和區"
"235017","900-TW","2017/10/20 14:19:40","新北市中和區民德路216號","121.468266666667","24.9980966666667","6500300","中和區"
"235001","AAC-213","2017/10/20 14:19:46","新北市中和區秀朗路三段10巷14弄16號","121.524948333333","24.996605","6500300","中和區"
"235023","AAC-215","2017/10/20 14:19:48","新北市中和區圓通路252巷5弄38號","121.492191666667","24.9915766666667","6500300","中和區"
"220016","013-TV","2017/10/20 14:19:48","新北市板橋區萬安街91號","121.483696666667","25.0244983333333","6500100","板橋區"
"220013","072-UY","2017/10/20 14:19:50","新北市板橋區國泰街74號","121.467393333333","25.0065633333333","6500100","板橋區"
"220034","073-UY","2017/10/20 14:18:19","新北市板橋區中正路216巷10號","121.456406666667","25.0182566666667","6500100","板橋區"
"220105","075-UY","2017/10/20 14:19:35","新北市板橋區雙十路三段66巷1號","121.470556666667","25.03196","6500100","板橋區"
"220017","AAD-861","2017/10/20 14:19:44","新北市板橋區四川路一段148號","121.460035","25.00348","6500100","板橋區"
"247021","893-R6","2017/10/20 14:19:45","新北市蘆洲區三民路362-3號","121.465718333333","25.091975","6501400","蘆洲區"
"247011","546-UM","2017/10/20 14:19:49","新北市蘆洲區民權路3巷22號","121.475421666667","25.0852616666667","6501400","蘆洲區"
"247019","500-BY","2017/10/20 14:19:52","新北市蘆洲區仁愛街48號","121.471755","25.0936183333333","6501400","蘆洲區"
"247009","339-TH","2017/10/20 14:19:47","新北市蘆洲區中山一路122巷51號","121.476378333333","25.082665","6501400","蘆洲區"
"247001","337-TH","2017/10/20 14:19:41","新北市蘆洲區長安街332號","121.457493333333","25.088325","6501400","蘆洲區"
"247015","057-VK","2017/10/20 14:18:05","新北市蘆洲區光華路114號","121.466948333333","25.0827083333333","6501400","蘆洲區"
"247005","056-VK","2017/10/20 14:19:34","新北市蘆洲區長安街23巷23號","121.463478333333","25.0784033333333","6501400","蘆洲區"
"247007","053-VK","2017/10/20 14:19:43","新北市蘆洲區中山一路229號","121.473705","25.08069","6501400","蘆洲區"
"247013","007-UY","2017/10/20 14:19:34","新北市蘆洲區成功路74號","121.473091666667","25.081125","6501400","蘆洲區"
"247023","002-UY","2017/10/20 14:19:47","新北市蘆洲區三民路589號","121.461491666667","25.0932216666667","6501400","蘆洲區"
"247017","001-UY","2017/10/20 14:19:38","新北市蘆洲區民權路136-2號","121.473175","25.0889466666667","6501400","蘆洲區"
"227011","400-TW","2017/10/20 14:01:50","新北市雙溪區三貂里政光路3-1號","121.850851666667","25.0632316666667","6502500","雙溪區"
"208004","AAC-292","2017/10/20 14:19:42","新北市金山區重和里六股林口1號","121.610548333333","25.2220683333333","6502700","金山區"
"207002","749-BX","2017/10/20 14:19:33","新北市萬里區溪底里溪底路13號","121.614436666667","25.1491566666667","6502800","萬里區"
"207001","662-BX","2017/10/20 14:19:35","新北市萬里區磺潭里清水18號","121.637796666667","25.1977116666667","6502800","萬里區"
"236067","105-UM","2017/10/20 14:19:51","新北市土城區明德路一段385-1號","121.452601666667","24.979705","6501300","土城區"
"236041","107-UM","2017/10/20 14:19:49","新北市土城區裕生路21巷6弄21號","121.448738333333","24.986905","6501300","土城區"
"236077","166-UM","2017/10/20 14:19:44","新北市土城區中央路三段281巷23弄20號","121.426351666667","24.9614916666667","6501300","土城區"
"236029","253-BX","2017/10/20 14:19:42","新北市土城區順風路63號","121.44012","24.9773266666667","6501300","土城區"
"236025","269-VK","2017/10/20 14:19:46","新北市土城區承天路18號","121.439471666667","24.963565","6501300","土城區"
"236013","270-VK","2017/10/20 14:19:47","新北市土城區青雲路39巷7號","121.460341666667","24.987565","6501300","土城區"
"236035","271-VK","2017/10/20 14:19:44","新北市土城區青雲路449-1號","121.458978333333","24.9746716666667","6501300","土城區"
"236019","401-BY","2017/10/20 14:19:41","新北市土城區清水路50號","121.455455","24.98114","6501300","土城區"
"236006","498-BY","2017/10/20 14:19:32","新北市土城區中華路一段56巷22號","121.44448","24.9896133333333","6501300","土城區"
"236057","912-UM","2017/10/20 14:19:41","新北市土城區中央路四段207號","121.413981666667","24.9560483333333","6501300","土城區"
"236046","913-UM","2017/10/20 14:19:37","新北市土城區明德路一段288號","121.456578333333","24.9776683333333","6501300","土城區"
"236061","915-UM","2017/10/20 14:19:40","新北市土城區延壽路46號","121.470796666667","24.9917183333333","6501300","土城區"
"236054","AAC-216","2017/10/20 14:19:35","新北市土城區中華路二段98號","121.438081666667","24.9744266666667","6501300","土城區"
"238018","308-TH","2017/10/20 13:51:35","新北市樹林區育德街76巷1號","121.388728333333","24.968385","6500700","樹林區"
"221012","276-VK","2017/10/20 13:19:36","新北市汐止區汐萬路一段256巷3號","121.653446666667","25.074635","6501100","汐止區"
"220027","145-BY","2017/10/20 14:19:40","新北市板橋區民權路308號","121.457016666667","25.01621","6500100","板橋區"
"220028","200-UY","2017/10/20 14:19:46","新北市板橋區大觀路二段19巷37號","121.448055","25.00311","6500100","板橋區"
"220030","610-BX","2017/10/20 14:19:47","新北市板橋區篤行路三段99號","121.42624","24.984735","6500100","板橋區"
"220050","245-BX","2017/10/20 14:19:43","新北市板橋區雙十路二段110號","121.474238333333","25.0286433333333","6500100","板橋區"
"220004","276-BY","2017/10/20 14:19:43","新北市板橋區干城路20巷3號","121.459175","24.9934933333333","6500100","板橋區"
"220020","277-BY","2017/10/20 14:19:48","新北市板橋區金門街337巷9弄1號","121.430528333333","24.9846216666667","6500100","板橋區"
"220043","280-UM","2017/10/20 14:19:48","新北市板橋區吳鳳路23號","121.466998333333","25.0311366666667","6500100","板橋區"
"220019","283-VK","2017/10/20 14:19:47","新北市板橋區忠孝路48巷9弄19號","121.462003333333","25.0002116666667","6500100","板橋區"
"220001","285-VK","2017/10/20 14:19:50","新北市板橋區縣民大道三段270巷12號","121.478436666667","25.023015","6500100","板橋區"
"220031","286-VK","2017/10/20 14:19:52","新北市板橋區龍興街73巷2號","121.443923333333","25.00213","6500100","板橋區"
"220029","287-VK","2017/10/20 14:19:47","新北市板橋區南雅西路一段23號","121.453941666667","25.004245","6500100","板橋區"
"220039","288-VK","2017/10/20 14:19:52","新北市板橋區長江路一段106巷13弄2號","121.460175","25.029105","6500100","板橋區"
"220009","293-UM","2017/10/20 14:19:49","新北市板橋區中山路二段320號","121.480828333333","25.019385","6500100","板橋區"
"220032","296-UM","2017/10/20 14:19:51","新北市板橋區溪崑二街56巷20號","121.427891666667","24.991175","6500100","板橋區"
"220023","297-UM","2017/10/20 14:19:46","新北市板橋區南雅南路一段5巷19號","121.45648","25.0054633333333","6500100","板橋區"
"220010","303-R5","2017/10/20 14:19:43","新北市板橋區三民路二段153巷2弄2-1號","121.479468333333","25.0149883333333","6500100","板橋區"
"220041","307-R5","2017/10/20 14:19:51","新北市板橋區松江街72巷30號","121.469696666667","25.027745","6500100","板橋區"
"220047","317-R6","2017/10/20 14:19:46","新北市板橋區四維路266巷2弄25-1號","121.46409","25.0281183333333","6500100","板橋區"
"220012","486-VK","2017/10/20 14:19:51","新北市板橋區中山路一段137號","121.462538333333","25.0107616666667","6500100","板橋區"
"220038","487-VK","2017/10/20 14:19:36","新北市板橋區文化路二段1號","121.46814","25.0236133333333","6500100","板橋區"
"220037","491-VK","2017/10/20 14:19:43","新北市板橋區雙十路二段71號","121.476263333333","25.0268416666667","6500100","板橋區"
"220104","560-BX","2017/10/20 14:19:51","新北市板橋區中正路413巷2弄16號","121.45353","25.0231583333333","6500100","板橋區"
"220052","561-BX","2017/10/20 14:19:51","新北市板橋區介壽街20號","121.467628333333","25.02011","6500100","板橋區"
"220011","609-BX","2017/10/20 14:19:38","新北市板橋區三民路二段251號","121.479091666667","25.01225","6500100","板橋區"
"220040","637-BX","2017/10/20 14:19:49","新北市板橋區文聖街153號","121.478655","25.027885","6500100","板橋區"
"220005","686-BX","2017/10/20 14:19:31","新北市板橋區重慶路299號","121.463776666667","24.9988916666667","6500100","板橋區"
"220025","687-BX","2017/10/20 14:19:35","新北市板橋區大觀路二段57號","121.446576666667","25.0027366666667","6500100","板橋區"
"220042","689-BX","2017/10/20 14:19:47","新北市板橋區漢生西路26號","121.463586666667","25.018195","6500100","板橋區"
"220002","741-BX","2017/10/20 14:19:31","新北市板橋區四川路一段199號","121.46064","25.0037066666667","6500100","板橋區"
"220003","827-TW","2017/10/20 14:19:40","新北市板橋區館前東路156巷18號","121.464213333333","25.0069966666667","6500100","板橋區"
"220014","829-TW","2017/10/20 14:19:43","新北市板橋區長安街138巷5弄60號","121.474001666667","25.009585","6500100","板橋區"
"220051","830-TW","2017/10/20 14:19:50","新北市板橋區松柏街15巷9-3號","121.474028333333","25.030065","6500100","板橋區"
"220045","831-TW","2017/10/20 14:19:51","新北市板橋區大同街35巷17號","121.477241666667","25.0278383333333","6500100","板橋區"
"220022","895-R6","2017/10/20 14:19:40","新北市板橋區文化路一段27-1號","121.459946666667","25.0127116666667","6500100","板橋區"
"220021","985-R7","2017/10/20 14:19:36","新北市板橋區中正路249號","121.455801666667","25.0183","6500100","板橋區"
"220046","AAC-210","2017/10/20 14:19:53","新北市板橋區幸福路60巷8號","121.460605","25.0210466666667","6500100","板橋區"
"220018","AAC-253","2017/10/20 14:19:46","新北市板橋區忠孝路93號","121.462311666667","25.002235","6500100","板橋區"
