"lineid","car","time","location","longitude","latitude","cityid","cityname"
"234012","149-BY","2017/10/20 14:29:41","新北市三重區光復路二段188號","121.47128","25.0627866666667","6500400","永和區"
"234005","207-UY","2017/10/20 14:29:31","新北市永和區安樂路200號","121.51509","25.0017916666667","6500400","永和區"
"234078","298-R6","2017/10/20 14:29:50","新北市永和區永貞路74號","121.520295","25.0052033333333","6500400","永和區"
"234036","336-UY","2017/10/20 14:29:44","新北市永和區環河東路四段38號","121.528741666667","24.99896","6500400","永和區"
"234062","337-UY","2017/10/20 14:29:39","新北市永和區中正路524號","121.517306666667","25.004945","6500400","永和區"
"234084","338-UY","2017/10/20 14:29:40","新北市永和區光復街31號","121.516541666667","25.017665","6500400","永和區"
"234052","553-UM","2017/10/20 14:29:38","新北市永和區光復街60巷31號","121.518243333333","25.0173466666667","6500400","永和區"
"234028","746-BX","2017/10/20 14:29:34","新北市永和區得和路417號","121.525911666667","24.9991466666667","6500400","永和區"
"234060","AAD-866","2017/10/20 14:29:46","新北市永和區秀朗路一段120號","121.516985","25.003585","6500400","永和區"
"234040","862-TW","2017/10/20 14:29:32","新北市永和區安樂路330號","121.514428333333","25.0058166666667","6500400","永和區"
"234048","863-TW","2017/10/20 14:29:46","新北市永和區保福路三段2-1號","121.508595","25.0154816666667","6500400","永和區"
"234025","9371-KE","2017/10/20 14:29:51","新北市中和區安平路218號","121.513751666667","25.0000816666667","6500400","永和區"
"248019","225-UY","2017/10/20 14:03:22","新北市五股區凌雲路三段57號","121.425195","25.12505","6501500","五股區"
"234072","AAC-211","2017/10/20 14:29:40","新北市永和區竹林路39巷9號","121.518383333333","25.0145983333333","6500400","永和區"
"234066","AAC-212","2017/10/20 14:29:39","新北市永和區保平路290號","121.507986666667","25.004475","6500400","永和區"
"234001","AAC-295","2017/10/20 14:29:36","新北市永和區大新街2號","121.51447","25.0085316666667","6500400","永和區"
"244004","657-BX","2017/10/20 14:02:25","新北市林口區林口路76號","121.389708333333","25.08065","6501700","林口區"
"231002","002-UM","2017/10/20 14:29:36","新北市新店區中央路7號","121.533436666667","24.97861","6500600","新店區"
"231028","046-UY","2017/10/20 14:29:43","新北市新店區安康路二段147號","121.51126","24.9598766666667","6500600","新店區"
"231030","047-UY","2017/10/20 14:29:35","新北市新店區安民街65巷6號","121.516088333333","24.9668066666667","6500600","新店區"
"231029","106-UY","2017/10/20 14:29:40","新北市新店區安康路二段335號","121.498671666667","24.9561933333333","6500600","新店區"
"231012","108-UY","2017/10/20 14:29:45","新北市新店區中興路二段236巷1號","121.548083333333","24.97567","6500600","新店區"
"231022","187-VK","2017/10/20 14:28:45","新北市新店區桂山路81巷1號","121.567451666667","24.89919","6500600","新店區"
"231016","KEA-2219","2017/10/20 14:29:36","新北市新店區北宜路三段65號","121.576158333333","24.9516483333333","6500600","新店區"
"231023","AAD-862","2017/10/20 14:29:43","新北市新店區光明街119號","121.539008333333","24.96168","6500600","新店區"
"231027","3712-VJ","2017/10/20 14:29:45","新北市新店區北新路二段228巷13號","121.543438333333","24.9770933333333","6500600","新店區"
"231025","4716-K9","2017/10/20 14:29:49","新北市新店區民族路161號","121.537658333333","24.9767166666667","6500600","新店區"
"231038","4715-K9","2017/10/20 14:29:33","新北市新店區溪洲路8巷18號","121.533465","24.961795","6500600","新店區"
"231036","512-UM","2017/10/20 14:29:37","新北市新店區安祥路106-19號","121.476158333333","24.9604466666667","6500600","新店區"
"231035","515-UM","2017/10/20 14:29:43","新北市新店區安光路10-1號","121.513728333333","24.964145","6500600","新店區"
"231006","617-UM","2017/10/20 14:29:50","新北市新店區北宜路二段204號","121.559283333333","24.9544033333333","6500600","新店區"
"231001","619-UM","2017/10/20 14:29:32","新北市新店區中正路75巷71號","121.543068333333","24.968805","6500600","新店區"
"231003","641-BX","2017/10/20 14:29:44","新北市新店區中興路一段271號","121.545146666667","24.9680716666667","6500600","新店區"
"231034","645-TV","2017/10/20 14:29:50","新北市新店區黎明路50巷1號","121.501931666667","24.9490733333333","6500600","新店區"
"231013","719-UM","2017/10/20 14:29:29","新北市新店區民權路100-1號","121.536305","24.983325","6500600","新店區"
"231018","719-UY","2017/10/20 14:29:35","新北市新店區中央三街61號","121.526911666667","24.9749833333333","6500600","新店區"
"231032","720-UM","2017/10/20 14:29:45","新北市新店區安和路二段232-1號","121.516826666667","24.9770066666667","6500600","新店區"
"231005","897-TW","2017/10/20 14:29:51","新北市新店區北新路三段222號","121.540976666667","24.9845","6500600","新店區"
"231004","899-TW","2017/10/20 14:29:36","新北市新店區中正路263-2號","121.538473333333","24.9738416666667","6500600","新店區"
"231037","AKT-0513","2017/10/20 14:29:31","新北市新店區安康路二段318-1號","121.504663333333","24.9581616666667","6500600","新店區"
"235030","003-UY","2017/10/20 14:29:37","新北市中和區景新街137號","121.506021666667","24.997035","6500300","中和區"
"235028","005-UY","2017/10/20 14:29:47","新北市中和區南山路127巷29號","121.503503333333","24.9975216666667","6500300","中和區"
"235027","006-UY","2017/10/20 14:29:46","新北市中和區連城路219巷22弄1號","121.494815","24.9964133333333","6500300","中和區"
"235020","096-UM","2017/10/20 14:29:35","新北市中和區民富街33號","121.476378333333","25.007885","6500300","中和區"
"235003","097-UM","2017/10/20 14:29:32","新北市中和區秀峰街119巷8弄1號","121.519405","24.9890733333333","6500300","中和區"
"235029","098-UM","2017/10/20 14:29:46","新北市中和區莊敬路31巷21號","121.499863333333","25.0053566666667","6500300","中和區"
"235004","150-BY","2017/10/20 14:29:48","新北市中和區宜安路1巷6號","121.513121666667","24.99526","6500300","中和區"
"235022","151-BY","2017/10/20 14:29:50","新北市中和區連城路507號","121.482471666667","24.9955016666667","6500300","中和區"
"235019","183-VK","2017/10/20 14:29:37","新北市中和區民生街13巷3號","121.471585","25.0056266666667","6500300","中和區"
"235002","185-VK","2017/10/20 14:29:49","新北市中和區大仁街10巷50號","121.520406666667","24.992635","6500300","中和區"
"235013","186-VK","2017/10/20 14:29:47","新北市中和區景新街295巷29號","121.511106666667","24.9935666666667","6500300","中和區"
"235031","255-BX","2017/10/20 14:29:37","新北市中和區連城路324號","121.48333","24.9960216666667","6500300","中和區"
"235008","293-VK","2017/10/20 14:29:44","新北市中和區捷運路185號","121.505445","24.9914616666667","6500300","中和區"
"235036","301-VK","2017/10/20 14:29:47","新北市中和區中山路二段57號","121.504351666667","25.0047833333333","6500300","中和區"
"235007","352-BY","2017/10/20 14:29:50","新北市中和區景平路159巷1號","121.512645","24.992085","6500300","中和區"
"235015","376-QA","2017/10/20 14:29:34","新北市中和區景安路208巷31號","121.502381666667","24.99241","6500300","中和區"
"235032","377-QA","2017/10/20 14:29:51","新北市中和區廟美街16號","121.500951666667","25.0017666666667","6500300","中和區"
"235025","378-QA","2017/10/20 14:29:49","新北市中和區民利街14巷3-3號","121.480578333333","24.9995583333333","6500300","中和區"
"235035","269-TV","2017/10/20 14:29:36","新北市中和區連城路469巷66號","121.483441666667","24.9940916666667","6500300","中和區"
"235014","4979-A6","2017/10/20 14:29:47","新北市中和區和城路一段271巷1號","121.485501666667","24.99155","6500300","中和區"
"235006","551-UM","2017/10/20 14:29:38","新北市中和區中安街192號","121.511426666667","24.99936","6500300","中和區"
"235034","558-UM","2017/10/20 14:29:38","新北市中和區中山路二段232號","121.498508333333","25.002815","6500300","中和區"
"235009","565-BX","2017/10/20 14:29:40","新北市中和區景新街423號","121.51299","24.989255","6500300","中和區"
"235018","640-BX","2017/10/20 14:29:35","新北市中和區國光街112巷2弄1號","121.46998","25.0008016666667","6500300","中和區"
"235024","647-TV","2017/10/20 14:29:40","新北市中和區新生街114巷4號","121.48318","25.00239","6500300","中和區"
"235011","732-UM","2017/10/20 14:29:46","新北市中和區景平路259巷18號","121.507748333333","24.9927233333333","6500300","中和區"
"235010","733-UM","2017/10/20 14:29:36","新北市中和區忠孝街37巷52號","121.511105","24.9849366666667","6500300","中和區"
"235026","800-TS","2017/10/20 14:29:34","新北市中和區中山路二段369-1號","121.487416666667","25.0047333333333","6500300","中和區"
"235021","801-TS","2017/10/20 14:29:45","新北市中和區中山路三段37巷33號","121.479636666667","25.004885","6500300","中和區"
"235005","802-TS","2017/10/20 14:29:42","新北市永和區中和路307號","121.506598333333","24.999675","6500300","中和區"
"235016","805-TS","2017/10/20 14:29:41","新北市中和區華新街143巷57-2號","121.506396666667","24.9797566666667","6500300","中和區"
"235012","896-TW","2017/10/20 14:29:33","新北市中和區忠孝街60巷7號","121.511711666667","24.9838083333333","6500300","中和區"
"235017","900-TW","2017/10/20 14:29:44","新北市中和區民德路198號","121.4682","24.9988383333333","6500300","中和區"
"235001","AAC-213","2017/10/20 14:29:46","新北市中和區秀朗路三段10巷37弄6號","121.523888333333","24.9958316666667","6500300","中和區"
"235023","AAC-215","2017/10/20 14:29:48","新北市中和區圓通路278號","121.491875","24.9906816666667","6500300","中和區"
"220016","013-TV","2017/10/20 14:29:51","新北市板橋區中山路二段418號","121.48291","25.0210366666667","6500100","板橋區"
"220013","072-UY","2017/10/20 14:29:31","新北市板橋區實踐路93巷101號","121.467345","25.0059383333333","6500100","板橋區"
"220034","073-UY","2017/10/20 14:29:46","新北市板橋區中正路216巷150弄11號","121.46082","25.0189216666667","6500100","板橋區"
"220105","075-UY","2017/10/20 14:29:36","新北市板橋區長江路三段49號","121.473583333333","25.0340183333333","6500100","板橋區"
"220017","AAD-861","2017/10/20 14:29:44","新北市板橋區貴興路37號","121.457573333333","25.00377","6500100","板橋區"
"247021","893-R6","2017/10/20 14:29:45","新北市蘆洲區中正路418號","121.462966666667","25.093805","6501400","蘆洲區"
"247011","546-UM","2017/10/20 14:29:49","新北市蘆洲區中興街177號","121.48199","25.089905","6501400","蘆洲區"
"247019","500-BY","2017/10/20 14:29:32","新北市蘆洲區民族路492號","121.46996","25.0907233333333","6501400","蘆洲區"
"247009","339-TH","2017/10/20 14:29:44","新北市蘆洲區信義路154號","121.479338333333","25.08336","6501400","蘆洲區"
"247001","337-TH","2017/10/20 14:29:41","新北市蘆洲區永樂街38巷33弄60號","121.456306666667","25.0901183333333","6501400","蘆洲區"
"247015","057-VK","2017/10/20 14:29:45","新北市蘆洲區中正路185巷23弄2號","121.466908333333","25.08458","6501400","蘆洲區"
"247005","056-VK","2017/10/20 14:29:35","新北市蘆洲區長安街22巷31弄17號","121.464116666667","25.0803516666667","6501400","蘆洲區"
"247007","053-VK","2017/10/20 14:29:43","新北市蘆洲區中山一路61巷34號","121.477383333333","25.080695","6501400","蘆洲區"
"247013","007-UY","2017/10/20 14:29:34","新北市蘆洲區忠孝路20號","121.470755","25.084195","6501400","蘆洲區"
"247023","002-UY","2017/10/20 14:29:47","新北市蘆洲區中正路263巷2號","121.467376666667","25.08745","6501400","蘆洲區"
"247017","001-UY","2017/10/20 14:29:38","新北市蘆洲區復興路226號","121.479078333333","25.089325","6501400","蘆洲區"
"227011","400-TW","2017/10/20 14:01:50","新北市雙溪區三貂里政光路3-1號","121.850851666667","25.0632316666667","6502500","雙溪區"
"208004","AAC-292","2017/10/20 14:29:42","新北市金山區兩湖里葵扇湖11-1號","121.593938333333","25.229085","6502700","金山區"
"207002","749-BX","2017/10/20 14:21:53","新北市萬里區溪底里富士坪路24-2號","121.620616666667","25.1523033333333","6502800","萬里區"
"252005","073-UM","2017/10/20 14:29:40","新北市八里區商港路48號","121.395855","25.1450616666667","6502100","三芝區"
"207001","662-BX","2017/10/20 14:29:35","新北市萬里區磺潭里清水18-2號","121.639111666667","25.1989583333333","6502800","萬里區"
"236067","105-UM","2017/10/20 14:29:48","新北市土城區永豐路240號","121.4675","24.980745","6501300","土城區"
"236041","107-UM","2017/10/20 14:29:49","新北市土城區裕民路67巷14號","121.449853333333","24.987945","6501300","土城區"
"236077","166-UM","2017/10/20 14:29:44","新北市土城區大暖路61-2號","121.422128333333","24.958205","6501300","土城區"
"236029","253-BX","2017/10/20 14:29:37","新北市土城區水源街28號","121.440973333333","24.9754916666667","6501300","土城區"
"236025","269-VK","2017/10/20 14:29:46","新北市土城區承天路67號","121.439586666667","24.96342","6501300","土城區"
"236013","270-VK","2017/10/20 14:29:47","新北市土城區青雲路39巷7號","121.460316666667","24.9875616666667","6501300","土城區"
"236035","271-VK","2017/10/20 14:29:44","新北市土城區青雲路453號","121.45873","24.974625","6501300","土城區"
"236019","401-BY","2017/10/20 14:29:41","新北市土城區永豐路202巷14號","121.466221666667","24.9833633333333","6501300","土城區"
"236006","498-BY","2017/10/20 14:29:52","新北市土城區日新街37號","121.442988333333","24.9882183333333","6501300","土城區"
"236057","912-UM","2017/10/20 14:29:41","新北市土城區中央路四段281-7號","121.412271666667","24.9534533333333","6501300","土城區"
"236046","913-UM","2017/10/20 14:28:17","新北市土城區青雲路426號","121.458856666667","24.9722466666667","6501300","土城區"
"236061","915-UM","2017/10/20 14:29:41","新北市土城區延壽路111巷16號","121.46864","24.9937183333333","6501300","土城區"
"236054","AAC-216","2017/10/20 14:29:35","新北市土城區中華路二段123號","121.439081666667","24.9766083333333","6501300","土城區"
"238018","308-TH","2017/10/20 13:51:35","新北市樹林區育德街76巷1號","121.388728333333","24.968385","6500700","樹林區"
"221012","276-VK","2017/10/20 13:19:36","新北市汐止區汐萬路一段256巷3號","121.653446666667","25.074635","6501100","汐止區"
"220027","145-BY","2017/10/20 14:29:40","新北市板橋區建國街125號","121.460865","25.01764","6500100","板橋區"
"220028","200-UY","2017/10/20 14:29:44","新北市板橋區大觀路二段37巷140號","121.449293333333","25.001605","6500100","板橋區"
"220030","610-BX","2017/10/20 14:29:47","新北市板橋區金門街301號","121.430025","24.986485","6500100","板橋區"
"220050","245-BX","2017/10/20 14:29:43","新北市板橋區莊敬路220巷62號","121.471626666667","25.0208783333333","6500100","板橋區"
"220004","276-BY","2017/10/20 14:29:43","新北市板橋區國慶路49巷25-1號","121.459585","24.996505","6500100","板橋區"
"220020","277-BY","2017/10/20 14:29:39","新北市板橋區篤行路二段136號","121.42987","24.988485","6500100","板橋區"
"220043","280-UM","2017/10/20 14:29:28","新北市板橋區吳鳳路50巷21弄2號","121.468356666667","25.030415","6500100","板橋區"
"220019","283-VK","2017/10/20 14:29:49","新北市板橋區四川路一段325巷11號","121.459515","25.000235","6500100","板橋區"
"220001","285-VK","2017/10/20 14:29:49","新北市板橋區富山街53巷1弄1號","121.477543333333","25.0207783333333","6500100","板橋區"
"220031","286-VK","2017/10/20 14:29:32","新北市板橋區龍興街71巷17號","121.443041666667","25.002155","6500100","板橋區"
"220029","287-VK","2017/10/20 14:29:47","新北市板橋區大觀路一段75巷13號","121.447811666667","25.0045983333333","6500100","板橋區"
"220039","288-VK","2017/10/20 14:29:41","新北市板橋區長江路一段48巷2弄1號","121.45897","25.0287766666667","6500100","板橋區"
"220009","293-UM","2017/10/20 14:29:46","新北市板橋區成功路6巷47號","121.476581666667","25.0175966666667","6500100","板橋區"
"220032","296-UM","2017/10/20 14:29:47","新北市板橋區篤行路三段26號","121.428506666667","24.98684","6500100","板橋區"
"220023","297-UM","2017/10/20 14:29:46","新北市板橋區中正路275巷52號","121.453606666667","25.01824","6500100","板橋區"
"220010","303-R5","2017/10/20 14:29:45","新北市板橋區三民路二段95巷24號","121.480553333333","25.0162316666667","6500100","板橋區"
"220041","307-R5","2017/10/20 14:29:40","新北市板橋區光武街2巷27號","121.468701666667","25.0255933333333","6500100","板橋區"
"220047","317-R6","2017/10/20 14:29:46","新北市板橋區四維路326巷6號","121.462658333333","25.0303083333333","6500100","板橋區"
"220012","486-VK","2017/10/20 14:29:51","新北市板橋區中山路一段24號","121.460418333333","25.00816","6500100","板橋區"
"220038","487-VK","2017/10/20 14:29:36","新北市板橋區文化路一段189號","121.463161666667","25.0165633333333","6500100","板橋區"
"220037","491-VK","2017/10/20 14:29:43","新北市板橋區雙十路二段88號","121.474828333333","25.0282366666667","6500100","板橋區"
"220104","560-BX","2017/10/20 14:29:51","新北市板橋區新生街89巷8號","121.457883333333","25.0222433333333","6500100","板橋區"
"220052","561-BX","2017/10/20 14:29:51","新北市板橋區文化路一段216號","121.466525","25.020385","6500100","板橋區"
"220011","609-BX","2017/10/20 14:29:44","新北市板橋區三民路二段32號","121.479265","25.017985","6500100","板橋區"
"220040","637-BX","2017/10/20 14:29:29","新北市板橋區文聖街135巷27號","121.479078333333","25.0289433333333","6500100","板橋區"
"220005","686-BX","2017/10/20 14:29:37","新北市板橋區五權街37號","121.464385","24.9940516666667","6500100","板橋區"
"220025","687-BX","2017/10/20 14:29:50","新北市板橋區僑中二街98號","121.446141666667","25.0084666666667","6500100","板橋區"
"220042","689-BX","2017/10/20 14:29:43","新北市板橋區雨農路50號","121.461058333333","25.0243766666667","6500100","板橋區"
"220002","741-BX","2017/10/20 14:29:31","新北市板橋區光明街23號","121.460721666667","25.00269","6500100","板橋區"
"220003","827-TW","2017/10/20 14:29:43","新北市板橋區重慶路290巷20號","121.462385","24.9989166666667","6500100","板橋區"
"220014","829-TW","2017/10/20 14:29:43","新北市板橋區長安街138巷5弄2號","121.473076666667","25.00863","6500100","板橋區"
"220051","830-TW","2017/10/20 14:29:50","新北市板橋區文化路二段410巷42號","121.474436666667","25.0303566666667","6500100","板橋區"
"220045","831-TW","2017/10/20 14:29:31","新北市板橋區民生路二段226巷9號","121.470298333333","25.0217233333333","6500100","板橋區"
"220022","895-R6","2017/10/20 14:29:40","新北市板橋區大東街45號","121.456563333333","25.008475","6500100","板橋區"
"220021","985-R7","2017/10/20 14:29:36","新北市板橋區新生街92號","121.458201666667","25.021795","6500100","板橋區"
"220046","AAC-210","2017/10/20 14:29:53","新北市板橋區漢生西路131號","121.462738333333","25.02129","6500100","板橋區"
"220018","AAC-253","2017/10/20 14:29:46","新北市板橋區四川路一段151號","121.459925","25.004145","6500100","板橋區"
