"lineid","car","time","location","longitude","latitude","cityid","cityname"
"234028","746-BX","2017/10/20 14:59:34","新北市永和區成功路二段201巷10弄10號","121.527683333333","24.9956516666667","6500400","永和區"
"234025","9371-KE","2017/10/20 14:59:31","新北市中和區永貞路245號","121.51303","25.0039983333333","6500400","永和區"
"248019","225-UY","2017/10/20 14:59:49","新北市五股區中直路13-1號","121.424365","25.111995","6501500","五股區"
"244004","657-BX","2017/10/20 14:02:25","新北市林口區林口路76號","121.389708333333","25.08065","6501700","林口區"
"231002","002-UM","2017/10/20 14:59:37","新北市新店區民權路133號","121.535041666667","24.9826683333333","6500600","新店區"
"231028","046-UY","2017/10/20 14:59:43","新北市新店區安豐路49號","121.500026666667","24.9549216666667","6500600","新店區"
"231030","047-UY","2017/10/20 14:59:35","新北市新店區安民街339號","121.516956666667","24.9748883333333","6500600","新店區"
"231029","106-UY","2017/10/20 14:59:40","新北市新店區錦秀路33號","121.479243333333","24.9438816666667","6500600","新店區"
"231012","108-UY","2017/10/20 14:59:45","新北市新店區中興路三段205巷7弄1號","121.543215","24.9815583333333","6500600","新店區"
"231022","187-VK","2017/10/20 14:59:45","新北市新店區新烏路二段301號","121.549411666667","24.91164","6500600","新店區"
"231016","KEA-2219","2017/10/20 14:59:36","新北市新店區北宜路三段251號","121.596651666667","24.9528283333333","6500600","新店區"
"231026","256-BX","2017/10/20 14:59:48","新北市新店區中正路190號","121.540733333333","24.9723166666667","6500600","新店區"
"231023","AAD-862","2017/10/20 14:59:43","新北市新店區檳榔路107號","121.544676666667","24.9615866666667","6500600","新店區"
"231024","3713-VJ","2017/10/20 14:59:48","新北市新店區中華路83巷33號","121.53863","24.96791","6500600","新店區"
"231025","4716-K9","2017/10/20 14:59:49","新北市新店區大同街9號","121.53933","24.9800783333333","6500600","新店區"
"231036","512-UM","2017/10/20 14:59:37","新北市新店區安祥路102巷46弄9號","121.485115","24.964105","6500600","新店區"
"231035","515-UM","2017/10/20 14:59:43","新北市新店區安和路三段95號","121.517841666667","24.984205","6500600","新店區"
"231006","617-UM","2017/10/20 14:59:30","新北市新店區新坡一街85號","121.549131666667","24.9644683333333","6500600","新店區"
"231001","619-UM","2017/10/20 14:59:32","新北市新店區中正路278號","121.538773333333","24.9737566666667","6500600","新店區"
"231003","641-BX","2017/10/20 14:59:44","新北市新店區中興路二段224號","121.54789","24.97507","6500600","新店區"
"231034","645-TV","2017/10/20 14:59:50","新北市新店區玫瑰路4-1號","121.493545","24.9514366666667","6500600","新店區"
"231039","718-UY","2017/10/20 14:59:34","新北市新店區北新路二段268號","121.542548333333","24.97875","6500600","新店區"
"231018","719-UY","2017/10/20 14:59:35","新北市新店區中央路226號","121.529563333333","24.972865","6500600","新店區"
"231005","897-TW","2017/10/20 14:59:31","新北市新店區復興路51-8號","121.536521666667","24.9871083333333","6500600","新店區"
"231004","899-TW","2017/10/20 14:59:36","新北市新店區民族路37號","121.540723333333","24.978615","6500600","新店區"
"231037","AKT-0513","2017/10/20 14:59:50","新北市新店區安民街341-1號","121.51664","24.97501","6500600","新店區"
"235030","003-UY","2017/10/20 14:59:37","新北市中和區保平路300號","121.50787","25.0045883333333","6500300","中和區"
"235020","096-UM","2017/10/20 14:59:35","新北市板橋區漢生東路338號","121.471833333333","25.0075766666667","6500300","中和區"
"235003","097-UM","2017/10/20 14:59:52","新北市永和區中正路9號","121.51389","24.9957733333333","6500300","中和區"
"235029","098-UM","2017/10/20 14:59:46","新北市中和區景平路989巷1-1號","121.49588","25.0053766666667","6500300","中和區"
"235004","150-BY","2017/10/20 14:59:48","新北市中和區景安路79巷35號","121.507306666667","24.9963583333333","6500300","中和區"
"235022","151-BY","2017/10/20 14:59:50","新北市中和區員山路148巷4號","121.481513333333","24.9970533333333","6500300","中和區"
"235002","185-VK","2017/10/20 14:59:49","新北市中和區自立路6號","121.522471666667","24.9965733333333","6500300","中和區"
"235013","186-VK","2017/10/20 14:59:51","新北市中和區景平路530號","121.502748333333","24.99445","6500300","中和區"
"235031","255-BX","2017/10/20 14:59:37","新北市中和區中正路802號","121.485056666667","25.0017133333333","6500300","中和區"
"235008","293-VK","2017/10/20 14:59:44","新北市中和區板南路187-1號","121.500778333333","24.9927583333333","6500300","中和區"
"235036","301-VK","2017/10/20 14:59:47","新北市中和區板南路399巷2號","121.493526666667","24.9989866666667","6500300","中和區"
"235007","352-BY","2017/10/20 14:59:41","新北市中和區華新街232巷10號","121.505816666667","24.9821683333333","6500300","中和區"
"235015","376-QA","2017/10/20 14:59:34","新北市中和區南山路208巷16號","121.505618333333","24.9901633333333","6500300","中和區"
"235032","377-QA","2017/10/20 14:59:48","新北市中和區勝利路35巷3弄25號","121.50013","25.00752","6500300","中和區"
"235035","269-TV","2017/10/20 14:59:36","新北市中和區建二路15號","121.485325","25.0038083333333","6500300","中和區"
"235014","4979-A6","2017/10/20 14:59:47","新北市中和區景平路280號","121.513555","24.99251","6500300","中和區"
"235033","4980-A6","2017/10/20 14:59:51","新北市中和區中和路128號","121.50345","24.9997","6500300","中和區"
"235034","558-UM","2017/10/20 14:59:38","新北市中和區連勝街37號","121.498355","24.997695","6500300","中和區"
"235018","640-BX","2017/10/20 14:59:35","新北市中和區莒光路122號","121.472501666667","25.0018033333333","6500300","中和區"
"235010","733-UM","2017/10/20 14:59:36","新北市中和區興南路一段105巷20弄5號","121.510293333333","24.9854866666667","6500300","中和區"
"235016","805-TS","2017/10/20 14:59:41","新北市中和區忠孝街39-12號","121.512058333333","24.9843416666667","6500300","中和區"
"235012","896-TW","2017/10/20 14:59:33","新北市中和區忠孝街2-8號","121.5092","24.9829883333333","6500300","中和區"
"235017","900-TW","2017/10/20 14:59:40","新北市中和區民德路216號","121.468183333333","24.9980233333333","6500300","中和區"
"235001","AAC-213","2017/10/20 14:59:46","新北市中和區自立路147號","121.522616666667","24.9930016666667","6500300","中和區"
"235023","AAC-215","2017/10/20 14:59:48","新北市中和區圓通路335巷1弄2號","121.492288333333","24.990335","6500300","中和區"
"220016","013-TV","2017/10/20 14:59:34","新北市板橋區光復街230號","121.484751666667","25.0213666666667","6500100","板橋區"
"220013","072-UY","2017/10/20 14:59:50","新北市板橋區中山路一段154巷21號","121.46534","25.0104983333333","6500100","板橋區"
"220105","075-UY","2017/10/20 14:59:36","新北市板橋區民治街52巷20號","121.478756666667","25.03287","6500100","板橋區"
"220017","AAD-861","2017/10/20 14:59:44","新北市板橋區大明街17號","121.458835","25.00255","6500100","板橋區"
"247009","339-TH","2017/10/20 14:59:44","新北市五股區中興路三段163號","121.449145","25.0806816666667","6501400","蘆洲區"
"227011","400-TW","2017/10/20 14:41:14","新北市雙溪區三貂里政光路3-1號","121.850866666667","25.06309","6502500","雙溪區"
"208004","AAC-292","2017/10/20 14:59:42","新北市金山區法鼓路555號","121.613841666667","25.2394033333333","6502700","金山區"
"207002","749-BX","2017/10/20 14:59:33","新北市萬里區崁腳里崁腳路73號","121.647565","25.15962","6502800","萬里區"
"252005","073-UM","2017/10/20 14:59:40","新北市淡水區中正東路二段37號","121.459215","25.156355","6502100","三芝區"
"207001","662-BX","2017/10/20 14:59:35","新北市萬里區雙興里麗水路5號","121.65287","25.1837316666667","6502800","萬里區"
"236067","105-UM","2017/10/20 14:59:31","新北市土城區中央路一段291巷14號","121.444978333333","24.983725","6501300","土城區"
"236041","107-UM","2017/10/20 14:59:53","新北市土城區裕民路214巷7號","121.453033333333","24.9839966666667","6501300","土城區"
"236077","166-UM","2017/10/20 14:59:43","新北市土城區中州路24巷21號","121.415145","24.9578966666667","6501300","土城區"
"236029","253-BX","2017/10/20 14:59:37","新北市土城區中華路二段1號","121.43973","24.9793","6501300","土城區"
"236025","269-VK","2017/10/20 14:59:46","新北市土城區中正路74巷6弄2號","121.444683333333","24.97497","6501300","土城區"
"236013","270-VK","2017/10/20 14:59:47","新北市土城區立德路13巷22號","121.461691666667","24.9887683333333","6501300","土城區"
"236035","271-VK","2017/10/20 14:59:44","新北市土城區仁愛路4號","121.459795","24.98119","6501300","土城區"
"236019","401-BY","2017/10/20 14:59:41","新北市土城區延吉街168巷9號","121.468095","24.985855","6501300","土城區"
"236057","912-UM","2017/10/20 14:59:41","新北市土城區清水路1號","121.452895","24.9801516666667","6501300","土城區"
"236046","913-UM","2017/10/20 14:45:57","新北市土城區青雲路35號","121.460241666667","24.988885","6501300","土城區"
"236061","915-UM","2017/10/20 14:59:41","新北市土城區延和路88巷1號","121.466581666667","24.9893066666667","6501300","土城區"
"236054","AAC-216","2017/10/20 14:59:40","新北市土城區學成路97-1號","121.450575","24.988695","6501300","土城區"
"238018","308-TH","2017/10/20 13:51:35","新北市樹林區育德街76巷1號","121.388728333333","24.968385","6500700","樹林區"
"221012","276-VK","2017/10/20 13:19:36","新北市汐止區汐萬路一段256巷3號","121.653446666667","25.074635","6501100","汐止區"
"220027","145-BY","2017/10/20 14:59:40","新北市板橋區南雅西路二段211號","121.451225","25.0135133333333","6500100","板橋區"
"220030","610-BX","2017/10/20 14:59:47","新北市板橋區存德街83號","121.432016666667","24.9911516666667","6500100","板橋區"
"220050","245-BX","2017/10/20 14:59:43","新北市板橋區莒光路165巷32號","121.4744","25.0247316666667","6500100","板橋區"
"220020","277-BY","2017/10/20 14:59:39","新北市板橋區金門街109巷29號","121.433908333333","24.9914833333333","6500100","板橋區"
"220043","280-UM","2017/10/20 14:59:48","新北市板橋區雨農路16號","121.462145","25.02477","6500100","板橋區"
"220019","283-VK","2017/10/20 14:59:47","新北市中和區和平路200巷33號","121.465098333333","24.9945633333333","6500100","板橋區"
"220001","285-VK","2017/10/20 14:59:30","新北市板橋區永豐街155號","121.475375","25.0202766666667","6500100","板橋區"
"220031","286-VK","2017/10/20 14:59:32","新北市板橋區僑中二街92巷13號","121.4456","25.0089816666667","6500100","板橋區"
"220029","287-VK","2017/10/20 14:57:28","新北市板橋區僑中一街124巷20弄24號","121.447156666667","25.0139016666667","6500100","板橋區"
"220039","288-VK","2017/10/20 14:59:32","新北市板橋區新海路120號","121.461225","25.0228033333333","6500100","板橋區"
"220009","293-UM","2017/10/20 14:59:49","新北市板橋區板新路136號","121.470761666667","25.0155233333333","6500100","板橋區"
"220032","296-UM","2017/10/20 14:59:51","新北市板橋區滿平街2巷10號","121.425245","24.98938","6500100","板橋區"
"220023","297-UM","2017/10/20 14:59:46","新北市板橋區金華街10巷84號","121.458043333333","25.020315","6500100","板橋區"
"220010","303-R5","2017/10/20 14:59:43","新北市板橋區民生路二段120號","121.470506666667","25.0195666666667","6500100","板橋區"
"220041","307-R5","2017/10/20 14:59:40","新北市板橋區英士路76號","121.460093333333","25.0244466666667","6500100","板橋區"
"220047","317-R6","2017/10/20 14:59:46","新北市板橋區新海路72巷30號","121.46243","25.022445","6500100","板橋區"
"220012","486-VK","2017/10/20 14:59:31","新北市板橋區區運路3號","121.465171666667","25.0094116666667","6500100","板橋區"
"220038","487-VK","2017/10/20 14:59:36","新北市板橋區龍泉街124巷2號","121.456875","25.0240983333333","6500100","板橋區"
"220037","491-VK","2017/10/20 14:59:43","新北市板橋區仁化街124號","121.477215","25.0326433333333","6500100","板橋區"
"220052","561-BX","2017/10/20 14:59:51","新北市板橋區自由路43號","121.46559","25.0232883333333","6500100","板橋區"
"220011","609-BX","2017/10/20 14:59:38","新北市板橋區三民路一段107號","121.47941","25.0213966666667","6500100","板橋區"
"220040","637-BX","2017/10/20 14:59:49","新北市板橋區文聖街73號","121.477406666667","25.0306683333333","6500100","板橋區"
"220005","686-BX","2017/10/20 14:59:52","新北市板橋區四川路二段94號","121.451846666667","24.9946116666667","6500100","板橋區"
"220025","687-BX","2017/10/20 14:59:35","新北市板橋區僑中一街124巷70-5號","121.448761666667","25.0162716666667","6500100","板橋區"
"220042","689-BX","2017/10/20 14:59:43","新北市板橋區長江路三段128號","121.475503333333","25.0344516666667","6500100","板橋區"
"220002","741-BX","2017/10/20 14:59:51","新北市板橋區忠孝路忠義巷9弄22號","121.465346666667","25.0041116666667","6500100","板橋區"
"220003","827-TW","2017/10/20 14:59:53","新北市板橋區重慶路308巷20號","121.46351","24.997505","6500100","板橋區"
"220014","829-TW","2017/10/20 14:59:43","新北市板橋區中山路一段285號","121.470285","25.014035","6500100","板橋區"
"220051","830-TW","2017/10/20 14:59:50","新北市板橋區懷德街67號","121.477575","25.03231","6500100","板橋區"
"220045","831-TW","2017/10/20 14:59:51","新北市板橋區莒光路79巷2號","121.471831666667","25.0243216666667","6500100","板橋區"
"220046","AAC-210","2017/10/20 14:59:53","新北市板橋區光正街23巷4號","121.462105","25.016825","6500100","板橋區"
"220018","AAC-253","2017/10/20 14:59:46","新北市板橋區重慶路112號","121.461956666667","25.005115","6500100","板橋區"
