"lineid","car","time","location","longitude","latitude","cityid","cityname"
"234026","9371-KE","2017/10/20 17:59:44","新北市永和區永和路一段45-1號","121.51278","25.006305","6500400","永和區"
"249005","172-UM","2017/10/20 17:59:47","新北市八里區荖阡坑路16號","121.397836666667","25.1383183333333","6502300","八里區"
"249001","173-UM","2017/10/20 17:59:37","新北市八里區龍米路二段39號","121.448398333333","25.14009","6502300","八里區"
"249004","303-UY","2017/10/20 17:59:53","新北市八里區中山路一段1號","121.423091666667","25.15898","6502300","八里區"
"249002","305-UY","2017/10/20 17:59:53","新北市八里區龍米路一段440巷8號","121.451288333333","25.1338983333333","6502300","八里區"
"249003","759-BX","2017/10/20 17:59:21","新北市八里區中山路二段306號","121.404641666667","25.1501316666667","6502300","八里區"
"248006","077-UY","2017/10/20 17:59:45","新北市五股區中興路二段37巷28號","121.460095","25.0748983333333","6501500","五股區"
"248008","095-VK","2017/10/20 17:59:36","新北市五股區更洲路10號","121.458295","25.0788083333333","6501500","五股區"
"248018","225-UY","2017/10/20 17:59:42","新北市五股區中興路二段83巷26-6號","121.460005","25.0751583333333","6501500","五股區"
"248004","677-BX","2017/10/20 17:59:37","新北市五股區中興路二段161號","121.457598333333","25.0773583333333","6501500","五股區"
"232011","375-UM","2017/10/20 17:59:46","新北市坪林區北宜路八段216號","121.708661666667","24.93482","6502000","坪林區"
"244013","069-UM","2017/10/20 17:59:37","新北市林口區中山路164號","121.390278333333","25.0787616666667","6501700","林口區"
"244007","080-UY","2017/10/20 17:59:55","新北市林口區竹林路77-8號","121.388678333333","25.0797016666667","6501700","林口區"
"244019","403-UM","2017/10/20 17:59:41","新北市林口區忠孝路531巷21號","121.372381666667","25.0698966666667","6501700","林口區"
"244025","742-UY","2017/10/20 17:59:35","新北市林口區八德路500巷52號","121.356576666667","25.0675883333333","6501700","林口區"
"244009","410-SL","2017/10/20 17:59:38","新北市林口區竹林路582巷7號","121.386165","25.0832483333333","6501700","林口區"
"244023","483-VK","2017/10/20 17:59:53","新北市林口區東湖路93巷89號","121.385583333333","25.0707783333333","6501700","林口區"
"244017","485-VK","2017/10/20 17:59:41","新北市林口區文化二路一段230巷5號","121.37063","25.0721516666667","6501700","林口區"
"244011","701-TV","2017/10/20 17:59:35","新北市林口區中正路60號","121.39504","25.0774383333333","6501700","林口區"
"244021","838-TS","2017/10/20 17:59:46","新北市林口區新寮27-6號","121.396258333333","25.0662516666667","6501700","林口區"
"222003","436-BY","2017/10/20 17:59:38","新北市深坑區炮子崙23號","121.607178333333","24.9909016666667","6501800","深坑區"
"222002","659-BX","2017/10/20 17:59:33","新北市深坑區文化街98號","121.617053333333","25.00184","6501800","深坑區"
"231046","278-BY","2017/10/20 17:59:52","新北市新店區康雅崙路7號","121.536095","24.92599","6500600","新店區"
"241016","265-UM","2017/10/20 17:59:39","新北市三重區大同北路97-3號","121.4944","25.0636866666667","6500200","三重區"
"241024","KEA-2210","2017/10/20 17:59:52","新北市三重區中正北路193巷35弄25號","121.477125","25.071055","6500200","三重區"
"241033","AAC-255","2017/10/20 17:59:42","新北市三重區重新路五段567號","121.470281666667","25.046005","6500200","三重區"
"235064","005-UY","2017/10/20 17:59:56","新北市中和區員山路36巷16-3號","121.485121666667","24.9913066666667","6500300","中和區"
"235058","151-BY","2017/10/20 17:59:40","新北市中和區錦和路350-1號","121.49017","24.99356","6500300","中和區"
"235038","185-VK","2017/10/20 17:59:40","新北市中和區中正路589巷1號","121.48587","24.9943283333333","6500300","中和區"
"235051","376-QA","2017/10/20 15:24:23","新北市中和區員山路36巷13號","121.484168333333","24.99088","6500300","中和區"
"235061","378-QA","2017/10/20 17:59:05","新北市中和區員山路36巷16-2號","121.485288333333","24.9916883333333","6500300","中和區"
"235069","4980-A6","2017/10/20 17:59:50","新北市中和區和城路一段271巷1號","121.48542","24.991675","6500300","中和區"
"235042","551-UM","2017/10/20 17:59:43","新北市中和區和城路一段271巷1號","121.485596666667","24.9916166666667","6500300","中和區"
"235037","AAC-213","2017/10/20 17:59:54","新北市中和區員山路36巷16-2號","121.485308333333","24.9917716666667","6500300","中和區"
"235059","AAC-215","2017/10/20 17:59:26","新北市中和區員山路36巷16-3號","121.48499","24.991315","6500300","中和區"
"247022","893-R6","2017/10/20 17:59:45","新北市蘆洲區中正路516巷5號","121.461175","25.097885","6501400","蘆洲區"
"247012","546-UM","2017/10/20 17:59:35","新北市蘆洲區民族路200號","121.479868333333","25.08731","6501400","蘆洲區"
"247020","500-BY","2017/10/20 17:59:45","新北市蘆洲區民義街9巷18號","121.471023333333","25.0890583333333","6501400","蘆洲區"
"247010","339-TH","2017/10/20 17:59:42","新北市蘆洲區中山二路309號","121.4691","25.0770366666667","6501400","蘆洲區"
"247002","337-TH","2017/10/20 17:59:51","新北市蘆洲區永平街32巷57弄35號","121.458445","25.093385","6501400","蘆洲區"
"247016","057-VK","2017/10/20 17:59:54","新北市蘆洲區中正路185巷90號","121.46552","25.0839133333333","6501400","蘆洲區"
"247014","007-UY","2017/10/20 17:59:46","新北市蘆洲區忠孝路53號","121.47133","25.0866216666667","6501400","蘆洲區"
"247024","002-UY","2017/10/20 17:59:56","新北市蘆洲區長興路50巷5號","121.463975","25.0841316666667","6501400","蘆洲區"
"247018","001-UY","2017/10/20 17:59:50","新北市蘆洲區復興路324號","121.482033333333","25.0902933333333","6501400","蘆洲區"
"226004","205-ST","2017/10/20 17:59:44","新北市平溪區石底里石筍尖16號","121.732343333333","25.026095","6502400","平溪區"
"228001","212-TW","2017/10/20 17:59:37","新北市貢寮區真理里新港街26巷51號","121.927836666667","25.0532983333333","6502600","貢寮區"
"228002","663-BX","2017/10/20 17:59:48","新北市貢寮區福連里香蘭街7-3號","121.975556666667","25.02412","6502600","貢寮區"
"228003","828-UM","2017/10/20 17:59:44","新北市貢寮區真理里美艷山街6-2號","121.928908333333","25.0606833333333","6502600","貢寮區"
"224006","676-BX","2017/10/20 17:59:38","新北市瑞芳區傑魚坑路183號","121.788441666667","25.1082866666667","6501200","瑞芳區"
"224002","639-TC","2017/10/20 17:59:39","新北市瑞芳區三爪子坑路151號","121.81057","25.10623","6501200","瑞芳區"
"224009","285-BY","2017/10/20 17:59:50","新北市瑞芳區金光路316巷13號","121.850618333333","25.1079966666667","6501200","瑞芳區"
"224008","275-VK","2017/10/20 17:59:49","新北市瑞芳區員山子路23號","121.821355","25.1029916666667","6501200","瑞芳區"
"224005","271-BY","2017/10/20 17:59:51","新北市瑞芳區深澳路185-5號","121.820701666667","25.13381","6501200","瑞芳區"
"253005","032-BX","2017/10/20 17:59:38","新北市石門區中山路62-13號","121.567455","25.28976","6502200","石門區"
"253006","295-VK","2017/10/20 17:59:47","新北市石門區大丘田45-5號","121.549706666667","25.275755","6502200","石門區"
"222001","KEA-2212","2017/10/20 17:59:38","新北市深坑區北深路三段22號","121.60932","25.0010883333333","6501800","深坑區"
"208002","742-BX","2017/10/20 17:59:48","新北市金山區三界壇路38號","121.625108333333","25.2285833333333","6502700","金山區"
"208003","665-BX","2017/10/20 17:59:52","新北市金山區磺港里磺港路312號","121.64419","25.2278133333333","6502700","金山區"
"208001","761-BX","2017/10/20 17:59:48","新北市金山區磺港里磺港路251號","121.644438333333","25.225515","6502700","金山區"
"251004","009-UM","2017/10/20 17:59:15","新北市淡水區民權路187巷54號","121.461333333333","25.1337716666667","6501000","淡水區"
"251002","012-UM","2017/10/20 17:59:46","新北市淡水區鼻頭街18-5號","121.446755","25.1667033333333","6501000","淡水區"
"251013","180-VK","2017/10/20 17:59:36","新北市淡水區泉洲厝31號","121.479538333333","25.1910416666667","6501000","淡水區"
"251008","181-VK","2017/10/20 17:59:42","新北市淡水區八勢一街32巷1號","121.461876666667","25.1557416666667","6501000","淡水區"
"251015","182-VK","2017/10/20 17:59:48","新北市淡水區興福寮1-6號","121.488076666667","25.1640216666667","6501000","淡水區"
"251010","413-VK","2017/10/20 17:59:42","新北市淡水區淡海路46號","121.423253333333","25.1800366666667","6501000","淡水區"
"251012","441-VK","2017/10/20 17:59:41","新北市淡水區北新路三段38巷7號","121.484501666667","25.1869633333333","6501000","淡水區"
"251005","443-VK","2017/10/20 17:59:53","新北市淡水區水源街一段83巷149-11號","121.447623333333","25.173065","6501000","淡水區"
"251001","559-UM","2017/10/20 17:59:38","新北市淡水區民權路14號","121.463071666667","25.1245266666667","6501000","淡水區"
"251006","561-UM","2017/10/20 17:59:37","新北市淡水區真理街2-1號","121.438663333333","25.1729966666667","6501000","淡水區"
"251009","575-R6","2017/10/20 17:59:48","新北市淡水區中山北路一段6號","121.44159","25.17469","6501000","淡水區"
"251007","577-R6","2017/10/20 17:59:39","新北市淡水區中正東路二段153號","121.459613333333","25.1465833333333","6501000","淡水區"
"251011","650-BX","2017/10/20 17:59:48","新北市淡水區三空泉6號","121.477686666667","25.162105","6501000","淡水區"
"251003","766-UM","2017/10/20 17:59:48","新北市淡水區大忠街77-1號","121.445653333333","25.1772516666667","6501000","淡水區"
"207003","550-UM","2017/10/20 17:59:40","新北市萬里區野柳里港東路167-1號","121.690045","25.2052466666667","6502800","萬里區"
"207004","225-TW","2017/10/20 17:59:37","新北市萬里區中幅里中福路48號","121.68352","25.17419","6502800","萬里區"
"252002","178-VK","2017/10/20 17:59:52","新北市三芝區中山路二段38號","121.502975","25.2551333333333","6502100","三芝區"
"252001","292-VK","2017/10/20 17:59:37","新北市三芝區中興街一段30號","121.497728333333","25.2578233333333","6502100","三芝區"
"237004","078-UY","2017/10/20 17:59:45","新北市三峽區中正路二段196號","121.365986666667","24.9148416666667","6500900","三峽區"
"237007","153-BY","2017/10/20 17:59:52","新北市三峽區中正路二段92號","121.366385","24.9177583333333","6500900","三峽區"
"237009","210-TH","2017/10/20 17:59:42","新北市三峽區中山路106巷3號","121.366063333333","24.9360333333333","6500900","三峽區"
"237013","252-BX","2017/10/20 17:59:46","新北市三峽區介壽路一段232號","121.378431666667","24.9304466666667","6500900","三峽區"
"237012","275-BY","2017/10/20 17:59:39","新北市三峽區民生街35號","121.375556666667","24.9363266666667","6500900","三峽區"
"237008","302-VK","2017/10/20 17:59:42","新北市三峽區正義街129號","121.368515","24.9166883333333","6500900","三峽區"
"237014","433-BY","2017/10/20 17:59:50","新北市三峽區和平街36巷7弄5號","121.370806666667","24.9374033333333","6500900","三峽區"
"237006","5529-G3","2017/10/20 17:59:34","新北市三峽區介壽路二段138巷13-1號","121.395623333333","24.9337933333333","6500900","三峽區"
"237011","572-TV","2017/10/20 17:58:42","新北市三峽區大同路17號","121.377163333333","24.9286516666667","6500900","三峽區"
"237010","706-TV","2017/10/20 17:38:26","新北市三峽區中山路198號","121.36307","24.937225","6500900","三峽區"
"237005","AKY-6261","2017/10/20 17:59:50","新北市三峽區復興路237巷38號","121.3688","24.9378133333333","6500900","三峽區"
"236072","105-UM","2017/10/20 17:59:38","新北市土城區城林路6巷80號","121.438445","24.9797983333333","6501300","土城區"
"236043","107-UM","2017/10/20 17:51:11","新北市土城區城林路6巷80號","121.438455","24.9797066666667","6501300","土城區"
"236079","166-UM","2017/10/20 17:59:52","新北市土城區永寧路32巷10弄3號","121.428833333333","24.9610233333333","6501300","土城區"
"236031","253-BX","2017/10/20 17:59:49","新北市土城區城林路6巷80號","121.43851","24.9796533333333","6501300","土城區"
"236027","269-VK","2017/10/20 17:59:43","新北市土城區承天路18號","121.439361666667","24.9634783333333","6501300","土城區"
"236015","270-VK","2017/10/20 17:59:53","新北市土城區城林路6巷80號","121.438551666667","24.9796133333333","6501300","土城區"
"236039","271-VK","2017/10/20 17:59:45","新北市土城區城林路6巷80號","121.438548333333","24.9800566666667","6501300","土城區"
"236022","401-BY","2017/10/20 17:59:39","新北市土城區城林路6巷80號","121.438743333333","24.979735","6501300","土城區"
"236059","912-UM","2017/10/20 17:59:56","新北市土城區中央路三段168號","121.430978333333","24.965185","6501300","土城區"
"236046","913-UM","2017/10/20 17:59:36","新北市土城區城林路6巷80號","121.438523333333","24.9796383333333","6501300","土城區"
"236063","915-UM","2017/10/20 17:59:40","新北市土城區城林路6巷80號","121.438615","24.9796816666667","6501300","土城區"
"236055","AAC-216","2017/10/20 17:59:51","新北市土城區城林路6巷80號","121.43846","24.97978","6501300","土城區"
"242032","AAC-296","2017/10/20 17:59:43","新北市新莊區新泰路316號","121.445165","25.0415266666667","6500500","新莊區"
"242029","986-R7","2017/10/20 17:59:36","新北市新莊區中平路57號","121.444753333333","25.0444566666667","6500500","新莊區"
"242050","751-BX","2017/10/20 17:59:41","新北市新莊區龍安路498號","121.42659","25.0171683333333","6500500","新莊區"
"242025","705-TV","2017/10/20 17:59:51","新北市三重區光復路二段178-8號","121.470806666667","25.061625","6500500","新莊區"
"242023","613-BX","2017/10/20 17:59:35","新北市新莊區福壽街68號","121.45826","25.04917","6500500","新莊區"
"242027","612-BX","2017/10/20 17:59:38","新北市新莊區思源路455號","121.459821666667","25.0534133333333","6500500","新莊區"
"242039","566-BX","2017/10/20 17:59:50","新北市新莊區民安西路9號","121.42667","25.0217216666667","6500500","新莊區"
"242044","497-BY","2017/10/20 17:59:36","新北市新莊區雙鳳路135號","121.412875","25.0273033333333","6500500","新莊區"
"242048","441-UM","2017/10/20 17:59:49","新北市新莊區萬安街55號","121.421535","25.0244083333333","6500500","新莊區"
"242054","440-UM","2017/10/20 17:59:36","新北市新莊區光華街1號","121.428728333333","25.01055","6500500","新莊區"
"242005","413-TV","2017/10/20 17:59:41","新北市新莊區福樂街72巷16號","121.458745","25.0466033333333","6500500","新莊區"
"242041","400-BY","2017/10/20 17:59:51","新北市新莊區中正路857號","121.41966","25.028135","6500500","新莊區"
"242060","362-BY","2017/10/20 17:59:42","新北市新莊區新樹路493號","121.432693333333","25.0122566666667","6500500","新莊區"
"242058","353-BY","2017/10/20 17:59:46","新北市新莊區雙鳳路134巷5號","121.41266","25.0280433333333","6500500","新莊區"
"242007","132-UY","2017/10/20 17:59:50","新北市新莊區自信街24號","121.45408","25.0482416666667","6500500","新莊區"
"242037","133-UY","2017/10/20 17:59:46","新北市新莊區建福路51號","121.426696666667","25.0277283333333","6500500","新莊區"
"242021","135-UY","2017/10/20 17:59:42","新北市新莊區中正路178號","121.450123333333","25.0357933333333","6500500","新莊區"
"242046","172-VK","2017/10/20 17:59:42","新北市新莊區福營路167號","121.431798333333","25.0311783333333","6500500","新莊區"
"242009","173-VK","2017/10/20 17:58:08","新北市新莊區昌平街51巷12號","121.454045","25.0529433333333","6500500","新莊區"
"242015","175-VK","2017/10/20 17:59:39","新北市新莊區中平路87巷3號","121.444546666667","25.0457866666667","6500500","新莊區"
"242002","176-VK","2017/10/20 17:59:37","新北市新莊區中正路147-8號","121.457601666667","25.0370533333333","6500500","新莊區"
"242019","348-TH","2017/10/20 17:59:51","新北市新莊區明中街43巷27號","121.457103333333","25.0385733333333","6500500","新莊區"
"242056","349-TH","2017/10/20 17:59:53","新北市新莊區豐年街124巷18號","121.44555","25.02984","6500500","新莊區"
"242017","350-TH","2017/10/20 17:59:48","新北市新莊區永樂街193號","121.448275","25.044595","6500500","新莊區"
"242011","351-TH","2017/10/20 17:59:32","新北市新莊區中港路中慶巷49號","121.448568333333","25.0536666666667","6500500","新莊區"
"238015","755-BX","2017/10/20 17:59:43","新北市樹林區啟智街80巷15弄3號","121.418831666667","24.9920783333333","6500700","樹林區"
"238023","601-UM","2017/10/20 17:59:54","新北市樹林區福興街3巷11號","121.404768333333","25.017145","6500700","樹林區"
"238019","599-UM","2017/10/20 17:59:34","新北市樹林區忠孝街15號","121.423373333333","24.9826816666667","6500700","樹林區"
"238018","571-TV","2017/10/20 17:59:49","新北市樹林區博愛街163-3號","121.425186666667","24.989925","6500700","樹林區"
"238021","KEA-2217","2017/10/20 17:59:39","新北市樹林區柑園街一段37號","121.403583333333","24.9600833333333","6500700","樹林區"
"238022","KEA-2213","2017/10/20 17:59:52","新北市樹林區太順街86巷28號","121.416625","24.9786733333333","6500700","樹林區"
"238025","303-VK","2017/10/20 17:59:38","新北市樹林區俊興街211巷5號","121.417086666667","25.0143833333333","6500700","樹林區"
"238014","282-BY","2017/10/20 17:59:39","新北市樹林區大安路125巷27號","121.42333","24.9968283333333","6500700","樹林區"
"238020","268-VK","2017/10/20 17:59:36","新北市樹林區三俊街199巷35-4號","121.420908333333","25.0183866666667","6500700","樹林區"
"238026","172-UY","2017/10/20 17:59:40","新北市樹林區中山路三段127-1號","121.396685","24.9732883333333","6500700","樹林區"
"238016","169-UY","2017/10/20 17:59:38","新北市樹林區復興路377號","121.416835","24.986855","6500700","樹林區"
"239007","AAC-297","2017/10/20 17:59:47","新北市鶯歌區鶯桃路45號","121.342263333333","24.9514183333333","6500800","鶯歌區"
"239006","891-R6","2017/10/20 17:59:53","新北市鶯歌區鶯桃路455巷2弄2號","121.331836666667","24.9654466666667","6500800","鶯歌區"
"239008","527-UM","2017/10/20 17:59:48","新北市鶯歌區香賓街13巷11號","121.3366","24.9798833333333","6500800","鶯歌區"
"239005","526-UM","2017/10/20 17:59:45","新北市鶯歌區大湖路361巷81-1號","121.333038333333","24.9739316666667","6500800","鶯歌區"
"239001","417-VK","2017/10/20 17:59:40","新北市鶯歌區中正三路39號","121.339","24.9418266666667","6500800","鶯歌區"
"239003","360-BY","2017/10/20 17:59:40","新北市鶯歌區鶯桃路352號","121.333893333333","24.9626183333333","6500800","鶯歌區"
"239002","359-BY","2017/10/20 17:59:47","新北市鶯歌區中山路249巷4弄9-1號","121.345836666667","24.9565766666667","6500800","鶯歌區"
"239004","193-VK","2017/10/20 17:59:36","新北市鶯歌區尖山路103-8號","121.347963333333","24.9488633333333","6500800","鶯歌區"
"221008","489-VK","2017/10/20 17:59:42","新北市汐止區明峰街25號","121.634385","25.0713583333333","6501100","汐止區"
"221036","130-UY","2017/10/20 17:59:39","新北市汐止區建成路18-8號","121.665098333333","25.0735833333333","6501100","汐止區"
"221015","131-UY","2017/10/20 17:59:44","新北市汐止區長江街341號","121.667086666667","25.0819216666667","6501100","汐止區"
"221010","269-BY","2017/10/20 17:59:52","新北市汐止區汐萬路二段231號","121.64675","25.0877366666667","6501100","汐止區"
"221012","276-VK","2017/10/20 13:19:36","新北市汐止區汐萬路一段256巷3號","121.653446666667","25.074635","6501100","汐止區"
"221012","278-VK","2017/10/20 17:59:39","新北市汐止區長興街二段30號","121.673296666667","25.0814416666667","6501100","汐止區"
"221023","279-VK","2017/10/20 17:59:34","新北市汐止區明峰街129-3號","121.630158333333","25.0706933333333","6501100","汐止區"
"221032","280-BY","2017/10/20 17:59:44","新北市汐止區大同路一段185號","121.633206666667","25.0571066666667","6501100","汐止區"
"221027","281-BY","2017/10/20 17:59:50","新北市汐止區大同路二段424號","121.658908333333","25.067145","6501100","汐止區"
"221029","298-VK","2017/10/20 17:59:33","新北市汐止區樟樹二路332號","121.641613333333","25.0702433333333","6501100","汐止區"
"221021","299-VK","2017/10/20 17:59:45","新北市汐止區新興路12號","121.656315","25.0647383333333","6501100","汐止區"
"221031","353-TW","2017/10/20 17:59:37","新北市汐止區中興路96巷2號","121.635125","25.0625316666667","6501100","汐止區"
"221035","622-UM","2017/10/20 17:59:37","新北市汐止區汐萬路一段167號","121.652756666667","25.0708833333333","6501100","汐止區"
"221025","623-UM","2017/10/20 17:59:46","新北市汐止區仁愛路49號","121.659716666667","25.0631466666667","6501100","汐止區"
"221038","646-BX","2017/10/20 17:59:43","新北市汐止區連興街124號","121.653823333333","25.0619883333333","6501100","汐止區"
"221033","647-BX","2017/10/20 17:59:45","新北市汐止區民權街二段60號","121.619265","25.04869","6501100","汐止區"
"221002","707-TV","2017/10/20 17:59:38","新北市汐止區樟樹二路134號","121.640095","25.066","6501100","汐止區"
"221018","753-BX","2017/10/20 17:59:40","新北市汐止區招商街8號","121.66654","25.0686366666667","6501100","汐止區"
"242034","280-VK","2017/10/20 17:59:35","新北市新莊區景德路532號","121.443821666667","25.0332216666667","6500500","新莊區"
