"lineid","car","time","location","longitude","latitude","cityid","cityname"
"234046","148-BY","2017/10/20 19:51:50","新北市永和區成功路一段78號","121.526246666667","25.0033766666667","6500400","永和區"
"234013","149-BY","2017/10/20 19:51:43","新北市永和區永平路258號","121.50839","25.01155","6500400","永和區"
"234007","207-UY","2017/10/20 19:51:39","新北市中和區保平路336號","121.506833333333","25.0042116666667","6500400","永和區"
"234081","298-R6","2017/10/20 19:51:53","新北市永和區林森路80號","121.523481666667","25.0037316666667","6500400","永和區"
"234038","336-UY","2017/10/20 19:51:49","新北市永和區民樂街55巷10號","121.527863333333","24.9985333333333","6500400","永和區"
"234064","337-UY","2017/10/20 19:51:44","新北市永和區中正路368巷12號","121.518225","25.00079","6500400","永和區"
"234086","338-UY","2017/10/20 19:51:46","新北市永和區永利路16-1號","121.517988333333","25.0058983333333","6500400","永和區"
"234070","552-UM","2017/10/20 19:51:50","新北市永和區竹林路117-1號","121.519936666667","25.01151","6500400","永和區"
"234054","553-UM","2017/10/20 19:51:54","新北市永和區竹林路66巷2號","121.518328333333","25.0133766666667","6500400","永和區"
"234017","745-BX","2017/10/20 19:51:40","新北市永和區永和路二段264號","121.516015","25.01507","6500400","永和區"
"234030","746-BX","2017/10/20 19:51:42","新北市永和區民生路67巷57號","121.525643333333","24.997735","6500400","永和區"
"234061","AAD-866","2017/10/20 19:51:37","新北市中和區安樂路135號","121.514343333333","24.9965166666667","6500400","永和區"
"234040","862-TW","2017/10/20 19:51:53","新北市永和區中和路389巷2-1號","121.508331666667","25.000425","6500400","永和區"
"234050","863-TW","2017/10/20 19:51:44","新北市永和區保安路168號","121.508051666667","25.0143533333333","6500400","永和區"
"234026","9371-KE","2017/10/20 19:51:44","新北市永和區雙和街52巷2號","121.509083333333","25.0031466666667","6500400","永和區"
"234011","9373-KE","2017/10/20 19:51:47","新北市永和區仁愛路352巷92弄16號","121.501296666667","25.008255","6500400","永和區"
"249001","173-UM","2017/10/20 19:51:54","新北市八里區中華路二段252號","121.405368333333","25.1496983333333","6502300","八里區"
"249004","303-UY","2017/10/20 19:51:40","新北市八里區仁愛路53號","121.41266","25.1604916666667","6502300","八里區"
"249002","305-UY","2017/10/20 19:51:53","新北市八里區頂寮一街55號","121.450283333333","25.1245266666667","6502300","八里區"
"249003","759-BX","2017/10/20 19:51:56","新北市八里區中華路二段560巷7號","121.398463333333","25.1449883333333","6502300","八里區"
"248016","026-BX","2017/10/20 19:51:44","新北市五股區成泰路三段601巷12號","121.452123333333","25.1032833333333","6501500","五股區"
"248008","095-VK","2017/10/20 19:51:36","新北市五股區四維路171巷15號","121.467105","25.0752633333333","6501500","五股區"
"248018","225-UY","2017/10/20 19:25:02","新北市五股區壟路16號","121.415201666667","25.08548","6501500","五股區"
"248012","247-BX","2017/10/20 19:51:46","新北市五股區蓬萊路24號","121.434295","25.0797216666667","6501500","五股區"
"248014","261-SL","2017/10/20 19:51:48","新北市五股區五福路42巷12號","121.434353333333","25.089665","6501500","五股區"
"248010","272-BY","2017/10/20 19:51:44","新北市五股區登林路貿商巷3弄15號","121.42966","25.0699233333333","6501500","五股區"
"248004","677-BX","2017/10/20 19:51:45","新北市五股區成泰路一段147號","121.435413333333","25.07319","6501500","五股區"
"248002","678-BX","2017/10/20 19:51:38","新北市五股區成泰路四段9號","121.452903333333","25.10662","6501500","五股區"
"234023","9380-KE","2017/10/20 19:51:44","新北市永和區豫溪街57巷6號","121.517565","25.010385","6500400","永和區"
"234077","969-R7","2017/10/20 19:51:50","新北市永和區民治街79巷6號","121.517385","24.9978866666667","6500400","永和區"
"234074","AAC-211","2017/10/20 19:51:52","新北市永和區福和路12巷20號","121.52407","25.0094083333333","6500400","永和區"
"234067","AAC-212","2017/10/20 19:51:51","新北市永和區保平路236巷32號","121.507856666667","25.00695","6500400","永和區"
"234003","AAC-295","2017/10/20 19:51:49","新北市永和區福和路379號","121.514428333333","25.0076116666667","6500400","永和區"
"244011","701-TV","2017/10/20 19:51:35","新北市林口區太平里180號","121.366528333333","25.13446","6501700","林口區"
"243013","AAD-798","2017/10/20 19:51:42","新北市泰山區應化街7號","121.423876666667","25.0437283333333","6501600","泰山區"
"243009","297-R6","2017/10/20 19:51:42","新北市泰山區美寧街76號","121.431458333333","25.06457","6501600","泰山區"
"243015","380-SR","2017/10/20 19:51:40","新北市泰山區明志路二段214巷11號","121.426661666667","25.0487233333333","6501600","泰山區"
"243014","421-VK","2017/10/20 19:51:39","新北市泰山區泰林路二段33-8號","121.435161666667","25.056455","6501600","泰山區"
"243010","KEA-2215","2017/10/20 19:51:36","新北市泰山區民生路33號","121.430513333333","25.0521233333333","6501600","泰山區"
"243011","KEA-2216","2017/10/20 19:51:39","新北市泰山區明志路三段196巷37號","121.421976666667","25.03975","6501600","泰山區"
"243012","646-TV","2017/10/20 19:51:39","新北市泰山區全興路13號","121.43234","25.058925","6501600","泰山區"
"243016","680-BX","2017/10/20 19:51:41","新北市泰山區新北大道七段93號","121.417918333333","25.0320483333333","6501600","泰山區"
"222003","436-BY","2017/10/20 19:31:10","新北市深坑區深南路51-1號","121.62114","25.0100233333333","6501800","深坑區"
"222002","659-BX","2017/10/20 19:51:33","新北市深坑區北深路二段55巷3弄12號","121.619435","25.00351","6501800","深坑區"
"231041","002-UM","2017/10/20 19:51:43","新北市新店區中央路97號","121.53114","24.9750466666667","6500600","新店區"
"231059","046-UY","2017/10/20 19:51:44","新北市新店區安康路二段66號","121.514733333333","24.96365","6500600","新店區"
"231061","047-UY","2017/10/20 19:51:35","新北市新店區安民街325號","121.5174","24.9745983333333","6500600","新店區"
"231060","106-UY","2017/10/20 19:51:47","新北市新店區安康路二段193號","121.509253333333","24.95906","6500600","新店區"
"231048","108-UY","2017/10/20 19:51:36","新北市新店區中興路二段196號","121.548453333333","24.9738016666667","6500600","新店區"
"231053","187-VK","2017/10/20 19:51:41","新北市新店區新烏路二段426號","121.551885","24.9089883333333","6500600","新店區"
"231050","KEA-2219","2017/10/20 19:51:51","新北市新店區北宜路二段60號","121.549341666667","24.9514466666667","6500600","新店區"
"231057","256-BX","2017/10/20 19:51:52","新北市新店區花園二路三段19號","121.556485","24.93171","6500600","新店區"
"231046","278-BY","2017/10/20 19:51:52","新北市新店區福園街8巷16號","121.532471666667","24.9736216666667","6500600","新店區"
"231054","AAD-862","2017/10/20 19:51:51","新北市新店區光明街50號","121.538885","24.95929","6500600","新店區"
"231058","3712-VJ","2017/10/20 19:51:38","新北市新店區中正路102巷9弄1號","121.543403333333","24.9711916666667","6500600","新店區"
"231055","3713-VJ","2017/10/20 19:51:50","新北市新店區力行路14巷16弄8號","121.539501666667","24.9655916666667","6500600","新店區"
"231056","4716-K9","2017/10/20 19:51:49","新北市新店區中央路13號","121.533371666667","24.9784483333333","6500600","新店區"
"231067","4772-VM","2017/10/20 19:51:42","新北市新店區精忠路10-1號","121.532628333333","24.959075","6500600","新店區"
"231065","512-UM","2017/10/20 19:51:37","新北市新店區安祥路109巷151弄9號","121.477761666667","24.958515","6500600","新店區"
"231064","515-UM","2017/10/20 19:51:47","新北市新店區安和路二段113巷3弄5號","121.518055","24.9699433333333","6500600","新店區"
"231045","617-UM","2017/10/20 19:51:54","新北市新店區北宜路二段230號","121.559866666667","24.9544216666667","6500600","新店區"
"231040","619-UM","2017/10/20 19:51:42","新北市新店區中正路75巷71號","121.543086666667","24.96881","6500600","新店區"
"231042","641-BX","2017/10/20 19:51:38","新北市新店區中興路一段285-1號","121.545501666667","24.9685416666667","6500600","新店區"
"231063","645-TV","2017/10/20 19:51:48","新北市新店區黎明路3號","121.503188333333","24.9522383333333","6500600","新店區"
"231068","718-UY","2017/10/20 19:51:37","新北市新店區安華路28-1號","121.519346666667","24.9610333333333","6500600","新店區"
"231049","719-UM","2017/10/20 19:51:38","新北市新店區民權路127巷21號","121.535333333333","24.9817883333333","6500600","新店區"
"231051","719-UY","2017/10/20 19:51:42","新北市新店區中央三街72號","121.526431666667","24.9751933333333","6500600","新店區"
"231062","720-UM","2017/10/20 19:51:43","新北市新店區永業路91號","121.529023333333","24.9489483333333","6500600","新店區"
"231044","897-TW","2017/10/20 19:51:41","新北市新店區復興路67-1號","121.535251666667","24.9877066666667","6500600","新店區"
"231043","899-TW","2017/10/20 19:51:44","新北市新店區中正路282號","121.538585","24.973825","6500600","新店區"
"231066","AKT-0513","2017/10/20 19:51:41","新北市新店區安興路20號","121.515008333333","24.9659766666667","6500600","新店區"
"241011","013-R5","2017/10/20 19:51:53","新北市三重區介壽路39巷52號","121.499948333333","25.070435","6500200","三重區"
"241028","022-UY","2017/10/20 19:51:55","新北市三重區中正南路144號","121.49424","25.0575533333333","6500200","三重區"
"241008","059-VK","2017/10/20 19:51:38","新北市三重區永福街100號","121.478883333333","25.0758216666667","6500200","三重區"
"241009","060-VK","2017/10/20 19:51:44","新北市三重區三和路四段396巷16號","121.4806","25.0789716666667","6500200","三重區"
"241031","061-VK","2017/10/20 19:51:50","新北市三重區重新路四段214巷10號","121.48653","25.0543166666667","6500200","三重區"
"241015","062-VK","2017/10/20 19:51:38","新北市三重區重新路一段1號","121.503776666667","25.064255","6500200","三重區"
"241017","063-VK","2017/10/20 19:51:51","新北市三重區重陽路三段180號","121.490111666667","25.0680016666667","6500200","三重區"
"241026","066-VK","2017/10/20 19:51:36","新北市三重區中央南路47號","121.501338333333","25.0619","6500200","三重區"
"241003","091-VK","2017/10/20 19:51:40","新北市三重區五華街93巷14號","121.49248","25.0840483333333","6500200","三重區"
"241005","262-UM","2017/10/20 19:51:44","新北市三重區溪尾街314號","121.487738333333","25.0843766666667","6500200","三重區"
"241016","265-UM","2017/10/20 19:51:39","新北市三重區正義北路48巷45號","121.496013333333","25.0636383333333","6500200","三重區"
"241022","267-UM","2017/10/20 19:51:48","新北市三重區過圳街31巷2號","121.488883333333","25.0605983333333","6500200","三重區"
"241018","268-UM","2017/10/20 19:51:41","新北市三重區正義北路244巷69號","121.493971666667","25.0677133333333","6500200","三重區"
"241032","269-UM","2017/10/20 19:51:37","新北市三重區重陽路一段44巷68號","121.484411666667","25.0577233333333","6500200","三重區"
"241013","270-UM","2017/10/20 19:51:45","新北市三重區仁愛街102巷8號","121.494821666667","25.0739783333333","6500200","三重區"
"241025","271-UM","2017/10/20 19:51:43","新北市三重區頂崁街141號","121.477931666667","25.0650783333333","6500200","三重區"
"241007","398-BY","2017/10/20 19:51:46","新北市三重區三和路四段147號","121.484263333333","25.0783","6500200","三重區"
"241024","KEA-2210","2017/10/20 19:51:52","新北市三重區大勇街81號","121.480063333333","25.071425","6500200","三重區"
"241020","413-TH","2017/10/20 19:51:43","新北市三重區三和路四段20巷16-2號","121.49045","25.07332","6500200","三重區"
"241004","475-VK","2017/10/20 19:51:45","新北市三重區五華街74號","121.49343","25.08199","6500200","三重區"
"241019","478-VK","2017/10/20 19:51:48","新北市三重區自強路二段67巷15號","121.489375","25.070255","6500200","三重區"
"241030","480-VK","2017/10/20 19:51:42","新北市三重區成功路111號","121.487701666667","25.0516983333333","6500200","三重區"
"241014","543-UM","2017/10/20 19:51:54","新北市三重區三和路二段37-8號","121.501308333333","25.06749","6500200","三重區"
"241023","545-UM","2017/10/20 19:51:43","新北市三重區頂崁街166號","121.477706666667","25.0657433333333","6500200","三重區"
"241001","547-UM","2017/10/20 19:51:40","新北市三重區仁愛街283巷6號","121.493305","25.0793433333333","6500200","三重區"
"241006","AAD-863","2017/10/20 19:51:47","新北市三重區力行路二段78號","121.481578333333","25.0736333333333","6500200","三重區"
"241035","743-BX","2017/10/20 19:51:46","新北市三重區大榮街53號","121.499198333333","25.0634866666667","6500200","三重區"
"241012","941-UM","2017/10/20 19:51:43","新北市三重區仁興街56巷14號","121.498611666667","25.075615","6500200","三重區"
"241029","942-UM","2017/10/20 19:51:47","新北市三重區重安街14號","121.49042","25.0583433333333","6500200","三重區"
"241033","AAC-255","2017/10/20 19:51:54","新北市三重區中興南街64號","121.470615","25.0440066666667","6500200","三重區"
"235066","003-UY","2017/10/20 19:51:39","新北市中和區中山路二段3巷28號","121.506758333333","25.0052183333333","6500300","中和區"
"235064","005-UY","2017/10/20 19:51:36","新北市中和區南山路131-1號","121.50222","24.9966466666667","6500300","中和區"
"235063","006-UY","2017/10/20 19:51:44","新北市中和區連城路263巷7弄1號","121.492145","24.995945","6500300","中和區"
"235056","096-UM","2017/10/20 19:51:50","新北市中和區民富街15-2號","121.476536666667","25.007435","6500300","中和區"
"235039","097-UM","2017/10/20 19:51:45","新北市中和區大勇街27巷23號","121.516481666667","24.9937866666667","6500300","中和區"
"235065","098-UM","2017/10/20 19:51:43","新北市中和區福祥路90巷5號","121.499626666667","25.005765","6500300","中和區"
"235040","150-BY","2017/10/20 19:51:49","新北市中和區安平路59號","121.50967","24.994995","6500300","中和區"
"235058","151-BY","2017/10/20 19:51:40","新北市中和區員山路225號","121.481193333333","24.9980733333333","6500300","中和區"
"235055","183-VK","2017/10/20 19:51:45","新北市中和區德光路27巷28號","121.470971666667","25.0035466666667","6500300","中和區"
"235038","185-VK","2017/10/20 19:51:40","新北市中和區大智街55巷30弄32號","121.521583333333","24.9932116666667","6500300","中和區"
"235049","186-VK","2017/10/20 19:51:42","新北市中和區中興街17號","121.501191666667","24.9949733333333","6500300","中和區"
"235067","255-BX","2017/10/20 19:51:55","新北市中和區中正路751巷3弄12號","121.484368333333","24.9994","6500300","中和區"
"235044","293-VK","2017/10/20 19:51:40","新北市中和區南山路128號","121.503581666667","24.9929483333333","6500300","中和區"
"235043","352-BY","2017/10/20 19:51:48","新北市中和區興南路二段159巷7號","121.505295","24.98316","6500300","中和區"
"235051","376-QA","2017/10/20 19:51:42","新北市中和區中興街180巷51弄6號","121.498666666667","24.98914","6500300","中和區"
"235068","377-QA","2017/10/20 19:51:43","新北市中和區莊敬路14號","121.499838333333","25.0042266666667","6500300","中和區"
"235061","378-QA","2017/10/20 19:51:37","新北市中和區員山路170號","121.48148","24.9998916666667","6500300","中和區"
"235071","269-TV","2017/10/20 19:51:34","新北市中和區永和路333巷6號","121.485191666667","25.01034","6500300","中和區"
"235050","4979-A6","2017/10/20 19:51:54","新北市中和區景平路241巷75號","121.507526666667","24.9921583333333","6500300","中和區"
"235069","4980-A6","2017/10/20 19:51:50","新北市中和區中正路271號","121.495908333333","24.993815","6500300","中和區"
"235042","551-UM","2017/10/20 19:51:43","新北市中和區宜安路171號","121.508448333333","24.999265","6500300","中和區"
"235070","558-UM","2017/10/20 19:51:37","新北市中和區景平路517號","121.499206666667","24.9987816666667","6500300","中和區"
"235045","565-BX","2017/10/20 19:51:50","新北市中和區景平路296號","121.513028333333","24.9925766666667","6500300","中和區"
"235054","640-BX","2017/10/20 19:51:53","新北市中和區莒光路55號","121.472166666667","25.00438","6500300","中和區"
"235060","647-TV","2017/10/20 19:51:51","新北市中和區新生街16巷30號","121.482051666667","25.0044883333333","6500300","中和區"
"235047","732-UM","2017/10/20 19:51:40","新北市中和區和平街29-1號","121.507548333333","24.9910716666667","6500300","中和區"
"235046","733-UM","2017/10/20 19:51:50","新北市中和區仁愛街23號","121.510771666667","24.9889266666667","6500300","中和區"
"235057","801-TS","2017/10/20 19:51:50","新北市中和區員山路153-1號","121.481136666667","24.9963816666667","6500300","中和區"
"235041","802-TS","2017/10/20 19:51:52","新北市中和區永貞路266號","121.51363","25.00369","6500300","中和區"
"235052","805-TS","2017/10/20 19:51:41","新北市中和區華新街144巷8號","121.507678333333","24.9829116666667","6500300","中和區"
"235048","896-TW","2017/10/20 19:51:48","新北市中和區興南路一段129號","121.508921666667","24.98766","6500300","中和區"
"235053","900-TW","2017/10/20 19:51:46","新北市中和區國光街215巷9-2號","121.466585","25.0014066666667","6500300","中和區"
"235037","AAC-213","2017/10/20 19:51:54","新北市中和區秀朗路三段147號","121.524875","24.9923183333333","6500300","中和區"
"235059","AAC-215","2017/10/20 19:51:46","新北市中和區圓通路305巷23號","121.494776666667","24.9891983333333","6500300","中和區"
"220068","013-TV","2017/10/20 19:51:55","新北市板橋區光復街208號","121.48566","25.0202083333333","6500100","板橋區"
"220065","072-UY","2017/10/20 19:51:44","新北市板橋區海山路41號","121.46728","25.0097633333333","6500100","板橋區"
"220106","075-UY","2017/10/20 19:51:41","新北市板橋區民治街57巷26號","121.480088333333","25.0338916666667","6500100","板橋區"
"220069","AAD-861","2017/10/20 19:51:47","新北市板橋區南雅南路二段32號","121.45429","25.0029966666667","6500100","板橋區"
"247010","339-TH","2017/10/20 19:51:44","新北市三重區集賢路188號","121.483963333333","25.0881","6501400","蘆洲區"
"247002","337-TH","2017/10/20 19:51:39","新北市蘆洲區永樂街26巷26號","121.458838333333","25.0893783333333","6501400","蘆洲區"
"247004","336-TH","2017/10/20 19:51:47","新北市蘆洲區中原路79號","121.458191666667","25.0818183333333","6501400","蘆洲區"
"247016","057-VK","2017/10/20 19:51:45","新北市蘆洲區中正路261號","121.467503333333","25.087315","6501400","蘆洲區"
"247006","056-VK","2017/10/20 19:51:44","新北市蘆洲區九芎街71巷31號","121.46624","25.0777816666667","6501400","蘆洲區"
"247008","053-VK","2017/10/20 19:51:40","新北市蘆洲區信義路115號","121.47854","25.0801033333333","6501400","蘆洲區"
"247024","002-UY","2017/10/20 19:51:55","新北市蘆洲區光復路20號","121.462735","25.0844933333333","6501400","蘆洲區"
"226004","205-ST","2017/10/20 19:51:44","新北市平溪區十分里十分街66巷2號","121.775808333333","25.0421416666667","6502400","平溪區"
"228001","212-TW","2017/10/20 19:51:37","新北市貢寮區真理里新港街26巷22-11號","121.926343333333","25.0548466666667","6502600","貢寮區"
"228003","828-UM","2017/10/20 19:51:43","新北市貢寮區真理里延平街89號","121.924375","25.0564533333333","6502600","貢寮區"
"224010","AGQ-8101","2017/10/20 19:51:46","新北市瑞芳區輕便路111號","121.844641666667","25.1086966666667","6501200","瑞芳區"
"227003","642-TC","2017/10/20 19:51:42","新北市雙溪區雙溪里太平路64號","121.865158333333","25.035875","6502500","雙溪區"
"227011","400-TW","2017/10/20 19:51:55","新北市雙溪區新基里新基南街24號","121.86626","25.038175","6502500","雙溪區"
"222001","KEA-2212","2017/10/20 19:51:38","新北市深坑區北深路三段112號","121.606748333333","25.00159","6501800","深坑區"
"208002","742-BX","2017/10/20 19:51:47","新北市金山區環金路147號","121.634435","25.2172816666667","6502700","金山區"
"208003","665-BX","2017/10/20 19:51:52","新北市金山區清泉里清水路53號","121.62947","25.2355483333333","6502700","金山區"
"208001","761-BX","2017/10/20 19:51:42","新北市金山區南勢106號","121.625593333333","25.22007","6502700","金山區"
"251004","009-UM","2017/10/20 19:51:35","新北市淡水區民權路187巷34號","121.460596666667","25.133425","6501000","淡水區"
"251013","180-VK","2017/10/20 19:51:56","新北市淡水區頂田寮路172號","121.459331666667","25.2139916666667","6501000","淡水區"
"251008","181-VK","2017/10/20 19:51:50","新北市淡水區中正路一段24巷9號","121.426578333333","25.1771383333333","6501000","淡水區"
"251015","182-VK","2017/10/20 19:51:48","新北市淡水區北新路二段7號","121.47564","25.1855066666667","6501000","淡水區"
"251012","441-VK","2017/10/20 19:51:40","新北市淡水區淡金路三段30號","121.447676666667","25.1984516666667","6501000","淡水區"
"251005","443-VK","2017/10/20 19:51:53","新北市淡水區中正東路1號","121.447215","25.16737","6501000","淡水區"
"251001","559-UM","2017/10/20 19:51:38","新北市淡水區中正東路二段37號","121.459263333333","25.1562566666667","6501000","淡水區"
"251006","561-UM","2017/10/20 19:51:37","新北市淡水區大忠街5巷3號","121.443458333333","25.17692","6501000","淡水區"
"251009","575-R6","2017/10/20 19:51:48","新北市淡水區中正路38-1號","121.443708333333","25.1692716666667","6501000","淡水區"
"251007","577-R6","2017/10/20 19:51:41","新北市淡水區竿蓁二街97號","121.456256666667","25.1644566666667","6501000","淡水區"
"251011","650-BX","2017/10/20 19:51:48","新北市淡水區商工路141號","121.446988333333","25.188315","6501000","淡水區"
"207003","550-UM","2017/10/20 19:51:39","新北市萬里區大鵬里萬里加投45-1號","121.64093","25.21083","6502800","萬里區"
"207004","225-TW","2017/10/20 19:51:51","新北市萬里區萬里里瑪鋉路85-2號","121.688685","25.1771983333333","6502800","萬里區"
"252002","178-VK","2017/10/20 19:51:52","新北市三芝區三民街33-1號","121.504641666667","25.2584166666667","6502100","三芝區"
"252001","292-VK","2017/10/20 19:51:37","新北市三芝區長安街89號","121.499698333333","25.2574616666667","6502100","三芝區"
"237004","078-UY","2017/10/20 19:51:45","新北市三峽區添福107-4號","121.373541666667","24.9025033333333","6500900","三峽區"
"237007","153-BY","2017/10/20 19:51:51","新北市三峽區二鬮路136巷119號","121.355945","24.910405","6500900","三峽區"
"237009","210-TH","2017/10/20 19:51:42","新北市三峽區民族街78巷8號","121.368633333333","24.929575","6500900","三峽區"
"237013","252-BX","2017/10/20 19:51:46","新北市三峽區介壽路二段165號","121.394081666667","24.9359666666667","6500900","三峽區"
"237012","275-BY","2017/10/20 19:51:38","新北市三峽區中華路26號","121.373931666667","24.9324316666667","6500900","三峽區"
"237008","302-VK","2017/10/20 19:51:42","新北市三峽區中正路一段174巷6號","121.372081666667","24.92884","6500900","三峽區"
"237014","433-BY","2017/10/20 19:51:50","新北市三峽區添福141-13號","121.37442","24.900975","6500900","三峽區"
"237006","5529-G3","2017/10/20 19:51:43","新北市三峽區正義街16號","121.36967","24.9195216666667","6500900","三峽區"
"237016","649-BX","2017/10/20 19:51:36","新北市三峽區橫溪路99巷52號","121.40013","24.9370866666667","6500900","三峽區"
"237005","AKY-6261","2017/10/20 19:51:50","新北市三峽區長泰街18巷1號","121.379145","24.931665","6500900","三峽區"
"236072","105-UM","2017/10/20 19:51:38","新北市土城區水源街32巷6號","121.441036666667","24.9757683333333","6501300","土城區"
"236043","107-UM","2017/10/20 18:45:11","新北市土城區裕民路92巷25弄1號","121.44964","24.9859483333333","6501300","土城區"
"236079","166-UM","2017/10/20 19:51:51","新北市土城區中央路四段484號","121.409298333333","24.9504633333333","6501300","土城區"
"236031","253-BX","2017/10/20 19:51:49","新北市土城區中央路一段294號","121.443311666667","24.9823516666667","6501300","土城區"
"236027","269-VK","2017/10/20 19:51:44","新北市土城區中央路二段61巷62號","121.444775","24.978155","6501300","土城區"
"236039","271-VK","2017/10/20 19:51:45","新北市土城區國際路158巷19號","121.46867","24.976095","6501300","土城區"
"236022","401-BY","2017/10/20 19:51:39","新北市土城區金城路三段198號","121.468598333333","24.9879083333333","6501300","土城區"
"236059","912-UM","2017/10/20 19:51:56","新北市土城區中央路一段140號","121.446238333333","24.9875383333333","6501300","土城區"
"236050","913-UM","2017/10/20 19:51:05","新北市土城區青雲路181號","121.459235","24.9827466666667","6501300","土城區"
"236063","915-UM","2017/10/20 19:51:40","新北市土城區延和路146巷16號","121.468196666667","24.98953","6501300","土城區"
"236055","AAC-216","2017/10/20 19:51:50","新北市土城區延和路45號","121.466196666667","24.9893783333333","6501300","土城區"
"242032","AAC-296","2017/10/20 19:51:43","新北市新莊區忠孝街55號","121.443896666667","25.03613","6500500","新莊區"
"242050","751-BX","2017/10/20 19:51:51","新北市新莊區民本街23巷2號","121.428243333333","25.019625","6500500","新莊區"
"242025","705-TV","2017/10/20 19:51:47","新北市新莊區五工三路85號","121.458555","25.06516","6500500","新莊區"
"242023","613-BX","2017/10/20 19:51:41","新北市新莊區化成路220號","121.465591666667","25.0466683333333","6500500","新莊區"
"242027","612-BX","2017/10/20 19:51:52","新北市新莊區立信五街7號","121.444168333333","25.051385","6500500","新莊區"
"242039","566-BX","2017/10/20 19:51:37","新北市新莊區民安路299巷33號","121.429275","25.0231933333333","6500500","新莊區"
"242044","497-BY","2017/10/20 19:51:55","新北市新莊區新北大道七段365號","121.412341666667","25.0267133333333","6500500","新莊區"
"242048","441-UM","2017/10/20 19:51:49","新北市新莊區建安街92巷21號","121.425631666667","25.0245033333333","6500500","新莊區"
"242005","413-TV","2017/10/20 19:51:41","新北市新莊區化成路63巷19號","121.46436","25.0458416666667","6500500","新莊區"
"242060","362-BY","2017/10/20 19:51:50","新北市新莊區新樹路144號","121.434968333333","25.0232016666667","6500500","新莊區"
"242058","353-BY","2017/10/20 19:51:41","新北市新莊區八德街62號","121.424893333333","25.0223116666667","6500500","新莊區"
"242007","132-UY","2017/10/20 19:51:48","新北市新莊區思源路593巷6弄1號","121.459178333333","25.05982","6500500","新莊區"
"242037","133-UY","2017/10/20 19:51:46","新北市新莊區民安路207巷30弄5號","121.427978333333","25.0239716666667","6500500","新莊區"
"242021","135-UY","2017/10/20 19:51:48","新北市新莊區建中街26號","121.449125","25.0374533333333","6500500","新莊區"
"242009","173-VK","2017/10/20 18:55:13","新北市新莊區三和路12-21號","121.44199","25.038715","6500500","新莊區"
"242002","176-VK","2017/10/20 19:51:52","新北市新莊區新泰路47號","121.449495","25.03366","6500500","新莊區"
"242013","346-TH","2017/10/20 19:51:36","新北市新莊區中港路417巷16號","121.451675","25.0475683333333","6500500","新莊區"
"242019","348-TH","2017/10/20 19:51:51","新北市新莊區民生街15巷3弄9號","121.455306666667","25.042515","6500500","新莊區"
"242056","349-TH","2017/10/20 19:51:52","新北市新莊區新豐街19號","121.44825","25.034225","6500500","新莊區"
"242017","350-TH","2017/10/20 19:51:35","新北市新莊區中港路287號","121.452793333333","25.0440133333333","6500500","新莊區"
"242011","351-TH","2017/10/20 19:51:49","新北市新莊區中信街3號","121.451428333333","25.0507566666667","6500500","新莊區"
"238015","755-BX","2017/10/20 19:51:49","新北市樹林區中山路一段135-4號","121.422475","24.989805","6500700","樹林區"
"238018","571-TV","2017/10/20 19:51:49","新北市樹林區育德街78-1號","121.38789","24.9683","6500700","樹林區"
"238024","5061-A6","2017/10/20 19:49:23","新北市樹林區中山路三段210-2號","121.380646666667","24.9665316666667","6500700","樹林區"
"238021","KEA-2217","2017/10/20 19:51:51","新北市樹林區佳園路三段181巷55號","121.388366666667","24.9474983333333","6500700","樹林區"
"238020","308-TH","2017/10/20 19:51:34","新北市樹林區三興路2-2號","121.39776","25.01557","6500700","樹林區"
"238025","303-VK","2017/10/20 19:51:38","新北市樹林區大安路614號","121.411361666667","24.9831333333333","6500700","樹林區"
"238014","282-BY","2017/10/20 19:51:39","新北市樹林區千歲街68號","121.426178333333","24.99747","6500700","樹林區"
"238020","268-VK","2017/10/20 19:51:36","新北市樹林區太平路247巷30號","121.421553333333","24.9743366666667","6500700","樹林區"
"221008","489-VK","2017/10/20 19:51:35","新北市汐止區康寧街65號","121.618688333333","25.066765","6501100","汐止區"
"221036","130-UY","2017/10/20 19:51:39","新北市汐止區汐萬路一段39號","121.655171666667","25.0688883333333","6501100","汐止區"
"221015","131-UY","2017/10/20 19:51:44","新北市汐止區忠孝東路488號","121.666508333333","25.0747166666667","6501100","汐止區"
"221010","269-BY","2017/10/20 19:51:38","新北市汐止區康寧街885巷3號","121.650083333333","25.0764766666667","6501100","汐止區"
"221012","276-VK","2017/10/20 13:19:36","新北市汐止區汐萬路一段256巷3號","121.653446666667","25.074635","6501100","汐止區"
"221012","278-VK","2017/10/20 19:51:39","新北市汐止區保長路273巷1號","121.681058333333","25.07404","6501100","汐止區"
"221023","279-VK","2017/10/20 19:51:54","新北市汐止區明峰街163號","121.628913333333","25.0701866666667","6501100","汐止區"
"221027","281-BY","2017/10/20 19:51:47","新北市汐止區南昌街3號","121.663658333333","25.0697333333333","6501100","汐止區"
"221029","298-VK","2017/10/20 19:51:52","新北市汐止區連峰街1巷5號","121.646088333333","25.0759683333333","6501100","汐止區"
"221021","299-VK","2017/10/20 19:51:45","新北市汐止區新興路85巷1號","121.657953333333","25.0615583333333","6501100","汐止區"
"221031","353-TW","2017/10/20 19:51:57","新北市汐止區福德三路129巷2號","121.633466666667","25.0674866666667","6501100","汐止區"
"221035","622-UM","2017/10/20 19:51:44","新北市汐止區長江街13巷4號","121.654738333333","25.07143","6501100","汐止區"
"221025","623-UM","2017/10/20 19:51:46","新北市汐止區仁愛路77巷2弄15號","121.661406666667","25.0635033333333","6501100","汐止區"
"221038","646-BX","2017/10/20 19:51:43","新北市汐止區忠孝東路286號","121.66382","25.0683433333333","6501100","汐止區"
"221033","647-BX","2017/10/20 19:51:45","新北市汐止區汐碇路370巷2-1號","121.638266666667","25.0387683333333","6501100","汐止區"
"221018","753-BX","2017/10/20 19:51:40","新北市汐止區茄苳路2巷1號","121.66448","25.0707966666667","6501100","汐止區"
"220079","145-BY","2017/10/20 19:51:47","新北市板橋區大仁街31號","121.455278333333","25.016725","6500100","板橋區"
"220080","200-UY","2017/10/20 19:51:54","新北市板橋區大觀路二段69巷18號","121.447158333333","25.002115","6500100","板橋區"
"220082","610-BX","2017/10/20 19:51:54","新北市板橋區溪崑一街45號","121.430183333333","24.9910333333333","6500100","板橋區"
"220101","245-BX","2017/10/20 19:51:38","新北市板橋區縣民大道三段79巷13號","121.475158333333","25.0220266666667","6500100","板橋區"
"220072","277-BY","2017/10/20 19:51:50","新北市板橋區金門街151巷36號","121.433338333333","24.9903033333333","6500100","板橋區"
"220094","280-UM","2017/10/20 19:51:45","新北市板橋區長江路一段105巷1弄1號","121.459348333333","25.0300516666667","6500100","板橋區"
"220071","283-VK","2017/10/20 19:51:39","新北市板橋區五權街30巷37弄5號","121.46353","24.99253","6500100","板橋區"
"220053","285-VK","2017/10/20 19:51:50","新北市板橋區民享街55號","121.476085","25.0152483333333","6500100","板橋區"
"220083","286-VK","2017/10/20 19:51:41","新北市板橋區僑中二街2號","121.447248333333","25.011215","6500100","板橋區"
"220081","287-VK","2017/10/20 19:51:55","新北市板橋區大觀路一段28巷30號","121.449893333333","25.0094816666667","6500100","板橋區"
"220090","288-VK","2017/10/20 19:51:46","新北市板橋區綠堤街33-4號","121.455741666667","25.0264416666667","6500100","板橋區"
"220061","293-UM","2017/10/20 19:51:51","新北市板橋區漢生東路119號","121.467526666667","25.0146816666667","6500100","板橋區"
"220084","296-UM","2017/10/20 19:51:51","新北市板橋區溪崑二街124巷20號","121.425391666667","24.9883966666667","6500100","板橋區"
"220075","297-UM","2017/10/20 19:51:45","新北市板橋區金華街8巷2號","121.455645","25.01998","6500100","板橋區"
"220062","303-R5","2017/10/20 19:51:44","新北市板橋區中山路二段617巷1弄2號","121.485365","25.0225783333333","6500100","板橋區"
"220092","307-R5","2017/10/20 19:51:49","新北市板橋區四維路259巷32號","121.46186","25.0274233333333","6500100","板橋區"
"220098","317-R6","2017/10/20 19:51:42","新北市板橋區新海路385巷18號","121.458228333333","25.025765","6500100","板橋區"
"220064","486-VK","2017/10/20 19:51:38","新北市板橋區民族路40號","121.462058333333","25.009645","6500100","板橋區"
"220089","487-VK","2017/10/20 19:51:53","新北市板橋區龍泉街120號","121.457028333333","25.0242516666667","6500100","板橋區"
"242034","280-VK","2017/10/20 19:51:55","新北市新莊區建中街90巷5弄20號","121.445645","25.0374116666667","6500500","新莊區"
"220088","491-VK","2017/10/20 19:51:50","新北市板橋區文聖街101號","121.477781666667","25.02952","6500100","板橋區"
"220035","560-BX","2017/10/20 19:51:53","新北市板橋區金華街21巷2號","121.456025","25.02068","6500100","板橋區"
"220103","561-BX","2017/10/20 19:51:38","新北市板橋區陽明街29巷16號","121.464536666667","25.0221783333333","6500100","板橋區"
"220063","609-BX","2017/10/20 19:51:49","新北市板橋區縣民大道三段310號","121.478763333333","25.0236833333333","6500100","板橋區"
"220091","637-BX","2017/10/20 19:51:46","新北市板橋區懷德街174巷25號","121.478413333333","25.0292066666667","6500100","板橋區"
"220057","686-BX","2017/10/20 19:51:50","新北市板橋區信義路201號","121.459166666667","24.9917416666667","6500100","板橋區"
"220077","687-BX","2017/10/20 19:51:36","新北市板橋區僑中一街124巷9弄2號","121.445966666667","25.012795","6500100","板橋區"
"220093","689-BX","2017/10/20 19:51:43","新北市板橋區長江路二段295號","121.470548333333","25.0332066666667","6500100","板橋區"
"220054","741-BX","2017/10/20 19:51:42","新北市板橋區忠孝路忠義巷15弄35號","121.465623333333","25.0044766666667","6500100","板橋區"
"220055","827-TW","2017/10/20 19:51:47","新北市板橋區國慶路149巷38弄2號","121.461243333333","24.9980533333333","6500100","板橋區"
"220067","829-TW","2017/10/20 19:48:25","新北市板橋區漢生東路279巷8號","121.471896666667","25.009135","6500100","板橋區"
"220102","830-TW","2017/10/20 19:51:51","新北市板橋區仁化街66號","121.476001666667","25.031825","6500100","板橋區"
"220096","831-TW","2017/10/20 19:51:53","新北市板橋區莒光路15巷34號","121.470553333333","25.0255516666667","6500100","板橋區"
"220074","895-R6","2017/10/20 19:51:56","新北市板橋區文化路一段32巷21弄14號","121.460316666667","25.0114333333333","6500100","板橋區"
"220073","985-R7","2017/10/20 19:51:49","新北市板橋區大仁街115號","121.45233","25.0155633333333","6500100","板橋區"
"220097","AAC-210","2017/10/20 19:51:47","新北市板橋區漢生西路60號","121.463115","25.0188516666667","6500100","板橋區"
"220070","AAC-253","2017/10/20 19:51:39","新北市板橋區館前東路122號","121.463815","25.0077966666667","6500100","板橋區"
