"lineid","car","time","location","longitude","latitude","cityid","cityname"
"234064","337-UY","2017/10/20 20:39:41","新北市永和區環河西路二段219號","121.501231666667","25.0104466666667","6500400","永和區"
"234030","746-BX","2017/10/20 20:39:41","新北市中和區中正路998號","121.482501666667","25.0085266666667","6500400","永和區"
"234061","AAD-866","2017/10/20 20:39:37","新北市永和區秀朗路一段175號","121.51698","25.003675","6500400","永和區"
"234050","863-TW","2017/10/20 20:39:35","新北市永和區保安路151號","121.506996666667","25.0130966666667","6500400","永和區"
"249001","173-UM","2017/10/20 20:39:34","新北市八里區中山路三段409號","121.368786666667","25.135875","6502300","八里區"
"249004","303-UY","2017/10/20 20:39:40","新北市八里區中山路一段153號","121.412626666667","25.1588683333333","6502300","八里區"
"234074","AAC-211","2017/10/20 20:39:47","新北市永和區竹林路119巷22弄4號","121.521458333333","25.011545","6500400","永和區"
"243014","421-VK","2017/10/20 20:39:40","新北市泰山區泰林路三段745巷145號","121.405553333333","25.067665","6501600","泰山區"
"243011","KEA-2216","2017/10/20 20:39:39","新北市泰山區公園路73號","121.425678333333","25.0549183333333","6501600","泰山區"
"243012","646-TV","2017/10/20 20:39:39","新北市泰山區泰林路二段607巷1-7號","121.421031666667","25.0639316666667","6501600","泰山區"
"243016","680-BX","2017/10/20 20:39:41","新北市泰山區文程路111號","121.430696666667","25.0480933333333","6501600","泰山區"
"222003","436-BY","2017/10/20 20:39:47","新北市深坑區文山路二段126號","121.614353333333","24.9983733333333","6501800","深坑區"
"222002","659-BX","2017/10/20 20:39:53","新北市深坑區萬福路41號","121.599243333333","25.006815","6501800","深坑區"
"231041","002-UM","2017/10/20 20:39:43","新北市新店區中正路543-4號","121.533713333333","24.9875133333333","6500600","新店區"
"231059","046-UY","2017/10/20 20:39:44","新北市新店區僑愛三路5號","121.499766666667","24.944615","6500600","新店區"
"231061","047-UY","2017/10/20 20:39:55","新北市新店區新和街46號","121.519371666667","24.985005","6500600","新店區"
"231060","106-UY","2017/10/20 20:39:47","新北市新店區安康路三段628-3號","121.477206666667","24.94489","6500600","新店區"
"231048","108-UY","2017/10/20 20:39:56","新北市新店區寶慶街37號","121.543058333333","24.9866766666667","6500600","新店區"
"231053","187-VK","2017/10/20 20:39:41","新北市新店區松林路51號","121.544466666667","24.911445","6500600","新店區"
"231050","KEA-2219","2017/10/20 20:39:51","新北市新店區建國路64號","121.540586666667","24.9758733333333","6500600","新店區"
"231057","256-BX","2017/10/20 20:39:50","新北市新店區花園六路二段9號","121.555541666667","24.9329966666667","6500600","新店區"
"231054","AAD-862","2017/10/20 20:39:51","新北市新店區行政街14巷2號","121.543051666667","24.9663333333333","6500600","新店區"
"231058","3712-VJ","2017/10/20 20:39:41","新北市新店區三民路191號","121.535546666667","24.97564","6500600","新店區"
"231055","3713-VJ","2017/10/20 20:39:50","新北市新店區薏仁坑路自強巷1號","121.497743333333","24.95776","6500600","新店區"
"231056","4716-K9","2017/10/20 20:39:49","新北市新店區中央路21號","121.53316","24.9781933333333","6500600","新店區"
"231065","512-UM","2017/10/20 20:39:57","新北市新店區安祥路104巷17號","121.481481666667","24.9632566666667","6500600","新店區"
"231064","515-UM","2017/10/20 20:39:42","新北市新店區安和路三段175號","121.515698333333","24.986335","6500600","新店區"
"231045","617-UM","2017/10/20 20:39:53","新北市新店區長春路120號","121.555495","24.96192","6500600","新店區"
"231040","619-UM","2017/10/20 20:39:42","新北市新店區中正路272號","121.538935","24.9736033333333","6500600","新店區"
"231042","641-BX","2017/10/20 20:39:38","新北市新店區寶高路120巷1-1號","121.554578333333","24.9759466666667","6500600","新店區"
"231063","645-TV","2017/10/20 20:39:48","新北市新店區玫瑰路4-1號","121.493546666667","24.9513966666667","6500600","新店區"
"231068","718-UY","2017/10/20 20:39:37","新北市新店區中興路三段309號","121.542023333333","24.98581","6500600","新店區"
"231049","719-UM","2017/10/20 20:39:38","新北市新店區永業路81巷1弄17號","121.530421666667","24.9504083333333","6500600","新店區"
"231051","719-UY","2017/10/20 20:39:42","新北市新店區中央七街19號","121.529915","24.9751816666667","6500600","新店區"
"231062","720-UM","2017/10/20 20:39:43","新北市新店區安康路三段202號","121.489","24.951745","6500600","新店區"
"231044","897-TW","2017/10/20 20:39:41","新北市新店區建國路293巷2號","121.537021666667","24.985855","6500600","新店區"
"231043","899-TW","2017/10/20 20:39:44","新北市新店區博愛街13巷24號","121.540271666667","24.9740916666667","6500600","新店區"
"231066","AKT-0513","2017/10/20 20:39:41","新北市新店區安興路105-1號","121.514616666667","24.97771","6500600","新店區"
"241011","013-R5","2017/10/20 20:39:53","新北市三重區龍濱路190號","121.501135","25.0732866666667","6500200","三重區"
"241028","022-UY","2017/10/20 20:39:44","新北市三重區光興街91號","121.497403333333","25.059945","6500200","三重區"
"241008","059-VK","2017/10/20 20:39:38","新北市三重區下竹圍街42號","121.480996666667","25.074905","6500200","三重區"
"241009","060-VK","2017/10/20 20:39:44","新北市三重區碧華街51號","121.484693333333","25.08127","6500200","三重區"
"241031","061-VK","2017/10/20 20:39:51","新北市三重區重陽路一段113巷1弄51號","121.488165","25.058565","6500200","三重區"
"241015","062-VK","2017/10/20 20:39:38","新北市三重區文化北路119號","121.49775","25.0687083333333","6500200","三重區"
"241017","063-VK","2017/10/20 20:39:51","新北市三重區大同北路265號","121.490875","25.0672233333333","6500200","三重區"
"241026","066-VK","2017/10/20 20:39:36","新北市三重區文化南路7號","121.500033333333","25.0623166666667","6500200","三重區"
"241002","090-VK","2017/10/20 20:39:48","新北市三重區仁義街167巷31號","121.49804","25.0820816666667","6500200","三重區"
"241003","091-VK","2017/10/20 20:39:40","新北市三重區五華街141巷58號","121.493578333333","25.08677","6500200","三重區"
"241005","262-UM","2017/10/20 20:39:45","新北市三重區集賢路87-1號","121.493886666667","25.0869216666667","6500200","三重區"
"241016","265-UM","2017/10/20 20:39:39","新北市三重區長壽西街136號","121.494923333333","25.0669016666667","6500200","三重區"
"241022","267-UM","2017/10/20 20:39:47","新北市三重區過圳街27-5號","121.487935","25.0624133333333","6500200","三重區"
"241018","268-UM","2017/10/20 20:39:41","新北市三重區重陽路四段13號","121.491061666667","25.0691733333333","6500200","三重區"
"241032","269-UM","2017/10/20 20:39:37","新北市三重區重陽路一段120巷48號","121.484975","25.0601566666667","6500200","三重區"
"241013","270-UM","2017/10/20 20:39:44","新北市三重區三和路三段79號","121.494605","25.0718583333333","6500200","三重區"
"241025","271-UM","2017/10/20 20:39:43","新北市三重區頂崁街192巷23號","121.475786666667","25.0659233333333","6500200","三重區"
"241007","398-BY","2017/10/20 20:39:46","新北市三重區自強路四段4號","121.488343333333","25.07609","6500200","三重區"
"241024","KEA-2210","2017/10/20 20:39:52","新北市三重區國道路一段58巷20號","121.481226666667","25.0720416666667","6500200","三重區"
"241020","413-TH","2017/10/20 20:39:43","新北市三重區忠孝路一段101號","121.48943","25.07216","6500200","三重區"
"241004","475-VK","2017/10/20 20:39:45","新北市三重區仁愛街409號","121.49077","25.0812066666667","6500200","三重區"
"241019","478-VK","2017/10/20 20:39:28","新北市三重區重陽路四段126巷8號","121.492111666667","25.0710583333333","6500200","三重區"
"241030","480-VK","2017/10/20 20:39:42","新北市三重區成功路73巷12號","121.489365","25.0518933333333","6500200","三重區"
"241014","543-UM","2017/10/20 20:39:54","新北市三重區萬壽街23號","121.49971","25.0693866666667","6500200","三重區"
"241023","545-UM","2017/10/20 20:39:43","新北市三重區頂崁街187巷10號","121.478096666667","25.06645","6500200","三重區"
"241001","547-UM","2017/10/20 20:39:40","新北市三重區自強路三段110巷37號","121.48596","25.0746483333333","6500200","三重區"
"241035","743-BX","2017/10/20 20:39:46","新北市三重區正義北路332號","121.494585","25.0706316666667","6500200","三重區"
"241012","941-UM","2017/10/20 20:39:43","新北市三重區秀江街28號","121.502233333333","25.0729633333333","6500200","三重區"
"241029","942-UM","2017/10/20 20:39:38","新北市三重區集美街126巷27號","121.490055","25.0538483333333","6500200","三重區"
"241033","AAC-255","2017/10/20 20:39:54","新北市三重區光復路二段1號","121.472253333333","25.0533116666667","6500200","三重區"
"235058","151-BY","2017/10/20 20:39:40","新北市樹林區佳園路二段3-1號","121.394568333333","24.9649216666667","6500300","中和區"
"235050","4979-A6","2017/10/20 20:39:54","新北市中和區中正路584號","121.486003333333","24.9948383333333","6500300","中和區"
"235069","4980-A6","2017/10/20 20:39:50","新北市中和區民安街4號","121.480838333333","25.0011166666667","6500300","中和區"
"247022","893-R6","2017/10/20 20:39:42","新北市蘆洲區中正路243巷18弄6號","121.466896666667","25.0866583333333","6501400","蘆洲區"
"247012","546-UM","2017/10/20 20:39:54","新北市蘆洲區集賢路224巷66號","121.480633333333","25.0882816666667","6501400","蘆洲區"
"247020","500-BY","2017/10/20 20:39:44","新北市蘆洲區民族路424號","121.473941666667","25.0918483333333","6501400","蘆洲區"
"247010","339-TH","2017/10/20 20:39:44","新北市蘆洲區中山一路114號","121.477145","25.0814433333333","6501400","蘆洲區"
"247002","337-TH","2017/10/20 20:39:44","新北市蘆洲區永樂街64號","121.457225","25.088635","6501400","蘆洲區"
"247004","336-TH","2017/10/20 20:39:47","新北市蘆洲區長安街301號","121.458068333333","25.084935","6501400","蘆洲區"
"247016","057-VK","2017/10/20 20:39:45","新北市蘆洲區中山一路294號","121.470558333333","25.078235","6501400","蘆洲區"
"247006","056-VK","2017/10/20 20:39:44","新北市蘆洲區和平路121巷8弄4號","121.46691","25.0799583333333","6501400","蘆洲區"
"247008","053-VK","2017/10/20 20:39:40","新北市蘆洲區重陽街16號","121.480676666667","25.0814983333333","6501400","蘆洲區"
"247014","007-UY","2017/10/20 20:39:42","新北市蘆洲區復興路56號","121.47306","25.0855083333333","6501400","蘆洲區"
"247024","002-UY","2017/10/20 20:39:55","新北市蘆洲區長樂路38號","121.463563333333","25.0855333333333","6501400","蘆洲區"
"222001","KEA-2212","2017/10/20 20:39:38","新北市深坑區北深路三段220號","121.600948333333","25.00389","6501800","深坑區"
"251002","012-UM","2017/10/20 20:39:48","新北市淡水區中正路38-1號","121.44372","25.1693333333333","6501000","淡水區"
"251013","180-VK","2017/10/20 20:39:36","新北市淡水區下圭柔山28巷6號","121.457255","25.2041216666667","6501000","淡水區"
"251015","182-VK","2017/10/20 20:39:48","新北市淡水區淡金路四段542巷17號","121.452698333333","25.2271","6501000","淡水區"
"251010","413-VK","2017/10/20 20:39:41","新北市淡水區沙崙路181巷15號","121.42372","25.18437","6501000","淡水區"
"251012","441-VK","2017/10/20 20:39:53","新北市淡水區興仁路101巷8號","121.451256666667","25.21806","6501000","淡水區"
"251001","559-UM","2017/10/20 20:39:38","新北市淡水區淡金路137號","121.457516666667","25.1646383333333","6501000","淡水區"
"251011","650-BX","2017/10/20 20:39:48","新北市淡水區新市一路一段361號","121.436253333333","25.18614","6501000","淡水區"
"251003","766-UM","2017/10/20 20:39:48","新北市淡水區新民街120巷21號","121.438375","25.1780033333333","6501000","淡水區"
"252002","178-VK","2017/10/20 20:39:52","新北市三芝區淡金路二段47-2號","121.503715","25.260555","6502100","三芝區"
"252001","292-VK","2017/10/20 20:39:38","新北市三芝區中山路一段83號","121.50102","25.2566633333333","6502100","三芝區"
"236043","107-UM","2017/10/20 18:45:11","新北市土城區裕民路92巷25弄1號","121.44964","24.9859483333333","6501300","土城區"
"236022","401-BY","2017/10/20 20:39:39","新北市土城區中華路二段2號","121.43903","24.979805","6501300","土城區"
"242032","AAC-296","2017/10/20 20:39:55","新北市新莊區三泰路23號","121.437451666667","25.0354466666667","6500500","新莊區"
"242029","986-R7","2017/10/20 20:39:38","新北市新莊區昌隆街3巷1弄2號","121.454213333333","25.051375","6500500","新莊區"
"242050","751-BX","2017/10/20 20:39:51","新北市新莊區民安西路90-2號","121.42697","25.019025","6500500","新莊區"
"242025","705-TV","2017/10/20 20:39:47","新北市三重區疏洪西路401號","121.468555","25.06426","6500500","新莊區"
"242023","613-BX","2017/10/20 20:39:41","新北市新莊區復興路三段42號","121.461501666667","25.0444966666667","6500500","新莊區"
"242027","612-BX","2017/10/20 20:39:52","新北市新莊區思源路63號","121.459905","25.0404216666667","6500500","新莊區"
"242039","566-BX","2017/10/20 20:39:37","新北市新莊區民安路381號","121.431856666667","25.023055","6500500","新莊區"
"242044","497-BY","2017/10/20 20:39:54","新北市新莊區中正路新建巷15弄26號","121.414976666667","25.0219366666667","6500500","新莊區"
"242048","441-UM","2017/10/20 20:39:49","新北市新莊區中正路695號","121.425838333333","25.0299116666667","6500500","新莊區"
"242054","440-UM","2017/10/20 20:39:50","新北市新莊區西盛街324巷38號","121.426633333333","25.01479","6500500","新莊區"
"242041","400-BY","2017/10/20 20:39:53","新北市新莊區天祥街42號","121.416868333333","25.0287983333333","6500500","新莊區"
"242060","362-BY","2017/10/20 20:39:50","新北市新莊區新樹路284號","121.432598333333","25.0125766666667","6500500","新莊區"
"242007","132-UY","2017/10/20 20:39:48","新北市新莊區思源路131號","121.459828333333","25.0430566666667","6500500","新莊區"
"242037","133-UY","2017/10/20 20:39:46","新北市新莊區建安街16巷1號","121.428525","25.0264183333333","6500500","新莊區"
"242046","172-VK","2017/10/20 20:39:53","新北市新莊區福營路435號","121.420595","25.0261783333333","6500500","新莊區"
"242009","173-VK","2017/10/20 20:39:53","新北市新莊區幸福路64巷4弄5號","121.457405","25.0500116666667","6500500","新莊區"
"242015","175-VK","2017/10/20 20:39:54","新北市新莊區中和街53號","121.447975","25.044665","6500500","新莊區"
"242002","176-VK","2017/10/20 20:39:52","新北市新莊區中港路59號","121.455048333333","25.0384766666667","6500500","新莊區"
"242013","346-TH","2017/10/20 20:39:36","新北市新莊區中信街70號","121.448521666667","25.0516566666667","6500500","新莊區"
"242056","349-TH","2017/10/20 20:39:52","新北市新莊區瓊泰路94巷16號","121.443841666667","25.0294066666667","6500500","新莊區"
"242017","350-TH","2017/10/20 20:39:35","新北市新莊區中華路一段72號","121.452106666667","25.0389416666667","6500500","新莊區"
"242011","351-TH","2017/10/20 20:39:48","新北市新莊區中榮街124號","121.446546666667","25.0528266666667","6500500","新莊區"
"221008","489-VK","2017/10/20 20:39:55","新北市汐止區康寧街706號","121.637891666667","25.0725283333333","6501100","汐止區"
"221036","130-UY","2017/10/20 20:39:41","新北市汐止區新昌路22號","121.662141666667","25.0677","6501100","汐止區"
"221015","131-UY","2017/10/20 20:39:44","新北市汐止區建成路42號","121.663963333333","25.0728366666667","6501100","汐止區"
"221012","276-VK","2017/10/20 13:19:36","新北市汐止區汐萬路一段256巷3號","121.653446666667","25.074635","6501100","汐止區"
"221012","278-VK","2017/10/20 20:39:39","新北市汐止區汐萬路一段39號","121.654965","25.0690583333333","6501100","汐止區"
"221023","279-VK","2017/10/20 20:39:34","新北市汐止區明峰街2巷2號","121.635686666667","25.07107","6501100","汐止區"
"221032","280-BY","2017/10/20 20:39:44","新北市汐止區橫科路221巷19-1號","121.621503333333","25.049515","6501100","汐止區"
"221027","281-BY","2017/10/20 20:39:47","新北市汐止區大同路二段555號","121.662493333333","25.0696683333333","6501100","汐止區"
"221029","298-VK","2017/10/20 20:39:52","新北市汐止區新台五路一段79-13號","121.645211666667","25.0618533333333","6501100","汐止區"
"221021","299-VK","2017/10/20 20:39:45","新北市汐止區水源路一段282巷1號","121.654101666667","25.0582333333333","6501100","汐止區"
"221031","353-TW","2017/10/20 20:39:37","新北市汐止區中興路130-1號","121.633078333333","25.0643166666667","6501100","汐止區"
"221035","622-UM","2017/10/20 20:39:37","新北市汐止區長江街101-5號","121.658723333333","25.0731816666667","6501100","汐止區"
"221025","623-UM","2017/10/20 20:39:45","新北市汐止區水源路一段277號","121.65419","25.0587633333333","6501100","汐止區"
"221038","646-BX","2017/10/20 20:39:43","新北市汐止區新江北路1號","121.652795","25.0707983333333","6501100","汐止區"
"221033","647-BX","2017/10/20 20:39:45","新北市汐止區合順街18巷8弄5號","121.62033","25.0419083333333","6501100","汐止區"
"221002","707-TV","2017/10/20 20:39:38","新北市汐止區福德二路163號","121.631103333333","25.0652216666667","6501100","汐止區"
"221018","753-BX","2017/10/20 20:39:40","新北市汐止區中華街71號","121.668153333333","25.07107","6501100","汐止區"
"220061","293-UM","2017/10/20 20:39:51","新北市板橋區四川路一段353號","121.458285","24.9998516666667","6500100","板橋區"
"220062","303-R5","2017/10/20 20:39:45","新北市板橋區溪頭街322-2號","121.464728333333","25.0338966666667","6500100","板橋區"
"242034","280-VK","2017/10/20 20:39:50","新北市新莊區中正路360號","121.44363","25.0342283333333","6500500","新莊區"
"220103","561-BX","2017/10/20 20:39:46","新北市板橋區漢生東路63巷28號","121.466938333333","25.017205","6500100","板橋區"
"220070","AAC-253","2017/10/20 20:39:39","新北市五股區新城三路43號","121.448501666667","25.0927783333333","6500100","板橋區"
