"lineid","car","time","location","longitude","latitude","cityid","cityname"
"251013","179-VK","2017/09/24 17:18:31","新北市淡水區破瓦厝子3-3號","121.47235","25.1974066666667","6501000","淡水區"
"251014","180-VK","2017/09/24 17:18:22","新北市淡水區番子田120-1號","121.464875","25.22823","6501000","淡水區"
"251015","182-VK","2017/09/24 17:18:31","新北市淡水區樹林口9號","121.479353333333","25.168005","6501000","淡水區"
"251016","442-VK","2017/09/24 17:18:35","新北市淡水區鄒厝崙13-1號","121.462528333333","25.19078","6501000","淡水區"
"236002","339-SR","2017/09/24 14:47:25","新北市土城區永平街51號","121.427656666667","24.959225","6501300","土城區"
