"lineid","car","time","location","longitude","latitude","cityid","cityname"
"251013","179-VK","2017/09/24 20:58:31","新北市淡水區番子厝13號","121.461305","25.200985","6501000","淡水區"
"251014","180-VK","2017/09/24 20:58:22","新北市淡水區淡金路五段72號","121.454955","25.2335583333333","6501000","淡水區"
"251015","182-VK","2017/09/24 20:58:31","新北市淡水區淡金路四段542巷17號","121.452655","25.2271","6501000","淡水區"
"251016","442-VK","2017/09/24 20:58:35","新北市淡水區興仁路165號","121.451515","25.2202033333333","6501000","淡水區"
"236002","339-SR","2017/09/24 14:47:25","新北市土城區永平街51號","121.427656666667","24.959225","6501300","土城區"
