"lineid","car","time","location","longitude","latitude","cityid","cityname"
"248005","653-BX","2017/12/29 07:44:43","新北市五股區水碓路5巷1-1號","121.433576666667","25.0721016666667","6501500","五股區"
"232019","705-BZ","2017/12/29 08:09:48","新北市坪林區坪雙路一段115號","121.730225","24.9484866666667","6502000","坪林區"
"232008","758-BX","2017/12/29 08:09:52","新北市坪林區魚堀5-2號","121.713643333333","24.9039033333333","6502000","坪林區"
"244004","248-BX","2017/12/29 08:09:50","新北市林口區下福里147-3號","121.299011666667","25.1172116666667","6501700","林口區"
"222005","289-BY","2017/12/29 08:09:34","新北市深坑區深坑街3巷22號","121.616913333333","25.00187","6501800","深坑區"
"231007","189-VK","2017/12/29 08:09:36","新北市新店區華城路36號","121.528511666667","24.95594","6500600","新店區"
"231009","192-VK","2017/12/29 08:09:50","新北市新店區北新路一段201號","121.540375","24.96492","6500600","新店區"
"226005","5620-A6","2017/12/29 08:09:31","新北市平溪區南山里六分6號","121.796418333333","25.049105","6502400","平溪區"
"226001","7418-A5","2017/12/29 08:09:30","新北市平溪區嶺腳里田子1-3號","121.750615","25.023895","6502400","平溪區"
"226003","AGD-0702","2017/12/29 08:09:35","新北市平溪區十分里十分街50號","121.775","25.0412283333333","6502400","平溪區"
"223002","198-BX","2017/12/29 08:09:38","新北市石碇區碇坪路一段52號","121.656425","24.99161","6501900","石碇區"
"223008","406-TH","2017/12/29 08:09:47","新北市石碇區靜安路一段266號","121.684015","25.009075","6501900","石碇區"
"223001","437-BY","2017/12/29 08:09:33","新北市石碇區北宜路六段塗潭巷2號","121.645473333333","24.9367883333333","6501900","石碇區"
"223004","660-BX","2017/12/29 08:09:37","新北市石碇區外按16-1號","121.650696666667","24.9975283333333","6501900","石碇區"
"223007","661-BX","2017/12/29 08:09:48","新北市石碇區靜安路一段266號","121.683946666667","25.0090833333333","6501900","石碇區"
"223005","677-TV","2017/12/29 08:09:48","新北市石碇區外按1號","121.651263333333","24.9968366666667","6501900","石碇區"
"227005","282-VK","2017/12/29 08:09:32","新北市雙溪區上林里內平林140號","121.821505","25.0236983333333","6502500","雙溪區"
"237001","159-UY","2017/12/29 08:09:33","新北市三峽區學成路269號","121.375658333333","24.9430033333333","6500900","三峽區"
"236010","165-UM","2017/12/29 08:09:43","新北市土城區石門路78-5號","121.454788333333","24.9550016666667","6501300","土城區"
"236004","339-SR","2017/12/29 08:09:48","新北市土城區中央路四段294號","121.414185","24.9562083333333","6501300","土城區"
"236006","498-BY","2017/12/29 08:09:39","新北市土城區永平街51號","121.427563333333","24.95909","6501300","土城區"
"220080","461-BY","2017/12/29 08:09:39","新北市泰山區新五路一段131號","121.439893333333","25.0626766666667","6500100","板橋區"
