"lineid","car","time","location","longitude","latitude","cityid","cityname"
"248005","653-BX","2017/12/29 09:11:38","新北市五股區水碓一路5號","121.432466666667","25.07286","6501500","五股區"
"244004","248-BX","2017/12/29 09:00:30","新北市林口區粉寮69號","121.405086666667","25.0908216666667","6501700","林口區"
"222005","289-BY","2017/12/29 09:04:32","新北市深坑區土庫尖路75-1號","121.631166666667","25.0182233333333","6501800","深坑區"
"231007","189-VK","2017/12/29 09:11:36","新北市新店區新潭路二段120號","121.513595","24.923095","6500600","新店區"
"231009","192-VK","2017/12/29 09:11:50","新北市新店區廣興路60巷12-1號","121.540486666667","24.91487","6500600","新店區"
"231054","AAD-862","2017/12/29 08:40:37","新北市新店區安華路28-1號","121.519766666667","24.9612","6500600","新店區"
"223002","198-BX","2017/12/29 09:11:51","新北市石碇區八分寮47-1號","121.642081666667","25.0136516666667","6501900","石碇區"
"223008","406-TH","2017/12/29 09:11:47","新北市石碇區靜安路一段337號","121.698823333333","25.01466","6501900","石碇區"
"223004","660-BX","2017/12/29 09:11:50","新北市石碇區華梵路3號","121.69163","24.9784","6501900","石碇區"
"223007","661-BX","2017/12/29 09:11:47","新北市石碇區西勢坑6號","121.704176666667","24.9948433333333","6501900","石碇區"
"223005","677-TV","2017/12/29 09:11:41","新北市石碇區華梵路2號","121.691481666667","24.9770816666667","6501900","石碇區"
"227005","282-VK","2017/12/29 09:06:31","新北市雙溪區泰平里料角坑19號","121.812048333333","24.9725733333333","6502500","雙溪區"
"237001","159-UY","2017/12/29 09:11:33","新北市三峽區國際一街19號","121.373751666667","24.94277","6500900","三峽區"
"236010","165-UM","2017/12/29 09:11:43","新北市土城區金城路一段7號","121.439366666667","24.96895","6501300","土城區"
"236004","339-SR","2017/12/29 09:11:48","新北市土城區中正路65號","121.444461666667","24.97554","6501300","土城區"
"236006","498-BY","2017/12/29 09:11:39","新北市土城區中央路三段92號","121.436103333333","24.96683","6501300","土城區"
"220080","461-BY","2017/12/29 09:11:34","新北市板橋區華東街1-9號","121.448086666667","24.9948333333333","6500100","板橋區"
