"lineid","car","time","location","longitude","latitude","cityid","cityname"
"248005","653-BX","2017/12/29 10:09:38","新北市五股區中興路二段83巷26-6號","121.459915","25.0751483333333","6501500","五股區"
"222005","289-BY","2017/12/29 10:09:41","新北市深坑區文化街118號","121.615615","25.0019266666667","6501800","深坑區"
"231007","189-VK","2017/12/29 10:09:36","新北市新店區新潭路三段215巷25號","121.508116666667","24.9040566666667","6500600","新店區"
"231009","192-VK","2017/12/29 10:09:50","新北市新店區平廣路一段65號","121.532305","24.8994183333333","6500600","新店區"
"231054","AAD-862","2017/12/29 08:40:37","新北市新店區安華路28-1號","121.519766666667","24.9612","6500600","新店區"
"227005","282-VK","2017/12/29 09:56:11","新北市雙溪區泰平里灣潭路36號","121.812803333333","24.929095","6502500","雙溪區"
"220080","461-BY","2017/12/29 09:11:34","新北市板橋區華東街1-9號","121.448086666667","24.9948333333333","6500100","板橋區"
