"lineid","car","time","location","longitude","latitude","cityid","cityname"
"231007","189-VK","2017/12/29 11:09:36","新北市新店區永業路103號","121.528701666667","24.9485483333333","6500600","新店區"
"231009","192-VK","2017/12/29 11:08:09","新北市新店區成功路45-1號","121.539681666667","24.8989166666667","6500600","新店區"
"231054","AAD-862","2017/12/29 08:40:37","新北市新店區安華路28-1號","121.519766666667","24.9612","6500600","新店區"
"227005","282-VK","2017/12/29 11:09:51","新北市雙溪區泰平里泰平1-5號","121.84764","24.9946216666667","6502500","雙溪區"
"220080","461-BY","2017/12/29 09:11:34","新北市板橋區華東街1-9號","121.448086666667","24.9948333333333","6500100","板橋區"
