"lineid","car","time","location","longitude","latitude","cityid","cityname"
"231007","189-VK","2017/12/29 11:11:36","新北市新店區華潭街52號","121.528825","24.9550633333333","6500600","新店區"
"231009","192-VK","2017/12/29 11:10:50","新北市新店區成功路126號","121.533738333333","24.894745","6500600","新店區"
"231054","AAD-862","2017/12/29 08:40:37","新北市新店區安華路28-1號","121.519766666667","24.9612","6500600","新店區"
"227005","282-VK","2017/12/29 11:11:31","新北市雙溪區魚行里丁子蘭坑31號","121.845901666667","24.997535","6502500","雙溪區"
"220080","461-BY","2017/12/29 09:11:34","新北市板橋區華東街1-9號","121.448086666667","24.9948333333333","6500100","板橋區"
