"lineid","car","time","location","longitude","latitude","cityid","cityname"
"231009","192-VK","2017/12/29 11:49:50","新北市新店區松林路16巷41號","121.545253333333","24.906105","6500600","新店區"
"231054","AAD-862","2017/12/29 08:40:37","新北市新店區安華路28-1號","121.519766666667","24.9612","6500600","新店區"
"235031","255-BX","2017/12/29 11:42:51","新北市中和區和城路一段271巷1號","121.485581666667","24.9916516666667","6500300","中和區"
"227005","282-VK","2017/12/29 11:46:11","新北市雙溪區魚行里丁子蘭坑9號","121.870725","25.005035","6502500","雙溪區"
"221012","276-VK","2017/12/29 11:49:34","新北市汐止區汐萬路一段256巷1號","121.651765","25.07493","6501100","汐止區"
"220080","461-BY","2017/12/29 09:11:34","新北市板橋區華東街1-9號","121.448086666667","24.9948333333333","6500100","板橋區"
