"lineid","car","time","location","longitude","latitude","cityid","cityname"
"234044","148-BY","2017/12/29 12:59:44","新北市永和區永元路52巷17號","121.523391666667","25.0009883333333","6500400","永和區"
"234012","149-BY","2017/12/29 12:59:29","新北市永和區信義路17巷22號","121.513208333333","25.01118","6500400","永和區"
"234005","207-UY","2017/12/29 12:59:32","新北市永和區中山路一段2號","121.514358333333","25.0104683333333","6500400","永和區"
"234078","298-R6","2017/12/29 12:59:47","新北市永和區福和路174號","121.521018333333","25.0078383333333","6500400","永和區"
"234036","336-UY","2017/12/29 12:59:44","新北市中和區秀朗路三段38號","121.52648","24.9959916666667","6500400","永和區"
"234062","337-UY","2017/12/29 12:59:46","新北市永和區秀朗路一段146號","121.518288333333","25.0033633333333","6500400","永和區"
"234084","338-UY","2017/12/29 12:59:49","新北市永和區永寧街129巷2號","121.518031666667","25.0053816666667","6500400","永和區"
"234052","553-UM","2017/12/29 12:59:43","新北市永和區竹林路66巷4號","121.518188333333","25.013385","6500400","永和區"
"234015","745-BX","2017/12/29 12:59:42","新北市永和區永和路二段297號","121.516036666667","25.0160416666667","6500400","永和區"
"234028","746-BX","2017/12/28 21:35:37","新北市五股區成泰路三段362號","121.451473333333","25.0985116666667","6500400","永和區"
"234060","AAD-866","2017/12/29 12:59:40","新北市永和區福和路303號","121.516395","25.0071883333333","6500400","永和區"
"234040","862-TW","2017/12/29 12:59:42","新北市永和區永貞路267號","121.511881666667","25.0046966666667","6500400","永和區"
"234048","863-TW","2017/12/29 12:59:42","新北市永和區文化路147號","121.510778333333","25.0161716666667","6500400","永和區"
"234025","9371-KE","2017/12/29 12:59:47","新北市永和區水源街2巷24號","121.512113333333","25.0057133333333","6500400","永和區"
"234010","9373-KE","2017/12/29 12:59:30","新北市永和區文化路113巷19號","121.513213333333","25.0140733333333","6500400","永和區"
"248019","225-UY","2017/12/29 12:59:32","新北市五股區中興路二段83巷26-6號","121.460043333333","25.0752116666667","6501500","五股區"
"234022","9380-KE","2017/12/29 12:59:44","新北市永和區竹林路75巷33弄1號","121.520545","25.0142466666667","6500400","永和區"
"234076","969-R7","2017/12/29 12:59:42","新北市永和區民享街4號","121.515066666667","24.9955733333333","6500400","永和區"
"234072","AAC-211","2017/12/29 12:59:36","新北市永和區環河東路二段98號","121.524108333333","25.0103583333333","6500400","永和區"
"234066","AAC-212","2017/12/29 12:59:32","新北市永和區中和路625號","121.513003333333","25.00495","6500400","永和區"
"234001","AAC-295","2017/12/29 12:59:37","新北市永和區永平路30號","121.513141666667","25.00886","6500400","永和區"
"244004","248-BX","2017/12/29 12:59:30","新北市林口區中山路138-1號","121.391675","25.07866","6501700","林口區"
"231037","0293-UT","2017/12/29 12:59:43","新北市新店區安華路1-1號","121.51949","24.9605083333333","6500600","新店區"
"231028","046-UY","2017/12/29 12:59:47","新北市新店區安華路28-1號","121.519475","24.96081","6500600","新店區"
"231030","047-UY","2017/12/29 12:59:36","新北市新店區安華路28-1號","121.519333333333","24.9608466666667","6500600","新店區"
"231029","106-UY","2017/12/29 12:59:40","新北市新店區安華路28-1號","121.519571666667","24.9608183333333","6500600","新店區"
"231018","107-UY","2017/12/29 12:59:43","新北市新店區安華路28-1號","121.519386666667","24.9613683333333","6500600","新店區"
"231012","108-UY","2017/12/29 12:59:33","新北市新店區安華路28-1號","121.519401666667","24.96089","6500600","新店區"
"231016","KEA-2219","2017/12/29 12:59:34","新北市新店區安華路28-1號","121.51969","24.9612766666667","6500600","新店區"
"231010","278-BY","2017/12/29 00:45:45","新北市新店區安華路28-1號","121.519581666667","24.9611366666667","6500600","新店區"
"231023","AAD-862","2017/12/29 12:59:31","新北市新店區安華路28-1號","121.519876666667","24.9611333333333","6500600","新店區"
"231027","3712-VJ","2017/12/29 12:59:47","新北市新店區安華路1-1號","121.519228333333","24.96054","6500600","新店區"
"231025","3713-VJ","2017/12/29 12:59:30","新北市新店區安華路28-1號","121.519301666667","24.9606683333333","6500600","新店區"
"231038","4715-K9","2017/12/29 12:59:40","新北市新店區安華路1-1號","121.519331666667","24.960345","6500600","新店區"
"231036","512-UM","2017/12/29 04:05:25","新北市新店區安華路28-1號","121.519318333333","24.96104","6500600","新店區"
"231035","515-UM","2017/12/29 12:59:44","新北市新店區安華路28-1號","121.51962","24.9611166666667","6500600","新店區"
"231001","619-UM","2017/12/29 12:59:39","新北市新店區安華路28-1號","121.519423333333","24.9608383333333","6500600","新店區"
"231003","641-BX","2017/12/29 12:59:40","新北市新店區安華路28-1號","121.519536666667","24.96058","6500600","新店區"
"231034","645-TV","2017/12/29 12:59:45","新北市新店區安華路28-1號","121.519313333333","24.9607016666667","6500600","新店區"
"231013","719-UM","2017/12/29 12:59:33","新北市新店區安華路28-1號","121.519453333333","24.9613183333333","6500600","新店區"
"231032","720-UM","2017/12/29 12:59:39","新北市新店區安華路28-1號","121.519395","24.96122","6500600","新店區"
"231005","897-TW","2017/12/29 12:59:46","新北市新店區安華路28-1號","121.519565","24.96069","6500600","新店區"
"231004","899-TW","2017/12/29 12:59:25","新北市新店區安華路28-1號","121.51931","24.9608683333333","6500600","新店區"
"235028","005-UY","2017/12/29 12:59:40","新北市中和區員山路36巷16-3號","121.485051666667","24.9912666666667","6500300","中和區"
"235022","151-BY","2017/12/29 12:59:30","新北市中和區錦和路350-1號","121.49046","24.9934983333333","6500300","中和區"
"235002","185-VK","2017/12/29 12:59:32","新北市中和區秀朗路三段10巷14弄24-3號","121.525056666667","24.9971483333333","6500300","中和區"
"235031","255-BX","2017/12/29 12:59:40","新北市中和區中山路二段550號","121.483826666667","25.00533","6500300","中和區"
"235025","378-QA","2017/12/29 03:41:03","新北市中和區員山路36巷13號","121.484058333333","24.99133","6500300","中和區"
"235001","AAC-213","2017/12/29 12:59:41","新北市中和區錦和路350-1號","121.49022","24.9935866666667","6500300","中和區"
"208004","AAC-292","2017/12/29 12:59:44","新北市金山區磺港里磺港路326號","121.645565","25.22947","6502700","金山區"
"207002","749-BX","2017/12/29 12:58:48","新北市萬里區雙興里大坪路52-1號","121.623543333333","25.1732716666667","6502800","萬里區"
"207001","662-BX","2017/12/29 12:59:47","新北市萬里區萬里里獅頭路23號","121.693366666667","25.1782483333333","6502800","萬里區"
"236006","498-BY","2017/12/29 12:59:29","新北市土城區亞洲路14號","121.436616666667","24.9748383333333","6501300","土城區"
"238003","308-TH","2017/12/29 12:59:32","新北市樹林區育德街76巷1號","121.388745","24.968255","6500700","樹林區"
"221012","276-VK","2017/12/29 12:59:34","新北市汐止區大同路二段537號","121.661968333333","25.06922","6501100","汐止區"
"221032","280-BY","2017/12/29 12:59:39","新北市汐止區建成路57巷1號","121.662238333333","25.072545","6501100","汐止區"
"220080","461-BY","2017/12/29 09:11:34","新北市板橋區華東街1-9號","121.448086666667","24.9948333333333","6500100","板橋區"
