"lineid","car","time","location","longitude","latitude","cityid","cityname"
"234044","148-BY","2017/12/29 13:49:35","新北市永和區永利路212號","121.523388333333","25.002565","6500400","永和區"
"234012","149-BY","2017/12/29 13:49:49","新北市永和區永平路306號","121.507096666667","25.012365","6500400","永和區"
"234005","207-UY","2017/12/29 13:49:32","新北市永和區中和路525號","121.51127","25.0029566666667","6500400","永和區"
"234078","298-R6","2017/12/29 13:49:47","新北市永和區林森路92號","121.523103333333","25.0035783333333","6500400","永和區"
"234036","336-UY","2017/12/29 13:49:44","新北市永和區秀朗路二段281號","121.526195","24.998185","6500400","永和區"
"234062","337-UY","2017/12/29 13:49:46","新北市永和區中正路368巷7號","121.51812","25.0008583333333","6500400","永和區"
"234084","338-UY","2017/12/29 13:49:49","新北市永和區永利路9號","121.517575","25.0060633333333","6500400","永和區"
"234052","553-UM","2017/12/29 13:49:43","新北市永和區竹林路39巷28弄19號","121.519945","25.0145416666667","6500400","永和區"
"234015","745-BX","2017/12/29 13:49:42","新北市永和區文化路29號","121.514891666667","25.01503","6500400","永和區"
"234028","746-BX","2017/12/28 21:35:37","新北市五股區成泰路三段362號","121.451473333333","25.0985116666667","6500400","永和區"
"234060","AAD-866","2017/12/29 13:49:40","新北市永和區中正路249號","121.517533333333","24.9999133333333","6500400","永和區"
"234068","847-RS","2017/12/29 13:49:44","新北市永和區竹林路115號","121.519928333333","25.0116033333333","6500400","永和區"
"234040","862-TW","2017/12/29 13:49:49","新北市永和區中和路389巷11弄1號","121.508085","25.0009116666667","6500400","永和區"
"234048","863-TW","2017/12/29 13:49:42","新北市永和區保安路144號","121.508606666667","25.014955","6500400","永和區"
"234025","9371-KE","2017/12/29 13:49:47","新北市永和區自由街54號","121.513725","25.00602","6500400","永和區"
"234010","9373-KE","2017/12/29 13:49:50","新北市永和區仁愛路266號","121.504136666667","25.008495","6500400","永和區"
"248019","225-UY","2017/12/29 13:42:32","新北市五股區凌雲路三段田埔巷35-1號","121.439318333333","25.1222466666667","6501500","五股區"
"234022","9380-KE","2017/12/29 13:49:44","新北市永和區中正路654巷54號","121.518295","25.008495","6500400","永和區"
"234076","969-R7","2017/12/29 13:49:45","新北市永和區民族街41巷13號","121.519145","24.9989816666667","6500400","永和區"
"234072","AAC-211","2017/12/29 13:49:36","新北市永和區豫溪街215巷5號","121.523998333333","25.0097233333333","6500400","永和區"
"234066","AAC-212","2017/12/29 13:49:32","新北市永和區保平路236巷15弄18號","121.507828333333","25.00683","6500400","永和區"
"234001","AAC-295","2017/12/29 13:49:37","新北市永和區永和路一段107號","121.51396","25.0080083333333","6500400","永和區"
"244004","248-BX","2017/12/29 13:49:50","新北市林口區民族路9-99號","121.3641","25.07389","6501700","林口區"
"231002","001-UM","2017/12/29 13:49:44","新北市新店區溪園路43巷3-1號","121.529793333333","24.98782","6500600","新店區"
"231024","0291-UT","2017/12/29 13:49:49","新北市新店區新生街55號","121.538971666667","24.966945","6500600","新店區"
"231037","0293-UT","2017/12/29 13:49:43","新北市新店區安康路三段440-1號","121.484963333333","24.951425","6500600","新店區"
"231028","046-UY","2017/12/29 13:49:47","新北市新店區安和路三段37號","121.517786666667","24.9817983333333","6500600","新店區"
"231030","047-UY","2017/12/29 13:49:36","新北市新店區安康路一段266巷4號","121.52019","24.96407","6500600","新店區"
"231029","106-UY","2017/12/29 13:49:40","新北市新店區安康路二段105-1號","121.512716666667","24.9623016666667","6500600","新店區"
"231018","107-UY","2017/12/29 13:49:43","新北市新店區中正路399巷24號","121.533853333333","24.976725","6500600","新店區"
"231012","108-UY","2017/12/29 13:49:33","新北市新店區中興路二段69號","121.546563333333","24.970875","6500600","新店區"
"231022","187-VK","2017/12/29 13:49:33","新北市新店區自強路36號","121.546086666667","24.9262783333333","6500600","新店區"
"231016","KEA-2219","2017/12/29 13:49:34","新北市新店區竹林路97巷1號","121.55449","24.9502316666667","6500600","新店區"
"231026","256-BX","2017/12/29 13:49:44","新北市新店區三民路84巷3號","121.534628333333","24.9728683333333","6500600","新店區"
"231010","278-BY","2017/12/29 13:49:34","新北市新店區中央路133巷27弄41號","121.53235","24.9744183333333","6500600","新店區"
"231023","AAD-862","2017/12/29 13:49:51","新北市新店區文中路51-5號","121.54036","24.9565783333333","6500600","新店區"
"231027","3712-VJ","2017/12/29 13:49:47","新北市新店區中興路一段24-2號","121.538515","24.95824","6500600","新店區"
"231025","3713-VJ","2017/12/29 13:49:50","新北市新店區中央五街5號","121.530163333333","24.97417","6500600","新店區"
"231038","4715-K9","2017/12/29 13:49:40","新北市新店區安康路一段104號","121.527323333333","24.9624783333333","6500600","新店區"
"231036","512-UM","2017/12/29 13:49:42","新北市新店區安祥路109巷6弄55號","121.47566","24.956965","6500600","新店區"
"231035","515-UM","2017/12/29 13:49:44","新北市新店區安忠路57巷5-6號","121.513178333333","24.9586883333333","6500600","新店區"
"231006","617-UM","2017/12/29 13:49:40","新北市新店區北宜路一段260號","121.545685","24.95279","6500600","新店區"
"231001","619-UM","2017/12/29 13:49:39","新北市新店區三民路42號","121.536186666667","24.9715816666667","6500600","新店區"
"231003","641-BX","2017/12/29 13:49:40","新北市新店區中興路一段101號","121.540975","24.9623666666667","6500600","新店區"
"231034","645-TV","2017/12/29 13:49:45","新北市新店區達觀路16號","121.502973333333","24.94101","6500600","新店區"
"231013","719-UM","2017/12/29 13:49:52","新北市新店區二十張路25巷18弄35號","121.539368333333","24.9810633333333","6500600","新店區"
"231032","720-UM","2017/12/29 13:49:39","新北市新店區莒光路44巷21弄11-3號","121.518466666667","24.9521716666667","6500600","新店區"
"231005","897-TW","2017/12/29 13:49:46","新北市新店區寶中路103號","121.54898","24.9802183333333","6500600","新店區"
"231004","899-TW","2017/12/29 13:49:45","新北市新店區寶橋路65號","121.545326666667","24.97501","6500600","新店區"
"235030","003-UY","2017/12/29 13:49:50","新北市中和區水源路7巷4號","121.50409","25.0037033333333","6500300","中和區"
"235028","005-UY","2017/12/29 13:49:40","新北市中和區連城路75巷2號","121.497463333333","24.9998766666667","6500300","中和區"
"235027","006-UY","2017/12/29 13:49:44","新北市中和區連城路319巷3弄2號","121.48917","24.99551","6500300","中和區"
"235010","031-BX","2017/12/29 13:49:40","新北市中和區仁愛街36巷30號","121.51105","24.9869133333333","6500300","中和區"
"235020","096-UM","2017/12/29 13:49:36","新北市中和區立德街329號","121.481503333333","25.0104733333333","6500300","中和區"
"235003","097-UM","2017/12/29 13:49:40","新北市中和區大勇街29巷2-5號","121.516143333333","24.994305","6500300","中和區"
"235004","150-BY","2017/12/29 13:49:34","新北市中和區宜安路65號","121.511235","24.9969966666667","6500300","中和區"
"235022","151-BY","2017/12/29 13:49:50","新北市中和區連城路526-1號","121.475996666667","24.9916533333333","6500300","中和區"
"235019","183-VK","2017/12/29 13:49:39","新北市中和區德光路70號","121.46939","25.0037483333333","6500300","中和區"
"235002","185-VK","2017/12/29 13:49:32","新北市中和區大勇街43巷11號","121.517083333333","24.9945616666667","6500300","中和區"
"235013","186-VK","2017/12/29 13:49:48","新北市中和區景安路177巷29號","121.50669","24.9945666666667","6500300","中和區"
"235031","255-BX","2017/12/29 13:49:39","新北市中和區新生街186巷1弄28號","121.483253333333","24.99856","6500300","中和區"
"235008","293-VK","2017/12/29 13:49:42","新北市中和區中興街162號","121.499893333333","24.9915766666667","6500300","中和區"
"235036","301-VK","2017/12/29 13:49:47","新北市中和區中山路二段1號","121.505505","25.005935","6500300","中和區"
"235007","352-BY","2017/12/29 13:49:48","新北市中和區秀朗路三段76巷1號","121.526181666667","24.9939633333333","6500300","中和區"
"235032","377-QA","2017/12/29 13:48:55","新北市中和區中正路211巷38-4號","121.497608333333","24.992675","6500300","中和區"
"235025","378-QA","2017/12/29 13:49:35","新北市中和區民治街134巷10號","121.474868333333","25.0020616666667","6500300","中和區"
"235014","4979-A6","2017/12/29 13:49:43","新北市中和區忠孝街62巷9弄1號","121.513076666667","24.9838816666667","6500300","中和區"
"235033","4980-A6","2017/12/29 13:49:46","新北市中和區景平路459巷1弄1號","121.500376666667","24.9963083333333","6500300","中和區"
"235006","551-UM","2017/12/29 13:49:39","新北市中和區秀朗路三段70巷32號","121.525751666667","24.99454","6500300","中和區"
"235034","558-UM","2017/12/29 13:49:41","新北市中和區景平路469號","121.500548333333","24.9967916666667","6500300","中和區"
"235009","565-BX","2017/12/29 13:49:43","新北市中和區南山路208巷10號","121.505961666667","24.9901566666667","6500300","中和區"
"235018","640-BX","2017/12/29 13:49:49","新北市中和區民享街43號","121.47411","25.0029166666667","6500300","中和區"
"235024","647-TV","2017/12/29 13:49:41","新北市中和區中山路三段116號","121.47606","25.0059616666667","6500300","中和區"
"235011","732-UM","2017/12/29 13:49:43","新北市中和區興南路二段34巷24弄2號","121.505688333333","24.9864666666667","6500300","中和區"
"235026","800-TS","2017/12/29 13:49:50","新北市中和區中山路二段332巷1號","121.493938333333","25.0023583333333","6500300","中和區"
"235021","801-TS","2017/12/29 13:49:42","新北市中和區民安街22巷35號","121.47899","25.0018233333333","6500300","中和區"
"235005","802-TS","2017/12/29 13:49:34","新北市永和區中和路603號","121.512348333333","25.0041783333333","6500300","中和區"
"235016","805-TS","2017/12/29 13:49:37","新北市中和區興南路三段35號","121.496941666667","24.9785166666667","6500300","中和區"
"235012","896-TW","2017/12/29 13:49:50","新北市中和區南山路250巷2號","121.507711666667","24.988885","6500300","中和區"
"235017","900-TW","2017/12/29 13:49:49","新北市中和區華福街44號","121.466443333333","24.9965416666667","6500300","中和區"
"235029","911-UM","2017/12/29 13:49:51","新北市中和區中山路二段2巷45弄38號","121.501315","25.0069283333333","6500300","中和區"
"235015","157-BY","2017/12/29 13:49:45","新北市中和區華新街109巷24號","121.508436666667","24.9804233333333","6500300","中和區"
"235001","AAC-213","2017/12/29 13:49:41","新北市中和區秀朗路三段175巷7號","121.52505","24.991525","6500300","中和區"
"235023","AAC-215","2017/12/29 13:49:40","新北市中和區圓通路393巷2號","121.489575","24.9889016666667","6500300","中和區"
"220016","013-TV","2017/12/28 20:50:12","新北市八里區中山路三段383號","121.37236","25.1376333333333","6500100","板橋區"
"220013","072-UY","2017/12/29 13:49:45","新北市板橋區漢生東路282號","121.471196666667","25.00899","6500100","板橋區"
"220034","073-UY","2017/12/29 13:49:45","新北市板橋區大智街58號","121.45439","25.01551","6500100","板橋區"
"220105","075-UY","2017/12/29 13:49:33","新北市板橋區民生路二段161巷9號","121.470206666667","25.01958","6500100","板橋區"
"220017","AAD-861","2017/12/29 13:49:47","新北市板橋區華東街328號","121.452806666667","25.0032383333333","6500100","板橋區"
"220045","120-SR","2017/12/29 13:49:42","新北市板橋區民生路二段161巷9號","121.470246666667","25.01963","6500100","板橋區"
"247007","341-TH","2017/12/29 13:49:37","新北市蘆洲區重陽一街3號","121.481708333333","25.0814883333333","6501400","蘆洲區"
"247003","336-TH","2017/12/29 13:49:49","新北市蘆洲區長榮路68號","121.462428333333","25.0835216666667","6501400","蘆洲區"
"247005","056-VK","2017/12/29 13:49:40","新北市蘆洲區中山二路256號","121.469211666667","25.07904","6501400","蘆洲區"
"247013","007-UY","2017/12/29 13:49:45","新北市蘆洲區三民路121號","121.472498333333","25.08602","6501400","蘆洲區"
"208004","AAC-292","2017/12/29 13:49:44","新北市金山區山城路80巷20號","121.598606666667","25.2010616666667","6502700","金山區"
"207002","749-BX","2017/12/29 13:49:33","新北市萬里區崁腳里崁腳路166號","121.64505","25.155855","6502800","萬里區"
"207001","662-BX","2017/12/29 13:49:47","新北市萬里區磺潭里清水1號","121.63751","25.2022883333333","6502800","萬里區"
"236067","105-UM","2017/12/29 13:49:47","新北市土城區城林路6巷80號","121.438331666667","24.9797333333333","6501300","土城區"
"236041","107-UM","2017/12/29 13:49:41","新北市土城區城林路6巷80號","121.438481666667","24.9798683333333","6501300","土城區"
"236077","166-UM","2017/12/29 13:49:46","新北市土城區中央路三段124號","121.43506","24.9660766666667","6501300","土城區"
"236029","253-BX","2017/12/29 13:49:48","新北市土城區城林路6巷80號","121.43849","24.9797066666667","6501300","土城區"
"236013","270-VK","2017/12/29 13:49:38","新北市土城區城林路6巷80號","121.438553333333","24.9797633333333","6501300","土城區"
"236035","271-VK","2017/12/29 13:49:36","新北市土城區城林路6巷80號","121.438583333333","24.9797466666667","6501300","土城區"
"236019","401-BY","2017/12/29 13:49:41","新北市土城區城林路6巷80號","121.438633333333","24.97978","6501300","土城區"
"236006","498-BY","2017/12/29 13:49:49","新北市土城區員福街50號","121.440518333333","24.97914","6501300","土城區"
"236057","912-UM","2017/12/29 13:49:44","新北市土城區城林路6巷80號","121.438368333333","24.9798183333333","6501300","土城區"
"236046","913-UM","2017/12/29 13:49:46","新北市土城區城林路6巷80號","121.43837","24.97982","6501300","土城區"
"236054","AAC-216","2017/12/29 13:49:43","新北市土城區城林路6巷80號","121.438323333333","24.9797716666667","6501300","土城區"
"221012","276-VK","2017/12/29 13:41:13","新北市汐止區汐萬路一段256巷3號","121.653421666667","25.074595","6501100","汐止區"
"220027","145-BY","2017/12/29 13:49:54","新北市板橋區中正路42號","121.456438333333","25.0139633333333","6500100","板橋區"
"220028","200-UY","2017/12/29 13:49:51","新北市板橋區大觀路二段265巷20弄49號","121.441181666667","24.99791","6500100","板橋區"
"220030","610-BX","2017/12/29 13:49:40","新北市板橋區篤行路三段24號","121.428665","24.9869616666667","6500100","板橋區"
"220050","245-BX","2017/12/29 02:41:32","新北市板橋區民生路二段198號","121.469611666667","25.0207183333333","6500100","板橋區"
"220004","276-BY","2017/12/29 13:49:39","新北市板橋區四川路二段28號","121.454378333333","24.9957783333333","6500100","板橋區"
"220020","277-BY","2017/12/29 13:49:39","新北市板橋區大觀路三段20號","121.4345","24.995735","6500100","板橋區"
"220019","283-VK","2017/12/29 13:49:43","新北市板橋區忠孝路165號","121.463858333333","25.002475","6500100","板橋區"
"220043","285-UM","2017/12/29 13:49:41","新北市板橋區民生路二段161巷1號","121.470098333333","25.01985","6500100","板橋區"
"220001","285-VK","2017/12/29 13:49:41","新北市板橋區介壽街119號","121.47053","25.0186216666667","6500100","板橋區"
"220031","286-VK","2017/12/29 13:49:47","新北市板橋區僑中二街152號","121.444935","25.0044416666667","6500100","板橋區"
"220029","287-VK","2017/12/29 13:49:53","新北市板橋區光華街13巷10號","121.453756666667","25.011495","6500100","板橋區"
"220039","288-VK","2017/12/29 13:49:35","新北市板橋區民生路二段161巷9號","121.47006","25.0193916666667","6500100","板橋區"
"220009","295-UM","2017/12/29 13:49:44","新北市板橋區太和街4巷2號","121.474006666667","25.01975","6500100","板橋區"
"220032","296-UM","2017/12/29 13:49:50","新北市板橋區大觀路二段150巷33號","121.441571666667","24.9998733333333","6500100","板橋區"
"220023","297-UM","2017/12/29 13:49:44","新北市板橋區南雅西路一段174巷11號","121.45325","25.0078783333333","6500100","板橋區"
"220010","303-R5","2017/12/29 13:49:43","新北市板橋區中山路二段40巷16號","121.47334","25.0147966666667","6500100","板橋區"
"220041","307-R5","2017/12/29 04:25:09","新北市板橋區民生路二段161巷7號","121.470203333333","25.0196566666667","6500100","板橋區"
"220080","461-BY","2017/12/29 09:11:34","新北市板橋區華東街1-9號","121.448086666667","24.9948333333333","6500100","板橋區"
"220012","486-VK","2017/12/29 13:49:34","新北市板橋區民生路二段5號","121.472831666667","25.015775","6500100","板橋區"
"220104","560-BX","2017/12/29 13:49:44","新北市板橋區中正路275巷66號","121.452958333333","25.018015","6500100","板橋區"
"220052","561-BX","2017/12/29 13:49:51","新北市板橋區民生路二段161巷5號","121.470251666667","25.019765","6500100","板橋區"
"220011","609-BX","2017/12/29 13:49:52","新北市板橋區民生路二段125號","121.470483333333","25.018485","6500100","板橋區"
"220040","637-BX","2017/12/29 13:49:36","新北市板橋區民生路二段161巷1號","121.469901666667","25.0199616666667","6500100","板橋區"
"220005","686-BX","2017/12/29 13:49:48","新北市板橋區板城路421號","121.448136666667","24.995685","6500100","板橋區"
"220025","687-BX","2017/12/29 13:49:42","新北市板橋區金門街119-3號","121.433048333333","24.991805","6500100","板橋區"
"220002","741-BX","2017/12/29 13:49:45","新北市板橋區館前西路49號","121.457801666667","25.0065983333333","6500100","板橋區"
"220003","827-TW","2017/12/29 13:49:42","新北市板橋區縣民大道一段306號","121.461363333333","25.0106433333333","6500100","板橋區"
"220014","829-TW","2017/12/29 13:49:33","新北市板橋區民生路二段161巷9號","121.470211666667","25.0196033333333","6500100","板橋區"
"220051","830-TW","2017/12/28 21:50:15","新北市板橋區縣民大道三段32號","121.471456666667","25.0192183333333","6500100","板橋區"
"220022","895-R6","2017/12/29 13:49:46","新北市板橋區府中路23號","121.45913","25.0093966666667","6500100","板橋區"
"220021","985-R7","2017/12/29 13:49:49","新北市板橋區南門街14號","121.457315","25.0089083333333","6500100","板橋區"
"220046","AAC-210","2017/12/29 13:49:41","新北市板橋區民生路二段161巷7號","121.470265","25.019695","6500100","板橋區"
"220018","AAC-253","2017/12/29 13:49:40","新北市板橋區華東街300號","121.452791666667","25.002875","6500100","板橋區"
