"lineid","car","time","location","longitude","latitude","cityid","cityname"
"231037","0293-UT","2017/12/29 15:59:43","新北市新店區安民街63號","121.516415","24.9665816666667","6500600","新店區"
"231030","047-UY","2017/12/29 15:59:36","新北市新店區安和路三段35-2號","121.516908333333","24.9803616666667","6500600","新店區"
"231018","107-UY","2017/12/29 15:59:43","新北市新店區中正路663巷7弄15號","121.532926666667","24.9901116666667","6500600","新店區"
"231012","108-UY","2017/12/29 15:59:52","新北市新店區民生路164-1號","121.527976666667","24.98068","6500600","新店區"
"231016","KEA-2219","2017/12/29 15:59:41","新北市新店區中正路284巷2號","121.538206666667","24.97455","6500600","新店區"
"231046","278-BY","2017/12/29 14:38:49","新北市新店區安華路28-1號","121.519751666667","24.9612283333333","6500600","新店區"
"231038","4715-K9","2017/12/29 15:59:32","新北市新店區安康路二段199號","121.509115","24.9590333333333","6500600","新店區"
"231035","515-UM","2017/12/29 15:59:44","新北市新店區安民街303巷18號","121.51687","24.9735116666667","6500600","新店區"
"231034","645-TV","2017/12/29 15:59:45","新北市新店區吉祥街5巷1號","121.49724","24.9478316666667","6500600","新店區"
"231013","719-UM","2017/12/29 15:59:33","新北市新店區安民街5號","121.5152","24.9641966666667","6500600","新店區"
"241011","013-R5","2017/12/29 15:59:45","新北市三重區雙園街1巷8號","121.497121666667","25.0684183333333","6500200","三重區"
"241028","022-UY","2017/12/29 15:59:51","新北市三重區電信街93號","121.495623333333","25.05831","6500200","三重區"
"241008","059-VK","2017/12/29 15:59:37","新北市三重區重新路四段121號","121.484558333333","25.051695","6500200","三重區"
"241015","062-VK","2017/12/29 15:59:39","新北市三重區重新路四段121號","121.485148333333","25.0519783333333","6500200","三重區"
"241017","063-VK","2017/12/29 15:59:52","新北市三重區大仁街48巷10號","121.491186666667","25.0644716666667","6500200","三重區"
"241024","065-VK","2017/12/29 15:59:40","新北市三重區中正北路145巷5弄1號","121.484301666667","25.067615","6500200","三重區"
"241002","090-VK","2017/12/29 15:59:42","新北市三重區仁義街91號","121.499698333333","25.0797333333333","6500200","三重區"
"241003","091-VK","2017/12/29 15:59:46","新北市三重區自強路五段114號","121.496881666667","25.0837233333333","6500200","三重區"
"241005","262-UM","2017/12/29 15:59:42","新北市三重區三和路四段101巷26號","121.48916","25.0771716666667","6500200","三重區"
"241016","266-UM","2017/12/29 15:59:47","新北市三重區重陽路一段41號","121.486783333333","25.057805","6500200","三重區"
"241022","267-UM","2017/12/29 15:59:40","新北市三重區中正北路176巷27號","121.482663333333","25.0659566666667","6500200","三重區"
"241018","268-UM","2017/12/29 15:59:49","新北市三重區中正北路35號","121.491588333333","25.06255","6500200","三重區"
"241013","270-UM","2017/12/29 15:59:42","新北市三重區三和路三段16巷1號","121.496728333333","25.0701233333333","6500200","三重區"
"241025","271-UM","2017/12/29 15:59:48","新北市三重區三民街166號","121.48232","25.0654966666667","6500200","三重區"
"241007","398-BY","2017/12/29 15:59:41","新北市三重區忠孝路二段90號","121.483651666667","25.0694416666667","6500200","三重區"
"241020","413-TH","2017/12/29 15:59:44","新北市三重區力行路一段221號","121.482823333333","25.070575","6500200","三重區"
"241014","543-UM","2017/12/29 15:59:50","新北市三重區重新路四段121號","121.484908333333","25.0519983333333","6500200","三重區"
"241023","545-UM","2017/12/29 15:59:44","新北市三重區中正北路184號","121.483121666667","25.06698","6500200","三重區"
"241001","547-UM","2017/12/29 15:59:40","新北市三重區溪尾街244號","121.487631666667","25.0819866666667","6500200","三重區"
"241006","AAD-863","2017/12/29 15:59:35","新北市三重區新北大道一段250號","121.479841666667","25.061405","6500200","三重區"
"241012","941-UM","2017/12/29 15:59:31","新北市三重區文化北路118巷38號","121.497663333333","25.0662383333333","6500200","三重區"
"241029","942-UM","2017/12/29 15:59:45","新北市三重區大同南路212巷40號","121.497826666667","25.05672","6500200","三重區"
"241033","AAC-255","2017/12/29 15:59:54","新北市三重區重新路五段450號","121.474596666667","25.047335","6500200","三重區"
"235046","031-BX","2017/12/29 15:48:39","新北市中和區員山路36巷16-2號","121.485255","24.9916066666667","6500300","中和區"
"235026","800-TS","2017/12/29 15:59:50","新北市中和區永和路191巷12號","121.49122","25.0067883333333","6500300","中和區"
"235065","911-UM","2017/12/29 15:59:51","新北市中和區員山路36巷16-3號","121.485225","24.99109","6500300","中和區"
"224007","272-VK","2017/12/29 15:59:38","新北市瑞芳區楓子瀨路70號","121.767263333333","25.0991166666667","6501200","瑞芳區"
"227011","400-TW","2017/12/29 15:59:30","新北市雙溪區三港里雙澳路33-3號","121.870236666667","25.0491133333333","6502500","雙溪區"
"227003","030-BX","2017/12/29 15:59:41","新北市雙溪區平林里外平林71號","121.8424","25.03499","6502500","雙溪區"
"251013","180-VK","2017/12/29 15:59:39","新北市淡水區中正路二段31號","121.419261666667","25.18174","6501000","淡水區"
"251008","181-VK","2017/12/29 15:59:47","新北市淡水區中正路二段12號","121.420378333333","25.180735","6501000","淡水區"
"236067","105-UM","2017/12/29 15:59:47","新北市土城區福安街112號","121.41711","24.9639033333333","6501300","土城區"
"236029","253-BX","2017/12/29 15:59:48","新北市樹林區環河路600號","121.404663333333","24.96919","6501300","土城區"
"236057","912-UM","2017/12/29 15:59:44","新北市土城區中央路二段229號","121.440343333333","24.9725333333333","6501300","土城區"
"236054","AAC-216","2017/12/29 15:59:42","新北市土城區城林路6巷72-2號","121.437405","24.9781883333333","6501300","土城區"
"221012","276-VK","2017/12/29 13:41:13","新北市汐止區汐萬路一段256巷3號","121.653421666667","25.074595","6501100","汐止區"
"220010","303-R5","2017/12/29 15:12:25","新北市板橋區民生路二段120號","121.470461666667","25.0198183333333","6500100","板橋區"
"220080","461-BY","2017/12/29 09:11:34","新北市板橋區華東街1-9號","121.448086666667","24.9948333333333","6500100","板橋區"
