"lineid","car","time","location","longitude","latitude","cityid","cityname"
"249005","172-UM","2017/12/29 16:39:42","新北市八里區大堀湖1-5號","121.422855","25.15494","6502300","八里區"
"231046","278-BY","2017/12/29 16:39:47","新北市新店區灣潭路76-1號","121.538165","24.94148","6500600","新店區"
"241011","013-R5","2017/12/29 16:39:45","新北市三重區仁愛街39號","121.496555","25.07161","6500200","三重區"
"241028","022-UY","2017/12/29 16:39:51","新北市三重區重新路三段68號","121.493493333333","25.0611566666667","6500200","三重區"
"241008","059-VK","2017/12/29 16:39:56","新北市三重區永安北路一段27巷37號","121.477626666667","25.0755483333333","6500200","三重區"
"241009","060-VK","2017/12/29 16:39:46","新北市三重區三和路四段203巷1號","121.482293333333","25.079445","6500200","三重區"
"241031","061-VK","2017/12/29 16:39:42","新北市三重區重新路四段59號","121.487361666667","25.0576783333333","6500200","三重區"
"241015","062-VK","2017/12/29 16:39:39","新北市三重區文化北路41-1號","121.498886666667","25.065235","6500200","三重區"
"241017","063-VK","2017/12/29 16:39:52","新北市三重區中正北路25巷17號","121.492996666667","25.0624116666667","6500200","三重區"
"241024","065-VK","2017/12/29 16:39:40","新北市三重區中正北路315巷6弄68號","121.476616666667","25.0724416666667","6500200","三重區"
"241002","090-VK","2017/12/29 16:39:41","新北市三重區仁義街239號","121.496411666667","25.0826933333333","6500200","三重區"
"241003","091-VK","2017/12/29 16:39:46","新北市三重區五華街71巷33號","121.493253333333","25.0832283333333","6500200","三重區"
"241026","156-TC","2017/12/29 16:39:52","新北市三重區和平街40號","121.50206","25.0627366666667","6500200","三重區"
"241005","262-UM","2017/12/29 16:39:22","新北市三重區溪尾街262-1號","121.487408333333","25.0832083333333","6500200","三重區"
"241016","266-UM","2017/12/29 16:39:47","新北市三重區大智街1-1號","121.494736666667","25.0648633333333","6500200","三重區"
"241022","267-UM","2017/12/29 16:39:40","新北市三重區三民街90號","121.48547","25.0630083333333","6500200","三重區"
"241018","268-UM","2017/12/29 16:39:48","新北市三重區正義北路338巷50號","121.493061666667","25.07026","6500200","三重區"
"241032","269-UM","2017/12/29 16:39:50","新北市三重區過圳街75-1號","121.485293333333","25.061285","6500200","三重區"
"241013","270-UM","2017/12/29 16:39:42","新北市三重區仁愛街73號","121.496135","25.072935","6500200","三重區"
"241025","271-UM","2017/12/29 16:39:46","新北市三重區中正北路428巷7弄10號","121.474345","25.0699616666667","6500200","三重區"
"241007","398-BY","2017/12/29 16:39:41","新北市三重區三和路四段163巷48號","121.48604","25.0795283333333","6500200","三重區"
"241020","413-TH","2017/12/29 16:39:44","新北市三重區忠孝路二段34號","121.4858","25.0710433333333","6500200","三重區"
"241004","475-VK","2017/12/29 16:39:47","新北市三重區五福街4號","121.493121666667","25.0816783333333","6500200","三重區"
"241019","478-VK","2017/12/29 16:39:42","新北市三重區重陽路三段128號","121.489028333333","25.066695","6500200","三重區"
"241030","480-VK","2017/12/29 16:39:39","新北市三重區環河南路286號","121.489013333333","25.048875","6500200","三重區"
"241014","543-UM","2017/12/29 16:39:50","新北市三重區龍濱路34號","121.502793333333","25.0682083333333","6500200","三重區"
"241023","545-UM","2017/12/29 16:39:42","新北市三重區忠孝路三段50巷98號","121.48339","25.06425","6500200","三重區"
"241001","547-UM","2017/12/29 16:39:41","新北市三重區仁愛街266號","121.49298","25.0783283333333","6500200","三重區"
"241006","AAD-863","2017/12/29 16:39:49","新北市三重區車路頭街136巷1號","121.483411666667","25.0755233333333","6500200","三重區"
"241012","941-UM","2017/12/29 16:39:51","新北市三重區仁興街4巷35號","121.499156666667","25.0736316666667","6500200","三重區"
"241029","942-UM","2017/12/29 16:39:45","新北市三重區集美街112巷13號","121.489446666667","25.054165","6500200","三重區"
"241033","AAC-255","2017/12/29 16:39:54","新北市三重區光復路二段131號","121.472131666667","25.058895","6500200","三重區"
"235046","031-BX","2017/12/29 15:48:39","新北市中和區員山路36巷16-2號","121.485255","24.9916066666667","6500300","中和區"
"235065","911-UM","2017/12/29 16:39:51","新北市中和區員山路36巷16-3號","121.485086666667","24.9910733333333","6500300","中和區"
"247008","341-TH","2017/12/29 16:39:44","新北市五股區中興路一段176巷7號","121.463605","25.0753283333333","6501400","蘆洲區"
"247004","336-TH","2017/12/29 16:39:42","新北市五股區成泰路三段358號","121.450988333333","25.0976033333333","6501400","蘆洲區"
"247006","056-VK","2017/12/29 16:39:46","新北市五股區中興路三段5號","121.448683333333","25.0798866666667","6501400","蘆洲區"
"224006","676-BX","2017/12/29 16:39:47","新北市瑞芳區大寮路356-1號","121.784608333333","25.103355","6501200","瑞芳區"
"224008","275-VK","2017/12/29 16:39:54","新北市瑞芳區逢甲路20-1號","121.809378333333","25.1084916666667","6501200","瑞芳區"
"224007","272-VK","2017/12/29 16:39:38","新北市瑞芳區月眉路7號","121.760198333333","25.1057216666667","6501200","瑞芳區"
"224005","271-BY","2017/12/29 16:39:54","新北市瑞芳區洞頂路132-1號","121.8624","25.1233883333333","6501200","瑞芳區"
"227011","400-TW","2017/12/29 16:39:50","新北市雙溪區牡丹里中正路58巷22號","121.866205","25.0417","6502500","雙溪區"
"227003","030-BX","2017/12/29 16:39:41","新北市雙溪區外柑里外柑腳51號","121.808226666667","25.0179016666667","6502500","雙溪區"
"251013","180-VK","2017/12/29 16:39:39","新北市淡水區楓樹湖1-1號","121.495051666667","25.1897383333333","6501000","淡水區"
"251008","181-VK","2017/12/29 16:39:50","台北市北投區中央北路四段30巷160號","121.474158333333","25.140445","6501000","淡水區"
"251015","182-VK","2017/12/29 16:39:54","新北市淡水區忠愛街5-2號","121.46066","25.171585","6501000","淡水區"
"251012","441-VK","2017/12/29 16:39:54","新北市淡水區中正路二段31號","121.41927","25.1818183333333","6501000","淡水區"
"252002","178-VK","2017/12/29 16:39:43","新北市三芝區茂長里陳厝坑11號","121.51499","25.2553783333333","6502100","三芝區"
"239007","AAC-297","2017/12/29 04:40:41","新北市鶯歌區二甲路13-16號","121.344973333333","24.9351616666667","6500800","鶯歌區"
"239003","360-BY","2017/12/29 16:39:56","新北市鶯歌區二甲路12-2號","121.34554","24.9350883333333","6500800","鶯歌區"
"221012","276-VK","2017/12/29 13:41:13","新北市汐止區汐萬路一段256巷3號","121.653421666667","25.074595","6501100","汐止區"
"220010","303-R5","2017/12/29 15:12:25","新北市板橋區民生路二段120號","121.470461666667","25.0198183333333","6500100","板橋區"
"220080","461-BY","2017/12/29 09:11:34","新北市板橋區華東街1-9號","121.448086666667","24.9948333333333","6500100","板橋區"
