"lineid","car","time","location","longitude","latitude","cityid","cityname"
"249005","172-UM","2017/12/29 16:57:20","新北市八里區渡船頭3-19號","121.433938333333","25.1517683333333","6502300","八里區"
"249001","173-UM","2017/12/29 16:57:40","新北市八里區商港路48號","121.395761666667","25.1454433333333","6502300","八里區"
"249004","303-UY","2017/12/29 16:57:41","新北市八里區挖子尾街40號","121.415701666667","25.1659766666667","6502300","八里區"
"249002","305-UY","2017/12/29 16:57:23","新北市八里區牛寮埔22號","121.43252","25.14253","6502300","八里區"
"249003","593-UM","2017/12/29 16:57:24","新北市八里區中山路二段277號","121.401878333333","25.1487416666667","6502300","八里區"
"244007","080-UY","2017/12/29 16:57:39","新北市林口區台電新村33號","121.38634","25.0865316666667","6501700","林口區"
"244009","837-TS","2017/12/29 16:57:34","新北市林口區粉寮69號","121.405011666667","25.090875","6501700","林口區"
"231046","278-BY","2017/12/29 16:57:26","新北市新店區永業路121號","121.529316666667","24.945545","6500600","新店區"
"241011","013-R5","2017/12/29 16:57:25","新北市三重區仁愛街55巷31號","121.49894","25.0727583333333","6500200","三重區"
"241028","022-UY","2017/12/29 16:57:31","新北市三重區中正南路41巷1號","121.493836666667","25.059955","6500200","三重區"
"241008","059-VK","2017/12/29 16:57:37","新北市三重區永福街179巷42號","121.477395","25.074685","6500200","三重區"
"241009","060-VK","2017/12/29 16:57:26","新北市三重區溪尾街218巷20號","121.487136666667","25.0811033333333","6500200","三重區"
"241031","061-VK","2017/12/29 16:57:22","新北市三重區三寧街10號","121.489016666667","25.0595633333333","6500200","三重區"
"241015","062-VK","2017/12/29 16:57:39","新北市三重區福德北路82號","121.501601666667","25.0662983333333","6500200","三重區"
"241017","063-VK","2017/12/29 16:57:32","新北市三重區國隆路12巷16號","121.492571666667","25.0636633333333","6500200","三重區"
"241024","065-VK","2017/12/29 16:57:40","新北市三重區大勇街49號","121.481291666667","25.071965","6500200","三重區"
"241002","090-VK","2017/12/29 16:57:41","新北市三重區仁義街101巷16號","121.498505","25.0802183333333","6500200","三重區"
"241003","091-VK","2017/12/29 16:57:26","新北市三重區五華街141巷58號","121.493565","25.0867983333333","6500200","三重區"
"241026","156-TC","2017/12/29 16:57:32","新北市三重區文化南路42號","121.500451666667","25.060225","6500200","三重區"
"241005","262-UM","2017/12/29 16:57:22","新北市三重區仁華街118巷26弄23號","121.485153333333","25.0832316666667","6500200","三重區"
"241016","266-UM","2017/12/29 16:57:43","新北市三重區大同北路97-3號","121.49436","25.06376","6500200","三重區"
"241022","267-UM","2017/12/29 16:57:40","新北市三重區貴陽街42號","121.484198333333","25.0626516666667","6500200","三重區"
"241018","268-UM","2017/12/29 16:57:28","新北市三重區六張街126巷2弄6號","121.49223","25.0693933333333","6500200","三重區"
"241032","269-UM","2017/12/29 16:57:30","新北市三重區三民街16號","121.485593333333","25.06077","6500200","三重區"
"241013","270-UM","2017/12/29 16:57:22","新北市三重區仁和街40號","121.496783333333","25.0737066666667","6500200","三重區"
"241025","271-UM","2017/12/29 16:57:26","新北市三重區中正北路363號","121.472378333333","25.0718366666667","6500200","三重區"
"241007","398-BY","2017/12/29 16:57:41","新北市三重區溪尾街126巷19號","121.488813333333","25.0793616666667","6500200","三重區"
"241020","413-TH","2017/12/29 16:57:24","新北市三重區國道路一段3號","121.486328333333","25.0735016666667","6500200","三重區"
"241004","475-VK","2017/12/29 16:57:27","新北市三重區仁愛街397巷33號","121.492645","25.0818133333333","6500200","三重區"
"241019","478-VK","2017/12/29 16:57:42","新北市三重區自強路二段84巷6號","121.487623333333","25.0702416666667","6500200","三重區"
"241030","480-VK","2017/12/29 16:57:40","新北市三重區昌隆街49號","121.49126","25.05144","6500200","三重區"
"241014","543-UM","2017/12/29 16:57:31","新北市三重區三和路二段173巷91號","121.500226666667","25.0704833333333","6500200","三重區"
"241023","545-UM","2017/12/29 16:57:42","新北市三重區忠孝路三段126號","121.479873333333","25.0627466666667","6500200","三重區"
"241001","547-UM","2017/12/29 16:57:21","新北市三重區仁政街9號","121.493368333333","25.0763633333333","6500200","三重區"
"241006","AAD-863","2017/12/29 16:57:35","新北市三重區車路頭街117巷21號","121.484961666667","25.0754833333333","6500200","三重區"
"241012","941-UM","2017/12/29 16:57:31","新北市三重區仁和街157號","121.499505","25.0745783333333","6500200","三重區"
"241029","942-UM","2017/12/29 16:57:25","新北市三重區中正南路252巷5號","121.493533333333","25.0526583333333","6500200","三重區"
"241033","AAC-255","2017/12/29 16:57:34","新北市三重區中興北街271號","121.46905","25.0606583333333","6500200","三重區"
"235046","031-BX","2017/12/29 15:48:39","新北市中和區員山路36巷16-2號","121.485255","24.9916066666667","6500300","中和區"
"235062","800-TS","2017/12/29 16:45:01","新北市中和區員山路36巷16-3號","121.485005","24.9915266666667","6500300","中和區"
"235065","911-UM","2017/12/29 16:57:31","新北市中和區員山路36巷16-3號","121.48514","24.991135","6500300","中和區"
"247020","500-BY","2017/12/29 16:57:21","新北市蘆洲區民族路422巷50號","121.473666666667","25.093095","6501400","蘆洲區"
"247008","341-TH","2017/12/29 16:57:33","新北市蘆洲區信義路59巷2號","121.475508333333","25.079955","6501400","蘆洲區"
"247010","339-TH","2017/12/29 16:57:25","新北市蘆洲區信義路170號","121.479336666667","25.0838966666667","6501400","蘆洲區"
"247004","336-TH","2017/12/29 16:57:42","新北市蘆洲區永安南路二段260號","121.45951","25.0803683333333","6501400","蘆洲區"
"247016","057-VK","2017/12/29 16:57:24","新北市蘆洲區正和街10號","121.470296666667","25.082895","6501400","蘆洲區"
"247006","056-VK","2017/12/29 16:57:26","新北市蘆洲區長安街99巷23號","121.460943333333","25.0799466666667","6501400","蘆洲區"
"247014","007-UY","2017/12/29 16:57:41","新北市蘆洲區得勝街67-1號","121.47399","25.0838333333333","6501400","蘆洲區"
"247024","002-UY","2017/12/29 16:57:38","新北市蘆洲區長興路202號","121.460765","25.087485","6501400","蘆洲區"
"247018","001-UY","2017/12/29 16:57:35","新北市蘆洲區民族路306號","121.477533333333","25.0900483333333","6501400","蘆洲區"
"228002","663-BX","2017/12/29 16:57:28","新北市貢寮區貢寮里長泰路24-2號","121.903855","25.0238366666667","6502600","貢寮區"
"228001","670-TC","2017/12/29 16:57:30","新北市貢寮區貢寮里朝陽街1-2號","121.912308333333","25.0212616666667","6502600","貢寮區"
"228003","828-UM","2017/12/29 16:57:32","新北市貢寮區福隆里興隆街36號","121.942528333333","25.0165466666667","6502600","貢寮區"
"224010","AGQ-8101","2017/12/29 08:50:39","新北市瑞芳區民權街3-1號","121.809443333333","25.1082","6501200","瑞芳區"
"224006","676-BX","2017/12/29 16:57:27","新北市瑞芳區大寮路356-1號","121.78452","25.103345","6501200","瑞芳區"
"224009","285-BY","2017/12/29 16:57:38","新北市瑞芳區濱二路31號","121.83302","25.111605","6501200","瑞芳區"
"224008","275-VK","2017/12/29 16:57:34","新北市瑞芳區九芎橋路43號","121.832551666667","25.0943816666667","6501200","瑞芳區"
"224007","272-VK","2017/12/29 16:57:38","新北市瑞芳區瑞竹路44號","121.763628333333","25.1033566666667","6501200","瑞芳區"
"224005","271-BY","2017/12/29 16:57:28","新北市瑞芳區明里路4號","121.868853333333","25.1210316666667","6501200","瑞芳區"
"227011","400-TW","2017/12/29 16:57:30","新北市雙溪區牡丹里聖南34號","121.853518333333","25.0558483333333","6502500","雙溪區"
"227003","030-BX","2017/12/29 16:57:21","新北市雙溪區長源里內柑腳20號","121.800826666667","25.0142266666667","6502500","雙溪區"
"251013","180-VK","2017/12/29 16:57:39","新北市淡水區泉洲厝32號","121.489263333333","25.1925316666667","6501000","淡水區"
"251008","181-VK","2017/12/29 16:57:30","新北市淡水區樹梅坑9號","121.472723333333","25.1426833333333","6501000","淡水區"
"251015","182-VK","2017/12/29 16:57:34","新北市淡水區忠愛街11-1號","121.4564","25.174075","6501000","淡水區"
"251010","413-VK","2017/12/29 16:57:23","新北市淡水區沙崙路198號","121.424468333333","25.1837933333333","6501000","淡水區"
"251012","441-VK","2017/12/29 16:57:34","新北市淡水區中正路二段31號","121.419438333333","25.1816766666667","6501000","淡水區"
"251005","443-VK","2017/12/29 16:57:25","新北市淡水區文化路65號","121.438028333333","25.1728716666667","6501000","淡水區"
"251009","575-R6","2017/12/29 16:57:32","新北市淡水區中正路一段87巷1號","121.421755","25.1793133333333","6501000","淡水區"
"251007","577-R6","2017/12/29 16:57:28","新北市淡水區重建街87號","121.439843333333","25.1724716666667","6501000","淡水區"
"251011","650-BX","2017/12/29 16:57:34","新北市淡水區清水街246號","121.440563333333","25.172215","6501000","淡水區"
"252002","178-VK","2017/12/29 16:57:43","新北市三芝區忠孝街173號","121.505418333333","25.2613716666667","6502100","三芝區"
"252001","292-VK","2017/12/29 16:57:42","新北市三芝區淡金路二段89號","121.504036666667","25.260735","6502100","三芝區"
"242050","751-BX","2017/12/29 16:57:29","新北市新莊區新泰路357巷3弄57號","121.442146666667","25.0391483333333","6500500","新莊區"
"242023","613-BX","2017/12/29 16:57:22","新北市新莊區新泰路357巷3弄57號","121.442225","25.03923","6500500","新莊區"
"242039","566-BX","2017/12/29 16:57:40","新北市新莊區新泰路255巷83號","121.442118333333","25.0390383333333","6500500","新莊區"
"242032","442-UM","2017/12/28 21:52:05","新北市新莊區三和路12-21號","121.442011666667","25.03883","6500500","新莊區"
"242034","415-TV","2017/12/29 16:57:28","新北市新莊區新泰路357巷3弄57號","121.442155","25.0392766666667","6500500","新莊區"
"242041","400-BY","2017/12/29 16:57:40","新北市新莊區新泰路357巷3弄57號","121.442123333333","25.039555","6500500","新莊區"
"242021","135-UY","2017/12/29 15:05:36","新北市新莊區三和路12-21號","121.442035","25.0387583333333","6500500","新莊區"
"242013","346-TH","2017/12/29 04:14:06","新北市新莊區三和路12-16號","121.44193","25.03738","6500500","新莊區"
"242019","348-TH","2017/12/29 16:57:27","新北市新莊區新泰路357巷3弄57號","121.442028333333","25.0396133333333","6500500","新莊區"
"242011","351-TH","2017/12/29 16:57:39","新北市新莊區新泰路357巷3弄57號","121.441975","25.0395266666667","6500500","新莊區"
"238021","KEA-2217","2017/12/29 16:57:29","新北市樹林區育德街78-1號","121.38794","24.9681066666667","6500700","樹林區"
"238025","303-VK","2017/12/29 16:57:43","新北市樹林區育德街78號","121.387508333333","24.9685733333333","6500700","樹林區"
"238017","283-BY","2017/12/29 16:57:36","新北市樹林區育德街78號","121.38756","24.9684183333333","6500700","樹林區"
"239007","AAC-297","2017/12/29 04:40:41","新北市鶯歌區二甲路13-16號","121.344973333333","24.9351616666667","6500800","鶯歌區"
"239006","891-R6","2017/12/29 16:57:39","新北市鶯歌區二甲路13-16號","121.344885","24.9349816666667","6500800","鶯歌區"
"239008","527-UM","2017/12/29 02:17:52","新北市鶯歌區二甲路13-16號","121.345011666667","24.9350966666667","6500800","鶯歌區"
"239005","526-UM","2017/12/29 03:12:46","新北市鶯歌區二甲路13號","121.344816666667","24.934605","6500800","鶯歌區"
"239001","417-VK","2017/12/29 11:42:11","新北市鶯歌區二甲路13號","121.34404","24.9352366666667","6500800","鶯歌區"
"239003","360-BY","2017/12/29 16:57:36","新北市鶯歌區二甲路13-16號","121.345318333333","24.9350516666667","6500800","鶯歌區"
"239002","359-BY","2017/12/29 11:17:39","新北市鶯歌區二甲路13-16號","121.345026666667","24.93494","6500800","鶯歌區"
"221012","276-VK","2017/12/29 13:41:13","新北市汐止區汐萬路一段256巷3號","121.653421666667","25.074595","6501100","汐止區"
"220010","303-R5","2017/12/29 15:12:25","新北市板橋區民生路二段120號","121.470461666667","25.0198183333333","6500100","板橋區"
"220080","461-BY","2017/12/29 09:11:34","新北市板橋區華東街1-9號","121.448086666667","24.9948333333333","6500100","板橋區"
"242056","280-VK","2017/12/29 16:57:28","新北市新莊區三和路12-21號","121.441983333333","25.0381783333333","6500500","新莊區"
