"lineid","car","time","location","longitude","latitude","cityid","cityname"
"234007","207-UY","2017/12/29 18:07:42","新北市永和區福和路1號","121.526501666667","25.010055","6500400","永和區"
"234026","9371-KE","2017/12/29 18:07:43","新北市永和區水源街3號","121.512551666667","25.00488","6500400","永和區"
"249005","172-UM","2017/12/29 18:07:42","新北市八里區荖阡坑路17-6號","121.401891666667","25.137985","6502300","八里區"
"249001","173-UM","2017/12/29 18:07:40","新北市八里區龍米路二段36號","121.448501666667","25.1400716666667","6502300","八里區"
"249004","303-UY","2017/12/29 18:07:41","新北市八里區龍米路二段200巷3號","121.433756666667","25.1587633333333","6502300","八里區"
"249002","305-UY","2017/12/29 18:07:43","新北市八里區龍米路一段356巷46號","121.45219","25.1301833333333","6502300","八里區"
"249003","593-UM","2017/12/29 18:07:24","新北市八里區中華路二段165巷19弄10號","121.409446666667","25.1511583333333","6502300","八里區"
"248006","077-UY","2017/12/29 18:07:30","新北市五股區中興路二段95號","121.460363333333","25.0774766666667","6501500","五股區"
"248008","095-VK","2017/12/29 18:07:33","新北市五股區中興路二段182巷16號","121.456555","25.0808483333333","6501500","五股區"
"248018","225-UY","2017/12/29 18:07:26","新北市五股區中興路三段160號","121.445761666667","25.08084","6501500","五股區"
"248014","261-SL","2017/12/29 18:07:35","新北市五股區工商路34號","121.439386666667","25.0836083333333","6501500","五股區"
"248004","677-BX","2017/12/29 18:07:32","新北市五股區中興路三段196號","121.442058333333","25.08191","6501500","五股區"
"248002","678-BX","2017/12/29 18:07:31","新北市五股區中興路三段192-10號","121.442981666667","25.0816233333333","6501500","五股區"
"232011","375-UM","2017/12/29 18:07:21","新北市坪林區水柳腳34-1號","121.710268333333","24.9356483333333","6502000","坪林區"
"244013","069-UM","2017/12/29 18:07:37","新北市林口區中山路3號","121.396648333333","25.0781033333333","6501700","林口區"
"244007","080-UY","2017/12/29 18:07:39","新北市林口區林口路124巷10弄7號","121.389176666667","25.0816066666667","6501700","林口區"
"244019","403-UM","2017/12/29 18:07:33","新北市林口區文化一路一段126號","121.375376666667","25.0724916666667","6501700","林口區"
"244025","742-UY","2017/12/29 18:07:30","新北市林口區文化北路一段299巷16號","121.359793333333","25.0732383333333","6501700","林口區"
"244023","483-VK","2017/12/29 18:07:26","新北市林口區隆林街125號","121.384426666667","25.0745516666667","6501700","林口區"
"244017","485-VK","2017/12/29 18:07:38","新北市林口區忠孝路508號","121.370921666667","25.0699283333333","6501700","林口區"
"244011","656-BX","2017/12/29 18:07:37","新北市林口區中正路103號","121.393951666667","25.0772283333333","6501700","林口區"
"244009","837-TS","2017/12/29 18:07:34","新北市林口區佳林路56巷13號","121.385428333333","25.08135","6501700","林口區"
"244021","838-TS","2017/12/29 18:07:34","新北市林口區中正路11號","121.39741","25.0773683333333","6501700","林口區"
"243013","646-TV","2017/12/29 18:07:34","新北市泰山區南林路99巷21號","121.4176","25.0495516666667","6501600","泰山區"
"222003","436-BY","2017/12/29 18:07:25","新北市深坑區阿柔洋51-1號","121.610261666667","24.9971383333333","6501800","深坑區"
"222002","659-BX","2017/12/29 18:07:40","新北市深坑區文化街52號","121.619003333333","25.00164","6501800","深坑區"
"222001","696-SL","2017/12/29 18:07:30","新北市深坑區北深路二段155-11號","121.6139","25.002065","6501800","深坑區"
"231055","0291-UT","2017/12/29 18:07:37","新北市新店區安華路28-1號","121.519718333333","24.9613183333333","6500600","新店區"
"231059","046-UY","2017/12/29 18:07:36","新北市新店區安華路28-1號","121.519616666667","24.9610266666667","6500600","新店區"
"231046","278-BY","2017/12/29 18:07:26","新北市新店區直潭七街60號","121.532258333333","24.9398816666667","6500600","新店區"
"231063","645-TV","2017/12/29 18:07:30","新北市新店區安華路1-1號","121.519326666667","24.9604816666667","6500600","新店區"
"231062","720-UM","2017/12/29 18:07:33","新北市新店區安康路一段359-27號","121.518848333333","24.9613","6500600","新店區"
"231043","899-TW","2017/12/29 18:07:39","新北市新店區安華路28-1號","121.519378333333","24.9607116666667","6500600","新店區"
"241024","065-VK","2017/12/29 18:07:40","新北市三重區中正北路193巷35弄21號","121.476995","25.07094","6500200","三重區"
"241030","480-VK","2017/12/29 18:07:39","新北市三重區中正南路252巷5號","121.493603333333","25.052465","6500200","三重區"
"241006","AAD-863","2017/12/29 18:07:37","新北市三重區車路頭街135-1號","121.484238333333","25.0761816666667","6500200","三重區"
"241033","AAC-255","2017/12/29 18:07:34","新北市三重區中興北街42巷9號","121.469648333333","25.0493183333333","6500200","三重區"
"235066","003-UY","2017/12/29 18:07:38","新北市中和區中正路221號","121.496216666667","24.99362","6500300","中和區"
"235064","005-UY","2017/12/29 18:07:40","新北市中和區中正路637巷60弄61號","121.485456666667","24.9930033333333","6500300","中和區"
"235063","006-UY","2017/12/29 18:07:36","新北市中和區員山路36巷16-3號","121.484891666667","24.9912366666667","6500300","中和區"
"235046","031-BX","2017/12/29 18:07:23","新北市中和區員山路36巷16-2號","121.485163333333","24.9916666666667","6500300","中和區"
"235040","150-BY","2017/12/29 18:07:24","新北市中和區中正路637巷60弄61號","121.48537","24.9931","6500300","中和區"
"235058","151-BY","2017/12/29 18:07:40","新北市中和區圓通路367巷33弄31號","121.495751666667","24.9856333333333","6500300","中和區"
"235038","185-VK","2017/12/29 18:07:11","新北市中和區景德街88號","121.516266666667","24.99181","6500300","中和區"
"235067","255-BX","2017/12/29 18:07:43","新北市中和區員山路36巷16-2號","121.485336666667","24.9918266666667","6500300","中和區"
"235043","352-BY","2017/12/29 18:07:23","新北市中和區中正路637巷60弄61號","121.485371666667","24.9930733333333","6500300","中和區"
"235061","378-QA","2017/12/29 14:47:36","新北市中和區員山路36巷12號","121.483896666667","24.9908633333333","6500300","中和區"
"235050","4979-A6","2017/12/29 18:07:27","新北市中和區中正路637巷52弄1號","121.485508333333","24.9933433333333","6500300","中和區"
"235069","4980-A6","2017/12/29 15:45:49","新北市中和區和城路一段271巷1號","121.485405","24.9917766666667","6500300","中和區"
"235042","551-UM","2017/12/29 18:07:42","新北市中和區中正路155號","121.49895","24.9934916666667","6500300","中和區"
"235070","558-UM","2017/12/29 18:07:26","新北市中和區中正路507號","121.488585","24.9934966666667","6500300","中和區"
"235045","565-BX","2017/12/29 18:07:42","新北市中和區中正路637巷60弄61號","121.485488333333","24.9927883333333","6500300","中和區"
"235054","640-BX","2017/12/29 18:07:31","新北市中和區員山路77巷1弄11號","121.480408333333","24.99356","6500300","中和區"
"235060","647-TV","2017/12/29 18:07:27","新北市中和區員山路36巷16-3號","121.48514","24.9912916666667","6500300","中和區"
"235047","732-UM","2017/12/29 18:05:57","新北市中和區員山路36巷16-3號","121.485095","24.9915416666667","6500300","中和區"
"235062","800-TS","2017/12/29 18:07:28","新北市中和區橋和路126號","121.492943333333","25.0060233333333","6500300","中和區"
"235052","805-TS","2017/12/29 18:07:36","新北市中和區中正路426號","121.491481666667","24.9936366666667","6500300","中和區"
"235053","900-TW","2017/12/29 18:07:37","新北市中和區員山路36巷16-3號","121.485168333333","24.9913966666667","6500300","中和區"
"235065","911-UM","2017/12/29 18:07:31","新北市中和區橋和路126號","121.493081666667","25.0059783333333","6500300","中和區"
"235051","157-BY","2017/12/29 18:07:41","新北市中和區中正路305號","121.492505","24.99377","6500300","中和區"
"235037","AAC-213","2017/12/29 18:07:38","新北市中和區景平路265號","121.508198333333","24.9929683333333","6500300","中和區"
"247012","546-UM","2017/12/29 18:07:39","新北市蘆洲區民族路73號","121.479196666667","25.0858766666667","6501400","蘆洲區"
"247002","337-TH","2017/12/29 18:07:45","新北市蘆洲區三民路619號","121.45916","25.094425","6501400","蘆洲區"
"247014","007-UY","2017/12/29 18:07:41","新北市五股區孝義路9-17號","121.44886","25.107045","6501400","蘆洲區"
"226004","205-ST","2017/12/29 18:07:25","新北市平溪區菁桐里菁桐街165號","121.72307","25.0235116666667","6502400","平溪區"
"228002","663-BX","2017/12/29 18:07:28","新北市貢寮區福連里福連街18號","121.988031666667","25.0131016666667","6502600","貢寮區"
"228001","670-TC","2017/12/29 18:07:30","新北市貢寮區真理里新港街26巷55弄2-1號","121.92738","25.05287","6502600","貢寮區"
"228003","828-UM","2017/12/29 18:07:32","新北市貢寮區真理里美艷山街6-2號","121.928763333333","25.0607783333333","6502600","貢寮區"
"224006","676-BX","2017/12/29 18:07:43","新北市瑞芳區中山路264號","121.799555","25.1074616666667","6501200","瑞芳區"
"224002","639-TC","2017/12/29 18:07:45","新北市瑞芳區三爪子坑路64-8號","121.809653333333","25.10544","6501200","瑞芳區"
"224009","285-BY","2017/12/29 18:07:38","新北市瑞芳區金光路306號","121.85149","25.1074966666667","6501200","瑞芳區"
"224008","275-VK","2017/12/29 18:07:34","新北市瑞芳區員山子路3-9號","121.819955","25.1040216666667","6501200","瑞芳區"
"224007","272-VK","2017/12/29 18:07:38","新北市瑞芳區四腳亭埔路40-1號","121.77868","25.1053466666667","6501200","瑞芳區"
"224005","271-BY","2017/12/29 18:07:40","新北市瑞芳區建基路二段12-1號","121.815263333333","25.128595","6501200","瑞芳區"
"253005","032-BX","2017/12/29 18:07:43","新北市石門區福安街43號","121.568503333333","25.2919533333333","6502200","石門區"
"253006","741-TV","2017/12/29 18:07:36","新北市石門區老梅路52巷25弄1號","121.546461666667","25.2880733333333","6502200","石門區"
"208002","742-BX","2017/12/29 18:07:24","新北市金山區三界壇路99巷25號","121.617108333333","25.2269733333333","6502700","金山區"
"208003","665-BX","2017/12/29 18:07:32","新北市金山區磺港里磺港路8號","121.649626666667","25.2306","6502700","金山區"
"208001","761-BX","2017/12/29 18:07:29","新北市金山區磺港里磺港路104號","121.646981666667","25.227065","6502700","金山區"
"251004","009-UM","2017/12/29 18:07:38","新北市淡水區民族路110巷34號","121.461713333333","25.1352566666667","6501000","淡水區"
"251001","011-UM","2017/12/29 18:07:30","新北市淡水區自立路8-2號","121.462816666667","25.1296983333333","6501000","淡水區"
"251013","180-VK","2017/12/29 18:07:39","新北市淡水區竹圍子9-1號","121.476898333333","25.1922233333333","6501000","淡水區"
"251008","181-VK","2017/12/29 18:07:30","新北市淡水區中正東路二段47號","121.459503333333","25.1560316666667","6501000","淡水區"
"251015","182-VK","2017/12/29 18:07:34","新北市淡水區興福寮88巷1號","121.485586666667","25.1650933333333","6501000","淡水區"
"251010","413-VK","2017/12/29 18:07:43","新北市淡水區中正路二段50巷10號","121.419865","25.18335","6501000","淡水區"
"251012","441-VK","2017/12/29 18:07:34","新北市淡水區北新路三段174號","121.492856666667","25.1927916666667","6501000","淡水區"
"251005","443-VK","2017/12/29 18:07:40","新北市淡水區英專路206號","121.44912","25.173135","6501000","淡水區"
"251006","561-UM","2017/12/29 18:07:31","新北市淡水區真理街3巷18號","121.437388333333","25.1757616666667","6501000","淡水區"
"251009","575-R6","2017/12/29 18:07:32","新北市淡水區大忠街34巷9號","121.44375","25.1754916666667","6501000","淡水區"
"251011","650-BX","2017/12/29 18:07:33","新北市淡水區三空泉9-2號","121.474113333333","25.1635183333333","6501000","淡水區"
"251002","672-BX","2017/12/29 18:07:36","新北市淡水區中正東路一段64-2號","121.452835","25.161695","6501000","淡水區"
"251003","673-BX","2017/12/29 18:07:40","新北市淡水區北新路137號","121.44944","25.17882","6501000","淡水區"
"207003","550-UM","2017/12/29 18:07:32","新北市萬里區野柳里港西路56-4號","121.685231666667","25.20352","6502800","萬里區"
"207004","225-TW","2017/12/29 18:07:35","新北市萬里區中幅里中福路94號","121.675618333333","25.1702616666667","6502800","萬里區"
"252002","178-VK","2017/12/29 18:07:43","新北市三芝區中山路二段35號","121.50288","25.2551766666667","6502100","三芝區"
"252003","249-BX","2017/12/29 18:07:41","新北市三芝區北海路二段167號","121.503206666667","25.2615533333333","6502100","三芝區"
"252001","292-VK","2017/12/29 18:07:42","新北市三芝區中興街二段2號","121.498448333333","25.2566966666667","6502100","三芝區"
"237004","078-UY","2017/12/29 18:07:36","新北市三峽區圳頭51號","121.377323333333","24.88391","6500900","三峽區"
"237007","153-BY","2017/12/29 18:07:42","新北市三峽區中正路二段331-1號","121.365785","24.9097616666667","6500900","三峽區"
"237009","210-TH","2017/12/29 18:07:31","新北市三峽區大仁路50巷8號","121.365405","24.9378916666667","6500900","三峽區"
"237013","252-BX","2017/12/29 18:07:32","新北市三峽區長泰街47號","121.377663333333","24.9327266666667","6500900","三峽區"
"237012","275-BY","2017/12/29 18:07:27","新北市三峽區民生街1巷1-25號","121.377613333333","24.9354016666667","6500900","三峽區"
"237008","302-VK","2017/12/29 18:07:41","新北市三峽區白雞38-2號","121.37361","24.9124683333333","6500900","三峽區"
"237014","433-BY","2017/12/29 18:07:41","新北市三峽區復興路80巷6號","121.37342","24.9375766666667","6500900","三峽區"
"237006","5529-G3","2017/12/29 18:07:35","新北市三峽區溪東路34巷13號","121.400335","24.9342433333333","6500900","三峽區"
"237011","572-TV","2017/12/29 13:11:13","新北市三峽區中山路459巷163-3號","121.348653333333","24.9330233333333","6500900","三峽區"
"237015","649-BX","2017/12/29 17:50:51","新北市三峽區白雞149-2號","121.40015","24.905545","6500900","三峽區"
"237005","AKY-6261","2017/12/29 18:07:26","新北市三峽區文化路65巷10號","121.372036666667","24.9356566666667","6500900","三峽區"
"236072","105-UM","2017/12/29 18:07:37","新北市土城區中央路一段289號","121.444301666667","24.9842533333333","6501300","土城區"
"236043","107-UM","2017/12/29 18:07:43","新北市土城區城林路6巷80號","121.438513333333","24.9797683333333","6501300","土城區"
"236079","166-UM","2017/12/29 18:07:34","新北市土城區永寧路32巷16號","121.428815","24.96071","6501300","土城區"
"236031","253-BX","2017/12/29 18:07:38","新北市土城區城林路6巷80號","121.43846","24.97953","6501300","土城區"
"236027","269-VK","2017/12/29 18:07:26","新北市土城區承天路18號","121.439373333333","24.9634616666667","6501300","土城區"
"236015","270-VK","2017/12/29 18:07:38","新北市土城區員福街50號","121.440633333333","24.9790716666667","6501300","土城區"
"236039","271-VK","2017/12/29 18:07:33","新北市土城區中正路6號","121.4424","24.9750466666667","6501300","土城區"
"236022","401-BY","2017/12/29 18:07:33","新北市土城區城林路6巷80號","121.438663333333","24.9796766666667","6501300","土城區"
"236059","912-UM","2017/12/29 18:07:39","新北市土城區中央路三段260號","121.427265","24.9639983333333","6501300","土城區"
"236050","913-UM","2017/12/29 18:07:33","新北市土城區學士路123號","121.446513333333","24.9758666666667","6501300","土城區"
"236063","915-UM","2017/12/29 18:07:42","新北市土城區員福街16號","121.44154","24.9785766666667","6501300","土城區"
"236055","AAC-216","2017/12/29 18:07:30","新北市土城區城林路6巷80號","121.43849","24.97972","6501300","土城區"
"242044","AAC-296","2017/12/29 18:07:36","新北市新莊區新北大道七段339號","121.41296","25.0276266666667","6500500","新莊區"
"242029","986-R7","2017/12/29 18:07:39","新北市新莊區中平路92巷2號","121.444825","25.0453566666667","6500500","新莊區"
"242050","751-BX","2017/12/29 18:07:28","新北市新莊區民本街29巷21號","121.429125","25.0190066666667","6500500","新莊區"
"242060","705-TV","2017/12/29 18:07:37","新北市新莊區新樹路207-7號","121.435913333333","25.0239316666667","6500500","新莊區"
"242025","615-BX","2017/12/29 18:07:43","新北市新莊區五權一路7-9號","121.458836666667","25.0669266666667","6500500","新莊區"
"242023","613-BX","2017/12/29 18:07:42","新北市新莊區幸福路788號","121.446635","25.0491333333333","6500500","新莊區"
"242027","612-BX","2017/12/29 18:07:35","新北市新莊區幸福路515號","121.455606666667","25.049325","6500500","新莊區"
"242039","566-BX","2017/12/29 18:07:40","新北市新莊區民安西路38巷34號","121.426348333333","25.0203133333333","6500500","新莊區"
"242032","442-UM","2017/12/29 18:07:42","新北市新莊區新泰路277巷61號","121.443306666667","25.0400183333333","6500500","新莊區"
"242048","441-UM","2017/12/29 18:07:44","新北市新莊區民安路35號","121.423688333333","25.02673","6500500","新莊區"
"242054","440-UM","2017/12/29 18:07:36","新北市新莊區民安西路368號","121.427591666667","25.01089","6500500","新莊區"
"242034","415-TV","2017/12/29 18:07:27","新北市新莊區福海街24巷11號","121.446033333333","25.0341716666667","6500500","新莊區"
"242005","413-TV","2017/12/29 18:07:38","新北市新莊區自由街34號","121.455898333333","25.0465766666667","6500500","新莊區"
"242041","400-BY","2017/12/29 18:07:40","新北市新莊區天祥街121巷20號","121.414176666667","25.029075","6500500","新莊區"
"242058","353-BY","2017/12/29 18:07:34","新北市新莊區新北大道七段162-1號","121.41598","25.0315066666667","6500500","新莊區"
"242007","132-UY","2017/12/29 18:07:46","新北市新莊區中華路二段60號","121.454088333333","25.0461483333333","6500500","新莊區"
"242037","133-UY","2017/12/29 18:07:40","新北市新莊區福營路230號","121.426888333333","25.0291066666667","6500500","新莊區"
"242021","135-UY","2017/12/29 18:07:42","新北市新莊區建興街56巷2號","121.450043333333","25.0383683333333","6500500","新莊區"
"242046","172-VK","2017/12/29 18:07:40","新北市新莊區福營路197號","121.431106666667","25.0304133333333","6500500","新莊區"
"242009","173-VK","2017/12/29 18:07:41","新北市新莊區中華路二段258巷15號","121.453118333333","25.053725","6500500","新莊區"
"242015","175-VK","2017/12/29 18:07:28","新北市新莊區中平路152巷46號","121.446708333333","25.0473583333333","6500500","新莊區"
"242002","176-VK","2017/12/29 18:07:30","新北市新莊區新莊路1號","121.459408333333","25.0379166666667","6500500","新莊區"
"242019","348-TH","2017/12/29 18:07:32","新北市新莊區民樂街24號","121.45775","25.040685","6500500","新莊區"
"242017","350-TH","2017/12/29 18:07:26","新北市新莊區中港路303號","121.452848333333","25.0446116666667","6500500","新莊區"
"242011","351-TH","2017/12/29 18:07:44","新北市新莊區中榮街58號","121.449293333333","25.0527266666667","6500500","新莊區"
"238015","755-BX","2017/12/29 18:07:31","新北市樹林區大安路246巷7號","121.417691666667","24.992215","6500700","樹林區"
"238023","601-UM","2017/12/29 18:07:42","新北市樹林區龍興街46巷18號","121.402421666667","25.0153333333333","6500700","樹林區"
"238019","599-UM","2017/12/29 18:07:31","新北市樹林區水源街32巷45號","121.425346666667","24.980455","6500700","樹林區"
"238018","571-TV","2017/12/29 18:07:32","新北市樹林區樹新路81號","121.427546666667","24.9952716666667","6500700","樹林區"
"238021","KEA-2217","2017/12/29 18:07:29","新北市樹林區田尾街111-1號","121.406675","24.9551816666667","6500700","樹林區"
"238022","KEA-2213","2017/12/29 18:07:37","新北市樹林區太平路150巷13號","121.417913333333","24.9777183333333","6500700","樹林區"
"238025","303-VK","2017/12/29 18:07:43","新北市樹林區三俊街2號","121.410793333333","25.0153533333333","6500700","樹林區"
"238017","283-BY","2017/12/29 18:07:36","新北市樹林區中正路548號","121.411315","25.01443","6500700","樹林區"
"238014","282-BY","2017/12/29 18:07:28","新北市樹林區中正路45巷10號","121.42656","24.9992766666667","6500700","樹林區"
"238020","268-VK","2017/12/29 18:07:32","新北市樹林區俊興街286號","121.418638333333","25.017015","6500700","樹林區"
"238026","172-UY","2017/12/29 18:07:26","新北市樹林區育德街57號","121.391255","24.9701266666667","6500700","樹林區"
"238016","169-UY","2017/12/29 18:07:45","新北市樹林區育英街146號","121.41922","24.98944","6500700","樹林區"
"239007","AAC-297","2017/12/29 18:07:38","新北市鶯歌區育英街91號","121.347403333333","24.951465","6500800","鶯歌區"
"239006","891-R6","2017/12/29 18:07:39","新北市鶯歌區德昌街140巷65號","121.332471666667","24.9620116666667","6500800","鶯歌區"
"239008","527-UM","2017/12/29 18:07:40","新北市鶯歌區國際一路179號","121.336231666667","24.9765183333333","6500800","鶯歌區"
"239005","526-UM","2017/12/29 18:07:32","新北市鶯歌區鶯桃路668巷73號","121.329916666667","24.9717816666667","6500800","鶯歌區"
"239001","417-VK","2017/12/29 18:07:34","新北市鶯歌區高職東街19巷32號","121.340841666667","24.942","6500800","鶯歌區"
"239003","360-BY","2017/12/29 18:07:36","新北市鶯歌區福安街32巷30號","121.335246666667","24.9635866666667","6500800","鶯歌區"
"239002","359-BY","2017/12/29 18:07:37","新北市鶯歌區國華路2號","121.342893333333","24.956385","6500800","鶯歌區"
"239004","193-VK","2017/12/29 18:07:30","新北市鶯歌區尖山路101巷4弄2號","121.348013333333","24.9487133333333","6500800","鶯歌區"
"221008","489-VK","2017/12/29 18:07:36","新北市汐止區康寧街315號","121.627005","25.0678033333333","6501100","汐止區"
"221036","130-UY","2017/12/29 18:07:39","新北市汐止區大同路三段271號","121.673743333333","25.0755883333333","6501100","汐止區"
"221010","269-BY","2017/12/29 18:07:46","新北市汐止區汐萬路二段267號","121.646135","25.0888066666667","6501100","汐止區"
"221012","276-VK","2017/12/29 13:41:13","新北市汐止區汐萬路一段256巷3號","121.653421666667","25.074595","6501100","汐止區"
"221012","278-VK","2017/12/29 18:07:31","新北市汐止區保一街81-1號","121.674771666667","25.080215","6501100","汐止區"
"221023","279-VK","2017/12/29 18:07:31","新北市汐止區中興路291巷1號","121.628076666667","25.06992","6501100","汐止區"
"221032","280-BY","2017/12/29 18:07:35","新北市汐止區橫科路73巷2-1號","121.619386666667","25.050765","6501100","汐止區"
"221027","281-BY","2017/12/29 18:07:30","新北市汐止區大同路二段526號","121.661171666667","25.068515","6501100","汐止區"
"221029","298-VK","2017/12/29 18:07:27","新北市汐止區樟樹二路134號","121.63996","25.06565","6501100","汐止區"
"221021","299-VK","2017/12/29 18:07:41","新北市汐止區復興路18號","121.655916666667","25.0640416666667","6501100","汐止區"
"221031","353-TW","2017/12/29 18:07:44","新北市汐止區中興路173-3號","121.630668333333","25.06652","6501100","汐止區"
"221015","567-BX","2017/12/29 18:07:44","新北市汐止區鄉長路二段63號","121.667008333333","25.08403","6501100","汐止區"
"221035","622-UM","2017/12/29 18:07:34","新北市汐止區汐萬路一段81號","121.654525","25.0702333333333","6501100","汐止區"
"221025","623-UM","2017/12/29 18:07:34","新北市汐止區秀峰路160號","121.660211666667","25.0620916666667","6501100","汐止區"
"221038","646-BX","2017/12/29 18:07:38","新北市汐止區連興街128巷10號","121.653376666667","25.0616516666667","6501100","汐止區"
"221033","647-BX","2017/12/29 18:07:25","新北市汐止區宜興街2號","121.620966666667","25.0412316666667","6501100","汐止區"
"221002","707-TV","2017/12/29 18:07:30","新北市汐止區福德一路235號","121.634041666667","25.0649333333333","6501100","汐止區"
"221018","753-BX","2017/12/29 18:07:39","新北市汐止區招商街1號","121.666326666667","25.069315","6501100","汐止區"
"220010","303-R5","2017/12/29 15:12:25","新北市板橋區民生路二段120號","121.470461666667","25.0198183333333","6500100","板橋區"
"220080","461-BY","2017/12/29 09:11:34","新北市板橋區華東街1-9號","121.448086666667","24.9948333333333","6500100","板橋區"
"242056","280-VK","2017/12/29 18:07:32","新北市新莊區豐年街豐1巷5號","121.446855","25.031175","6500500","新莊區"
