"lineid","car","time","location","longitude","latitude","cityid","cityname"
"234046","148-BY","2017/12/29 18:49:33","新北市永和區秀朗路二段128號","121.524888333333","25.001465","6500400","永和區"
"234013","149-BY","2017/12/29 18:49:35","新北市永和區保福路二段133巷37號","121.508991666667","25.0132833333333","6500400","永和區"
"234007","207-UY","2017/12/29 18:49:42","新北市永和區文化路130號","121.512883333333","25.0152466666667","6500400","永和區"
"234081","298-R6","2017/12/29 18:49:45","新北市永和區國中路109巷1弄2號","121.52398","25.0057516666667","6500400","永和區"
"234038","336-UY","2017/12/29 18:49:37","新北市永和區成功路一段62號","121.526951666667","25.0038033333333","6500400","永和區"
"234064","337-UY","2017/12/29 18:49:39","新北市永和區福和路1號","121.525566666667","25.00946","6500400","永和區"
"234086","338-UY","2017/12/29 18:49:41","新北市永和區中正路83號","121.515171666667","24.9969333333333","6500400","永和區"
"234054","553-UM","2017/12/29 18:49:32","新北市永和區豫溪街207巷22號","121.523256666667","25.0102933333333","6500400","永和區"
"234017","745-BX","2017/12/29 18:49:44","新北市永和區永和路二段303號","121.515881666667","25.0163466666667","6500400","永和區"
"234030","746-BX","2017/12/28 21:35:37","新北市五股區成泰路三段362號","121.451473333333","25.0985116666667","6500400","永和區"
"234061","AAD-866","2017/12/29 18:49:51","新北市永和區福和路307號","121.516213333333","25.0071016666667","6500400","永和區"
"234070","847-RS","2017/12/29 18:49:46","新北市永和區竹林路158號","121.520168333333","25.0106183333333","6500400","永和區"
"234042","862-TW","2017/12/29 18:49:43","新北市永和區永貞路304號","121.511933333333","25.0047966666667","6500400","永和區"
"234050","863-TW","2017/12/29 18:49:33","新北市永和區保安路2號","121.510851666667","25.0175","6500400","永和區"
"234026","9371-KE","2017/12/29 18:49:43","新北市永和區自由街58號","121.51379","25.0059466666667","6500400","永和區"
"234011","9373-KE","2017/12/29 18:49:45","新北市永和區文化路128號","121.513033333333","25.0153383333333","6500400","永和區"
"249005","172-UM","2017/12/29 18:49:42","新北市八里區長道坑16-2號","121.395178333333","25.1169866666667","6502300","八里區"
"249001","173-UM","2017/12/29 18:49:40","新北市八里區龍米路二段48號","121.448285","25.1406116666667","6502300","八里區"
"248006","077-UY","2017/12/29 18:49:50","新北市五股區四維路15號","121.467195","25.0704116666667","6501500","五股區"
"248008","095-VK","2017/12/29 18:49:33","新北市五股區中興路一段151巷3號","121.465046666667","25.0728766666667","6501500","五股區"
"248018","225-UY","2017/12/29 18:49:46","新北市五股區民義路二段48巷1-6號","121.414168333333","25.10271","6501500","五股區"
"248012","247-BX","2017/12/29 18:49:39","新北市五股區成泰路二段147巷5-17號","121.437086666667","25.08837","6501500","五股區"
"248014","261-SL","2017/12/29 18:49:35","新北市五股區民義路一段107巷23號","121.432091666667","25.0845683333333","6501500","五股區"
"248004","677-BX","2017/12/29 18:49:32","新北市五股區民義路二段17號","121.420915","25.09642","6501500","五股區"
"248002","678-BX","2017/12/29 18:49:32","新北市五股區成泰路三段454號","121.451453333333","25.1003483333333","6501500","五股區"
"248010","682-TV","2017/12/29 18:49:31","新北市五股區水碓五路117號","121.430935","25.0727116666667","6501500","五股區"
"234023","9380-KE","2017/12/29 18:49:41","新北市永和區竹林路119巷26號","121.521135","25.0117433333333","6500400","永和區"
"234077","969-R7","2017/12/29 18:49:46","新北市永和區中正路2巷27號","121.513916666667","24.9934516666667","6500400","永和區"
"234074","AAC-211","2017/12/29 18:49:42","新北市永和區福和路1號","121.526296666667","25.0097716666667","6500400","永和區"
"234003","AAC-295","2017/12/29 18:49:46","新北市永和區中正路610-1號","121.517023333333","25.0073433333333","6500400","永和區"
"232011","375-UM","2017/12/29 18:49:49","新北市坪林區坪雙路一段21號","121.712071666667","24.942215","6502000","坪林區"
"244013","069-UM","2017/12/29 18:49:36","新北市林口區文化一路二段92號","121.381646666667","25.0787183333333","6501700","林口區"
"244019","403-UM","2017/12/29 18:49:33","新北市林口區麗園二街41號","121.380735","25.0690983333333","6501700","林口區"
"244025","742-UY","2017/12/29 18:49:29","新北市林口區南勢一街6號","121.360468333333","25.0747716666667","6501700","林口區"
"244023","483-VK","2017/12/29 18:49:46","新北市林口區民權路106號","121.373385","25.082735","6501700","林口區"
"244017","485-VK","2017/12/29 18:49:38","新北市林口區文化二路一段68巷18-2號","121.36612","25.0677183333333","6501700","林口區"
"244011","656-BX","2017/12/29 18:49:37","新北市林口區中正路41巷2號","121.395776666667","25.0772416666667","6501700","林口區"
"244009","837-TS","2017/12/29 18:49:34","新北市林口區竹林路330巷16號","121.39209","25.082915","6501700","林口區"
"243012","AAD-798","2017/12/29 18:49:41","新北市泰山區福興三街13號","121.434425","25.0577816666667","6501600","泰山區"
"243011","297-R6","2017/12/29 18:49:48","新北市泰山區明志路二段246巷3號","121.426576666667","25.0482116666667","6501600","泰山區"
"243015","380-SR","2017/12/29 18:49:38","新北市泰山區泰林路二段370號","121.428496666667","25.0637566666667","6501600","泰山區"
"243014","421-VK","2017/12/29 18:49:38","新北市泰山區犁頭窠3-1號","121.422163333333","25.06054","6501600","泰山區"
"243013","646-TV","2017/12/29 18:49:34","新北市泰山區明志路三段206巷3號","121.423283333333","25.0379383333333","6501600","泰山區"
"243016","680-BX","2017/12/29 18:49:33","新北市泰山區明志路二段137號","121.427703333333","25.0507133333333","6501600","泰山區"
"222003","436-BY","2017/12/29 18:49:45","新北市深坑區深南路50號","121.620148333333","25.0089466666667","6501800","深坑區"
"222002","659-BX","2017/12/29 18:49:40","新北市深坑區文山路一段79號","121.62695","25.0018483333333","6501800","深坑區"
"222001","696-SL","2017/12/29 18:49:48","新北市深坑區北深路一段32-1號","121.638158333333","25.010565","6501800","深坑區"
"231041","001-UM","2017/12/29 18:49:30","新北市新店區安華路28-1號","121.519475","24.9606933333333","6500600","新店區"
"231055","0291-UT","2017/12/29 18:49:36","新北市新店區中華路38號","121.539966666667","24.9680933333333","6500600","新店區"
"231066","0293-UT","2017/12/29 18:49:49","新北市新店區安豐路22巷15號","121.502926666667","24.9549216666667","6500600","新店區"
"231059","046-UY","2017/12/29 18:49:35","新北市新店區安華路28-1號","121.519506666667","24.9607983333333","6500600","新店區"
"231061","047-UY","2017/12/29 18:49:45","新北市新店區安華路28-1號","121.519","24.96105","6500600","新店區"
"231060","106-UY","2017/12/29 18:49:28","新北市新店區安華路28-1號","121.519643333333","24.9607266666667","6500600","新店區"
"231051","107-UY","2017/12/29 18:49:37","新北市新店區中央路137號","121.530373333333","24.9736416666667","6500600","新店區"
"231048","108-UY","2017/12/29 18:49:36","新北市新店區德正街11號","121.543523333333","24.9731833333333","6500600","新店區"
"231053","187-VK","2017/12/29 18:49:41","新北市新店區新烏路一段87巷63號","121.546266666667","24.9411866666667","6500600","新店區"
"231050","KEA-2219","2017/12/29 18:49:45","新北市新店區安康路一段35號","121.531575","24.9607766666667","6500600","新店區"
"231046","278-BY","2017/12/29 18:49:46","新北市新店區直潭六街64號","121.53219","24.9400316666667","6500600","新店區"
"231054","AAD-862","2017/12/29 18:49:45","新北市新店區安康路一段35-5號","121.53188","24.9606533333333","6500600","新店區"
"231058","3712-VJ","2017/12/29 18:49:40","新北市新店區檳榔路50號","121.541926666667","24.9634883333333","6500600","新店區"
"231056","3713-VJ","2017/12/29 18:49:45","新北市新店區建國路150號","121.538801666667","24.9792033333333","6500600","新店區"
"231067","4772-VM","2017/12/29 18:49:39","新北市新店區安康路一段106巷12號","121.527751666667","24.9629083333333","6500600","新店區"
"231065","512-UM","2017/12/29 18:49:41","新北市新店區安豐路48號","121.500298333333","24.954125","6500600","新店區"
"231064","515-UM","2017/12/29 18:49:38","新北市新店區安華路28-1號","121.519423333333","24.9607483333333","6500600","新店區"
"231045","617-UM","2017/12/29 18:49:40","新北市新店區安康路一段113號","121.52843","24.961765","6500600","新店區"
"231040","619-UM","2017/12/29 18:49:37","新北市新店區中央路183-3號","121.536353333333","24.968575","6500600","新店區"
"231042","641-BX","2017/12/29 18:49:31","新北市新店區秀山路70號","121.531105","24.9609033333333","6500600","新店區"
"231063","645-TV","2017/12/29 18:49:30","新北市新店區安華路1-1號","121.519305","24.9605216666667","6500600","新店區"
"231049","719-UM","2017/12/29 18:49:36","新北市新店區中正路454-5號","121.534463333333","24.9790716666667","6500600","新店區"
"231062","720-UM","2017/12/29 18:49:13","新北市新店區安忠路57巷15號","121.512995","24.95731","6500600","新店區"
"231044","897-TW","2017/12/29 18:49:38","新北市新店區寶中路72號","121.548011666667","24.9805866666667","6500600","新店區"
"231043","899-TW","2017/12/29 18:49:39","新北市新店區安康路一段107-2號","121.52884","24.9616133333333","6500600","新店區"
"241006","AAD-863","2017/12/29 18:49:37","新北市三重區車路頭街135-1號","121.484326666667","25.0761466666667","6500200","三重區"
"235066","003-UY","2017/12/29 18:49:38","新北市中和區水源路18巷3號","121.50406","25.003175","6500300","中和區"
"235064","005-UY","2017/12/29 18:49:40","新北市中和區連城路107號","121.496378333333","24.9994983333333","6500300","中和區"
"235063","006-UY","2017/12/29 18:49:36","新北市中和區連城路321號","121.489041666667","24.996165","6500300","中和區"
"235046","031-BX","2017/12/29 18:49:43","新北市中和區仁愛街36巷46號","121.511445","24.9861666666667","6500300","中和區"
"235056","096-UM","2017/12/29 18:49:48","新北市中和區員山路516號","121.478946666667","25.0094483333333","6500300","中和區"
"235039","097-UM","2017/12/29 18:49:42","新北市永和區中正路13號","121.513953333333","24.9958316666667","6500300","中和區"
"235040","150-BY","2017/12/29 18:49:44","新北市中和區宜安路47巷2號","121.511721666667","24.996425","6500300","中和區"
"235058","151-BY","2017/12/29 18:49:40","新北市中和區連城路526-1號","121.47601","24.9916483333333","6500300","中和區"
"235055","183-VK","2017/12/29 18:49:35","新北市中和區民生街21-4號","121.470883333333","25.00569","6500300","中和區"
"235038","185-VK","2017/12/29 18:49:51","新北市中和區大勇街45巷1號","121.518156666667","24.9948083333333","6500300","中和區"
"235049","186-VK","2017/12/29 18:49:35","新北市中和區明義街40巷3-1號","121.50393","24.9956866666667","6500300","中和區"
"235067","255-BX","2017/12/29 18:49:43","新北市中和區中山路二段552號","121.483583333333","25.005085","6500300","中和區"
"235044","293-VK","2017/12/29 18:49:42","新北市中和區中興街131號","121.499956666667","24.9915733333333","6500300","中和區"
"235072","301-VK","2017/12/29 18:49:31","新北市中和區中山路二段57號","121.504296666667","25.004805","6500300","中和區"
"235043","352-BY","2017/12/29 18:49:43","新北市中和區成功路129號","121.526093333333","24.99084","6500300","中和區"
"235068","377-QA","2017/12/29 18:49:40","新北市中和區中正路211巷13弄12號","121.49741","24.9932616666667","6500300","中和區"
"235061","378-QA","2017/12/29 18:49:28","新北市中和區民享街30巷8弄2號","121.473513333333","25.0036833333333","6500300","中和區"
"235050","4979-A6","2017/12/29 18:49:27","新北市中和區忠孝街62巷9弄10號","121.513133333333","24.98396","6500300","中和區"
"235069","4980-A6","2017/12/29 18:49:43","新北市中和區南山路111巷5號","121.502706666667","24.9977583333333","6500300","中和區"
"235042","551-UM","2017/12/29 18:49:42","新北市中和區成功路103號","121.526105","24.9914783333333","6500300","中和區"
"235070","558-UM","2017/12/29 18:49:46","新北市中和區景平路584號","121.501213333333","24.99579","6500300","中和區"
"235045","565-BX","2017/12/29 18:49:42","新北市中和區南山路373號","121.506258333333","24.9904033333333","6500300","中和區"
"235054","640-BX","2017/12/29 18:49:38","新北市中和區莒光路129巷2弄5號","121.473083333333","25.001835","6500300","中和區"
"235060","647-TV","2017/12/29 18:49:47","新北市中和區中山路三段116號","121.475918333333","25.005975","6500300","中和區"
"235047","732-UM","2017/12/29 18:49:37","新北市中和區興南路二段34巷30弄1號","121.504846666667","24.9863266666667","6500300","中和區"
"235062","800-TS","2017/12/29 18:49:29","新北市中和區中山路二段348巷10號","121.49288","25.00311","6500300","中和區"
"235057","801-TS","2017/12/29 18:49:29","新北市中和區民安街31號","121.480191666667","25.0003983333333","6500300","中和區"
"235041","802-TS","2017/12/29 18:49:41","新北市中和區中安街192號","121.511328333333","24.9991833333333","6500300","中和區"
"235052","805-TS","2017/12/29 18:49:45","新北市中和區興南路二段399巷98弄40號","121.49941","24.9770416666667","6500300","中和區"
"235048","896-TW","2017/12/29 18:49:37","新北市中和區華新街13號","121.507593333333","24.9851316666667","6500300","中和區"
"235053","900-TW","2017/12/29 18:49:37","新北市中和區華福街6號","121.465455","24.99679","6500300","中和區"
"235065","911-UM","2017/12/29 18:49:31","新北市中和區中山路二段2巷65號","121.50158","25.0073683333333","6500300","中和區"
"235051","157-BY","2017/12/29 18:49:41","新北市中和區忠孝街106巷37號","121.513396666667","24.9843116666667","6500300","中和區"
"235037","AAC-213","2017/12/29 18:49:38","新北市中和區秀朗路三段173-2號","121.524448333333","24.99155","6500300","中和區"
"235059","AAC-215","2017/12/29 18:49:45","新北市中和區圓通路393巷1號","121.489723333333","24.9889466666667","6500300","中和區"
"220068","013-TV","2017/12/29 15:56:28","新北市八里區中華路三段7巷5號","121.397728333333","25.1436133333333","6500100","板橋區"
"220065","072-UY","2017/12/29 18:49:40","新北市板橋區民族路151巷52號","121.47008","25.0084483333333","6500100","板橋區"
"220086","073-UY","2017/12/29 18:49:40","新北市板橋區大智街71巷7弄1號","121.453131666667","25.0146783333333","6500100","板橋區"
"220106","075-UY","2017/12/29 18:49:46","新北市板橋區民生路二段120號","121.470321666667","25.0196866666667","6500100","板橋區"
"220069","AAD-861","2017/12/29 18:49:34","新北市板橋區大華街2號","121.458761666667","25.0065316666667","6500100","板橋區"
"220096","120-SR","2017/12/29 18:49:39","新北市板橋區民生路二段120號","121.47038","25.0195583333333","6500100","板橋區"
"226004","205-ST","2017/12/29 18:49:45","新北市平溪區平溪里平溪街18號","121.73877","25.025135","6502400","平溪區"
"228002","663-BX","2017/12/29 18:49:48","新北市貢寮區福隆里東興街6-11號","121.950791666667","25.021085","6502600","貢寮區"
"228001","670-TC","2017/12/29 18:49:50","新北市貢寮區仁理村保健街73號","121.923706666667","25.0516933333333","6502600","貢寮區"
"228003","828-UM","2017/12/29 18:49:31","新北市貢寮區和美里龍洞街63-2號","121.916646666667","25.1178783333333","6502600","貢寮區"
"224010","AGQ-8101","2017/12/29 18:49:33","新北市瑞芳區汽車路7號","121.847205","25.1111316666667","6501200","瑞芳區"
"224006","676-BX","2017/12/29 18:49:47","新北市瑞芳區中正路65號","121.806088333333","25.1074716666667","6501200","瑞芳區"
"224009","285-BY","2017/12/29 18:49:37","新北市瑞芳區祈堂路53-1號","121.859571666667","25.110475","6501200","瑞芳區"
"224008","275-VK","2017/12/29 18:49:34","新北市瑞芳區瑞芳街150號","121.801196666667","25.1115166666667","6501200","瑞芳區"
"224007","272-VK","2017/12/29 18:49:38","新北市瑞芳區大埔路130號","121.761865","25.10067","6501200","瑞芳區"
"224005","271-BY","2017/12/29 18:49:48","新北市瑞芳區瑞濱路1-8號","121.828426666667","25.121515","6501200","瑞芳區"
"227011","400-TW","2017/12/29 18:49:30","新北市雙溪區牡丹里聖南25號","121.857043333333","25.0527983333333","6502500","雙溪區"
"227003","030-BX","2017/12/29 18:49:41","新北市雙溪區平林里梅竹蹊30號","121.861611666667","25.03601","6502500","雙溪區"
"253005","032-BX","2017/12/29 18:49:37","新北市石門區中山路6號","121.565306666667","25.2907166666667","6502200","石門區"
"253006","741-TV","2017/12/29 18:49:43","新北市石門區下員坑30-3號","121.519765","25.2823883333333","6502200","石門區"
"208002","742-BX","2017/12/29 18:49:44","新北市金山區信義路28號","121.635416666667","25.2197866666667","6502700","金山區"
"208003","665-BX","2017/12/29 18:49:32","新北市金山區中山路393號","121.633401666667","25.2252033333333","6502700","金山區"
"208001","761-BX","2017/12/29 18:49:49","新北市金山區文化三路66巷2弄3號","121.634365","25.2256866666667","6502700","金山區"
"251001","011-UM","2017/12/29 18:49:32","新北市淡水區自強路88號","121.462753333333","25.1283983333333","6501000","淡水區"
"251013","180-VK","2017/12/29 18:49:39","新北市淡水區頂田寮路761號","121.477551666667","25.21508","6501000","淡水區"
"251015","182-VK","2017/12/29 18:49:34","新北市淡水區興福寮77巷57號","121.487561666667","25.1632583333333","6501000","淡水區"
"251010","413-VK","2017/12/29 18:49:43","新北市淡水區沙崙路24號","121.421358333333","25.1812783333333","6501000","淡水區"
"251012","441-VK","2017/12/29 18:49:34","新北市淡水區新興街7號","121.443625","25.1803016666667","6501000","淡水區"
"251011","650-BX","2017/12/29 18:49:33","新北市淡水區學府路28號","121.447705","25.168345","6501000","淡水區"
"251002","672-BX","2017/12/29 18:49:36","新北市淡水區學府路53號","121.448141666667","25.1692166666667","6501000","淡水區"
"251003","673-BX","2017/12/29 18:49:40","新北市淡水區中山北路一段158號","121.444151666667","25.1778516666667","6501000","淡水區"
"207003","550-UM","2017/12/29 18:49:32","新北市萬里區大鵬里頂社1-2號","121.657428333333","25.2096916666667","6502800","萬里區"
"207004","225-TW","2017/12/29 18:49:35","新北市萬里區萬里里獅頭路23號","121.693233333333","25.17829","6502800","萬里區"
"252002","178-VK","2017/12/29 18:49:43","新北市三芝區中正路一段101號","121.50473","25.25645","6502100","三芝區"
"252003","249-BX","2017/12/29 18:49:41","新北市三芝區後厝里大片頭76號","121.459266666667","25.2458716666667","6502100","三芝區"
"252001","292-VK","2017/12/29 18:49:41","新北市三芝區中正路三段9號","121.502938333333","25.2539966666667","6502100","三芝區"
"237004","078-UY","2017/12/29 18:49:35","新北市三峽區有木230-3號","121.433553333333","24.8472416666667","6500900","三峽區"
"237007","153-BY","2017/12/29 18:49:42","新北市三峽區大埔路181號","121.366781666667","24.9050216666667","6500900","三峽區"
"237013","252-BX","2017/12/29 18:49:32","新北市三峽區光明路69巷25號","121.37666","24.9291466666667","6500900","三峽區"
"237012","275-BY","2017/12/29 18:49:47","新北市三峽區三樹路340號","121.38397","24.943305","6500900","三峽區"
"237008","302-VK","2017/12/29 18:49:41","新北市三峽區白雞28-1號","121.370246666667","24.9122283333333","6500900","三峽區"
"237014","433-BY","2017/12/29 18:49:41","新北市三峽區隆恩街170號","121.363238333333","24.9428933333333","6500900","三峽區"
"237006","5529-G3","2017/12/29 18:49:35","新北市三峽區溪東路233巷44-1號","121.409763333333","24.933525","6500900","三峽區"
"237011","572-TV","2017/12/29 13:11:13","新北市三峽區中山路459巷163-3號","121.348653333333","24.9330233333333","6500900","三峽區"
"237015","649-BX","2017/12/29 18:12:31","新北市三峽區紫新路47號","121.422343333333","24.9217916666667","6500900","三峽區"
"237005","AKY-6261","2017/12/29 18:49:46","新北市三峽區中山路459巷163-3號","121.349091666667","24.9333783333333","6500900","三峽區"
"236072","105-UM","2017/12/29 18:49:37","新北市土城區明德路一段43號","121.46514","24.9850616666667","6501300","土城區"
"236043","107-UM","2017/12/29 18:49:43","新北市土城區裕民路137-3號","121.451653333333","24.9863233333333","6501300","土城區"
"236079","166-UM","2017/12/29 18:49:34","新北市土城區中央路四段67巷26號","121.417755","24.9573816666667","6501300","土城區"
"236031","253-BX","2017/12/29 18:49:38","新北市土城區忠義路26巷10號","121.439853333333","24.96997","6501300","土城區"
"236027","269-VK","2017/12/29 18:49:46","新北市土城區興城路78號","121.441023333333","24.9719733333333","6501300","土城區"
"236015","270-VK","2017/12/29 18:49:38","新北市土城區金城路二段354巷10號","121.460943333333","24.984435","6501300","土城區"
"236039","271-VK","2017/12/29 18:49:33","新北市土城區明德路一段195巷3弄2號","121.464315","24.978555","6501300","土城區"
"236022","401-BY","2017/12/29 18:49:33","新北市土城區延安街76號","121.468106666667","24.98409","6501300","土城區"
"236059","912-UM","2017/12/29 18:49:31","新北市土城區中央路三段141-2號","121.433385","24.9653816666667","6501300","土城區"
"236050","913-UM","2017/12/29 18:49:48","新北市板橋區信義路170巷10號","121.45997","24.9906383333333","6501300","土城區"
"236063","915-UM","2017/12/29 18:49:42","新北市土城區延壽路13巷5號","121.470883333333","24.9903733333333","6501300","土城區"
"236055","AAC-216","2017/12/29 18:49:50","新北市土城區裕民路193號","121.453643333333","24.9842933333333","6501300","土城區"
"242060","705-TV","2017/12/29 18:49:37","新北市新莊區民安東路174號","121.432878333333","25.0204683333333","6500500","新莊區"
"242025","615-BX","2017/12/29 18:35:03","新北市新莊區新泰路255巷83號","121.442125","25.038885","6500500","新莊區"
"242009","173-VK","2017/12/29 18:49:41","新北市新莊區三和路12-21號","121.44194","25.0387966666667","6500500","新莊區"
"238023","601-UM","2017/12/29 18:49:42","新北市樹林區三福街114號","121.406415","25.0163366666667","6500700","樹林區"
"238019","599-UM","2017/12/29 18:49:28","新北市樹林區中華路190-16號","121.411855","24.9805716666667","6500700","樹林區"
"238018","571-TV","2017/12/29 18:49:32","新北市樹林區樹新路7號","121.426558333333","24.9939316666667","6500700","樹林區"
"238024","5061-A6","2017/12/29 18:49:42","新北市樹林區太平路221號","121.418576666667","24.97731","6500700","樹林區"
"238022","KEA-2213","2017/12/29 18:49:38","新北市樹林區中華路379巷78弄13號","121.413018333333","24.9770033333333","6500700","樹林區"
"238025","303-VK","2017/12/29 18:49:43","新北市樹林區中山路三段22號","121.395588333333","24.972985","6500700","樹林區"
"238017","283-BY","2017/12/29 18:49:36","新北市樹林區光興街50號","121.409845","25.0027316666667","6500700","樹林區"
"238014","282-BY","2017/12/29 18:49:48","新北市樹林區大安路111巷2號","121.423025","24.997515","6500700","樹林區"
"238026","172-UY","2017/12/29 18:49:46","新北市樹林區信和街24號","121.390238333333","24.9729666666667","6500700","樹林區"
"238016","169-UY","2017/12/29 18:49:45","新北市樹林區文化街28號","121.419333333333","24.987735","6500700","樹林區"
"239007","AAC-297","2017/12/29 18:49:38","新北市鶯歌區成功街20巷11號","121.358873333333","24.9578366666667","6500800","鶯歌區"
"239006","891-R6","2017/12/29 18:49:46","新北市鶯歌區鶯桃路67巷5號","121.34094","24.9524466666667","6500800","鶯歌區"
"239008","527-UM","2017/12/29 18:49:39","新北市鶯歌區國際二路70巷41號","121.33696","24.9756166666667","6500800","鶯歌區"
"239005","526-UM","2017/12/29 18:49:32","新北市鶯歌區大湖路361巷24弄20號","121.32997","24.9777733333333","6500800","鶯歌區"
"239001","417-VK","2017/12/29 18:49:34","新北市鶯歌區永明街60巷11號","121.340625","24.9552283333333","6500800","鶯歌區"
"239003","360-BY","2017/12/29 18:49:36","新北市鶯歌區鶯桃路628號","121.329681666667","24.9687333333333","6500800","鶯歌區"
"239002","359-BY","2017/12/29 18:49:37","新北市鶯歌區國華路3-1號","121.342993333333","24.9568966666667","6500800","鶯歌區"
"239004","193-VK","2017/12/29 18:49:30","新北市鶯歌區中正三路230巷26號","121.329851666667","24.9399816666667","6500800","鶯歌區"
"221008","489-VK","2017/12/29 18:49:36","新北市汐止區康寧街901號","121.651405","25.0750116666667","6501100","汐止區"
"221036","130-UY","2017/12/29 18:49:38","新北市汐止區忠孝東路340號","121.665081666667","25.069625","6501100","汐止區"
"221010","269-BY","2017/12/29 18:49:48","新北市汐止區康寧街901號","121.651521666667","25.0750316666667","6501100","汐止區"
"221012","276-VK","2017/12/29 13:41:13","新北市汐止區汐萬路一段256巷3號","121.653421666667","25.074595","6501100","汐止區"
"221012","278-VK","2017/12/29 18:49:31","新北市汐止區康寧街901號","121.650798333333","25.0752516666667","6501100","汐止區"
"221023","279-VK","2017/12/29 18:49:31","新北市汐止區康寧街901號","121.650968333333","25.0752133333333","6501100","汐止區"
"221032","280-BY","2017/12/29 18:49:35","新北市汐止區民權街二段79號","121.619226666667","25.04816","6501100","汐止區"
"221027","281-BY","2017/12/29 18:49:30","新北市汐止區康寧街901號","121.6514","25.0749933333333","6501100","汐止區"
"221029","298-VK","2017/12/29 18:49:47","新北市汐止區工建路66號","121.640496666667","25.062985","6501100","汐止區"
"221021","299-VK","2017/12/29 18:49:37","新北市汐止區新台五路一段131號","121.652198333333","25.062075","6501100","汐止區"
"221031","353-TW","2017/12/29 18:49:39","新北市汐止區福德一路274號","121.632136666667","25.0640016666667","6501100","汐止區"
"221015","567-BX","2017/12/29 18:49:45","新北市汐止區鄉長路一段43號","121.665328333333","25.075015","6501100","汐止區"
"221035","622-UM","2017/12/29 18:49:34","新北市汐止區汐萬路一段5號","121.655995","25.06732","6501100","汐止區"
"221025","623-UM","2017/12/29 18:49:34","新北市汐止區水源路一段56號","121.657553333333","25.0656783333333","6501100","汐止區"
"221038","646-BX","2017/12/29 18:49:38","新北市汐止區汐萬路一段312號","121.650648333333","25.0753083333333","6501100","汐止區"
"221033","647-BX","2017/12/29 18:49:45","新北市汐止區南勢街1巷1號","121.62702","25.0373983333333","6501100","汐止區"
"221002","707-TV","2017/12/29 18:49:30","新北市汐止區大同路一段149號","121.632066666667","25.0560583333333","6501100","汐止區"
"221018","753-BX","2017/12/29 18:49:39","新北市汐止區茄苳路59號","121.666646666667","25.070695","6501100","汐止區"
"220079","145-BY","2017/12/29 18:49:36","新北市板橋區民權路202巷2弄1號","121.459516666667","25.0141616666667","6500100","板橋區"
"220080","200-UY","2017/12/29 18:49:48","新北市板橋區大觀路二段265巷20弄52號","121.44121","24.9979966666667","6500100","板橋區"
"220082","610-BX","2017/12/29 18:49:42","新北市板橋區篤行路三段玉平巷68弄3號","121.427876666667","24.9860483333333","6500100","板橋區"
"220101","245-BX","2017/12/29 18:49:37","新北市板橋區民生路二段161巷3號","121.470205","25.0197783333333","6500100","板橋區"
"220056","276-BY","2017/12/29 18:49:42","新北市板橋區四川路二段14號","121.455966666667","24.9962083333333","6500100","板橋區"
"220072","277-BY","2017/12/29 18:49:41","新北市板橋區金門街23號","121.433501666667","24.9944566666667","6500100","板橋區"
"220071","283-VK","2017/12/29 18:49:43","新北市板橋區四川路一段387號","121.457955","24.9989016666667","6500100","板橋區"
"220094","285-UM","2017/12/29 18:49:36","新北市板橋區民生路二段161巷3號","121.470205","25.0198383333333","6500100","板橋區"
"220053","285-VK","2017/12/29 18:49:34","新北市板橋區民生路二段123號","121.470605","25.0186983333333","6500100","板橋區"
"220083","286-VK","2017/12/29 18:49:40","新北市板橋區僑中三街39號","121.445151666667","25.004865","6500100","板橋區"
"220081","287-VK","2017/12/29 18:49:33","新北市板橋區南雅西路二段92號","121.452495","25.0112666666667","6500100","板橋區"
"220090","288-VK","2017/12/29 18:49:43","新北市板橋區民生路二段120號","121.470443333333","25.0196633333333","6500100","板橋區"
"220061","295-UM","2017/12/29 18:49:30","新北市板橋區太和街4巷10號","121.474223333333","25.0198716666667","6500100","板橋區"
"220084","296-UM","2017/12/29 18:49:41","新北市板橋區大觀路二段150巷37號","121.441568333333","25.00008","6500100","板橋區"
"220075","297-UM","2017/12/29 18:49:38","新北市板橋區館前西路162號","121.452855","25.0085366666667","6500100","板橋區"
"220062","303-R5","2017/12/29 18:49:33","新北市板橋區中山路二段25號","121.472536666667","25.0152133333333","6500100","板橋區"
"220098","317-R6","2017/12/29 18:49:44","新北市板橋區民生路二段161巷17號","121.470341666667","25.0193233333333","6500100","板橋區"
"220080","461-BY","2017/12/29 09:11:34","新北市板橋區華東街1-9號","121.448086666667","24.9948333333333","6500100","板橋區"
"220064","486-VK","2017/12/29 18:49:44","新北市板橋區中山路二段37號","121.473023333333","25.0155233333333","6500100","板橋區"
"220089","487-VK","2017/12/29 18:49:32","新北市板橋區民生路二段161巷1號","121.46991","25.0200083333333","6500100","板橋區"
"220088","491-VK","2017/12/29 18:49:42","新北市板橋區民生路二段161巷1號","121.469968333333","25.0201483333333","6500100","板橋區"
"220035","560-BX","2017/12/29 18:49:39","新北市板橋區中正路275巷79弄20號","121.45199","25.0174233333333","6500100","板橋區"
"220103","561-BX","2017/12/29 18:49:47","新北市板橋區民生路二段120號","121.470343333333","25.0197066666667","6500100","板橋區"
"220063","609-BX","2017/12/29 18:49:38","新北市板橋區介壽街119號","121.47049","25.018585","6500100","板橋區"
"220091","637-BX","2017/12/29 18:49:38","新北市板橋區民生路二段161巷1號","121.470133333333","25.0201066666667","6500100","板橋區"
"220057","686-BX","2017/12/29 18:49:47","新北市板橋區華東街260號","121.452731666667","25.0016383333333","6500100","板橋區"
"220077","687-BX","2017/12/29 18:49:42","新北市板橋區僑中二街152號","121.444831666667","25.00438","6500100","板橋區"
"220093","689-BX","2017/12/29 16:52:29","新北市板橋區民生路二段161巷1號","121.470283333333","25.0199033333333","6500100","板橋區"
"220054","741-BX","2017/12/29 18:49:47","新北市板橋區館前西路44號","121.45858","25.0069183333333","6500100","板橋區"
"220055","827-TW","2017/12/29 18:49:39","新北市板橋區南雅南路一段1巷35號","121.457636666667","25.0064783333333","6500100","板橋區"
"220067","829-TW","2017/12/29 18:49:39","新北市板橋區中山路二段50-1號","121.473298333333","25.01555","6500100","板橋區"
"220102","830-TW","2017/12/29 18:48:24","新北市板橋區民生路二段120號","121.470626666667","25.0194933333333","6500100","板橋區"
"220074","895-R6","2017/12/29 18:49:48","新北市板橋區南門街44號","121.456996666667","25.0082","6500100","板橋區"
"220073","985-R7","2017/12/29 18:49:45","新北市板橋區西門街18-5號","121.454445","25.0111416666667","6500100","板橋區"
"220097","AAC-210","2017/12/29 18:49:34","新北市板橋區民生路二段120號","121.470505","25.01943","6500100","板橋區"
"220070","AAC-253","2017/12/29 18:49:33","新北市板橋區館前西路49號","121.457936666667","25.006735","6500100","板橋區"
