"lineid","car","time","location","longitude","latitude","cityid","cityname"
"234046","148-BY","2017/12/29 19:19:33","新北市永和區秀朗路二段88號","121.523408333333","25.0016416666667","6500400","永和區"
"234013","149-BY","2017/12/29 19:19:35","新北市永和區信義路67巷1號","121.512725","25.01272","6500400","永和區"
"234007","207-UY","2017/12/29 19:19:42","新北市永和區中山路一段320號","121.506705","25.0068983333333","6500400","永和區"
"234081","298-R6","2017/12/29 19:19:41","新北市永和區福和路7巷11弄2號","121.525518333333","25.0072083333333","6500400","永和區"
"234038","336-UY","2017/12/29 19:19:37","新北市永和區民樂街70號","121.527401666667","24.9984666666667","6500400","永和區"
"234064","337-UY","2017/12/29 19:19:39","新北市永和區永元路17巷9號","121.521296666667","25.000665","6500400","永和區"
"234086","338-UY","2017/12/29 19:19:40","新北市永和區永亨路9號","121.519381666667","25.0057866666667","6500400","永和區"
"234054","553-UM","2017/12/29 19:19:32","新北市永和區中興街45號","121.51639","25.0117416666667","6500400","永和區"
"234017","745-BX","2017/12/29 19:19:44","新北市永和區文化路144巷27號","121.51246","25.0167233333333","6500400","永和區"
"234030","746-BX","2017/12/28 21:35:37","新北市五股區成泰路三段362號","121.451473333333","25.0985116666667","6500400","永和區"
"234061","AAD-866","2017/12/29 19:19:51","新北市永和區秀朗路一段175號","121.517093333333","25.003655","6500400","永和區"
"234070","847-RS","2017/12/29 19:19:46","新北市永和區豫溪街99號","121.518675","25.010055","6500400","永和區"
"234042","862-TW","2017/12/29 19:19:43","新北市永和區保平路151巷17號","121.510671666667","25.0051283333333","6500400","永和區"
"234050","863-TW","2017/12/29 19:19:53","新北市永和區仁愛路104巷8號","121.512146666667","25.0135783333333","6500400","永和區"
"234026","9371-KE","2017/12/29 19:19:42","新北市永和區得和路42巷23號","121.515318333333","24.9996116666667","6500400","永和區"
"234011","9373-KE","2017/12/29 19:19:45","新北市永和區保福路二段23巷21號","121.51007","25.0112066666667","6500400","永和區"
"249001","173-UM","2017/12/29 19:19:40","新北市八里區中華路二段145號","121.409111666667","25.152405","6502300","八里區"
"249003","593-UM","2017/12/29 19:19:48","新北市八里區中山路二段466巷36弄20號","121.39855","25.1488583333333","6502300","八里區"
"248018","225-UY","2017/12/29 19:19:46","新北市五股區民義路一段255-6號","121.426101666667","25.0914483333333","6501500","五股區"
"248012","247-BX","2017/12/29 19:19:39","新北市五股區中興路四段48巷11號","121.438483333333","25.08342","6501500","五股區"
"248004","677-BX","2017/12/29 19:19:44","新北市五股區五福路31號","121.433775","25.0893433333333","6501500","五股區"
"248002","678-BX","2017/12/29 19:19:51","新北市五股區凌雲路一段158巷14號","121.447773333333","25.1034283333333","6501500","五股區"
"248010","682-TV","2017/12/29 19:19:51","新北市五股區水碓一路23號","121.430571666667","25.0712883333333","6501500","五股區"
"234023","9380-KE","2017/12/29 19:19:41","新北市永和區竹林路124巷5號","121.51961","25.0113116666667","6500400","永和區"
"234077","969-R7","2017/12/29 19:19:48","新北市永和區民權路36巷19號","121.518868333333","24.9990466666667","6500400","永和區"
"234074","AAC-211","2017/12/29 19:19:42","新北市永和區竹林路85號","121.51956","25.0123183333333","6500400","永和區"
"234067","AAC-212","2017/12/29 19:19:49","新北市永和區保平路50巷3號","121.51122","25.0072666666667","6500400","永和區"
"234003","AAC-295","2017/12/29 19:19:46","新北市永和區中山路一段105號","121.511015","25.0103783333333","6500400","永和區"
"244013","069-UM","2017/12/29 19:19:36","新北市林口區麗園一街2巷1號","121.376028333333","25.071945","6501700","林口區"
"244019","403-UM","2017/12/29 19:19:53","新北市林口區文化二路一段577號","121.375861666667","25.07831","6501700","林口區"
"244025","742-UY","2017/12/29 19:18:09","新北市林口區嘉寶里11鄰67號","121.339253333333","25.1098983333333","6501700","林口區"
"244023","483-VK","2017/12/29 19:19:46","新北市林口區文化三路一段636號","121.372058333333","25.0773633333333","6501700","林口區"
"244017","485-VK","2017/12/29 19:19:38","新北市林口區嘉寶里15鄰43號","121.340926666667","25.1071883333333","6501700","林口區"
"244011","656-BX","2017/12/29 19:19:37","新北市林口區中山路522號","121.378371666667","25.083345","6501700","林口區"
"243012","AAD-798","2017/12/29 19:19:41","新北市泰山區仁愛路100巷27號","121.433493333333","25.0551566666667","6501600","泰山區"
"243011","297-R6","2017/12/29 19:19:48","新北市泰山區中央路11巷2號","121.426313333333","25.0427116666667","6501600","泰山區"
"243015","380-SR","2017/12/29 19:19:38","新北市泰山區公園路71號","121.42638","25.0553766666667","6501600","泰山區"
"243014","421-VK","2017/12/29 19:19:38","新北市泰山區泰林路二段208號","121.43327","25.0613933333333","6501600","泰山區"
"243010","KEA-2215","2017/12/29 19:19:40","新北市泰山區明志路一段507號","121.430595","25.05451","6501600","泰山區"
"243009","KEA-2216","2017/12/29 19:19:50","新北市泰山區明志路一段19巷14號","121.434376666667","25.0655733333333","6501600","泰山區"
"243013","646-TV","2017/12/29 19:19:34","新北市泰山區明志路三段145巷2弄1號","121.425375","25.0399083333333","6501600","泰山區"
"243016","680-BX","2017/12/29 19:19:33","新北市泰山區工專路8號","121.423981666667","25.0395366666667","6501600","泰山區"
"222003","436-BY","2017/12/29 19:19:45","新北市深坑區深南路206號","121.626708333333","25.0160183333333","6501800","深坑區"
"222002","659-BX","2017/12/29 19:19:40","新北市深坑區北深路一段177號","121.632555","25.0108733333333","6501800","深坑區"
"222001","696-SL","2017/12/29 19:19:48","新北市深坑區北深路二段84號","121.6175","25.0035233333333","6501800","深坑區"
"231041","001-UM","2017/12/29 19:19:50","新北市新店區溪園路245-6號","121.525443333333","24.9833216666667","6500600","新店區"
"231055","0291-UT","2017/12/29 19:19:37","新北市新店區新生街13巷42號","121.538973333333","24.966585","6500600","新店區"
"231066","0293-UT","2017/12/29 19:19:49","新北市新店區安康路三段355巷45號","121.485038333333","24.9493466666667","6500600","新店區"
"231059","046-UY","2017/12/29 19:19:46","新北市新店區安和路三段9巷8號","121.517186666667","24.980805","6500600","新店區"
"231061","047-UY","2017/12/29 19:19:44","新北市新店區安康路一段228號","121.523171666667","24.9636716666667","6500600","新店區"
"231060","106-UY","2017/12/29 19:19:48","新北市新店區安康路二段130號","121.512615","24.9624","6500600","新店區"
"231051","107-UY","2017/12/29 19:19:37","新北市新店區中央路63號","121.532416666667","24.977055","6500600","新店區"
"231048","108-UY","2017/12/29 19:19:48","新北市新店區中興路一段282-3號","121.54611","24.9683433333333","6500600","新店區"
"231053","187-VK","2017/12/29 19:19:41","新北市新店區自強路251號","121.548148333333","24.9195816666667","6500600","新店區"
"231050","KEA-2219","2017/12/29 19:19:45","新北市新店區竹林路97巷17號","121.55503","24.9491883333333","6500600","新店區"
"231046","278-BY","2017/12/29 19:19:46","新北市新店區華城路36巷1-1號","121.528436666667","24.95537","6500600","新店區"
"231054","AAD-862","2017/12/29 19:19:45","新北市新店區文中路16號","121.537963333333","24.956995","6500600","新店區"
"231058","3712-VJ","2017/12/29 19:19:40","新北市新店區北新路二段90號","121.543045","24.9729933333333","6500600","新店區"
"231065","512-UM","2017/12/29 19:19:41","新北市新店區安祥路109巷3弄104號","121.479311666667","24.9604583333333","6500600","新店區"
"231064","515-UM","2017/12/29 19:19:38","新北市新店區安忠路57巷26弄33號","121.512166666667","24.957855","6500600","新店區"
"231045","617-UM","2017/12/29 19:19:40","新北市新店區北宜路一段260號","121.545681666667","24.9527766666667","6500600","新店區"
"231040","619-UM","2017/12/29 19:19:37","新北市新店區三民路20巷3號","121.537346666667","24.9708816666667","6500600","新店區"
"231042","641-BX","2017/12/29 19:19:31","新北市新店區北宜路一段3號","121.538438333333","24.9585183333333","6500600","新店區"
"231063","645-TV","2017/12/29 19:19:50","新北市新店區達觀路14巷1-3號","121.504078333333","24.942475","6500600","新店區"
"231049","719-UM","2017/12/29 19:19:36","新北市新店區明德路111號","121.541543333333","24.9794366666667","6500600","新店區"
"231062","720-UM","2017/12/29 19:19:33","新北市新店區莒光路67號","121.523716666667","24.9565983333333","6500600","新店區"
"231044","897-TW","2017/12/29 19:19:38","新北市新店區中興路三段301號","121.542026666667","24.9853833333333","6500600","新店區"
"231043","899-TW","2017/12/29 19:19:39","新北市新店區北新路二段156-1號","121.542953333333","24.9755433333333","6500600","新店區"
"241009","060-VK","2017/12/29 19:19:50","新北市三重區溪尾街230巷63號","121.48629","25.08122","6500200","三重區"
"241031","061-VK","2017/12/29 19:19:42","新北市三重區重新路四段91號","121.48621","25.0555416666667","6500200","三重區"
"241017","063-VK","2017/12/29 19:19:52","新北市三重區大同北路213號","121.492008333333","25.06565","6500200","三重區"
"241026","156-TC","2017/12/29 19:19:33","新北市三重區同安東街54號","121.498058333333","25.0572916666667","6500200","三重區"
"241022","267-UM","2017/12/29 19:19:39","新北市三重區重陽路二段72號","121.487221666667","25.0641216666667","6500200","三重區"
"241032","269-UM","2017/12/29 19:19:45","新北市三重區新生街97號","121.483491666667","25.0593666666667","6500200","三重區"
"241007","398-BY","2017/12/29 19:19:48","新北市三重區慈愛街49號","121.486023333333","25.079135","6500200","三重區"
"241020","413-TH","2017/12/29 19:19:42","新北市三重區忠孝路一段87號","121.489895","25.07222","6500200","三重區"
"241030","480-VK","2017/12/29 19:19:39","新北市三重區成功路41巷99號","121.491451666667","25.053265","6500200","三重區"
"241006","AAD-863","2017/12/29 19:19:37","新北市三重區車路頭街182號","121.483723333333","25.0771133333333","6500200","三重區"
"241035","743-BX","2017/12/29 19:19:54","新北市三重區新北大道一段7號","121.489548333333","25.061215","6500200","三重區"
"241029","942-UM","2017/12/29 19:19:45","新北市三重區重安街39-2號","121.49135","25.0566883333333","6500200","三重區"
"235066","003-UY","2017/12/29 19:19:38","新北市中和區景新街2號","121.502616666667","24.9996816666667","6500300","中和區"
"235064","005-UY","2017/12/29 19:19:40","新北市中和區中和路33號","121.499941666667","25.00172","6500300","中和區"
"235063","006-UY","2017/12/29 19:19:36","新北市中和區連城路249巷26弄6號","121.494403333333","24.9956","6500300","中和區"
"235046","031-BX","2017/12/29 19:19:43","新北市中和區忠孝街2巷16號","121.510751666667","24.9813766666667","6500300","中和區"
"235056","096-UM","2017/12/29 19:19:52","新北市中和區中正路1163號","121.481603333333","25.009185","6500300","中和區"
"235039","097-UM","2017/12/29 19:19:42","新北市中和區景平路64巷14弄15號","121.522743333333","24.9912766666667","6500300","中和區"
"235040","150-BY","2017/12/29 19:19:48","新北市中和區保健路61巷3號","121.509666666667","24.9974033333333","6500300","中和區"
"235058","151-BY","2017/12/29 19:19:39","新北市中和區連城路477巷6弄17-3號","121.482386666667","24.9950016666667","6500300","中和區"
"235055","183-VK","2017/12/29 19:19:35","新北市中和區德光路39號","121.470468333333","25.0042033333333","6500300","中和區"
"235038","185-VK","2017/12/29 19:19:31","新北市中和區大智街55巷39號","121.520325","24.9930966666667","6500300","中和區"
"235049","186-VK","2017/12/29 19:19:55","新北市中和區景新街235號","121.50809","24.9944883333333","6500300","中和區"
"235067","255-BX","2017/12/29 19:19:43","新北市中和區新生街148巷16號","121.482546666667","25.0007183333333","6500300","中和區"
"235044","293-VK","2017/12/29 19:19:42","新北市中和區復興路304號","121.501318333333","24.990395","6500300","中和區"
"235072","301-VK","2017/12/29 19:19:51","新北市中和區連城路265號","121.491333333333","24.996215","6500300","中和區"
"235043","352-BY","2017/12/29 19:19:43","新北市中和區景平路428號","121.507333333333","24.9932016666667","6500300","中和區"
"235068","377-QA","2017/12/29 19:19:39","新北市中和區中正路220號","121.496471666667","24.9938316666667","6500300","中和區"
"235061","378-QA","2017/12/29 19:19:48","新北市中和區員山路294巷13號","121.482096666667","25.002435","6500300","中和區"
"235050","4979-A6","2017/12/29 19:19:47","新北市中和區景安路208巷44號","121.502351666667","24.9921983333333","6500300","中和區"
"235069","4980-A6","2017/12/29 19:19:43","新北市中和區莊敬路33巷24號","121.500128333333","25.0054883333333","6500300","中和區"
"235042","551-UM","2017/12/29 19:19:42","新北市中和區大勇街60巷16號","121.518705","24.9946016666667","6500300","中和區"
"235070","558-UM","2017/12/29 19:19:46","新北市中和區中和路47號","121.500121666667","25.0014033333333","6500300","中和區"
"235045","565-BX","2017/12/29 19:19:42","新北市中和區景新街447-1號","121.513066666667","24.988685","6500300","中和區"
"235054","640-BX","2017/12/29 19:19:52","新北市中和區國光街109巷4-1號","121.469951666667","25.0003633333333","6500300","中和區"
"235060","647-TV","2017/12/29 19:19:47","新北市中和區民有街19號","121.475735","25.0053233333333","6500300","中和區"
"235047","732-UM","2017/12/29 19:19:41","新北市中和區景平路239巷32號","121.508485","24.9921716666667","6500300","中和區"
"235057","801-TS","2017/12/29 19:19:49","新北市中和區員山路333號","121.481275","25.0013783333333","6500300","中和區"
"235041","802-TS","2017/12/29 19:19:41","新北市中和區中和路260號","121.507836666667","24.9994133333333","6500300","中和區"
"235052","805-TS","2017/12/29 19:19:36","新北市中和區華新街143巷19號","121.506653333333","24.98093","6500300","中和區"
"235048","896-TW","2017/12/29 19:19:37","新北市中和區仁愛街95號","121.511983333333","24.9867466666667","6500300","中和區"
"235053","900-TW","2017/12/29 19:19:49","新北市中和區華安街19巷7號","121.46715","24.9979766666667","6500300","中和區"
"235065","911-UM","2017/12/29 19:19:51","新北市中和區中山路二段64巷12弄4號","121.503871666667","25.0053083333333","6500300","中和區"
"235051","157-BY","2017/12/29 19:19:41","新北市中和區景平路239巷33弄33號","121.509593333333","24.99152","6500300","中和區"
"235037","AAC-213","2017/12/29 19:19:38","新北市中和區秀朗路三段10巷37弄4號","121.524048333333","24.995845","6500300","中和區"
"235059","AAC-215","2017/12/29 19:19:45","新北市中和區錦和路195巷14號","121.491313333333","24.9908916666667","6500300","中和區"
"220068","013-TV","2017/12/29 15:56:28","新北市八里區中華路三段7巷5號","121.397728333333","25.1436133333333","6500100","板橋區"
"220065","072-UY","2017/12/29 19:19:48","新北市板橋區民族路131號","121.467493333333","25.0081683333333","6500100","板橋區"
"220086","073-UY","2017/12/29 19:19:40","新北市板橋區中正路216巷95號","121.458746666667","25.0192766666667","6500100","板橋區"
"220106","075-UY","2017/12/29 19:19:46","新北市板橋區長江路二段279號","121.470176666667","25.0330333333333","6500100","板橋區"
"220069","AAD-861","2017/12/29 19:19:34","新北市板橋區大華街49號","121.459438333333","25.0035533333333","6500100","板橋區"
"220096","120-SR","2017/12/29 19:19:44","新北市板橋區大同街26巷14號","121.478148333333","25.0268666666667","6500100","板橋區"
"247004","336-TH","2017/12/29 19:19:48","新北市五股區成泰路三段544-1號","121.455603333333","25.100305","6501400","蘆洲區"
"226004","205-ST","2017/12/29 19:19:45","新北市平溪區十分里十分街126號","121.777183333333","25.0432083333333","6502400","平溪區"
"228002","663-BX","2017/12/29 19:19:52","新北市貢寮區龍門里復興街46-1號","121.928486666667","25.0295716666667","6502600","貢寮區"
"228001","670-TC","2017/12/29 19:19:50","新北市貢寮區真理里新港街10號","121.92554","25.0543816666667","6502600","貢寮區"
"228003","828-UM","2017/12/29 19:19:51","新北市貢寮區和美里和美街19-2號","121.912798333333","25.0826033333333","6502600","貢寮區"
"224006","676-BX","2017/12/29 19:19:47","新北市瑞芳區中山路266號","121.79934","25.10762","6501200","瑞芳區"
"224009","285-BY","2017/12/29 19:19:37","新北市瑞芳區海濱路136-1號","121.83033","25.1223133333333","6501200","瑞芳區"
"224008","275-VK","2017/12/29 19:19:45","新北市瑞芳區一坑路297號","121.801113333333","25.1081933333333","6501200","瑞芳區"
"224005","271-BY","2017/12/29 19:19:48","新北市瑞芳區員山子路23號","121.821391666667","25.103065","6501200","瑞芳區"
"227011","400-TW","2017/12/29 19:19:50","新北市雙溪區新基里新基北街40號","121.868511666667","25.03803","6502500","雙溪區"
"227003","030-BX","2017/12/29 19:19:41","新北市雙溪區平林里梅竹蹊66-1號","121.86015","25.035815","6502500","雙溪區"
"253005","032-BX","2017/12/29 19:19:37","新北市石門區阿里荖41-1號","121.60538","25.2832666666667","6502200","石門區"
"253006","741-TV","2017/12/29 19:19:42","新北市石門區楓林23-10號","121.538731666667","25.29122","6502200","石門區"
"208002","742-BX","2017/12/29 19:19:44","新北市金山區中華路132-1號","121.633216666667","25.221","6502700","金山區"
"208003","665-BX","2017/12/29 19:19:52","新北市金山區中山路165號","121.63869","25.220545","6502700","金山區"
"208001","761-BX","2017/12/29 19:19:49","新北市金山區民生路69號","121.640121666667","25.2196366666667","6502700","金山區"
"251001","011-UM","2017/12/29 19:19:30","新北市淡水區自強路201巷39號","121.4621","25.1268516666667","6501000","淡水區"
"251013","180-VK","2017/12/29 19:19:39","新北市淡水區安子內12號","121.481533333333","25.2190933333333","6501000","淡水區"
"251015","182-VK","2017/12/29 19:19:53","新北市淡水區北新路三段38巷7號","121.484578333333","25.1870083333333","6501000","淡水區"
"251010","413-VK","2017/12/29 19:19:43","新北市淡水區沙崙路27號","121.421516666667","25.18164","6501000","淡水區"
"251005","443-VK","2017/12/29 19:19:40","新北市淡水區水源街一段34巷2號","121.443245","25.1721966666667","6501000","淡水區"
"251006","561-UM","2017/12/29 19:19:50","新北市淡水區大信街33號","121.442026666667","25.1773366666667","6501000","淡水區"
"251009","575-R6","2017/12/29 19:19:52","新北市淡水區中正路114號","121.441778333333","25.1695833333333","6501000","淡水區"
"251007","577-R6","2017/12/29 19:19:50","新北市淡水區民生路117巷36號","121.464911666667","25.1396966666667","6501000","淡水區"
"251003","673-BX","2017/12/29 19:19:40","新北市淡水區中山路159-7號","121.440868333333","25.173275","6501000","淡水區"
"207003","550-UM","2017/12/29 19:19:32","新北市萬里區大鵬里萬里加投79-3號","121.647303333333","25.212315","6502800","萬里區"
"207004","225-TW","2017/12/29 19:19:35","新北市萬里區萬里里成功新村44號","121.687646666667","25.1746466666667","6502800","萬里區"
"252002","178-VK","2017/12/29 19:19:43","新北市三芝區淡金路二段26號","121.502801666667","25.2597316666667","6502100","三芝區"
"252001","292-VK","2017/12/29 19:19:41","新北市三芝區長勤街9巷11弄3號","121.501833333333","25.2546633333333","6502100","三芝區"
"237004","078-UY","2017/12/29 19:19:35","新北市三峽區有木205-1號","121.439065","24.85149","6500900","三峽區"
"237007","153-BY","2017/12/29 19:19:42","新北市三峽區二鬮路178號","121.359086666667","24.9068616666667","6500900","三峽區"
"237009","210-TH","2017/12/29 19:19:31","新北市三峽區和平街17號","121.370416666667","24.9351766666667","6500900","三峽區"
"237013","252-BX","2017/12/29 19:19:52","新北市三峽區大同路39巷45號","121.37835","24.92754","6500900","三峽區"
"237012","275-BY","2017/12/29 19:19:47","新北市三峽區三樹路222巷236弄23號","121.391393333333","24.943035","6500900","三峽區"
"237008","302-VK","2017/12/29 19:19:41","新北市三峽區大同路176號","121.372563333333","24.9267916666667","6500900","三峽區"
"237014","433-BY","2017/12/29 19:19:40","新北市三峽區中山路63巷4號","121.366996666667","24.93443","6500900","三峽區"
"237006","5529-G3","2017/12/29 19:19:54","新北市三峽區介壽路一段271號","121.380235","24.930225","6500900","三峽區"
"237011","572-TV","2017/12/29 13:11:13","新北市三峽區中山路459巷163-3號","121.348653333333","24.9330233333333","6500900","三峽區"
"237015","649-BX","2017/12/29 18:12:31","新北市三峽區紫新路47號","121.422343333333","24.9217916666667","6500900","三峽區"
"237005","AKY-6261","2017/12/29 19:19:46","新北市三峽區中山路459巷50-2號","121.356003333333","24.93771","6500900","三峽區"
"236072","105-UM","2017/12/29 19:19:37","新北市土城區學成路148號","121.448461666667","24.9894333333333","6501300","土城區"
"236079","166-UM","2017/12/29 19:19:34","新北市土城區中州路3巷33弄1號","121.413595","24.956595","6501300","土城區"
"236027","269-VK","2017/12/29 19:19:46","新北市土城區中央路二段149巷31-2號","121.442988333333","24.9766466666667","6501300","土城區"
"236015","270-VK","2017/12/29 19:19:39","新北市土城區學府路一段52號","121.45744","24.9885833333333","6501300","土城區"
"236022","401-BY","2017/12/29 19:19:33","新北市土城區峰廷街3號","121.469103333333","24.9873583333333","6501300","土城區"
"236059","912-UM","2017/12/29 19:19:51","新北市土城區中央路三段73-2號","121.438886666667","24.96882","6501300","土城區"
"236050","913-UM","2017/12/29 19:19:53","新北市土城區明德路一段398-1號","121.453666666667","24.9790783333333","6501300","土城區"
"242025","615-BX","2017/12/29 19:19:37","新北市新莊區新泰路255巷83號","121.442171666667","25.0388833333333","6500500","新莊區"
"242009","173-VK","2017/12/29 18:50:42","新北市新莊區三和路12-21號","121.441936666667","25.038795","6500500","新莊區"
"238015","755-BX","2017/12/29 19:19:52","新北市樹林區備內街1巷21號","121.413213333333","24.9867616666667","6500700","樹林區"
"238023","601-UM","2017/12/29 19:19:42","新北市樹林區三興路51號","121.395465","25.0143633333333","6500700","樹林區"
"238019","599-UM","2017/12/29 19:19:48","新北市樹林區鎮前街347巷1弄24號","121.417296666667","24.983905","6500700","樹林區"
"238018","571-TV","2017/12/29 19:19:52","新北市樹林區中華路134號","121.417093333333","24.980415","6500700","樹林區"
"238024","5061-A6","2017/12/29 19:19:42","新北市樹林區福德街3號","121.40168","24.9757116666667","6500700","樹林區"
"238021","KEA-2217","2017/12/29 19:19:43","新北市樹林區柑園街二段382巷1號","121.368236666667","24.9493533333333","6500700","樹林區"
"238022","KEA-2213","2017/12/29 19:19:37","新北市樹林區東興街3號","121.409165","24.9802916666667","6500700","樹林區"
"238025","303-VK","2017/12/29 19:19:43","新北市樹林區中山路二段133號","121.4068","24.9791483333333","6500700","樹林區"
"238017","283-BY","2017/12/29 19:19:42","新北市樹林區光興街18號","121.412378333333","25.0029833333333","6500700","樹林區"
"238014","282-BY","2017/12/29 19:19:48","新北市樹林區千歲街57號","121.425741666667","24.99676","6500700","樹林區"
"238026","172-UY","2017/12/29 19:19:46","新北市樹林區佳園路三段71號","121.387611666667","24.9528116666667","6500700","樹林區"
"238016","169-UY","2017/12/29 19:19:45","新北市樹林區中山路二段76巷8號","121.415148333333","24.9844216666667","6500700","樹林區"
"239007","AAC-297","2017/12/29 19:19:38","新北市鶯歌區大湖路146號","121.34271","24.9643266666667","6500800","鶯歌區"
"239006","891-R6","2017/12/29 19:19:39","新北市鶯歌區文化路68-1號","121.355523333333","24.9542883333333","6500800","鶯歌區"
"239008","527-UM","2017/12/29 19:19:45","新北市鶯歌區大湖路468巷8號","121.33977","24.9725616666667","6500800","鶯歌區"
"239005","526-UM","2017/12/29 19:19:52","新北市鶯歌區中湖街76號","121.34813","24.97278","6500800","鶯歌區"
"239001","417-VK","2017/12/29 19:19:34","新北市鶯歌區建國路367巷1號","121.339131666667","24.949535","6500800","鶯歌區"
"239003","360-BY","2017/12/29 19:19:36","新北市鶯歌區建國路302號","121.344958333333","24.9526633333333","6500800","鶯歌區"
"239002","359-BY","2017/12/29 19:19:37","新北市鶯歌區西湖街45巷1號","121.340286666667","24.9584283333333","6500800","鶯歌區"
"239004","193-VK","2017/12/29 19:19:50","新北市鶯歌區二甲路50-4號","121.337483333333","24.93468","6500800","鶯歌區"
"221008","489-VK","2017/12/29 19:19:36","新北市汐止區康寧街279號","121.625985","25.0671083333333","6501100","汐止區"
"221036","130-UY","2017/12/29 19:19:39","新北市汐止區汐萬路一段256巷1號","121.651926666667","25.07483","6501100","汐止區"
"221010","269-BY","2017/12/29 19:19:48","新北市汐止區康寧街901號","121.651418333333","25.07508","6501100","汐止區"
"221012","276-VK","2017/12/29 13:41:13","新北市汐止區汐萬路一段256巷3號","121.653421666667","25.074595","6501100","汐止區"
"221012","278-VK","2017/12/29 19:19:51","新北市汐止區汐萬路一段266號","121.65093","25.07392","6501100","汐止區"
"221023","279-VK","2017/12/29 19:19:51","新北市汐止區康寧街901號","121.650973333333","25.075205","6501100","汐止區"
"221027","281-BY","2017/12/29 19:19:50","新北市汐止區汐萬路一段160號","121.652618333333","25.071445","6501100","汐止區"
"221029","298-VK","2017/12/29 19:19:47","新北市汐止區康寧街901號","121.651681666667","25.0749016666667","6501100","汐止區"
"221021","299-VK","2017/12/29 19:19:36","新北市汐止區康寧街901號","121.65149","25.07496","6501100","汐止區"
"221031","353-TW","2017/12/29 19:19:39","新北市汐止區福德一路1-1號","121.639893333333","25.0720683333333","6501100","汐止區"
"221015","567-BX","2017/12/29 19:19:44","新北市汐止區康寧街901號","121.651576666667","25.0749283333333","6501100","汐止區"
"221025","623-UM","2017/12/29 19:19:34","新北市汐止區汐萬路一段115巷36號","121.653391666667","25.0702666666667","6501100","汐止區"
"221038","646-BX","2017/12/29 19:19:38","新北市汐止區汐萬路一段312號","121.65069","25.075305","6501100","汐止區"
"221033","647-BX","2017/12/29 19:19:44","新北市汐止區南勢街3號","121.627105","25.0374366666667","6501100","汐止區"
"221002","707-TV","2017/12/29 19:19:50","新北市汐止區大同路一段319號","121.637948333333","25.0591116666667","6501100","汐止區"
"221018","753-BX","2017/12/29 19:19:39","新北市汐止區康寧街901號","121.651638333333","25.0749316666667","6501100","汐止區"
"220079","145-BY","2017/12/29 19:19:36","新北市板橋區民權路202巷21弄1號","121.460651666667","25.017145","6500100","板橋區"
"220080","200-UY","2017/12/29 19:19:49","新北市板橋區大觀路二段3巷1號","121.447325","25.0038966666667","6500100","板橋區"
"220082","610-BX","2017/12/29 19:19:42","新北市板橋區金門街355-1號","121.428593333333","24.984955","6500100","板橋區"
"220101","245-BX","2017/12/29 19:19:43","新北市板橋區莊敬路262-1號","121.474036666667","25.02168","6500100","板橋區"
"220056","276-BY","2017/12/29 19:19:42","新北市板橋區和平路4-5號","121.458506666667","24.9944","6500100","板橋區"
"220072","277-BY","2017/12/29 19:19:37","新北市板橋區金門街280巷12號","121.429085","24.9862933333333","6500100","板橋區"
"220071","283-VK","2017/12/29 19:19:43","新北市中和區華安街2號","121.46543","24.99856","6500100","板橋區"
"220094","285-UM","2017/12/29 19:19:36","新北市板橋區吳鳳路82號","121.466938333333","25.0312783333333","6500100","板橋區"
"220053","285-VK","2017/12/29 19:19:34","新北市板橋區富山街26號","121.478128333333","25.021815","6500100","板橋區"
"220083","286-VK","2017/12/29 19:19:40","新北市板橋區大觀路二段174巷186弄1號","121.44238","25.0036983333333","6500100","板橋區"
"220081","287-VK","2017/12/29 19:19:53","新北市板橋區南雅西路一段116號","121.452778333333","25.006465","6500100","板橋區"
"220090","288-VK","2017/12/29 19:19:55","新北市板橋區長江路一段106巷13弄9號","121.460461666667","25.02928","6500100","板橋區"
"220061","295-UM","2017/12/29 19:19:50","新北市板橋區中山路二段318巷20弄21號","121.480963333333","25.0188666666667","6500100","板橋區"
"220084","296-UM","2017/12/29 19:19:51","新北市板橋區滿平街136巷10弄12號","121.427245","24.98744","6500100","板橋區"
"220075","297-UM","2017/12/29 19:19:38","新北市板橋區南雅西路一段116號","121.452691666667","25.0064683333333","6500100","板橋區"
"220062","303-R5","2017/12/29 19:19:34","新北市板橋區三民路二段153巷34弄1號","121.481166666667","25.0142366666667","6500100","板橋區"
"220092","307-R5","2017/12/29 19:19:35","新北市板橋區光武街48巷23號","121.467608333333","25.0269566666667","6500100","板橋區"
"220098","317-R6","2017/12/29 19:19:44","新北市板橋區四維路245號","121.463746666667","25.0275633333333","6500100","板橋區"
"220080","461-BY","2017/12/29 09:11:34","新北市板橋區華東街1-9號","121.448086666667","24.9948333333333","6500100","板橋區"
"220064","486-VK","2017/12/29 19:19:40","新北市板橋區板新路238號","121.468115","25.0160533333333","6500100","板橋區"
"220089","487-VK","2017/12/29 19:19:52","新北市板橋區文化路二段37號","121.468965","25.0249216666667","6500100","板橋區"
"220088","491-VK","2017/12/29 19:19:42","新北市板橋區雙十路二段10-3號","121.476413333333","25.0268633333333","6500100","板橋區"
"220035","560-BX","2017/12/29 19:19:39","新北市板橋區瑞安街31巷8-1號","121.455951666667","25.0226616666667","6500100","板橋區"
"220103","561-BX","2017/12/29 19:19:47","新北市板橋區介壽街22-1號","121.467761666667","25.0200466666667","6500100","板橋區"
"220063","609-BX","2017/12/29 19:19:45","新北市板橋區三民路二段228號","121.478785","25.0114016666667","6500100","板橋區"
"220091","637-BX","2017/12/29 19:19:38","新北市板橋區文聖街161號","121.478923333333","25.0273766666667","6500100","板橋區"
"220057","686-BX","2017/12/29 19:19:47","新北市板橋區和平路161巷22號","121.463353333333","24.9966883333333","6500100","板橋區"
"220077","687-BX","2017/12/29 19:19:42","新北市板橋區僑中二街52號","121.446753333333","25.0103533333333","6500100","板橋區"
"220093","689-BX","2017/12/29 19:19:38","新北市板橋區文化路一段210號","121.466381666667","25.0202233333333","6500100","板橋區"
"220054","741-BX","2017/12/29 19:19:47","新北市板橋區重慶路155巷43號","121.463748333333","25.0042316666667","6500100","板橋區"
"220055","827-TW","2017/12/29 19:19:40","新北市板橋區館前東路156巷17號","121.46431","25.00703","6500100","板橋區"
"220067","829-TW","2017/12/29 19:19:39","新北市板橋區長安街230-3號","121.475018333333","25.0124116666667","6500100","板橋區"
"220102","830-TW","2017/12/29 19:19:44","新北市板橋區田單街39-3號","121.482435","25.0285316666667","6500100","板橋區"
"220074","895-R6","2017/12/29 19:19:36","新北市板橋區中正路自強新村78號","121.4548","25.0127333333333","6500100","板橋區"
"220073","985-R7","2017/12/29 19:19:45","新北市板橋區瑞安街62號","121.455475","25.0213883333333","6500100","板橋區"
"220097","AAC-210","2017/12/29 19:19:34","新北市板橋區幸福路60巷29號","121.460626666667","25.0209666666667","6500100","板橋區"
"220070","AAC-253","2017/12/29 19:19:53","新北市板橋區忠孝路86號","121.461546666667","25.0020583333333","6500100","板橋區"
