"lineid","car","time","location","longitude","latitude","cityid","cityname"
"234046","148-BY","2017/12/29 19:39:53","新北市永和區成功路一段78號","121.526385","25.0032966666667","6500400","永和區"
"234013","149-BY","2017/12/29 19:39:41","新北市永和區永平路246號","121.508498333333","25.0109783333333","6500400","永和區"
"234007","207-UY","2017/12/29 19:39:42","新北市中和區永貞路292號","121.512701666667","25.004305","6500400","永和區"
"234081","298-R6","2017/12/29 19:39:41","新北市永和區林森路46巷1號","121.52496","25.004745","6500400","永和區"
"234038","336-UY","2017/12/29 19:39:37","新北市永和區民樂街26號","121.527535","25.001685","6500400","永和區"
"234064","337-UY","2017/12/29 19:39:39","新北市永和區中正路428巷30弄19號","121.518961666667","25.0023666666667","6500400","永和區"
"234086","338-UY","2017/12/29 19:39:40","新北市永和區永亨路165巷8號","121.526196666667","25.0041566666667","6500400","永和區"
"234054","553-UM","2017/12/29 19:39:52","新北市永和區竹林路39巷18號","121.518661666667","25.0145783333333","6500400","永和區"
"234017","745-BX","2017/12/29 19:39:44","新北市永和區永和路二段425巷57弄7號","121.513598333333","25.01712","6500400","永和區"
"234030","746-BX","2017/12/28 21:35:37","新北市五股區成泰路三段362號","121.451473333333","25.0985116666667","6500400","永和區"
"234061","AAD-866","2017/12/29 19:39:50","新北市永和區中正路456號","121.517438333333","25.0029066666667","6500400","永和區"
"234070","847-RS","2017/12/29 19:39:46","新北市永和區中興街66號","121.517365","25.01179","6500400","永和區"
"234042","862-TW","2017/12/29 19:39:43","新北市中和區中和路326號","121.509643333333","25.00094","6500400","永和區"
"234050","863-TW","2017/12/29 19:39:33","新北市永和區保安路88號","121.50964","25.0160816666667","6500400","永和區"
"234026","9371-KE","2017/12/29 19:39:42","新北市永和區中和路495號","121.510528333333","25.002215","6500400","永和區"
"249002","305-UY","2017/12/29 19:39:43","新北市八里區頂寮二街33-1號","121.450323333333","25.1252066666667","6502300","八里區"
"249003","593-UM","2017/12/29 19:39:48","新北市八里區中華路二段532號","121.399236666667","25.1456583333333","6502300","八里區"
"248016","026-BX","2017/12/29 19:39:38","新北市五股區成泰路3段651-1號","121.452865","25.1052133333333","6501500","五股區"
"248008","095-VK","2017/12/29 19:39:53","新北市五股區四維路118巷11號","121.469153333333","25.0743366666667","6501500","五股區"
"248018","225-UY","2017/12/29 19:28:26","新北市五股區壟路17-7號","121.414381666667","25.0852033333333","6501500","五股區"
"248012","247-BX","2017/12/29 19:39:43","新北市五股區民義路一段48號","121.43697","25.0847566666667","6501500","五股區"
"248014","261-SL","2017/12/29 19:39:45","新北市五股區民義路一段165號","121.432861666667","25.0877616666667","6501500","五股區"
"248004","677-BX","2017/12/29 19:39:32","新北市五股區成泰路二段65號","121.438008333333","25.0836566666667","6501500","五股區"
"248002","678-BX","2017/12/29 19:39:36","新北市五股區成泰路三段577巷48號","121.450905","25.1031833333333","6501500","五股區"
"248010","682-TV","2017/12/29 19:39:51","新北市五股區水碓一路23號","121.430593333333","25.0712983333333","6501500","五股區"
"234077","969-R7","2017/12/29 19:39:45","新北市永和區民族街67巷9號","121.518913333333","24.9972633333333","6500400","永和區"
"234074","AAC-211","2017/12/29 19:39:42","新北市永和區竹林路223號","121.52084","25.0085483333333","6500400","永和區"
"234067","AAC-212","2017/12/29 19:39:33","新北市永和區中山路一段206號","121.508681666667","25.00854","6500400","永和區"
"234003","AAC-295","2017/12/29 19:39:46","新北市永和區自由街71號","121.51339","25.00522","6500400","永和區"
"244017","485-VK","2017/12/29 19:39:38","新北市八里區下罟子15-9號","121.380471666667","25.1396116666667","6501700","林口區"
"243012","AAD-798","2017/12/29 19:39:41","新北市泰山區仁愛路100巷58號","121.433801666667","25.0544066666667","6501600","泰山區"
"243011","297-R6","2017/12/29 19:39:51","新北市泰山區明志路三段204巷12號","121.422025","25.0382633333333","6501600","泰山區"
"243015","380-SR","2017/12/29 19:39:38","新北市泰山區民權街54號","121.428833333333","25.0503833333333","6501600","泰山區"
"243014","421-VK","2017/12/29 19:39:38","新北市泰山區泰林路二段33-7號","121.43516","25.0564033333333","6501600","泰山區"
"243010","KEA-2215","2017/12/29 19:39:40","新北市泰山區民生路33號","121.430598333333","25.0522016666667","6501600","泰山區"
"243009","KEA-2216","2017/12/29 19:39:50","新北市泰山區美寧街58號","121.430866666667","25.0647833333333","6501600","泰山區"
"243013","646-TV","2017/12/29 19:39:34","新北市泰山區應化街7號","121.423913333333","25.0436883333333","6501600","泰山區"
"243016","680-BX","2017/12/29 19:39:33","新北市泰山區中山路三段114號","121.41792","25.0321283333333","6501600","泰山區"
"222003","436-BY","2017/12/29 19:33:10","新北市深坑區深南路51-1號","121.621066666667","25.0099633333333","6501800","深坑區"
"222002","659-BX","2017/12/29 19:39:40","新北市深坑區北深路一段177號","121.63253","25.0108766666667","6501800","深坑區"
"222001","696-SL","2017/12/29 19:39:48","新北市深坑區北深路二段200號","121.613011666667","25.0015366666667","6501800","深坑區"
"231041","001-UM","2017/12/29 19:39:50","新北市新店區中正路487號","121.53375","24.9820933333333","6500600","新店區"
"231055","0291-UT","2017/12/29 19:39:36","新北市新店區新生街13巷42號","121.538951666667","24.966585","6500600","新店區"
"231066","0293-UT","2017/12/29 19:39:48","新北市新店區安康路二段341巷50號","121.496686666667","24.95432","6500600","新店區"
"231059","046-UY","2017/12/29 19:39:35","新北市新店區安和路二段238號","121.516516666667","24.9781466666667","6500600","新店區"
"231061","047-UY","2017/12/29 19:39:44","新北市新店區安民街172號","121.516876666667","24.97078","6500600","新店區"
"231060","106-UY","2017/12/29 19:39:48","新北市新店區安康路二段204號","121.510266666667","24.959525","6500600","新店區"
"231051","107-UY","2017/12/29 19:39:37","新北市新店區中央四街70號","121.526771666667","24.9754266666667","6500600","新店區"
"231048","108-UY","2017/12/29 19:39:36","新北市新店區五峰路61巷5號","121.548733333333","24.9695933333333","6500600","新店區"
"231053","187-VK","2017/12/29 19:39:40","新北市新店區廣興路60巷36弄6號","121.54482","24.915735","6500600","新店區"
"231050","KEA-2219","2017/12/29 19:39:45","新北市新店區郵政路4巷2號","121.557033333333","24.951615","6500600","新店區"
"231057","256-BX","2017/12/29 19:39:37","新北市新店區橘園一路11號","121.547966666667","24.93403","6500600","新店區"
"231046","278-BY","2017/12/29 19:39:47","新北市新店區自由街25號","121.53522","24.97434","6500600","新店區"
"231054","AAD-862","2017/12/29 19:39:45","新北市新店區文中路40號","121.53972","24.9566183333333","6500600","新店區"
"231058","3712-VJ","2017/12/29 19:39:40","新北市新店區北新路一段311號","121.541503333333","24.9679733333333","6500600","新店區"
"231065","512-UM","2017/12/29 19:39:41","新北市新店區安祥路109巷90弄20號","121.477428333333","24.95945","6500600","新店區"
"231064","515-UM","2017/12/29 19:39:38","新北市新店區安和路一段52巷2號","121.517601666667","24.9661983333333","6500600","新店區"
"231045","617-UM","2017/12/29 19:39:40","新北市新店區北宜路二段415號","121.559988333333","24.9544983333333","6500600","新店區"
"231040","619-UM","2017/12/29 19:39:37","新北市新店區北新路一段96巷23號","121.542908333333","24.9688816666667","6500600","新店區"
"231042","641-BX","2017/12/29 19:39:51","新北市新店區中興路一段264號","121.544816666667","24.9672","6500600","新店區"
"231063","645-TV","2017/12/29 19:39:50","新北市新店區達觀路43號","121.503121666667","24.93784","6500600","新店區"
"231049","719-UM","2017/12/29 19:39:36","新北市新店區建國路166號","121.538395","24.97952","6500600","新店區"
"231062","720-UM","2017/12/29 19:39:33","新北市新店區永業路7-1號","121.533673333333","24.95599","6500600","新店區"
"231044","897-TW","2017/12/29 19:39:44","新北市新店區北新路三段210號","121.541126666667","24.9842016666667","6500600","新店區"
"231043","899-TW","2017/12/29 19:39:40","新北市新店區中正路131號","121.541793333333","24.97127","6500600","新店區"
"241011","013-R5","2017/12/29 19:39:50","新北市三重區秀江街214號","121.497186666667","25.0715283333333","6500200","三重區"
"241028","022-UY","2017/12/29 19:39:51","新北市三重區中正南路196號","121.49395","25.05603","6500200","三重區"
"241008","059-VK","2017/12/29 19:39:45","新北市三重區永福街68號","121.478983333333","25.076875","6500200","三重區"
"241009","060-VK","2017/12/29 19:39:50","新北市三重區三和路四段400巷22號","121.480393333333","25.0791633333333","6500200","三重區"
"241031","061-VK","2017/12/29 19:39:41","新北市三重區重新路四段248號","121.486108333333","25.0534833333333","6500200","三重區"
"241015","062-VK","2017/12/29 19:39:31","新北市三重區福德北路30-1號","121.502043333333","25.0650533333333","6500200","三重區"
"241017","063-VK","2017/12/29 19:39:52","新北市三重區大同北路223號","121.491383333333","25.0661533333333","6500200","三重區"
"241026","156-TC","2017/12/29 19:39:53","新北市三重區文化南路65巷18號","121.499405","25.0607466666667","6500200","三重區"
"241022","267-UM","2017/12/29 19:39:39","新北市三重區中正北路109號","121.48494","25.06597","6500200","三重區"
"241032","269-UM","2017/12/29 19:39:45","新北市三重區重陽路一段60巷41號","121.48498","25.0582933333333","6500200","三重區"
"241013","270-UM","2017/12/29 19:39:38","新北市三重區仁愛街123-3號","121.495843333333","25.075035","6500200","三重區"
"241025","271-UM","2017/12/29 19:39:32","新北市三重區頂崁街203巷5號","121.477365","25.0670366666667","6500200","三重區"
"241007","398-BY","2017/12/29 19:39:48","新北市三重區溪尾街126巷104號","121.487396666667","25.0786666666667","6500200","三重區"
"241020","413-TH","2017/12/29 19:39:42","新北市三重區三和路四段95號","121.488006666667","25.075855","6500200","三重區"
"241019","478-VK","2017/12/29 19:39:49","新北市三重區六張街194巷1弄1號","121.488463333333","25.0682166666667","6500200","三重區"
"241030","480-VK","2017/12/29 19:39:39","新北市三重區新興路32號","121.491921666667","25.053375","6500200","三重區"
"241014","543-UM","2017/12/29 19:39:50","新北市三重區河邊北街82號","121.504233333333","25.0689583333333","6500200","三重區"
"241023","545-UM","2017/12/29 19:39:41","新北市三重區忠孝路三段99巷11號","121.479783333333","25.06432","6500200","三重區"
"241006","AAD-863","2017/12/29 19:39:37","新北市三重區三和路四段160巷73號","121.485865","25.0749416666667","6500200","三重區"
"241035","743-BX","2017/12/29 19:39:34","新北市三重區正義北路99號","121.497106666667","25.0653866666667","6500200","三重區"
"241012","941-UM","2017/12/29 19:39:36","新北市三重區河邊北街256巷19號","121.500876666667","25.0760583333333","6500200","三重區"
"241029","942-UM","2017/12/29 19:39:45","新北市三重區重安街102號","121.492983333333","25.0559216666667","6500200","三重區"
"235066","003-UY","2017/12/29 19:39:38","新北市中和區中和路196巷9弄1號","121.505196666667","24.9991683333333","6500300","中和區"
"235064","005-UY","2017/12/29 19:39:40","新北市中和區南山路127巷8弄1號","121.5028","24.9972316666667","6500300","中和區"
"235063","006-UY","2017/12/29 19:39:36","新北市中和區連勝街78號","121.495653333333","24.996355","6500300","中和區"
"235046","031-BX","2017/12/29 19:39:43","新北市中和區四維街21號","121.51294","24.98703","6500300","中和區"
"235056","096-UM","2017/12/29 19:39:48","新北市中和區員山路581巷2號","121.47812","25.0093566666667","6500300","中和區"
"235039","097-UM","2017/12/29 19:39:42","新北市中和區秀峰街103巷8弄12號","121.519701666667","24.9895883333333","6500300","中和區"
"235040","150-BY","2017/12/29 19:39:44","新北市中和區安平路38號","121.509688333333","24.9949383333333","6500300","中和區"
"235058","151-BY","2017/12/29 19:39:48","新北市中和區員山路124巷10號","121.481846666667","24.995885","6500300","中和區"
"235055","183-VK","2017/12/29 19:39:35","新北市中和區中山路三段181巷2號","121.472813333333","25.0059783333333","6500300","中和區"
"235038","185-VK","2017/12/29 19:39:51","新北市中和區自立路139巷7號","121.52257","24.9938466666667","6500300","中和區"
"235049","186-VK","2017/12/29 19:39:35","新北市中和區安平路17號","121.509176666667","24.9941366666667","6500300","中和區"
"235067","255-BX","2017/12/29 19:39:43","新北市中和區新生街220巷4號","121.482903333333","24.99855","6500300","中和區"
"235044","293-VK","2017/12/29 19:39:42","新北市中和區興南路一段162號","121.50813","24.9867083333333","6500300","中和區"
"235072","301-VK","2017/12/29 19:39:51","新北市中和區中正路432巷34號","121.490881666667","24.99581","6500300","中和區"
"235043","352-BY","2017/12/29 19:39:43","新北市中和區興南路一段86號","121.509918333333","24.9893533333333","6500300","中和區"
"235068","377-QA","2017/12/29 19:39:40","新北市中和區連城路75巷5-3號","121.498308333333","24.99876","6500300","中和區"
"235061","378-QA","2017/12/29 19:39:54","新北市中和區民安街2巷1號","121.48068","25.0011416666667","6500300","中和區"
"235050","4979-A6","2017/12/29 19:39:47","新北市中和區員山路36巷13號","121.484366666667","24.9910016666667","6500300","中和區"
"235042","551-UM","2017/12/29 19:39:42","新北市中和區中和路350巷15弄6號","121.510766666667","25.001035","6500300","中和區"
"235070","558-UM","2017/12/29 19:39:06","新北市中和區圓通路46號","121.500786666667","24.9975783333333","6500300","中和區"
"235045","565-BX","2017/12/29 19:39:42","新北市中和區景新街378號","121.512348333333","24.9901016666667","6500300","中和區"
"235054","640-BX","2017/12/29 19:39:52","新北市中和區國光街102巷6號","121.470358333333","25.0004566666667","6500300","中和區"
"235060","647-TV","2017/12/29 19:39:47","新北市中和區新生街114巷2號","121.483363333333","25.002505","6500300","中和區"
"235047","732-UM","2017/12/29 19:39:36","新北市中和區南山路263巷7弄6號","121.504168333333","24.9931666666667","6500300","中和區"
"235057","801-TS","2017/12/29 19:39:49","新北市中和區員山路256號","121.481341666667","25.00163","6500300","中和區"
"235041","802-TS","2017/12/29 19:39:41","新北市永和區中和路581號","121.512048333333","25.00389","6500300","中和區"
"235052","805-TS","2017/12/29 19:39:36","新北市中和區華新街206巷3號","121.506455","24.9821416666667","6500300","中和區"
"235048","896-TW","2017/12/29 19:39:38","新北市中和區忠孝街1號","121.508923333333","24.9830316666667","6500300","中和區"
"235053","900-TW","2017/12/29 19:39:37","新北市中和區國光街142巷43號","121.467806666667","25.00214","6500300","中和區"
"235065","911-UM","2017/12/29 19:39:51","新北市中和區永和路1-3號","121.499751666667","25.0031516666667","6500300","中和區"
"235051","157-BY","2017/12/29 19:39:41","新北市中和區南山路128號","121.5036","24.99301","6500300","中和區"
"235037","AAC-213","2017/12/29 19:39:38","新北市中和區秀朗路三段10巷21弄16號","121.525633333333","24.99585","6500300","中和區"
"235059","AAC-215","2017/12/29 19:39:44","新北市中和區錦和路203巷13號","121.491363333333","24.9905666666667","6500300","中和區"
"220068","013-TV","2017/12/29 15:56:28","新北市八里區中華路三段7巷5號","121.397728333333","25.1436133333333","6500100","板橋區"
"220065","072-UY","2017/12/29 19:39:40","新北市板橋區國泰街27號","121.468926666667","25.0067183333333","6500100","板橋區"
"220086","073-UY","2017/12/29 19:39:40","新北市板橋區中正路91號","121.456465","25.0143933333333","6500100","板橋區"
"220106","075-UY","2017/12/29 19:39:46","新北市板橋區民治街26巷16號","121.477335","25.033635","6500100","板橋區"
"220069","AAD-861","2017/12/29 19:39:34","新北市板橋區縣民大道一段64巷2號","121.455178333333","25.0039566666667","6500100","板橋區"
"220096","120-SR","2017/12/29 19:39:39","新北市板橋區民生路二段234巷77號","121.470188333333","25.022555","6500100","板橋區"
"247008","341-TH","2017/12/29 19:39:44","新北市蘆洲區中山一路176號","121.474185","25.081185","6501400","蘆洲區"
"247004","336-TH","2017/12/29 19:39:48","新北市蘆洲區中華街6巷8號","121.46312","25.0819016666667","6501400","蘆洲區"
"226004","205-ST","2017/12/29 19:39:45","新北市平溪區十分里十分街114號","121.776866666667","25.0430916666667","6502400","平溪區"
"228001","670-TC","2017/12/29 19:39:50","新北市貢寮區真理里延平街36號","121.924531666667","25.0563016666667","6502600","貢寮區"
"228003","828-UM","2017/12/29 19:39:51","新北市貢寮區真理里美艷山街15-3號","121.923708333333","25.0679733333333","6502600","貢寮區"
"224010","AGQ-8101","2017/12/29 19:24:33","新北市瑞芳區基山街4-5號","121.845183333333","25.109495","6501200","瑞芳區"
"224002","639-TC","2017/12/29 19:39:45","新北市瑞芳區民享新村26號","121.817156666667","25.10586","6501200","瑞芳區"
"224009","285-BY","2017/12/29 19:39:37","新北市瑞芳區八分寮路12號","121.794596666667","25.0869066666667","6501200","瑞芳區"
"227011","400-TW","2017/12/29 19:39:50","新北市雙溪區新基里新基北街19巷14號","121.867123333333","25.03805","6502500","雙溪區"
"227003","030-BX","2017/12/29 19:39:41","新北市雙溪區雙溪里太平路50號","121.864541666667","25.035315","6502500","雙溪區"
"208002","742-BX","2017/12/29 19:39:44","新北市金山區中山路246號","121.63576","25.2237766666667","6502700","金山區"
"208003","665-BX","2017/12/29 19:39:52","新北市金山區仁愛路1巷1號","121.638538333333","25.2200583333333","6502700","金山區"
"208001","761-BX","2017/12/29 19:39:49","新北市金山區重和里六股林口13號","121.605096666667","25.221865","6502700","金山區"
"251004","009-UM","2017/12/29 19:39:35","新北市淡水區中正東路二段88巷41號","121.459618333333","25.14235","6501000","淡水區"
"251001","011-UM","2017/12/29 19:39:50","新北市淡水區民權路41號","121.459801666667","25.14031","6501000","淡水區"
"251013","180-VK","2017/12/29 19:39:39","新北市淡水區頂田寮路143號","121.461258333333","25.2171816666667","6501000","淡水區"
"251015","182-VK","2017/12/29 19:39:34","新北市淡水區泉洲厝25-1號","121.484793333333","25.1892016666667","6501000","淡水區"
"251010","413-VK","2017/12/29 19:39:43","新北市淡水區崁頂92號","121.429458333333","25.202175","6501000","淡水區"
"251012","441-VK","2017/12/29 19:39:54","新北市淡水區中山北路三段138號","121.445625","25.1951116666667","6501000","淡水區"
"251005","443-VK","2017/12/29 19:39:40","新北市淡水區原德路108巷2號","121.443388333333","25.173525","6501000","淡水區"
"251006","561-UM","2017/12/29 19:39:50","新北市淡水區中山北路一段205號","121.44435","25.1788816666667","6501000","淡水區"
"251009","575-R6","2017/12/29 19:39:52","新北市淡水區中山北路一段166號","121.444188333333","25.1784333333333","6501000","淡水區"
"251007","577-R6","2017/12/29 19:39:50","新北市淡水區中正東路一段111巷28號","121.455561666667","25.1607783333333","6501000","淡水區"
"251011","650-BX","2017/12/29 19:39:41","新北市淡水區八勢一街7-16號","121.460613333333","25.1571866666667","6501000","淡水區"
"207003","550-UM","2017/12/29 19:39:52","新北市萬里區大鵬里下社49號","121.648646666667","25.2160366666667","6502800","萬里區"
"207004","225-TW","2017/12/29 19:39:35","新北市萬里區萬里里瑪鋉路5-2號","121.686903333333","25.1752816666667","6502800","萬里區"
"252002","178-VK","2017/12/29 19:39:43","新北市三芝區中正路一段18巷56號","121.504283333333","25.2586866666667","6502100","三芝區"
"252001","292-VK","2017/12/29 19:39:41","新北市三芝區公正街9號","121.499773333333","25.2574783333333","6502100","三芝區"
"237004","078-UY","2017/12/29 19:39:35","新北市三峽區金敏189號","121.394638333333","24.8739716666667","6500900","三峽區"
"237007","153-BY","2017/12/29 19:39:42","新北市三峽區二鬮路136巷20弄83號","121.358153333333","24.909095","6500900","三峽區"
"237009","210-TH","2017/12/29 19:39:31","新北市三峽區中園街46號","121.368123333333","24.92616","6500900","三峽區"
"237013","252-BX","2017/12/29 19:39:32","新北市三峽區介壽路二段66號","121.3921","24.9353816666667","6500900","三峽區"
"237012","275-BY","2017/12/29 19:39:47","新北市三峽區民生街3號","121.374623333333","24.9353883333333","6500900","三峽區"
"237008","302-VK","2017/12/29 19:39:41","新北市三峽區中正路一段292巷12弄4號","121.370993333333","24.92611","6500900","三峽區"
"237014","433-BY","2017/12/29 19:39:40","新北市三峽區添福14-32號","121.372583333333","24.9003066666667","6500900","三峽區"
"237006","5529-G3","2017/12/29 19:39:35","新北市三峽區中正路一段336巷15弄2號","121.369955","24.92493","6500900","三峽區"
"237015","649-BX","2017/12/29 18:12:31","新北市三峽區紫新路47號","121.422343333333","24.9217916666667","6500900","三峽區"
"237005","AKY-6261","2017/12/29 19:39:46","新北市三峽區文化路197號","121.36655","24.9357233333333","6500900","三峽區"
"236072","105-UM","2017/12/29 19:39:37","新北市土城區清水路3號","121.45285","24.980365","6501300","土城區"
"236043","107-UM","2017/12/29 19:39:43","新北市土城區學士路14號","121.453603333333","24.9829566666667","6501300","土城區"
"236079","166-UM","2017/12/29 19:39:34","新北市土城區溪頭路43號","121.412113333333","24.9550883333333","6501300","土城區"
"236031","253-BX","2017/12/29 19:39:44","新北市土城區福祥街52號","121.441466666667","24.9813166666667","6501300","土城區"
"236027","269-VK","2017/12/29 19:39:46","新北市土城區中央路二段61巷20號","121.44305","24.9787616666667","6501300","土城區"
"236039","271-VK","2017/12/29 19:39:47","新北市土城區青雲路255號","121.459133333333","24.9808433333333","6501300","土城區"
"236022","401-BY","2017/12/29 19:39:33","新北市土城區峰廷街3號","121.469113333333","24.987345","6501300","土城區"
"236050","913-UM","2017/12/29 19:39:47","新北市土城區明德路一段59號","121.465345","24.98451","6501300","土城區"
"236063","915-UM","2017/12/29 19:39:42","新北市土城區延平街65號","121.467805","24.99275","6501300","土城區"
"236055","AAC-216","2017/12/29 19:39:50","新北市土城區學府路一段93號","121.45638","24.9880316666667","6501300","土城區"
"242025","615-BX","2017/12/29 19:39:37","新北市新莊區新北大道四段2號","121.45128","25.060225","6500500","新莊區"
"242032","442-UM","2017/12/29 19:39:49","新北市新莊區新泰路225巷25號","121.44531","25.039025","6500500","新莊區"
"242034","415-TV","2017/12/29 19:39:47","新北市新莊區仁愛街18號","121.444238333333","25.0356533333333","6500500","新莊區"
"242005","413-TV","2017/12/29 19:39:32","新北市新莊區化成路11巷58弄8號","121.46265","25.04397","6500500","新莊區"
"242009","173-VK","2017/12/29 18:50:42","新北市新莊區三和路12-21號","121.441936666667","25.038795","6500500","新莊區"
"242002","176-VK","2017/12/29 19:39:41","新北市新莊區新泰路357巷3弄53號","121.442298333333","25.0398783333333","6500500","新莊區"
"242019","348-TH","2017/12/29 19:39:48","新北市新莊區三和路12-11號","121.442135","25.0369733333333","6500500","新莊區"
"242017","350-TH","2017/12/29 19:39:49","新北市新莊區新泰路357巷3弄57號","121.442325","25.0394983333333","6500500","新莊區"
"242011","351-TH","2017/12/29 19:39:43","新北市新莊區幸福路914號","121.442386666667","25.04865","6500500","新莊區"
"238015","755-BX","2017/12/29 19:39:52","新北市樹林區日新街79號","121.421855","24.9906633333333","6500700","樹林區"
"238023","601-UM","2017/12/29 19:39:44","新北市樹林區三福街166號","121.404716666667","25.016165","6500700","樹林區"
"238018","571-TV","2017/12/29 19:39:51","新北市樹林區八德街438號","121.401651666667","24.970365","6500700","樹林區"
"238024","5061-A6","2017/12/29 19:39:42","新北市樹林區中山路三段22號","121.39559","24.9728633333333","6500700","樹林區"
"238021","KEA-2217","2017/12/29 19:39:37","新北市三峽區大義路380號","121.376756666667","24.9484683333333","6500700","樹林區"
"238022","KEA-2213","2017/12/29 19:39:37","新北市樹林區名園街54號","121.419841666667","24.9783416666667","6500700","樹林區"
"238025","303-VK","2017/12/29 19:39:43","新北市樹林區中山路一段250號","121.421","24.987405","6500700","樹林區"
"238017","283-BY","2017/12/29 19:39:41","新北市樹林區保安街二段45巷26-5號","121.414621666667","25.0001616666667","6500700","樹林區"
"238014","282-BY","2017/12/29 19:39:49","新北市樹林區千歲街30巷26弄8號","121.426246666667","24.9958833333333","6500700","樹林區"
"238020","268-VK","2017/12/29 19:39:52","新北市板橋區大觀路三段50巷59號","121.431843333333","24.9960933333333","6500700","樹林區"
"239002","359-BY","2017/12/29 19:39:37","新北市鶯歌區大湖路185巷22號","121.342423333333","24.97032","6500800","鶯歌區"
"221008","489-VK","2017/12/29 19:39:36","新北市汐止區康寧街61巷63號","121.620023333333","25.067835","6501100","汐止區"
"221036","130-UY","2017/12/29 19:39:38","新北市汐止區康寧街901號","121.651428333333","25.0750166666667","6501100","汐止區"
"221010","269-BY","2017/12/29 19:39:48","新北市汐止區汐萬路二段62巷1號","121.649381666667","25.0823216666667","6501100","汐止區"
"221012","276-VK","2017/12/29 13:41:13","新北市汐止區汐萬路一段256巷3號","121.653421666667","25.074595","6501100","汐止區"
"221012","278-VK","2017/12/29 19:39:31","新北市汐止區大同路三段380號","121.681395","25.0714883333333","6501100","汐止區"
"221023","279-VK","2017/12/29 19:39:31","新北市汐止區中興路282號","121.628438333333","25.06931","6501100","汐止區"
"221032","280-BY","2017/12/29 19:39:35","新北市汐止區大同路二段132-2號","121.651598333333","25.0639433333333","6501100","汐止區"
"221027","281-BY","2017/12/29 19:39:34","新北市汐止區忠孝東路9號","121.658343333333","25.0660033333333","6501100","汐止區"
"221029","298-VK","2017/12/29 19:39:47","新北市汐止區康寧街901號","121.651403333333","25.0749666666667","6501100","汐止區"
"221021","299-VK","2017/12/29 19:39:36","新北市汐止區南興路6巷4號","121.651785","25.0632566666667","6501100","汐止區"
"221031","353-TW","2017/12/29 19:39:51","新北市汐止區福德一路2巷3號","121.639041666667","25.07002","6501100","汐止區"
"221015","567-BX","2017/12/29 19:39:44","新北市汐止區康寧街901號","121.651538333333","25.0749533333333","6501100","汐止區"
"221025","623-UM","2017/12/29 19:39:34","新北市汐止區秀峰路81巷43號","121.661723333333","25.0649166666667","6501100","汐止區"
"221038","646-BX","2017/12/29 19:39:49","新北市汐止區忠孝東路225號","121.662303333333","25.0669033333333","6501100","汐止區"
"221033","647-BX","2017/12/29 19:39:44","新北市汐止區南勢街1巷1號","121.627075","25.03747","6501100","汐止區"
"221002","707-TV","2017/12/29 19:39:50","新北市汐止區大同路一段219巷27號","121.633268333333","25.05841","6501100","汐止區"
"221018","753-BX","2017/12/29 19:39:38","新北市汐止區康寧街901號","121.651608333333","25.0749533333333","6501100","汐止區"
"220079","145-BY","2017/12/29 19:39:36","新北市板橋區建國街54巷10號","121.459338333333","25.0168516666667","6500100","板橋區"
"220080","200-UY","2017/12/29 19:39:48","新北市板橋區大觀路二段37巷79號","121.450068333333","25.00241","6500100","板橋區"
"220082","610-BX","2017/12/29 19:39:50","新北市板橋區溪崑一街50號","121.429616666667","24.99039","6500100","板橋區"
"220101","245-BX","2017/12/29 19:39:49","新北市板橋區縣民大道三段33巷15號","121.473938333333","25.021095","6500100","板橋區"
"220056","276-BY","2017/12/29 19:39:42","新北市土城區廣明街63巷2弄22號","121.454396666667","24.99399","6500100","板橋區"
"220072","277-BY","2017/12/29 19:39:38","新北市板橋區金門街253巷16弄14號","121.432625","24.9878766666667","6500100","板橋區"
"220071","283-VK","2017/12/29 19:39:43","新北市板橋區忠孝路2號","121.459396666667","25.0015883333333","6500100","板橋區"
"220094","285-UM","2017/12/29 19:39:36","新北市板橋區宏國路97-3號","121.469795","25.0323266666667","6500100","板橋區"
"220053","285-VK","2017/12/29 19:39:34","新北市板橋區民享街93號","121.477043333333","25.016015","6500100","板橋區"
"220083","286-VK","2017/12/29 19:39:40","新北市板橋區龍興街65巷12號","121.44335","25.001485","6500100","板橋區"
"220081","287-VK","2017/12/29 19:39:53","新北市板橋區大觀路一段29巷131弄2號","121.450533333333","25.00541","6500100","板橋區"
"220090","288-VK","2017/12/29 19:39:48","新北市板橋區新海路431巷20號","121.457795","25.0268466666667","6500100","板橋區"
"220061","295-UM","2017/12/29 19:39:53","新北市板橋區中山路一段267號","121.468805","25.013555","6500100","板橋區"
"220084","296-UM","2017/12/29 19:39:41","新北市板橋區滿平二街2巷1弄24號","121.424953333333","24.9869116666667","6500100","板橋區"
"220075","297-UM","2017/12/29 19:39:51","新北市板橋區大勇街9巷2號","121.453743333333","25.0169616666667","6500100","板橋區"
"220062","303-R5","2017/12/29 19:39:33","新北市板橋區三民路二段73號","121.479558333333","25.0168783333333","6500100","板橋區"
"220092","307-R5","2017/12/29 19:39:35","新北市板橋區民生路二段250號","121.468265","25.0234433333333","6500100","板橋區"
"220098","317-R6","2017/12/29 19:39:44","新北市板橋區四維路269巷64號","121.460696666667","25.027225","6500100","板橋區"
"220080","461-BY","2017/12/29 09:11:34","新北市板橋區華東街1-9號","121.448086666667","24.9948333333333","6500100","板橋區"
"220064","486-VK","2017/12/29 19:39:47","新北市板橋區民權路31號","121.462421666667","25.0110233333333","6500100","板橋區"
"220089","487-VK","2017/12/29 19:39:52","新北市板橋區民權路170巷2號","121.459838333333","25.01291","6500100","板橋區"
"220088","491-VK","2017/12/29 19:39:42","新北市板橋區文化路二段560號","121.476301666667","25.0343016666667","6500100","板橋區"
"220035","560-BX","2017/12/29 19:39:39","新北市板橋區中正路379巷1弄32號","121.453128333333","25.02189","6500100","板橋區"
"220103","561-BX","2017/12/29 19:39:47","新北市板橋區文化路一段292號","121.467611666667","25.02142","6500100","板橋區"
"220063","609-BX","2017/12/29 19:39:51","新北市板橋區中山路二段505巷55號","121.481851666667","25.0230133333333","6500100","板橋區"
"220091","637-BX","2017/12/29 19:39:38","新北市板橋區懷德街127巷8號","121.47912","25.0308966666667","6500100","板橋區"
"220057","686-BX","2017/12/29 19:39:47","新北市板橋區國慶路158巷5-4號","121.462106666667","24.995785","6500100","板橋區"
"220077","687-BX","2017/12/29 19:39:42","新北市板橋區僑中一街132號","121.445576666667","25.0118116666667","6500100","板橋區"
"220093","689-BX","2017/12/29 19:39:51","新北市板橋區長江路一段38號","121.458405","25.0290083333333","6500100","板橋區"
"220054","741-BX","2017/12/29 19:39:47","新北市板橋區忠孝路239巷29號","121.46686","25.0034366666667","6500100","板橋區"
"220055","827-TW","2017/12/29 19:39:39","新北市板橋區國慶路149巷5號","121.461198333333","24.9969166666667","6500100","板橋區"
"220067","829-TW","2017/12/29 19:39:43","新北市板橋區長安街138巷5弄4號","121.473118333333","25.00867","6500100","板橋區"
"220102","830-TW","2017/12/29 19:39:44","新北市板橋區文化路二段410巷29號","121.474655","25.0306133333333","6500100","板橋區"
"220074","895-R6","2017/12/29 19:39:46","新北市板橋區府中路99號","121.456881666667","25.0095433333333","6500100","板橋區"
"220073","985-R7","2017/12/29 19:39:44","新北市板橋區國光路31巷16號","121.457935","25.0180816666667","6500100","板橋區"
"220097","AAC-210","2017/12/29 19:39:38","新北市板橋區漢生西路89巷13號","121.46209","25.0193333333333","6500100","板橋區"
"220070","AAC-253","2017/12/29 19:39:53","新北市板橋區民族路113號","121.466936666667","25.0080466666667","6500100","板橋區"
