"lineid","car","time","location","longitude","latitude","cityid","cityname"
"234046","148-BY","2017/12/29 19:49:33","新北市永和區永利路121號","121.523905","25.002565","6500400","永和區"
"234013","149-BY","2017/12/29 19:49:41","新北市永和區永平路286-1號","121.507611666667","25.0119833333333","6500400","永和區"
"234007","207-UY","2017/12/29 19:49:41","新北市中和區中和路236號","121.506976666667","24.9996483333333","6500400","永和區"
"234081","298-R6","2017/12/29 19:49:41","新北市永和區永利路81巷21號","121.522291666667","25.0038416666667","6500400","永和區"
"234038","336-UY","2017/12/29 19:49:37","新北市永和區民樂街59巷1號","121.527771666667","24.9983766666667","6500400","永和區"
"234064","337-UY","2017/12/29 19:49:39","新北市永和區中正路368巷29號","121.518543333333","25.0007816666667","6500400","永和區"
"234086","338-UY","2017/12/29 19:49:41","新北市永和區永亨路13號","121.519548333333","25.0058566666667","6500400","永和區"
"234054","553-UM","2017/12/29 19:49:32","新北市永和區竹林路75巷25弄9號","121.52011","25.0144533333333","6500400","永和區"
"234017","745-BX","2017/12/29 19:49:44","新北市永和區永和路二段297號","121.515971666667","25.0160366666667","6500400","永和區"
"234030","746-BX","2017/12/28 21:35:37","新北市五股區成泰路三段362號","121.451473333333","25.0985116666667","6500400","永和區"
"234061","AAD-866","2017/12/29 19:49:43","新北市永和區中正路90號","121.514011666667","24.9954383333333","6500400","永和區"
"234070","847-RS","2017/12/29 19:49:46","新北市永和區竹林路112-1號","121.5198","25.01178","6500400","永和區"
"234042","862-TW","2017/12/29 19:49:43","新北市永和區中和路389巷37號","121.508151666667","25.001565","6500400","永和區"
"234050","863-TW","2017/12/29 19:49:33","新北市永和區保安路83號","121.508533333333","25.014675","6500400","永和區"
"234026","9371-KE","2017/12/29 19:49:42","新北市永和區雙和街52巷2號","121.509005","25.0031466666667","6500400","永和區"
"234011","9373-KE","2017/12/29 19:49:45","新北市永和區仁愛路352巷92弄30號","121.501551666667","25.008525","6500400","永和區"
"249001","173-UM","2017/12/29 19:49:48","新北市八里區中華路二段252號","121.405441666667","25.149675","6502300","八里區"
"249004","303-UY","2017/12/29 19:49:32","新北市八里區中山路一段268巷5弄2號","121.414475","25.1607466666667","6502300","八里區"
"249002","305-UY","2017/12/29 19:49:43","新北市八里區頂寮五街11號","121.451748333333","25.1263033333333","6502300","八里區"
"249003","593-UM","2017/12/29 19:49:48","新北市八里區中華路二段560巷3號","121.398463333333","25.1451116666667","6502300","八里區"
"248016","026-BX","2017/12/29 19:49:38","新北市五股區成泰路三段601巷17-1號","121.451751666667","25.1033233333333","6501500","五股區"
"248008","095-VK","2017/12/29 19:49:33","新北市五股區四維路140號","121.46815","25.0753966666667","6501500","五股區"
"248018","225-UY","2017/12/29 19:43:27","新北市五股區外寮路1-1號","121.425728333333","25.07676","6501500","五股區"
"248012","247-BX","2017/12/29 19:49:39","新北市五股區蓬萊路24號","121.433866666667","25.0799133333333","6501500","五股區"
"248014","261-SL","2017/12/29 19:49:45","新北市五股區五福路42巷31號","121.434816666667","25.0902233333333","6501500","五股區"
"248004","677-BX","2017/12/29 19:49:32","新北市五股區成泰路一段142號","121.435028333333","25.0757516666667","6501500","五股區"
"248002","678-BX","2017/12/29 19:49:31","新北市五股區成泰路三段625-2號","121.452685","25.104285","6501500","五股區"
"248010","682-TV","2017/12/29 19:49:31","新北市五股區登林路74-3號","121.431046666667","25.0694216666667","6501500","五股區"
"234077","969-R7","2017/12/29 19:49:46","新北市永和區民治街91號","121.517281666667","24.9983616666667","6500400","永和區"
"234074","AAC-211","2017/12/29 19:49:42","新北市永和區竹林路179巷16號","121.52133","25.009925","6500400","永和區"
"234067","AAC-212","2017/12/29 19:49:34","新北市永和區永貞路355巷2號","121.508951666667","25.007495","6500400","永和區"
"234003","AAC-295","2017/12/29 19:49:46","新北市永和區福和路326號","121.515613333333","25.0072383333333","6500400","永和區"
"244017","485-VK","2017/12/29 19:49:38","新北市八里區長道坑33號","121.399696666667","25.0931883333333","6501700","林口區"
"243012","AAD-798","2017/12/29 19:49:41","新北市泰山區全興路13號","121.432336666667","25.0589283333333","6501600","泰山區"
"243011","297-R6","2017/12/29 19:49:28","新北市泰山區明志路三段204巷10弄11號","121.422955","25.03865","6501600","泰山區"
"243015","380-SR","2017/12/29 19:49:38","新北市泰山區明志路二段237巷11號","121.42765","25.048235","6501600","泰山區"
"243014","421-VK","2017/12/29 19:49:38","新北市泰山區泰林路二段33-8號","121.43515","25.0564716666667","6501600","泰山區"
"243010","KEA-2215","2017/12/29 19:49:40","新北市泰山區民生路33號","121.430503333333","25.0521733333333","6501600","泰山區"
"243009","KEA-2216","2017/12/29 19:49:50","新北市泰山區美寧街58號","121.430868333333","25.0648316666667","6501600","泰山區"
"243013","646-TV","2017/12/29 19:49:34","新北市泰山區應化街7號","121.423878333333","25.0437033333333","6501600","泰山區"
"243016","680-BX","2017/12/29 19:49:33","新北市泰山區中山路三段114號","121.418053333333","25.0321533333333","6501600","泰山區"
"222003","436-BY","2017/12/29 19:33:10","新北市深坑區深南路51-1號","121.621066666667","25.0099633333333","6501800","深坑區"
"222002","659-BX","2017/12/29 19:49:40","新北市深坑區北深路二段2巷1號","121.621365","25.00462","6501800","深坑區"
"222001","696-SL","2017/12/29 19:49:48","新北市深坑區北深路三段71號","121.606801666667","25.00147","6501800","深坑區"
"231041","001-UM","2017/12/29 19:49:30","新北市新店區中央五街1號","121.53022","24.9740416666667","6500600","新店區"
"231055","0291-UT","2017/12/29 19:49:36","新北市新店區新生街1號","121.540395","24.96559","6500600","新店區"
"231059","046-UY","2017/12/29 19:49:35","新北市新店區安和路一段15號","121.516811666667","24.9641366666667","6500600","新店區"
"231061","047-UY","2017/12/29 19:49:44","新北市新店區安民街321號","121.51744","24.9744883333333","6500600","新店區"
"231060","106-UY","2017/12/29 19:49:48","新北市新店區安康路二段191號","121.509326666667","24.9590583333333","6500600","新店區"
"231051","107-UY","2017/12/29 19:49:37","新北市新店區中央二街73號","121.526188333333","24.9749116666667","6500600","新店區"
"231048","108-UY","2017/12/29 19:49:36","新北市新店區寶興路65巷2號","121.55084","24.9716266666667","6500600","新店區"
"231053","187-VK","2017/12/29 19:49:40","新北市新店區新烏路二段445號","121.552111666667","24.9087683333333","6500600","新店區"
"231050","KEA-2219","2017/12/29 19:49:45","新北市新店區北宜路二段447號","121.561341666667","24.954125","6500600","新店區"
"231057","256-BX","2017/12/29 19:49:47","新北市新店區梅崗三路1號","121.558121666667","24.931155","6500600","新店區"
"231046","278-BY","2017/12/29 19:49:46","新北市新店區三民路159巷19弄46號","121.532181666667","24.973205","6500600","新店區"
"231054","AAD-862","2017/12/29 19:49:46","新北市新店區光明街138巷4號","121.539515","24.9611933333333","6500600","新店區"
"231058","3712-VJ","2017/12/29 19:49:40","新北市新店區光華街38巷11號","121.515816666667","24.97022","6500600","新店區"
"231067","4772-VM","2017/12/29 19:49:39","新北市新店區精忠路10-1號","121.532676666667","24.9590583333333","6500600","新店區"
"231065","512-UM","2017/12/29 19:49:41","新北市新店區安祥路109巷151弄12號","121.478135","24.958885","6500600","新店區"
"231064","515-UM","2017/12/29 19:49:38","新北市新店區安和路二段113巷1弄2號","121.518321666667","24.97019","6500600","新店區"
"231045","617-UM","2017/12/29 19:49:40","新北市新店區中生路66號","121.564651666667","24.95258","6500600","新店區"
"231040","619-UM","2017/12/29 19:49:37","新北市新店區北新路一段96巷23號","121.543045","24.9688733333333","6500600","新店區"
"231042","641-BX","2017/12/29 19:41:31","新北市新店區中興路一段268-2號","121.545195","24.967815","6500600","新店區"
"231063","645-TV","2017/12/29 19:49:30","新北市新店區黎明路3號","121.503501666667","24.9524083333333","6500600","新店區"
"231068","718-UY","2017/12/29 19:49:37","新北市新店區安華路28-1號","121.519446666667","24.9612366666667","6500600","新店區"
"231049","719-UM","2017/12/29 19:49:36","新北市新店區民權路127巷15號","121.535536666667","24.9817","6500600","新店區"
"231062","720-UM","2017/12/29 19:49:33","新北市新店區華潭街1巷9號","121.529371666667","24.9494433333333","6500600","新店區"
"231044","897-TW","2017/12/29 19:49:38","新北市新店區中正路602號","121.53416","24.9880233333333","6500600","新店區"
"231043","899-TW","2017/12/29 19:49:39","新北市新店區中正路263-3號","121.538341666667","24.9738116666667","6500600","新店區"
"241011","013-R5","2017/12/29 19:49:34","新北市三重區三和路二段173巷47號","121.49932","25.0702066666667","6500200","三重區"
"241028","022-UY","2017/12/29 19:49:31","新北市三重區中正南路190號","121.493908333333","25.05607","6500200","三重區"
"241008","059-VK","2017/12/29 19:49:39","新北市三重區永福街100號","121.478948333333","25.0758616666667","6500200","三重區"
"241009","060-VK","2017/12/29 19:49:50","新北市三重區三和路四段396巷41號","121.479845","25.0788016666667","6500200","三重區"
"241031","061-VK","2017/12/29 19:49:42","新北市三重區重新路四段240號","121.48607","25.0537016666667","6500200","三重區"
"241015","062-VK","2017/12/29 19:49:31","新北市三重區重新路一段1號","121.50383","25.06429","6500200","三重區"
"241017","063-VK","2017/12/29 19:49:32","新北市三重區重陽路三段5巷8弄12號","121.489493333333","25.0664933333333","6500200","三重區"
"241003","091-VK","2017/12/29 19:49:30","新北市三重區五華街93巷37號","121.492776666667","25.084205","6500200","三重區"
"241026","156-TC","2017/12/29 19:49:33","新北市三重區文化南路51-1號","121.500221666667","25.0610733333333","6500200","三重區"
"241005","262-UM","2017/12/29 19:49:42","新北市三重區溪尾街318號","121.487818333333","25.0845283333333","6500200","三重區"
"241016","266-UM","2017/12/29 19:49:38","新北市三重區正義北路48巷68號","121.495736666667","25.063555","6500200","三重區"
"241022","267-UM","2017/12/29 19:49:39","新北市三重區新北大道一段7號","121.489828333333","25.0615166666667","6500200","三重區"
"241018","268-UM","2017/12/29 19:49:48","新北市三重區正義北路244巷96號","121.493393333333","25.0675066666667","6500200","三重區"
"241032","269-UM","2017/12/29 19:49:45","新北市三重區重陽路一段10號","121.48625","25.0576333333333","6500200","三重區"
"241013","270-UM","2017/12/29 19:49:38","新北市三重區仁愛街112巷14號","121.494778333333","25.0739433333333","6500200","三重區"
"241025","271-UM","2017/12/29 19:49:32","新北市三重區大有街1-1號","121.477698333333","25.0653183333333","6500200","三重區"
"241007","398-BY","2017/12/29 19:49:28","新北市三重區三和路四段135巷1號","121.484885","25.0780766666667","6500200","三重區"
"241020","413-TH","2017/12/29 19:49:42","新北市三重區後竹圍街88號","121.48958","25.0729783333333","6500200","三重區"
"241004","475-VK","2017/12/29 19:49:33","新北市三重區五華街74號","121.493428333333","25.0820083333333","6500200","三重區"
"241019","478-VK","2017/12/29 19:49:42","新北市三重區自強路二段74巷25號","121.487768333333","25.0696833333333","6500200","三重區"
"241030","480-VK","2017/12/29 19:49:39","新北市三重區成功路73巷6號","121.489068333333","25.0517016666667","6500200","三重區"
"241014","543-UM","2017/12/29 19:49:30","新北市三重區三和路二段37-8號","121.501348333333","25.0674833333333","6500200","三重區"
"241023","545-UM","2017/12/29 19:49:41","新北市三重區大有街1-1號","121.477673333333","25.0655283333333","6500200","三重區"
"241001","547-UM","2017/12/29 19:49:41","新北市三重區仁愛街327巷57號","121.49356","25.0802783333333","6500200","三重區"
"241006","AAD-863","2017/12/29 19:49:37","新北市三重區力行路二段76巷1弄2號","121.481535","25.0736233333333","6500200","三重區"
"241035","743-BX","2017/12/29 19:49:34","新北市三重區中央北路18巷41號","121.4995","25.0638183333333","6500200","三重區"
"241012","941-UM","2017/12/29 19:49:36","新北市三重區仁福街64巷18號","121.497665","25.07516","6500200","三重區"
"241029","942-UM","2017/12/29 19:49:45","新北市三重區光明路23號","121.491193333333","25.0585916666667","6500200","三重區"
"241033","AAC-255","2017/12/29 19:49:35","新北市三重區中興南街29-1號","121.470601666667","25.0439866666667","6500200","三重區"
"235066","003-UY","2017/12/29 19:49:38","新北市中和區南工路64號","121.506323333333","25.001895","6500300","中和區"
"235064","005-UY","2017/12/29 19:49:40","新北市中和區圓通路19號","121.501393333333","24.9979016666667","6500300","中和區"
"235063","006-UY","2017/12/29 19:49:36","新北市中和區連城路263巷26號","121.492725","24.9944833333333","6500300","中和區"
"235046","031-BX","2017/12/29 19:49:43","新北市中和區仁愛街72號","121.511375","24.9876583333333","6500300","中和區"
"235056","096-UM","2017/12/29 19:49:48","新北市中和區民富街1號","121.476645","25.007035","6500300","中和區"
"235039","097-UM","2017/12/29 19:49:42","新北市中和區景平路172號","121.517043333333","24.9927433333333","6500300","中和區"
"235040","150-BY","2017/12/29 19:49:44","新北市中和區景新街157號","121.50654","24.9963983333333","6500300","中和區"
"235058","151-BY","2017/12/29 19:49:39","新北市中和區員山路146巷2號","121.481456666667","24.996745","6500300","中和區"
"235055","183-VK","2017/12/29 19:49:35","新北市中和區德光路27巷1弄2號","121.470846666667","25.0038983333333","6500300","中和區"
"235038","185-VK","2017/12/29 19:49:51","新北市永和區民生路46巷50號","121.521066666667","24.9963933333333","6500300","中和區"
"235049","186-VK","2017/12/29 19:49:35","新北市中和區中正路2號","121.503181666667","24.9937583333333","6500300","中和區"
"235067","255-BX","2017/12/29 19:49:43","新北市中和區連城路340巷14弄2號","121.483391666667","24.9973016666667","6500300","中和區"
"235044","293-VK","2017/12/29 19:49:42","新北市中和區南山路128號","121.503601666667","24.9928783333333","6500300","中和區"
"235043","352-BY","2017/12/29 19:49:42","新北市中和區華新街230號","121.506036666667","24.9816783333333","6500300","中和區"
"235068","377-QA","2017/12/29 19:47:20","新北市中和區連勝街57巷11號","121.497921666667","24.9969066666667","6500300","中和區"
"235061","378-QA","2017/12/29 19:49:28","新北市中和區員山路174巷3號","121.481773333333","24.9998916666667","6500300","中和區"
"235050","4979-A6","2017/12/29 19:49:47","新北市中和區景平路241巷84弄54號","121.506096666667","24.992425","6500300","中和區"
"235069","4980-A6","2017/12/29 19:49:43","新北市中和區中正路501號","121.489123333333","24.994005","6500300","中和區"
"235042","551-UM","2017/12/29 19:49:22","新北市中和區保健路46巷22弄6號","121.508625","24.9959733333333","6500300","中和區"
"235070","558-UM","2017/12/29 19:49:46","新北市中和區景平路537號","121.498806666667","24.999365","6500300","中和區"
"235045","565-BX","2017/12/29 19:49:42","新北市中和區景新街507號","121.514173333333","24.9869483333333","6500300","中和區"
"235054","640-BX","2017/12/29 19:49:31","新北市中和區德光路9號","121.471296666667","25.0044816666667","6500300","中和區"
"235060","647-TV","2017/12/29 19:49:27","新北市中和區中山路二段525號","121.481781666667","25.005215","6500300","中和區"
"235047","732-UM","2017/12/29 19:49:36","新北市中和區興南路一段71號","121.510121666667","24.989275","6500300","中和區"
"235057","801-TS","2017/12/29 19:49:49","新北市中和區員山路130號","121.48116","24.996335","6500300","中和區"
"235041","802-TS","2017/12/29 19:49:41","新北市中和區永貞路221號","121.513698333333","25.00352","6500300","中和區"
"235052","805-TS","2017/12/29 19:49:36","新北市中和區華新街30巷16號","121.506818333333","24.9844616666667","6500300","中和區"
"235048","896-TW","2017/12/29 19:49:36","新北市中和區興南路一段106號","121.509578333333","24.9887583333333","6500300","中和區"
"235053","900-TW","2017/12/29 19:49:36","新北市中和區國光街189巷12弄1-1號","121.467705","25.0011066666667","6500300","中和區"
"235065","911-UM","2017/12/29 19:49:51","新北市中和區福祥路90巷7弄5號","121.499456666667","25.00614","6500300","中和區"
"235051","157-BY","2017/12/29 19:49:41","新北市中和區中興街127號","121.499933333333","24.99172","6500300","中和區"
"235037","AAC-213","2017/12/29 19:49:38","新北市中和區秀朗路三段163號","121.52465","24.99196","6500300","中和區"
"235059","AAC-215","2017/12/29 19:49:44","新北市中和區圓通路305巷29弄2號","121.495025","24.9891133333333","6500300","中和區"
"220068","013-TV","2017/12/29 15:56:28","新北市八里區中華路三段7巷5號","121.397728333333","25.1436133333333","6500100","板橋區"
"220065","072-UY","2017/12/29 19:49:40","新北市板橋區民族路276巷15號","121.46965","25.006035","6500100","板橋區"
"220086","073-UY","2017/12/29 19:49:40","新北市板橋區南雅西路二段11號","121.453033333333","25.009285","6500100","板橋區"
"220106","075-UY","2017/12/29 19:49:46","新北市板橋區民治街61巷27號","121.480486666667","25.0335116666667","6500100","板橋區"
"220069","AAD-861","2017/12/29 19:49:34","新北市板橋區南雅南路二段7巷12號","121.454375","25.0028466666667","6500100","板橋區"
"220096","120-SR","2017/12/29 19:49:39","新北市板橋區民生路二段226巷31弄2號","121.471223333333","25.0221466666667","6500100","板橋區"
"247008","341-TH","2017/12/29 19:49:44","新北市蘆洲區中山一路100號","121.477976666667","25.0813516666667","6501400","蘆洲區"
"247002","337-TH","2017/12/29 19:49:45","新北市蘆洲區永樂街38巷57弄2號","121.45843","25.090185","6501400","蘆洲區"
"247004","336-TH","2017/12/29 19:49:28","新北市蘆洲區中原路23號","121.460391666667","25.082885","6501400","蘆洲區"
"247006","056-VK","2017/12/29 19:49:41","新北市蘆洲區永安南路二段28號","121.467173333333","25.0770683333333","6501400","蘆洲區"
"247014","007-UY","2017/12/29 19:49:28","新北市蘆洲區忠孝路62號","121.47146","25.0849416666667","6501400","蘆洲區"
"226004","205-ST","2017/12/29 19:49:45","新北市平溪區十分里十分街66巷2號","121.775753333333","25.0421233333333","6502400","平溪區"
"228001","670-TC","2017/12/29 19:49:30","新北市貢寮區仁理村仁愛路95-1號","121.927406666667","25.0556283333333","6502600","貢寮區"
"228003","828-UM","2017/12/29 19:49:31","新北市貢寮區真理里延平街171號","121.925488333333","25.0593283333333","6502600","貢寮區"
"224010","AGQ-8101","2017/12/29 19:24:33","新北市瑞芳區基山街4-5號","121.845183333333","25.109495","6501200","瑞芳區"
"224002","639-TC","2017/12/29 19:49:45","新北市瑞芳區國中新村19號","121.817616666667","25.106885","6501200","瑞芳區"
"224009","285-BY","2017/12/29 19:49:37","新北市平溪區新寮里五分寮10-2號","121.799781666667","25.0739933333333","6501200","瑞芳區"
"227011","400-TW","2017/12/29 19:49:30","新北市雙溪區新基里自強路7號","121.866286666667","25.0389766666667","6502500","雙溪區"
"227003","030-BX","2017/12/29 19:49:41","新北市雙溪區雙溪里內挖路47號","121.863245","25.0367466666667","6502500","雙溪區"
"208002","742-BX","2017/12/29 19:49:44","新北市金山區中山路313巷32號","121.634958333333","25.2229033333333","6502700","金山區"
"208003","665-BX","2017/12/29 19:49:32","新北市金山區清泉里清水路32-1號","121.629945","25.230785","6502700","金山區"
"208001","761-BX","2017/12/29 19:49:29","新北市金山區重和里茅埔頭10-1號","121.603673333333","25.216095","6502700","金山區"
"251004","009-UM","2017/12/29 19:49:35","新北市淡水區民權路177巷57號","121.460696666667","25.1337666666667","6501000","淡水區"
"251001","011-UM","2017/12/29 19:49:30","新北市淡水區中正東路二段81號","121.459408333333","25.1540966666667","6501000","淡水區"
"251013","180-VK","2017/12/29 19:49:39","新北市淡水區頂田寮11-8號","121.464781666667","25.2139833333333","6501000","淡水區"
"251015","182-VK","2017/12/29 19:49:34","新北市淡水區商工路351號","121.46891","25.1855166666667","6501000","淡水區"
"251012","441-VK","2017/12/29 19:49:34","新北市淡水區淡金路三段27號","121.446338333333","25.1972666666667","6501000","淡水區"
"251005","443-VK","2017/12/29 19:49:40","新北市淡水區中正東路6號","121.44713","25.1671733333333","6501000","淡水區"
"251006","561-UM","2017/12/29 19:49:31","新北市淡水區水碓街15號","121.443483333333","25.1769566666667","6501000","淡水區"
"251009","575-R6","2017/12/29 19:49:32","新北市淡水區中正路38-1號","121.443716666667","25.169305","6501000","淡水區"
"251007","577-R6","2017/12/29 19:49:50","新北市淡水區中正東路一段5巷5號","121.450773333333","25.164395","6501000","淡水區"
"251011","650-BX","2017/12/29 19:49:41","新北市淡水區淡金路一段8號","121.460865","25.16952","6501000","淡水區"
"207003","550-UM","2017/12/29 19:49:32","新北市萬里區磺潭里公館崙4號","121.64221","25.2146766666667","6502800","萬里區"
"207004","225-TW","2017/12/29 19:49:35","新北市萬里區萬里里瑪鋉路238號","121.689185","25.1803766666667","6502800","萬里區"
"252002","178-VK","2017/12/29 19:49:43","新北市三芝區三民街33號","121.504705","25.258545","6502100","三芝區"
"252001","292-VK","2017/12/29 19:49:41","新北市三芝區公正街9號","121.499735","25.257485","6502100","三芝區"
"237004","078-UY","2017/12/29 19:49:39","新北市三峽區添福107-16號","121.373321666667","24.90295","6500900","三峽區"
"237007","153-BY","2017/12/29 19:49:42","新北市三峽區二鬮路136巷24弄1號","121.356006666667","24.9099033333333","6500900","三峽區"
"237009","210-TH","2017/12/29 19:49:31","新北市三峽區民權街185號","121.36807","24.9295633333333","6500900","三峽區"
"237013","252-BX","2017/12/29 19:49:32","新北市三峽區溪北街1號","121.39594","24.93635","6500900","三峽區"
"237012","275-BY","2017/12/29 19:49:47","新北市三峽區光明路1-12號","121.372878333333","24.93225","6500900","三峽區"
"237008","302-VK","2017/12/29 19:49:41","新北市三峽區中正路一段108巷9號","121.373583333333","24.9299016666667","6500900","三峽區"
"237014","433-BY","2017/12/29 19:49:40","新北市三峽區添福11-6號","121.373303333333","24.9070983333333","6500900","三峽區"
"237006","5529-G3","2017/12/29 19:49:34","新北市三峽區中正路一段330號","121.370726666667","24.92486","6500900","三峽區"
"237015","649-BX","2017/12/29 19:49:31","新北市三峽區介壽路三段2號","121.394986666667","24.9359183333333","6500900","三峽區"
"237005","AKY-6261","2017/12/29 19:49:46","新北市三峽區長泰街94號","121.376111666667","24.9331916666667","6500900","三峽區"
"236072","105-UM","2017/12/29 19:49:36","新北市土城區水源街30號","121.4409","24.9755983333333","6501300","土城區"
"236043","107-UM","2017/12/29 19:49:50","新北市土城區裕民路267-1號","121.455383333333","24.9822233333333","6501300","土城區"
"236079","166-UM","2017/12/29 19:49:34","新北市土城區中州路32號","121.413288333333","24.9580666666667","6501300","土城區"
"236031","253-BX","2017/12/29 19:49:37","新北市土城區中央路一段294號","121.443293333333","24.9823966666667","6501300","土城區"
"236027","269-VK","2017/12/29 19:49:46","新北市土城區中央路二段61巷20號","121.44303","24.9787633333333","6501300","土城區"
"236039","271-VK","2017/12/29 19:49:33","新北市土城區國際路158巷54號","121.467933333333","24.97476","6501300","土城區"
"236022","401-BY","2017/12/29 19:49:33","新北市土城區峰廷街3號","121.469081666667","24.9873683333333","6501300","土城區"
"236059","912-UM","2017/12/29 19:49:31","新北市土城區中央路二段6-3號","121.443003333333","24.980845","6501300","土城區"
"236050","913-UM","2017/12/29 19:49:33","新北市土城區青雲路245號","121.459091666667","24.9810966666667","6501300","土城區"
"236063","915-UM","2017/12/29 19:49:42","新北市土城區延和路103號","121.467583333333","24.9903083333333","6501300","土城區"
"236055","AAC-216","2017/12/29 19:49:43","新北市土城區延和路112號","121.467235","24.9899266666667","6501300","土城區"
"242044","AAC-296","2017/12/29 19:49:36","新北市新莊區龍安路100號","121.418303333333","25.0206433333333","6500500","新莊區"
"242025","615-BX","2017/12/29 19:49:37","新北市新莊區五權一路12巷21弄4號","121.457833333333","25.0644366666667","6500500","新莊區"
"242023","613-BX","2017/12/29 19:49:43","新北市新莊區化成路188號","121.465601666667","25.0460216666667","6500500","新莊區"
"242027","612-BX","2017/12/29 19:49:35","新北市新莊區幸福路842號","121.4446","25.0490333333333","6500500","新莊區"
"242032","442-UM","2017/12/29 19:49:49","新北市新莊區忠孝街72號","121.443925","25.0364266666667","6500500","新莊區"
"242048","441-UM","2017/12/29 19:49:31","新北市新莊區建安街76巷3弄15號","121.425706666667","25.0246483333333","6500500","新莊區"
"242034","415-TV","2017/12/29 19:49:48","新北市新莊區建中街90巷7弄17號","121.445706666667","25.0374566666667","6500500","新莊區"
"242005","413-TV","2017/12/29 19:49:38","新北市新莊區化成路63巷24弄3號","121.462941666667","25.0459666666667","6500500","新莊區"
"242058","353-BY","2017/12/29 19:49:33","新北市新莊區八德街17號","121.425305","25.022625","6500500","新莊區"
"242007","132-UY","2017/12/29 19:49:40","新北市新莊區思源路593巷6弄14號","121.458895","25.0600483333333","6500500","新莊區"
"242037","133-UY","2017/12/29 19:49:40","新北市新莊區建安街64號","121.42708","25.0245616666667","6500500","新莊區"
"242021","135-UY","2017/12/29 19:49:39","新北市新莊區新泰路155號","121.447785","25.0368266666667","6500500","新莊區"
"242009","173-VK","2017/12/29 18:50:42","新北市新莊區三和路12-21號","121.441936666667","25.038795","6500500","新莊區"
"242002","176-VK","2017/12/29 19:49:41","新北市新莊區新泰路32號","121.449558333333","25.034015","6500500","新莊區"
"242013","346-TH","2017/12/29 19:49:28","新北市新莊區中泰街29號","121.450911666667","25.046905","6500500","新莊區"
"242019","348-TH","2017/12/29 19:49:48","新北市新莊區明智街19號","121.45421","25.0413183333333","6500500","新莊區"
"242017","350-TH","2017/12/29 19:49:29","新北市新莊區中安街3號","121.452813333333","25.0453466666667","6500500","新莊區"
"242011","351-TH","2017/12/29 19:49:43","新北市新莊區中信街90號","121.447848333333","25.05344","6500500","新莊區"
"238015","755-BX","2017/12/29 19:49:31","新北市樹林區中山路一段404號","121.418246666667","24.9854183333333","6500700","樹林區"
"238023","601-UM","2017/12/29 19:49:42","新北市樹林區三福街81號","121.40726","25.016275","6500700","樹林區"
"238024","5061-A6","2017/12/29 19:49:42","新北市樹林區中山路三段210-2號","121.382201666667","24.9659316666667","6500700","樹林區"
"238021","KEA-2217","2017/12/29 19:49:40","新北市樹林區佳園路三段219巷41號","121.388161666667","24.9458816666667","6500700","樹林區"
"238025","303-VK","2017/12/29 19:49:45","新北市樹林區中山路二段162號","121.411928333333","24.9829133333333","6500700","樹林區"
"238017","283-BY","2017/12/29 19:49:35","新北市樹林區八德街70號","121.419583333333","24.9817933333333","6500700","樹林區"
"238014","282-BY","2017/12/29 19:49:31","新北市樹林區千歲街71號","121.427296666667","24.9989916666667","6500700","樹林區"
"239002","359-BY","2017/12/29 19:49:37","新北市鶯歌區中山路300號","121.342901666667","24.9571333333333","6500800","鶯歌區"
"221008","489-VK","2017/12/29 19:49:36","新北市汐止區康寧街39號","121.618603333333","25.06684","6501100","汐止區"
"221036","130-UY","2017/12/29 19:49:38","新北市汐止區汐萬路一段160號","121.652543333333","25.0714966666667","6501100","汐止區"
"221010","269-BY","2017/12/29 19:49:48","新北市汐止區汐萬路一段333巷1號","121.649868333333","25.07613","6501100","汐止區"
"221012","276-VK","2017/12/29 13:41:13","新北市汐止區汐萬路一段256巷3號","121.653421666667","25.074595","6501100","汐止區"
"221012","278-VK","2017/12/29 19:49:31","新北市汐止區大同路三段380號","121.681216666667","25.0714483333333","6501100","汐止區"
"221023","279-VK","2017/12/29 19:49:31","新北市汐止區民族六街6巷2號","121.629728333333","25.0698516666667","6501100","汐止區"
"221032","280-BY","2017/12/29 19:49:35","新北市汐止區橫科路322巷24弄6-1號","121.620411666667","25.0501733333333","6501100","汐止區"
"221027","281-BY","2017/12/29 19:49:35","新北市汐止區忠孝東路9號","121.658381666667","25.06599","6501100","汐止區"
"221029","298-VK","2017/12/29 19:49:47","新北市汐止區康寧街901號","121.651388333333","25.0749833333333","6501100","汐止區"
"221021","299-VK","2017/12/29 19:49:37","新北市汐止區新興路116號","121.658058333333","25.0611216666667","6501100","汐止區"
"221031","353-TW","2017/12/29 19:49:32","新北市汐止區福德三路201-1號","121.631365","25.06704","6501100","汐止區"
"221015","567-BX","2017/12/29 19:49:44","新北市汐止區大同路二段535號","121.661996666667","25.069105","6501100","汐止區"
"221035","622-UM","2017/12/29 19:49:34","新北市汐止區長江街13巷9號","121.654563333333","25.0718933333333","6501100","汐止區"
"221025","623-UM","2017/12/29 19:49:34","新北市汐止區仁愛路77巷2弄30號","121.661855","25.0637316666667","6501100","汐止區"
"221038","646-BX","2017/12/29 19:49:38","新北市汐止區忠孝東路351號","121.665533333333","25.0705116666667","6501100","汐止區"
"221033","647-BX","2017/12/29 19:49:44","新北市汐止區東勢街76巷100-1號","121.636405","25.0390016666667","6501100","汐止區"
"221018","753-BX","2017/12/29 19:49:38","新北市汐止區大同路二段538號","121.661425","25.0687016666667","6501100","汐止區"
"220079","145-BY","2017/12/29 19:49:36","新北市板橋區中正路183巷50號","121.454746666667","25.0159416666667","6500100","板橋區"
"220080","200-UY","2017/12/29 19:49:41","新北市板橋區大觀路二段79巷2弄15號","121.447383333333","25.00178","6500100","板橋區"
"220082","610-BX","2017/12/29 19:49:42","新北市板橋區金門街182-3號","121.43273","24.9909","6500100","板橋區"
"220101","245-BX","2017/12/29 19:49:36","新北市板橋區縣民大道三段93巷28號","121.474881666667","25.02246","6500100","板橋區"
"220072","277-BY","2017/12/29 19:49:37","新北市板橋區金門街251號","121.431903333333","24.9889933333333","6500100","板橋區"
"220071","283-VK","2017/12/29 19:49:43","新北市板橋區信義路279巷13號","121.4631","24.9899716666667","6500100","板橋區"
"220094","285-UM","2017/12/29 19:49:36","新北市板橋區長江路一段118號","121.459996666667","25.029715","6500100","板橋區"
"220053","285-VK","2017/12/29 19:49:34","新北市板橋區中山路二段60巷1弄28號","121.475238333333","25.0158266666667","6500100","板橋區"
"220083","286-VK","2017/12/29 19:49:40","新北市板橋區龍興街97巷2號","121.444193333333","25.0026716666667","6500100","板橋區"
"220081","287-VK","2017/12/29 19:49:33","新北市板橋區大觀路一段29巷4弄2號","121.450193333333","25.007805","6500100","板橋區"
"220090","288-VK","2017/12/29 19:48:23","新北市板橋區綠堤街33-4號","121.45574","25.0264416666667","6500100","板橋區"
"220061","295-UM","2017/12/29 19:49:30","新北市板橋區漢生東路113巷1號","121.467393333333","25.0152583333333","6500100","板橋區"
"220084","296-UM","2017/12/29 19:49:41","新北市板橋區滿平街38號","121.42673","24.989765","6500100","板橋區"
"220075","297-UM","2017/12/29 19:49:42","新北市板橋區金華街10巷15號","121.45633","25.020115","6500100","板橋區"
"220062","303-R5","2017/12/29 19:49:43","新北市板橋區中山路二段416巷54弄4號","121.48251","25.019305","6500100","板橋區"
"220092","307-R5","2017/12/29 19:49:49","新北市板橋區陽明街164巷10弄14號","121.463956666667","25.0241716666667","6500100","板橋區"
"220098","317-R6","2017/12/29 19:49:44","新北市板橋區新海路385巷12號","121.458425","25.0258383333333","6500100","板橋區"
"220080","461-BY","2017/12/29 09:11:34","新北市板橋區華東街1-9號","121.448086666667","24.9948333333333","6500100","板橋區"
"220064","486-VK","2017/12/29 19:49:41","新北市板橋區公園街36-1號","121.462375","25.0083466666667","6500100","板橋區"
"220089","487-VK","2017/12/29 19:49:32","新北市板橋區英士路17號","121.461701666667","25.0250883333333","6500100","板橋區"
"220088","491-VK","2017/12/29 19:49:42","新北市板橋區仁化街76號","121.476146666667","25.0318833333333","6500100","板橋區"
"220035","560-BX","2017/12/29 19:49:39","新北市板橋區新生街89巷2號","121.458213333333","25.021935","6500100","板橋區"
"220103","561-BX","2017/12/29 19:49:47","新北市板橋區陽明街29巷11號","121.464891666667","25.0218666666667","6500100","板橋區"
"220063","609-BX","2017/12/29 19:49:38","新北市板橋區中山路二段337號","121.479505","25.018935","6500100","板橋區"
"220091","637-BX","2017/12/29 19:49:38","新北市板橋區懷德街127巷23弄7號","121.479335","25.031855","6500100","板橋區"
"220057","686-BX","2017/12/29 19:49:47","新北市板橋區廣權路1號","121.460608333333","24.9912566666667","6500100","板橋區"
"220077","687-BX","2017/12/29 19:49:42","新北市板橋區僑中一街124巷19弄1號","121.44614","25.0140033333333","6500100","板橋區"
"220093","689-BX","2017/12/29 19:49:43","新北市板橋區長江路二段243號","121.468853333333","25.0326333333333","6500100","板橋區"
"220054","741-BX","2017/12/29 19:49:49","新北市板橋區忠孝路忠義巷15弄11號","121.465743333333","25.0040216666667","6500100","板橋區"
"220055","827-TW","2017/12/29 19:49:39","新北市板橋區國慶路167巷13號","121.461886666667","24.9970733333333","6500100","板橋區"
"220067","829-TW","2017/12/29 19:49:39","新北市板橋區漢生東路193巷53號","121.471683333333","25.011785","6500100","板橋區"
"220102","830-TW","2017/12/29 19:49:44","新北市板橋區松柏街46號","121.475593333333","25.03013","6500100","板橋區"
"220074","895-R6","2017/12/29 19:49:36","新北市板橋區府中路40號","121.457528333333","25.009535","6500100","板橋區"
"220073","985-R7","2017/12/29 19:49:44","新北市板橋區大仁街114號","121.452731666667","25.01578","6500100","板橋區"
"220097","AAC-210","2017/12/29 19:49:34","新北市板橋區漢生西路56號","121.463008333333","25.0187366666667","6500100","板橋區"
"220070","AAC-253","2017/12/29 19:46:53","新北市板橋區民族路231號","121.46983","25.0071483333333","6500100","板橋區"
