"lineid","car","time","location","longitude","latitude","cityid","cityname"
"234046","148-BY","2017/12/29 20:49:33","新北市林口區太平里180號","121.367353333333","25.1351283333333","6500400","永和區"
"234030","746-BX","2017/12/28 21:35:37","新北市五股區成泰路三段362號","121.451473333333","25.0985116666667","6500400","永和區"
"249004","303-UY","2017/12/29 20:49:32","新北市八里區中山路一段63號","121.418383333333","25.1593616666667","6502300","八里區"
"234023","9380-KE","2017/12/29 20:49:41","新北市永和區仁愛路295號","121.505248333333","25.0092933333333","6500400","永和區"
"234074","AAC-211","2017/12/29 20:49:42","新北市永和區環河東路二段28號","121.52255","25.0127583333333","6500400","永和區"
"222003","436-BY","2017/12/29 20:49:38","新北市深坑區文山路三段48-1號","121.609953333333","24.998505","6501800","深坑區"
"222002","659-BX","2017/12/29 20:49:43","新北市深坑區北深路三段93巷13號","121.605193333333","25.000835","6501800","深坑區"
"222001","696-SL","2017/12/29 20:49:28","新北市深坑區北深路三段129號","121.604063333333","25.0024866666667","6501800","深坑區"
"231041","001-UM","2017/12/29 20:49:30","新北市新店區中正路700巷3號","121.533543333333","24.9915466666667","6500600","新店區"
"231066","0293-UT","2017/12/29 20:49:48","新北市新店區安興路105-1號","121.514613333333","24.97772","6500600","新店區"
"231059","046-UY","2017/12/29 20:49:35","新北市新店區僑信路108巷42號","121.498935","24.9465866666667","6500600","新店區"
"231061","047-UY","2017/12/29 20:49:44","新北市新店區新和街116巷1號","121.52126","24.98638","6500600","新店區"
"231060","106-UY","2017/12/29 20:49:48","新北市新店區安康路三段738號","121.473815","24.94204","6500600","新店區"
"231051","107-UY","2017/12/29 20:49:37","新北市新店區民生路181號","121.528533333333","24.97867","6500600","新店區"
"231048","108-UY","2017/12/29 20:49:36","新北市新店區寶元路一段109號","121.545716666667","24.9831083333333","6500600","新店區"
"231053","187-VK","2017/12/29 20:49:41","新北市新店區永興路102-4號","121.546405","24.9302983333333","6500600","新店區"
"231050","KEA-2219","2017/12/29 20:49:45","新北市新店區中正路247巷24弄2號","121.538295","24.9723066666667","6500600","新店區"
"231057","256-BX","2017/12/29 20:49:37","新北市新店區新烏路一段189號","121.546895","24.9328233333333","6500600","新店區"
"231054","AAD-862","2017/12/29 20:49:45","新北市新店區北新路一段126巷21號","121.543","24.9695883333333","6500600","新店區"
"231056","3713-VJ","2017/12/29 20:49:45","新北市新店區中央六街72號","121.527203333333","24.976285","6500600","新店區"
"231065","512-UM","2017/12/29 20:49:41","新北市新店區安祥路69巷17號","121.481881666667","24.9613666666667","6500600","新店區"
"231064","515-UM","2017/12/29 20:49:38","新北市新店區安民街365巷10弄2號","121.515988333333","24.9757466666667","6500600","新店區"
"231040","619-UM","2017/12/29 20:49:37","新北市新店區中正路266號","121.539023333333","24.9735116666667","6500600","新店區"
"231042","641-BX","2017/12/29 20:49:31","新北市新店區寶高路116號","121.554503333333","24.9760516666667","6500600","新店區"
"231063","645-TV","2017/12/29 20:49:50","新北市新店區如意街7-5號","121.49507","24.9484733333333","6500600","新店區"
"231068","718-UY","2017/12/29 20:49:37","新北市新店區寶元路一段102號","121.54499","24.9832183333333","6500600","新店區"
"231049","719-UM","2017/12/29 20:49:36","新北市新店區安康路一段293號","121.522705","24.9637216666667","6500600","新店區"
"231062","720-UM","2017/12/29 20:49:33","新北市新店區裕合街287號","121.489135","24.9485633333333","6500600","新店區"
"231044","897-TW","2017/12/29 20:49:38","新北市新店區中正路348號","121.536326666667","24.9754366666667","6500600","新店區"
"231043","899-TW","2017/12/29 20:49:43","新北市新店區建國路35巷2號","121.540416666667","24.974605","6500600","新店區"
"241011","013-R5","2017/12/29 20:49:50","新北市三重區龍濱路199號","121.501873333333","25.0716366666667","6500200","三重區"
"241028","022-UY","2017/12/29 20:49:31","新北市三重區中正南路40號","121.493776666667","25.060105","6500200","三重區"
"241008","059-VK","2017/12/29 20:49:39","新北市三重區永福街72巷11號","121.479426666667","25.0767366666667","6500200","三重區"
"241009","060-VK","2017/12/29 20:49:50","新北市三重區三和路四段388-2號","121.48203","25.079115","6500200","三重區"
"241031","061-VK","2017/12/29 20:49:42","新北市三重區重陽路一段113巷3號","121.487533333333","25.05982","6500200","三重區"
"241015","062-VK","2017/12/29 20:49:31","新北市三重區自強路一段12號","121.49888","25.06821","6500200","三重區"
"241017","063-VK","2017/12/29 20:49:32","新北市三重區自強路一段256號","121.492535","25.06744","6500200","三重區"
"241002","090-VK","2017/12/29 20:49:41","新北市三重區仁義街167巷55號","121.498946666667","25.0823383333333","6500200","三重區"
"241026","156-TC","2017/12/29 20:49:33","新北市三重區和平街13號","121.50048","25.0622833333333","6500200","三重區"
"241005","262-UM","2017/12/29 20:49:42","新北市三重區五華街147-5號","121.49049","25.0848433333333","6500200","三重區"
"241016","266-UM","2017/12/29 20:49:38","新北市三重區自強路一段236號","121.493386666667","25.0670583333333","6500200","三重區"
"241022","267-UM","2017/12/29 20:49:39","新北市三重區中正北路20巷12號","121.487916666667","25.0624716666667","6500200","三重區"
"241018","268-UM","2017/12/29 20:49:48","新北市三重區正義北路346號","121.494275","25.071025","6500200","三重區"
"241032","269-UM","2017/12/29 20:49:45","新北市三重區重陽路一段120巷35號","121.485101666667","25.0601616666667","6500200","三重區"
"241013","270-UM","2017/12/29 20:49:38","新北市三重區仁賢街4號","121.495623333333","25.0747833333333","6500200","三重區"
"241025","271-UM","2017/12/29 20:49:32","新北市三重區貴陽街18-1號","121.484228333333","25.0619066666667","6500200","三重區"
"241007","398-BY","2017/12/29 20:49:28","新北市三重區三和路四段143-1號","121.484336666667","25.0783366666667","6500200","三重區"
"241020","413-TH","2017/12/29 20:49:42","新北市三重區忠孝路一段101號","121.489561666667","25.0721666666667","6500200","三重區"
"241004","475-VK","2017/12/29 20:49:33","新北市三重區分子尾街5號","121.489621666667","25.0804933333333","6500200","三重區"
"241019","478-VK","2017/12/29 20:49:42","新北市三重區三張街56號","121.49121","25.0710116666667","6500200","三重區"
"241030","480-VK","2017/12/29 20:49:39","新北市三重區昌隆街26號","121.492036666667","25.0522183333333","6500200","三重區"
"241014","543-UM","2017/12/29 20:49:50","新北市三重區萬全街57號","121.50114","25.0701816666667","6500200","三重區"
"241023","545-UM","2017/12/29 20:49:41","新北市三重區忠孝路三段84巷1號","121.4803","25.0646166666667","6500200","三重區"
"241001","547-UM","2017/12/29 20:49:41","新北市三重區自強路三段76巷3號","121.486721666667","25.074285","6500200","三重區"
"241006","AAD-863","2017/12/29 20:49:37","新北市三重區車路頭街139巷14號","121.484265","25.0761983333333","6500200","三重區"
"241012","941-UM","2017/12/29 20:49:36","新北市三重區仁信街27號","121.501305","25.0755633333333","6500200","三重區"
"241029","942-UM","2017/12/29 20:49:44","新北市三重區重安街24號","121.490395","25.0580383333333","6500200","三重區"
"241033","AAC-255","2017/12/29 20:49:35","新北市三重區光復路二段1號","121.472235","25.053315","6500200","三重區"
"235069","4980-A6","2017/12/29 20:49:43","新北市中和區連城路469巷40號","121.483521666667","24.9947016666667","6500300","中和區"
"235026","800-TS","2017/12/29 20:29:22","新北市中和區員山路36巷16-3號","121.484985","24.99179","6500300","中和區"
"247022","893-R6","2017/12/29 20:49:44","新北市蘆洲區三民路118號","121.471365","25.0871583333333","6501400","蘆洲區"
"247012","546-UM","2017/12/29 20:49:29","新北市蘆洲區復興路322號","121.481913333333","25.0902866666667","6501400","蘆洲區"
"247020","500-BY","2017/12/29 20:49:45","新北市蘆洲區仁愛街64號","121.471478333333","25.093935","6501400","蘆洲區"
"247008","341-TH","2017/12/29 20:49:44","新北市蘆洲區集賢路269巷32號","121.482448333333","25.0832283333333","6501400","蘆洲區"
"247010","339-TH","2017/12/29 20:49:35","新北市蘆洲區鷺江街76號","121.476993333333","25.0838783333333","6501400","蘆洲區"
"247002","337-TH","2017/12/29 20:49:45","新北市蘆洲區長安街242號","121.457608333333","25.0860683333333","6501400","蘆洲區"
"247004","336-TH","2017/12/29 20:49:28","新北市蘆洲區長安街100號","121.461756666667","25.0808066666667","6501400","蘆洲區"
"247016","057-VK","2017/12/29 20:49:43","新北市蘆洲區中山二路235號","121.47028","25.080075","6501400","蘆洲區"
"247006","056-VK","2017/12/29 20:49:43","新北市蘆洲區永安南路二段50-1號","121.465875","25.077655","6501400","蘆洲區"
"247014","007-UY","2017/12/29 20:49:48","新北市蘆洲區三民路33號","121.475423333333","25.0829966666667","6501400","蘆洲區"
"247024","002-UY","2017/12/29 20:49:31","新北市蘆洲區長樂路136號","121.462063333333","25.090095","6501400","蘆洲區"
"251001","011-UM","2017/12/29 20:49:30","新北市淡水區淡金路218號","121.46038","25.1670516666667","6501000","淡水區"
"251013","180-VK","2017/12/29 20:49:39","新北市淡水區行忠路161號","121.457021666667","25.2004633333333","6501000","淡水區"
"251015","182-VK","2017/12/29 20:49:34","新北市淡水區淡金路四段542巷17號","121.452675","25.2270983333333","6501000","淡水區"
"251010","413-VK","2017/12/29 20:49:43","新北市淡水區沙崙路145號","121.423393333333","25.1830566666667","6501000","淡水區"
"251012","441-VK","2017/12/29 20:49:34","新北市淡水區興仁路162號","121.451568333333","25.22077","6501000","淡水區"
"251005","443-VK","2017/12/29 20:49:40","新北市淡水區淡金路二段605號","121.446266666667","25.1932666666667","6501000","淡水區"
"251007","577-R6","2017/12/29 20:49:30","新北市淡水區鄧公路29巷7號","121.451815","25.1702083333333","6501000","淡水區"
"251011","650-BX","2017/12/29 20:49:40","新北市淡水區新民街一段13-1號","121.433036666667","25.1845316666667","6501000","淡水區"
"251002","672-BX","2017/12/29 20:49:36","新北市淡水區英專路26號","121.445621666667","25.1699966666667","6501000","淡水區"
"251003","673-BX","2017/12/29 20:49:40","新北市淡水區中山北路一段247巷38號","121.443525","25.1798416666667","6501000","淡水區"
"252002","178-VK","2017/12/29 20:49:23","新北市三芝區淡金路二段89-1號","121.503981666667","25.260845","6502100","三芝區"
"237007","153-BY","2017/12/29 20:49:42","新北市三峽區中山路459巷163-3號","121.348823333333","24.933155","6500900","三峽區"
"237010","706-TV","2017/12/29 20:01:31","新北市三峽區中山路459巷137號","121.349655","24.933685","6500900","三峽區"
"242044","AAC-296","2017/12/29 20:49:36","新北市新莊區龍安路108號","121.418381666667","25.0204316666667","6500500","新莊區"
"242029","986-R7","2017/12/29 20:49:29","新北市新莊區中華路二段97號","121.452663333333","25.0495683333333","6500500","新莊區"
"242050","751-BX","2017/12/29 20:49:28","新北市新莊區民安西路50號","121.427445","25.0206816666667","6500500","新莊區"
"242025","615-BX","2017/12/29 20:49:37","新北市新莊區環漢路三段531號","121.435365","25.000995","6500500","新莊區"
"242039","566-BX","2017/12/29 20:49:40","新北市新莊區瓊林北路1號","121.439955","25.02284","6500500","新莊區"
"242048","441-UM","2017/12/29 20:49:31","新北市新莊區新樹路569號","121.43286","25.0070866666667","6500500","新莊區"
"242007","132-UY","2017/12/29 20:49:33","新北市新莊區碧江街15號","121.454033333333","25.0338766666667","6500500","新莊區"
"242037","133-UY","2017/12/29 20:49:40","新北市新莊區中正路513-1號","121.440151666667","25.0334416666667","6500500","新莊區"
"242002","176-VK","2017/12/29 20:49:41","新北市新莊區中港路五守新村1巷1號","121.455041666667","25.0383983333333","6500500","新莊區"
"242011","351-TH","2017/12/29 20:49:43","新北市新莊區中正路400號","121.441956666667","25.0342566666667","6500500","新莊區"
"221036","130-UY","2017/12/29 20:49:38","新北市汐止區仁愛路329號","121.664145","25.0679716666667","6501100","汐止區"
"221012","276-VK","2017/12/29 13:41:13","新北市汐止區汐萬路一段256巷3號","121.653421666667","25.074595","6501100","汐止區"
"221027","281-BY","2017/12/29 20:49:34","新北市汐止區水源路一段3號","121.657261666667","25.067195","6501100","汐止區"
"221021","299-VK","2017/12/29 20:49:36","新北市汐止區新台五路一段192號","121.65514","25.0629066666667","6501100","汐止區"
"221035","622-UM","2017/12/29 20:49:34","新北市汐止區汐萬路一段310號","121.650383333333","25.0747616666667","6501100","汐止區"
"221038","646-BX","2017/12/29 20:49:38","新北市汐止區汐萬路一段256巷1號","121.652008333333","25.0747066666667","6501100","汐止區"
"221033","647-BX","2017/12/29 20:49:44","新北市汐止區合順街18巷8弄5號","121.620286666667","25.04187","6501100","汐止區"
"221002","707-TV","2017/12/29 20:49:30","新北市汐止區福德二路169號","121.630836666667","25.0650883333333","6501100","汐止區"
"221018","753-BX","2017/12/29 20:49:38","新北市汐止區汐萬路一段124號","121.653783333333","25.0712283333333","6501100","汐止區"
"220101","245-BX","2017/12/29 20:49:36","新北市林口區汕頭32號","121.366336666667","25.1349866666667","6500100","板橋區"
"220090","288-VK","2017/12/29 19:48:23","新北市板橋區綠堤街33-4號","121.45574","25.0264416666667","6500100","板橋區"
"220062","303-R5","2017/12/29 20:49:33","新北市板橋區民生路三段273號","121.464208333333","25.0298616666667","6500100","板橋區"
"220080","461-BY","2017/12/29 09:11:34","新北市板橋區華東街1-9號","121.448086666667","24.9948333333333","6500100","板橋區"
"242056","280-VK","2017/12/29 20:49:48","新北市新莊區中環路一段30號","121.442256666667","25.0272333333333","6500500","新莊區"
"220070","AAC-253","2017/12/29 19:46:53","新北市板橋區民族路231號","121.46983","25.0071483333333","6500100","板橋區"
