"lineid","car","time","location","longitude","latitude","cityid","cityname"
"232016","291-BY","2017/12/30 06:35:42","新北市坪林區北宜路八段558號","121.717983333333","24.9091016666667","6502000","坪林區"
"232009","758-BX","2017/12/30 06:35:34","新北市坪林區北宜路八段558號","121.717903333333","24.9091033333333","6502000","坪林區"
"235043","352-BY","2017/12/30 06:35:36","新北市中和區安和路81號","121.507916666667","24.9953816666667","6500300","中和區"
"223002","198-BX","2017/12/30 06:35:49","新北市石碇區小粗坑(潭邊里)2號","121.670061666667","24.9826716666667","6501900","石碇區"
"223001","437-BY","2017/12/30 06:35:41","新北市石碇區下橫坪15號","121.668703333333","24.9836766666667","6501900","石碇區"
"223004","660-BX","2017/12/30 06:35:37","新北市石碇區小粗坑(潭邊里)9-2號","121.678666666667","24.9856866666667","6501900","石碇區"
"223007","661-BX","2017/12/30 06:35:37","新北市石碇區碇坪路一段115號","121.664501666667","24.988045","6501900","石碇區"
"227006","282-VK","2017/12/30 06:35:36","新北市雙溪區牡丹里下坑23號","121.852415","25.056135","6502500","雙溪區"
"220080","461-BY","2017/12/30 06:35:34","新北市板橋區四川路二段130巷63號","121.449353333333","24.9950333333333","6500100","板橋區"
