"lineid","car","time","location","longitude","latitude","cityid","cityname"
"234044","148-BY","2017/11/09 13:49:16","新北市永和區永利路181號","121.525848333333","25.0034183333333","6500400","永和區"
"234012","149-BY","2017/11/09 13:49:31","新北市永和區仁愛路204號","121.509285","25.0123366666667","6500400","永和區"
"234005","207-UY","2017/11/09 13:49:30","新北市永和區永和路一段4號","121.512851666667","25.00449","6500400","永和區"
"234078","298-R6","2017/11/09 13:49:26","新北市永和區國中路2號","121.524106666667","25.0041916666667","6500400","永和區"
"234036","336-UY","2017/11/09 13:49:24","新北市永和區環河東路四段28號","121.528633333333","24.9992683333333","6500400","永和區"
"234062","337-UY","2017/11/09 13:49:30","新北市永和區中正路368巷22號","121.518551666667","25.0007616666667","6500400","永和區"
"234068","552-UM","2017/11/09 13:49:27","新北市永和區竹林路88號","121.519371666667","25.0125866666667","6500400","永和區"
"234052","553-UM","2017/11/09 13:49:25","新北市永和區竹林路39巷28弄29號","121.519675","25.0143966666667","6500400","永和區"
"234015","745-BX","2017/11/09 13:49:33","新北市永和區文化路75號","121.513765","25.0151516666667","6500400","永和區"
"234028","746-BX","2017/11/09 13:49:31","新北市永和區民生路12號","121.522643333333","24.9976783333333","6500400","永和區"
"234060","AAD-866","2017/11/09 13:49:29","新北市永和區中正路69號","121.514825","24.9967116666667","6500400","永和區"
"234086","847-RS","2017/11/09 13:49:14","新北市永和區永利路46號","121.518825","25.00543","6500400","永和區"
"234040","862-TW","2017/11/09 13:49:31","新北市永和區中和路389巷2-1號","121.508395","25.0003866666667","6500400","永和區"
"234048","863-TW","2017/11/09 13:49:26","新北市永和區環河西路二段49號","121.506336666667","25.016325","6500400","永和區"
"234010","9373-KE","2017/11/09 13:49:15","新北市永和區仁愛路266號","121.50412","25.00849","6500400","永和區"
"248015","026-BX","2017/11/09 13:49:30","新北市五股區凌雲路一段149巷42號","121.44865","25.10092","6501500","五股區"
"248007","095-VK","2017/11/09 13:49:23","新北市五股區中興路一段132號","121.465243333333","25.0736016666667","6501500","五股區"
"248017","225-UY","2017/11/09 13:49:14","新北市五股區民義路二段46-6號","121.413645","25.1018816666667","6501500","五股區"
"248011","247-BX","2017/11/09 13:49:17","新北市五股區成泰路二段195巷1號","121.440435","25.08741","6501500","五股區"
"248009","272-BY","2017/11/09 13:49:24","新北市五股區水碓一路61號","121.431441666667","25.0726083333333","6501500","五股區"
"248003","677-BX","2017/11/09 13:49:31","新北市五股區民義路二段22巷1號","121.41994","25.0970733333333","6501500","五股區"
"248001","678-BX","2017/11/09 13:49:15","新北市五股區成泰路三段456-1號","121.451506666667","25.1004066666667","6501500","五股區"
"234022","9380-KE","2017/11/09 13:49:14","新北市永和區中正路654巷21號","121.517371666667","25.0086133333333","6500400","永和區"
"234076","969-R7","2017/11/09 13:49:26","新北市永和區民族街44號","121.518421666667","24.998725","6500400","永和區"
"234072","AAC-211","2017/11/09 13:49:31","新北市永和區豫溪街195號","121.523135","25.009915","6500400","永和區"
"234066","AAC-212","2017/11/09 13:49:19","新北市永和區永貞路414號","121.508915","25.0079366666667","6500400","永和區"
"234001","AAC-295","2017/11/09 13:49:20","新北市永和區永和路一段83號","121.51329","25.0072683333333","6500400","永和區"
"244024","742-UY","2017/11/09 09:36:54","新北市林口區粉寮69號","121.405125","25.090835","6501700","林口區"
"244003","657-BX","2017/11/09 13:49:15","新北市林口區汕頭15號","121.362785","25.1338866666667","6501700","林口區"
"243004","AAD-798","2017/11/09 13:49:30","新北市泰山區福興三街11號","121.434481666667","25.0578233333333","6501600","泰山區"
"243001","297-R6","2017/11/09 13:49:14","新北市泰山區黎明路25號","121.422065","25.0606083333333","6501600","泰山區"
"243007","380-SR","2017/11/09 13:49:19","新北市泰山區憲訓路36號","121.429161666667","25.0649933333333","6501600","泰山區"
"243006","421-VK","2017/11/09 09:23:50","新北市泰山區黎明路25號","121.422151666667","25.0606466666667","6501600","泰山區"
"243002","KEA-2215","2017/11/09 13:49:18","新北市泰山區公園路80號","121.424846666667","25.05636","6501600","泰山區"
"243005","646-TV","2017/11/09 13:37:17","新北市泰山區明志路三段206巷3號","121.423316666667","25.03798","6501600","泰山區"
"243008","680-BX","2017/11/09 13:49:16","新北市泰山區黎明路23-1號","121.421205","25.0616466666667","6501600","泰山區"
"231002","002-UM","2017/11/09 13:49:30","新北市新店區溪園路245-6號","121.52521","24.9831616666667","6500600","新店區"
"231028","046-UY","2017/11/09 13:49:24","新北市新店區安和路三段7號","121.518073333333","24.9806166666667","6500600","新店區"
"231030","047-UY","2017/11/09 13:49:29","新北市新店區安康路一段204號","121.524193333333","24.963475","6500600","新店區"
"231029","106-UY","2017/11/09 13:49:22","新北市新店區安康路二段125-1號","121.512393333333","24.960935","6500600","新店區"
"231011","108-UY","2017/11/09 13:49:20","新北市新店區德正街25巷2號","121.544451666667","24.9716966666667","6500600","新店區"
"231021","187-VK","2017/11/09 13:49:14","新北市新店區永興路132-3號","121.544788333333","24.9317383333333","6500600","新店區"
"231017","KEA-2219","2017/11/09 13:49:33","新北市新店區竹林路71-7號","121.553593333333","24.9513483333333","6500600","新店區"
"231026","256-BX","2017/11/09 13:49:16","新北市新店區自由街31號","121.535033333333","24.9740983333333","6500600","新店區"
"231010","278-BY","2017/11/09 13:49:25","新北市新店區平等街48巷1號","121.535753333333","24.9729933333333","6500600","新店區"
"231027","3712-VJ","2017/11/09 13:49:14","新北市新店區北宜路一段3號","121.538506666667","24.958455","6500600","新店區"
"231025","3713-VJ","2017/11/09 13:49:30","新北市新店區中央六街58號","121.527898333333","24.9758166666667","6500600","新店區"
"231024","4716-K9","2017/11/09 13:49:30","新北市新店區北新路一段271巷35號","121.539608333333","24.9669983333333","6500600","新店區"
"231038","4715-K9","2017/11/09 13:49:27","新北市新店區安康路一段291巷32-1號","121.522343333333","24.9625116666667","6500600","新店區"
"231036","512-UM","2017/11/09 13:49:25","新北市新店區安祥路110巷63號","121.473826666667","24.9569616666667","6500600","新店區"
"231023","513-UM","2017/11/09 13:49:16","新北市新店區國校路25號","121.537968333333","24.9562733333333","6500600","新店區"
"231035","515-UM","2017/11/09 13:49:20","新北市新店區安忠路205巷8號","121.509523333333","24.9547116666667","6500600","新店區"
"231001","619-UM","2017/11/09 13:49:27","新北市新店區三民路68號","121.534968333333","24.9723933333333","6500600","新店區"
"231003","641-BX","2017/11/09 13:49:07","新北市新店區中興路一段138號","121.542241666667","24.9636216666667","6500600","新店區"
"231034","645-TV","2017/11/09 13:49:22","新北市新店區達觀路14巷3號","121.503303333333","24.9419066666667","6500600","新店區"
"231013","719-UM","2017/11/09 13:49:13","新北市新店區二十張路25巷18弄9號","121.53933","24.9815783333333","6500600","新店區"
"231018","719-UY","2017/11/09 13:49:17","新北市新店區中正路400巷9號","121.534953333333","24.977955","6500600","新店區"
"231031","720-UM","2017/11/09 13:49:30","新北市新店區莒光路44巷21弄11-6號","121.518508333333","24.9522233333333","6500600","新店區"
"231005","897-TW","2017/11/09 13:49:18","新北市新店區寶中路107號","121.548985","24.98018","6500600","新店區"
"231006","898-TW","2017/11/09 13:49:23","新北市新店區北宜路一段222號","121.544106666667","24.9531566666667","6500600","新店區"
"231004","899-TW","2017/11/09 13:49:12","新北市新店區中興路二段252號","121.547441666667","24.9759466666667","6500600","新店區"
"231037","AKT-0513","2017/11/09 13:49:31","新北市新店區安康路三段355巷31號","121.484905","24.949835","6500600","新店區"
"235030","003-UY","2017/11/09 13:49:23","新北市中和區中山路二段131巷29號","121.50376","25.0027916666667","6500300","中和區"
"235028","005-UY","2017/11/09 13:49:22","新北市中和區景平路589號","121.497405","25.0003716666667","6500300","中和區"
"235027","006-UY","2017/11/09 13:49:24","新北市中和區連城路319巷11弄5號","121.489561666667","24.995015","6500300","中和區"
"235020","096-UM","2017/11/09 13:49:27","新北市中和區中正路1206巷10號","121.480236666667","25.0111766666667","6500300","中和區"
"235003","097-UM","2017/11/09 13:49:28","新北市中和區大勇街29巷8號","121.516015","24.99443","6500300","中和區"
"235029","098-UM","2017/11/09 13:49:26","新北市中和區中山路二段2巷45弄22號","121.501601666667","25.0069116666667","6500300","中和區"
"235004","150-BY","2017/11/09 13:49:18","新北市中和區保健路48巷45號","121.509538333333","24.99621","6500300","中和區"
"235022","151-BY","2017/11/09 13:49:15","新北市中和區連城路530號","121.475796666667","24.991655","6500300","中和區"
"235019","183-VK","2017/11/09 13:49:34","新北市中和區德光路77巷9號","121.469875","25.0035433333333","6500300","中和區"
"235002","185-VK","2017/11/09 13:49:21","新北市中和區大勇街43巷6號","121.517618333333","24.99482","6500300","中和區"
"235013","186-VK","2017/11/09 13:49:20","新北市中和區景安路177巷18號","121.506135","24.9943083333333","6500300","中和區"
"235031","255-BX","2017/11/09 13:49:25","新北市中和區新生街220巷1弄15號","121.483408333333","24.9979133333333","6500300","中和區"
"235008","293-VK","2017/11/09 13:49:20","新北市中和區中興街117號","121.500023333333","24.9920266666667","6500300","中和區"
"235036","301-VK","2017/11/09 13:49:33","新北市中和區永和路6號","121.499923333333","25.0027683333333","6500300","中和區"
"235007","352-BY","2017/11/09 13:49:25","新北市中和區成功路139號","121.526036666667","24.990275","6500300","中和區"
"235032","377-QA","2017/11/09 13:49:34","新北市中和區中正路167巷15號","121.49838","24.9928583333333","6500300","中和區"
"235025","378-QA","2017/11/09 13:49:18","新北市中和區民享街54巷4號","121.473721666667","25.0024233333333","6500300","中和區"
"235033","4980-A6","2017/11/09 13:49:26","新北市中和區圓通路109巷1弄1號","121.499635","24.996475","6500300","中和區"
"235006","551-UM","2017/11/09 13:49:19","新北市中和區秀朗路三段175巷9號","121.525196666667","24.99161","6500300","中和區"
"235034","558-UM","2017/11/09 13:48:25","新北市中和區景平路385巷42弄17號","121.501563333333","24.9950233333333","6500300","中和區"
"235009","565-BX","2017/11/09 13:49:27","新北市中和區復興路38號","121.504836666667","24.9901216666667","6500300","中和區"
"235011","732-UM","2017/11/09 13:49:14","新北市中和區興南路二段34巷28弄2號","121.505038333333","24.9865116666667","6500300","中和區"
"235010","733-UM","2017/11/09 13:49:29","新北市中和區仁愛街36巷28號","121.511068333333","24.9869633333333","6500300","中和區"
"235026","800-TS","2017/11/09 13:49:15","新北市中和區中山路二段312巷45弄1號","121.494813333333","25.0044466666667","6500300","中和區"
"235021","801-TS","2017/11/09 13:49:15","新北市中和區民安街2巷37弄10號","121.479958333333","25.001205","6500300","中和區"
"235005","802-TS","2017/11/09 13:49:30","新北市中和區永貞路278號","121.51332","25.0039333333333","6500300","中和區"
"235016","805-TS","2017/11/09 13:49:17","新北市中和區興南路二段399巷38號","121.499266666667","24.9788983333333","6500300","中和區"
"235012","896-TW","2017/11/09 13:49:24","新北市中和區南山路373號","121.506275","24.9904233333333","6500300","中和區"
"235017","900-TW","2017/11/09 13:49:20","新北市中和區華福街5號","121.465428333333","24.99685","6500300","中和區"
"235024","911-UM","2017/11/09 13:49:19","新北市中和區中山路三段13號","121.479595","25.00597","6500300","中和區"
"235001","157-BY","2017/11/09 13:49:27","新北市中和區忠孝街27號","121.510403333333","24.982905","6500300","中和區"
"235001","AAC-213","2017/11/09 13:49:24","新北市中和區秀朗路三段175巷10號","121.525046666667","24.9913983333333","6500300","中和區"
"235023","AAC-215","2017/11/09 13:49:13","新北市中和區圓通路391-4號","121.489828333333","24.9891516666667","6500300","中和區"
"220016","013-TV","2017/11/09 13:49:26","新北市板橋區縣民大道三段126-6號","121.474268333333","25.0205383333333","6500100","板橋區"
"220013","072-UY","2017/11/09 13:49:28","新北市板橋區縣民大道二段101號","121.46666","25.015265","6500100","板橋區"
"220034","073-UY","2017/11/09 13:49:23","新北市板橋區大智街71巷9號","121.452995","25.0143983333333","6500100","板橋區"
"220105","075-UY","2017/11/09 13:49:14","新北市板橋區民生路二段161巷9號","121.470306666667","25.0194283333333","6500100","板橋區"
"247009","339-TH","2017/11/09 13:49:23","新北市三重區環河北路三段528號","121.488803333333","25.0911033333333","6501400","蘆洲區"
"247003","336-TH","2017/11/09 13:49:14","新北市蘆洲區長榮路76號","121.462288333333","25.0836716666667","6501400","蘆洲區"
"247015","057-VK","2017/11/09 13:49:34","新北市蘆洲區中正路102號","121.469781666667","25.084415","6501400","蘆洲區"
"247005","056-VK","2017/11/09 13:49:25","新北市蘆洲區中山二路275號","121.469685","25.079105","6501400","蘆洲區"
"247007","053-VK","2017/11/09 13:49:17","新北市蘆洲區永安北路二段58巷12號","121.482458333333","25.084025","6501400","蘆洲區"
"247013","007-UY","2017/11/09 13:49:25","新北市蘆洲區三民路378號","121.464143333333","25.0916933333333","6501400","蘆洲區"
"247017","001-UY","2017/11/09 13:49:24","新北市蘆洲區民義街30巷14號","121.472133333333","25.0882583333333","6501400","蘆洲區"
"228005","097-TW","2017/11/09 13:49:15","新北市雙溪區三港里雙澳路100號","121.889205","25.05593","6502600","貢寮區"
"228004","212-TW","2017/11/09 13:40:59","新北市貢寮區龍崗里嵩陽街41號","121.904915","25.0135633333333","6502600","貢寮區"
"224010","AGQ-8101","2017/11/09 08:57:17","新北市瑞芳區逢甲路17號","121.809531666667","25.108495","6501200","瑞芳區"
"207002","749-BX","2017/11/09 13:49:28","新北市萬里區崁腳里崁腳路166號","121.645065","25.1560566666667","6502800","萬里區"
"252005","073-UM","2017/11/09 13:49:31","新北市三芝區圓山里木屐寮40號","121.531826666667","25.2240433333333","6502100","三芝區"
"207001","662-BX","2017/11/09 13:49:27","新北市萬里區磺潭里公館崙58號","121.628656666667","25.20576","6502800","萬里區"
"208004","170-UY","2017/11/09 13:49:23","新北市金山區南勢湖27號","121.619445","25.2178133333333","6502700","金山區"
"236066","105-UM","2017/11/09 13:49:17","新北市土城區城林路6巷80號","121.438535","24.9796433333333","6501300","土城區"
"236076","166-UM","2017/11/09 13:49:17","新北市土城區中央路三段122號","121.43519","24.966105","6501300","土城區"
"236028","253-BX","2017/11/09 13:49:19","新北市土城區城林路6巷80號","121.438475","24.9798133333333","6501300","土城區"
"236024","269-VK","2017/11/09 13:49:27","新北市土城區中華路二段26-1號","121.439241666667","24.9781083333333","6501300","土城區"
"236012","270-VK","2017/11/09 13:49:19","新北市土城區城林路6巷80號","121.438413333333","24.979695","6501300","土城區"
"236033","271-VK","2017/11/09 13:49:19","新北市土城區城林路6巷80號","121.43853","24.9798233333333","6501300","土城區"
"236018","401-BY","2017/11/09 13:49:21","新北市土城區城林路6巷80號","121.438593333333","24.9797933333333","6501300","土城區"
"236005","498-BY","2017/11/09 13:49:24","新北市土城區中華路一段301號","121.439951666667","24.979405","6501300","土城區"
"236047","752-BX","2017/11/09 13:49:29","新北市土城區城林路6巷80號","121.438771666667","24.9797266666667","6501300","土城區"
"236056","912-UM","2017/11/09 13:49:14","新北市土城區城林路6巷80號","121.438426666667","24.9799133333333","6501300","土城區"
"236052","AAC-216","2017/11/09 13:49:26","新北市土城區城林路6巷80號","121.438376666667","24.97986","6501300","土城區"
"242001","233-RS","2017/11/09 09:13:50","新北市新莊區環河路48-7號","121.436898333333","25.009815","6500500","新莊區"
"221012","276-VK","2017/11/09 13:26:11","新北市汐止區汐萬路一段256巷3號","121.653455","25.0746316666667","6501100","汐止區"
"220027","145-BY","2017/11/09 13:49:29","新北市板橋區國光路35號","121.457343333333","25.017695","6500100","板橋區"
"220028","200-UY","2017/11/09 13:49:18","新北市板橋區大觀路二段265巷128號","121.442315","24.996295","6500100","板橋區"
"220030","610-BX","2017/11/09 13:49:31","新北市板橋區篤行路三段玉平巷45號","121.428716666667","24.9868483333333","6500100","板橋區"
"220004","276-BY","2017/11/09 13:49:25","新北市板橋區四川路二段23-3號","121.45469","24.99554","6500100","板橋區"
"220020","277-BY","2017/11/09 13:49:30","新北市板橋區金門街8號","121.43343","24.9947233333333","6500100","板橋區"
"220050","280-UM","2017/11/09 13:49:30","新北市板橋區民生路二段161巷1號","121.470153333333","25.0198716666667","6500100","板橋區"
"220019","283-VK","2017/11/09 13:49:26","新北市板橋區忠孝路37號","121.46094","25.0020983333333","6500100","板橋區"
"220043","285-UM","2017/11/09 13:49:27","新北市板橋區民生路二段161巷1號","121.47006","25.0198483333333","6500100","板橋區"
"220001","285-VK","2017/11/09 13:49:17","新北市板橋區民生路二段123號","121.470626666667","25.0186933333333","6500100","板橋區"
"220031","286-VK","2017/11/09 13:49:26","新北市板橋區大觀路二段22巷26號","121.445341666667","25.0035916666667","6500100","板橋區"
"220029","287-VK","2017/11/09 13:49:22","新北市板橋區光華街13巷24號","121.453476666667","25.0114733333333","6500100","板橋區"
"220039","288-VK","2017/11/09 13:49:24","新北市板橋區民生路二段120號","121.470478333333","25.019625","6500100","板橋區"
"220009","295-UM","2017/11/09 13:49:26","新北市板橋區民生路二段121號","121.470726666667","25.018385","6500100","板橋區"
"220032","296-UM","2017/11/09 13:49:16","新北市板橋區大觀路二段148巷51號","121.441726666667","25.001145","6500100","板橋區"
"220023","297-UM","2017/11/09 13:49:31","新北市板橋區大觀路一段14號","121.450393333333","25.0085516666667","6500100","板橋區"
"220041","299-UM","2017/11/07 21:06:42","新北市板橋區民生路二段89-6號","121.470506666667","25.0189516666667","6500100","板橋區"
"220010","303-R5","2017/11/09 13:49:05","新北市板橋區觀光街2-5號","121.472153333333","25.0155783333333","6500100","板橋區"
"220047","317-R6","2017/11/09 13:49:30","新北市板橋區民生路二段161巷1號","121.470221666667","25.0198566666667","6500100","板橋區"
"220012","486-VK","2017/11/09 13:49:33","新北市板橋區民生路二段15-1號","121.472866666667","25.0161116666667","6500100","板橋區"
"220038","487-VK","2017/11/09 13:49:19","新北市板橋區民生路二段161巷1號","121.469905","25.020005","6500100","板橋區"
"220037","491-VK","2017/11/09 13:49:12","新北市板橋區民生路二段175號","121.469861666667","25.0202333333333","6500100","板橋區"
"220104","560-BX","2017/11/09 13:49:23","新北市板橋區中正路325巷5弄6號","121.453295","25.0192316666667","6500100","板橋區"
"220052","561-BX","2017/11/09 13:49:32","新北市板橋區民生路二段120號","121.470351666667","25.0198933333333","6500100","板橋區"
"220011","609-BX","2017/11/09 13:49:22","新北市板橋區民生路二段89-4號","121.471135","25.01811","6500100","板橋區"
"220017","630-UY","2017/11/09 13:49:23","新北市板橋區館前西路19-2號","121.458745","25.0067733333333","6500100","板橋區"
"220040","637-BX","2017/11/09 13:49:28","新北市板橋區民生路二段188號","121.470311666667","25.0202483333333","6500100","板橋區"
"220005","686-BX","2017/11/09 13:49:28","新北市板橋區華東街1-9號","121.448216666667","24.99495","6500100","板橋區"
"220025","687-BX","2017/11/09 13:49:17","新北市板橋區金門街55號","121.433271666667","24.9930783333333","6500100","板橋區"
"220042","689-BX","2017/11/09 13:49:18","新北市板橋區民生路二段188號","121.470418333333","25.0202466666667","6500100","板橋區"
"220002","741-BX","2017/11/09 13:49:15","新北市板橋區南雅南路二段144巷46號","121.44983","24.997035","6500100","板橋區"
"220003","827-TW","2017/11/09 13:49:17","新北市板橋區南雅南路二段144巷60號","121.450133333333","24.997315","6500100","板橋區"
"220014","829-TW","2017/11/09 13:49:28","新北市板橋區民生路二段89-6號","121.470613333333","25.018775","6500100","板橋區"
"220051","830-TW","2017/11/07 21:43:47","新北市板橋區民生路二段120號","121.47091","25.0196483333333","6500100","板橋區"
"220045","831-TW","2017/11/08 01:23:56","新北市板橋區民生路二段161巷1號","121.47001","25.0200966666667","6500100","板橋區"
"220022","895-R6","2017/11/09 13:49:33","新北市板橋區府中路63號","121.45824","25.0093066666667","6500100","板橋區"
"220021","985-R7","2017/11/09 13:49:30","新北市板橋區南門街58號","121.456775","25.0079866666667","6500100","板橋區"
"220046","AAC-210","2017/11/09 13:49:15","新北市板橋區民生路二段161巷3號","121.470015","25.019695","6500100","板橋區"
"220018","AAC-253","2017/11/09 13:49:33","新北市板橋區四川路一段58號","121.459625","25.0056916666667","6500100","板橋區"
