"lineid","car","time","location","longitude","latitude","cityid","cityname"
"234044","148-BY","2017/11/09 13:59:16","新北市永和區成功路一段16巷4號","121.526753333333","25.005495","6500400","永和區"
"234012","149-BY","2017/11/09 13:59:10","新北市永和區保生路55號","121.504765","25.0106566666667","6500400","永和區"
"234005","207-UY","2017/11/09 13:59:30","","121.509631666667","25.00087","6500400","永和區"
"234078","298-R6","2017/11/09 13:59:24","新北市永和區國中路8號","121.524308333333","25.004745","6500400","永和區"
"234036","336-UY","2017/11/09 13:59:27","新北市永和區成功路二段167號","121.52669","24.9970516666667","6500400","永和區"
"234062","337-UY","2017/11/09 13:59:30","新北市永和區中正路412巷20弄14號","121.518788333333","25.00157","6500400","永和區"
"234068","552-UM","2017/11/09 13:59:27","新北市永和區國光路14號","121.519103333333","25.0083666666667","6500400","永和區"
"234052","553-UM","2017/11/09 13:59:25","新北市永和區竹林路39巷34號","121.519616666667","25.015085","6500400","永和區"
"234015","745-BX","2017/11/09 13:59:33","新北市永和區文化路80號","121.514071666667","25.0152316666667","6500400","永和區"
"234028","746-BX","2017/11/09 13:59:31","","121.525201666667","24.9979166666667","6500400","永和區"
"234060","AAD-866","2017/11/09 13:59:30","新北市永和區中正路283巷82號","121.515505","24.9989283333333","6500400","永和區"
"234086","847-RS","2017/11/09 13:59:18","新北市永和區福和路160號","121.521386666667","25.00794","6500400","永和區"
"234040","862-TW","2017/11/09 13:59:32","新北市永和區中和路421巷5弄17號","121.508496666667","25.0008583333333","6500400","永和區"
"234048","863-TW","2017/11/09 13:59:30","新北市永和區保安路149巷2弄1號","121.507235","25.0130516666667","6500400","永和區"
"234025","9381-KE","2017/11/09 13:59:24","新北市永和區安樂路304巷2號","121.514423333333","25.0049316666667","6500400","永和區"
"234010","9373-KE","2017/11/09 13:59:15","新北市永和區仁愛路352巷112弄17號","121.501143333333","25.008615","6500400","永和區"
"248015","026-BX","2017/11/09 13:59:30","新北市五股區成泰路三段543巷20號","121.45092","25.1024266666667","6501500","五股區"
"248007","095-VK","2017/11/09 13:59:29","新北市五股區中興路一段118巷6弄4號","121.466301666667","25.0741533333333","6501500","五股區"
"248017","225-UY","2017/11/09 13:59:34","新北市五股區民義路一段312-22號","121.422415","25.0955166666667","6501500","五股區"
"248011","247-BX","2017/11/09 13:59:17","新北市五股區成泰路二段195巷1號","121.440446666667","25.0874266666667","6501500","五股區"
"248009","272-BY","2017/11/09 13:59:24","新北市五股區水碓五路75號","121.429771666667","25.0715583333333","6501500","五股區"
"248003","677-BX","2017/11/09 13:59:25","新北市五股區民義路二段93-9號","121.407191666667","25.106855","6501500","五股區"
"248001","678-BX","2017/11/09 13:59:15","新北市五股區天乙路3號","121.44877","25.1026966666667","6501500","五股區"
"234022","9380-KE","2017/11/09 13:59:14","新北市永和區復興街39號","121.51653","25.0132783333333","6500400","永和區"
"234076","969-R7","2017/11/09 13:59:28","新北市永和區民族街55號","121.518341666667","24.998165","6500400","永和區"
"234072","AAC-211","2017/11/09 13:59:31","新北市永和區豫溪街189巷5號","121.522551666667","25.010385","6500400","永和區"
"234066","AAC-212","2017/11/09 13:59:19","新北市永和區中山路一段277號","121.507076666667","25.0070833333333","6500400","永和區"
"234001","AAC-295","2017/11/09 13:59:20","新北市永和區福和路308號","121.516398333333","25.0073283333333","6500400","永和區"
"244024","742-UY","2017/11/09 09:36:54","新北市林口區粉寮69號","121.405125","25.090835","6501700","林口區"
"243004","AAD-798","2017/11/09 13:59:27","新北市泰山區福興三街185號","121.433068333333","25.0571033333333","6501600","泰山區"
"243001","297-R6","2017/11/09 13:59:14","新北市泰山區泰林路二段416號","121.427245","25.064345","6501600","泰山區"
"243007","380-SR","2017/11/09 13:59:19","新北市泰山區泰林路二段246號","121.432103333333","25.0622683333333","6501600","泰山區"
"243006","421-VK","2017/11/09 13:59:18","新北市泰山區黎明路23-1號","121.421373333333","25.0612183333333","6501600","泰山區"
"243002","KEA-2215","2017/11/09 13:59:18","新北市泰山區辭修路24號","121.429025","25.0582083333333","6501600","泰山區"
"243003","KEA-2216","2017/11/09 13:59:23","新北市泰山區明志路二段246-1號","121.427128333333","25.048075","6501600","泰山區"
"243005","646-TV","2017/11/09 13:59:14","新北市泰山區明志路三段206巷13號","121.423123333333","25.037695","6501600","泰山區"
"243008","680-BX","2017/11/09 13:59:16","新北市泰山區明志路二段135號","121.427715","25.05076","6501600","泰山區"
"231002","002-UM","2017/11/09 13:59:30","","121.533991666667","24.989345","6500600","新店區"
"231028","046-UY","2017/11/09 13:59:24","新北市新店區安和路三段110巷5號","121.517506666667","24.9854716666667","6500600","新店區"
"231030","047-UY","2017/11/09 13:59:29","新北市新店區安興路7-1號","121.514993333333","24.9685766666667","6500600","新店區"
"231029","106-UY","2017/11/09 13:59:23","新北市新店區安康路二段18號","121.516068333333","24.9637633333333","6500600","新店區"
"231011","108-UY","2017/11/09 13:59:20","新北市新店區中興路二段29號","121.546118333333","24.9695733333333","6500600","新店區"
"231021","187-VK","2017/11/09 13:59:14","新北市新店區新烏路二段7號","121.544105","24.9293783333333","6500600","新店區"
"231017","KEA-2219","2017/11/09 13:59:33","新北市新店區北宜路二段82-40號","121.553588333333","24.95316","6500600","新店區"
"231026","256-BX","2017/11/09 13:59:16","新北市新店區環河路105-4號","121.53206","24.9708116666667","6500600","新店區"
"231027","3712-VJ","2017/11/09 13:59:33","新北市新店區北宜路一段3號","121.538543333333","24.9584033333333","6500600","新店區"
"231025","3713-VJ","2017/11/09 13:59:30","新北市新店區中正路354號","121.535791666667","24.9755916666667","6500600","新店區"
"231024","4716-K9","2017/11/09 13:59:30","新北市新店區北新路一段271巷26號","121.540071666667","24.9672916666667","6500600","新店區"
"231038","4715-K9","2017/11/09 13:59:27","新北市新店區溪洲路121號","121.531526666667","24.96312","6500600","新店區"
"231036","512-UM","2017/11/09 13:59:25","新北市新店區安祥路109巷3弄1號","121.477816666667","24.9613","6500600","新店區"
"231023","513-UM","2017/11/09 13:59:16","新北市新店區文中路51號","121.539751666667","24.95667","6500600","新店區"
"231035","515-UM","2017/11/09 13:59:20","新北市新店區安忠路36號","121.514071666667","24.96068","6500600","新店區"
"231001","619-UM","2017/11/09 13:59:27","新北市新店區三民路22巷1號","121.537158333333","24.9711666666667","6500600","新店區"
"231003","641-BX","2017/11/09 13:59:27","新北市新店區光明街24號","121.538538333333","24.9586433333333","6500600","新店區"
"231034","645-TV","2017/11/09 13:59:22","新北市新店區達觀路38號","121.502148333333","24.93889","6500600","新店區"
"231013","719-UM","2017/11/09 13:59:33","新北市新店區明德路66號","121.541656666667","24.97954","6500600","新店區"
"231018","719-UY","2017/11/09 13:59:17","新北市新店區中央路116號","121.531153333333","24.9752366666667","6500600","新店區"
"231031","720-UM","2017/11/09 13:59:30","","121.53024","24.9603583333333","6500600","新店區"
"231005","897-TW","2017/11/09 13:59:18","新北市新店區寶中路49-1號","121.54592","24.9796733333333","6500600","新店區"
"231006","898-TW","2017/11/09 13:59:23","新北市新店區北宜路二段209號","121.553151666667","24.9534183333333","6500600","新店區"
"231004","899-TW","2017/11/09 13:59:12","新北市新店區寶橋路6巷4號","121.543331666667","24.9736066666667","6500600","新店區"
"231037","AKT-0513","2017/11/09 13:59:31","新北市新店區安康路三段165巷2弄8號","121.489293333333","24.9513983333333","6500600","新店區"
"235030","003-UY","2017/11/09 13:59:23","新北市中和區中山路二段131巷5弄11號","121.503071666667","25.003035","6500300","中和區"
"235028","005-UY","2017/11/09 13:59:22","新北市中和區泰和街42號","121.49918","24.9997966666667","6500300","中和區"
"235027","006-UY","2017/11/09 13:59:24","新北市中和區中正路556號","121.486861666667","24.9945666666667","6500300","中和區"
"235020","096-UM","2017/11/09 13:59:27","","121.479196666667","25.0096683333333","6500300","中和區"
"235003","097-UM","2017/11/09 13:59:28","新北市中和區景平路64巷13弄22號","121.521348333333","24.99154","6500300","中和區"
"235029","098-UM","2017/11/09 13:59:26","新北市中和區勝利路3號","121.49998","25.008145","6500300","中和區"
"235004","150-BY","2017/11/09 13:59:18","新北市中和區保健路46巷18號","121.509105","24.9962733333333","6500300","中和區"
"235022","151-BY","2017/11/09 13:59:15","新北市中和區員山路90號","121.480925","24.9944383333333","6500300","中和區"
"235019","183-VK","2017/11/09 13:59:34","新北市板橋區民族路276巷15號","121.469746666667","25.00597","6500300","中和區"
"235002","185-VK","2017/11/09 13:59:21","新北市中和區大仁街20巷1號","121.517818333333","24.9933816666667","6500300","中和區"
"235013","186-VK","2017/11/09 13:59:20","新北市中和區景安路167巷17號","121.506365","24.9948666666667","6500300","中和區"
"235031","255-BX","2017/11/09 13:59:25","新北市中和區新生街266號","121.483518333333","24.9972816666667","6500300","中和區"
"235008","293-VK","2017/11/09 13:59:20","新北市中和區中興街161巷5弄2號","121.500856666667","24.99093","6500300","中和區"
"235036","301-VK","2017/11/09 13:59:33","新北市中和區中山路二段10號","121.50509","25.0056116666667","6500300","中和區"
"235007","352-BY","2017/11/09 13:59:25","新北市中和區秀朗路三段95號","121.526643333333","24.9950733333333","6500300","中和區"
"235032","377-QA","2017/11/09 13:59:14","新北市中和區圓通路291巷2號","121.495186666667","24.9925783333333","6500300","中和區"
"235025","378-QA","2017/11/09 13:59:18","新北市中和區民治街130巷6號","121.47496","25.00271","6500300","中和區"
"235033","4980-A6","2017/11/09 13:59:24","新北市中和區中和路165巷21號","121.503125","25.00053","6500300","中和區"
"235006","551-UM","2017/11/09 13:59:19","新北市中和區秀朗路三段100巷1號","121.525536666667","24.9932683333333","6500300","中和區"
"235034","558-UM","2017/11/09 13:59:05","新北市中和區廣福路53巷28號","121.503066666667","25.000745","6500300","中和區"
"235009","565-BX","2017/11/09 13:59:27","新北市中和區景新街467巷14號","121.513968333333","24.988275","6500300","中和區"
"235011","732-UM","2017/11/09 13:59:14","新北市中和區興南路二段94號","121.505453333333","24.9842966666667","6500300","中和區"
"235010","733-UM","2017/11/09 13:59:29","新北市中和區興南路一段135巷17號","121.509433333333","24.98706","6500300","中和區"
"235026","800-TS","2017/11/09 13:59:15","新北市中和區中山路二段340巷30號","121.493381666667","25.0035833333333","6500300","中和區"
"235021","801-TS","2017/11/09 13:59:35","新北市中和區民安街53-1號","121.479321666667","24.999965","6500300","中和區"
"235005","802-TS","2017/11/09 13:59:30","新北市中和區永貞路241號","121.513158333333","25.0038266666667","6500300","中和區"
"235016","805-TS","2017/11/09 13:59:17","新北市中和區興南路二段131-9號","121.504083333333","24.9809","6500300","中和區"
"235012","896-TW","2017/11/09 13:59:24","新北市中和區華新街65號","121.508135","24.98414","6500300","中和區"
"235017","900-TW","2017/11/09 13:59:20","新北市中和區華福街4巷12號","121.465501666667","24.99634","6500300","中和區"
"235024","911-UM","2017/11/09 13:59:19","新北市中和區中山路三段148號","121.473646666667","25.0063266666667","6500300","中和區"
"235001","157-BY","2017/11/09 13:59:27","新北市中和區忠孝街19巷24-1號","121.509996666667","24.983525","6500300","中和區"
"235001","AAC-213","2017/11/09 13:59:24","新北市中和區秀朗路三段60巷71號","121.523966666667","24.9946333333333","6500300","中和區"
"235023","AAC-215","2017/11/09 13:59:13","新北市中和區圓通路367巷20弄21號","121.49156","24.9884033333333","6500300","中和區"
"220016","013-TV","2017/11/09 13:59:26","新北市板橋區中山路二段443號","121.481388333333","25.0202233333333","6500100","板橋區"
"220013","072-UY","2017/11/09 13:59:28","新北市板橋區漢生東路340巷2號","121.471691666667","25.007475","6500100","板橋區"
"220034","073-UY","2017/11/09 13:59:23","新北市板橋區民權路209-1號","121.457861666667","25.01482","6500100","板橋區"
"220105","075-UY","2017/11/09 13:59:14","新北市板橋區文化路二段124巷28-2號","121.471248333333","25.0257466666667","6500100","板橋區"
"247019","500-BY","2017/11/09 13:59:30","新北市蘆洲區民族路422巷35號","121.473406666667","25.0935","6501400","蘆洲區"
"247009","339-TH","2017/11/09 13:59:23","新北市蘆洲區中興街46號","121.48144","25.0870233333333","6501400","蘆洲區"
"247001","337-TH","2017/11/09 13:59:24","新北市蘆洲區三民路609號","121.46033","25.0935716666667","6501400","蘆洲區"
"247003","336-TH","2017/11/09 13:59:13","新北市蘆洲區長安街100號","121.461716666667","25.080845","6501400","蘆洲區"
"247015","057-VK","2017/11/09 13:59:34","新北市蘆洲區光華路42號","121.46888","25.0831266666667","6501400","蘆洲區"
"247005","056-VK","2017/11/09 13:59:25","新北市蘆洲區九芎街71巷33號","121.466243333333","25.0776183333333","6501400","蘆洲區"
"247007","053-VK","2017/11/09 13:59:17","新北市蘆洲區中山一路6號","121.480816666667","25.0803633333333","6501400","蘆洲區"
"247013","007-UY","2017/11/09 13:59:25","新北市蘆洲區中正路100號","121.469813333333","25.0843833333333","6501400","蘆洲區"
"247017","001-UY","2017/11/09 13:59:24","新北市蘆洲區民族路255巷12號","121.476213333333","25.0896666666667","6501400","蘆洲區"
"228005","097-TW","2017/11/09 13:59:15","新北市貢寮區美豐里雞母嶺街52-1號","121.88859","25.06861","6502600","貢寮區"
"228004","212-TW","2017/11/09 13:59:19","新北市貢寮區龍崗里嵩陽街35-1號","121.906696666667","25.0175483333333","6502600","貢寮區"
"224010","AGQ-8101","2017/11/09 08:57:17","新北市瑞芳區逢甲路17號","121.809531666667","25.108495","6501200","瑞芳區"
"227004","400-TW","2017/11/09 13:59:31","新北市雙溪區三貂里政光路3-1號","121.850923333333","25.06322","6502500","雙溪區"
"207002","749-BX","2017/11/09 13:51:47","新北市萬里區溪底里烏塗炭1號","121.640525","25.1547716666667","6502800","萬里區"
"252005","073-UM","2017/11/09 13:59:11","新北市三芝區圓山里內柑宅22-2號","121.536983333333","25.2176916666667","6502100","三芝區"
"207001","662-BX","2017/11/09 13:59:27","新北市萬里區磺潭里清水18號","121.637778333333","25.1978433333333","6502800","萬里區"
"208004","170-UY","2017/11/09 13:59:23","新北市金山區重和里三重橋18號","121.58917","25.188485","6502700","金山區"
"236066","105-UM","2017/11/09 13:59:17","新北市土城區中正路19號","121.443331666667","24.9752716666667","6501300","土城區"
"236040","107-UM","2017/11/09 13:59:20","新北市土城區裕生路61號","121.447651666667","24.9860416666667","6501300","土城區"
"236076","166-UM","2017/11/09 13:59:17","新北市土城區永寧路32巷10弄25號","121.42878","24.9611116666667","6501300","土城區"
"236028","253-BX","2017/11/09 13:59:19","新北市土城區城林路6巷80號","121.438526666667","24.9798133333333","6501300","土城區"
"236024","269-VK","2017/11/09 13:59:27","","121.439556666667","24.9634683333333","6501300","土城區"
"236012","270-VK","2017/11/09 13:59:19","新北市土城區中央路二段280號","121.440718333333","24.973945","6501300","土城區"
"236033","271-VK","2017/11/09 13:59:19","新北市土城區中央路二段280號","121.440823333333","24.974085","6501300","土城區"
"236018","401-BY","2017/11/09 13:59:21","新北市土城區城林路6巷80號","121.43861","24.9797983333333","6501300","土城區"
"236005","498-BY","2017/11/09 13:59:24","新北市土城區中央路一段289-1號","121.444253333333","24.984225","6501300","土城區"
"236047","752-BX","2017/11/09 13:59:29","新北市土城區城林路6巷80號","121.438756666667","24.97973","6501300","土城區"
"236056","912-UM","2017/11/09 13:59:34","新北市土城區中央路三段194號","121.430403333333","24.964965","6501300","土城區"
"236060","915-UM","2017/11/09 13:59:16","新北市土城區城林路6巷80號","121.438463333333","24.97997","6501300","土城區"
"236052","AAC-216","2017/11/09 13:59:26","新北市土城區城林路6巷80號","121.438551666667","24.9797583333333","6501300","土城區"
"242001","233-RS","2017/11/09 09:13:50","新北市新莊區環河路48-7號","121.436898333333","25.009815","6500500","新莊區"
"221012","276-VK","2017/11/09 13:26:11","新北市汐止區汐萬路一段256巷3號","121.653455","25.0746316666667","6501100","汐止區"
"220027","145-BY","2017/11/09 13:59:29","新北市板橋區民權路202巷7弄2號","121.460065","25.01478","6500100","板橋區"
"220028","200-UY","2017/11/09 13:59:18","新北市板橋區大觀路二段265巷3弄35號","121.444318333333","24.997885","6500100","板橋區"
"220030","610-BX","2017/11/09 13:59:30","新北市板橋區篤行路二段136號","121.429885","24.9884583333333","6500100","板橋區"
"220004","276-BY","2017/11/09 13:59:25","新北市板橋區信義路161號","121.458426666667","24.9925783333333","6500100","板橋區"
"220020","277-BY","2017/11/09 13:59:30","新北市樹林區樹新路205-3號","121.429665","24.9978133333333","6500100","板橋區"
"220050","280-UM","2017/11/09 13:59:30","新北市板橋區文化路二段182巷1弄2號","121.471151666667","25.0273566666667","6500100","板橋區"
"220019","283-VK","2017/11/09 13:59:33","新北市板橋區重慶路243號","121.463153333333","25.00059","6500100","板橋區"
"220043","285-UM","2017/11/09 13:59:27","新北市板橋區莒光路1-1號","121.469655","25.0249183333333","6500100","板橋區"
"220001","285-VK","2017/11/09 13:59:17","新北市板橋區中山路二段89巷53號","121.47366","25.0173633333333","6500100","板橋區"
"220031","286-VK","2017/11/09 13:59:26","","121.4427","25.00611","6500100","板橋區"
"220029","287-VK","2017/11/09 13:59:29","新北市板橋區光華街19巷66號","121.453168333333","25.012","6500100","板橋區"
"220039","288-VK","2017/11/09 13:59:24","新北市板橋區四維路177巷2弄3號","121.463923333333","25.02633","6500100","板橋區"
"220009","295-UM","2017/11/09 13:59:26","","121.476773333333","25.02188","6500100","板橋區"
"220032","296-UM","2017/11/09 13:59:22","新北市板橋區龍興街63巷7號","121.442681666667","25.0013416666667","6500100","板橋區"
"220023","297-UM","2017/11/09 13:59:31","","121.454408333333","25.00738","6500100","板橋區"
"220041","299-UM","2017/11/09 13:59:29","","121.465661666667","25.017505","6500100","板橋區"
"220010","303-R5","2017/11/09 13:59:25","新北市板橋區三民路二段243號","121.479011666667","25.0124583333333","6500100","板橋區"
"220047","317-R6","2017/11/09 13:59:31","新北市板橋區民有街34號","121.465955","25.0254833333333","6500100","板橋區"
"220012","486-VK","2017/11/09 13:59:33","新北市板橋區板新路235號","121.467726666667","25.015925","6500100","板橋區"
"220038","487-VK","2017/11/09 13:59:19","新北市板橋區文化路二段317號","121.472238333333","25.0297916666667","6500100","板橋區"
"220037","491-VK","2017/11/09 13:59:14","新北市板橋區民生路二段216號","121.46945","25.02154","6500100","板橋區"
"220104","560-BX","2017/11/09 13:59:14","新北市板橋區中正路341巷6號","121.454591666667","25.0203983333333","6500100","板橋區"
"220052","561-BX","2017/11/09 13:59:17","新北市板橋區縣民大道二段279號","121.47005","25.017835","6500100","板橋區"
"220011","609-BX","2017/11/09 13:59:22","新北市板橋區中山路二段125號","121.47511","25.0164816666667","6500100","板橋區"
"220017","630-UY","2017/11/09 13:59:31","","121.457751666667","25.0048183333333","6500100","板橋區"
"220040","637-BX","2017/11/09 13:59:28","新北市板橋區大同街36號","121.478315","25.0274283333333","6500100","板橋區"
"220005","686-BX","2017/11/09 13:59:34","新北市板橋區館前東路1號","121.4596","25.0072283333333","6500100","板橋區"
"220025","687-BX","2017/11/09 13:59:17","新北市板橋區大觀路二段156巷37號","121.441068333333","24.9997283333333","6500100","板橋區"
"220042","689-BX","2017/11/09 13:59:18","新北市板橋區民生路三段12號","121.467578333333","25.0243033333333","6500100","板橋區"
"220002","741-BX","2017/11/09 13:59:15","新北市板橋區後埔街21號","121.460506666667","25.0064983333333","6500100","板橋區"
"220003","827-TW","2017/11/09 13:59:17","新北市板橋區民安街13號","121.46692","25.0117","6500100","板橋區"
"220014","829-TW","2017/11/09 13:59:28","新北市板橋區三民路二段正隆巷12弄1號","121.478051666667","25.0129016666667","6500100","板橋區"
"220051","830-TW","2017/11/09 13:59:14","新北市板橋區八德路二段62號","121.482003333333","25.0272833333333","6500100","板橋區"
"220045","831-TW","2017/11/09 13:59:21","新北市板橋區莒光路99號","121.472513333333","25.02413","6500100","板橋區"
"220022","895-R6","2017/11/09 13:59:32","","121.45499","25.0043116666667","6500100","板橋區"
"220021","985-R7","2017/11/09 13:59:30","新北市板橋區館前西路152號","121.455338333333","25.0084233333333","6500100","板橋區"
"220046","AAC-210","2017/11/09 13:59:35","新北市板橋區陽明街166號","121.463485","25.0245083333333","6500100","板橋區"
"220018","AAC-253","2017/11/09 13:59:22","新北市板橋區四川路一段337號","121.458586666667","25.0001033333333","6500100","板橋區"
