"lineid","car","time","location","longitude","latitude","cityid","cityname"
"234044","148-BY","2017/11/09 14:19:16","新北市永和區永元路124號","121.522746666667","25.0028","6500400","永和區"
"234012","149-BY","2017/11/09 14:19:31","新北市永和區保生路5巷1號","121.506211666667","25.00715","6500400","永和區"
"234005","207-UY","2017/11/09 14:19:30","新北市永和區中山路一段214號","121.508468333333","25.0084016666667","6500400","永和區"
"234078","298-R6","2017/11/09 14:19:20","新北市永和區國中路146號","121.523146666667","25.0070366666667","6500400","永和區"
"234036","336-UY","2017/11/09 14:19:24","新北市永和區成功路一段93巷21弄2號","121.528338333333","25.002695","6500400","永和區"
"234062","337-UY","2017/11/09 14:19:30","新北市永和區得和路127號","121.518883333333","25.0003333333333","6500400","永和區"
"234068","552-UM","2017/11/09 14:19:27","新北市永和區福和路263巷7弄1號","121.517933333333","25.0070216666667","6500400","永和區"
"234052","553-UM","2017/11/09 14:19:25","新北市永和區永和路二段306號","121.516426666667","25.0159533333333","6500400","永和區"
"234028","746-BX","2017/11/09 14:19:31","新北市永和區民權路49巷21號","121.52115","24.9974583333333","6500400","永和區"
"234060","AAD-866","2017/11/09 14:19:29","新北市永和區安樂路166號","121.51457","25.0008233333333","6500400","永和區"
"234086","847-RS","2017/11/09 14:19:34","新北市永和區永和路二段93號","121.51483","25.0114533333333","6500400","永和區"
"234040","862-TW","2017/11/09 14:19:31","新北市永和區雙和街1號","121.509841666667","25.00161","6500400","永和區"
"234048","863-TW","2017/11/09 14:19:26","新北市永和區文化路222號","121.509998333333","25.0169233333333","6500400","永和區"
"234025","9381-KE","2017/11/09 14:19:24","新北市永和區安樂路144巷31號","121.515278333333","24.9997116666667","6500400","永和區"
"248013","025-BX","2017/11/09 14:19:33","新北市五股區民義路一段107巷32號","121.432258333333","25.085","6501500","五股區"
"248015","026-BX","2017/11/09 14:19:30","新北市五股區成洲五路12號","121.45236","25.1015783333333","6501500","五股區"
"248017","225-UY","2017/11/09 14:19:14","新北市五股區壟路7-3號","121.416045","25.0889866666667","6501500","五股區"
"248011","247-BX","2017/11/09 14:19:17","新北市五股區中興路四段56號","121.437913333333","25.0830866666667","6501500","五股區"
"248009","272-BY","2017/11/09 14:19:24","新北市五股區水碓一路23號","121.43064","25.07128","6501500","五股區"
"248003","677-BX","2017/11/09 14:19:24","新北市五股區五福路40號","121.433906666667","25.08925","6501500","五股區"
"248001","678-BX","2017/11/09 14:19:35","新北市五股區成泰路四段14號","121.453393333333","25.10685","6501500","五股區"
"234022","9380-KE","2017/11/09 14:19:14","新北市永和區竹林路25巷23號","121.518191666667","25.01506","6500400","永和區"
"234076","969-R7","2017/11/09 14:19:26","新北市永和區民族街81巷58號","121.520086666667","24.9965066666667","6500400","永和區"
"234072","AAC-211","2017/11/09 14:19:31","新北市永和區豫溪街191巷7弄35號","121.523106666667","25.0111533333333","6500400","永和區"
"234066","AAC-212","2017/11/09 14:19:19","新北市永和區保平路260號","121.508946666667","25.0052216666667","6500400","永和區"
"234001","AAC-295","2017/11/09 14:19:20","新北市永和區中正路620號","121.517073333333","25.0078566666667","6500400","永和區"
"244024","742-UY","2017/11/09 09:36:54","新北市林口區粉寮69號","121.405125","25.090835","6501700","林口區"
"244003","657-BX","2017/11/09 14:19:15","新北市林口區林口路206號","121.38714","25.0834033333333","6501700","林口區"
"243004","AAD-798","2017/11/09 14:19:30","新北市泰山區仁義路203號","121.433208333333","25.0539133333333","6501600","泰山區"
"243001","297-R6","2017/11/09 14:19:14","新北市泰山區明志路一段17號","121.433858333333","25.065805","6501600","泰山區"
"243007","380-SR","2017/11/09 14:19:21","新北市泰山區公園路46號","121.428653333333","25.0545766666667","6501600","泰山區"
"243006","421-VK","2017/11/09 14:19:18","新北市泰山區泰林路二段232號","121.432488333333","25.062015","6501600","泰山區"
"243002","KEA-2215","2017/11/09 14:19:24","新北市泰山區明志路二段8號","121.429998333333","25.0536316666667","6501600","泰山區"
"243003","KEA-2216","2017/11/09 14:19:23","新北市泰山區貴子路15巷1弄2號","121.426376666667","25.0420416666667","6501600","泰山區"
"243005","646-TV","2017/11/09 14:19:14","新北市泰山區明志路三段145巷7號","121.425413333333","25.0400133333333","6501600","泰山區"
"243008","680-BX","2017/11/09 14:19:16","新北市泰山區明志路三段161號","121.424631666667","25.0395783333333","6501600","泰山區"
"231002","002-UM","2017/11/09 14:19:30","新北市新店區中央路125號","121.530625","24.9741283333333","6500600","新店區"
"231028","046-UY","2017/11/09 14:19:24","新北市新店區安和路二段3-5號","121.517968333333","24.9673783333333","6500600","新店區"
"231030","047-UY","2017/11/09 14:19:29","新北市新店區安民街14號","121.515435","24.9645416666667","6500600","新店區"
"231029","106-UY","2017/11/09 14:19:22","新北市新店區安康路二段161號","121.51025","24.9594733333333","6500600","新店區"
"231011","108-UY","2017/11/09 14:19:20","新北市新店區五峰路61巷13號","121.549528333333","24.9695933333333","6500600","新店區"
"231021","187-VK","2017/11/09 14:19:34","新北市新店區新烏路二段140號","121.548948333333","24.9192766666667","6500600","新店區"
"231017","KEA-2219","2017/11/09 14:19:13","新北市新店區中生路176號","121.576415","24.9492416666667","6500600","新店區"
"231027","3712-VJ","2017/11/09 14:19:14","新北市新店區光明街264號","121.540436666667","24.9639583333333","6500600","新店區"
"231025","3713-VJ","2017/11/09 14:19:30","新北市新店區二十張路129巷2弄2號","121.535995","24.9789933333333","6500600","新店區"
"231024","4716-K9","2017/11/09 14:19:30","新北市新店區安康路二段414巷2號","121.495893333333","24.957825","6500600","新店區"
"231038","4715-K9","2017/11/09 14:19:27","新北市新店區溪洲路6巷80-2號","121.533585","24.9631733333333","6500600","新店區"
"231036","512-UM","2017/11/09 14:19:25","新北市新店區安祥路109巷118號","121.476596666667","24.95839","6500600","新店區"
"231023","513-UM","2017/11/09 14:19:24","新北市新店區光明街138巷13弄1號","121.540316666667","24.9611416666667","6500600","新店區"
"231035","515-UM","2017/11/09 14:19:20","新北市新店區光華街5巷1號","121.517848333333","24.9687733333333","6500600","新店區"
"231001","619-UM","2017/11/09 14:19:26","新北市新店區北新路一段335號","121.54185","24.9686616666667","6500600","新店區"
"231003","641-BX","2017/11/09 14:19:27","新北市新店區中興路一段216號","121.543935","24.9657666666667","6500600","新店區"
"231034","645-TV","2017/11/09 14:19:22","新北市新店區黎明路3號","121.503566666667","24.9524883333333","6500600","新店區"
"231013","719-UM","2017/11/09 14:19:13","新北市新店區大豐路58號","121.539741666667","24.9797383333333","6500600","新店區"
"231018","719-UY","2017/11/09 14:19:17","新北市新店區中央四街85號","121.526043333333","24.9760616666667","6500600","新店區"
"231031","720-UM","2017/11/09 14:19:31","新北市新店區溪洲路200-6號","121.529076666667","24.9681633333333","6500600","新店區"
"231005","897-TW","2017/11/09 14:19:18","新北市新店區中興路三段226號","121.5434","24.9831966666667","6500600","新店區"
"231006","898-TW","2017/11/09 14:19:23","新北市新店區北宜路二段579巷1-1號","121.565625","24.9536116666667","6500600","新店區"
"231004","899-TW","2017/11/09 14:19:33","新北市新店區北新路二段94號","121.54305","24.9730966666667","6500600","新店區"
"231037","AKT-0513","2017/11/09 14:19:31","新北市新店區車子路49號","121.504186666667","24.9520383333333","6500600","新店區"
"235030","003-UY","2017/11/09 14:19:23","新北市中和區中和路136號","121.503453333333","24.9994016666667","6500300","中和區"
"235028","005-UY","2017/11/09 14:19:22","新北市中和區泰和街43號","121.499016666667","24.9994633333333","6500300","中和區"
"235027","006-UY","2017/11/09 14:19:24","新北市中和區連勝街119號","121.494978333333","24.9954","6500300","中和區"
"235020","096-UM","2017/11/09 14:19:26","新北市中和區民富街9號","121.476575","25.00727","6500300","中和區"
"235003","097-UM","2017/11/09 14:19:28","新北市中和區秀峰街119巷8弄4號","121.519451666667","24.9897983333333","6500300","中和區"
"235029","098-UM","2017/11/09 14:19:26","新北市中和區中山路二段2巷5弄2號","121.504475","25.0064766666667","6500300","中和區"
"235004","150-BY","2017/11/09 14:19:27","新北市中和區宜安路41號","121.511883333333","24.9963733333333","6500300","中和區"
"235022","151-BY","2017/11/09 14:19:15","新北市中和區員山路36巷16-2號","121.485255","24.9916083333333","6500300","中和區"
"235019","183-VK","2017/11/09 14:19:14","新北市中和區莒光路3巷7號","121.472143333333","25.0061783333333","6500300","中和區"
"235002","185-VK","2017/11/09 14:19:21","新北市中和區大仁街10巷33號","121.519381666667","24.9925166666667","6500300","中和區"
"235013","186-VK","2017/11/09 14:19:20","新北市中和區景新街228-6號","121.508203333333","24.99425","6500300","中和區"
"235031","255-BX","2017/11/09 14:19:25","新北市中和區新生街191號","121.483755","25.0002816666667","6500300","中和區"
"235008","293-VK","2017/11/09 14:19:20","新北市中和區復興路304號","121.501356666667","24.9903833333333","6500300","中和區"
"235036","301-VK","2017/11/09 14:19:33","新北市中和區福美路230號","121.49907","25.0052766666667","6500300","中和區"
"235007","352-BY","2017/11/09 14:19:25","新北市中和區景平路290號","121.513181666667","24.9927866666667","6500300","中和區"
"235032","377-QA","2017/11/09 14:19:34","新北市中和區安邦街95號","121.497273333333","24.99627","6500300","中和區"
"235025","378-QA","2017/11/09 14:19:18","新北市中和區連城路456巷9號","121.478591666667","24.9951766666667","6500300","中和區"
"235033","4980-A6","2017/11/09 14:19:30","新北市中和區連城路134巷16-1號","121.495413333333","24.9998133333333","6500300","中和區"
"235006","551-UM","2017/11/09 14:19:19","新北市中和區立人街5號","121.52176","24.9937366666667","6500300","中和區"
"235034","558-UM","2017/11/09 14:18:45","新北市中和區枋寮街59號","121.501156666667","25.0009266666667","6500300","中和區"
"235009","565-BX","2017/11/09 14:19:27","新北市中和區景新街467巷37號","121.514968333333","24.9896916666667","6500300","中和區"
"235011","732-UM","2017/11/09 14:19:14","新北市中和區景平路241巷29號","121.508843333333","24.9923283333333","6500300","中和區"
"235010","733-UM","2017/11/09 14:19:29","新北市中和區忠孝街2巷9弄2號","121.510361666667","24.9820933333333","6500300","中和區"
"235026","800-TS","2017/11/09 14:19:15","新北市中和區橋和路102號","121.490741666667","25.005505","6500300","中和區"
"235021","801-TS","2017/11/09 14:19:15","新北市中和區員山路184號","121.481326666667","25.000285","6500300","中和區"
"235005","802-TS","2017/11/09 14:19:30","新北市中和區安平路158號","121.512525","24.9984816666667","6500300","中和區"
"235016","805-TS","2017/11/09 14:19:17","新北市中和區興南路二段142巷17弄26號","121.502998333333","24.9829133333333","6500300","中和區"
"235012","896-TW","2017/11/09 14:19:23","新北市中和區華新街109巷1-3號","121.509131666667","24.9823216666667","6500300","中和區"
"235017","900-TW","2017/11/09 14:19:20","新北市中和區華安街19巷11號","121.467275","24.998","6500300","中和區"
"235024","911-UM","2017/11/09 14:19:18","新北市中和區中山路三段111號","121.474751666667","25.0059433333333","6500300","中和區"
"235001","157-BY","2017/11/09 14:19:27","新北市中和區景平路221巷28號","121.509451666667","24.9921433333333","6500300","中和區"
"235001","AAC-213","2017/11/09 14:19:24","新北市中和區秀朗路三段50巷17號","121.524973333333","24.9951833333333","6500300","中和區"
"235023","AAC-215","2017/11/09 14:19:13","新北市中和區圓通路286巷10號","121.491541666667","24.9911433333333","6500300","中和區"
"220016","013-TV","2017/11/09 14:19:05","新北市板橋區翠華街6巷109號","121.481818333333","25.02508","6500100","板橋區"
"220013","072-UY","2017/11/09 14:19:28","新北市板橋區民族路170巷7-1號","121.46731","25.0072683333333","6500100","板橋區"
"220034","073-UY","2017/11/09 14:19:25","新北市板橋區中正路216巷117號","121.459603333333","25.019485","6500100","板橋區"
"220105","075-UY","2017/11/09 14:19:35","新北市板橋區雙十路三段15號","121.47105","25.031135","6500100","板橋區"
"247021","893-R6","2017/11/09 14:19:29","新北市蘆洲區民族路502號","121.469515","25.0905583333333","6501400","蘆洲區"
"247011","546-UM","2017/11/09 14:19:32","新北市蘆洲區民權路40號","121.47621","25.0865483333333","6501400","蘆洲區"
"247019","500-BY","2017/11/09 14:19:14","新北市蘆洲區仁愛街37號","121.472198333333","25.09289","6501400","蘆洲區"
"247009","339-TH","2017/11/09 14:19:22","新北市蘆洲區三民路26巷35號","121.47722","25.0830066666667","6501400","蘆洲區"
"247001","337-TH","2017/11/09 14:19:24","新北市蘆洲區永樂街92號","121.456611666667","25.0888283333333","6501400","蘆洲區"
"247003","336-TH","2017/11/09 14:19:27","新北市蘆洲區中原路79號","121.458185","25.0818083333333","6501400","蘆洲區"
"247015","057-VK","2017/11/09 14:16:54","新北市蘆洲區光華路46巷21弄12號","121.467876666667","25.083485","6501400","蘆洲區"
"247005","056-VK","2017/11/09 14:19:25","新北市蘆洲區九芎街90巷16-1號","121.465326666667","25.0806433333333","6501400","蘆洲區"
"247007","053-VK","2017/11/09 14:19:17","新北市蘆洲區中山一路230號","121.472933333333","25.0804566666667","6501400","蘆洲區"
"247013","007-UY","2017/11/09 14:19:25","新北市蘆洲區三民路38-1號","121.475513333333","25.0830383333333","6501400","蘆洲區"
"247023","002-UY","2017/11/09 14:19:21","新北市蘆洲區長榮路702號","121.460271666667","25.0915316666667","6501400","蘆洲區"
"247017","001-UY","2017/11/09 14:19:24","新北市蘆洲區民權路104號","121.473898333333","25.0882016666667","6501400","蘆洲區"
"228005","097-TW","2017/11/09 14:19:15","新北市貢寮區美豐里雞母嶺街60-1號","121.898063333333","25.062035","6502600","貢寮區"
"228004","212-TW","2017/11/09 14:19:23","新北市貢寮區雙玉里田寮洋街39號","121.925051666667","25.0140133333333","6502600","貢寮區"
"224010","AGQ-8101","2017/11/09 08:57:17","新北市瑞芳區逢甲路17號","121.809531666667","25.108495","6501200","瑞芳區"
"207002","749-BX","2017/11/09 14:18:47","新北市萬里區溪底里瑞泉路3號","121.609788333333","25.1431866666667","6502800","萬里區"
"252005","073-UM","2017/11/09 14:19:31","新北市三芝區圓山里二坪頂71號","121.537823333333","25.2414716666667","6502100","三芝區"
"207001","662-BX","2017/11/09 14:19:27","新北市萬里區磺潭里清水18號","121.637813333333","25.197715","6502800","萬里區"
"208004","170-UY","2017/11/09 14:19:23","新北市金山區重和里六股林口75號","121.601335","25.2169216666667","6502700","金山區"
"236066","105-UM","2017/11/09 14:19:17","新北市土城區明德路一段174號","121.462623333333","24.97828","6501300","土城區"
"236040","107-UM","2017/11/09 14:19:20","新北市土城區裕生路21巷6弄2-1號","121.448758333333","24.98698","6501300","土城區"
"236076","166-UM","2017/11/09 14:19:17","新北市土城區中央路三段281巷21號","121.42589","24.9621266666667","6501300","土城區"
"236028","253-BX","2017/11/09 14:19:19","新北市土城區順風路30號","121.440076666667","24.977125","6501300","土城區"
"236024","269-VK","2017/11/09 14:19:07","新北市土城區承天路67號","121.43963","24.9634916666667","6501300","土城區"
"236012","270-VK","2017/11/09 14:19:19","新北市土城區青雲路39巷7號","121.460351666667","24.9875966666667","6501300","土城區"
"236033","271-VK","2017/11/09 14:19:19","新北市土城區青雲路451巷8弄9號","121.459666666667","24.974445","6501300","土城區"
"236018","401-BY","2017/11/09 14:19:21","新北市土城區金城路二段259號","121.463731666667","24.985815","6501300","土城區"
"236005","498-BY","2017/11/09 14:19:24","新北市土城區中華路一段70巷23號","121.443845","24.9893083333333","6501300","土城區"
"236047","752-BX","2017/11/09 14:19:29","新北市土城區明德路一段280-1號","121.457308333333","24.97752","6501300","土城區"
"236056","912-UM","2017/11/09 14:19:34","新北市土城區中央路四段266號","121.414758333333","24.9566633333333","6501300","土城區"
"236060","915-UM","2017/11/09 14:19:16","新北市土城區延壽路44巷17號","121.471693333333","24.9930083333333","6501300","土城區"
"236052","AAC-216","2017/11/09 14:19:26","新北市土城區中華路二段98號","121.438078333333","24.97446","6501300","土城區"
"242001","233-RS","2017/11/09 09:13:50","新北市新莊區環河路48-7號","121.436898333333","25.009815","6500500","新莊區"
"221012","276-VK","2017/11/09 13:26:11","新北市汐止區汐萬路一段256巷3號","121.653455","25.0746316666667","6501100","汐止區"
"220027","145-BY","2017/11/09 14:19:29","新北市板橋區建國街1號","121.456868333333","25.0168666666667","6500100","板橋區"
"220028","200-UY","2017/11/09 14:19:18","新北市板橋區大觀路二段1巷60號","121.450603333333","25.0034216666667","6500100","板橋區"
"220030","610-BX","2017/11/09 14:19:30","新北市板橋區篤行路三段玉平巷68弄15號","121.427171666667","24.986265","6500100","板橋區"
"220004","276-BY","2017/11/09 14:19:25","新北市板橋區信義路171號","121.458915","24.9920866666667","6500100","板橋區"
"220020","277-BY","2017/11/09 14:19:32","新北市板橋區金門街260巷18號","121.429095","24.986485","6500100","板橋區"
"220050","280-UM","2017/11/09 14:19:30","新北市板橋區雙十路二段6-10號","121.476716666667","25.026395","6500100","板橋區"
"220019","283-VK","2017/11/09 14:19:29","新北市板橋區大豐街130號","121.460923333333","25.0011516666667","6500100","板橋區"
"220043","285-UM","2017/11/09 14:19:27","新北市板橋區光武街110巷52號","121.467296666667","25.0303733333333","6500100","板橋區"
"220001","285-VK","2017/11/09 14:19:17","新北市板橋區富山街5號","121.478635","25.021705","6500100","板橋區"
"220031","286-VK","2017/11/09 14:19:30","新北市板橋區大觀路二段174巷166弄1號","121.442175","25.003295","6500100","板橋區"
"220029","287-VK","2017/11/09 14:19:22","新北市板橋區南雅西路一段76號","121.45355","25.0055466666667","6500100","板橋區"
"220039","288-VK","2017/11/09 14:19:28","新北市板橋區四維路339巷14號","121.461933333333","25.0293533333333","6500100","板橋區"
"220009","295-UM","2017/11/09 14:19:26","新北市板橋區中山路二段318巷20弄1號","121.480468333333","25.018815","6500100","板橋區"
"220032","296-UM","2017/11/09 14:19:24","新北市板橋區溪崑二街56巷34號","121.428188333333","24.9913283333333","6500100","板橋區"
"220023","297-UM","2017/11/09 14:19:31","新北市板橋區館前西路140號","121.456341666667","25.0080283333333","6500100","板橋區"
"220041","299-UM","2017/11/09 14:19:29","新北市板橋區松江街62號","121.468685","25.0275466666667","6500100","板橋區"
"220010","303-R5","2017/11/09 14:19:27","新北市板橋區三民路二段153巷30弄37號","121.481233333333","25.014255","6500100","板橋區"
"220047","317-R6","2017/11/09 14:19:30","新北市板橋區民有街89巷6號","121.46436","25.0274533333333","6500100","板橋區"
"220012","486-VK","2017/11/09 14:19:32","新北市板橋區縣民大道二段3號","121.462555","25.0119883333333","6500100","板橋區"
"220038","487-VK","2017/11/09 14:19:19","新北市板橋區文化路二段41號","121.469006666667","25.02503","6500100","板橋區"
"220037","491-VK","2017/11/09 14:19:32","新北市板橋區文化路二段182巷1弄19號","121.471375","25.0280366666667","6500100","板橋區"
"220104","560-BX","2017/11/09 14:19:34","新北市板橋區中正路332-11號","121.454263333333","25.023205","6500100","板橋區"
"220052","561-BX","2017/11/09 14:19:32","新北市板橋區文化路一段188巷7弄41號","121.46821","25.0195033333333","6500100","板橋區"
"220011","609-BX","2017/11/09 14:19:22","新北市板橋區三民路二段203-4號","121.479183333333","25.0135366666667","6500100","板橋區"
"220017","630-UY","2017/11/09 14:19:23","新北市板橋區四川路一段102號","121.459651666667","25.0047366666667","6500100","板橋區"
"220040","637-BX","2017/11/09 14:19:28","新北市板橋區文聖街182號","121.479348333333","25.026815","6500100","板橋區"
"220005","686-BX","2017/11/09 14:19:28","新北市板橋區重慶路299號","121.46382","24.998955","6500100","板橋區"
"220025","687-BX","2017/11/09 14:19:28","新北市板橋區大觀路二段327號","121.441505","24.9986133333333","6500100","板橋區"
"220042","689-BX","2017/11/09 14:19:18","新北市板橋區文化路一段341號","121.466663333333","25.0208633333333","6500100","板橋區"
"220002","741-BX","2017/11/09 14:19:29","新北市板橋區校前街36號","121.460841666667","25.0031733333333","6500100","板橋區"
"220003","827-TW","2017/11/09 14:19:17","新北市板橋區新民街4巷1號","121.464231666667","25.01023","6500100","板橋區"
"220014","829-TW","2017/11/09 14:19:28","新北市板橋區長安街178巷9號","121.474256666667","25.0110183333333","6500100","板橋區"
"220051","830-TW","2017/11/09 14:19:34","新北市板橋區松柏街1巷33號","121.47335","25.03008","6500100","板橋區"
"220045","831-TW","2017/11/09 14:19:21","新北市板橋區大同街50巷32號","121.478791666667","25.0264916666667","6500100","板橋區"
"220022","895-R6","2017/11/09 14:19:32","新北市板橋區民權路170巷2號","121.45983","25.01297","6500100","板橋區"
"220021","985-R7","2017/11/09 14:19:30","新北市板橋區中正路171號","121.456508333333","25.016465","6500100","板橋區"
"220046","AAC-210","2017/11/09 14:19:32","新北市板橋區漢生西路89巷3弄28號","121.461281666667","25.01979","6500100","板橋區"
"220018","AAC-253","2017/11/09 14:19:30","新北市板橋區忠孝路79號","121.46187","25.002165","6500100","板橋區"
