"lineid","car","time","location","longitude","latitude","cityid","cityname"
"234005","207-UY","2017/11/09 14:29:30","新北市永和區中正路514號","121.51729","25.0047266666667","6500400","永和區"
"234078","298-R6","2017/11/09 14:29:20","新北市永和區永貞路70巷2號","121.52057","25.0054266666667","6500400","永和區"
"234036","336-UY","2017/11/09 14:29:34","新北市永和區民樂街31巷10弄11號","121.528948333333","25.00101","6500400","永和區"
"234062","337-UY","2017/11/09 14:29:30","新北市永和區中正路433號","121.517115","25.0050583333333","6500400","永和區"
"234068","552-UM","2017/11/09 14:29:27","新北市永和區永亨路9號","121.519385","25.0058033333333","6500400","永和區"
"234052","553-UM","2017/11/09 14:29:25","新北市永和區光復街31-1號","121.516426666667","25.0179033333333","6500400","永和區"
"234028","746-BX","2017/11/09 14:29:31","新北市永和區民族街67巷11號","121.518961666667","24.9972816666667","6500400","永和區"
"234060","AAD-866","2017/11/09 14:29:29","新北市永和區秀朗路一段108巷6號","121.516356666667","25.0037966666667","6500400","永和區"
"234086","847-RS","2017/11/09 14:29:34","新北市永和區光復街21號","121.516546666667","25.0174783333333","6500400","永和區"
"234040","862-TW","2017/11/09 14:29:31","新北市永和區安樂路431號","121.514411666667","25.0042733333333","6500400","永和區"
"234048","863-TW","2017/11/09 14:29:06","新北市永和區新生路118巷3弄15號","121.506568333333","25.014525","6500400","永和區"
"234025","9381-KE","2017/11/09 14:29:24","新北市中和區中安街104-1號","121.51153","25.0010733333333","6500400","永和區"
"248013","025-BX","2017/11/09 14:29:34","新北市五股區民義路一段161-16號","121.431921666667","25.0868633333333","6501500","五股區"
"248015","026-BX","2017/11/09 14:29:30","新北市五股區成泰路三段553號","121.45192","25.1017266666667","6501500","五股區"
"248007","095-VK","2017/11/09 14:29:23","新北市五股區中興路一段95巷9號","121.46663","25.0724183333333","6501500","五股區"
"248017","225-UY","2017/11/09 14:23:14","新北市五股區壟路19-2號","121.412811666667","25.0852116666667","6501500","五股區"
"248011","247-BX","2017/11/09 14:29:16","新北市五股區蓬萊路6巷41號","121.43579","25.0801616666667","6501500","五股區"
"248009","272-BY","2017/11/09 14:29:24","新北市五股區水碓一路23號","121.430633333333","25.07134","6501500","五股區"
"248003","677-BX","2017/11/09 14:29:24","新北市五股區五福路56號","121.433421666667","25.0898016666667","6501500","五股區"
"248001","678-BX","2017/11/09 14:29:35","新北市五股區成泰路三段436號","121.451003333333","25.0996433333333","6501500","五股區"
"234072","AAC-211","2017/11/09 14:29:31","新北市永和區竹林路39巷34號","121.519633333333","25.0151116666667","6500400","永和區"
"234066","AAC-212","2017/11/09 14:29:19","新北市永和區保平路292巷46弄2號","121.507528333333","25.0054283333333","6500400","永和區"
"234001","AAC-295","2017/11/09 14:29:20","新北市永和區大新街3號","121.514505","25.0086233333333","6500400","永和區"
"244024","742-UY","2017/11/09 09:36:54","新北市林口區粉寮69號","121.405125","25.090835","6501700","林口區"
"244003","657-BX","2017/11/09 14:21:33","新北市林口區林口路76號","121.389701666667","25.08071","6501700","林口區"
"243004","AAD-798","2017/11/09 14:29:30","新北市泰山區全興路5號","121.43229","25.059135","6501600","泰山區"
"243001","297-R6","2017/11/09 14:29:14","新北市泰山區美寧街76號","121.431463333333","25.0645783333333","6501600","泰山區"
"243007","380-SR","2017/11/09 14:29:19","新北市泰山區民權街15號","121.42838","25.0509666666667","6501600","泰山區"
"243006","421-VK","2017/11/09 14:29:32","新北市泰山區中港西路490號","121.432696666667","25.0525416666667","6501600","泰山區"
"243002","KEA-2215","2017/11/09 14:29:19","新北市泰山區民生路6號","121.429778333333","25.0527016666667","6501600","泰山區"
"243003","KEA-2216","2017/11/09 14:29:23","新北市泰山區貴子路67巷10號","121.431006666667","25.0407466666667","6501600","泰山區"
"243005","646-TV","2017/11/09 14:29:34","新北市泰山區貴子路28號","121.425953333333","25.0417616666667","6501600","泰山區"
"243008","680-BX","2017/11/09 14:29:16","新北市泰山區明志路三段211號","121.42398","25.03838","6501600","泰山區"
"231002","002-UM","2017/11/09 14:29:30","新北市新店區中央路75號","121.53237","24.9767116666667","6500600","新店區"
"231028","046-UY","2017/11/09 14:29:24","新北市新店區安康路二段147號","121.511335","24.9600233333333","6500600","新店區"
"231030","047-UY","2017/11/09 14:29:29","新北市新店區安民街67-3號","121.516183333333","24.966715","6500600","新店區"
"231029","106-UY","2017/11/09 14:29:22","新北市新店區安康路二段416號","121.496593333333","24.9552483333333","6500600","新店區"
"231011","108-UY","2017/11/09 14:29:20","新北市新店區寶興路65巷2號","121.550866666667","24.9716916666667","6500600","新店區"
"231021","187-VK","2017/11/09 14:29:34","新北市新店區桂山路51巷6-1號","121.562143333333","24.9015766666667","6500600","新店區"
"231017","KEA-2219","2017/11/09 14:29:33","新北市新店區北宜路三段51-1號","121.569665","24.9499283333333","6500600","新店區"
"231027","3712-VJ","2017/11/09 14:29:14","新北市新店區寶橋路85巷35號","121.545286666667","24.976335","6500600","新店區"
"231025","3713-VJ","2017/11/09 14:29:30","新北市新店區民族路161號","121.537796666667","24.9768266666667","6500600","新店區"
"231024","4716-K9","2017/11/09 14:29:30","新北市新店區薏仁坑路自強巷1號","121.496635","24.9579766666667","6500600","新店區"
"231038","4715-K9","2017/11/09 14:29:27","新北市新店區溪洲路8巷112-1號","121.53331","24.9628583333333","6500600","新店區"
"231036","512-UM","2017/11/09 14:29:25","新北市新店區安祥路109巷1弄6號","121.475445","24.9589016666667","6500600","新店區"
"231023","513-UM","2017/11/09 14:29:25","新北市新店區光明街158號","121.5395","24.961765","6500600","新店區"
"231035","515-UM","2017/11/09 14:29:20","新北市新店區安民街5號","121.515181666667","24.9642683333333","6500600","新店區"
"231001","619-UM","2017/11/09 14:29:26","新北市新店區中正路75巷71號","121.54306","24.9689083333333","6500600","新店區"
"231003","641-BX","2017/11/09 14:29:27","新北市新店區中興路一段268-3號","121.54524","24.9679316666667","6500600","新店區"
"231034","645-TV","2017/11/09 14:29:22","新北市新店區車子路11號","121.502911666667","24.9515716666667","6500600","新店區"
"231013","719-UM","2017/11/09 14:29:13","新北市新店區民權路90巷20號","121.536096666667","24.9837383333333","6500600","新店區"
"231018","719-UY","2017/11/09 14:29:17","新北市新店區中央二街66號","121.526458333333","24.9745883333333","6500600","新店區"
"231031","720-UM","2017/11/09 14:29:30","新北市新店區安和路二段222號","121.51811","24.9768283333333","6500600","新店區"
"231005","897-TW","2017/11/09 14:29:18","新北市新店區中興路三段134號","121.544698333333","24.9797816666667","6500600","新店區"
"231006","898-TW","2017/11/09 14:29:23","新北市新店區北宜路二段485號","121.56239","24.9539383333333","6500600","新店區"
"231004","899-TW","2017/11/09 14:29:27","新北市新店區中正路243號","121.539146666667","24.97324","6500600","新店區"
"231037","AKT-0513","2017/11/09 14:29:31","新北市新店區柴埕路47號","121.514223333333","24.9651666666667","6500600","新店區"
"235030","003-UY","2017/11/09 14:29:23","新北市中和區景新街117號","121.505611666667","24.9975833333333","6500300","中和區"
"235028","005-UY","2017/11/09 14:29:22","新北市中和區景新街64巷11弄6號","121.504071666667","24.998265","6500300","中和區"
"235027","006-UY","2017/11/09 14:29:24","新北市中和區連城路203巷10弄27號","121.49523","24.9966266666667","6500300","中和區"
"235020","096-UM","2017/11/09 14:29:26","新北市中和區員山路516號","121.479171666667","25.0095233333333","6500300","中和區"
"235003","097-UM","2017/11/09 14:29:28","新北市中和區秀峰街103巷7弄4號","121.519435","24.9890083333333","6500300","中和區"
"235029","098-UM","2017/11/09 14:29:26","新北市中和區永和路1-3號","121.499796666667","25.00317","6500300","中和區"
"235004","150-BY","2017/11/09 14:29:18","新北市中和區宜安路7號","121.513456666667","24.99552","6500300","中和區"
"235022","151-BY","2017/11/09 14:29:15","新北市中和區連城路507號","121.48249","24.9954733333333","6500300","中和區"
"235019","183-VK","2017/11/09 14:29:20","新北市中和區德光路24號","121.47093","25.004425","6500300","中和區"
"235002","185-VK","2017/11/09 14:29:21","新北市中和區自立路109號","121.522035","24.9946166666667","6500300","中和區"
"235013","186-VK","2017/11/09 14:29:25","新北市中和區景新街295巷29號","121.511176666667","24.9935966666667","6500300","中和區"
"235031","255-BX","2017/11/09 14:29:25","新北市中和區連城路318號","121.483461666667","24.9960916666667","6500300","中和區"
"235008","293-VK","2017/11/09 14:29:20","新北市中和區捷運路102號","121.505765","24.9915116666667","6500300","中和區"
"235036","301-VK","2017/11/09 14:29:33","新北市中和區保平路326巷28號","121.50621","25.0049833333333","6500300","中和區"
"235007","352-BY","2017/11/09 14:29:25","新北市中和區景平路358號","121.511143333333","24.9928133333333","6500300","中和區"
"235032","377-QA","2017/11/09 14:29:34","新北市中和區景平路493巷2弄2號","121.499583333333","24.9973883333333","6500300","中和區"
"235025","378-QA","2017/11/09 14:29:18","新北市中和區民利街9巷2弄2號","121.480656666667","24.99879","6500300","中和區"
"235006","551-UM","2017/11/09 14:29:19","新北市中和區安樂路143巷2弄7號","121.514061666667","24.9979883333333","6500300","中和區"
"235034","558-UM","2017/11/09 14:29:05","新北市中和區中山路二段238號","121.498068333333","25.00248","6500300","中和區"
"235009","565-BX","2017/11/09 14:29:27","新北市中和區景新街399巷5號","121.512841666667","24.9898716666667","6500300","中和區"
"235011","732-UM","2017/11/09 14:29:34","新北市中和區景平路259巷16號","121.507886666667","24.9927366666667","6500300","中和區"
"235010","733-UM","2017/11/09 14:29:29","新北市中和區忠孝街37巷52號","121.511193333333","24.98505","6500300","中和區"
"235026","800-TS","2017/11/09 14:29:15","新北市中和區中山路二段398號","121.490226666667","25.0036983333333","6500300","中和區"
"235021","801-TS","2017/11/09 14:29:35","新北市中和區中山路三段37巷35號","121.479563333333","25.004795","6500300","中和區"
"235005","802-TS","2017/11/09 14:29:30","新北市中和區景安路48號","121.506613333333","24.99835","6500300","中和區"
"235016","805-TS","2017/11/09 14:29:17","新北市中和區華新街143巷63弄2號","121.506476666667","24.9791366666667","6500300","中和區"
"235012","896-TW","2017/11/09 14:29:33","新北市中和區忠孝街60巷2弄2號","121.511616666667","24.98374","6500300","中和區"
"235017","900-TW","2017/11/09 14:29:20","新北市中和區華順街12號","121.467266666667","24.9987133333333","6500300","中和區"
"235024","911-UM","2017/11/09 14:29:19","新北市中和區新生街114巷2號","121.483351666667","25.0024816666667","6500300","中和區"
"235001","157-BY","2017/11/09 14:29:27","新北市中和區板南路100號","121.503863333333","24.992355","6500300","中和區"
"235001","AAC-213","2017/11/09 14:29:24","新北市中和區秀朗路三段10巷14弄70號","121.523945","24.99662","6500300","中和區"
"235023","AAC-215","2017/11/09 14:29:13","新北市中和區圓通路252巷5弄1號","121.493493333333","24.9912766666667","6500300","中和區"
"220016","013-TV","2017/11/09 14:29:05","新北市板橋區中山路二段505巷9號","121.48244","25.0214433333333","6500100","板橋區"
"220013","072-UY","2017/11/09 14:29:28","新北市板橋區國泰街75巷28弄52號","121.467665","25.0048833333333","6500100","板橋區"
"220034","073-UY","2017/11/09 14:29:27","新北市板橋區中正路218號","121.456095","25.0184616666667","6500100","板橋區"
"220105","075-UY","2017/11/09 14:29:14","新北市板橋區文化路二段441巷18號","121.474366666667","25.0337833333333","6500100","板橋區"
"247021","893-R6","2017/11/09 14:29:29","新北市蘆洲區水湳街38號","121.470775","25.089755","6501400","蘆洲區"
"247011","546-UM","2017/11/09 14:29:32","新北市蘆洲區復興路115號","121.477385","25.0881483333333","6501400","蘆洲區"
"247019","500-BY","2017/11/09 14:29:14","新北市蘆洲區仁愛街109號","121.470613333333","25.0943583333333","6501400","蘆洲區"
"247009","339-TH","2017/11/09 14:29:22","新北市蘆洲區鷺江街36號","121.477815","25.082615","6501400","蘆洲區"
"247001","337-TH","2017/11/09 14:29:24","新北市蘆洲區永樂街38巷33弄60號","121.456453333333","25.0900983333333","6501400","蘆洲區"
"247003","336-TH","2017/11/09 14:29:34","新北市蘆洲區長安街281號","121.458271666667","25.08429","6501400","蘆洲區"
"247015","057-VK","2017/11/09 14:29:34","新北市蘆洲區中正路185巷23弄1號","121.467196666667","25.0847","6501400","蘆洲區"
"247005","056-VK","2017/11/09 14:29:25","新北市蘆洲區中華街48號","121.461928333333","25.0804166666667","6501400","蘆洲區"
"247007","053-VK","2017/11/09 14:29:17","新北市蘆洲區中山一路129號","121.475741666667","25.08132","6501400","蘆洲區"
"247013","007-UY","2017/11/09 14:29:25","新北市蘆洲區成功路97號","121.47286","25.081425","6501400","蘆洲區"
"247023","002-UY","2017/11/09 14:29:21","新北市蘆洲區中正路263巷2號","121.467371666667","25.0874666666667","6501400","蘆洲區"
"247017","001-UY","2017/11/09 14:29:24","新北市蘆洲區復興路227巷47-1號","121.47915","25.0917266666667","6501400","蘆洲區"
"228005","097-TW","2017/11/09 14:29:35","新北市貢寮區美豐里巫里岸9-1號","121.90198","25.0701583333333","6502600","貢寮區"
"228004","212-TW","2017/11/09 14:29:19","新北市貢寮區雙玉里田寮洋街33-1號","121.932196666667","25.0136416666667","6502600","貢寮區"
"224010","AGQ-8101","2017/11/09 08:57:17","新北市瑞芳區逢甲路17號","121.809531666667","25.108495","6501200","瑞芳區"
"207002","749-BX","2017/11/09 14:28:07","新北市萬里區溪底里富士坪路23-3號","121.621475","25.15235","6502800","萬里區"
"252005","073-UM","2017/11/09 14:29:31","新北市三芝區橫山里橫山50-2號","121.533358333333","25.2568516666667","6502100","三芝區"
"207001","662-BX","2017/11/09 14:29:27","新北市萬里區磺潭里清水18-2號","121.638721666667","25.1985233333333","6502800","萬里區"
"208004","170-UY","2017/11/09 14:29:23","新北市金山區六股里下六股65號","121.614446666667","25.2236883333333","6502700","金山區"
"236066","105-UM","2017/11/09 14:29:23","新北市土城區永豐路205-5號","121.474481666667","24.9777716666667","6501300","土城區"
"236040","107-UM","2017/11/09 14:29:20","新北市土城區學成路99巷9號","121.44996","24.9884866666667","6501300","土城區"
"236076","166-UM","2017/11/09 14:29:17","新北市土城區大暖路88號","121.42205","24.958345","6501300","土城區"
"236028","253-BX","2017/11/09 14:29:19","新北市土城區順風路8號","121.440183333333","24.9762383333333","6501300","土城區"
"236024","269-VK","2017/11/09 14:29:26","新北市土城區承天路18號","121.439476666667","24.9635066666667","6501300","土城區"
"236012","270-VK","2017/11/09 14:29:19","新北市土城區青雲路39巷7號","121.460365","24.98761","6501300","土城區"
"236033","271-VK","2017/11/09 14:29:19","新北市土城區青雲路451巷17號","121.459715","24.9748316666667","6501300","土城區"
"236018","401-BY","2017/11/09 14:29:22","新北市土城區永豐路202巷14號","121.466295","24.9833433333333","6501300","土城區"
"236005","498-BY","2017/11/09 14:29:24","新北市土城區中華路一段94號","121.444648333333","24.987335","6501300","土城區"
"236047","752-BX","2017/11/09 14:29:29","新北市土城區青雲路453號","121.458735","24.9746633333333","6501300","土城區"
"236056","912-UM","2017/11/09 14:29:14","新北市土城區中央路四段323號","121.410435","24.9510233333333","6501300","土城區"
"236060","915-UM","2017/11/09 14:29:16","新北市土城區延壽路1-9號","121.469191666667","24.9939366666667","6501300","土城區"
"236052","AAC-216","2017/11/09 14:29:26","新北市土城區中華路二段149號","121.438951666667","24.975965","6501300","土城區"
"242001","233-RS","2017/11/09 09:13:50","新北市新莊區環河路48-7號","121.436898333333","25.009815","6500500","新莊區"
"221012","276-VK","2017/11/09 13:26:11","新北市汐止區汐萬路一段256巷3號","121.653455","25.0746316666667","6501100","汐止區"
"220027","145-BY","2017/11/09 14:29:29","新北市板橋區復興街128號","121.460828333333","25.0180066666667","6500100","板橋區"
"220028","200-UY","2017/11/09 14:29:27","新北市板橋區大觀路二段3巷67號","121.449616666667","25.0034366666667","6500100","板橋區"
"220030","610-BX","2017/11/09 14:29:30","新北市板橋區金門街316號","121.42864","24.98509","6500100","板橋區"
"220004","276-BY","2017/11/09 14:29:25","新北市板橋區干城路157號","121.460606666667","24.9922383333333","6500100","板橋區"
"220020","277-BY","2017/11/09 14:29:30","新北市板橋區篤行路二段150號","121.42961","24.988125","6500100","板橋區"
"220050","280-UM","2017/11/09 14:29:30","新北市板橋區萬板路192-3號","121.476573333333","25.0235666666667","6500100","板橋區"
"220019","283-VK","2017/11/09 14:29:27","新北市板橋區忠孝路11號","121.460063333333","25.0019166666667","6500100","板橋區"
"220043","285-UM","2017/11/09 14:29:27","新北市板橋區吳鳳路50巷11號","121.467958333333","25.03055","6500100","板橋區"
"220001","285-VK","2017/11/09 14:29:24","新北市板橋區富山街62巷8號","121.477301666667","25.022295","6500100","板橋區"
"220031","286-VK","2017/11/09 14:29:26","新北市板橋區大觀路一段38巷160號","121.442226666667","25.0046283333333","6500100","板橋區"
"220029","287-VK","2017/11/09 14:29:22","新北市板橋區大觀路一段29巷131弄33號","121.451063333333","25.0040683333333","6500100","板橋區"
"220039","288-VK","2017/11/09 14:29:04","新北市板橋區長江路一段106巷12弄3號","121.4599","25.02897","6500100","板橋區"
"220009","295-UM","2017/11/09 14:29:32","新北市板橋區中山路二段157號","121.47561","25.0167466666667","6500100","板橋區"
"220032","296-UM","2017/11/09 14:29:19","新北市板橋區滿平街138號","121.428783333333","24.9881966666667","6500100","板橋區"
"220023","297-UM","2017/11/09 14:29:31","新北市板橋區南雅西路一段58號","121.453736666667","25.0050016666667","6500100","板橋區"
"220041","299-UM","2017/11/09 14:29:32","新北市板橋區光武街4巷4號","121.468336666667","25.0254716666667","6500100","板橋區"
"220010","303-R5","2017/11/09 14:29:24","新北市板橋區三民路二段181巷1號","121.479635","25.0144416666667","6500100","板橋區"
"220047","317-R6","2017/11/09 14:29:31","新北市板橋區民生路三段299巷3號","121.463413333333","25.0303616666667","6500100","板橋區"
"220012","486-VK","2017/11/09 14:29:32","新北市板橋區重慶路8號","121.460563333333","25.008145","6500100","板橋區"
"220038","487-VK","2017/11/09 14:29:28","新北市板橋區文化路一段149號","121.462541666667","25.0157033333333","6500100","板橋區"
"220037","491-VK","2017/11/09 14:29:32","新北市板橋區雙十路一段22號","121.477895","25.02439","6500100","板橋區"
"220104","560-BX","2017/11/09 14:29:14","新北市板橋區中正路415號","121.454208333333","25.0227233333333","6500100","板橋區"
"220052","561-BX","2017/11/09 14:29:32","新北市板橋區文化路一段220號","121.466846666667","25.0205616666667","6500100","板橋區"
"220011","609-BX","2017/11/09 14:29:22","新北市板橋區三民路二段228號","121.4788","25.011405","6500100","板橋區"
"220017","630-UY","2017/11/09 14:29:23","新北市板橋區華興街31巷7-2號","121.458386666667","25.00426","6500100","板橋區"
"220040","637-BX","2017/11/09 14:29:28","新北市板橋區文聖街149巷25號","121.479513333333","25.0285716666667","6500100","板橋區"
"220005","686-BX","2017/11/09 14:29:17","新北市板橋區國慶路191號","121.46302","24.99644","6500100","板橋區"
"220025","687-BX","2017/11/09 14:29:17","新北市板橋區大觀路一段35巷1號","121.449516666667","25.0085033333333","6500100","板橋區"
"220042","689-BX","2017/11/09 14:29:18","新北市板橋區新海路115號","121.461093333333","25.0228033333333","6500100","板橋區"
"220002","741-BX","2017/11/09 14:29:15","新北市板橋區光明街1號","121.460088333333","25.0025133333333","6500100","板橋區"
"220003","827-TW","2017/11/09 14:29:17","新北市板橋區實踐路205號","121.464518333333","25.0027683333333","6500100","板橋區"
"220014","829-TW","2017/11/09 14:29:28","新北市板橋區漢生東路337號","121.472011666667","25.0075466666667","6500100","板橋區"
"220051","830-TW","2017/11/09 14:29:14","新北市板橋區文化路二段410巷40號","121.474623333333","25.03052","6500100","板橋區"
"220045","831-TW","2017/11/09 14:29:21","新北市板橋區雙十路二段47巷24號","121.475656666667","25.0258716666667","6500100","板橋區"
"220022","895-R6","2017/11/09 14:29:32","新北市板橋區福德街2巷17號","121.455623333333","25.0091133333333","6500100","板橋區"
"220021","985-R7","2017/11/09 14:29:30","新北市板橋區中正路372巷6號","121.454795","25.0242633333333","6500100","板橋區"
"220046","AAC-210","2017/11/09 14:29:15","新北市板橋區陽明街131號","121.463321666667","25.0237466666667","6500100","板橋區"
"220018","AAC-253","2017/11/09 14:29:23","新北市板橋區四川路一段24號","121.45947","25.00637","6500100","板橋區"
