"lineid","car","time","location","longitude","latitude","cityid","cityname"
"234005","207-UY","2017/11/09 14:39:30","新北市永和區永貞路304號","121.51195","25.0047483333333","6500400","永和區"
"234062","337-UY","2017/11/09 14:38:50","新北市永和區環河西路二段143號","121.5057","25.014365","6500400","永和區"
"234028","746-BX","2017/11/09 14:39:31","新北市永和區民有街19號","121.516583333333","24.9967283333333","6500400","永和區"
"234048","863-TW","2017/11/09 14:39:26","新北市永和區保安路85號","121.508481666667","25.0145833333333","6500400","永和區"
"234025","9381-KE","2017/11/09 14:39:24","新北市永和區雙和街8號","121.509773333333","25.0018716666667","6500400","永和區"
"248013","025-BX","2017/11/09 14:39:13","新北市五股區五福路52巷3弄8號","121.433475","25.09014","6501500","五股區"
"248015","026-BX","2017/11/09 14:39:30","新北市五股區成泰路四段24-5號","121.453698333333","25.1068","6501500","五股區"
"248007","095-VK","2017/11/09 14:39:23","新北市五股區四維路155巷2號","121.46767","25.0746266666667","6501500","五股區"
"248017","225-UY","2017/11/09 14:35:10","新北市五股區外寮路13-1號","121.424866666667","25.0812833333333","6501500","五股區"
"248011","247-BX","2017/11/09 14:39:21","新北市五股區民義路一段30號","121.437173333333","25.0837416666667","6501500","五股區"
"248009","272-BY","2017/11/09 14:39:24","新北市五股區自強路161號","121.431301666667","25.0694033333333","6501500","五股區"
"248003","677-BX","2017/11/09 14:39:24","新北市五股區成泰路二段87號","121.438226666667","25.08403","6501500","五股區"
"248001","678-BX","2017/11/09 14:39:15","新北市五股區成泰路三段311-2號","121.447853333333","25.09494","6501500","五股區"
"234072","AAC-211","2017/11/09 14:39:11","新北市永和區環河東路二段20號","121.522433333333","25.0130216666667","6500400","永和區"
"234001","AAC-295","2017/11/09 14:39:20","新北市永和區中正路620號","121.517026666667","25.007895","6500400","永和區"
"244024","742-UY","2017/11/09 09:36:54","新北市林口區粉寮69號","121.405125","25.090835","6501700","林口區"
"244003","657-BX","2017/11/09 14:21:33","新北市林口區林口路76號","121.389701666667","25.08071","6501700","林口區"
"243004","AAD-798","2017/11/09 14:39:30","新北市泰山區楓江路23-2號","121.43416","25.0625316666667","6501600","泰山區"
"243001","297-R6","2017/11/09 14:39:14","新北市泰山區泰林路二段164巷29號","121.434366666667","25.06116","6501600","泰山區"
"243007","380-SR","2017/11/09 14:39:19","新北市泰山區明志路二段235號","121.427435","25.0482066666667","6501600","泰山區"
"243006","421-VK","2017/11/09 14:39:18","新北市泰山區仁愛路18號","121.431408333333","25.05418","6501600","泰山區"
"243002","KEA-2215","2017/11/09 14:39:18","新北市泰山區明志路二段136巷1號","121.427018333333","25.0511966666667","6501600","泰山區"
"243003","KEA-2216","2017/11/09 14:39:34","新北市泰山區明志路三段196巷7弄6號","121.423266666667","25.0388","6501600","泰山區"
"243005","646-TV","2017/11/09 14:39:34","新北市泰山區應化街32號","121.423795","25.043765","6501600","泰山區"
"243008","680-BX","2017/11/09 14:39:16","新北市泰山區明志路三段517號","121.421198333333","25.031925","6501600","泰山區"
"231002","002-UM","2017/11/09 14:39:30","新北市新店區中正路468號","121.534011666667","24.9794566666667","6500600","新店區"
"231028","046-UY","2017/11/09 14:39:24","新北市新店區安德街60巷35號","121.511208333333","24.9636583333333","6500600","新店區"
"231030","047-UY","2017/11/09 14:39:29","新北市新店區安民街196號","121.51715","24.9716616666667","6500600","新店區"
"231029","106-UY","2017/11/09 14:39:22","新北市新店區安康路三段263號","121.48661","24.9518983333333","6500600","新店區"
"231011","108-UY","2017/11/09 14:39:21","新北市新店區寶宏路5號","121.549341666667","24.9762116666667","6500600","新店區"
"231021","187-VK","2017/11/09 14:39:34","新北市新店區桂山路37號","121.563031666667","24.9046066666667","6500600","新店區"
"231017","KEA-2219","2017/11/09 14:39:13","新北市新店區北宜路三段144號","121.585071666667","24.9501416666667","6500600","新店區"
"231027","3712-VJ","2017/11/09 14:39:14","新北市新店區中正路102巷4號","121.543366666667","24.97089","6500600","新店區"
"231025","3713-VJ","2017/11/09 14:39:30","新北市新店區民族路161號","121.537715","24.9767983333333","6500600","新店區"
"231024","4716-K9","2017/11/09 14:39:30","新北市新店區環河路113-1號","121.530806666667","24.9712183333333","6500600","新店區"
"231038","4715-K9","2017/11/09 14:39:27","新北市新店區溪洲路143-2號","121.5289","24.9641133333333","6500600","新店區"
"231036","512-UM","2017/11/09 14:39:25","新北市新店區安祥路106巷202號","121.474361666667","24.9603416666667","6500600","新店區"
"231023","513-UM","2017/11/09 14:39:16","新北市新店區檳榔路2-1號","121.540988333333","24.964875","6500600","新店區"
"231035","515-UM","2017/11/09 14:39:20","新北市新店區安康路二段58巷3號","121.514821666667","24.9642383333333","6500600","新店區"
"231001","619-UM","2017/11/09 14:39:26","新北市新店區中正路86號","121.543553333333","24.97039","6500600","新店區"
"231003","641-BX","2017/11/09 14:39:27","新北市新店區中興路一段298號","121.546161666667","24.9695716666667","6500600","新店區"
"231034","645-TV","2017/11/09 14:39:22","新北市新店區黎明路53巷1號","121.502316666667","24.9487633333333","6500600","新店區"
"231013","719-UM","2017/11/09 14:39:13","新北市新店區明德路31號","121.541606666667","24.977395","6500600","新店區"
"231018","719-UY","2017/11/09 14:39:22","新北市新店區中央二街29號","121.528301666667","24.9738366666667","6500600","新店區"
"231005","897-TW","2017/11/09 14:39:18","新北市新店區北新路三段103號","121.541435","24.9821666666667","6500600","新店區"
"231006","898-TW","2017/11/09 14:39:23","新北市新店區北宜路二段133號","121.551118333333","24.9530616666667","6500600","新店區"
"231004","899-TW","2017/11/09 14:39:12","新北市新店區中正路263-5號","121.538175","24.9739283333333","6500600","新店區"
"231037","AKT-0513","2017/11/09 14:39:11","新北市新店區柴埕路60巷12號","121.508775","24.96499","6500600","新店區"
"235030","003-UY","2017/11/09 14:39:23","新北市中和區南工路40號","121.50581","25.0011916666667","6500300","中和區"
"235028","005-UY","2017/11/09 14:39:22","新北市中和區南山路127巷32弄1號","121.504033333333","24.9976616666667","6500300","中和區"
"235027","006-UY","2017/11/09 14:39:24","新北市中和區連城路174巷39號","121.494376666667","25.0003","6500300","中和區"
"235020","096-UM","2017/11/09 14:39:26","新北市中和區中山路三段114巷17號","121.475586666667","25.008","6500300","中和區"
"235003","097-UM","2017/11/09 14:39:28","新北市永和區中正路58號","121.513243333333","24.9947116666667","6500300","中和區"
"235029","098-UM","2017/11/09 14:39:26","新北市中和區福祥路126號","121.498843333333","25.0065683333333","6500300","中和區"
"235004","150-BY","2017/11/09 14:39:18","新北市中和區安平路38號","121.510051666667","24.9950333333333","6500300","中和區"
"235022","151-BY","2017/11/09 14:39:15","新北市中和區員山路124巷13號","121.481988333333","24.996","6500300","中和區"
"235019","183-VK","2017/11/09 14:39:15","新北市中和區民生街10巷2號","121.47097","25.0057483333333","6500300","中和區"
"235002","185-VK","2017/11/09 14:39:21","新北市中和區自立路141巷3號","121.522473333333","24.9936066666667","6500300","中和區"
"235013","186-VK","2017/11/09 14:39:20","新北市中和區安平路17號","121.509175","24.99417","6500300","中和區"
"235031","255-BX","2017/11/09 14:39:25","新北市中和區新生街186巷5弄17號","121.482878333333","24.9991566666667","6500300","中和區"
"235008","293-VK","2017/11/09 14:39:20","新北市中和區興南路一段107號","121.509331666667","24.9881516666667","6500300","中和區"
"235036","301-VK","2017/11/09 14:39:13","新北市中和區水源路73號","121.505773333333","25.0036616666667","6500300","中和區"
"235007","352-BY","2017/11/09 14:39:25","新北市中和區景平路532號","121.502883333333","24.9945566666667","6500300","中和區"
"235032","377-QA","2017/11/09 14:39:14","新北市中和區廣福路120號","121.501756666667","25.00084","6500300","中和區"
"235025","378-QA","2017/11/09 14:39:18","新北市中和區員山路226巷13弄2號","121.482223333333","25.0000166666667","6500300","中和區"
"235033","4980-A6","2017/11/09 14:39:24","新北市中和區圓通路76號","121.500103333333","24.9971783333333","6500300","中和區"
"235006","551-UM","2017/11/09 14:39:19","新北市中和區中和路350巷6-1號","121.510656666667","25.0004966666667","6500300","中和區"
"235034","558-UM","2017/11/09 14:38:45","新北市中和區圓通路52號","121.500591666667","24.9977966666667","6500300","中和區"
"235009","565-BX","2017/11/09 14:39:27","新北市中和區景新街330號","121.511853333333","24.9909216666667","6500300","中和區"
"235011","732-UM","2017/11/09 14:39:14","新北市中和區南山路321號","121.505135","24.9913533333333","6500300","中和區"
"235010","733-UM","2017/11/09 14:39:29","新北市中和區信義街115號","121.512081666667","24.9868933333333","6500300","中和區"
"235026","800-TS","2017/11/09 14:39:15","新北市中和區中山路二段480號","121.487715","25.0048083333333","6500300","中和區"
"235021","801-TS","2017/11/09 14:39:15","新北市中和區員山路300號","121.481388333333","25.0026383333333","6500300","中和區"
"235005","802-TS","2017/11/09 14:39:30","新北市中和區宜安路65號","121.511231666667","24.996955","6500300","中和區"
"235016","805-TS","2017/11/09 14:39:17","新北市中和區華新街206巷21弄2號","121.505926666667","24.9827616666667","6500300","中和區"
"235012","896-TW","2017/11/09 14:39:23","新北市中和區四維街17號","121.513098333333","24.9871883333333","6500300","中和區"
"235017","900-TW","2017/11/09 14:39:20","新北市中和區民德路197號","121.469291666667","24.9980016666667","6500300","中和區"
"235024","911-UM","2017/11/09 14:39:18","新北市中和區中山路二段523巷22號","121.48171","25.0041033333333","6500300","中和區"
"235001","157-BY","2017/11/09 14:39:27","新北市中和區中興街180巷50弄1號","121.498916666667","24.9888366666667","6500300","中和區"
"235001","AAC-213","2017/11/09 14:39:31","新北市中和區秀朗路三段10巷21弄8號","121.525213333333","24.9961466666667","6500300","中和區"
"235023","AAC-215","2017/11/09 14:39:13","新北市中和區圓通路307號","121.49333","24.9908683333333","6500300","中和區"
"220016","013-TV","2017/11/09 14:39:26","新北市板橋區中山路二段416巷36-1號","121.483068333333","25.019825","6500100","板橋區"
"220013","072-UY","2017/11/09 14:39:28","新北市板橋區國泰街104號","121.466671666667","25.0064533333333","6500100","板橋區"
"220034","073-UY","2017/11/09 14:39:30","新北市板橋區國光路171號","121.460453333333","25.0185116666667","6500100","板橋區"
"220105","075-UY","2017/11/09 14:39:14","新北市板橋區雙十路三段27-1號","121.470638333333","25.0312066666667","6500100","板橋區"
"247021","893-R6","2017/11/09 14:39:29","新北市蘆洲區三民路204號","121.469128333333","25.08901","6501400","蘆洲區"
"247011","546-UM","2017/11/09 14:39:32","新北市蘆洲區集賢路224巷37弄10號","121.480533333333","25.0881116666667","6501400","蘆洲區"
"247019","500-BY","2017/11/09 14:39:34","新北市蘆洲區水湳街52號","121.471138333333","25.09","6501400","蘆洲區"
"247009","339-TH","2017/11/09 14:39:22","新北市蘆洲區信義路222巷23號","121.479748333333","25.0854033333333","6501400","蘆洲區"
"247001","337-TH","2017/11/09 14:39:24","新北市蘆洲區永樂街38巷57弄18號","121.457526666667","25.0906266666667","6501400","蘆洲區"
"247003","336-TH","2017/11/09 14:39:13","新北市蘆洲區長安街267巷8弄2號","121.45813","25.0836733333333","6501400","蘆洲區"
"247015","057-VK","2017/11/09 14:39:14","新北市蘆洲區光華路73巷39號","121.468871666667","25.0816966666667","6501400","蘆洲區"
"247005","056-VK","2017/11/09 14:39:25","新北市蘆洲區長安街68巷7號","121.462971666667","25.0804733333333","6501400","蘆洲區"
"247007","053-VK","2017/11/09 14:39:17","新北市蘆洲區信義路30巷22號","121.474388333333","25.0787416666667","6501400","蘆洲區"
"247013","007-UY","2017/11/09 14:39:25","新北市蘆洲區光華路1號","121.46998","25.0835633333333","6501400","蘆洲區"
"247023","002-UY","2017/11/09 14:39:27","新北市蘆洲區中山二路222巷20號","121.46937","25.0805783333333","6501400","蘆洲區"
"228005","097-TW","2017/11/09 14:39:35","新北市貢寮區美豐里雞母嶺街7號","121.902045","25.0643","6502600","貢寮區"
"228004","212-TW","2017/11/09 14:39:19","新北市貢寮區福隆里龜壽谷街30-5號","121.946855","25.0139483333333","6502600","貢寮區"
"224010","AGQ-8101","2017/11/09 08:57:17","新北市瑞芳區逢甲路17號","121.809531666667","25.108495","6501200","瑞芳區"
"207002","749-BX","2017/11/09 14:39:31","新北市萬里區崁腳里內崁路8號","121.640201666667","25.1599816666667","6502800","萬里區"
"252005","073-UM","2017/11/09 14:39:31","新北市三芝區橫山里橫山23-6號","121.54089","25.2610966666667","6502100","三芝區"
"207001","662-BX","2017/11/09 14:39:27","新北市萬里區磺潭里員潭路54號","121.643451666667","25.190605","6502800","萬里區"
"208004","170-UY","2017/11/09 14:39:23","新北市金山區重和里竹子山腳1號","121.59835","25.220065","6502700","金山區"
"236066","105-UM","2017/11/09 14:39:29","新北市土城區永豐路209號","121.47383","24.977255","6501300","土城區"
"236040","107-UM","2017/11/09 14:39:20","新北市土城區學成路108巷3號","121.44995","24.989415","6501300","土城區"
"236076","166-UM","2017/11/09 14:39:17","新北市土城區頂埔街81號","121.41762","24.9595883333333","6501300","土城區"
"236028","253-BX","2017/11/09 14:39:19","新北市土城區中華路二段181號","121.438473333333","24.97483","6501300","土城區"
"236024","269-VK","2017/11/09 14:39:27","新北市土城區忠義路46號","121.440605","24.96948","6501300","土城區"
"236012","270-VK","2017/11/09 14:39:19","新北市土城區清水路217號","121.460668333333","24.9820933333333","6501300","土城區"
"236033","271-VK","2017/11/09 14:39:19","新北市土城區明德路一段313巷5弄1號","121.459706666667","24.976205","6501300","土城區"
"236018","401-BY","2017/11/09 14:39:21","新北市土城區延吉街323號","121.465703333333","24.9842583333333","6501300","土城區"
"236005","498-BY","2017/11/09 14:39:24","新北市土城區城林路6巷80號","121.43869","24.9798216666667","6501300","土城區"
"236047","752-BX","2017/11/09 14:39:29","新北市土城區明德路一段95號","121.465573333333","24.9831516666667","6501300","土城區"
"236056","912-UM","2017/11/09 14:39:14","新北市土城區中興路1號","121.424811666667","24.9626633333333","6501300","土城區"
"236060","915-UM","2017/11/09 14:39:16","新北市土城區延壽路13巷18號","121.470515","24.9908916666667","6501300","土城區"
"236052","AAC-216","2017/11/09 14:39:26","新北市土城區中華路一段145號","121.444095","24.9863966666667","6501300","土城區"
"242001","233-RS","2017/11/09 09:13:50","新北市新莊區環河路48-7號","121.436898333333","25.009815","6500500","新莊區"
"238018","571-TV","2017/11/09 14:39:26","新北市樹林區育德街78-1號","121.388035","24.9682583333333","6500700","樹林區"
"221012","276-VK","2017/11/09 13:26:11","新北市汐止區汐萬路一段256巷3號","121.653455","25.0746316666667","6501100","汐止區"
"220027","145-BY","2017/11/09 14:39:29","新北市板橋區民權路202巷17弄23-1號","121.459805","25.0165433333333","6500100","板橋區"
"220028","200-UY","2017/11/09 14:39:18","新北市板橋區大觀路二段37巷282號","121.449865","25.0012316666667","6500100","板橋區"
"220030","610-BX","2017/11/09 14:39:30","新北市板橋區金門街95號","121.433166666667","24.9924216666667","6500100","板橋區"
"220004","276-BY","2017/11/09 14:39:25","新北市板橋區信義路1巷24號","121.458068333333","24.997075","6500100","板橋區"
"220020","277-BY","2017/11/09 14:39:30","新北市板橋區金門街253巷17弄23號","121.433431666667","24.989205","6500100","板橋區"
"220050","280-UM","2017/11/09 14:39:30","新北市板橋區莊敬路220巷29弄3號","121.472781666667","25.0203383333333","6500100","板橋區"
"220019","283-VK","2017/11/09 14:39:26","新北市板橋區信義路18號","121.457051666667","24.9954966666667","6500100","板橋區"
"220043","285-UM","2017/11/09 14:39:27","新北市板橋區銘傳街98號","121.469721666667","25.03166","6500100","板橋區"
"220001","285-VK","2017/11/09 14:39:17","新北市板橋區中山路二段219號","121.476711666667","25.017155","6500100","板橋區"
"220031","286-VK","2017/11/09 14:39:26","新北市板橋區龍興街65巷80號","121.441883333333","25.0022233333333","6500100","板橋區"
"220029","287-VK","2017/11/09 14:39:22","新北市板橋區大觀路一段29巷179弄7號","121.44907","25.004885","6500100","板橋區"
"220039","288-VK","2017/11/09 14:39:31","新北市板橋區長江路一段48巷2弄1號","121.459","25.02878","6500100","板橋區"
"220009","295-UM","2017/11/09 14:39:26","新北市板橋區漢生東路113巷8號","121.467721666667","25.0153416666667","6500100","板橋區"
"220032","296-UM","2017/11/09 14:39:16","新北市板橋區溪崑二街138號","121.425813333333","24.9876116666667","6500100","板橋區"
"220023","297-UM","2017/11/09 14:39:31","新北市板橋區中正路253巷3號","121.455453333333","25.018245","6500100","板橋區"
"220041","299-UM","2017/11/09 14:39:29","新北市板橋區陽明街46-2號","121.46564","25.022","6500100","板橋區"
"220010","303-R5","2017/11/09 14:39:25","新北市板橋區三民路二段81巷25號","121.48053","25.01681","6500100","板橋區"
"220047","317-R6","2017/11/09 14:39:30","新北市板橋區四維路269巷62號","121.460805","25.0272583333333","6500100","板橋區"
"220012","486-VK","2017/11/09 14:39:32","新北市板橋區中山路一段139-5號","121.462491666667","25.0113233333333","6500100","板橋區"
"220038","487-VK","2017/11/09 14:39:19","新北市板橋區英士路194號","121.458378333333","25.0227333333333","6500100","板橋區"
"220037","491-VK","2017/11/09 14:39:32","新北市板橋區文化路二段402號","121.473653333333","25.0314516666667","6500100","板橋區"
"220104","560-BX","2017/11/09 14:39:34","新北市板橋區金華街145號","121.459735","25.0210416666667","6500100","板橋區"
"220052","561-BX","2017/11/09 14:39:32","新北市板橋區陽明街23巷8弄7號","121.465771666667","25.02051","6500100","板橋區"
"220011","609-BX","2017/11/09 14:39:22","新北市板橋區三民路二段140號","121.479145","25.0158383333333","6500100","板橋區"
"220017","630-UY","2017/11/09 14:39:23","新北市板橋區大明街20巷29弄6-2號","121.457976666667","25.0035183333333","6500100","板橋區"
"220040","637-BX","2017/11/09 14:39:28","新北市板橋區懷德街181巷22號","121.480356666667","25.0302033333333","6500100","板橋區"
"220005","686-BX","2017/11/09 14:39:28","新北市中和區華順街119號","121.46532","24.9968116666667","6500100","板橋區"
"220025","687-BX","2017/11/09 14:39:17","新北市板橋區僑中二街98號","121.446133333333","25.008405","6500100","板橋區"
"220042","689-BX","2017/11/09 14:39:18","新北市板橋區英士路49號","121.46107","25.0246533333333","6500100","板橋區"
"220002","741-BX","2017/11/09 14:39:35","新北市板橋區忠孝路196號","121.465661666667","25.0027216666667","6500100","板橋區"
"220003","827-TW","2017/11/09 14:39:21","新北市板橋區國慶路149巷2弄2號","121.461406666667","24.9964083333333","6500100","板橋區"
"220014","829-TW","2017/11/09 14:39:33","新北市板橋區長安街138巷1弄35號","121.473835","25.010125","6500100","板橋區"
"220051","830-TW","2017/11/09 14:39:26","新北市板橋區松柏街50巷2號","121.475691666667","25.0300883333333","6500100","板橋區"
"220045","831-TW","2017/11/09 14:39:24","新北市板橋區民生路二段240巷56號","121.469761666667","25.0228033333333","6500100","板橋區"
"220022","895-R6","2017/11/09 14:39:32","新北市板橋區府中路29-2號","121.458508333333","25.008065","6500100","板橋區"
"220021","985-R7","2017/11/09 14:39:31","新北市板橋區瑞安街62號","121.455388333333","25.0213783333333","6500100","板橋區"
"220046","AAC-210","2017/11/09 14:39:15","新北市板橋區幸福路32巷8號","121.461525","25.0206533333333","6500100","板橋區"
"220018","AAC-253","2017/11/09 14:39:22","新北市板橋區館前東路154號","121.464575","25.00792","6500100","板橋區"
