"lineid","car","time","location","longitude","latitude","cityid","cityname"
"244024","742-UY","2017/11/09 09:36:54","新北市林口區粉寮69號","121.405125","25.090835","6501700","林口區"
"244003","657-BX","2017/11/09 15:39:24","新北市林口區粉寮路二段160巷28號","121.405133333333","25.0908033333333","6501700","林口區"
"243006","421-VK","2017/11/09 15:39:18","新北市泰山區泰林路二段601號","121.421453333333","25.06357","6501600","泰山區"
"231028","046-UY","2017/11/09 15:39:24","新北市新店區安豐路30-1號","121.50065","24.9569383333333","6500600","新店區"
"231030","047-UY","2017/11/09 15:39:29","新北市新店區永安街93-6號","121.520745","24.98659","6500600","新店區"
"231029","106-UY","2017/11/09 15:39:22","新北市新店區安康路三段47號","121.49269","24.9526","6500600","新店區"
"231011","108-UY","2017/11/09 15:39:20","新北市新店區文化路88號","121.544901666667","24.982485","6500600","新店區"
"231021","187-VK","2017/11/09 15:39:34","新北市新店區金興路28-2號","121.551331666667","24.9305916666667","6500600","新店區"
"231017","KEA-2219","2017/11/09 15:39:33","新北市新店區北宜路二段85號","121.550138333333","24.952215","6500600","新店區"
"231026","256-BX","2017/11/09 15:39:26","新北市新店區三民路75巷4弄2號","121.535546666667","24.9709366666667","6500600","新店區"
"231046","278-BY","2017/11/09 15:39:24","新北市新店區安華路28-1號","121.519858333333","24.9611733333333","6500600","新店區"
"231038","4715-K9","2017/11/09 15:39:27","新北市新店區安康路一段258號","121.520568333333","24.9642266666667","6500600","新店區"
"231036","512-UM","2017/11/09 15:39:05","新北市新店區安祥路35-1號","121.491381666667","24.9559716666667","6500600","新店區"
"231023","513-UM","2017/11/09 15:39:16","新北市新店區中興路一段283號","121.545243333333","24.9685633333333","6500600","新店區"
"231035","515-UM","2017/11/09 15:39:20","新北市新店區安興路69-1號","121.515515","24.974955","6500600","新店區"
"231003","641-BX","2017/11/09 15:39:27","新北市新店區中興路二段200-1號","121.54823","24.9742316666667","6500600","新店區"
"231034","645-TV","2017/11/09 15:39:22","新北市新店區玫瑰路58巷2號","121.495335","24.9467216666667","6500600","新店區"
"231039","718-UY","2017/11/09 15:39:25","新北市新店區寶元路二段49號","121.547208333333","24.9812233333333","6500600","新店區"
"231013","719-UM","2017/11/09 15:39:14","新北市新店區永業路81巷30號","121.530333333333","24.9483966666667","6500600","新店區"
"231018","719-UY","2017/11/09 15:39:17","新北市新店區民生路156巷14號","121.528553333333","24.9811333333333","6500600","新店區"
"231031","720-UM","2017/11/09 15:39:30","新北市新店區雙城路137號","121.494453333333","24.945145","6500600","新店區"
"231005","897-TW","2017/11/09 15:39:18","新北市新店區建國路116號","121.539268333333","24.9784916666667","6500600","新店區"
"231004","899-TW","2017/11/09 15:39:12","新北市新店區民族路108號","121.538155","24.9774166666667","6500600","新店區"
"231037","AKT-0513","2017/11/09 15:39:31","新北市新店區安興路112號","121.51461","24.9776366666667","6500600","新店區"
"241011","013-R5","2017/11/09 15:39:25","新北市三重區文化北路248號","121.497386666667","25.0699433333333","6500200","三重區"
"241028","022-UY","2017/11/09 15:39:31","新北市三重區重新路四段121號","121.484728333333","25.0525483333333","6500200","三重區"
"241015","062-VK","2017/11/09 15:39:20","新北市三重區重新路四段121號","121.485161666667","25.052015","6500200","三重區"
"241017","063-VK","2017/11/09 15:39:33","新北市三重區重新路三段130號","121.491736666667","25.0599266666667","6500200","三重區"
"241005","262-UM","2017/11/09 15:39:21","新北市三重區重新路四段121號","121.485253333333","25.0519383333333","6500200","三重區"
"241030","265-UM","2017/11/09 15:39:15","新北市三重區重新路四段121號","121.485205","25.0521233333333","6500200","三重區"
"241013","270-UM","2017/11/09 15:39:26","新北市三重區正義北路328號","121.494786666667","25.07058","6500200","三重區"
"241007","398-BY","2017/11/09 15:39:21","新北市三重區重新路四段121號","121.485201666667","25.0520333333333","6500200","三重區"
"241023","545-UM","2017/11/09 15:39:30","新北市三重區重新路四段121號","121.48475","25.05252","6500200","三重區"
"241003","887-TS","2017/11/09 15:39:24","新北市三重區成功路110-1號","121.487221666667","25.05173","6500200","三重區"
"241029","942-UM","2017/11/09 15:39:30","新北市三重區大同南路194號","121.496786666667","25.0568766666667","6500200","三重區"
"241033","AAC-255","2017/11/09 15:39:15","新北市三重區後埔街82-1號","121.478383333333","25.0464016666667","6500200","三重區"
"235020","096-UM","2017/11/09 15:39:26","新北市八里區中山路三段382號","121.368583333333","25.1358933333333","6500300","中和區"
"235036","301-VK","2017/11/09 15:39:13","新北市中和區員山路36巷13號","121.484033333333","24.9909266666667","6500300","中和區"
"235033","4980-A6","2017/11/09 15:39:24","新北市中和區中正路637巷23-1號","121.48505","24.9946633333333","6500300","中和區"
"235026","800-TS","2017/11/09 15:39:15","新北市新店區安興路125-12號","121.514498333333","24.977965","6500300","中和區"
"235023","AAC-215","2017/11/09 15:39:33","新北市中和區員山路31-8號","121.480836666667","24.9876933333333","6500300","中和區"
"247004","336-TH","2017/11/09 15:39:33","新北市五股區中興路三段163號","121.44912","25.0805366666667","6501400","蘆洲區"
"247007","053-VK","2017/11/09 15:39:17","新北市八里區荖阡坑路34-1號","121.400991666667","25.13059","6501400","蘆洲區"
"228003","097-TW","2017/11/09 15:15:18","新北市貢寮區貢寮里朝陽街1-2號","121.912358333333","25.02128","6502600","貢寮區"
"224010","AGQ-8101","2017/11/09 08:57:17","新北市瑞芳區逢甲路17號","121.809531666667","25.108495","6501200","瑞芳區"
"208004","170-UY","2017/11/09 15:39:24","新北市金山區月眉25號","121.629151666667","25.2149283333333","6502700","金山區"
"236066","105-UM","2017/11/09 15:39:17","新北市土城區中央路三段118號","121.43523","24.9662466666667","6501300","土城區"
"236040","107-UM","2017/11/09 15:39:31","新北市土城區學享街77-1號","121.45252","24.9862683333333","6501300","土城區"
"236076","166-UM","2017/11/09 15:39:17","新北市土城區中央路四段254號","121.41499","24.95701","6501300","土城區"
"236028","253-BX","2017/11/09 15:39:19","新北市土城區中央路一段120號","121.446478333333","24.988005","6501300","土城區"
"236024","269-VK","2017/11/09 15:39:26","新北市土城區裕生路83巷27號","121.448028333333","24.9839566666667","6501300","土城區"
"236012","270-VK","2017/11/09 15:39:19","新北市土城區廣明街94號","121.454746666667","24.994335","6501300","土城區"
"236033","271-VK","2017/11/09 15:39:19","新北市土城區明德路一段71號","121.46559","24.9833283333333","6501300","土城區"
"236018","401-BY","2017/11/09 15:39:21","新北市土城區峰廷街39號","121.469638333333","24.986275","6501300","土城區"
"236047","752-BX","2017/11/09 15:39:28","新北市土城區金城路三段176-2號","121.467915","24.9876633333333","6501300","土城區"
"236056","912-UM","2017/11/09 15:39:14","新北市土城區中央路一段242巷2弄28號","121.445038333333","24.9857033333333","6501300","土城區"
"236060","915-UM","2017/11/09 15:39:16","新北市土城區延和路18巷8號","121.46445","24.9880633333333","6501300","土城區"
"236052","AAC-216","2017/11/09 15:39:25","新北市土城區立德路27號","121.46206","24.9879933333333","6501300","土城區"
"242001","233-RS","2017/11/09 09:13:50","新北市新莊區環河路48-7號","121.436898333333","25.009815","6500500","新莊區"
"238002","755-BX","2017/11/09 15:39:31","新北市樹林區日新街108號","121.42127","24.9898166666667","6500700","樹林區"
"238010","601-UM","2017/11/09 15:39:29","新北市樹林區三福街114號","121.406446666667","25.0163033333333","6500700","樹林區"
"238006","599-UM","2017/11/09 15:39:18","新北市樹林區太平路148號","121.41857","24.9780516666667","6500700","樹林區"
"238005","571-TV","2017/11/09 15:39:26","新北市樹林區鎮前街261-1號","121.420345","24.9861883333333","6500700","樹林區"
"238011","5061-A6","2017/11/09 15:39:30","新北市樹林區太平路267-1號","121.418208333333","24.9740066666667","6500700","樹林區"
"238008","KEA-2217","2017/11/09 15:39:33","新北市樹林區柑園街一段23-5號","121.40439","24.9603366666667","6500700","樹林區"
"238009","KEA-2213","2017/11/09 15:39:16","新北市樹林區和平街2巷17號","121.421215","24.98095","6500700","樹林區"
"238012","303-VK","2017/11/09 15:39:24","新北市樹林區中山路二段142號","121.413156666667","24.982915","6500700","樹林區"
"238004","283-BY","2017/11/09 15:39:20","新北市樹林區保安街二段333巷2號","121.412441666667","25.0076666666667","6500700","樹林區"
"238001","282-BY","2017/11/09 15:39:10","新北市樹林區潭興街107巷2弄1號","121.42475","24.9992533333333","6500700","樹林區"
"238007","268-VK","2017/11/09 15:39:17","新北市樹林區俊英街222號","121.424941666667","25.0099183333333","6500700","樹林區"
"238013","172-UY","2017/11/09 15:39:31","新北市樹林區中洲街51巷4號","121.396751666667","24.9710716666667","6500700","樹林區"
"238003","169-UY","2017/11/09 15:39:24","新北市樹林區中山路一段172號","121.421933333333","24.9891716666667","6500700","樹林區"
"221012","276-VK","2017/11/09 13:26:11","新北市汐止區汐萬路一段256巷3號","121.653455","25.0746316666667","6501100","汐止區"
"220028","200-UY","2017/11/09 15:39:18","新北市林口區太平里180號","121.366746666667","25.1339733333333","6500100","板橋區"
"220050","280-UM","2017/11/09 15:39:30","新北市板橋區文化路一段18-1號","121.458073333333","25.0130683333333","6500100","板橋區"
"220038","487-VK","2017/11/09 15:39:22","新北市板橋區四維路341號","121.462428333333","25.02975","6500100","板橋區"
"220042","689-BX","2017/11/09 15:39:18","新北市板橋區溪頭街4-1號","121.457211666667","25.0293583333333","6500100","板橋區"
