"lineid","car","time","location","longitude","latitude","cityid","cityname"
"249005","172-UM","2017/11/09 16:39:16","新北市八里區忠孝路262號","121.42085","25.1610466666667","6502300","八里區"
"249002","305-UY","2017/11/09 16:39:21","新北市八里區大堀湖3號","121.425271666667","25.151905","6502300","八里區"
"249003","593-UM","2017/11/09 16:39:27","新北市八里區挖子尾街6號","121.4156","25.16423","6502300","八里區"
"234067","AAC-212","2017/11/09 16:26:43","新北市永和區福和路1號","121.526356666667","25.0096233333333","6500400","永和區"
"244024","742-UY","2017/11/09 09:36:54","新北市林口區粉寮69號","121.405125","25.090835","6501700","林口區"
"243009","297-R6","2017/11/09 15:57:32","新北市泰山區黎明路25號","121.421911666667","25.06098","6501600","泰山區"
"243016","680-BX","2017/11/09 15:57:23","新北市泰山區黎明路25號","121.422088333333","25.060875","6501600","泰山區"
"231046","278-BY","2017/11/09 16:39:23","新北市新店區灣潭路55號","121.54121","24.9429833333333","6500600","新店區"
"241011","013-R5","2017/11/09 16:39:25","新北市三重區秀江街231號","121.496933333333","25.0716516666667","6500200","三重區"
"241028","022-UY","2017/11/09 16:39:31","新北市三重區中正南路6號","121.493426666667","25.0606233333333","6500200","三重區"
"241008","059-VK","2017/11/09 16:39:33","新北市三重區永安北路一段27巷25號","121.477305","25.0755133333333","6500200","三重區"
"241009","060-VK","2017/11/09 16:39:16","新北市三重區三和路四段203巷86號","121.484088333333","25.0800766666667","6500200","三重區"
"241031","061-VK","2017/11/09 16:39:33","新北市三重區重新路四段41巷2弄7號","121.487646666667","25.0577333333333","6500200","三重區"
"241015","062-VK","2017/11/09 16:39:20","新北市三重區文化北路41號","121.49889","25.0651566666667","6500200","三重區"
"241017","063-VK","2017/11/09 16:39:33","新北市三重區中正北路25巷9號","121.492611666667","25.0622133333333","6500200","三重區"
"241024","065-VK","2017/11/09 16:39:31","新北市三重區中正北路315巷6弄60號","121.475921666667","25.0724733333333","6500200","三重區"
"241026","066-VK","2017/11/09 16:39:23","新北市三重區中央南路57號","121.501345","25.0614016666667","6500200","三重區"
"241002","090-VK","2017/11/09 16:39:30","新北市三重區自強路五段97號","121.495551666667","25.0821816666667","6500200","三重區"
"241001","156-TC","2017/11/09 16:39:29","新北市三重區仁政街102巷15號","121.49161","25.0779533333333","6500200","三重區"
"241005","262-UM","2017/11/09 16:39:21","新北市三重區仁華街146號","121.487121666667","25.08328","6500200","三重區"
"241030","265-UM","2017/11/09 16:39:15","新北市三重區環河南路253號","121.49123","25.0505333333333","6500200","三重區"
"241016","266-UM","2017/11/09 16:39:14","新北市三重區大智街7號","121.494666666667","25.0651083333333","6500200","三重區"
"241022","267-UM","2017/11/09 16:39:23","新北市三重區新北大道一段100巷29號","121.485393333333","25.0626716666667","6500200","三重區"
"241018","268-UM","2017/11/09 16:39:21","新北市三重區六張街79號","121.493373333333","25.0700933333333","6500200","三重區"
"241032","269-UM","2017/11/09 16:39:22","新北市三重區新北大道一段57巷1號","121.48545","25.061235","6500200","三重區"
"241013","270-UM","2017/11/09 16:39:26","新北市三重區三和路三段101巷30號","121.495066666667","25.0727683333333","6500200","三重區"
"241025","271-UM","2017/11/09 16:39:19","新北市三重區中正北路428巷7弄29號","121.474178333333","25.0692416666667","6500200","三重區"
"241007","398-BY","2017/11/09 16:39:21","新北市三重區三和路四段167巷76號","121.484948333333","25.079395","6500200","三重區"
"241020","413-TH","2017/11/09 16:39:18","新北市三重區車路頭街37巷34號","121.484833333333","25.0719983333333","6500200","三重區"
"241004","475-VK","2017/11/09 16:39:15","新北市三重區仁愛街377巷132號","121.493626666667","25.08173","6500200","三重區"
"241019","478-VK","2017/11/09 16:39:25","新北市三重區重陽路三段37號","121.489366666667","25.06695","6500200","三重區"
"241014","543-UM","2017/11/09 16:39:32","新北市三重區長安街120號","121.502881666667","25.0679733333333","6500200","三重區"
"241023","545-UM","2017/11/09 16:39:30","新北市三重區忠孝路三段50巷43號","121.48285","25.0643683333333","6500200","三重區"
"241006","AAD-863","2017/11/09 16:39:32","新北市三重區力行路二段136巷11弄25號","121.481976666667","25.07656","6500200","三重區"
"241003","887-TS","2017/11/09 16:39:24","新北市三重區五華街71巷69號","121.493848333333","25.083635","6500200","三重區"
"241012","941-UM","2017/11/09 16:39:28","新北市三重區仁興街3巷17號","121.500451666667","25.0739766666667","6500200","三重區"
"241029","942-UM","2017/11/09 16:39:30","新北市三重區集美街118號","121.488765","25.0537966666667","6500200","三重區"
"241033","AAC-255","2017/11/09 16:39:35","新北市三重區光復路二段73號","121.472061666667","25.0572","6500200","三重區"
"235026","800-TS","2017/11/09 16:39:15","新北市中和區中正路590號","121.48586","24.994945","6500300","中和區"
"247004","336-TH","2017/11/09 16:39:29","新北市五股區中興路三段163號","121.449245","25.0804916666667","6501400","蘆洲區"
"247016","057-VK","2017/11/09 16:39:16","新北市五股區成洲五路38號","121.45346","25.1013916666667","6501400","蘆洲區"
"247006","056-VK","2017/11/09 16:39:15","新北市五股區工商路8號","121.43986","25.08269","6501400","蘆洲區"
"247018","001-UY","2017/11/09 16:39:33","新北市五股區中興路三段5號","121.449608333333","25.08017","6501400","蘆洲區"
"228003","097-TW","2017/11/09 16:39:32","新北市貢寮區貢寮里朝陽街1-2號","121.912336666667","25.0212316666667","6502600","貢寮區"
"224010","AGQ-8101","2017/11/09 08:57:17","新北市瑞芳區逢甲路17號","121.809531666667","25.108495","6501200","瑞芳區"
"224006","676-BX","2017/11/09 16:39:18","新北市瑞芳區大寮路356-1號","121.784821666667","25.10321","6501200","瑞芳區"
"224008","275-VK","2017/11/09 16:39:32","新北市瑞芳區民權街3-1號","121.809371666667","25.1083583333333","6501200","瑞芳區"
"224007","273-VK","2017/11/09 16:39:16","新北市瑞芳區月眉路47號","121.760301666667","25.10968","6501200","瑞芳區"
"224005","271-BY","2017/11/09 16:39:33","新北市瑞芳區洞頂路85號","121.862025","25.119695","6501200","瑞芳區"
"227010","642-TC","2017/11/09 16:39:16","新北市雙溪區牡丹里中正路78號","121.862281666667","25.0464666666667","6502500","雙溪區"
"227004","400-TW","2017/11/09 16:39:27","新北市雙溪區外柑里外柑腳35號","121.809991666667","25.0194066666667","6502500","雙溪區"
"251008","181-VK","2017/11/09 16:39:27","台北市北投區中央北路四段30巷160號","121.474166666667","25.140475","6501000","淡水區"
"251014","182-VK","2017/11/09 16:39:27","新北市淡水區興仁路163號","121.451575","25.2197216666667","6501000","淡水區"
"251010","413-VK","2017/11/09 16:39:22","新北市淡水區中正路二段31號","121.419425","25.18144","6501000","淡水區"
"251016","442-VK","2017/11/09 16:39:27","新北市淡水區淡金路二段15號","121.446575","25.1888266666667","6501000","淡水區"
"252002","178-VK","2017/11/09 16:39:32","新北市三芝區茂長里陳厝坑12-2號","121.515178333333","25.2553433333333","6502100","三芝區"
"242001","233-RS","2017/11/09 09:13:50","新北市新莊區環河路48-7號","121.436898333333","25.009815","6500500","新莊區"
"238002","755-BX","2017/11/09 16:39:31","新北市樹林區育德街78-1號","121.388093333333","24.968045","6500700","樹林區"
"238006","599-UM","2017/11/09 16:39:18","新北市樹林區中山路三段186號","121.387388333333","24.9691166666667","6500700","樹林區"
"238011","5061-A6","2017/11/09 16:39:29","新北市樹林區鎮前街323號","121.417151666667","24.984575","6500700","樹林區"
"238012","303-VK","2017/11/09 16:15:01","新北市樹林區中正路22-1號","121.42791","24.9995333333333","6500700","樹林區"
"238004","283-BY","2017/11/09 16:39:19","新北市樹林區光武街28號","121.415818333333","25.0054833333333","6500700","樹林區"
"238001","282-BY","2017/11/09 16:39:30","新北市樹林區中正路22-1號","121.427723333333","24.9996066666667","6500700","樹林區"
"239007","AAC-297","2017/11/09 04:24:10","新北市鶯歌區二甲路13-16號","121.344896666667","24.9352983333333","6500800","鶯歌區"
"221012","276-VK","2017/11/09 13:26:11","新北市汐止區汐萬路一段256巷3號","121.653455","25.0746316666667","6501100","汐止區"
