"lineid","car","time","location","longitude","latitude","cityid","cityname"
"234026","9381-KE","2017/11/09 17:49:26","新北市永和區永平路190號","121.510543333333","25.0094266666667","6500400","永和區"
"249005","172-UM","2017/11/09 17:49:16","新北市八里區荖阡里41-1號","121.402203333333","25.1343283333333","6502300","八里區"
"249001","173-UM","2017/11/09 17:49:21","新北市八里區龍米路二段129巷1號","121.445851666667","25.146955","6502300","八里區"
"249004","303-UY","2017/11/09 17:49:18","新北市八里區中華路一段81巷18號","121.419608333333","25.1558183333333","6502300","八里區"
"249002","305-UY","2017/11/09 17:49:21","新北市八里區龍形五街37巷3-1號","121.448726666667","25.1326316666667","6502300","八里區"
"249003","593-UM","2017/11/09 17:49:27","新北市八里區中山路二段115號","121.405736666667","25.1520883333333","6502300","八里區"
"248016","026-BX","2017/11/09 17:44:53","新北市五股區中興路二段83巷26-6號","121.45996","25.0752233333333","6501500","五股區"
"248006","077-UY","2017/11/09 17:49:28","新北市五股區中興路二段83巷26-6號","121.459851666667","25.075045","6501500","五股區"
"248008","095-VK","2017/11/09 17:49:28","新北市五股區中興路二段37巷28號","121.460258333333","25.0750966666667","6501500","五股區"
"248010","272-BY","2017/11/09 15:24:18","新北市五股區中興路二段83巷26-6號","121.459935","25.0749966666667","6501500","五股區"
"234067","AAC-212","2017/11/09 16:26:43","新北市永和區福和路1號","121.526356666667","25.0096233333333","6500400","永和區"
"232011","375-UM","2017/11/09 17:49:12","新北市坪林區北宜路八段105號","121.706111666667","24.9347983333333","6502000","坪林區"
"244013","069-UM","2017/11/09 17:49:27","新北市林口區中正路453號","121.38437","25.07775","6501700","林口區"
"244007","080-UY","2017/11/09 17:49:14","新北市林口區佳林路17號","121.386923333333","25.082295","6501700","林口區"
"244025","742-UY","2017/11/09 17:49:33","新北市林口區文化三路一段191巷57號","121.361251666667","25.0707016666667","6501700","林口區"
"244009","410-SL","2017/11/09 17:49:21","新北市林口區中北三街71號","121.3845","25.0852083333333","6501700","林口區"
"244023","483-VK","2017/11/09 17:49:19","新北市林口區興林路351號","121.388983333333","25.06849","6501700","林口區"
"244017","485-VK","2017/11/09 17:49:18","新北市林口區忠孝路383號","121.369545","25.07139","6501700","林口區"
"244011","701-TV","2017/11/09 17:49:20","新北市林口區佳林路217號","121.383761666667","25.0766483333333","6501700","林口區"
"244021","838-TS","2017/11/09 17:49:20","新北市林口區仁愛路一段159巷42號","121.397976666667","25.072265","6501700","林口區"
"243009","297-R6","2017/11/09 15:57:32","新北市泰山區黎明路25號","121.421911666667","25.06098","6501600","泰山區"
"243010","KEA-2215","2017/11/09 17:49:26","新北市泰山區黎明路25號","121.422105","25.060895","6501600","泰山區"
"222003","436-BY","2017/11/09 17:49:18","新北市深坑區阿柔洋60-1號","121.60862","24.9985266666667","6501800","深坑區"
"222002","659-BX","2017/11/09 17:49:20","新北市深坑區平埔街22巷8號","121.614893333333","25.0009183333333","6501800","深坑區"
"231046","278-BY","2017/11/09 17:49:23","新北市新店區下石厝路2-1號","121.531715","24.9281033333333","6500600","新店區"
"241005","262-UM","2017/11/09 17:49:21","新北市三重區集賢路87-1號","121.493658333333","25.08686","6500200","三重區"
"241016","266-UM","2017/11/09 17:49:14","新北市三重區重新路三段25號","121.494883333333","25.0614683333333","6500200","三重區"
"241007","398-BY","2017/11/09 17:49:21","新北市五股區中興路二段182巷15弄13號","121.457255","25.081385","6500200","三重區"
"241024","743-BX","2017/11/09 17:37:45","新北市三重區國道路一段58巷15號","121.48143","25.0720983333333","6500200","三重區"
"241033","AAC-255","2017/11/09 17:49:15","新北市三重區光復路一段7號","121.472036666667","25.0471266666667","6500200","三重區"
"235058","151-BY","2017/11/09 17:48:14","新北市中和區員山路36巷16-2號","121.485123333333","24.9916416666667","6500300","中和區"
"235061","378-QA","2017/11/09 17:22:15","新北市中和區員山路36巷16-2號","121.485105","24.9917033333333","6500300","中和區"
"235062","800-TS","2017/11/09 17:16:32","新北市中和區員山路36巷16-3號","121.484846666667","24.9916066666667","6500300","中和區"
"247022","893-R6","2017/11/09 17:49:14","新北市蘆洲區中正路264巷21號","121.466033333333","25.0900383333333","6501400","蘆洲區"
"247012","546-UM","2017/11/09 17:49:23","新北市蘆洲區復興路82號","121.475186666667","25.0867333333333","6501400","蘆洲區"
"247020","500-BY","2017/11/09 17:49:19","新北市蘆洲區民義街77號","121.47337","25.0903166666667","6501400","蘆洲區"
"247010","339-TH","2017/11/09 17:49:23","新北市蘆洲區民族路39號","121.478165","25.0852983333333","6501400","蘆洲區"
"247002","337-TH","2017/11/09 17:49:26","新北市蘆洲區永平街32巷33弄27號","121.458298333333","25.0924683333333","6501400","蘆洲區"
"247004","336-TH","2017/11/09 17:49:29","新北市蘆洲區長安街194巷28號","121.460038333333","25.0845116666667","6501400","蘆洲區"
"247016","057-VK","2017/11/09 17:49:16","新北市蘆洲區中正路185巷25弄14號","121.466966666667","25.0839016666667","6501400","蘆洲區"
"247006","056-VK","2017/11/09 17:49:15","新北市蘆洲區九芎街109號","121.465686666667","25.0797016666667","6501400","蘆洲區"
"247008","053-VK","2017/11/09 17:49:20","新北市蘆洲區中山一路204號","121.47349","25.080755","6501400","蘆洲區"
"247014","007-UY","2017/11/09 17:49:28","新北市蘆洲區保和街69巷31號","121.46978","25.0852416666667","6501400","蘆洲區"
"247024","002-UY","2017/11/09 17:49:24","新北市蘆洲區長樂路120巷2號","121.462266666667","25.08971","6501400","蘆洲區"
"247018","001-UY","2017/11/09 17:49:33","新北市蘆洲區復興路227巷2弄2號","121.479953333333","25.0900316666667","6501400","蘆洲區"
"228003","097-TW","2017/11/09 17:49:31","新北市貢寮區真理里美艷山街11-6號","121.927958333333","25.0603","6502600","貢寮區"
"228001","212-TW","2017/11/09 17:49:19","新北市貢寮區仁理村仁愛路95-1號","121.927668333333","25.0554533333333","6502600","貢寮區"
"228002","585-TW","2017/11/09 17:49:00","新北市貢寮區福隆里外隆林街14-1號","121.959156666667","25.0037433333333","6502600","貢寮區"
"224006","676-BX","2017/11/09 17:49:18","新北市瑞芳區傑魚坑路157號","121.789948333333","25.1096166666667","6501200","瑞芳區"
"224002","639-TC","2017/11/09 17:49:30","新北市瑞芳區民權街3-1號","121.809391666667","25.108195","6501200","瑞芳區"
"224009","285-BY","2017/11/09 17:49:21","新北市瑞芳區山尖路215-1號","121.848886666667","25.1124566666667","6501200","瑞芳區"
"224008","275-VK","2017/11/09 17:49:12","新北市瑞芳區明燈路一段6號","121.823275","25.1074133333333","6501200","瑞芳區"
"224007","273-VK","2017/11/09 17:49:16","新北市瑞芳區八分寮路6-1號","121.796453333333","25.0934883333333","6501200","瑞芳區"
"224005","271-BY","2017/11/09 17:49:12","新北市瑞芳區台電新村11號","121.819355","25.12399","6501200","瑞芳區"
"208002","742-BX","2017/11/09 17:49:32","新北市金山區磺清路135號","121.639306666667","25.227575","6502700","金山區"
"208003","665-BX","2017/11/09 17:49:35","新北市金山區磺清路135號","121.63951","25.2276","6502700","金山區"
"208001","761-BX","2017/11/09 17:49:20","新北市金山區磺清路135號","121.639423333333","25.22768","6502700","金山區"
"251009","008-UM","2017/11/09 17:49:21","新北市淡水區長興街29號","121.443968333333","25.1711733333333","6501000","淡水區"
"251004","009-UM","2017/11/09 17:49:15","新北市淡水區民權一街1號","121.459435","25.13692","6501000","淡水區"
"251005","010-UM","2017/11/09 17:49:34","新北市淡水區學府路96號","121.449303333333","25.1712116666667","6501000","淡水區"
"251007","179-VK","2017/11/09 17:49:26","新北市淡水區民生路52巷5號","121.462143333333","25.1376983333333","6501000","淡水區"
"251008","181-VK","2017/11/09 17:49:27","新北市淡水區八勢路一段133號","121.467071666667","25.1577616666667","6501000","淡水區"
"251014","182-VK","2017/11/09 17:49:27","新北市淡水區公埔子16-6號","121.481031666667","25.2245866666667","6501000","淡水區"
"251010","413-VK","2017/11/09 17:49:22","新北市淡水區中正路二段96號","121.418166666667","25.1849866666667","6501000","淡水區"
"251012","441-VK","2017/11/09 17:49:18","新北市淡水區商工路393號","121.47473","25.1848316666667","6501000","淡水區"
"251016","442-VK","2017/11/09 17:49:27","新北市淡水區埤島39-15號","121.45277","25.195905","6501000","淡水區"
"251001","559-UM","2017/11/09 17:49:28","新北市淡水區民權路92巷35-1號","121.46224","25.1266883333333","6501000","淡水區"
"251006","561-UM","2017/11/09 17:49:20","新北市淡水區大信街1巷25號","121.44016","25.1767583333333","6501000","淡水區"
"251011","650-BX","2017/11/09 17:45:07","新北市淡水區吳(仔)厝9-1號","121.479411666667","25.1467183333333","6501000","淡水區"
"251002","672-BX","2017/11/09 17:49:15","新北市淡水區中山路66號","121.443636666667","25.1706616666667","6501000","淡水區"
"251003","766-UM","2017/11/09 17:49:31","新北市淡水區大忠街60號","121.444203333333","25.1761616666667","6501000","淡水區"
"207003","550-UM","2017/11/09 17:49:32","新北市萬里區野柳里東澳路66號","121.692808333333","25.2009816666667","6502800","萬里區"
"207004","225-TW","2017/11/09 17:49:25","新北市萬里區萬里里瑪鋉頂街61號","121.688361666667","25.180475","6502800","萬里區"
"252002","178-VK","2017/11/09 17:49:32","新北市三芝區智成街33號","121.503741666667","25.2565816666667","6502100","三芝區"
"252001","292-VK","2017/11/09 17:49:24","新北市三芝區淡金路一段55號","121.500001666667","25.2589966666667","6502100","三芝區"
"237004","078-UY","2017/11/09 17:49:16","新北市三峽區中山路138-2號","121.365098333333","24.93625","6500900","三峽區"
"237009","210-TH","2017/11/09 17:49:16","新北市三峽區大勇路25號","121.367221666667","24.9364166666667","6500900","三峽區"
"237013","252-BX","2017/11/09 17:49:16","新北市三峽區愛國路6巷2號","121.373843333333","24.9337983333333","6500900","三峽區"
"237012","275-BY","2017/11/09 17:49:18","新北市三峽區文化路158號","121.370145","24.9361183333333","6500900","三峽區"
"237008","302-VK","2017/11/09 17:49:12","新北市三峽區中園街237-1號","121.3668","24.9194683333333","6500900","三峽區"
"237014","433-BY","2017/11/09 17:49:29","新北市三峽區文化路120巷4號","121.371126666667","24.936475","6500900","三峽區"
"237006","5529-G3","2017/11/09 17:49:31","新北市三峽區介壽路二段136巷106弄16號","121.391813333333","24.933295","6500900","三峽區"
"237011","572-TV","2017/11/09 17:39:24","新北市三峽區文化路266-12號","121.366158333333","24.9357983333333","6500900","三峽區"
"237016","649-BX","2017/11/09 17:49:18","新北市三峽區白雞127號","121.39378","24.90949","6500900","三峽區"
"237010","706-TV","2017/11/09 17:48:42","新北市三峽區和平街32號","121.370166666667","24.9370383333333","6500900","三峽區"
"237005","AKY-6261","2017/11/09 17:49:23","新北市三峽區中山路365-1號","121.358083333333","24.93676","6500900","三峽區"
"236071","105-UM","2017/11/09 17:49:17","新北市土城區明德路二段8巷1號","121.452048333333","24.9805233333333","6501300","土城區"
"236042","107-UM","2017/11/09 17:49:25","新北市土城區城林路6巷80號","121.438483333333","24.9797366666667","6501300","土城區"
"236078","166-UM","2017/11/09 17:49:19","新北市土城區中央路三段128-4號","121.43481","24.9658816666667","6501300","土城區"
"236030","253-BX","2017/11/09 17:49:13","新北市土城區城林路6巷80號","121.438465","24.9797916666667","6501300","土城區"
"236026","269-VK","2017/11/09 17:49:32","新北市土城區承天路18號","121.439473333333","24.9634116666667","6501300","土城區"
"236014","270-VK","2017/11/09 17:49:13","新北市土城區城林路6巷80號","121.438541666667","24.9796183333333","6501300","土城區"
"236037","271-VK","2017/11/09 17:49:12","新北市土城區城林路6巷80號","121.438428333333","24.97972","6501300","土城區"
"236051","752-BX","2017/11/09 17:49:32","新北市土城區城林路6巷80號","121.438555","24.9796733333333","6501300","土城區"
"236058","912-UM","2017/11/09 17:49:18","新北市土城區城林路6巷80號","121.438696666667","24.9797833333333","6501300","土城區"
"236062","915-UM","2017/11/09 17:49:16","新北市土城區城林路6巷80號","121.438545","24.9797733333333","6501300","土城區"
"236053","AAC-216","2017/11/09 17:49:25","新北市土城區城林路6巷80號","121.438491666667","24.9796233333333","6501300","土城區"
"242031","AAC-296","2017/11/09 17:49:25","新北市新莊區新泰路321巷37號","121.443096666667","25.041175","6500500","新莊區"
"242029","986-R7","2017/11/09 17:49:16","新北市新莊區復興路一段45號","121.446945","25.0421716666667","6500500","新莊區"
"242051","751-BX","2017/11/09 17:49:32","新北市新莊區西盛街257巷21號","121.428915","25.0159616666667","6500500","新莊區"
"242025","615-BX","2017/11/09 17:49:19","新北市三重區中山路279號","121.471421666667","25.0613583333333","6500500","新莊區"
"242023","613-BX","2017/11/09 17:45:31","新北市新莊區福樂街17號","121.457825","25.04505","6500500","新莊區"
"242027","612-BX","2017/11/09 17:49:32","新北市新莊區福壽街165號","121.45804","25.0535166666667","6500500","新莊區"
"242039","566-BX","2017/11/09 17:49:24","新北市新莊區民安路172號","121.425048333333","25.0239716666667","6500500","新莊區"
"242044","497-BY","2017/11/09 17:49:32","新北市新莊區天祥街6號","121.417296666667","25.0269366666667","6500500","新莊區"
"242048","441-UM","2017/11/09 17:49:27","新北市新莊區萬安街146巷14號","121.419906666667","25.0216933333333","6500500","新莊區"
"242053","440-UM","2017/11/09 17:49:27","新北市新莊區民安西路468-1號","121.431686666667","25.0078483333333","6500500","新莊區"
"242004","413-TV","2017/11/09 17:49:22","新北市新莊區思源路177巷5弄10號","121.458923333333","25.04513","6500500","新莊區"
"242042","400-BY","2017/11/09 17:49:35","新北市新莊區中正路660號","121.42117","25.0287616666667","6500500","新莊區"
"242061","362-BY","2017/11/09 17:49:24","新北市新莊區瓊林南路206號","121.434063333333","25.006485","6500500","新莊區"
"242058","353-BY","2017/11/09 17:49:15","新北市新莊區中正路726-5號","121.415798333333","25.0241766666667","6500500","新莊區"
"242007","132-UY","2017/11/09 17:48:13","新北市新莊區福樂街108巷15號","121.457768333333","25.0482383333333","6500500","新莊區"
"242036","133-UY","2017/11/09 17:49:25","新北市新莊區建福路71號","121.42689","25.0268533333333","6500500","新莊區"
"242021","135-UY","2017/11/09 17:49:14","新北市新莊區公園路39號","121.453166666667","25.0401816666667","6500500","新莊區"
"242046","172-VK","2017/11/09 17:49:31","新北市新莊區建國一路44號","121.433836666667","25.0310666666667","6500500","新莊區"
"242009","173-VK","2017/11/09 17:49:26","新北市新莊區昌明街42號","121.456321666667","25.0522816666667","6500500","新莊區"
"242015","175-VK","2017/11/09 17:49:27","新北市新莊區新泰路488號","121.442648333333","25.04591","6500500","新莊區"
"242002","176-VK","2017/11/09 17:49:33","新北市新莊區大觀街39巷17號","121.453048333333","25.0354166666667","6500500","新莊區"
"242001","233-RS","2017/11/09 09:13:50","新北市新莊區環河路48-7號","121.436898333333","25.009815","6500500","新莊區"
"242013","346-TH","2017/11/09 17:49:27","新北市新莊區中誠街169巷1弄1號","121.448313333333","25.0471933333333","6500500","新莊區"
"242034","348-TH","2017/11/09 17:49:32","新北市新莊區新莊路783號","121.441163333333","25.0326966666667","6500500","新莊區"
"242056","349-TH","2017/11/09 17:49:17","新北市新莊區瓊林路40巷22號","121.44707","25.0302583333333","6500500","新莊區"
"242017","350-TH","2017/11/09 17:49:18","新北市新莊區永安街56號","121.451281666667","25.04472","6500500","新莊區"
"242011","351-TH","2017/11/09 17:49:27","新北市新莊區中港路699號","121.45066","25.057","6500500","新莊區"
"238015","755-BX","2017/11/09 17:49:25","新北市樹林區復興路141號","121.421276666667","24.9926783333333","6500700","樹林區"
"238023","601-UM","2017/11/09 17:49:29","新北市樹林區福興街3巷17號","121.404696666667","25.0167933333333","6500700","樹林區"
"238019","599-UM","2017/11/09 17:49:18","新北市樹林區太平路186號","121.418378333333","24.9764883333333","6500700","樹林區"
"238018","571-TV","2017/11/09 17:49:26","新北市樹林區鎮前街18號","121.426158333333","24.9931833333333","6500700","樹林區"
"238024","5061-A6","2017/11/09 17:49:29","新北市樹林區中山路三段210-2號","121.380931666667","24.96608","6500700","樹林區"
"238021","KEA-2217","2017/11/09 17:49:31","新北市樹林區柑園街一段253巷28號","121.396956666667","24.953255","6500700","樹林區"
"238022","KEA-2213","2017/11/09 17:49:16","新北市樹林區太順街62巷3弄26號","121.416763333333","24.979315","6500700","樹林區"
"238025","303-VK","2017/11/09 17:49:14","新北市樹林區三俊街81巷2號","121.41569","25.01544","6500700","樹林區"
"238017","283-BY","2017/11/09 17:49:19","新北市樹林區俊德街51號","121.415531666667","25.0133016666667","6500700","樹林區"
"238014","282-BY","2017/11/09 17:49:30","新北市樹林區保安街一段289巷48號","121.417115","24.9963816666667","6500700","樹林區"
"238020","268-VK","2017/11/09 17:49:17","新北市樹林區三俊街213-1號","121.420901666667","25.01527","6500700","樹林區"
"238026","172-UY","2017/11/09 17:49:27","新北市樹林區中洲街51巷4號","121.39673","24.9710333333333","6500700","樹林區"
"238016","169-UY","2017/11/09 17:49:24","新北市樹林區育英街156號","121.418716666667","24.9895033333333","6500700","樹林區"
"239007","AAC-297","2017/11/09 17:49:25","新北市鶯歌區鶯桃路94巷31號","121.341276666667","24.9542016666667","6500800","鶯歌區"
"239006","891-R6","2017/11/09 17:49:28","新北市鶯歌區鶯桃路438號","121.333128333333","24.96484","6500800","鶯歌區"
"239008","527-UM","2017/11/09 17:49:27","新北市鶯歌區香賓街13巷9號","121.336675","24.9798983333333","6500800","鶯歌區"
"239005","526-UM","2017/11/09 17:49:25","新北市鶯歌區鳳吉五街35號","121.327495","24.9728483333333","6500800","鶯歌區"
"239001","417-VK","2017/11/09 17:49:24","新北市鶯歌區中正三路432號","121.324035","24.93462","6500800","鶯歌區"
"239003","360-BY","2017/11/09 17:49:28","新北市鶯歌區永吉街45號","121.335503333333","24.9571316666667","6500800","鶯歌區"
"239002","359-BY","2017/11/09 17:49:23","新北市鶯歌區光明街30號","121.348711666667","24.95605","6500800","鶯歌區"
"221008","489-VK","2017/11/09 17:49:27","新北市汐止區康寧街901號","121.651421666667","25.0750483333333","6501100","汐止區"
"221036","130-UY","2017/11/09 17:49:24","新北市汐止區長江街33號","121.655605","25.0712033333333","6501100","汐止區"
"221015","131-UY","2017/11/09 17:49:26","新北市汐止區長江街213號","121.661468333333","25.0777233333333","6501100","汐止區"
"221010","269-BY","2017/11/09 17:49:30","新北市汐止區汐萬路一段395號","121.64947","25.07882","6501100","汐止區"
"221012","276-VK","2017/11/09 13:26:11","新北市汐止區汐萬路一段256巷3號","121.653455","25.0746316666667","6501100","汐止區"
"221012","278-VK","2017/11/09 17:49:25","新北市汐止區長江街23號","121.655171666667","25.071175","6501100","汐止區"
"221023","279-VK","2017/11/09 17:49:24","新北市汐止區民族一街20號","121.634918333333","25.07105","6501100","汐止區"
"221032","280-BY","2017/11/09 17:49:19","新北市汐止區大同路一段155號","121.632231666667","25.0562316666667","6501100","汐止區"
"221027","281-BY","2017/11/09 17:49:19","新北市汐止區汐萬路一段312號","121.65059","25.0754066666667","6501100","汐止區"
"221029","298-VK","2017/11/09 17:49:16","新北市汐止區康寧街901號","121.651585","25.0749766666667","6501100","汐止區"
"221021","299-VK","2017/11/09 17:49:23","新北市汐止區汐萬路一段22號","121.65583","25.0677916666667","6501100","汐止區"
"221031","353-TW","2017/11/09 17:49:33","新北市汐止區樟樹二路347號","121.64198","25.0734766666667","6501100","汐止區"
"221035","622-UM","2017/11/09 17:49:23","新北市汐止區汐萬路一段211巷13號","121.651583333333","25.07192","6501100","汐止區"
"221025","623-UM","2017/11/09 17:49:29","新北市汐止區大同路二段179號","121.651775","25.0641383333333","6501100","汐止區"
"221033","647-BX","2017/11/09 17:49:34","新北市汐止區橫科路403巷18號","121.625385","25.0474683333333","6501100","汐止區"
"221018","753-BX","2017/11/09 17:49:22","新北市汐止區大同路二段639號","121.664553333333","25.07131","6501100","汐止區"
"242019","280-VK","2017/11/09 17:49:30","新北市新莊區中港路259號","121.453853333333","25.04327","6500500","新莊區"
