"lineid","car","time","location","longitude","latitude","cityid","cityname"
"234026","9381-KE","2017/11/09 17:59:12","新北市永和區永和路一段45號","121.512926666667","25.0063083333333","6500400","永和區"
"249005","172-UM","2017/11/09 17:59:16","新北市八里區荖阡坑路20-8號","121.396826666667","25.1367683333333","6502300","八里區"
"249001","173-UM","2017/11/09 17:59:21","新北市八里區龍米路二段35號","121.448488333333","25.1400133333333","6502300","八里區"
"249004","303-UY","2017/11/09 17:59:32","新北市八里區龍米路三段49-1號","121.424221666667","25.1589516666667","6502300","八里區"
"249002","305-UY","2017/11/09 17:59:21","新北市八里區龍米路一段259號","121.450663333333","25.1336766666667","6502300","八里區"
"249003","593-UM","2017/11/09 17:59:27","新北市八里區中山路二段306號","121.404665","25.1502","6502300","八里區"
"248016","026-BX","2017/11/09 17:59:23","新北市五股區中興路二段83巷26-6號","121.460105","25.0752683333333","6501500","五股區"
"248006","077-UY","2017/11/09 17:59:28","新北市五股區中興路二段37巷28號","121.460081666667","25.0749033333333","6501500","五股區"
"248008","095-VK","2017/11/09 17:59:28","新北市五股區更洲路30號","121.457833333333","25.07926","6501500","五股區"
"248020","225-UY","2017/11/09 17:59:20","新北市五股區中興路二段83巷26-3號","121.460081666667","25.075335","6501500","五股區"
"248012","247-BX","2017/11/09 17:59:22","新北市五股區中興路二段83巷26-6號","121.460018333333","25.07515","6501500","五股區"
"248010","272-BY","2017/11/09 17:59:30","新北市五股區中興路二段83巷26-6號","121.460041666667","25.0751916666667","6501500","五股區"
"248004","677-BX","2017/11/09 16:16:48","新北市五股區中興路二段37巷28號","121.460123333333","25.074975","6501500","五股區"
"234067","AAC-212","2017/11/09 16:26:43","新北市永和區福和路1號","121.526356666667","25.0096233333333","6500400","永和區"
"232011","375-UM","2017/11/09 17:59:33","新北市坪林區北宜路八段235號","121.709285","24.9350883333333","6502000","坪林區"
"244013","069-UM","2017/11/09 17:59:21","新北市林口區中山路156號","121.390843333333","25.078675","6501700","林口區"
"244007","080-UY","2017/11/09 17:59:14","新北市林口區林口路78號","121.389226666667","25.0806283333333","6501700","林口區"
"244025","742-UY","2017/11/09 17:59:20","新北市林口區文化三路一段39巷177號","121.359166666667","25.06756","6501700","林口區"
"244009","410-SL","2017/11/09 17:59:21","新北市林口區竹林路582巷16號","121.38603","25.0834066666667","6501700","林口區"
"244023","483-VK","2017/11/09 17:59:19","新北市林口區隆林街99號","121.385033333333","25.0747333333333","6501700","林口區"
"244017","485-VK","2017/11/09 17:59:23","新北市林口區公園路167號","121.370673333333","25.0719683333333","6501700","林口區"
"244011","701-TV","2017/11/09 17:59:20","新北市林口區中正路266號","121.389366666667","25.077715","6501700","林口區"
"244021","838-TS","2017/11/09 17:59:20","新北市林口區新寮37-2號","121.401745","25.0656516666667","6501700","林口區"
"243009","297-R6","2017/11/09 15:57:32","新北市泰山區黎明路25號","121.421911666667","25.06098","6501600","泰山區"
"222003","436-BY","2017/11/09 17:59:18","新北市深坑區炮子崙9號","121.603598333333","24.986895","6501800","深坑區"
"222002","659-BX","2017/11/09 17:59:20","新北市深坑區文化街98號","121.617106666667","25.001895","6501800","深坑區"
"231046","278-BY","2017/11/09 17:59:23","新北市新店區康雅崙路3號","121.53906","24.9254883333333","6500600","新店區"
"231058","3712-VJ","2017/11/09 17:59:26","新北市新店區安華路28-1號","121.51929","24.9607666666667","6500600","新店區"
"241016","266-UM","2017/11/09 17:59:34","新北市三重區頂崁街183號","121.478071666667","25.06163","6500200","三重區"
"241007","398-BY","2017/11/09 17:57:41","新北市五股區中直路17-3號","121.421896666667","25.111705","6500200","三重區"
"241024","743-BX","2017/11/09 17:59:25","新北市三重區國道路一段39巷7號","121.48383","25.073","6500200","三重區"
"241033","AAC-255","2017/11/09 17:59:15","新北市三重區重新路五段598號","121.469016666667","25.04523","6500200","三重區"
"235063","006-UY","2017/11/09 17:59:26","新北市中和區員山路36巷16-3號","121.485041666667","24.991345","6500300","中和區"
"235065","098-UM","2017/11/09 17:59:30","新北市中和區連城路469巷2號","121.483585","24.9956333333333","6500300","中和區"
"235058","151-BY","2017/11/09 17:59:34","新北市中和區錦和路350-1號","121.490088333333","24.9935383333333","6500300","中和區"
"235038","185-VK","2017/11/09 17:59:14","新北市中和區中正路395號","121.489881666667","24.9935633333333","6500300","中和區"
"235061","378-QA","2017/11/09 17:22:15","新北市中和區員山路36巷16-2號","121.485105","24.9917033333333","6500300","中和區"
"235062","800-TS","2017/11/09 17:59:26","新北市中和區中正路637巷52弄1號","121.485446666667","24.99345","6500300","中和區"
"235041","802-TS","2017/11/09 17:59:23","新北市中和區員山路36巷16-2號","121.48531","24.99173","6500300","中和區"
"235037","157-BY","2017/11/09 17:59:24","新北市中和區員山路36巷13號","121.484126666667","24.990835","6500300","中和區"
"235037","AAC-213","2017/11/09 17:59:15","新北市中和區中正路501號","121.488835","24.9935616666667","6500300","中和區"
"247022","893-R6","2017/11/09 17:59:14","新北市蘆洲區中正路516巷10-1號","121.462263333333","25.098025","6501400","蘆洲區"
"247012","546-UM","2017/11/09 17:59:23","新北市蘆洲區民族路167巷14號","121.478295","25.0884183333333","6501400","蘆洲區"
"247020","500-BY","2017/11/09 17:59:19","新北市蘆洲區民權路131巷8號","121.471446666667","25.0899783333333","6501400","蘆洲區"
"247002","337-TH","2017/11/09 17:59:26","新北市蘆洲區永平街32巷57弄20號","121.459071666667","25.0933616666667","6501400","蘆洲區"
"247016","057-VK","2017/11/09 17:59:16","新北市蘆洲區中正路185巷78弄11號","121.465835","25.0844566666667","6501400","蘆洲區"
"247008","053-VK","2017/11/09 17:59:20","新北市五股區四維路185巷24號","121.465748333333","25.0773883333333","6501400","蘆洲區"
"247014","007-UY","2017/11/09 17:59:28","新北市蘆洲區三民路155號","121.471373333333","25.0866816666667","6501400","蘆洲區"
"247024","002-UY","2017/11/09 17:59:24","新北市蘆洲區光復路41巷10號","121.462805","25.085135","6501400","蘆洲區"
"247018","001-UY","2017/11/09 17:59:13","新北市蘆洲區復興路298號","121.481076666667","25.0899216666667","6501400","蘆洲區"
"226004","312-R5","2017/11/09 17:59:27","新北市平溪區石底里公園街18-3號","121.733218333333","25.0258266666667","6502400","平溪區"
"228003","097-TW","2017/11/09 17:59:11","新北市貢寮區真理里美艷山街6-2號","121.928923333333","25.06072","6502600","貢寮區"
"228001","212-TW","2017/11/09 17:59:19","新北市貢寮區真理里新港街26巷53號","121.928521666667","25.0536466666667","6502600","貢寮區"
"228002","585-TW","2017/11/09 17:59:20","新北市貢寮區福隆里桂安街3-1號","121.962725","25.0208066666667","6502600","貢寮區"
"224006","676-BX","2017/11/09 17:59:18","新北市瑞芳區傑魚坑路183號","121.78846","25.1083016666667","6501200","瑞芳區"
"224002","639-TC","2017/11/09 17:59:30","新北市瑞芳區三爪子坑路30號","121.810541666667","25.1062416666667","6501200","瑞芳區"
"224009","285-BY","2017/11/09 17:59:21","新北市瑞芳區山尖路173號","121.852536666667","25.1119966666667","6501200","瑞芳區"
"224008","275-VK","2017/11/09 17:59:12","新北市瑞芳區明燈路一段45巷97號","121.822076666667","25.10425","6501200","瑞芳區"
"224007","273-VK","2017/11/09 17:59:16","新北市瑞芳區大寮路84號","121.780445","25.1013566666667","6501200","瑞芳區"
"224005","271-BY","2017/11/09 17:59:32","新北市瑞芳區深澳路133-1號","121.81979","25.1328733333333","6501200","瑞芳區"
"253005","032-BX","2017/11/09 17:59:33","新北市石門區中山路62-11號","121.567525","25.2896816666667","6502200","石門區"
"253006","295-VK","2017/11/09 17:59:33","新北市石門區大丘田45-2號","121.549801666667","25.2748516666667","6502200","石門區"
"222001","KEA-2212","2017/11/09 17:59:26","新北市深坑區北深路三段25巷12-1號","121.60905","25.000905","6501800","深坑區"
"208002","742-BX","2017/11/09 17:59:32","新北市金山區三界壇路14號","121.625848333333","25.228425","6502700","金山區"
"208003","665-BX","2017/11/09 17:59:15","新北市金山區磺港里磺港路306號","121.643861666667","25.2272033333333","6502700","金山區"
"208001","761-BX","2017/11/09 17:59:20","新北市金山區磺港里青年路1號","121.63956","25.2257683333333","6502700","金山區"
"251009","008-UM","2017/11/09 17:59:21","新北市淡水區中山路108巷3號","121.442015","25.1710266666667","6501000","淡水區"
"251004","009-UM","2017/11/09 17:59:15","新北市淡水區民權路187巷36號","121.460755","25.133425","6501000","淡水區"
"251005","010-UM","2017/11/09 17:59:34","新北市淡水區英專路122巷1號","121.446578333333","25.1727533333333","6501000","淡水區"
"251007","179-VK","2017/11/09 17:59:26","新北市淡水區大同路113巷4號","121.463796666667","25.1412283333333","6501000","淡水區"
"251008","181-VK","2017/11/09 17:59:27","新北市淡水區八勢一街43-8號","121.461911666667","25.1557983333333","6501000","淡水區"
"251014","182-VK","2017/11/09 17:59:27","新北市淡水區公埔子16-6號","121.481001666667","25.2245783333333","6501000","淡水區"
"251010","413-VK","2017/11/09 17:59:22","新北市淡水區中正路一段132巷22號","121.422976666667","25.17995","6501000","淡水區"
"251012","441-VK","2017/11/09 17:59:28","新北市淡水區北新路三段38巷1號","121.484313333333","25.1870616666667","6501000","淡水區"
"251016","442-VK","2017/11/09 17:59:27","新北市淡水區埤島30-14號","121.448188333333","25.1981066666667","6501000","淡水區"
"251001","559-UM","2017/11/09 17:59:28","新北市淡水區民權路94巷1號","121.46307","25.1248116666667","6501000","淡水區"
"251006","561-UM","2017/11/09 17:59:20","新北市淡水區新生街20-5號","121.438845","25.17387","6501000","淡水區"
"251011","650-BX","2017/11/09 17:59:28","新北市淡水區三空泉7-1號","121.476553333333","25.1625116666667","6501000","淡水區"
"251002","672-BX","2017/11/09 17:59:15","新北市淡水區鼻頭街18-5號","121.446821666667","25.1667716666667","6501000","淡水區"
"251003","766-UM","2017/11/09 17:59:19","新北市淡水區大忠街79-1號","121.44585","25.1773516666667","6501000","淡水區"
"207003","550-UM","2017/11/09 17:59:32","新北市萬里區港東路野柳風景區攤販51號","121.691603333333","25.2059233333333","6502800","萬里區"
"207004","225-TW","2017/11/09 17:59:25","新北市萬里區中幅里中福路48號","121.683271666667","25.1740583333333","6502800","萬里區"
"252002","178-VK","2017/11/09 17:59:32","新北市三芝區中山路二段47巷11號","121.502658333333","25.25506","6502100","三芝區"
"252001","292-VK","2017/11/09 17:59:24","新北市三芝區中興街一段45號","121.497953333333","25.257425","6502100","三芝區"
"237004","078-UY","2017/11/09 17:59:16","新北市三峽區中園街237-1號","121.366805","24.91934","6500900","三峽區"
"237007","153-BY","2017/11/09 17:59:27","新北市三峽區中園街130號","121.366941666667","24.920535","6500900","三峽區"
"237009","210-TH","2017/11/09 17:59:16","新北市三峽區中山路106巷3號","121.366015","24.9359683333333","6500900","三峽區"
"237013","252-BX","2017/11/09 17:59:16","新北市三峽區介壽路一段172號","121.377033333333","24.931115","6500900","三峽區"
"237012","275-BY","2017/11/09 17:59:18","新北市三峽區民生街27巷1號","121.376105","24.9361933333333","6500900","三峽區"
"237008","302-VK","2017/11/09 17:59:32","新北市三峽區白雞22-1號","121.368243333333","24.9128483333333","6500900","三峽區"
"237014","433-BY","2017/11/09 17:59:17","新北市三峽區復興路141-1號","121.37096","24.9377283333333","6500900","三峽區"
"237006","5529-G3","2017/11/09 17:59:31","新北市三峽區介壽路二段138巷1弄130號","121.398636666667","24.9309816666667","6500900","三峽區"
"237011","572-TV","2017/11/09 17:57:27","新北市三峽區大同路50號","121.377083333333","24.928655","6500900","三峽區"
"237016","649-BX","2017/11/09 17:59:18","新北市三峽區紫微路105號","121.409258333333","24.9116783333333","6500900","三峽區"
"237010","706-TV","2017/11/09 17:59:22","新北市三峽區中山路51-1號","121.367955","24.93457","6500900","三峽區"
"237005","AKY-6261","2017/11/09 17:59:23","新北市三峽區復興路237巷6號","121.36818","24.9380633333333","6500900","三峽區"
"236071","105-UM","2017/11/09 17:59:17","新北市土城區青雲路665-2號","121.46646","24.9649433333333","6501300","土城區"
"236042","107-UM","2017/11/09 17:59:25","新北市土城區裕生路61號","121.447583333333","24.9860016666667","6501300","土城區"
"236078","166-UM","2017/11/09 17:56:19","新北市土城區永寧路36-1號","121.428803333333","24.9591366666667","6501300","土城區"
"236030","253-BX","2017/11/09 17:59:33","新北市土城區城林路6巷80號","121.438465","24.9797916666667","6501300","土城區"
"236026","269-VK","2017/11/09 17:59:32","新北市土城區承天路20號","121.439556666667","24.9634183333333","6501300","土城區"
"236014","270-VK","2017/11/09 17:59:33","新北市土城區城林路6巷80號","121.438546666667","24.9796166666667","6501300","土城區"
"236037","271-VK","2017/11/09 17:59:32","新北市土城區城林路6巷80號","121.438326666667","24.9795216666667","6501300","土城區"
"236021","401-BY","2017/11/09 17:59:27","新北市土城區城林路6巷80號","121.438731666667","24.979665","6501300","土城區"
"236051","752-BX","2017/11/09 17:59:32","新北市土城區城林路6巷80號","121.438575","24.9797","6501300","土城區"
"236058","912-UM","2017/11/09 17:59:18","新北市土城區中央路三段62號","121.436835","24.9673116666667","6501300","土城區"
"236062","915-UM","2017/11/09 17:59:16","新北市土城區城林路6巷80號","121.438565","24.97975","6501300","土城區"
"236053","AAC-216","2017/11/09 17:59:24","新北市土城區城林路6巷80號","121.438485","24.9796316666667","6501300","土城區"
"242031","AAC-296","2017/11/09 17:59:25","新北市新莊區新泰路345號","121.444776666667","25.0420533333333","6500500","新莊區"
"242029","986-R7","2017/11/09 17:59:17","新北市新莊區中平路75號","121.444656666667","25.045025","6500500","新莊區"
"242051","751-BX","2017/11/09 17:59:30","新北市新莊區西盛街165號","121.428213333333","25.0177666666667","6500500","新莊區"
"242025","615-BX","2017/11/09 17:59:27","新北市新莊區五工路80號","121.457511666667","25.0638983333333","6500500","新莊區"
"242023","613-BX","2017/11/09 17:59:31","新北市新莊區福壽街67號","121.45823","25.0494033333333","6500500","新莊區"
"242027","612-BX","2017/11/09 17:59:21","新北市新莊區思源路377號","121.459873333333","25.0511633333333","6500500","新莊區"
"242039","566-BX","2017/11/09 17:59:24","新北市新莊區民安西路10號","121.426576666667","25.021725","6500500","新莊區"
"242044","497-BY","2017/11/09 17:59:29","新北市新莊區新北大道七段365號","121.412695","25.026755","6500500","新莊區"
"242048","441-UM","2017/11/09 17:59:29","新北市新莊區萬安街67巷23號","121.422513333333","25.0236766666667","6500500","新莊區"
"242053","440-UM","2017/11/09 17:59:27","新北市新莊區光華街35號","121.428776666667","25.0112533333333","6500500","新莊區"
"242004","413-TV","2017/11/09 17:55:42","新北市新莊區福樂街58號","121.457991666667","25.0460716666667","6500500","新莊區"
"242042","400-BY","2017/11/09 17:59:15","新北市新莊區壽山路41號","121.415008333333","25.0304816666667","6500500","新莊區"
"242061","362-BY","2017/11/09 17:59:26","新北市新莊區新樹路505號","121.432698333333","25.0109116666667","6500500","新莊區"
"242058","353-BY","2017/11/09 17:59:15","新北市新莊區雙鳳路134巷8號","121.412756666667","25.0281083333333","6500500","新莊區"
"242007","132-UY","2017/11/09 17:59:13","新北市新莊區自信街67號","121.455463333333","25.048305","6500500","新莊區"
"242036","133-UY","2017/11/09 17:59:25","新北市新莊區中正路685號","121.425993333333","25.029495","6500500","新莊區"
"242021","135-UY","2017/11/09 17:59:34","新北市新莊區建興街6號","121.45014","25.0365166666667","6500500","新莊區"
"242046","172-VK","2017/11/09 17:59:31","新北市新莊區福營路167號","121.431773333333","25.03114","6500500","新莊區"
"242009","173-VK","2017/11/09 17:59:26","新北市新莊區中原路189-1號","121.45244","25.05421","6500500","新莊區"
"242015","175-VK","2017/11/09 17:59:27","新北市新莊區中平路108號","121.444853333333","25.045845","6500500","新莊區"
"242002","176-VK","2017/11/09 17:59:33","新北市新莊區中正路145-19號","121.458223333333","25.037625","6500500","新莊區"
"242001","233-RS","2017/11/09 09:13:50","新北市新莊區環河路48-7號","121.436898333333","25.009815","6500500","新莊區"
"242034","348-TH","2017/11/09 17:59:26","新北市新莊區福海街26號","121.4453","25.034055","6500500","新莊區"
"242056","349-TH","2017/11/09 17:59:17","新北市新莊區豐年街57-1號","121.446545","25.0298516666667","6500500","新莊區"
"242017","350-TH","2017/11/09 17:59:18","新北市新莊區中和街60巷31號","121.449251666667","25.0449733333333","6500500","新莊區"
"242011","351-TH","2017/11/09 17:59:23","新北市新莊區中港路中慶巷18號","121.45013","25.05377","6500500","新莊區"
"238015","755-BX","2017/11/09 17:59:25","新北市樹林區文德街3巷41號","121.417963333333","24.99177","6500700","樹林區"
"238023","601-UM","2017/11/09 17:59:28","新北市樹林區龍興街29號","121.403126666667","25.0159416666667","6500700","樹林區"
"238019","599-UM","2017/11/09 17:59:18","新北市樹林區中華路71號","121.423155","24.9830233333333","6500700","樹林區"
"238018","571-TV","2017/11/09 17:59:26","新北市樹林區樹新路98號","121.429515","24.9976483333333","6500700","樹林區"
"238024","5061-A6","2017/11/09 17:59:30","新北市樹林區中山路三段125-2號","121.396938333333","24.973405","6500700","樹林區"
"238021","KEA-2217","2017/11/09 17:59:31","新北市樹林區柑園街一段43號","121.403425","24.9601616666667","6500700","樹林區"
"238022","KEA-2213","2017/11/09 17:59:16","新北市樹林區太平路112號","121.418583333333","24.9787416666667","6500700","樹林區"
"238025","303-VK","2017/11/09 17:59:14","新北市樹林區三俊街71-1號","121.415033333333","25.01556","6500700","樹林區"
"238017","283-BY","2017/11/09 17:59:19","新北市樹林區中正路464號","121.412785","25.0127816666667","6500700","樹林區"
"238014","282-BY","2017/11/09 17:59:30","新北市樹林區大安路179號","121.421265","24.9962966666667","6500700","樹林區"
"238020","268-VK","2017/11/09 17:59:17","新北市樹林區三俊街133號","121.418188333333","25.015575","6500700","樹林區"
"238026","172-UY","2017/11/09 17:59:27","新北市樹林區佳園路一段31號","121.392941666667","24.97101","6500700","樹林區"
"238016","169-UY","2017/11/09 17:59:24","新北市樹林區啟智街151巷14號","121.41632","24.9875233333333","6500700","樹林區"
"239007","AAC-297","2017/11/09 17:59:25","新北市鶯歌區尖山埔路213號","121.345183333333","24.9504633333333","6500800","鶯歌區"
"239006","891-R6","2017/11/09 17:59:28","新北市鶯歌區鶯桃路413巷34弄26號","121.33079","24.96401","6500800","鶯歌區"
"239008","527-UM","2017/11/09 17:59:27","新北市鶯歌區朝陽街50巷2號","121.337716666667","24.978045","6500800","鶯歌區"
"239005","526-UM","2017/11/09 17:59:25","新北市鶯歌區大湖路361巷81-1號","121.332673333333","24.9737333333333","6500800","鶯歌區"
"239001","417-VK","2017/11/09 17:59:24","新北市鶯歌區中正三路33號","121.3391","24.9422266666667","6500800","鶯歌區"
"239003","360-BY","2017/11/09 17:59:28","新北市鶯歌區鶯桃路336號","121.333945","24.9623383333333","6500800","鶯歌區"
"239002","359-BY","2017/11/09 17:59:23","新北市鶯歌區中山路329巷6弄10號","121.34364","24.9560033333333","6500800","鶯歌區"
"221008","489-VK","2017/11/09 17:59:27","新北市汐止區明峰街16-1號","121.6349","25.0714983333333","6501100","汐止區"
"221036","130-UY","2017/11/09 17:59:24","新北市汐止區忠孝東路473巷24-1號","121.665085","25.0736283333333","6501100","汐止區"
"221015","131-UY","2017/11/09 17:59:25","新北市汐止區長江街305號","121.665925","25.0813566666667","6501100","汐止區"
"221010","269-BY","2017/11/09 17:59:30","新北市汐止區汐萬路二段122巷40號","121.648248333333","25.086805","6501100","汐止區"
"221012","276-VK","2017/11/09 13:26:11","新北市汐止區汐萬路一段256巷3號","121.653455","25.0746316666667","6501100","汐止區"
"221012","278-VK","2017/11/09 17:59:25","新北市汐止區長興街二段18號","121.672828333333","25.08123","6501100","汐止區"
"221023","279-VK","2017/11/09 17:59:24","新北市汐止區明峰街154號","121.629561666667","25.0706933333333","6501100","汐止區"
"221032","280-BY","2017/11/09 17:59:33","新北市汐止區橫科路73巷2-2號","121.619621666667","25.0507183333333","6501100","汐止區"
"221027","281-BY","2017/11/09 17:59:19","新北市汐止區大同路二段384號","121.658176666667","25.0671966666667","6501100","汐止區"
"221029","298-VK","2017/11/09 17:59:16","新北市汐止區樟樹二路328號","121.641463333333","25.0702183333333","6501100","汐止區"
"221021","299-VK","2017/11/09 17:59:23","新北市汐止區新興路18號","121.656356666667","25.064605","6501100","汐止區"
"221031","353-TW","2017/11/09 17:59:13","新北市汐止區中興路96巷1-3號","121.63524","25.06252","6501100","汐止區"
"221002","358-BY","2017/11/09 17:59:27","新北市汐止區工建路202號","121.63691","25.0627233333333","6501100","汐止區"
"221035","622-UM","2017/11/09 17:59:23","新北市汐止區汐萬路一段167-1號","121.652765","25.0709866666667","6501100","汐止區"
"221025","623-UM","2017/11/09 17:59:29","新北市汐止區仁愛路49號","121.659721666667","25.06317","6501100","汐止區"
"221033","647-BX","2017/11/09 17:59:14","新北市汐止區合順街17號","121.620005","25.04323","6501100","汐止區"
"221018","753-BX","2017/11/09 17:59:22","新北市汐止區招商街11巷1號","121.666523333333","25.0688366666667","6501100","汐止區"
"242019","280-VK","2017/11/09 17:59:30","新北市新莊區公園路224號","121.456598333333","25.0405816666667","6500500","新莊區"
