"lineid","car","time","location","longitude","latitude","cityid","cityname"
"234046","148-BY","2017/11/09 18:39:24","新北市永和區永元路68號","121.522558333333","25.0015616666667","6500400","永和區"
"234013","149-BY","2017/11/09 18:39:20","新北市永和區竹林路91巷60弄70號","121.522973333333","25.012315","6500400","永和區"
"234007","207-UY","2017/11/09 18:39:31","新北市永和區文化路174號","121.511643333333","25.01566","6500400","永和區"
"234081","298-R6","2017/11/09 18:39:14","新北市永和區林森路67號","121.524003333333","25.0040116666667","6500400","永和區"
"234038","336-UY","2017/11/09 18:39:29","新北市永和區福和路1號","121.526595","25.0101533333333","6500400","永和區"
"234070","552-UM","2017/11/09 18:39:30","新北市永和區福和路1號","121.525635","25.0095416666667","6500400","永和區"
"234017","745-BX","2017/11/09 18:38:23","新北市永和區福和路1號","121.526488333333","25.0097216666667","6500400","永和區"
"234030","746-BX","2017/11/09 18:39:26","新北市永和區得和路380號","121.524776666667","24.9992183333333","6500400","永和區"
"234061","AAD-866","2017/11/09 18:39:21","新北市永和區福和路8巷3號","121.524845","25.0091366666667","6500400","永和區"
"234042","862-TW","2017/11/09 18:39:27","新北市永和區中和路611號","121.51273","25.0046116666667","6500400","永和區"
"234050","863-TW","2017/11/09 18:39:16","新北市永和區環河西路一段99號","121.511328333333","25.017735","6500400","永和區"
"234026","9381-KE","2017/11/09 18:39:32","新北市永和區保生路55-1號","121.504471666667","25.0109266666667","6500400","永和區"
"234011","9373-KE","2017/11/09 18:39:29","新北市永和區文化路9巷22弄46號","121.514108333333","25.0145733333333","6500400","永和區"
"249005","172-UM","2017/11/09 18:39:16","新北市八里區中華路三段34-2號","121.388731666667","25.1254966666667","6502300","八里區"
"249001","173-UM","2017/11/09 18:39:21","新北市八里區龍米路一段205號","121.451483333333","25.131415","6502300","八里區"
"249004","303-UY","2017/11/09 18:39:32","新北市八里區中山路一段60號","121.421736666667","25.1590933333333","6502300","八里區"
"249002","305-UY","2017/11/09 18:39:21","新北市八里區龍形一街33巷6-1號","121.4492","25.1296016666667","6502300","八里區"
"248016","026-BX","2017/11/09 18:39:23","新北市五股區凌雲路一段149巷7號","121.448916666667","25.1016433333333","6501500","五股區"
"248008","095-VK","2017/11/09 18:39:28","新北市五股區中興路一段154號","121.464606666667","25.0741366666667","6501500","五股區"
"248020","225-UY","2017/11/09 18:39:20","新北市五股區孝義路108-1號","121.442795","25.11982","6501500","五股區"
"248012","247-BX","2017/11/09 18:39:24","新北市五股區御史路90號","121.44019","25.0949416666667","6501500","五股區"
"248014","261-SL","2017/11/09 18:39:32","新北市五股區成泰路一段194-2號","121.435651666667","25.0779883333333","6501500","五股區"
"248010","272-BY","2017/11/09 18:39:30","新北市五股區明德路24號","121.432781666667","25.071455","6501500","五股區"
"248004","677-BX","2017/11/09 18:39:29","新北市五股區民義路一段236-6號","121.427436666667","25.0912783333333","6501500","五股區"
"248002","678-BX","2017/11/09 18:39:31","新北市五股區西雲路176號","121.44707","25.094865","6501500","五股區"
"234023","9380-KE","2017/11/09 18:39:29","新北市永和區福和路76巷5弄9號","121.522325","25.00834","6500400","永和區"
"234077","969-R7","2017/11/09 18:39:23","新北市永和區中正路281號","121.517578333333","25.00118","6500400","永和區"
"234067","AAC-212","2017/11/09 18:39:17","新北市永和區自由街71號","121.51337","25.0052216666667","6500400","永和區"
"234003","AAC-295","2017/11/09 18:39:31","新北市永和區福和路1號","121.526601666667","25.010045","6500400","永和區"
"232011","375-UM","2017/11/09 18:17:50","新北市坪林區坪雙路一段43號","121.711708333333","24.9424383333333","6502000","坪林區"
"244013","069-UM","2017/11/09 18:39:21","新北市林口區佳林路138號","121.384675","25.0779116666667","6501700","林口區"
"244007","080-UY","2017/11/09 18:39:34","新北市林口區中湖62號","121.384261666667","25.10109","6501700","林口區"
"244025","742-UY","2017/11/09 18:39:13","新北市林口區南勢四街325號","121.356585","25.0748266666667","6501700","林口區"
"244009","410-SL","2017/11/09 18:39:21","新北市林口區寶林路123號","121.382633333333","25.0856466666667","6501700","林口區"
"244023","483-VK","2017/11/09 18:39:19","新北市林口區信義路128號","121.380413333333","25.079435","6501700","林口區"
"244017","485-VK","2017/11/09 18:39:18","新北市林口區文化二路一段102號","121.367051666667","25.07036","6501700","林口區"
"244011","701-TV","2017/11/09 18:39:20","新北市林口區興林路17巷3弄2號","121.39022","25.0769816666667","6501700","林口區"
"244021","838-TS","2017/11/09 18:39:20","新北市林口區粉寮路一段74號","121.397071666667","25.0790083333333","6501700","林口區"
"243012","AAD-798","2017/11/09 18:39:28","新北市泰山區泰林路二段73巷29號","121.434426666667","25.0578333333333","6501600","泰山區"
"243009","297-R6","2017/11/09 18:39:31","新北市泰山區泰林路二段47號","121.435551666667","25.0575516666667","6501600","泰山區"
"243013","646-TV","2017/11/09 18:35:57","新北市泰山區明志路三段206巷3號","121.423278333333","25.0379366666667","6501600","泰山區"
"222003","436-BY","2017/11/09 18:39:18","新北市深坑區翠谷街53號","121.627476666667","25.0092866666667","6501800","深坑區"
"222002","659-BX","2017/11/09 18:39:20","新北市深坑區文山路一段62巷33號","121.621183333333","25.0001683333333","6501800","深坑區"
"231041","002-UM","2017/11/09 18:39:19","新北市新店區安華路28-1號","121.519641666667","24.96081","6500600","新店區"
"231059","046-UY","2017/11/09 18:39:15","新北市新店區安華路28-1號","121.519646666667","24.96092","6500600","新店區"
"231061","047-UY","2017/11/09 18:39:29","新北市新店區安華路28-1號","121.519093333333","24.9608783333333","6500600","新店區"
"231060","106-UY","2017/11/09 18:39:28","新北市新店區安華路28-1號","121.519671666667","24.9607766666667","6500600","新店區"
"231047","108-UY","2017/11/09 18:39:22","新北市新店區環河路2號","121.538355","24.9618016666667","6500600","新店區"
"231052","187-VK","2017/11/09 18:39:28","新北市新店區新烏路一段65號","121.546081666667","24.9437066666667","6500600","新店區"
"231050","KEA-2219","2017/11/09 18:39:28","新北市新店區安華路28-1號","121.520095","24.96129","6500600","新店區"
"231057","256-BX","2017/11/09 18:39:24","新北市新店區新烏路161號","121.545333333333","24.93283","6500600","新店區"
"231046","278-BY","2017/11/09 18:39:23","新北市新店區直潭二街1號","121.535551666667","24.9432","6500600","新店區"
"231058","3712-VJ","2017/11/09 18:39:26","新北市新店區北宜路一段168號","121.540385","24.9529183333333","6500600","新店區"
"231056","3713-VJ","2017/11/09 18:39:20","新北市新店區自立街76號","121.537455","24.9797483333333","6500600","新店區"
"231055","4716-K9","2017/11/09 18:39:22","新北市新店區華興街38巷5號","121.537133333333","24.9692","6500600","新店區"
"231067","4772-VM","2017/11/09 18:39:16","新北市新店區安華路28-1號","121.51912","24.960725","6500600","新店區"
"231065","512-UM","2017/11/09 18:39:25","新北市新店區安康路一段355-3號","121.519096666667","24.96144","6500600","新店區"
"231054","513-UM","2017/11/09 18:39:30","新北市新店區安華路28-1號","121.519671666667","24.9611633333333","6500600","新店區"
"231064","515-UM","2017/11/09 18:39:00","新北市新店區安華路28-1號","121.519661666667","24.96146","6500600","新店區"
"231040","619-UM","2017/11/09 18:39:19","新北市新店區安華路28-1號","121.519605","24.9610116666667","6500600","新店區"
"231042","641-BX","2017/11/09 18:39:24","新北市新店區安華路28-1號","121.519616666667","24.960725","6500600","新店區"
"231063","645-TV","2017/11/09 18:39:29","新北市新店區安華路28-1號","121.519251666667","24.9606283333333","6500600","新店區"
"231049","719-UM","2017/11/09 18:39:32","新北市新店區安康路一段65號","121.530338333333","24.9610633333333","6500600","新店區"
"231051","719-UY","2017/11/09 18:39:34","新北市新店區安華路28-1號","121.519765","24.9605433333333","6500600","新店區"
"231062","720-UM","2017/11/09 18:39:21","新北市新店區安華路28-1號","121.519298333333","24.9612566666667","6500600","新店區"
"231044","897-TW","2017/11/09 18:39:33","新北市新店區寶中路72號","121.547851666667","24.98056","6500600","新店區"
"231045","898-TW","2017/11/09 18:39:20","新北市新店區安華路28-1號","121.519291666667","24.9608383333333","6500600","新店區"
"231043","899-TW","2017/11/09 18:39:18","新北市新店區安華路28-1號","121.519206666667","24.9608783333333","6500600","新店區"
"231066","AKT-0513","2017/11/09 18:39:29","新北市新店區安華路1-1號","121.51946","24.960375","6500600","新店區"
"235066","003-UY","2017/11/09 18:39:20","新北市中和區水源路37號","121.50443","25.003595","6500300","中和區"
"235064","005-UY","2017/11/09 18:39:29","新北市中和區連城路139巷3號","121.496048333333","24.998555","6500300","中和區"
"235063","006-UY","2017/11/09 18:39:26","新北市中和區連城路347巷2弄1號","121.488095","24.9958016666667","6500300","中和區"
"235056","096-UM","2017/11/09 18:39:30","新北市中和區員山路611巷5弄3號","121.478","25.0112516666667","6500300","中和區"
"235039","097-UM","2017/11/09 18:39:31","新北市永和區安樂路96號","121.514188333333","24.9991516666667","6500300","中和區"
"235065","098-UM","2017/11/09 18:39:30","新北市中和區中山路二段64巷22號","121.50305","25.0059433333333","6500300","中和區"
"235040","150-BY","2017/11/09 18:39:21","新北市中和區宜安路47巷2號","121.511748333333","24.9964466666667","6500300","中和區"
"235058","151-BY","2017/11/09 18:39:14","新北市中和區圓通路433巷8號","121.487791666667","24.98795","6500300","中和區"
"235055","183-VK","2017/11/09 18:39:15","新北市中和區中山路三段229巷61-3號","121.468931666667","25.00518","6500300","中和區"
"235038","185-VK","2017/11/09 18:39:14","新北市中和區立人街14巷40弄2號","121.519236666667","24.9955333333333","6500300","中和區"
"235049","186-VK","2017/11/09 18:39:22","新北市中和區景平路490號","121.50489","24.993735","6500300","中和區"
"235067","255-BX","2017/11/09 18:39:35","新北市中和區新生街10號","121.48308","25.0044966666667","6500300","中和區"
"235044","293-VK","2017/11/09 18:39:22","新北市中和區復興路280巷5號","121.502248333333","24.990935","6500300","中和區"
"235072","301-VK","2017/11/09 18:39:16","新北市中和區中山路二段133號","121.502313333333","25.0031066666667","6500300","中和區"
"235043","352-BY","2017/11/09 18:39:22","新北市中和區景平路149號","121.51389","24.9921583333333","6500300","中和區"
"235068","377-QA","2017/11/09 18:39:10","新北市中和區中興街124-1號","121.499801666667","24.992945","6500300","中和區"
"235061","378-QA","2017/11/09 18:39:31","新北市中和區民享街94號","121.474668333333","24.99988","6500300","中和區"
"235069","4980-A6","2017/11/09 18:39:19","新北市中和區連城路67號","121.497578333333","25.0013466666667","6500300","中和區"
"235042","551-UM","2017/11/09 18:39:25","新北市中和區成功路127巷12弄3號","121.526808333333","24.9906466666667","6500300","中和區"
"235070","558-UM","2017/11/09 18:39:16","新北市中和區南華路41號","121.503815","24.99659","6500300","中和區"
"235045","565-BX","2017/11/09 18:39:24","新北市中和區南山路236巷11號","121.505728333333","24.9887666666667","6500300","中和區"
"235054","640-BX","2017/11/09 18:39:23","新北市中和區民享街86巷30弄1號","121.473175","25.0007866666667","6500300","中和區"
"235047","732-UM","2017/11/09 18:39:28","新北市中和區南山路320巷19號","121.507261666667","24.9862983333333","6500300","中和區"
"235046","733-UM","2017/11/09 18:39:29","新北市中和區興南路一段86號","121.50983","24.98946","6500300","中和區"
"235062","800-TS","2017/11/09 18:39:26","新北市中和區中山路二段312巷31號","121.495068333333","25.003805","6500300","中和區"
"235057","801-TS","2017/11/09 18:39:26","新北市中和區員山路327巷112號","121.47909","25.0022416666667","6500300","中和區"
"235041","802-TS","2017/11/09 18:39:23","新北市中和區中安街178巷13弄1號","121.510198333333","24.9987266666667","6500300","中和區"
"235052","805-TS","2017/11/09 18:39:26","新北市中和區興南路三段26號","121.496898333333","24.978525","6500300","中和區"
"235048","896-TW","2017/11/09 18:39:29","新北市中和區南山路303號","121.504756666667","24.991635","6500300","中和區"
"235053","900-TW","2017/11/09 18:39:17","新北市土城區延壽路75巷1號","121.469303333333","24.992545","6500300","中和區"
"235060","911-UM","2017/11/09 18:39:15","新北市中和區中山路二段537號","121.481281666667","25.005405","6500300","中和區"
"235037","157-BY","2017/11/09 18:39:24","新北市中和區興南路二段110號","121.504535","24.9841383333333","6500300","中和區"
"235037","AAC-213","2017/11/09 18:39:15","新北市中和區景平路111巷67號","121.51512","24.99034","6500300","中和區"
"235059","AAC-215","2017/11/09 18:39:24","新北市中和區錦和路350-1號","121.490416666667","24.993465","6500300","中和區"
"220065","072-UY","2017/11/09 18:39:18","新北市板橋區館前西路4-1號","121.459378333333","25.0070916666667","6500100","板橋區"
"220086","073-UY","2017/11/09 18:39:30","新北市板橋區南雅西路二段173號","121.451846666667","25.0125033333333","6500100","板橋區"
"247008","053-VK","2017/11/09 18:39:20","新北市五股區凌雲路三段24巷21-25號","121.43353","25.1076583333333","6501400","蘆洲區"
"226004","312-R5","2017/11/09 18:39:27","新北市平溪區石底里石筍尖9號","121.735715","25.024805","6502400","平溪區"
"228003","097-TW","2017/11/09 18:39:31","新北市貢寮區和美里龍洞街38-1號","121.915788333333","25.111645","6502600","貢寮區"
"228001","212-TW","2017/11/09 18:39:19","新北市貢寮區仁理村保健街71號","121.923741666667","25.0516366666667","6502600","貢寮區"
"228002","585-TW","2017/11/09 18:39:20","新北市貢寮區福隆里東興街6-11號","121.950771666667","25.02106","6502600","貢寮區"
"224010","AGQ-8101","2017/11/09 18:36:57","新北市瑞芳區烏勢巷115號","121.846225","25.1079916666667","6501200","瑞芳區"
"224006","676-BX","2017/11/09 18:39:18","新北市瑞芳區明燈路三段130號","121.804526666667","25.10842","6501200","瑞芳區"
"224002","639-TC","2017/11/09 18:39:30","新北市瑞芳區中山路307-1號","121.794026666667","25.1096733333333","6501200","瑞芳區"
"224009","285-BY","2017/11/09 18:39:21","新北市瑞芳區五號路308號","121.856903333333","25.1115016666667","6501200","瑞芳區"
"224008","275-VK","2017/11/09 18:39:32","新北市瑞芳區瑞芳街28號","121.806486666667","25.109525","6501200","瑞芳區"
"224007","273-VK","2017/11/09 18:39:16","新北市瑞芳區大埔路115巷24-4號","121.762791666667","25.1013483333333","6501200","瑞芳區"
"224005","271-BY","2017/11/09 18:39:32","新北市瑞芳區永龍新村22號","121.818925","25.1195","6501200","瑞芳區"
"227010","642-TC","2017/11/09 18:39:16","新北市雙溪區牡丹里下坑11號","121.850988333333","25.0562066666667","6502500","雙溪區"
"227004","400-TW","2017/11/09 18:39:30","新北市雙溪區魚行里坤溪3-5號","121.876255","25.0207866666667","6502500","雙溪區"
"253005","032-BX","2017/11/09 18:39:12","新北市石門區中山路33號","121.56718","25.290995","6502200","石門區"
"253006","295-VK","2017/11/09 18:39:33","新北市石門區崁子腳28-5號","121.538513333333","25.2894866666667","6502200","石門區"
"222001","KEA-2212","2017/11/09 18:39:26","新北市深坑區北深路一段84號","121.636236666667","25.01071","6501800","深坑區"
"208002","742-BX","2017/11/09 18:39:32","新北市金山區忠孝一路19巷5號","121.637956666667","25.2180133333333","6502700","金山區"
"208003","665-BX","2017/11/09 18:39:14","新北市金山區中山路314號","121.634291666667","25.224755","6502700","金山區"
"208001","761-BX","2017/11/09 18:39:20","新北市金山區文化三路7號","121.635105","25.2250083333333","6502700","金山區"
"251004","009-UM","2017/11/09 18:39:15","新北市淡水區竹林路120號","121.462578333333","25.1439233333333","6501000","淡水區"
"251008","181-VK","2017/11/09 18:39:27","新北市淡水區北投子72-1號","121.453568333333","25.1822383333333","6501000","淡水區"
"251014","182-VK","2017/11/09 18:39:27","新北市淡水區崙頂12-8號","121.495555","25.2172633333333","6501000","淡水區"
"251010","413-VK","2017/11/09 18:39:22","新北市淡水區沙崙路141-1號","121.423338333333","25.1830233333333","6501000","淡水區"
"251012","441-VK","2017/11/09 18:39:18","新北市淡水區北新路121號","121.449021666667","25.1786966666667","6501000","淡水區"
"251016","442-VK","2017/11/09 18:39:27","新北市淡水區下圭柔山76號","121.443148333333","25.205445","6501000","淡水區"
"251001","559-UM","2017/11/09 18:39:28","新北市淡水區自強路166號","121.46561","25.1341483333333","6501000","淡水區"
"251006","561-UM","2017/11/09 18:39:20","新北市淡水區中山北路三段79號","121.444573333333","25.1923333333333","6501000","淡水區"
"251011","650-BX","2017/11/09 18:39:27","新北市淡水區鄧公路41號","121.45791","25.1688666666667","6501000","淡水區"
"251002","672-BX","2017/11/09 18:39:21","新北市淡水區學府路24號","121.447605","25.16823","6501000","淡水區"
"251003","766-UM","2017/11/09 18:39:19","新北市淡水區中山北路一段212巷36號","121.446116666667","25.1791133333333","6501000","淡水區"
"207003","550-UM","2017/11/09 18:39:32","新北市萬里區野柳里港東新村1-3號","121.685953333333","25.2030666666667","6502800","萬里區"
"207004","225-TW","2017/11/09 18:39:25","新北市萬里區萬里里獅頭路7號","121.692008333333","25.1783433333333","6502800","萬里區"
"252002","178-VK","2017/11/09 18:39:32","新北市三芝區中正路二段37號","121.503933333333","25.25487","6502100","三芝區"
"252003","249-BX","2017/11/09 18:39:14","新北市三芝區後厝里土地公坑54-17號","121.465988333333","25.249595","6502100","三芝區"
"252001","292-VK","2017/11/09 18:39:26","新北市三芝區中興街二段72號","121.499776666667","25.2547816666667","6502100","三芝區"
"237004","078-UY","2017/11/09 18:39:16","新北市三峽區插角1-1號","121.39627","24.87382","6500900","三峽區"
"237007","153-BY","2017/11/09 18:39:27","新北市三峽區柑樹路2巷21號","121.361815","24.90447","6500900","三峽區"
"237009","210-TH","2017/11/09 18:39:16","新北市三峽區弘園街26號","121.366488333333","24.927315","6500900","三峽區"
"237013","252-BX","2017/11/09 18:39:22","新北市三峽區光明路69巷27號","121.37688","24.9293866666667","6500900","三峽區"
"237012","275-BY","2017/11/09 18:39:18","新北市三峽區三樹路322號","121.38136","24.9440916666667","6500900","三峽區"
"237008","302-VK","2017/11/09 18:39:12","新北市三峽區白雞81-1號","121.403515","24.909115","6500900","三峽區"
"237014","433-BY","2017/11/09 18:39:17","新北市三峽區復興路176-5號","121.370303333333","24.9385683333333","6500900","三峽區"
"237006","5529-G3","2017/11/09 18:39:31","新北市三峽區溪東路211巷37號","121.405368333333","24.9347083333333","6500900","三峽區"
"237011","572-TV","2017/11/09 18:06:37","新北市三峽區溪北街2號","121.39603","24.9362283333333","6500900","三峽區"
"237016","649-BX","2017/11/09 18:39:18","新北市三峽區成福路315巷2號","121.429613333333","24.9236383333333","6500900","三峽區"
"237010","706-TV","2017/11/09 18:39:22","新北市三峽區復興路357號","121.363783333333","24.9386466666667","6500900","三峽區"
"237005","AKY-6261","2017/11/09 18:39:23","新北市三峽區民生街104巷2-10號","121.373596666667","24.93608","6500900","三峽區"
"236071","105-UM","2017/11/09 18:39:17","新北市土城區永豐路157巷29弄1號","121.468765","24.98159","6501300","土城區"
"236042","107-UM","2017/11/09 18:39:24","新北市土城區裕民路55巷17號","121.449338333333","24.988825","6501300","土城區"
"236078","166-UM","2017/11/09 18:39:26","新北市土城區中央路四段80號","121.418185","24.959885","6501300","土城區"
"236030","253-BX","2017/11/09 18:39:27","新北市土城區福仁街72號","121.439131666667","24.974215","6501300","土城區"
"236026","269-VK","2017/11/09 18:39:32","新北市土城區金城路一段42號","121.441938333333","24.9701116666667","6501300","土城區"
"236014","270-VK","2017/11/09 18:39:33","新北市土城區清水路207巷11號","121.4599","24.9822766666667","6501300","土城區"
"236037","271-VK","2017/11/09 18:39:33","新北市土城區青山路2巷5號","121.461233333333","24.9767916666667","6501300","土城區"
"236021","401-BY","2017/11/09 18:39:26","新北市土城區延吉街327-1號","121.46544","24.9841516666667","6501300","土城區"
"236051","752-BX","2017/11/09 18:39:32","新北市土城區明德路一段67號","121.465428333333","24.984235","6501300","土城區"
"236058","912-UM","2017/11/09 18:39:18","新北市土城區中央路四段27巷1號","121.424416666667","24.962405","6501300","土城區"
"236062","915-UM","2017/11/09 18:39:36","新北市土城區金城路三段207巷8弄11號","121.470195","24.9904083333333","6501300","土城區"
"236053","AAC-216","2017/11/09 18:39:28","新北市土城區中華路一段77號","121.445136666667","24.987675","6501300","土城區"
"242048","441-UM","2017/11/09 18:39:27","新北市樹林區育德街76巷1號","121.388676666667","24.9681916666667","6500500","新莊區"
"242061","362-BY","2017/11/09 18:39:24","新北市新莊區新樹路206巷4號","121.43354","25.0203883333333","6500500","新莊區"
"242058","353-BY","2017/11/09 18:39:15","新北市新莊區中正路887-6號","121.416656666667","25.024465","6500500","新莊區"
"242001","233-RS","2017/11/09 09:13:50","新北市新莊區環河路48-7號","121.436898333333","25.009815","6500500","新莊區"
"242056","349-TH","2017/11/09 18:39:17","新北市新莊區環河路636-7號","121.437221666667","25.011785","6500500","新莊區"
"238015","755-BX","2017/11/09 18:39:25","新北市樹林區備內街79號","121.409101666667","24.989575","6500700","樹林區"
"238023","601-UM","2017/11/09 18:39:28","新北市樹林區三福街114號","121.406408333333","25.0162733333333","6500700","樹林區"
"238019","599-UM","2017/11/09 18:39:18","新北市樹林區中華路387號","121.411833333333","24.9802616666667","6500700","樹林區"
"238018","571-TV","2017/11/09 18:39:30","新北市樹林區樹新路76號","121.429281666667","24.997255","6500700","樹林區"
"238024","5061-A6","2017/11/09 18:39:29","新北市樹林區太順街71號","121.416851666667","24.9783033333333","6500700","樹林區"
"238025","303-VK","2017/11/09 18:37:54","新北市樹林區中山路三段214號","121.379993333333","24.9676783333333","6500700","樹林區"
"238017","283-BY","2017/11/09 18:39:19","新北市樹林區大安路562-1號","121.412566666667","24.9843283333333","6500700","樹林區"
"238014","282-BY","2017/11/09 18:39:30","新北市樹林區中山路三段210-2號","121.380573333333","24.9668516666667","6500700","樹林區"
"238020","268-VK","2017/11/09 18:39:33","新北市樹林區俊安街42-1號","121.419546666667","25.0133483333333","6500700","樹林區"
"238026","172-UY","2017/11/09 18:39:26","新北市樹林區中山路三段160-1號","121.38933","24.9703333333333","6500700","樹林區"
"238016","169-UY","2017/11/09 18:39:24","新北市樹林區文化街23號","121.41927","24.9876566666667","6500700","樹林區"
"239007","AAC-297","2017/11/09 18:39:24","新北市鶯歌區中正一路建德巷38號","121.364461666667","24.957835","6500800","鶯歌區"
"239006","891-R6","2017/11/09 18:39:28","新北市樹林區中山路三段214號","121.37993","24.967675","6500800","鶯歌區"
"239008","527-UM","2017/11/09 18:39:27","新北市鶯歌區國際一路14號","121.336185","24.976575","6500800","鶯歌區"
"239005","526-UM","2017/11/09 18:39:25","新北市鶯歌區鳳吉一街156號","121.328671666667","24.9753916666667","6500800","鶯歌區"
"239001","417-VK","2017/11/09 18:39:29","新北市鶯歌區中正二路187-4號","121.340331666667","24.9472566666667","6500800","鶯歌區"
"239003","360-BY","2017/11/09 18:39:28","新北市鶯歌區永和街200號","121.336663333333","24.9710966666667","6500800","鶯歌區"
"239004","193-VK","2017/11/09 18:39:26","新北市鶯歌區國中街183號","121.338921666667","24.9395983333333","6500800","鶯歌區"
"221008","489-VK","2017/11/09 18:39:27","新北市汐止區康寧街901號","121.651301666667","25.0749783333333","6501100","汐止區"
"221036","130-UY","2017/11/09 18:39:24","新北市汐止區大同路三段147號","121.669625","25.0776833333333","6501100","汐止區"
"221015","131-UY","2017/11/09 18:39:25","新北市汐止區鄉友街26號","121.66864","25.0811733333333","6501100","汐止區"
"221010","269-BY","2017/11/09 18:39:10","新北市汐止區汐萬路三段258號","121.643801666667","25.1046516666667","6501100","汐止區"
"221012","276-VK","2017/11/09 13:26:11","新北市汐止區汐萬路一段256巷3號","121.653455","25.0746316666667","6501100","汐止區"
"221012","278-VK","2017/11/09 18:39:25","新北市汐止區鄉長路二段18巷1號","121.668375","25.0819916666667","6501100","汐止區"
"221023","279-VK","2017/11/09 18:39:24","新北市汐止區康寧街541巷1-2號","121.633833333333","25.0693833333333","6501100","汐止區"
"221032","280-BY","2017/11/09 18:39:19","新北市汐止區福山街58巷13號","121.618018333333","25.0460316666667","6501100","汐止區"
"221027","281-BY","2017/11/09 18:39:19","新北市汐止區汐萬路一段155號","121.653173333333","25.0710516666667","6501100","汐止區"
"221029","298-VK","2017/11/09 18:39:16","新北市汐止區樟樹一路144號","121.642308333333","25.0650316666667","6501100","汐止區"
"221021","299-VK","2017/11/09 18:39:23","新北市汐止區新興路83號","121.657568333333","25.062125","6501100","汐止區"
"221031","353-TW","2017/11/09 18:39:13","新北市汐止區中興路82號","121.634895","25.0620033333333","6501100","汐止區"
"221002","358-BY","2017/11/09 18:39:27","新北市汐止區中興路25號","121.636861666667","25.059615","6501100","汐止區"
"221035","622-UM","2017/11/09 18:39:22","新北市汐止區大同路二段270號","121.65473","25.0662233333333","6501100","汐止區"
"221025","623-UM","2017/11/09 18:39:29","新北市汐止區仁愛路119巷25號","121.662033333333","25.0644083333333","6501100","汐止區"
"221033","647-BX","2017/11/09 18:39:14","台北市南港區舊莊街二段17號","121.625485","25.0374916666667","6501100","汐止區"
"221018","753-BX","2017/11/09 18:39:22","新北市汐止區茄苳路250巷13號","121.671588333333","25.0678716666667","6501100","汐止區"
"220079","145-BY","2017/11/09 18:39:21","新北市板橋區華東街1-10號","121.448316666667","24.9951233333333","6500100","板橋區"
"220080","200-UY","2017/11/09 18:39:27","新北市板橋區華東街1-8號","121.447595","24.9950083333333","6500100","板橋區"
"220082","610-BX","2017/11/09 18:39:17","新北市板橋區四川路二段橋頭1號","121.446461666667","24.9941366666667","6500100","板橋區"
"220068","255-TC","2017/11/08 11:41:50","新北市板橋區民生路二段89-6號","121.470373333333","25.0194283333333","6500100","板橋區"
"220056","276-BY","2017/11/09 18:39:28","新北市板橋區華東街1號","121.448346666667","24.9940933333333","6500100","板橋區"
"220072","277-BY","2017/11/09 18:39:31","新北市板橋區四川路二段橋頭1巷1號","121.446933333333","24.9940416666667","6500100","板橋區"
"220071","283-VK","2017/11/09 18:39:26","新北市板橋區華東街1-9號","121.448023333333","24.99494","6500100","板橋區"
"220053","285-VK","2017/11/09 18:39:19","新北市板橋區民生路二段161巷1號","121.470168333333","25.02007","6500100","板橋區"
"220083","286-VK","2017/11/09 18:39:35","新北市板橋區華東街1-8號","121.447866666667","24.99479","6500100","板橋區"
"220081","287-VK","2017/11/09 18:39:16","新北市板橋區板城路421號","121.448071666667","24.9963516666667","6500100","板橋區"
"220061","295-UM","2017/11/09 18:39:32","新北市板橋區民生路二段161巷1號","121.470225","25.0199033333333","6500100","板橋區"
"220084","296-UM","2017/11/09 18:39:32","新北市板橋區板城路421號","121.447926666667","24.99646","6500100","板橋區"
"220075","297-UM","2017/11/09 18:39:34","新北市板橋區華東街11號","121.451408333333","24.9984533333333","6500100","板橋區"
"220062","303-R5","2017/11/09 18:39:32","新北市板橋區民生路二段120號","121.47048","25.0197116666667","6500100","板橋區"
"220064","486-VK","2017/11/09 18:39:27","新北市板橋區縣民大道二段82號","121.465456666667","25.014415","6500100","板橋區"
"220035","560-BX","2017/11/09 18:39:14","新北市板橋區南雅西路二段145巷10號","121.451576666667","25.0119433333333","6500100","板橋區"
"220063","609-BX","2017/11/09 18:39:34","新北市板橋區民生路二段171號","121.469611666667","25.02003","6500100","板橋區"
"220069","630-UY","2017/11/09 18:39:28","新北市板橋區華東街1-9號","121.448193333333","24.9947833333333","6500100","板橋區"
"220057","686-BX","2017/11/09 18:39:22","新北市板橋區華東街1-9號","121.448186666667","24.9948983333333","6500100","板橋區"
"220077","687-BX","2017/11/09 18:39:29","新北市板橋區四川路二段橋頭1巷1號","121.446863333333","24.9940583333333","6500100","板橋區"
"220054","741-BX","2017/11/09 18:39:27","新北市板橋區華東街1-9號","121.448103333333","24.9949366666667","6500100","板橋區"
"220055","827-TW","2017/11/09 18:39:28","新北市板橋區華東街1-9號","121.448175","24.9949366666667","6500100","板橋區"
"220067","829-TW","2017/11/09 16:28:14","新北市板橋區民生路二段161巷3號","121.470251666667","25.0197916666667","6500100","板橋區"
"220074","895-R6","2017/11/09 18:39:28","新北市板橋區南雅南路二段144巷24號","121.450453333333","24.9953816666667","6500100","板橋區"
"220073","985-R7","2017/11/09 18:39:28","新北市板橋區南雅南路二段140號","121.451998333333","24.99629","6500100","板橋區"
"220070","AAC-253","2017/11/09 18:39:20","新北市板橋區華東街1-9號","121.448235","24.9948733333333","6500100","板橋區"
