"lineid","car","time","location","longitude","latitude","cityid","cityname"
"234046","148-BY","2017/11/09 19:09:24","新北市永和區永元路18巷37號","121.524038333333","25.0002933333333","6500400","永和區"
"234013","149-BY","2017/11/09 19:09:20","新北市永和區中山路一段64號","121.512755","25.0106783333333","6500400","永和區"
"234007","207-UY","2017/11/09 19:09:31","新北市永和區永貞路420-2號","121.50877","25.0083533333333","6500400","永和區"
"234081","298-R6","2017/11/09 19:09:14","新北市永和區永貞路39巷9弄6號","121.522186666667","25.0068516666667","6500400","永和區"
"234038","336-UY","2017/11/09 19:09:29","新北市永和區民樂街92巷2號","121.527301666667","24.9973066666667","6500400","永和區"
"234064","337-UY","2017/11/09 19:09:33","新北市永和區秀朗路二段25號","121.521135","25.002545","6500400","永和區"
"234070","552-UM","2017/11/09 19:09:30","新北市永和區豫溪街137巷1弄17號","121.51882","25.0104016666667","6500400","永和區"
"234054","553-UM","2017/11/09 19:09:27","新北市永和區中興街145號","121.519003333333","25.01238","6500400","永和區"
"234017","745-BX","2017/11/09 19:09:23","新北市永和區文化路90巷3弄2號","121.513883333333","25.01568","6500400","永和區"
"234030","746-BX","2017/11/09 19:09:26","新北市永和區民生路29號","121.523005","24.9983766666667","6500400","永和區"
"234061","AAD-866","2017/11/09 19:09:21","新北市永和區安樂路304巷7號","121.514566666667","25.0051533333333","6500400","永和區"
"234086","847-RS","2017/11/09 19:09:23","新北市永和區永貞路120號","121.518661666667","25.0045016666667","6500400","永和區"
"234042","862-TW","2017/11/09 19:09:31","新北市永和區保平路111巷2弄12號","121.510573333333","25.0061183333333","6500400","永和區"
"234050","863-TW","2017/11/09 19:09:16","新北市永和區文化路135巷9號","121.510666666667","25.0144183333333","6500400","永和區"
"234026","9381-KE","2017/11/09 19:09:32","新北市永和區安樂路198巷4弄2號","121.515603333333","25.00195","6500400","永和區"
"234011","9373-KE","2017/11/09 19:09:29","新北市永和區保福路二段44巷2弄10號","121.51161","25.0118233333333","6500400","永和區"
"249005","172-UM","2017/11/09 19:09:16","新北市八里區中華路三段145巷5號","121.392078333333","25.133975","6502300","八里區"
"249001","173-UM","2017/11/09 19:09:25","新北市八里區龍米路一段263-2號","121.449723333333","25.1371916666667","6502300","八里區"
"248016","026-BX","2017/11/09 19:09:23","新北市五股區成泰路三段543巷36弄6號","121.450773333333","25.1028016666667","6501500","五股區"
"248020","225-UY","2017/11/09 18:58:28","新北市五股區凌雲路三段57號","121.425285","25.1250316666667","6501500","五股區"
"248012","247-BX","2017/11/09 19:09:21","新北市五股區中興路四段48巷16號","121.438625","25.083465","6501500","五股區"
"248010","272-BY","2017/11/09 19:09:30","新北市五股區水碓一路23號","121.430533333333","25.07132","6501500","五股區"
"248004","677-BX","2017/11/09 19:09:29","新北市五股區六合街5號","121.431686666667","25.0885016666667","6501500","五股區"
"248002","678-BX","2017/11/09 19:09:31","新北市五股區天乙路3-1號","121.448223333333","25.1028316666667","6501500","五股區"
"234023","9380-KE","2017/11/09 19:09:29","新北市永和區中興街10巷19號","121.51585","25.0111833333333","6500400","永和區"
"234077","969-R7","2017/11/09 19:09:29","新北市永和區民族街46號","121.518463333333","24.9986183333333","6500400","永和區"
"234074","AAC-211","2017/11/09 19:09:21","新北市永和區竹林路211號","121.520663333333","25.008805","6500400","永和區"
"234067","AAC-212","2017/11/09 19:09:17","新北市永和區保平路39號","121.512078333333","25.0072216666667","6500400","永和區"
"234003","AAC-295","2017/11/09 19:09:30","新北市永和區保福路一段84號","121.512235","25.0101966666667","6500400","永和區"
"244013","069-UM","2017/11/09 19:09:21","新北市林口區麗園一街11巷1號","121.3771","25.0704066666667","6501700","林口區"
"244025","742-UY","2017/11/09 19:09:13","新北市林口區文化三路一段447巷41號","121.367396666667","25.0756533333333","6501700","林口區"
"244009","410-SL","2017/11/09 19:09:21","新北市林口區台電新村67號","121.388183333333","25.086565","6501700","林口區"
"244023","483-VK","2017/11/09 19:09:19","新北市林口區仁愛路二段377號","121.370285","25.0800416666667","6501700","林口區"
"244011","701-TV","2017/11/09 19:09:20","新北市林口區竹林路76號","121.387848333333","25.0785616666667","6501700","林口區"
"243012","AAD-798","2017/11/09 19:09:28","新北市泰山區辭修路36巷8弄5號","121.427911666667","25.0585766666667","6501600","泰山區"
"243009","297-R6","2017/11/09 19:09:20","新北市泰山區明志路一段117巷26號","121.434188333333","25.0635983333333","6501600","泰山區"
"243015","380-SR","2017/11/09 19:09:24","新北市泰山區明志路一段398號","121.430755","25.05716","6501600","泰山區"
"243014","421-VK","2017/11/09 19:09:16","新北市泰山區泰林路二段371號","121.42772","25.0641066666667","6501600","泰山區"
"243010","KEA-2215","2017/11/09 19:09:29","新北市泰山區明志路一段485號","121.430891666667","25.05539","6501600","泰山區"
"243011","KEA-2216","2017/11/09 19:09:22","新北市泰山區明志路二段372巷2號","121.425396666667","25.0449533333333","6501600","泰山區"
"243013","646-TV","2017/11/09 19:09:24","新北市泰山區漢口街7號","121.423495","25.0366233333333","6501600","泰山區"
"243016","680-BX","2017/11/09 19:09:32","新北市泰山區明志路二段364號","121.425701666667","25.045015","6501600","泰山區"
"222003","436-BY","2017/11/09 19:09:29","新北市深坑區深南路158號","121.626063333333","25.0145033333333","6501800","深坑區"
"222002","659-BX","2017/11/09 19:09:20","新北市深坑區北深路一段199號","121.630683333333","25.0091833333333","6501800","深坑區"
"231041","002-UM","2017/11/09 19:09:19","新北市新店區溪園路405號","121.524041666667","24.9782316666667","6500600","新店區"
"231059","046-UY","2017/11/09 19:09:35","新北市新店區安和路二段160號","121.519673333333","24.9735866666667","6500600","新店區"
"231061","047-UY","2017/11/09 19:09:29","新北市新店區安康路一段89號","121.529146666667","24.9615","6500600","新店區"
"231060","106-UY","2017/11/09 19:09:28","新北市新店區安康路二段125-1號","121.51238","24.9608916666667","6500600","新店區"
"231047","108-UY","2017/11/09 19:09:22","新北市新店區德正街48號","121.544486666667","24.9713333333333","6500600","新店區"
"231052","187-VK","2017/11/09 19:09:28","新北市新店區自強路60號","121.546216666667","24.9255366666667","6500600","新店區"
"231050","KEA-2219","2017/11/09 19:09:28","新北市新店區竹林路2巷29弄1號","121.550146666667","24.950445","6500600","新店區"
"231057","256-BX","2017/11/09 18:48:40","新北市新店區花園一路一段2號","121.553095","24.9324166666667","6500600","新店區"
"231046","278-BY","2017/11/09 19:09:23","新北市新店區新潭路一段61號","121.52627","24.942465","6500600","新店區"
"231058","3712-VJ","2017/11/09 19:09:26","新北市新店區光明街138巷13弄2號","121.54015","24.96138","6500600","新店區"
"231056","3713-VJ","2017/11/09 19:09:20","新北市新店區二十張路46巷37弄1號","121.536621666667","24.98208","6500600","新店區"
"231055","4716-K9","2017/11/09 19:09:22","新北市新店區安和路三段4巷3號","121.519116666667","24.9809966666667","6500600","新店區"
"231067","4772-VM","2017/11/09 19:09:16","新北市新店區安康路一段146號","121.52641","24.9628766666667","6500600","新店區"
"231065","512-UM","2017/11/09 19:09:25","新北市新店區安祥路143號","121.474485","24.955865","6500600","新店區"
"231054","513-UM","2017/11/09 19:09:30","新北市新店區新店路190號","121.537218333333","24.95618","6500600","新店區"
"231064","515-UM","2017/11/09 19:09:26","新北市新店區安忠路89號","121.511023333333","24.95687","6500600","新店區"
"231040","619-UM","2017/11/09 19:09:19","新北市新店區三民路98-3號","121.53399","24.9734233333333","6500600","新店區"
"231042","641-BX","2017/11/09 19:09:24","新北市新店區中興路一段113號","121.54139","24.96268","6500600","新店區"
"231063","645-TV","2017/11/09 19:09:29","新北市新店區車子路134號","121.505098333333","24.9488166666667","6500600","新店區"
"231049","719-UM","2017/11/09 19:09:32","新北市新店區二十張路25巷18弄9號","121.5393","24.9816116666667","6500600","新店區"
"231051","719-UY","2017/11/09 19:09:14","新北市新店區中正路382巷6號","121.535061666667","24.9773033333333","6500600","新店區"
"231062","720-UM","2017/11/09 19:09:21","新北市新店區安平路7-1號","121.524158333333","24.9646616666667","6500600","新店區"
"231044","897-TW","2017/11/09 19:09:29","新北市新店區中興路三段219-1號","121.543475","24.9824383333333","6500600","新店區"
"231045","898-TW","2017/11/09 19:09:20","新北市新店區北宜路一段119號","121.540196666667","24.9540983333333","6500600","新店區"
"231043","899-TW","2017/11/09 19:09:18","新北市新店區寶橋路132號","121.547328333333","24.9760433333333","6500600","新店區"
"231066","AKT-0513","2017/11/09 19:09:29","新北市新店區安康路三段359巷12弄2號","121.484565","24.9500983333333","6500600","新店區"
"241026","066-VK","2017/11/09 19:09:21","新北市三重區泉州街61巷1號","121.494655","25.0546116666667","6500200","三重區"
"241035","462-BY","2017/11/09 19:09:26","新北市三重區捷運路57號","121.483563333333","25.0556083333333","6500200","三重區"
"241029","942-UM","2017/11/09 19:09:22","新北市三重區重安街75巷7號","121.491571666667","25.05566","6500200","三重區"
"235066","003-UY","2017/11/09 19:09:20","新北市中和區廣福路32號","121.5047","25.0023183333333","6500300","中和區"
"235064","005-UY","2017/11/09 19:09:30","新北市中和區泰和街34號","121.499385","25.0002516666667","6500300","中和區"
"235063","006-UY","2017/11/09 19:09:26","新北市中和區中正路632號","121.485473333333","24.99604","6500300","中和區"
"235056","096-UM","2017/11/09 19:09:30","新北市中和區員山路564號","121.478728333333","25.01054","6500300","中和區"
"235039","097-UM","2017/11/09 19:09:31","新北市永和區民有街3-2號","121.515908333333","24.99725","6500300","中和區"
"235065","098-UM","2017/11/09 19:09:30","新北市中和區福祥路158號","121.49867","25.0077683333333","6500300","中和區"
"235040","150-BY","2017/11/09 19:09:21","新北市中和區宜安路66號","121.511425","24.9970316666667","6500300","中和區"
"235058","151-BY","2017/11/09 19:09:14","新北市中和區員山路114號","121.481088333333","24.9957516666667","6500300","中和區"
"235055","183-VK","2017/11/09 19:09:15","新北市中和區德光路12號","121.471355","25.0045866666667","6500300","中和區"
"235038","185-VK","2017/11/09 19:09:14","新北市中和區大仁街20巷25弄1號","121.518496666667","24.9935683333333","6500300","中和區"
"235049","186-VK","2017/11/09 19:09:22","新北市中和區明禮街13號","121.504928333333","24.99583","6500300","中和區"
"235067","255-BX","2017/11/09 19:09:35","新北市中和區新生街166巷11號","121.483043333333","25.000185","6500300","中和區"
"235044","293-VK","2017/11/09 19:09:18","新北市中和區中興街222-5號","121.500626666667","24.98959","6500300","中和區"
"235072","301-VK","2017/11/09 19:09:16","新北市中和區連城路80號","121.497213333333","25.0010366666667","6500300","中和區"
"235043","352-BY","2017/11/09 19:09:22","新北市中和區景平路116號","121.519543333333","24.99152","6500300","中和區"
"235068","377-QA","2017/11/09 19:09:30","新北市中和區板南路252號","121.496216666667","24.9954633333333","6500300","中和區"
"235061","378-QA","2017/11/09 19:09:31","新北市中和區中山路三段63巷13弄41號","121.476668333333","25.0035466666667","6500300","中和區"
"235071","269-TV","2017/11/09 19:09:34","新北市中和區連城路376號","121.481336666667","24.995195","6500300","中和區"
"235069","4980-A6","2017/11/09 19:09:19","新北市中和區中和路165巷21號","121.503111666667","25.0005116666667","6500300","中和區"
"235042","551-UM","2017/11/09 19:09:25","新北市中和區自立路16巷4號","121.521608333333","24.9936333333333","6500300","中和區"
"235070","558-UM","2017/11/09 19:09:16","新北市中和區安和路163號","121.506256666667","24.9975383333333","6500300","中和區"
"235045","565-BX","2017/11/09 19:09:29","新北市中和區景新街467巷33號","121.51477","24.9888183333333","6500300","中和區"
"235054","640-BX","2017/11/09 19:09:26","新北市中和區國光街52號","121.470773333333","25.0002733333333","6500300","中和區"
"235047","732-UM","2017/11/09 19:09:28","新北市中和區興南路一段56巷1弄2號","121.510721666667","24.990805","6500300","中和區"
"235046","733-UM","2017/11/09 19:09:29","新北市中和區忠孝街1巷72號","121.508258333333","24.984805","6500300","中和區"
"235062","800-TS","2017/11/09 19:09:26","新北市中和區中正路860號","121.484203333333","25.0054866666667","6500300","中和區"
"235057","801-TS","2017/11/09 19:09:26","新北市中和區民利街100巷6弄1號","121.477","24.998485","6500300","中和區"
"235041","802-TS","2017/11/09 19:09:23","新北市中和區景安路17號","121.507841666667","24.99895","6500300","中和區"
"235052","805-TS","2017/11/09 19:09:26","新北市中和區興南路二段142巷19弄58號","121.502303333333","24.983295","6500300","中和區"
"235048","896-TW","2017/11/09 19:09:29","新北市中和區忠孝街1巷2-1號","121.509113333333","24.9829983333333","6500300","中和區"
"235053","900-TW","2017/11/09 19:09:17","新北市中和區和平路240號","121.464363333333","24.9965733333333","6500300","中和區"
"235060","911-UM","2017/11/09 19:09:24","新北市中和區民治街7巷2號","121.475103333333","25.0046366666667","6500300","中和區"
"235037","157-BY","2017/11/09 19:09:24","新北市中和區忠孝街31巷33弄2號","121.509781666667","24.984595","6500300","中和區"
"235037","AAC-213","2017/11/09 19:09:15","新北市中和區秀朗路三段128巷29號","121.524745","24.9942616666667","6500300","中和區"
"235059","AAC-215","2017/11/09 19:09:24","新北市中和區圓通路294巷9號","121.488773333333","24.9899733333333","6500300","中和區"
"220065","072-UY","2017/11/09 19:09:19","新北市板橋區民族路219巷5號","121.469395","25.00785","6500100","板橋區"
"220086","073-UY","2017/11/09 19:09:30","新北市板橋區中正路250巷81號","121.4589","25.0199","6500100","板橋區"
"220106","075-UY","2017/11/09 19:09:27","新北市板橋區文化路二段294號","121.472053333333","25.029615","6500100","板橋區"
"226004","312-R5","2017/11/09 19:09:27","新北市平溪區南山里南山坪15號","121.768111666667","25.0336183333333","6502400","平溪區"
"228003","097-TW","2017/11/09 19:09:31","新北市貢寮區和美里和美街32-7號","121.91268","25.084805","6502600","貢寮區"
"228001","212-TW","2017/11/09 19:09:19","新北市貢寮區真理里新港街10號","121.925506666667","25.054375","6502600","貢寮區"
"228002","585-TW","2017/11/09 19:09:20","新北市貢寮區福隆里福隆街32-1號","121.945011666667","25.0173466666667","6502600","貢寮區"
"224010","AGQ-8101","2017/11/09 19:08:16","新北市瑞芳區基山街143號","121.84399","25.108205","6501200","瑞芳區"
"224006","676-BX","2017/11/09 19:09:18","新北市瑞芳區三爪子坑路106巷1-11號","121.807996666667","25.1048966666667","6501200","瑞芳區"
"224009","285-BY","2017/11/09 19:09:21","新北市瑞芳區洞頂路148號","121.859841666667","25.1177716666667","6501200","瑞芳區"
"224008","275-VK","2017/11/09 19:09:32","新北市瑞芳區瑞芳街112巷2號","121.801555","25.1108833333333","6501200","瑞芳區"
"224005","271-BY","2017/11/09 19:09:32","新北市瑞芳區三爪子坑路89-17號","121.812201666667","25.10735","6501200","瑞芳區"
"227010","642-TC","2017/11/09 19:09:16","新北市雙溪區牡丹里中正路38號","121.864756666667","25.038435","6502500","雙溪區"
"227004","400-TW","2017/11/09 19:09:29","新北市雙溪區平林里外平林9-3號","121.859291666667","25.0380266666667","6502500","雙溪區"
"253005","032-BX","2017/11/09 19:09:32","新北市石門區阿里荖35-2號","121.60646","25.2806816666667","6502200","石門區"
"253006","295-VK","2017/11/09 19:09:32","新北市石門區崁子腳58-9號","121.530763333333","25.2868266666667","6502200","石門區"
"222001","KEA-2212","2017/11/09 19:09:26","新北市深坑區北深路一段300號","121.624101666667","25.005785","6501800","深坑區"
"208002","742-BX","2017/11/09 19:09:32","新北市金山區中華路112巷13號","121.633955","25.22087","6502700","金山區"
"208003","665-BX","2017/11/09 19:09:15","新北市金山區中正路135號","121.632408333333","25.2215383333333","6502700","金山區"
"208001","761-BX","2017/11/09 19:09:20","新北市金山區福德街18號","121.639116666667","25.2216166666667","6502700","金山區"
"251009","008-UM","2017/11/09 19:09:20","新北市淡水區清水街196號","121.440405","25.17104","6501000","淡水區"
"251005","010-UM","2017/11/09 19:09:14","新北市淡水區中山路108巷3號","121.44207","25.1710066666667","6501000","淡水區"
"251007","179-VK","2017/11/09 19:09:26","新北市淡水區民生路117巷1號","121.464911666667","25.138755","6501000","淡水區"
"251014","182-VK","2017/11/09 19:09:27","新北市淡水區小中寮19-7號","121.484716666667","25.2296","6501000","淡水區"
"251010","413-VK","2017/11/09 19:09:22","新北市淡水區中正路一段156巷3號","121.421156666667","25.1804016666667","6501000","淡水區"
"251012","441-VK","2017/11/09 19:09:18","新北市淡水區下圭柔山91-3號","121.43113","25.2102616666667","6501000","淡水區"
"251016","442-VK","2017/11/09 19:09:27","新北市淡水區淡金路三段352號","121.449316666667","25.2089","6501000","淡水區"
"251001","559-UM","2017/11/09 19:09:28","新北市淡水區自強路201巷39號","121.462078333333","25.12684","6501000","淡水區"
"251006","561-UM","2017/11/09 19:09:20","新北市淡水區中山北路二段179號","121.444225","25.1848216666667","6501000","淡水區"
"251002","672-BX","2017/11/09 19:09:25","新北市淡水區中山路87巷1號","121.442531666667","25.1705233333333","6501000","淡水區"
"251003","766-UM","2017/11/09 19:09:19","新北市淡水區中山北路一段84號","121.442323333333","25.176105","6501000","淡水區"
"207003","550-UM","2017/11/09 19:09:32","新北市萬里區大鵬里萬里加投24-2號","121.649125","25.2073633333333","6502800","萬里區"
"207004","225-TW","2017/11/09 19:09:25","新北市萬里區萬里里瑪鋉下街52號","121.691613333333","25.1795133333333","6502800","萬里區"
"252002","178-VK","2017/11/09 19:09:32","新北市三芝區中正路一段56號","121.50354","25.2579383333333","6502100","三芝區"
"252003","249-BX","2017/11/09 19:09:34","新北市三芝區錫板里南勢崗6號","121.479558333333","25.2619916666667","6502100","三芝區"
"252001","292-VK","2017/11/09 19:09:24","新北市三芝區長勤街82號","121.500266666667","25.2550933333333","6502100","三芝區"
"237004","078-UY","2017/11/09 19:09:16","新北市三峽區有木205-1號","121.439055","24.8516116666667","6500900","三峽區"
"237007","153-BY","2017/11/09 19:09:27","新北市三峽區中正路二段39號","121.366798333333","24.91888","6500900","三峽區"
"237013","252-BX","2017/11/09 19:09:16","新北市三峽區光明路69巷25號","121.376675","24.92922","6500900","三峽區"
"237012","275-BY","2017/11/09 19:09:18","新北市三峽區三樹路222巷254弄49號","121.392616666667","24.944195","6500900","三峽區"
"237008","302-VK","2017/11/09 19:09:32","新北市三峽區大同路146號","121.373398333333","24.9267083333333","6500900","三峽區"
"237014","433-BY","2017/11/09 19:09:17","新北市三峽區中山路257巷39號","121.362045","24.9364283333333","6500900","三峽區"
"237006","5529-G3","2017/11/09 19:09:31","新北市三峽區介壽路三段1號","121.394895","24.9361366666667","6500900","三峽區"
"237011","572-TV","2017/11/09 18:06:37","新北市三峽區溪北街2號","121.39603","24.9362283333333","6500900","三峽區"
"237016","649-BX","2017/11/09 19:09:18","新北市三峽區安坑37-8號","121.453828333333","24.9317233333333","6500900","三峽區"
"237010","706-TV","2017/11/09 19:09:22","新北市三峽區國光街20號","121.37525","24.9373033333333","6500900","三峽區"
"237005","AKY-6261","2017/11/09 19:09:23","新北市三峽區中山路459巷163-3號","121.348631666667","24.9329333333333","6500900","三峽區"
"236071","105-UM","2017/11/09 19:09:17","新北市土城區裕生路84巷6號","121.446941666667","24.98555","6501300","土城區"
"236078","166-UM","2017/11/09 19:09:19","新北市土城區龍泉路10-1號","121.409568333333","24.94923","6501300","土城區"
"236026","269-VK","2017/11/09 19:09:32","新北市土城區中央路二段189巷6號","121.442448333333","24.9758016666667","6501300","土城區"
"236014","270-VK","2017/11/09 19:09:13","新北市土城區學府路一段77號","121.456905","24.98819","6501300","土城區"
"236037","271-VK","2017/11/09 19:09:32","新北市土城區清水路141巷1號","121.45832","24.981815","6501300","土城區"
"236021","401-BY","2017/11/09 19:09:26","新北市土城區延峰街36巷5號","121.469515","24.9844866666667","6501300","土城區"
"236051","752-BX","2017/11/09 19:09:12","新北市土城區明德路一段398-1號","121.453646666667","24.9790816666667","6501300","土城區"
"236058","912-UM","2017/11/09 19:09:18","新北市土城區金城路二段234號","121.456641666667","24.9829416666667","6501300","土城區"
"236053","AAC-216","2017/11/09 19:09:24","新北市土城區學府路一段157號","121.45332","24.9859383333333","6501300","土城區"
"242001","233-RS","2017/11/09 09:13:50","新北市新莊區環河路48-7號","121.436898333333","25.009815","6500500","新莊區"
"238015","755-BX","2017/11/09 19:09:15","新北市樹林區備內街158巷56號","121.408273333333","24.9899166666667","6500700","樹林區"
"238023","601-UM","2017/11/09 19:09:28","新北市樹林區大慶街88號","121.396065","25.0139433333333","6500700","樹林區"
"238019","599-UM","2017/11/09 19:09:18","新北市樹林區東華街73號","121.415578333333","24.980895","6500700","樹林區"
"238018","571-TV","2017/11/09 19:09:26","新北市樹林區太平路50號","121.419093333333","24.982535","6500700","樹林區"
"238024","5061-A6","2017/11/09 19:09:29","新北市樹林區中山路二段249巷11號","121.402455","24.9757533333333","6500700","樹林區"
"238021","KEA-2217","2017/11/09 19:09:31","新北市樹林區柑園街二段328巷6弄29號","121.373185","24.9527166666667","6500700","樹林區"
"238022","KEA-2213","2017/11/09 19:09:16","新北市樹林區中山路二段151巷12號","121.406875","24.9783033333333","6500700","樹林區"
"238025","303-VK","2017/11/09 19:09:34","新北市樹林區中山路三段136號","121.391775","24.972165","6500700","樹林區"
"238017","283-BY","2017/11/09 19:09:19","新北市樹林區光華街2號","121.413615","25.0037383333333","6500700","樹林區"
"238014","282-BY","2017/11/09 19:09:30","新北市樹林區千歲街134巷7號","121.427678333333","24.9985533333333","6500700","樹林區"
"238020","268-VK","2017/11/09 19:09:16","新北市樹林區俊英街79號","121.426065","25.0075966666667","6500700","樹林區"
"238026","172-UY","2017/11/09 19:09:26","新北市樹林區佳園路一段39-1號","121.39329","24.97081","6500700","樹林區"
"238016","169-UY","2017/11/09 19:09:24","新北市樹林區復興路373巷3弄1號","121.417246666667","24.98673","6500700","樹林區"
"239007","AAC-297","2017/11/09 19:08:24","新北市鶯歌區中山路138巷21號","121.352291666667","24.9605583333333","6500800","鶯歌區"
"239006","891-R6","2017/11/09 19:09:28","新北市鶯歌區鶯桃路296巷94弄33號","121.337798333333","24.9614083333333","6500800","鶯歌區"
"239008","527-UM","2017/11/09 19:09:27","新北市鶯歌區國際二路4巷14號","121.339085","24.9734383333333","6500800","鶯歌區"
"239005","526-UM","2017/11/09 19:09:25","新北市鶯歌區中湖街76號","121.348093333333","24.9728516666667","6500800","鶯歌區"
"239001","417-VK","2017/11/09 19:09:24","新北市鶯歌區永智街94號","121.33668","24.9536666666667","6500800","鶯歌區"
"239003","360-BY","2017/11/09 19:09:28","新北市鶯歌區德昌二街127號","121.332881666667","24.95585","6500800","鶯歌區"
"239004","193-VK","2017/11/09 19:09:26","新北市鶯歌區中正三路335巷16號","121.328543333333","24.9347733333333","6500800","鶯歌區"
"221008","489-VK","2017/11/09 19:09:27","新北市汐止區康寧街480號","121.632278333333","25.0684083333333","6501100","汐止區"
"221036","130-UY","2017/11/09 19:09:24","新北市汐止區南昌街47號","121.663276666667","25.06831","6501100","汐止區"
"221015","131-UY","2017/11/09 19:09:25","新北市汐止區汐萬路一段256巷1號","121.651793333333","25.0748783333333","6501100","汐止區"
"221010","269-BY","2017/11/09 19:09:30","新北市汐止區康寧街901號","121.651368333333","25.07505","6501100","汐止區"
"221012","276-VK","2017/11/09 13:26:11","新北市汐止區汐萬路一段256巷3號","121.653455","25.0746316666667","6501100","汐止區"
"221012","278-VK","2017/11/09 19:09:25","新北市汐止區康寧街901號","121.650801666667","25.0752583333333","6501100","汐止區"
"221023","279-VK","2017/11/09 19:09:24","新北市汐止區康寧街901號","121.650998333333","25.0752333333333","6501100","汐止區"
"221027","281-BY","2017/11/09 19:09:19","新北市汐止區康寧街901號","121.65139","25.074995","6501100","汐止區"
"221029","298-VK","2017/11/09 19:09:16","新北市汐止區汐萬路一段256巷3號","121.652493333333","25.074575","6501100","汐止區"
"221021","299-VK","2017/11/09 19:09:23","新北市汐止區康寧街901號","121.65141","25.0749666666667","6501100","汐止區"
"221031","353-TW","2017/11/09 19:09:33","新北市汐止區福德三路143號","121.632221666667","25.06723","6501100","汐止區"
"221002","358-BY","2017/11/09 19:09:27","新北市汐止區大同路一段89-1號","121.624155","25.0546883333333","6501100","汐止區"
"221025","623-UM","2017/11/09 19:09:29","新北市汐止區康寧街901號","121.651608333333","25.0749666666667","6501100","汐止區"
"221033","647-BX","2017/11/09 19:09:14","新北市汐止區南勢街1巷1號","121.627051666667","25.0373983333333","6501100","汐止區"
"221018","753-BX","2017/11/09 19:09:22","新北市汐止區汐萬路一段256巷3號","121.653316666667","25.07464","6501100","汐止區"
"220079","145-BY","2017/11/09 19:09:28","新北市板橋區民權路260巷66-2號","121.46041","25.0149416666667","6500100","板橋區"
"220080","200-UY","2017/11/09 19:09:27","新北市板橋區大觀路二段7巷96號","121.45003","25.0029633333333","6500100","板橋區"
"220082","610-BX","2017/11/09 19:09:23","新北市板橋區溪北路18號","121.426705","24.99043","6500100","板橋區"
"220068","255-TC","2017/11/09 19:09:19","新北市板橋區三民路一段31巷1號","121.47932","25.0231116666667","6500100","板橋區"
"220056","276-BY","2017/11/09 19:09:28","新北市板橋區信義路74巷1弄1號","121.457283333333","24.9932116666667","6500100","板橋區"
"220072","277-BY","2017/11/09 19:09:31","新北市板橋區金門街369巷57弄18號","121.429495","24.98405","6500100","板橋區"
"220101","280-UM","2017/11/09 19:09:23","新北市板橋區萬板路31-1號","121.47094","25.0212016666667","6500100","板橋區"
"220071","283-VK","2017/11/09 19:09:26","新北市板橋區重慶路353巷7號","121.464856666667","24.9981766666667","6500100","板橋區"
"220094","285-UM","2017/11/09 19:09:31","新北市板橋區光武街125巷1號","121.466196666667","25.02835","6500100","板橋區"
"220053","285-VK","2017/11/09 19:09:19","新北市板橋區懷仁街35巷2弄1號","121.476885","25.0196833333333","6500100","板橋區"
"220083","286-VK","2017/11/09 19:09:15","新北市板橋區龍興街99巷27-1號","121.443421666667","25.0033566666667","6500100","板橋區"
"220081","287-VK","2017/11/09 19:09:16","新北市板橋區南雅西路二段156巷55號","121.45252","25.01266","6500100","板橋區"
"220090","288-VK","2017/11/09 19:09:31","新北市板橋區裕民街54號","121.46149","25.0286866666667","6500100","板橋區"
"220061","295-UM","2017/11/09 19:09:32","新北市板橋區懷仁街85巷8號","121.477795","25.0186333333333","6500100","板橋區"
"220084","296-UM","2017/11/09 19:09:32","新北市板橋區篤行路二段92-3號","121.431496666667","24.9914566666667","6500100","板橋區"
"220075","297-UM","2017/11/09 19:09:14","新北市板橋區南雅南路一段60-1號","121.455465","25.0054","6500100","板橋區"
"220092","299-UM","2017/11/09 19:09:34","新北市板橋區文化路二段225巷60弄35號","121.469068333333","25.0292583333333","6500100","板橋區"
"220062","303-R5","2017/11/09 19:09:32","新北市板橋區三民路二段245巷55號","121.480723333333","25.012605","6500100","板橋區"
"220098","317-R6","2017/11/09 19:09:12","新北市板橋區自由路51巷14弄10號","121.464666666667","25.023755","6500100","板橋區"
"220064","486-VK","2017/11/09 19:09:27","新北市板橋區板新路3號","121.475515","25.0124616666667","6500100","板橋區"
"220089","487-VK","2017/11/09 19:09:26","新北市板橋區文化路二段421號","121.474693333333","25.0328183333333","6500100","板橋區"
"220088","491-VK","2017/11/09 19:09:26","新北市板橋區文化路二段182巷1弄8號","121.471345","25.02761","6500100","板橋區"
"220035","560-BX","2017/11/09 19:09:14","新北市板橋區中正路379巷30號","121.453348333333","25.02202","6500100","板橋區"
"220103","561-BX","2017/11/09 19:09:20","新北市板橋區介壽街84巷25號","121.469575","25.0180683333333","6500100","板橋區"
"220063","609-BX","2017/11/09 19:09:14","新北市板橋區三民路二段150號","121.479078333333","25.0150466666667","6500100","板橋區"
"220069","630-UY","2017/11/09 19:09:28","新北市板橋區華興街38號","121.45865","25.0046966666667","6500100","板橋區"
"220091","637-BX","2017/11/09 19:09:25","新北市板橋區萬板路516號","121.480611666667","25.0263283333333","6500100","板橋區"
"220057","686-BX","2017/11/09 19:09:22","新北市板橋區重慶路141號","121.462246666667","25.00454","6500100","板橋區"
"220077","687-BX","2017/11/09 19:09:29","新北市板橋區大觀路二段121號","121.445963333333","25.00141","6500100","板橋區"
"220093","689-BX","2017/11/09 19:09:19","新北市板橋區民生路三段257號","121.464498333333","25.02936","6500100","板橋區"
"220054","741-BX","2017/11/09 19:09:27","新北市板橋區重慶路93巷17號","121.462745","25.0058416666667","6500100","板橋區"
"220055","827-TW","2017/11/09 19:09:28","新北市板橋區新民街7巷14號","121.463666666667","25.0104183333333","6500100","板橋區"
"220067","829-TW","2017/11/09 19:09:17","新北市板橋區中山路二段90巷43弄16號","121.476871666667","25.0151416666667","6500100","板橋區"
"220102","830-TW","2017/11/09 19:09:16","新北市板橋區田單街51號","121.482645","25.0279216666667","6500100","板橋區"
"220096","831-TW","2017/11/09 19:09:13","新北市板橋區雙十路二段33巷8號","121.47644","25.0256283333333","6500100","板橋區"
"220074","895-R6","2017/11/09 19:09:28","新北市板橋區中正路43號","121.456256666667","25.01333","6500100","板橋區"
"220073","985-R7","2017/11/09 19:09:27","新北市板橋區中正路268號","121.455266666667","25.0196683333333","6500100","板橋區"
"220097","AAC-210","2017/11/09 19:09:14","新北市板橋區新海路135巷2號","121.459931666667","25.02294","6500100","板橋區"
"220070","AAC-253","2017/11/09 19:09:31","新北市板橋區忠孝路56號","121.460958333333","25.0018633333333","6500100","板橋區"
