"lineid","car","time","location","longitude","latitude","cityid","cityname"
"234046","148-BY","2017/11/09 19:49:32","新北市永和區永利路326號","121.52508","25.0033433333333","6500400","永和區"
"234013","149-BY","2017/11/09 19:49:20","新北市永和區仁愛路188號","121.509823333333","25.0125","6500400","永和區"
"234007","207-UY","2017/11/09 19:49:31","新北市中和區南工路8號","121.505443333333","25.000325","6500400","永和區"
"234081","298-R6","2017/11/09 19:49:14","新北市永和區國中路1號","121.523828333333","25.0044433333333","6500400","永和區"
"234038","336-UY","2017/11/09 19:49:29","新北市永和區民樂街55巷14號","121.528076666667","24.9985683333333","6500400","永和區"
"234064","337-UY","2017/11/09 19:49:33","新北市永和區中正路368巷22號","121.518548333333","25.00073","6500400","永和區"
"234070","552-UM","2017/11/09 19:49:30","新北市永和區竹林路101號","121.51977","25.0120133333333","6500400","永和區"
"234054","553-UM","2017/11/09 19:49:31","新北市永和區竹林路75巷25弄6號","121.520285","25.0143616666667","6500400","永和區"
"234017","745-BX","2017/11/09 19:49:23","新北市永和區永和路二段405巷3號","121.51522","25.0172016666667","6500400","永和區"
"234030","746-BX","2017/11/09 19:49:26","新北市永和區民生路67巷46號","121.525135","24.997445","6500400","永和區"
"234061","AAD-866","2017/11/09 19:49:22","新北市永和區中正路59號","121.514685","24.9963133333333","6500400","永和區"
"234086","847-RS","2017/11/09 19:49:35","新北市永和區永亨路13號","121.51955","25.005875","6500400","永和區"
"234042","862-TW","2017/11/09 19:49:27","新北市永和區中和路389巷49號","121.508091666667","25.0020366666667","6500400","永和區"
"234050","863-TW","2017/11/09 19:49:16","新北市永和區保安路77號","121.508655","25.0148616666667","6500400","永和區"
"234026","9381-KE","2017/11/09 19:49:32","新北市永和區水源街33巷5號","121.510843333333","25.0042216666667","6500400","永和區"
"234011","9373-KE","2017/11/09 19:49:29","新北市中和區中山路二段2巷57號","121.501873333333","25.0075266666667","6500400","永和區"
"249004","303-UY","2017/11/09 19:47:47","新北市八里區仁愛路37號","121.413396666667","25.16063","6502300","八里區"
"249002","305-UY","2017/11/09 19:49:30","新北市八里區頂寮五街20號","121.451328333333","25.126225","6502300","八里區"
"249003","593-UM","2017/11/09 19:49:17","新北市八里區中山路二段401號","121.398046666667","25.1466016666667","6502300","八里區"
"248016","026-BX","2017/11/09 19:49:23","新北市五股區成泰路四段24-5號","121.453656666667","25.1069216666667","6501500","五股區"
"248008","095-VK","2017/11/09 19:49:28","新北市五股區四維路169號","121.467613333333","25.0751366666667","6501500","五股區"
"248020","225-UY","2017/11/09 19:49:22","新北市五股區中直路33號","121.42012","25.1138083333333","6501500","五股區"
"248012","247-BX","2017/11/09 19:49:21","新北市五股區蓬萊路4號","121.435651666667","25.0795883333333","6501500","五股區"
"248014","261-SL","2017/11/09 19:49:23","新北市五股區五福路42巷27號","121.43488","25.0901333333333","6501500","五股區"
"248010","272-BY","2017/11/09 19:49:30","新北市五股區自強路137號","121.432191666667","25.0697","6501500","五股區"
"248004","677-BX","2017/11/09 19:49:30","新北市五股區成泰路一段231-13號","121.435465","25.077775","6501500","五股區"
"248002","678-BX","2017/11/09 19:49:31","新北市五股區成泰路四段14號","121.453426666667","25.1068633333333","6501500","五股區"
"234077","969-R7","2017/11/09 19:49:23","新北市永和區智光街48號","121.516993333333","24.9979566666667","6500400","永和區"
"234074","AAC-211","2017/11/09 19:49:24","新北市永和區竹林路179巷4號","121.520908333333","25.009835","6500400","永和區"
"234067","AAC-212","2017/11/09 19:49:17","新北市永和區永貞路404號","121.509075","25.00768","6500400","永和區"
"234003","AAC-295","2017/11/09 19:49:30","新北市永和區福和路343號","121.515513333333","25.0072","6500400","永和區"
"243012","AAD-798","2017/11/09 19:49:28","新北市泰山區全興路20號","121.43227","25.0589366666667","6501600","泰山區"
"243009","297-R6","2017/11/09 19:49:20","新北市泰山區美寧街76號","121.431546666667","25.0646766666667","6501600","泰山區"
"243015","380-SR","2017/11/09 19:49:24","新北市泰山區明志路二段235號","121.427358333333","25.04826","6501600","泰山區"
"243014","421-VK","2017/11/09 19:49:16","新北市泰山區泰林路二段33-8號","121.43517","25.0565383333333","6501600","泰山區"
"243010","KEA-2215","2017/11/09 19:49:19","新北市泰山區民生路33號","121.430503333333","25.0521733333333","6501600","泰山區"
"243011","KEA-2216","2017/11/09 19:49:21","新北市泰山區明志路三段204巷10弄16號","121.423096666667","25.038665","6501600","泰山區"
"243013","646-TV","2017/11/09 19:49:24","新北市泰山區應化街13號","121.42382","25.04371","6501600","泰山區"
"243016","680-BX","2017/11/09 19:49:28","新北市泰山區中山路三段79號","121.418098333333","25.0321383333333","6501600","泰山區"
"222003","436-BY","2017/11/09 19:31:29","新北市深坑區深南路51-1號","121.62114","25.0100466666667","6501800","深坑區"
"222002","659-BX","2017/11/09 19:49:20","新北市深坑區北深路二段43巷16號","121.619536666667","25.003615","6501800","深坑區"
"231041","002-UM","2017/11/09 19:49:19","新北市新店區中央路155號","121.529593333333","24.97264","6500600","新店區"
"231059","046-UY","2017/11/09 19:49:15","新北市新店區吉安街2號","121.517335","24.96568","6500600","新店區"
"231061","047-UY","2017/11/09 19:49:29","新北市新店區安民街259號","121.517356666667","24.972665","6500600","新店區"
"231060","106-UY","2017/11/09 19:49:28","新北市新店區安康路二段199號","121.509093333333","24.958995","6500600","新店區"
"231047","108-UY","2017/11/09 19:49:22","新北市新店區中興路二段100巷1號","121.547641666667","24.9715566666667","6500600","新店區"
"231052","187-VK","2017/11/09 19:49:28","新北市新店區新烏路三段108號","121.553048333333","24.9035383333333","6500600","新店區"
"231050","KEA-2219","2017/11/09 19:46:28","新北市新店區北宜路二段579巷10號","121.565066666667","24.9543416666667","6500600","新店區"
"231057","256-BX","2017/11/09 19:49:15","新北市新店區花園二路三段19號","121.556415","24.9313716666667","6500600","新店區"
"231046","278-BY","2017/11/09 19:49:23","新北市新店區三民路159巷19弄46號","121.53218","24.9732566666667","6500600","新店區"
"231055","4716-K9","2017/11/09 19:49:22","新北市新店區新生街2號","121.540321666667","24.9659516666667","6500600","新店區"
"231067","4772-VM","2017/11/09 19:49:16","新北市新店區精忠路10-1號","121.532658333333","24.9590666666667","6500600","新店區"
"231065","512-UM","2017/11/09 19:49:25","新北市新店區安祥路109巷100號","121.477868333333","24.95918","6500600","新店區"
"231054","513-UM","2017/11/09 19:49:30","新北市新店區光明街138巷1號","121.539456666667","24.9612816666667","6500600","新店區"
"231064","515-UM","2017/11/09 19:49:26","新北市新店區安和路二段77號","121.518406666667","24.9687783333333","6500600","新店區"
"231040","619-UM","2017/11/09 19:49:19","新北市新店區北新路一段96巷23號","121.543016666667","24.9688366666667","6500600","新店區"
"231042","641-BX","2017/11/09 19:49:24","新北市新店區中興路一段270號","121.545268333333","24.9679566666667","6500600","新店區"
"231063","645-TV","2017/11/09 19:49:29","新北市新店區黎明路3號","121.503641666667","24.9524866666667","6500600","新店區"
"231068","718-UY","2017/11/09 19:49:33","新北市新店區安華路28-1號","121.51951","24.9609716666667","6500600","新店區"
"231049","719-UM","2017/11/09 19:49:12","新北市新店區民權路125號","121.535565","24.9827916666667","6500600","新店區"
"231051","719-UY","2017/11/09 19:49:14","新北市新店區中央三街71號","121.526528333333","24.97527","6500600","新店區"
"231062","720-UM","2017/11/09 19:49:21","新北市新店區永業路113號","121.528595","24.9482133333333","6500600","新店區"
"231044","897-TW","2017/11/09 19:49:33","新北市新店區復興路76號","121.537661666667","24.9869716666667","6500600","新店區"
"231045","898-TW","2017/11/09 19:49:20","新北市新店區北宜路二段382號","121.564506666667","24.9529466666667","6500600","新店區"
"231043","899-TW","2017/11/09 19:49:18","新北市新店區中正路237號","121.539331666667","24.973155","6500600","新店區"
"231066","AKT-0513","2017/11/09 19:49:29","新北市新店區薏仁坑路自強巷6號","121.49637","24.9584633333333","6500600","新店區"
"241011","013-R5","2017/11/09 19:49:24","新北市三重區三和路三段1號","121.498205","25.0700783333333","6500200","三重區"
"241028","022-UY","2017/11/09 19:49:15","新北市三重區中正南路196號","121.493928333333","25.056","6500200","三重區"
"241008","059-VK","2017/11/09 19:49:25","新北市三重區永福街155號","121.478728333333","25.076025","6500200","三重區"
"241009","060-VK","2017/11/09 19:49:16","新北市三重區三和路四段398號","121.48147","25.0791766666667","6500200","三重區"
"241031","061-VK","2017/11/09 19:49:21","新北市三重區重新路四段240號","121.48607","25.0537266666667","6500200","三重區"
"241015","062-VK","2017/11/09 19:49:26","新北市三重區三和路一段2號","121.503835","25.0642816666667","6500200","三重區"
"241017","063-VK","2017/11/09 19:49:33","新北市三重區重陽路三段7-3號","121.48917","25.06663","6500200","三重區"
"241024","065-VK","2017/11/09 19:49:14","新北市三重區大勇街82巷11號","121.479506666667","25.0716166666667","6500200","三重區"
"241026","066-VK","2017/11/09 19:49:21","新北市三重區文化南路42號","121.500408333333","25.0602233333333","6500200","三重區"
"241001","156-TC","2017/11/09 19:49:29","新北市三重區仁愛街327巷45-1號","121.493363333333","25.0801816666667","6500200","三重區"
"241005","262-UM","2017/11/09 19:49:21","新北市三重區溪尾街262-1號","121.487413333333","25.0831883333333","6500200","三重區"
"241030","265-UM","2017/11/09 19:49:18","新北市三重區環河南路240號","121.491728333333","25.0511583333333","6500200","三重區"
"241016","266-UM","2017/11/09 19:49:14","新北市三重區正德街43號","121.495765","25.0627183333333","6500200","三重區"
"241022","267-UM","2017/11/09 19:49:16","新北市三重區新北大道一段7號","121.489951666667","25.0609816666667","6500200","三重區"
"241018","268-UM","2017/11/09 19:49:20","新北市三重區雙園街110-1號","121.49482","25.06753","6500200","三重區"
"241032","269-UM","2017/11/09 19:49:19","新北市三重區重陽路一段44巷10號","121.486006666667","25.05776","6500200","三重區"
"241013","270-UM","2017/11/09 19:49:25","新北市三重區仁福街64巷30號","121.497568333333","25.0755733333333","6500200","三重區"
"241025","271-UM","2017/11/09 19:49:31","新北市三重區大有街1-1號","121.47768","25.06523","6500200","三重區"
"241007","398-BY","2017/11/09 19:49:21","新北市三重區三和路四段141號","121.48432","25.07808","6500200","三重區"
"241020","413-TH","2017/11/09 19:49:18","新北市三重區自強路三段103號","121.487908333333","25.075525","6500200","三重區"
"241035","462-BY","2017/11/09 19:49:26","新北市三重區文化北路25號","121.499558333333","25.0637","6500200","三重區"
"241004","475-VK","2017/11/09 19:49:15","新北市三重區五華街74號","121.493398333333","25.082005","6500200","三重區"
"241019","478-VK","2017/11/09 19:49:25","新北市三重區自強路二段74巷25號","121.487755","25.0696433333333","6500200","三重區"
"241014","543-UM","2017/11/09 19:49:32","新北市三重區三和路二段37-8號","121.501386666667","25.067545","6500200","三重區"
"241023","545-UM","2017/11/09 19:49:30","新北市三重區大有街1-1號","121.477663333333","25.06559","6500200","三重區"
"241006","AAD-863","2017/11/09 19:49:17","新北市三重區永福街287號","121.483075","25.074485","6500200","三重區"
"241003","887-TS","2017/11/09 19:49:32","新北市三重區五華街93巷51號","121.493046666667","25.0843666666667","6500200","三重區"
"241012","941-UM","2017/11/09 19:49:28","新北市三重區仁福街72號","121.498201666667","25.075075","6500200","三重區"
"241029","942-UM","2017/11/09 19:49:20","新北市三重區光明路15號","121.491081666667","25.058675","6500200","三重區"
"241033","AAC-255","2017/11/09 19:49:19","新北市三重區中興南街64號","121.47062","25.0440983333333","6500200","三重區"
"235066","003-UY","2017/11/09 19:49:20","新北市中和區光華街22號","121.504491666667","25.00425","6500300","中和區"
"235064","005-UY","2017/11/09 19:49:28","新北市中和區圓通路25號","121.501211666667","24.99785","6500300","中和區"
"235063","006-UY","2017/11/09 19:49:26","新北市中和區連城路263巷20號","121.492615","24.9947466666667","6500300","中和區"
"235056","096-UM","2017/11/09 19:49:30","新北市中和區中山路三段136巷10弄12號","121.47429","25.0072133333333","6500300","中和區"
"235039","097-UM","2017/11/09 19:49:32","新北市中和區大勇街8號","121.517088333333","24.9926833333333","6500300","中和區"
"235065","098-UM","2017/11/09 19:49:30","新北市中和區莊敬路22號","121.500053333333","25.00449","6500300","中和區"
"235040","150-BY","2017/11/09 19:49:21","新北市中和區安平路59號","121.5094","24.9951666666667","6500300","中和區"
"235058","151-BY","2017/11/09 19:49:34","新北市中和區員山路142巷17號","121.482165","24.9965833333333","6500300","中和區"
"235055","183-VK","2017/11/09 19:49:15","新北市中和區中山路三段181巷18弄41號","121.472475","25.005115","6500300","中和區"
"235038","185-VK","2017/11/09 19:49:14","新北市中和區自立路141巷3號","121.522423333333","24.9935466666667","6500300","中和區"
"235049","186-VK","2017/11/09 19:49:22","新北市中和區中正路70巷3號","121.500893333333","24.9938366666667","6500300","中和區"
"235067","255-BX","2017/11/09 19:49:15","新北市中和區新生街243號","121.483868333333","24.99885","6500300","中和區"
"235044","293-VK","2017/11/09 19:49:18","新北市中和區南山路130號","121.503603333333","24.9928","6500300","中和區"
"235072","301-VK","2017/11/09 19:49:16","新北市中和區中正路752號","121.485318333333","24.9986833333333","6500300","中和區"
"235043","352-BY","2017/11/09 19:49:22","新北市中和區華新街232巷10號","121.505743333333","24.9822283333333","6500300","中和區"
"235068","377-QA","2017/11/09 19:49:30","新北市中和區永和路8巷23弄1號","121.500876666667","25.0037316666667","6500300","中和區"
"235061","378-QA","2017/11/09 19:49:30","新北市中和區員山路198號","121.48129","25.0005416666667","6500300","中和區"
"235071","269-TV","2017/11/09 19:49:34","新北市中和區永和路333巷4號","121.485165","25.010575","6500300","中和區"
"235042","551-UM","2017/11/09 19:49:25","新北市中和區景安路79巷37弄20號","121.507866666667","24.9962483333333","6500300","中和區"
"235070","558-UM","2017/11/09 19:49:16","新北市中和區景平路634-9號","121.498681666667","24.9996383333333","6500300","中和區"
"235045","565-BX","2017/11/09 19:49:24","新北市中和區安樂路1號","121.51167","24.9918566666667","6500300","中和區"
"235054","640-BX","2017/11/09 19:49:23","新北市中和區莒光路93號","121.472373333333","25.0031366666667","6500300","中和區"
"235047","732-UM","2017/11/09 19:49:28","新北市中和區和平街19-2號","121.508378333333","24.9907266666667","6500300","中和區"
"235046","733-UM","2017/11/09 19:49:29","新北市中和區仁愛街47號","121.511103333333","24.9882466666667","6500300","中和區"
"235062","800-TS","2017/11/09 19:49:26","新北市中和區中正路585號","121.485845","24.9945283333333","6500300","中和區"
"235057","801-TS","2017/11/09 19:49:26","新北市中和區員山路150-3號","121.481333333333","24.99737","6500300","中和區"
"235041","802-TS","2017/11/09 19:49:23","新北市中和區中安街64號","121.512475","25.00233","6500300","中和區"
"235052","805-TS","2017/11/09 19:49:26","新北市中和區華新街34號","121.507843333333","24.9844033333333","6500300","中和區"
"235048","896-TW","2017/11/09 19:49:29","新北市中和區興南路二段19號","121.507976666667","24.9860283333333","6500300","中和區"
"235053","900-TW","2017/11/09 19:49:17","新北市中和區國光街215巷24弄1號","121.466935","25.00046","6500300","中和區"
"235060","911-UM","2017/11/09 19:49:24","新北市中和區中山路二段523巷2號","121.481666666667","25.004945","6500300","中和區"
"235037","157-BY","2017/11/09 19:49:24","新北市中和區中興街127號","121.499938333333","24.991715","6500300","中和區"
"235037","AAC-213","2017/11/09 19:49:15","新北市中和區秀朗路三段128巷1弄1號","121.524705","24.9922533333333","6500300","中和區"
"235059","AAC-215","2017/11/09 19:49:24","新北市中和區圓通路305巷12號","121.494218333333","24.9895383333333","6500300","中和區"
"220065","072-UY","2017/11/09 19:49:23","新北市板橋區民族路278號","121.470003333333","25.0067866666667","6500100","板橋區"
"220086","073-UY","2017/11/09 19:49:30","新北市板橋區南雅西路二段2-1號","121.45321","25.0087983333333","6500100","板橋區"
"220106","075-UY","2017/11/09 19:49:32","新北市板橋區文化路二段606號","121.477181666667","25.0350666666667","6500100","板橋區"
"247002","337-TH","2017/11/09 19:49:15","新北市蘆洲區永樂街38巷40號","121.458583333333","25.0899633333333","6501400","蘆洲區"
"247004","336-TH","2017/11/09 19:49:25","新北市蘆洲區中原路60號","121.458871666667","25.082185","6501400","蘆洲區"
"247006","056-VK","2017/11/09 19:49:24","新北市蘆洲區永安南路二段42號","121.466698333333","25.0772566666667","6501400","蘆洲區"
"247008","053-VK","2017/11/09 19:49:30","新北市蘆洲區中山一路25號","121.47929","25.0807816666667","6501400","蘆洲區"
"247014","007-UY","2017/11/09 19:49:17","新北市蘆洲區復興路30號","121.472175","25.0852283333333","6501400","蘆洲區"
"226004","312-R5","2017/11/09 19:49:26","新北市平溪區南山里南山坪20號","121.772083333333","25.0370583333333","6502400","平溪區"
"228003","097-TW","2017/11/09 19:49:11","新北市貢寮區真理里美艷山街3-1號","121.92569","25.0595983333333","6502600","貢寮區"
"228001","212-TW","2017/11/09 19:49:19","新北市貢寮區真理里新港街117號","121.926991666667","25.0563233333333","6502600","貢寮區"
"224002","639-TC","2017/11/09 19:49:30","新北市瑞芳區員山子路員山巷3-3號","121.817215","25.1037416666667","6501200","瑞芳區"
"227010","642-TC","2017/11/09 19:49:16","新北市雙溪區新基里中華路97號","121.865843333333","25.0387416666667","6502500","雙溪區"
"227004","400-TW","2017/11/09 19:49:29","新北市雙溪區雙溪里內挖路36號","121.863206666667","25.0367416666667","6502500","雙溪區"
"222001","KEA-2212","2017/11/09 19:49:26","新北市深坑區北深路三段70號","121.607815","25.001435","6501800","深坑區"
"208002","742-BX","2017/11/09 19:49:32","新北市金山區中華路360號","121.63315","25.2243283333333","6502700","金山區"
"208003","665-BX","2017/11/09 19:49:14","新北市金山區清泉里清水路36號","121.629918333333","25.23086","6502700","金山區"
"208001","761-BX","2017/11/09 19:49:20","新北市金山區重和里茅埔頭5-1號","121.6041","25.2169466666667","6502700","金山區"
"251009","008-UM","2017/11/09 19:49:20","新北市淡水區中正路38-1號","121.443741666667","25.1692683333333","6501000","淡水區"
"251004","009-UM","2017/11/09 19:49:25","新北市淡水區民權路177巷49號","121.46062","25.133995","6501000","淡水區"
"251005","010-UM","2017/11/09 19:49:34","新北市淡水區中山路108巷3號","121.442066666667","25.1709916666667","6501000","淡水區"
"251007","179-VK","2017/11/09 19:49:26","新北市淡水區中正東路一段79號","121.452895","25.1620316666667","6501000","淡水區"
"251008","181-VK","2017/11/09 19:49:26","新北市淡水區中正路二段24巷2-1號","121.4268","25.1769333333333","6501000","淡水區"
"251014","182-VK","2017/11/09 19:49:27","新北市淡水區石頭厝17-6號","121.468441666667","25.23692","6501000","淡水區"
"251012","441-VK","2017/11/09 19:49:18","新北市淡水區埤島6-10號","121.446126666667","25.1944083333333","6501000","淡水區"
"251016","442-VK","2017/11/09 19:49:27","新北市淡水區三塊厝3-3號","121.45645","25.20959","6501000","淡水區"
"251001","559-UM","2017/11/09 19:49:28","新北市淡水區中正東路二段45號","121.459301666667","25.1561583333333","6501000","淡水區"
"251006","561-UM","2017/11/09 19:49:20","新北市淡水區水碓街15號","121.443468333333","25.1769433333333","6501000","淡水區"
"251011","650-BX","2017/11/09 19:49:23","新北市淡水區淡金路一段166號","121.454151666667","25.1799316666667","6501000","淡水區"
"207003","550-UM","2017/11/09 19:49:32","新北市萬里區磺潭里公館崙4-1號","121.642103333333","25.214475","6502800","萬里區"
"207004","225-TW","2017/11/09 19:49:25","新北市萬里區萬里里瑪鋉路122號","121.69063","25.1790516666667","6502800","萬里區"
"252002","178-VK","2017/11/09 19:49:31","新北市三芝區三民街20號","121.50455","25.2586366666667","6502100","三芝區"
"252001","292-VK","2017/11/09 19:49:24","新北市三芝區公正街66號","121.499821666667","25.25748","6502100","三芝區"
"237004","078-UY","2017/11/09 19:49:36","新北市三峽區添福14-51號","121.374668333333","24.8998716666667","6500900","三峽區"
"237007","153-BY","2017/11/09 19:49:27","新北市三峽區二鬮路136巷43號","121.358198333333","24.9088466666667","6500900","三峽區"
"237009","210-TH","2017/11/09 19:49:16","新北市三峽區中園街69號","121.368133333333","24.9255483333333","6500900","三峽區"
"237013","252-BX","2017/11/09 19:49:16","新北市三峽區橫溪路53-1號","121.396806666667","24.935405","6500900","三峽區"
"237012","275-BY","2017/11/09 19:49:17","新北市三峽區中華路31號","121.372941666667","24.9312833333333","6500900","三峽區"
"237008","302-VK","2017/11/09 19:49:32","新北市三峽區大同路154號","121.373083333333","24.9269383333333","6500900","三峽區"
"237014","433-BY","2017/11/09 19:49:17","新北市三峽區添福59-1號","121.37488","24.9034833333333","6500900","三峽區"
"237006","5529-G3","2017/11/09 19:49:31","新北市三峽區中正路一段336巷15弄2號","121.36995","24.92496","6500900","三峽區"
"237016","649-BX","2017/11/09 19:49:18","新北市三峽區溪東路293號","121.409263333333","24.931135","6500900","三峽區"
"237005","AKY-6261","2017/11/09 19:49:23","新北市三峽區民生街98號","121.37402","24.9355966666667","6500900","三峽區"
"236071","105-UM","2017/11/09 19:49:17","新北市土城區水源街32巷16號","121.44134","24.9758333333333","6501300","土城區"
"236042","107-UM","2017/11/09 19:49:24","新北市土城區裕民路266號","121.454811666667","24.9827133333333","6501300","土城區"
"236078","166-UM","2017/11/09 19:49:28","新北市土城區中央路四段480號","121.409461666667","24.9504816666667","6501300","土城區"
"236030","253-BX","2017/11/09 19:49:33","新北市土城區中央路一段294號","121.443378333333","24.9823616666667","6501300","土城區"
"236026","269-VK","2017/11/09 19:49:32","新北市土城區中央路二段61巷32號","121.443585","24.9786733333333","6501300","土城區"
"236037","271-VK","2017/11/09 19:49:12","新北市土城區國際路158巷54號","121.467901666667","24.97484","6501300","土城區"
"236021","401-BY","2017/11/09 19:49:17","新北市土城區明峰街83號","121.468935","24.9873283333333","6501300","土城區"
"236051","752-BX","2017/11/09 19:49:32","新北市土城區青雲路232號","121.459038333333","24.9807766666667","6501300","土城區"
"236058","912-UM","2017/11/09 19:49:18","新北市土城區中央路一段325號","121.44377","24.9831516666667","6501300","土城區"
"236062","915-UM","2017/11/09 19:49:15","新北市土城區延和路105巷5弄1號","121.467306666667","24.9910966666667","6501300","土城區"
"236053","AAC-216","2017/11/09 19:49:24","新北市土城區延和路45號","121.466158333333","24.9894116666667","6501300","土城區"
"242031","AAC-296","2017/11/09 19:49:27","新北市新莊區公園一路106號","121.443746666667","25.0378433333333","6500500","新莊區"
"242029","986-R7","2017/11/09 19:49:16","新北市新莊區新泰路417-10號","121.442471666667","25.04472","6500500","新莊區"
"242051","751-BX","2017/11/09 19:49:30","新北市新莊區民安路282號","121.427825","25.0215466666667","6500500","新莊區"
"242023","613-BX","2017/11/09 19:49:34","新北市新莊區化成路69號","121.465551666667","25.0459066666667","6500500","新莊區"
"242027","612-BX","2017/11/09 19:49:34","新北市新莊區立信五街6號","121.444475","25.0515483333333","6500500","新莊區"
"242044","497-BY","2017/11/09 19:49:29","新北市新莊區新北大道七段712號","121.412275","25.0265766666667","6500500","新莊區"
"242048","441-UM","2017/11/09 19:49:27","新北市新莊區建安街76巷5弄13號","121.425708333333","25.0249833333333","6500500","新莊區"
"242004","413-TV","2017/11/09 19:49:21","新北市新莊區化成路63巷6號","121.46487","25.0459116666667","6500500","新莊區"
"242061","362-BY","2017/11/09 19:49:17","新北市新莊區中正路471號","121.441976666667","25.0337066666667","6500500","新莊區"
"242058","353-BY","2017/11/09 19:49:18","新北市新莊區八德街17號","121.42531","25.0226383333333","6500500","新莊區"
"242036","133-UY","2017/11/09 19:49:25","新北市新莊區建安街60號","121.427165","25.0246783333333","6500500","新莊區"
"242021","135-UY","2017/11/09 19:49:25","新北市新莊區新泰路145號","121.448076666667","25.0366366666667","6500500","新莊區"
"242009","173-VK","2017/11/09 19:43:46","新北市新莊區三和路12-21號","121.442165","25.0386433333333","6500500","新莊區"
"242002","176-VK","2017/11/09 19:49:20","新北市新莊區新泰路2-11號","121.45015","25.032525","6500500","新莊區"
"242001","233-RS","2017/11/09 09:13:50","新北市新莊區環河路48-7號","121.436898333333","25.009815","6500500","新莊區"
"242013","346-TH","2017/11/09 19:49:13","新北市新莊區中泰街38巷8號","121.45083","25.047295","6500500","新莊區"
"242034","348-TH","2017/11/09 19:49:26","新北市新莊區新泰路199巷19號","121.445533333333","25.0376783333333","6500500","新莊區"
"242056","349-TH","2017/11/09 19:49:26","新北市新莊區新泰路89號","121.448823333333","25.0344916666667","6500500","新莊區"
"242017","350-TH","2017/11/09 19:49:25","新北市新莊區中華路一段226號","121.452643333333","25.04297","6500500","新莊區"
"242011","351-TH","2017/11/09 19:49:23","新北市新莊區中原路200號","121.447803333333","25.0544466666667","6500500","新莊區"
"238015","755-BX","2017/11/09 19:49:15","新北市樹林區樹德街6號","121.423016666667","24.991405","6500700","樹林區"
"238023","601-UM","2017/11/09 19:49:28","新北市樹林區三福街114號","121.406625","25.016335","6500700","樹林區"
"238024","5061-A6","2017/11/09 19:49:29","新北市樹林區中山路三段210-2號","121.381363333333","24.965635","6500700","樹林區"
"238021","KEA-2217","2017/11/09 19:49:31","新北市樹林區佳園路三段183號","121.385363333333","24.9479616666667","6500700","樹林區"
"238025","303-VK","2017/11/09 19:49:34","新北市樹林區大安路614號","121.411325","24.9830866666667","6500700","樹林區"
"238017","283-BY","2017/11/09 19:49:19","新北市樹林區保安街二段45巷21弄7號","121.414778333333","24.99987","6500700","樹林區"
"238014","282-BY","2017/11/09 19:49:30","新北市樹林區千歲街70巷1弄1號","121.426478333333","24.997315","6500700","樹林區"
"238020","268-VK","2017/11/09 19:49:16","新北市板橋區大觀路三段50巷49號","121.432065","24.9959216666667","6500700","樹林區"
"239006","891-R6","2017/11/09 19:49:28","新北市鶯歌區重慶街10巷2號","121.351891666667","24.9527383333333","6500800","鶯歌區"
"221008","489-VK","2017/11/09 19:49:27","新北市汐止區康寧街143號","121.62143","25.0666","6501100","汐止區"
"221036","130-UY","2017/11/09 19:49:24","新北市汐止區汐萬路一段310號","121.65031","25.07479","6501100","汐止區"
"221015","131-UY","2017/11/09 19:49:25","新北市汐止區汐萬路一段7號","121.656016666667","25.0674433333333","6501100","汐止區"
"221010","269-BY","2017/11/09 19:49:30","新北市汐止區汐萬路一段343巷13弄14號","121.649981666667","25.076395","6501100","汐止區"
"221012","276-VK","2017/11/09 13:26:11","新北市汐止區汐萬路一段256巷3號","121.653455","25.0746316666667","6501100","汐止區"
"221012","278-VK","2017/11/09 19:49:25","新北市汐止區大同路三段394號","121.681603333333","25.07167","6501100","汐止區"
"221023","279-VK","2017/11/09 19:49:24","新北市汐止區民族六街6巷2號","121.62972","25.06986","6501100","汐止區"
"221032","280-BY","2017/11/09 19:49:19","新北市汐止區橫科路403巷18號","121.625356666667","25.04746","6501100","汐止區"
"221027","281-BY","2017/11/09 19:49:19","新北市汐止區忠孝東路9號","121.658295","25.0660016666667","6501100","汐止區"
"221029","298-VK","2017/11/09 19:49:16","新北市汐止區康寧街901號","121.651616666667","25.074865","6501100","汐止區"
"221021","299-VK","2017/11/09 19:49:23","新北市汐止區新興路85巷1號","121.658","25.061545","6501100","汐止區"
"221031","353-TW","2017/11/09 19:49:13","新北市汐止區福德三路127號","121.633515","25.0676533333333","6501100","汐止區"
"221035","622-UM","2017/11/09 19:49:22","新北市汐止區長江街13巷6弄1號","121.654693333333","25.0716583333333","6501100","汐止區"
"221025","623-UM","2017/11/09 19:49:29","新北市汐止區秀峰路81巷38號","121.66138","25.0646683333333","6501100","汐止區"
"221038","646-BX","2017/11/09 19:49:27","新北市汐止區忠孝東路273號","121.6637","25.0683066666667","6501100","汐止區"
"221033","647-BX","2017/11/09 19:49:34","新北市汐止區東勢街76巷100-1號","121.63639","25.0390083333333","6501100","汐止區"
"221018","753-BX","2017/11/09 19:49:22","新北市汐止區汐萬路一段312號","121.650445","25.0751783333333","6501100","汐止區"
"220079","145-BY","2017/11/09 19:49:31","新北市板橋區中正路183巷12號","121.456106666667","25.0165216666667","6500100","板橋區"
"220080","200-UY","2017/11/09 19:49:27","新北市板橋區大觀路二段37巷69號","121.449846666667","25.002555","6500100","板橋區"
"220082","610-BX","2017/11/09 19:49:17","新北市板橋區大觀路三段180巷30號","121.429921666667","24.9937283333333","6500100","板橋區"
"220068","255-TC","2017/11/09 19:49:19","新北市板橋區光復街133巷31號","121.484215","25.01961","6500100","板橋區"
"220056","276-BY","2017/11/09 19:49:28","新北市板橋區四川路二段99-1號","121.452635","24.9946333333333","6500100","板橋區"
"220072","277-BY","2017/11/09 19:49:31","新北市板橋區金門街215巷109號","121.433471666667","24.9880216666667","6500100","板橋區"
"220101","280-UM","2017/11/09 19:49:19","新北市板橋區莊敬路262-1號","121.474123333333","25.0216366666667","6500100","板橋區"
"220071","283-VK","2017/11/09 19:49:25","新北市板橋區五權街32巷21號","121.464185","24.9927883333333","6500100","板橋區"
"220094","285-UM","2017/11/09 19:49:31","新北市板橋區長江路一段112號","121.459776666667","25.0296983333333","6500100","板橋區"
"220053","285-VK","2017/11/09 19:49:19","新北市板橋區中山路二段60巷1弄16號","121.47486","25.0155233333333","6500100","板橋區"
"220083","286-VK","2017/11/09 19:49:15","新北市板橋區龍興街59號","121.44321","25.001315","6500100","板橋區"
"220081","287-VK","2017/11/09 19:49:34","新北市板橋區大觀路一段35巷7弄18號","121.450301666667","25.0071516666667","6500100","板橋區"
"220090","288-VK","2017/11/09 19:49:33","新北市板橋區龍泉街54巷5號","121.456881666667","25.0266033333333","6500100","板橋區"
"220061","295-UM","2017/11/09 19:49:32","新北市板橋區中山路一段283巷22號","121.470411666667","25.0152466666667","6500100","板橋區"
"220084","296-UM","2017/11/09 19:49:32","新北市板橋區溪崑二街124巷24號","121.425311666667","24.9886366666667","6500100","板橋區"
"220075","297-UM","2017/11/09 19:49:34","新北市板橋區金華街10巷48弄22號","121.457725","25.0198583333333","6500100","板橋區"
"220092","299-UM","2017/11/09 19:49:14","新北市板橋區四維路259巷28號","121.462008333333","25.027545","6500100","板橋區"
"220062","303-R5","2017/11/09 19:49:32","新北市板橋區三民路二段29巷31弄5-3號","121.481596666667","25.0177116666667","6500100","板橋區"
"220098","317-R6","2017/11/09 19:49:24","新北市板橋區裕民街133巷3號","121.459243333333","25.02707","6500100","板橋區"
"220064","486-VK","2017/11/09 19:49:28","新北市板橋區實踐路90號","121.46404","25.0051016666667","6500100","板橋區"
"220089","487-VK","2017/11/09 19:49:26","新北市板橋區綠堤街41-1號","121.45528","25.025935","6500100","板橋區"
"220088","491-VK","2017/11/09 19:49:26","新北市板橋區文聖街101號","121.477678333333","25.0294616666667","6500100","板橋區"
"220035","560-BX","2017/11/09 19:49:14","新北市板橋區金華街69號","121.45761","25.0207683333333","6500100","板橋區"
"220103","561-BX","2017/11/09 19:49:19","新北市板橋區陽明街29巷1弄27號","121.464141666667","25.022015","6500100","板橋區"
"220063","609-BX","2017/11/09 19:49:21","新北市板橋區三民路一段31巷1號","121.479236666667","25.0231316666667","6500100","板橋區"
"220069","630-UY","2017/11/09 19:49:28","新北市板橋區貴興路106巷16弄2號","121.45481","25.0034566666667","6500100","板橋區"
"220091","637-BX","2017/11/09 19:49:24","新北市板橋區懷德街181巷22號","121.480353333333","25.0302416666667","6500100","板橋區"
"220057","686-BX","2017/11/09 19:49:22","新北市板橋區和平路安樂巷16號","121.461326666667","24.9940483333333","6500100","板橋區"
"220077","687-BX","2017/11/09 19:49:31","新北市板橋區僑中一街102巷5弄16號","121.44599","25.0127666666667","6500100","板橋區"
"220093","689-BX","2017/11/09 19:49:18","新北市板橋區長江路二段218號","121.468141666667","25.0323833333333","6500100","板橋區"
"220054","741-BX","2017/11/09 19:49:27","新北市板橋區忠孝路忠義巷15弄92-2號","121.465395","25.0055683333333","6500100","板橋區"
"220055","827-TW","2017/11/09 19:49:28","新北市板橋區國慶路49巷1號","121.459643333333","24.9957866666667","6500100","板橋區"
"220067","829-TW","2017/11/09 19:49:22","新北市板橋區長安街297號","121.474411666667","25.012035","6500100","板橋區"
"220102","830-TW","2017/11/09 19:49:16","新北市板橋區仁化街46-1號","121.475275","25.03168","6500100","板橋區"
"220096","831-TW","2017/11/09 19:49:32","新北市板橋區莒光路63號","121.47131","25.024345","6500100","板橋區"
"220074","895-R6","2017/11/09 19:49:29","新北市板橋區南門街15號","121.457731666667","25.009055","6500100","板橋區"
"220073","985-R7","2017/11/09 19:49:32","新北市板橋區大仁街59-1號","121.454298333333","25.0163733333333","6500100","板橋區"
"220097","AAC-210","2017/11/09 19:49:23","新北市板橋區文化路一段285巷1弄17號","121.464061666667","25.018775","6500100","板橋區"
"220070","AAC-253","2017/11/09 19:49:26","新北市板橋區民族路73號","121.46547","25.0086616666667","6500100","板橋區"
