"lineid","car","time","location","longitude","latitude","cityid","cityname"
"234013","149-BY","2017/11/09 20:19:20","新北市永和區保生路40巷1號","121.505753333333","25.0082783333333","6500400","永和區"
"234007","207-UY","2017/11/09 20:19:31","新北市永和區仁愛路296號","121.503636666667","25.00809","6500400","永和區"
"234081","298-R6","2017/11/09 20:19:13","新北市永和區福和路19巷1弄1號","121.524223333333","25.00785","6500400","永和區"
"234038","336-UY","2017/11/09 20:19:29","新北市永和區成功路一段93巷20弄2號","121.528313333333","25.0026433333333","6500400","永和區"
"234064","337-UY","2017/11/09 20:19:13","新北市永和區得和路106號","121.518078333333","25.0001566666667","6500400","永和區"
"234070","552-UM","2017/11/09 20:19:30","新北市永和區福和路263巷7弄1號","121.517891666667","25.0069233333333","6500400","永和區"
"234054","553-UM","2017/11/09 20:19:27","新北市永和區光復街2巷26弄2號","121.517633333333","25.0164533333333","6500400","永和區"
"234017","745-BX","2017/11/09 20:19:23","新北市永和區永和路二段185號","121.51508","25.0135183333333","6500400","永和區"
"234030","746-BX","2017/11/09 20:19:26","新北市中和區自強路6-2號","121.519925","24.9960283333333","6500400","永和區"
"234061","AAD-866","2017/11/09 20:19:21","新北市永和區得和路17號","121.515375","25.0006233333333","6500400","永和區"
"234086","847-RS","2017/11/09 20:19:34","新北市永和區永和路二段55號","121.514698333333","25.01091","6500400","永和區"
"234042","862-TW","2017/11/09 20:19:27","新北市永和區雙和街4號","121.509813333333","25.001785","6500400","永和區"
"234050","863-TW","2017/11/09 20:19:15","新北市永和區文化路185號","121.50966","25.0169316666667","6500400","永和區"
"249005","172-UM","2017/11/09 20:19:16","新北市八里區下罟子8-1號","121.38543","25.1399233333333","6502300","八里區"
"249004","303-UY","2017/11/09 20:08:28","新北市八里區中山路一段217巷70號","121.411938333333","25.15756","6502300","八里區"
"249002","305-UY","2017/11/09 20:19:30","新北市八里區龍米路二段32巷18號","121.448911666667","25.140785","6502300","八里區"
"249003","593-UM","2017/11/09 20:19:17","新北市八里區中山路二段447巷28號","121.397346666667","25.145205","6502300","八里區"
"249001","759-BX","2017/11/09 20:19:11","新北市八里區中華路二段538-1號","121.399013333333","25.1450133333333","6502300","八里區"
"248016","026-BX","2017/11/09 20:19:23","新北市五股區凌雲路一段158巷26號","121.447756666667","25.1036883333333","6501500","五股區"
"248012","247-BX","2017/11/09 20:19:21","新北市五股區五福路53-1號","121.432685","25.0895433333333","6501500","五股區"
"248010","272-BY","2017/11/09 20:19:30","新北市五股區成泰路一段7巷66號","121.432596666667","25.0678116666667","6501500","五股區"
"248004","677-BX","2017/11/09 20:19:29","新北市五股區成泰路二段82號","121.43747","25.0823233333333","6501500","五股區"
"248002","678-BX","2017/11/09 20:19:32","新北市五股區成泰路三段165號","121.445218333333","25.0918416666667","6501500","五股區"
"234023","9380-KE","2017/11/09 20:19:29","新北市永和區勵行街10號","121.516175","25.0143816666667","6500400","永和區"
"234077","969-R7","2017/11/09 20:19:23","新北市中和區安樂路49號","121.51201","24.9932883333333","6500400","永和區"
"234074","AAC-211","2017/11/09 20:19:15","新北市永和區豫溪街160巷4號","121.52331","25.00953","6500400","永和區"
"234067","AAC-212","2017/11/09 20:19:17","新北市永和區保平路268巷9號","121.508403333333","25.005435","6500400","永和區"
"234003","AAC-295","2017/11/09 20:19:30","新北市永和區大新街16號","121.515031666667","25.0084733333333","6500400","永和區"
"243012","AAD-798","2017/11/09 20:19:28","新北市泰山區楓江路175-1號","121.44033","25.0667383333333","6501600","泰山區"
"243009","297-R6","2017/11/09 20:19:20","新北市泰山區福泰街17號","121.432863333333","25.0602283333333","6501600","泰山區"
"243015","380-SR","2017/11/09 20:19:23","新北市泰山區仁德路67號","121.434225","25.0567283333333","6501600","泰山區"
"243014","421-VK","2017/11/09 20:19:19","新北市泰山區泰林路二段366號","121.428615","25.0637583333333","6501600","泰山區"
"243010","KEA-2215","2017/11/09 20:19:19","新北市泰山區明志路二段254巷16弄5號","121.42615","25.0481116666667","6501600","泰山區"
"243011","KEA-2216","2017/11/09 20:19:31","新北市泰山區貴陽街16巷5弄10號","121.422578333333","25.0320033333333","6501600","泰山區"
"243013","646-TV","2017/11/09 20:19:24","新北市泰山區新民路28號","121.42682","25.044605","6501600","泰山區"
"243016","680-BX","2017/11/09 20:19:28","新北市泰山區明志路三段313號","121.422501666667","25.03608","6501600","泰山區"
"222003","436-BY","2017/11/09 20:19:27","新北市深坑區文化街43號","121.617708333333","25.001865","6501800","深坑區"
"222002","659-BX","2017/11/09 20:19:29","新北市深坑區萬福路75巷26號","121.599031666667","25.00972","6501800","深坑區"
"231041","002-UM","2017/11/09 20:19:19","新北市新店區民權路42號","121.540541666667","24.982965","6500600","新店區"
"231059","046-UY","2017/11/09 20:19:29","新北市新店區安德街138號","121.50843","24.9600816666667","6500600","新店區"
"231061","047-UY","2017/11/09 20:19:29","新北市新店區安興路32號","121.515731666667","24.9703933333333","6500600","新店區"
"231060","106-UY","2017/11/09 20:19:28","新北市新店區錦秀路11巷94弄1號","121.480135","24.942285","6500600","新店區"
"231047","108-UY","2017/11/09 20:19:22","新北市新店區寶橋路132號","121.547483333333","24.97602","6500600","新店區"
"231052","187-VK","2017/11/09 20:19:28","新北市新店區新烏路三段140號","121.552168333333","24.9029733333333","6500600","新店區"
"231050","KEA-2219","2017/11/09 20:19:28","新北市新店區北新路一段96巷23號","121.542865","24.9688133333333","6500600","新店區"
"231057","256-BX","2017/11/09 20:19:21","新北市新店區花園五路一段34號","121.552601666667","24.9340983333333","6500600","新店區"
"231058","3712-VJ","2017/11/09 20:19:26","新北市新店區中央一街16號","121.528096666667","24.9726866666667","6500600","新店區"
"231056","3713-VJ","2017/11/09 20:19:20","新北市新店區中正路274號","121.53884","24.97359","6500600","新店區"
"231055","4716-K9","2017/11/09 20:19:22","新北市新店區新明街26巷13號","121.541023333333","24.9687166666667","6500600","新店區"
"231067","4772-VM","2017/11/09 20:19:16","新北市新店區溪洲路8巷94號","121.533311666667","24.9625416666667","6500600","新店區"
"231065","512-UM","2017/11/09 20:19:25","新北市新店區安祥路104巷6弄36號","121.483081666667","24.9629616666667","6500600","新店區"
"231054","513-UM","2017/11/09 20:19:30","新北市新店區檳榔路109號","121.544408333333","24.96164","6500600","新店區"
"231064","515-UM","2017/11/09 20:19:26","新北市新店區安樂街12號","121.52077","24.9734283333333","6500600","新店區"
"231040","619-UM","2017/11/09 20:19:19","新北市新店區中正路106號","121.543158333333","24.9705933333333","6500600","新店區"
"231042","641-BX","2017/11/09 20:19:24","新北市新店區中興路二段231-2號","121.54783","24.97507","6500600","新店區"
"231063","645-TV","2017/11/09 20:19:29","新北市新店區車子路1-1號","121.504726666667","24.9577466666667","6500600","新店區"
"231068","718-UY","2017/11/09 20:19:33","新北市新店區寶安街18號","121.542118333333","24.9818883333333","6500600","新店區"
"231049","719-UM","2017/11/09 20:19:32","新北市新店區光明街137號","121.53921","24.9621316666667","6500600","新店區"
"231051","719-UY","2017/11/09 20:19:34","新北市新店區中央六街39號","121.528698333333","24.9753983333333","6500600","新店區"
"231062","720-UM","2017/11/09 20:19:21","新北市新店區安泰路7巷16號","121.485676666667","24.95096","6500600","新店區"
"231044","897-TW","2017/11/09 20:19:13","新北市新店區順安街2-1號","121.541213333333","24.9846733333333","6500600","新店區"
"231045","898-TW","2017/11/09 20:19:19","新北市新店區新坡一街16號","121.548456666667","24.9619533333333","6500600","新店區"
"231043","899-TW","2017/11/09 20:19:18","新北市新店區建國路131號","121.539348333333","24.9781216666667","6500600","新店區"
"231066","AKT-0513","2017/11/09 20:19:29","新北市新店區安興路112號","121.514616666667","24.977555","6500600","新店區"
"241011","013-R5","2017/11/09 20:19:24","新北市三重區龍門路242號","121.500775","25.0737483333333","6500200","三重區"
"241028","022-UY","2017/11/09 20:19:15","新北市三重區大同南路127-2號","121.496406666667","25.0579683333333","6500200","三重區"
"241008","059-VK","2017/11/09 20:19:25","新北市三重區永福街211巷8號","121.479543333333","25.07402","6500200","三重區"
"241009","060-VK","2017/11/09 20:19:16","新北市三重區三和路四段382巷48號","121.480881666667","25.0783466666667","6500200","三重區"
"241031","061-VK","2017/11/09 20:19:21","新北市三重區三寧街22號","121.489513333333","25.059895","6500200","三重區"
"241015","062-VK","2017/11/09 20:19:26","新北市三重區重新路一段128號","121.500301666667","25.0629","6500200","三重區"
"241017","063-VK","2017/11/09 20:19:33","新北市三重區自強路一段165號","121.493175","25.067285","6500200","三重區"
"241024","065-VK","2017/11/09 20:19:31","新北市三重區忠孝路三段13號","121.481681666667","25.0673633333333","6500200","三重區"
"241026","066-VK","2017/11/09 20:19:27","新北市三重區中央南路57號","121.501273333333","25.0614916666667","6500200","三重區"
"241002","090-VK","2017/11/09 20:19:30","新北市三重區仁義街126號","121.497521666667","25.080275","6500200","三重區"
"241001","156-TC","2017/11/09 20:19:29","新北市三重區自強路四段3巷35號","121.4901","25.0764266666667","6500200","三重區"
"241005","262-UM","2017/11/09 20:19:21","新北市三重區分子尾街83號","121.488968333333","25.0825883333333","6500200","三重區"
"241030","265-UM","2017/11/09 20:19:18","新北市三重區成功路145巷35號","121.487836666667","25.053155","6500200","三重區"
"241016","266-UM","2017/11/09 20:19:34","新北市三重區大同北路54巷1號","121.494325","25.0634","6500200","三重區"
"241022","267-UM","2017/11/09 20:19:16","新北市三重區中正北路18-1號","121.48841","25.06349","6500200","三重區"
"241018","268-UM","2017/11/09 20:19:20","新北市三重區雙園街115號","121.493498333333","25.0672666666667","6500200","三重區"
"241032","269-UM","2017/11/09 20:19:28","新北市三重區捷運路19巷6弄7號","121.484686666667","25.0569516666667","6500200","三重區"
"241013","270-UM","2017/11/09 20:19:25","新北市三重區三和路三段167巷1號","121.492035","25.0740683333333","6500200","三重區"
"241025","271-UM","2017/11/09 20:19:31","新北市三重區三民街237號","121.480091666667","25.067365","6500200","三重區"
"241007","398-BY","2017/11/09 20:19:21","新北市三重區溪尾街108巷52號","121.487418333333","25.0781483333333","6500200","三重區"
"241020","413-TH","2017/11/09 20:19:18","新北市三重區三和路三段172-1號","121.492331666667","25.07307","6500200","三重區"
"241035","462-BY","2017/11/09 20:19:26","新北市三重區正義北路33巷55號","121.499085","25.0639033333333","6500200","三重區"
"241004","475-VK","2017/11/09 20:19:35","新北市三重區溪尾街165巷45號","121.49056","25.0804666666667","6500200","三重區"
"241019","478-VK","2017/11/09 20:19:25","新北市三重區忠孝路一段30巷58號","121.490445","25.0712683333333","6500200","三重區"
"241014","543-UM","2017/11/09 20:19:32","新北市三重區河邊北街96-1號","121.503963333333","25.0698933333333","6500200","三重區"
"241023","545-UM","2017/11/09 20:19:30","新北市三重區頂崁街140號","121.477675","25.0650883333333","6500200","三重區"
"241003","887-TS","2017/11/09 20:19:32","新北市三重區富華街55-4號","121.491153333333","25.0834416666667","6500200","三重區"
"241012","941-UM","2017/11/09 20:19:28","新北市三重區河邊北街379-1號","121.50173","25.0764683333333","6500200","三重區"
"241029","942-UM","2017/11/09 20:19:14","新北市三重區光明路96巷7號","121.492715","25.0565216666667","6500200","三重區"
"241033","AAC-255","2017/11/09 20:19:27","新北市三重區五谷王北街50巷6號","121.475748333333","25.0514433333333","6500200","三重區"
"235039","097-UM","2017/11/09 20:19:31","新北市中和區自強路66號","121.519823333333","24.99418","6500300","中和區"
"235065","098-UM","2017/11/09 20:19:30","新北市中和區永和路128巷47號","121.49772","25.0069","6500300","中和區"
"235040","150-BY","2017/11/09 20:19:21","新北市中和區安平路38號","121.509931666667","24.995","6500300","中和區"
"235072","301-VK","2017/11/09 20:19:16","新北市新店區安忠路57巷26弄74號","121.512386666667","24.9567583333333","6500300","中和區"
"235068","377-QA","2017/11/09 20:19:30","新北市中和區勝利路35巷1弄36號","121.500438333333","25.0079166666667","6500300","中和區"
"235069","4980-A6","2017/11/09 20:19:19","新北市中和區中正路226號","121.49617","24.993955","6500300","中和區"
"235070","558-UM","2017/11/09 20:19:16","新北市中和區錦和路117號","121.490601666667","24.9943583333333","6500300","中和區"
"235026","800-TS","2017/11/09 20:04:20","新北市中和區員山路36巷16-3號","121.48496","24.9915416666667","6500300","中和區"
"235037","157-BY","2017/11/09 20:19:24","新北市中和區捷運路12號","121.50919","24.9899016666667","6500300","中和區"
"235059","AAC-215","2017/11/09 20:19:24","新北市中和區圓通路290號","121.490713333333","24.9894466666667","6500300","中和區"
"220065","072-UY","2017/11/09 20:19:18","新北市五股區芳洲九路36號","121.447768333333","25.0879466666667","6500100","板橋區"
"247022","893-R6","2017/11/09 20:19:22","新北市蘆洲區民族路570號","121.467248333333","25.0886766666667","6501400","蘆洲區"
"247012","546-UM","2017/11/09 20:19:17","新北市蘆洲區中興街15巷17號","121.480211666667","25.0876283333333","6501400","蘆洲區"
"247020","500-BY","2017/11/09 20:19:20","新北市蘆洲區仁愛街74號","121.471013333333","25.094255","6501400","蘆洲區"
"247010","339-TH","2017/11/09 20:19:23","新北市蘆洲區信義路261號","121.478956666667","25.0847866666667","6501400","蘆洲區"
"247002","337-TH","2017/11/09 20:19:26","新北市蘆洲區長安街331巷21號","121.455798333333","25.0865433333333","6501400","蘆洲區"
"247004","336-TH","2017/11/09 20:19:25","新北市蘆洲區長安街297號","121.458053333333","25.0848533333333","6501400","蘆洲區"
"247016","057-VK","2017/11/09 20:19:20","新北市蘆洲區中正路185巷45弄3號","121.466015","25.08374","6501400","蘆洲區"
"247006","056-VK","2017/11/09 20:19:24","新北市蘆洲區九芎街136號","121.46513","25.0790566666667","6501400","蘆洲區"
"247008","053-VK","2017/11/09 20:19:30","新北市蘆洲區集賢路227-1號","121.482401666667","25.0859883333333","6501400","蘆洲區"
"247014","007-UY","2017/11/09 20:19:17","新北市蘆洲區中山一路236號","121.47258","25.080275","6501400","蘆洲區"
"247024","002-UY","2017/11/09 20:19:23","新北市蘆洲區光榮路120巷8弄39號","121.464576666667","25.08792","6501400","蘆洲區"
"247018","001-UY","2017/11/09 20:19:30","新北市蘆洲區民族路408巷16號","121.475028333333","25.0921416666667","6501400","蘆洲區"
"222001","KEA-2212","2017/11/09 20:19:26","新北市深坑區北深路三段213號","121.600361666667","25.0040466666667","6501800","深坑區"
"251008","181-VK","2017/11/09 20:19:26","新北市淡水區淡海路180巷31號","121.421916666667","25.184555","6501000","淡水區"
"251014","182-VK","2017/11/09 20:19:27","新北市淡水區石頭厝3號","121.458716666667","25.2355533333333","6501000","淡水區"
"251010","413-VK","2017/11/09 20:19:22","新北市淡水區新民街一段134號","121.427513333333","25.188895","6501000","淡水區"
"251012","441-VK","2017/11/09 20:19:18","新北市淡水區淡金路三段405-2號","121.44912","25.2084016666667","6501000","淡水區"
"251016","442-VK","2017/11/09 20:19:27","新北市淡水區淡金路五段20號","121.453381666667","25.2324233333333","6501000","淡水區"
"251006","561-UM","2017/11/09 20:19:20","新北市淡水區淡金路一段571號","121.45264","25.1805233333333","6501000","淡水區"
"251011","650-BX","2017/11/09 20:02:03","新北市淡水區崁頂61號","121.440565","25.20022","6501000","淡水區"
"251002","672-BX","2017/11/09 20:19:35","新北市淡水區中正路176號","121.440418333333","25.1698683333333","6501000","淡水區"
"251003","766-UM","2017/11/09 20:19:19","新北市淡水區中山北路一段229號","121.444415","25.1795416666667","6501000","淡水區"
"207004","225-TW","2017/11/09 20:19:25","新北市萬里區北基里仁六街2-1號","121.681573333333","25.1750533333333","6502800","萬里區"
"252002","178-VK","2017/11/09 20:19:31","新北市三芝區中正路一段16-1號","121.503045","25.2587283333333","6502100","三芝區"
"252001","292-VK","2017/11/09 20:19:24","新北市三芝區中山路一段14號","121.50069","25.2579966666667","6502100","三芝區"
"237007","153-BY","2017/11/09 20:19:26","新北市三峽區麻園43號","121.363781666667","24.9212","6500900","三峽區"
"237014","433-BY","2017/11/09 20:17:17","新北市樹林區中山路三段210-2號","121.380848333333","24.967215","6500900","三峽區"
"237006","5529-G3","2017/11/09 20:19:31","新北市三峽區中正路二段125號","121.366296666667","24.9166433333333","6500900","三峽區"
"237005","AKY-6261","2017/11/09 20:19:23","新北市三峽區三樹路98巷91號","121.381983333333","24.939945","6500900","三峽區"
"236071","105-UM","2017/11/09 20:19:17","新北市土城區中山路47號","121.420756666667","24.96286","6501300","土城區"
"236078","166-UM","2017/11/09 20:19:19","新北市土城區民權街12號","121.415385","24.964285","6501300","土城區"
"236030","253-BX","2017/11/09 20:19:33","新北市土城區學成路128巷11號","121.449498333333","24.9900016666667","6501300","土城區"
"236026","269-VK","2017/11/09 20:19:32","新北市土城區裕生路86巷2號","121.447145","24.9851283333333","6501300","土城區"
"236014","270-VK","2017/11/09 20:19:33","新北市土城區廣明街90巷18號","121.455376666667","24.99447","6501300","土城區"
"236037","271-VK","2017/11/09 20:19:32","新北市土城區明德路一段76號","121.465006666667","24.9800833333333","6501300","土城區"
"236021","401-BY","2017/11/09 20:19:31","新北市土城區和城路二段255巷140號","121.4761","24.9877683333333","6501300","土城區"
"236058","912-UM","2017/11/09 20:19:18","新北市土城區中央路三段128-3號","121.434801666667","24.96594","6501300","土城區"
"236053","AAC-216","2017/11/09 20:19:24","新北市土城區城林路2號","121.43728","24.976345","6501300","土城區"
"242031","AAC-296","2017/11/09 20:19:27","新北市新莊區三泰路3號","121.440523333333","25.03399","6500500","新莊區"
"242029","986-R7","2017/11/09 20:19:16","新北市新莊區中原路132號","121.449833333333","25.0544216666667","6500500","新莊區"
"242051","751-BX","2017/11/09 20:19:30","新北市新莊區民安西路254號","121.426016666667","25.0135883333333","6500500","新莊區"
"242025","615-BX","2017/11/09 20:19:20","新北市新莊區五工一路80巷16號","121.46116","25.066785","6500500","新莊區"
"242023","613-BX","2017/11/09 20:19:14","新北市新莊區化成路383號","121.465346666667","25.0582416666667","6500500","新莊區"
"242027","612-BX","2017/11/09 20:19:35","新北市新莊區幸福路533號","121.455091666667","25.04929","6500500","新莊區"
"242039","566-BX","2017/11/09 20:19:14","新北市新莊區龍安路438號","121.424371666667","25.0185083333333","6500500","新莊區"
"242044","497-BY","2017/11/09 20:19:29","新北市新莊區中正路新建巷28弄69號","121.41376","25.0209266666667","6500500","新莊區"
"242048","441-UM","2017/11/09 20:19:27","新北市新莊區萬安街165巷34號","121.42118","25.020635","6500500","新莊區"
"242053","440-UM","2017/11/09 20:19:26","新北市新莊區民安西路261巷11號","121.426846666667","25.0130966666667","6500500","新莊區"
"242004","413-TV","2017/11/09 20:19:16","新北市新莊區頭前路10號","121.46852","25.0527133333333","6500500","新莊區"
"242042","400-BY","2017/11/09 20:19:32","新北市新莊區天祥街86號","121.415483333333","25.02944","6500500","新莊區"
"242061","362-BY","2017/11/09 20:19:17","新北市新莊區新樹路172-13號","121.434578333333","25.0216816666667","6500500","新莊區"
"242058","353-BY","2017/11/09 20:19:18","新北市新莊區四維路205-3號","121.421728333333","25.0202033333333","6500500","新莊區"
"242007","132-UY","2017/11/09 20:19:13","新北市新莊區福壽街94巷18號","121.459008333333","25.0500683333333","6500500","新莊區"
"242036","133-UY","2017/11/09 20:19:25","新北市新莊區建安街89號","121.42709","25.0244616666667","6500500","新莊區"
"242021","135-UY","2017/11/09 20:19:25","新北市新莊區和興街49號","121.446666666667","25.0407116666667","6500500","新莊區"
"242046","172-VK","2017/11/09 20:19:31","新北市新莊區中正路新生巷42號","121.417133333333","25.0233883333333","6500500","新莊區"
"242009","173-VK","2017/11/09 20:19:26","新北市新莊區昌平街9號","121.454851666667","25.0517233333333","6500500","新莊區"
"242015","175-VK","2017/11/09 20:19:18","新北市新莊區中和街31巷22號","121.447176666667","25.0438616666667","6500500","新莊區"
"242002","176-VK","2017/11/09 20:19:20","新北市新莊區化成路82號","121.465206666667","25.04388","6500500","新莊區"
"242001","233-RS","2017/11/09 09:13:50","新北市新莊區環河路48-7號","121.436898333333","25.009815","6500500","新莊區"
"242013","346-TH","2017/11/09 20:19:13","新北市新莊區中平路270巷31號","121.446655","25.05037","6500500","新莊區"
"242034","348-TH","2017/11/09 20:19:26","新北市新莊區建中街90巷7弄2號","121.446745","25.0378033333333","6500500","新莊區"
"242056","349-TH","2017/11/09 20:19:26","新北市新莊區新莊路649巷40號","121.444878333333","25.031485","6500500","新莊區"
"242017","350-TH","2017/11/09 20:19:25","新北市新莊區中港一街119號","121.448576666667","25.045135","6500500","新莊區"
"242011","351-TH","2017/11/09 20:19:22","新北市新莊區中信街21號","121.451068333333","25.050815","6500500","新莊區"
"238021","KEA-2217","2017/11/09 20:19:11","新北市樹林區佳園路三段101巷56號","121.392665","24.9503216666667","6500700","樹林區"
"221008","489-VK","2017/11/09 20:19:27","新北市汐止區康寧街39號","121.618448333333","25.0667633333333","6501100","汐止區"
"221036","130-UY","2017/11/09 20:19:29","新北市汐止區仁愛路152巷27號","121.66485","25.0638266666667","6501100","汐止區"
"221015","131-UY","2017/11/09 20:19:25","新北市汐止區建成路142巷19弄3號","121.662168333333","25.0737866666667","6501100","汐止區"
"221010","269-BY","2017/11/09 20:19:31","新北市汐止區八連路二段233號","121.631866666667","25.09713","6501100","汐止區"
"221012","276-VK","2017/11/09 13:26:11","新北市汐止區汐萬路一段256巷3號","121.653455","25.0746316666667","6501100","汐止區"
"221012","278-VK","2017/11/09 20:19:25","新北市汐止區保新街154號","121.688806666667","25.0680666666667","6501100","汐止區"
"221023","279-VK","2017/11/09 20:19:24","新北市汐止區明峰街108號","121.630633333333","25.0711","6501100","汐止區"
"221032","280-BY","2017/11/09 20:19:19","新北市汐止區弘道街53巷2號","121.618695","25.0484133333333","6501100","汐止區"
"221027","281-BY","2017/11/09 20:19:19","新北市汐止區大同路二段513號","121.661293333333","25.0689833333333","6501100","汐止區"
"221029","298-VK","2017/11/09 20:19:16","新北市汐止區樟樹一路99巷7弄7號","121.641186666667","25.063365","6501100","汐止區"
"221021","299-VK","2017/11/09 20:19:23","新北市汐止區水源路一段273號","121.654045","25.0589416666667","6501100","汐止區"
"221031","353-TW","2017/11/09 20:19:13","新北市汐止區原興路73巷1號","121.632073333333","25.0662016666667","6501100","汐止區"
"221002","358-BY","2017/11/09 20:19:27","新北市汐止區福德二路27號","121.635226666667","25.068045","6501100","汐止區"
"221035","622-UM","2017/11/09 20:19:22","新北市汐止區長江街101-5號","121.658713333333","25.0732116666667","6501100","汐止區"
"221025","623-UM","2017/11/09 20:19:29","新北市汐止區水源路二段72巷6弄5號","121.655721666667","25.0555983333333","6501100","汐止區"
"221038","646-BX","2017/11/09 20:19:27","新北市汐止區忠孝東路462巷42號","121.666406666667","25.0742083333333","6501100","汐止區"
"221033","647-BX","2017/11/09 20:19:34","新北市汐止區東勢街201巷84號","121.634171666667","25.0432583333333","6501100","汐止區"
"221018","753-BX","2017/11/09 20:19:22","新北市汐止區大同路三段264號","121.675476666667","25.0689016666667","6501100","汐止區"
"220101","280-UM","2017/11/09 20:19:18","新北市板橋區雙十路二段4-2號","121.477048333333","25.0255316666667","6500100","板橋區"
"220083","286-VK","2017/11/09 20:19:15","新北市板橋區大觀路一段38巷156弄166號","121.444096666667","25.0092483333333","6500100","板橋區"
"220081","287-VK","2017/11/09 20:19:16","新北市板橋區僑中一街80巷1弄1號","121.447566666667","25.0118966666667","6500100","板橋區"
"220061","295-UM","2017/11/09 20:19:32","新北市板橋區四川路一段257號","121.4597","25.0023733333333","6500100","板橋區"
"220089","487-VK","2017/11/09 20:19:26","新北市板橋區四維路175-2號","121.464536666667","25.02635","6500100","板橋區"
"242019","280-VK","2017/11/09 20:19:29","新北市新莊區博愛路5巷2號","121.45632","25.0432783333333","6500500","新莊區"
"220103","561-BX","2017/11/09 20:19:19","新北市板橋區漢生東路23巷8-1號","121.465385","25.017425","6500100","板橋區"
"220055","827-TW","2017/11/09 20:19:28","新北市板橋區重慶路290巷32號","121.461925","24.998715","6500100","板橋區"
"220102","830-TW","2017/11/09 20:19:33","新北市板橋區文化路一段162號","121.46567","25.0192283333333","6500100","板橋區"
"220097","AAC-210","2017/11/09 20:19:14","新北市板橋區公館街94-1號","121.461286666667","25.0166133333333","6500100","板橋區"
"220070","AAC-253","2017/11/09 20:19:20","新北市板橋區四川路二段245巷15號","121.451023333333","24.9931383333333","6500100","板橋區"
