"lineid","car","time","location","longitude","latitude","cityid","cityname"
"234030","746-BX","2017/11/09 20:49:26","新北市五股區成泰路三段544-1號","121.454511666667","25.103205","6500400","永和區"
"234077","969-R7","2017/11/09 20:49:23","新北市林口區汕頭32號","121.366691666667","25.1350666666667","6500400","永和區"
"234074","AAC-211","2017/11/09 20:49:10","新北市永和區環河東路二段20號","121.522303333333","25.01316","6500400","永和區"
"243014","421-VK","2017/11/09 20:49:16","新北市泰山區泰林路三段778號","121.40074","25.0715166666667","6501600","泰山區"
"222003","436-BY","2017/11/09 20:49:27","新北市深坑區北深路二段57號","121.618773333333","25.0039583333333","6501800","深坑區"
"222002","659-BX","2017/11/09 20:49:28","新北市深坑區北深路三段93巷40號","121.604538333333","25.0004333333333","6501800","深坑區"
"231041","002-UM","2017/11/09 20:49:19","新北市新店區中正路700巷3號","121.533868333333","24.9912966666667","6500600","新店區"
"231059","046-UY","2017/11/09 20:49:35","新北市新店區吉祥街11巷40號","121.499061666667","24.9462816666667","6500600","新店區"
"231061","047-UY","2017/11/09 20:49:29","新北市新店區新和街93巷8號","121.52083","24.986645","6500600","新店區"
"231060","106-UY","2017/11/09 20:49:28","新北市新店區安康路三段738號","121.473875","24.94195","6500600","新店區"
"231047","108-UY","2017/11/09 20:49:22","新北市新店區寶元路二段1巷2號","121.550728333333","24.98407","6500600","新店區"
"231052","188-VK","2017/11/09 20:49:25","新北市新店區松林路9號","121.54713","24.9109016666667","6500600","新店區"
"231050","KEA-2219","2017/11/09 20:49:28","新北市新店區中正路263-1號","121.53854","24.9736333333333","6500600","新店區"
"231057","256-BX","2017/11/09 20:49:15","新北市新店區花園一路一段10號","121.55171","24.933015","6500600","新店區"
"231058","3712-VJ","2017/11/09 20:49:26","新北市新店區平等街71號","121.535831666667","24.9723233333333","6500600","新店區"
"231056","3713-VJ","2017/11/09 20:49:20","新北市新店區中央七街61巷12號","121.52874","24.9762816666667","6500600","新店區"
"231065","512-UM","2017/11/09 20:49:25","新北市新店區安祥路69巷17號","121.481903333333","24.9613433333333","6500600","新店區"
"231054","513-UM","2017/11/09 20:49:30","新北市新店區北新路一段126巷27號","121.5432","24.9695233333333","6500600","新店區"
"231064","515-UM","2017/11/09 20:49:26","新北市新店區安和路三段68號","121.51802","24.9831016666667","6500600","新店區"
"231040","619-UM","2017/11/09 20:49:19","新北市新店區中正路274號","121.538928333333","24.97369","6500600","新店區"
"231042","641-BX","2017/11/09 20:49:23","新北市新店區寶高路118號","121.554535","24.9759933333333","6500600","新店區"
"231063","645-TV","2017/11/09 20:49:29","新北市新店區如意街7號","121.49527","24.9486983333333","6500600","新店區"
"231068","718-UY","2017/11/09 20:49:33","新北市新店區寶元路二段14巷1號","121.545908333333","24.98257","6500600","新店區"
"231049","719-UM","2017/11/09 20:49:32","新北市新店區安康路一段214號","121.524036666667","24.963525","6500600","新店區"
"231051","719-UY","2017/11/09 20:49:14","新北市新店區中央五街1號","121.530141666667","24.9741016666667","6500600","新店區"
"231062","720-UM","2017/11/09 20:49:21","新北市新店區裕合街215號","121.489161666667","24.949015","6500600","新店區"
"231044","897-TW","2017/11/09 20:49:33","新北市新店區建國路122號","121.539208333333","24.9786883333333","6500600","新店區"
"231043","899-TW","2017/11/09 20:49:24","新北市新店區建國路31號","121.540273333333","24.9741183333333","6500600","新店區"
"231066","AKT-0513","2017/11/09 20:49:29","新北市新店區安興路112號","121.514703333333","24.97768","6500600","新店區"
"241011","013-R5","2017/11/09 20:49:24","新北市三重區龍濱路203號","121.502121666667","25.0716516666667","6500200","三重區"
"241028","022-UY","2017/11/09 20:49:15","新北市三重區中正南路50號","121.493976666667","25.0599383333333","6500200","三重區"
"241008","059-VK","2017/11/09 20:49:25","新北市三重區永福街72巷11號","121.479453333333","25.07679","6500200","三重區"
"241009","060-VK","2017/11/09 20:49:16","新北市三重區三和路四段388-2號","121.48208","25.07908","6500200","三重區"
"241031","061-VK","2017/11/09 20:49:21","新北市三重區重陽路一段113巷2弄2號","121.487491666667","25.0598583333333","6500200","三重區"
"241015","062-VK","2017/11/09 20:49:26","新北市三重區自強路一段10號","121.498993333333","25.0682383333333","6500200","三重區"
"241017","063-VK","2017/11/09 20:49:33","新北市三重區民生街30號","121.491763333333","25.06714","6500200","三重區"
"241024","065-VK","2017/11/09 20:49:14","新北市三重區國道路一段58巷20號","121.48126","25.0720033333333","6500200","三重區"
"241026","066-VK","2017/11/09 20:49:21","新北市三重區文化南路8號","121.500105","25.06243","6500200","三重區"
"241002","090-VK","2017/11/09 20:49:30","新北市三重區仁義街157巷24號","121.497625","25.0814116666667","6500200","三重區"
"241001","156-TC","2017/11/09 20:49:29","新北市三重區自強路三段79號","121.487251666667","25.0743866666667","6500200","三重區"
"241005","262-UM","2017/11/09 20:49:21","新北市三重區五華街141巷41號","121.492725","25.0859416666667","6500200","三重區"
"241030","265-UM","2017/11/09 20:49:18","新北市三重區昌隆街26號","121.491986666667","25.052285","6500200","三重區"
"241016","266-UM","2017/11/09 20:49:34","新北市三重區長壽西街49號","121.496066666667","25.0671566666667","6500200","三重區"
"241022","267-UM","2017/11/09 20:49:16","新北市三重區過圳街27-5號","121.488011666667","25.0624116666667","6500200","三重區"
"241018","268-UM","2017/11/09 20:49:20","新北市三重區正義北路291號","121.494993333333","25.0705133333333","6500200","三重區"
"241032","269-UM","2017/11/09 20:49:19","新北市三重區重陽路一段120巷44號","121.485135","25.0601416666667","6500200","三重區"
"241013","270-UM","2017/11/09 20:49:25","新北市三重區仁賢街12-1號","121.495658333333","25.0748733333333","6500200","三重區"
"241025","271-UM","2017/11/09 20:49:31","新北市三重區貴陽街18-1號","121.484201666667","25.0619066666667","6500200","三重區"
"241007","398-BY","2017/11/09 20:49:21","新北市三重區慈愛街10號","121.484558333333","25.078435","6500200","三重區"
"241020","413-TH","2017/11/09 20:49:18","新北市三重區忠孝路一段101號","121.48939","25.072165","6500200","三重區"
"241035","462-BY","2017/11/09 20:49:28","新北市三重區文化北路129號","121.497753333333","25.0689233333333","6500200","三重區"
"241004","475-VK","2017/11/09 20:49:15","新北市三重區溪尾街165巷20號","121.489785","25.080325","6500200","三重區"
"241019","478-VK","2017/11/09 20:49:25","新北市三重區三張街36號","121.49166","25.0711683333333","6500200","三重區"
"241014","543-UM","2017/11/09 20:49:31","新北市三重區萬全街82號","121.501671666667","25.0701883333333","6500200","三重區"
"241023","545-UM","2017/11/09 20:49:30","新北市三重區三民街146巷3弄2號","121.481643333333","25.0646016666667","6500200","三重區"
"241006","AAD-863","2017/11/09 20:49:17","新北市三重區車路頭街139巷14號","121.48432","25.0762233333333","6500200","三重區"
"241003","887-TS","2017/11/09 20:49:32","新北市三重區集賢路87-1號","121.493626666667","25.0867783333333","6500200","三重區"
"241012","941-UM","2017/11/09 20:49:28","新北市三重區仁信街29號","121.501236666667","25.07554","6500200","三重區"
"241029","942-UM","2017/11/09 20:49:14","新北市三重區中正南路187號","121.493678333333","25.055185","6500200","三重區"
"241033","AAC-255","2017/11/09 20:49:19","新北市三重區光復路二段1號","121.472293333333","25.053325","6500200","三重區"
"235069","4980-A6","2017/11/09 20:49:19","新北市中和區連城路467-5號","121.483608333333","24.9959783333333","6500300","中和區"
"235026","800-TS","2017/11/09 20:04:20","新北市中和區員山路36巷16-3號","121.48496","24.9915416666667","6500300","中和區"
"247022","893-R6","2017/11/09 20:49:22","新北市蘆洲區保和街50-1號","121.46947","25.0861683333333","6501400","蘆洲區"
"247012","546-UM","2017/11/09 20:49:17","新北市蘆洲區復興路295號","121.481793333333","25.0902983333333","6501400","蘆洲區"
"247020","500-BY","2017/11/09 20:49:20","新北市蘆洲區仁愛街64號","121.471436666667","25.0938866666667","6501400","蘆洲區"
"247010","339-TH","2017/11/09 20:49:23","新北市蘆洲區鷺江街102號","121.47691","25.0839916666667","6501400","蘆洲區"
"247002","337-TH","2017/11/09 20:49:15","新北市蘆洲區長安街240號","121.457675","25.0858766666667","6501400","蘆洲區"
"247004","336-TH","2017/11/09 20:49:25","新北市蘆洲區長安街97號","121.461708333333","25.0807266666667","6501400","蘆洲區"
"247016","057-VK","2017/11/09 20:49:20","新北市蘆洲區中山二路261號","121.469968333333","25.0796566666667","6501400","蘆洲區"
"247006","056-VK","2017/11/09 20:49:24","新北市蘆洲區永安南路二段76號","121.464668333333","25.0781216666667","6501400","蘆洲區"
"247008","053-VK","2017/11/09 20:49:30","新北市蘆洲區集賢路269巷13號","121.482018333333","25.08339","6501400","蘆洲區"
"247014","007-UY","2017/11/09 20:49:17","新北市蘆洲區三民路33號","121.475425","25.0829983333333","6501400","蘆洲區"
"247024","002-UY","2017/11/09 20:49:23","新北市蘆洲區長樂路140號","121.461995","25.0901316666667","6501400","蘆洲區"
"222001","KEA-2212","2017/11/09 20:49:26","新北市深坑區北深路三段137號","121.603856666667","25.002625","6501800","深坑區"
"251005","010-UM","2017/11/09 20:49:34","新北市淡水區淡金路二段180-1號","121.448263333333","25.1836233333333","6501000","淡水區"
"251007","179-VK","2017/11/09 20:49:26","新北市淡水區學府路102巷66號","121.453498333333","25.17107","6501000","淡水區"
"251008","181-VK","2017/11/09 20:49:26","新北市淡水區下圭柔山90-8號","121.431865","25.2114783333333","6501000","淡水區"
"251014","182-VK","2017/11/09 20:49:27","新北市淡水區公埔子32-8號","121.461803333333","25.2324333333333","6501000","淡水區"
"251010","413-VK","2017/11/09 20:49:22","新北市淡水區沙崙路126號","121.423386666667","25.182915","6501000","淡水區"
"251012","441-VK","2017/11/09 20:49:18","新北市淡水區興仁路140號","121.451616666667","25.2191833333333","6501000","淡水區"
"251016","442-VK","2017/11/09 20:49:27","新北市淡水區淡金路四段469號","121.451751666667","25.2238666666667","6501000","淡水區"
"251001","559-UM","2017/11/09 20:49:28","新北市淡水區淡金路218號","121.460473333333","25.1671666666667","6501000","淡水區"
"251011","650-BX","2017/11/09 20:02:03","新北市淡水區崁頂61號","121.440565","25.20022","6501000","淡水區"
"251002","672-BX","2017/11/09 20:49:35","新北市淡水區英專路37號","121.445553333333","25.1700966666667","6501000","淡水區"
"251003","766-UM","2017/11/09 20:49:19","新北市淡水區中山北路一段207巷52號","121.442356666667","25.1793016666667","6501000","淡水區"
"252002","178-VK","2017/11/09 20:49:11","新北市三芝區淡金路二段76-1號","121.503981666667","25.2609433333333","6502100","三芝區"
"242031","AAC-296","2017/11/09 20:49:27","新北市新莊區中正路508巷5弄2號","121.434931666667","25.0338833333333","6500500","新莊區"
"242029","986-R7","2017/11/09 20:49:16","新北市新莊區中華路二段26-1號","121.45356","25.045125","6500500","新莊區"
"242025","615-BX","2017/11/09 20:49:20","新北市三重區重新路五段656號","121.467038333333","25.0413816666667","6500500","新莊區"
"242027","612-BX","2017/11/09 20:49:34","新北市新莊區環漢路三段531號","121.435343333333","25.0010883333333","6500500","新莊區"
"242039","566-BX","2017/11/09 20:49:21","新北市新莊區瓊林北路15號","121.439253333333","25.02219","6500500","新莊區"
"242048","441-UM","2017/11/09 20:49:27","新北市新莊區建國一路113-1號","121.434873333333","25.0277016666667","6500500","新莊區"
"242042","400-BY","2017/11/09 20:49:26","新北市新莊區天祥街10號","121.417375","25.02704","6500500","新莊區"
"242061","362-BY","2017/11/09 20:49:17","新北市新莊區新樹路699巷102-1號","121.43275","24.999725","6500500","新莊區"
"242007","132-UY","2017/11/09 20:49:33","新北市新莊區瓊林路59-90號","121.441466666667","25.021815","6500500","新莊區"
"242036","133-UY","2017/11/09 20:49:25","新北市新莊區中正路529號","121.439461666667","25.03335","6500500","新莊區"
"242009","173-VK","2017/11/09 20:49:26","新北市新莊區幸福路562號","121.454525","25.0493566666667","6500500","新莊區"
"242001","233-RS","2017/11/09 09:13:50","新北市新莊區環河路48-7號","121.436898333333","25.009815","6500500","新莊區"
"242034","348-TH","2017/11/09 20:49:26","新北市新莊區新泰路3巷1號","121.449795","25.03227","6500500","新莊區"
"242056","349-TH","2017/11/09 20:49:26","新北市新莊區環河路508號","121.4385","25.0160366666667","6500500","新莊區"
"242011","351-TH","2017/11/09 20:49:23","新北市新莊區新泰路357巷3弄57號","121.442","25.039365","6500500","新莊區"
"221036","130-UY","2017/11/09 20:49:24","新北市汐止區南昌街45號","121.663126666667","25.0685516666667","6501100","汐止區"
"221015","131-UY","2017/11/09 20:49:25","新北市汐止區大同路二段599號","121.663868333333","25.0705766666667","6501100","汐止區"
"221012","276-VK","2017/11/09 13:26:11","新北市汐止區汐萬路一段256巷3號","121.653455","25.0746316666667","6501100","汐止區"
"221027","281-BY","2017/11/09 20:49:19","新北市汐止區大同路二段391號","121.657796666667","25.0672433333333","6501100","汐止區"
"221029","298-VK","2017/11/09 20:49:36","新北市汐止區樟樹二路339巷18號","121.641901666667","25.0717116666667","6501100","汐止區"
"221021","299-VK","2017/11/09 20:49:03","新北市汐止區新台五路一段212-1號","121.655726666667","25.0629666666667","6501100","汐止區"
"221031","353-TW","2017/11/09 20:49:13","新北市汐止區福德一路10號","121.638911666667","25.0695583333333","6501100","汐止區"
"221002","358-BY","2017/11/09 20:49:27","新北市汐止區福德二路169號","121.630836666667","25.0651633333333","6501100","汐止區"
"221035","622-UM","2017/11/09 20:49:22","新北市汐止區汐萬路一段312號","121.650476666667","25.0750083333333","6501100","汐止區"
"221038","646-BX","2017/11/09 20:49:27","新北市汐止區汐萬路一段256巷1號","121.652011666667","25.074775","6501100","汐止區"
"221033","647-BX","2017/11/09 20:49:34","新北市汐止區合順街18巷8弄5號","121.620315","25.0418983333333","6501100","汐止區"
"221018","753-BX","2017/11/09 20:49:22","新北市汐止區中華街71號","121.668056666667","25.0710333333333","6501100","汐止區"
"220089","487-VK","2017/11/09 20:49:25","新北市五股區孝義路9-18號","121.449455","25.106975","6500100","板橋區"
"242019","280-VK","2017/11/09 20:49:29","新北市新莊區銘德街139號","121.454758333333","25.042895","6500500","新莊區"
"220070","AAC-253","2017/11/09 20:49:20","新北市八里區中山路三段132號","121.385343333333","25.1452333333333","6500100","板橋區"
