"lineid","car","time","location","longitude","latitude","cityid","cityname"
"231007","189-VK","2017/09/23 10:29:33","新北市新店區小坑三路51-1號","121.515155","24.9093033333333","6500600","新店區"
"231008","192-VK","2017/09/23 10:29:40","新北市新店區小坑一路21-1號","121.53216","24.9124883333333","6500600","新店區"
"223002","198-BX","2017/09/23 08:59:32","新北市石碇區小粗坑(潭邊里)6號","121.675261666667","24.9845966666667","6501900","石碇區"
"227006","282-VK","2017/09/23 10:29:30","新北市雙溪區平林里外平林17號","121.856781666667","25.0373683333333","6502500","雙溪區"
"253003","6232-TK","2017/09/23 10:29:25","新北市石門區小坑9號","121.594048333333","25.2886683333333","6502200","石門區"
"253005","6251-TK","2017/09/23 10:29:24","新北市石門區小坑12-8號","121.594845","25.2855866666667","6502200","石門區"
"253004","8270-PC","2017/09/23 10:29:30","新北市石門區小坑9號","121.594498333333","25.2891933333333","6502200","石門區"
"252007","AAC-283","2017/09/23 10:29:24","新北市三芝區新庄里番社后24-1號","121.500676666667","25.2725283333333","6502100","三芝區"
"237001","159-UY","2017/09/23 10:29:20","新北市林口區下福里99-101號","121.28526","25.11667","6500900","三峽區"
