"lineid","car","time","location","longitude","latitude","cityid","cityname"
"231007","189-VK","2017/09/23 10:39:34","新北市新店區新潭路三段81巷1號","121.505278333333","24.9109","6500600","新店區"
"231008","192-VK","2017/09/23 10:35:00","新北市新店區小坑一路35巷2號","121.528168333333","24.908255","6500600","新店區"
"227006","282-VK","2017/09/23 10:39:30","新北市雙溪區新基里新基東街15-2號","121.87249","25.0419833333333","6502500","雙溪區"
"252007","AAC-283","2017/09/23 10:39:24","新北市三芝區埔頭里埔頭48號","121.501221666667","25.2625833333333","6502100","三芝區"
"237001","159-UY","2017/09/23 10:39:20","新北市林口區太平里180號","121.366698333333","25.1337666666667","6500900","三峽區"
