"lineid","car","time","location","longitude","latitude","cityid","cityname"
"234044","148-BY","2017/09/23 14:09:29","新北市永和區得和路397號","121.525578333333","24.999315","6500400","永和區"
"234012","149-BY","2017/09/23 14:09:39","新北市永和區永貞路405號","121.507703333333","25.009175","6500400","永和區"
"234005","208-UY","2017/09/23 14:09:39","新北市中和區保平路346號","121.506635","25.0041016666667","6500400","永和區"
"234078","298-R6","2017/09/23 14:09:32","新北市永和區國中路109巷3弄1號","121.523943333333","25.005615","6500400","永和區"
"234036","336-UY","2017/09/23 14:09:22","新北市永和區成功路一段45號","121.527131666667","25.0041583333333","6500400","永和區"
"234062","337-UY","2017/09/23 14:09:32","新北市永和區永利路152號","121.522465","25.0028166666667","6500400","永和區"
"234084","338-UY","2017/09/23 14:09:20","新北市永和區福和路220號","121.519305","25.0077783333333","6500400","永和區"
"234068","552-UM","2017/09/23 14:09:31","新北市永和區大新街69巷1號","121.517131666667","25.00824","6500400","永和區"
"234052","553-UM","2017/09/23 14:09:23","新北市永和區博愛街37號","121.518631666667","25.0159216666667","6500400","永和區"
"234015","745-BX","2017/09/23 14:09:37","新北市永和區仁愛路26巷2號","121.514796666667","25.0137333333333","6500400","永和區"
"234028","746-BX","2017/09/23 14:09:28","新北市永和區民權路47號","121.520156666667","24.9971916666667","6500400","永和區"
"234060","AAD-866","2017/09/23 14:09:41","新北市永和區得和路13巷2弄2號","121.515411666667","25.0007","6500400","永和區"
"234040","862-TW","2017/09/23 14:09:35","新北市永和區雙和街64巷9號","121.509383333333","25.0034066666667","6500400","永和區"
"234048","863-TW","2017/09/23 14:09:28","新北市永和區環河西路二段85號","121.506611666667","25.0151016666667","6500400","永和區"
"234025","9371-KE","2017/09/23 14:09:32","新北市永和區安樂路270號","121.514521666667","25.0040316666667","6500400","永和區"
"234010","9373-KE","2017/09/23 14:09:34","新北市永和區仁愛路352巷122弄33號","121.500813333333","25.0092033333333","6500400","永和區"
"248017","225-UY","2017/09/23 14:09:26","新北市五股區壟路1號","121.420098333333","25.09619","6501500","五股區"
"234022","9380-KE","2017/09/23 14:09:27","新北市永和區竹林路37號","121.517865","25.0143016666667","6500400","永和區"
"234076","969-R7","2017/09/23 14:09:28","新北市永和區民族街67巷7號","121.518805","24.9973433333333","6500400","永和區"
"234072","AAC-211","2017/09/23 14:09:38","新北市永和區竹林路201巷22弄1號","121.522036666667","25.0093633333333","6500400","永和區"
"234066","AAC-212","2017/09/23 14:09:39","新北市永和區保平路236巷12弄4號","121.50871","25.0065133333333","6500400","永和區"
"234001","AAC-295","2017/09/23 14:09:20","新北市永和區中正路708號","121.515986666667","25.0099583333333","6500400","永和區"
"231002","002-UM","2017/09/23 14:09:33","新北市新店區中正路522號","121.533781666667","24.9837866666667","6500600","新店區"
"231028","046-UY","2017/09/23 14:09:33","新北市新店區安和路二段211號","121.517748333333","24.9754983333333","6500600","新店區"
"231030","047-UY","2017/09/23 14:09:24","新北市新店區安民街65巷21-2號","121.515213333333","24.9674033333333","6500600","新店區"
"231029","106-UY","2017/09/23 14:09:40","新北市新店區安康路二段202-1號","121.510328333333","24.9597033333333","6500600","新店區"
"231018","107-UY","2017/09/23 14:09:37","新北市新店區中央五街21號","121.529331666667","24.974575","6500600","新店區"
"231012","108-UY","2017/09/23 14:09:22","新北市新店區五峰路63巷8弄44號","121.548003333333","24.9687483333333","6500600","新店區"
"231020","187-VK","2017/09/23 14:09:26","新北市新店區屈尺路75號","121.545845","24.9226466666667","6500600","新店區"
"231017","215-TC","2017/09/23 14:09:33","新北市新店區北宜路二段150-1號","121.557803333333","24.953995","6500600","新店區"
"231026","256-BX","2017/09/23 14:09:22","新北市新店區安康路一段355號","121.519635","24.9630383333333","6500600","新店區"
"231034","268-BY","2017/09/23 14:09:33","新北市新店區黎明路3號","121.503373333333","24.95238","6500600","新店區"
"231027","3712-VJ","2017/09/23 14:09:38","新北市新店區北新路一段2-19號","121.538668333333","24.9599883333333","6500600","新店區"
"231025","4716-K9","2017/09/23 14:09:19","新北市新店區中正路328巷31號","121.537611666667","24.9759533333333","6500600","新店區"
"231038","4715-K9","2017/09/23 14:09:31","新北市新店區溪洲路121號","121.530993333333","24.9629516666667","6500600","新店區"
"231036","512-UM","2017/09/23 14:09:38","新北市新店區安祥路109巷69號","121.477423333333","24.96","6500600","新店區"
"231023","513-UM","2017/09/23 14:09:23","新北市新店區文中路31號","121.538821666667","24.957025","6500600","新店區"
"231035","515-UM","2017/09/23 14:09:37","新北市新店區安和路二段1-1號","121.517863333333","24.966855","6500600","新店區"
"231006","617-UM","2017/09/23 14:09:29","新北市新店區北宜路二段204號","121.559148333333","24.95435","6500600","新店區"
"231001","619-UM","2017/09/23 14:09:36","新北市新店區中華路52號","121.539581666667","24.9686316666667","6500600","新店區"
"231003","641-BX","2017/09/23 14:09:32","新北市新店區中興路一段136號","121.542078333333","24.963415","6500600","新店區"
"231013","719-UM","2017/09/23 14:09:28","新北市新店區北新路三段65巷34弄21號","121.539956666667","24.9815866666667","6500600","新店區"
"231033","720-UM","2017/09/23 14:09:22","新北市新店區溪洲路25號","121.534058333333","24.95965","6500600","新店區"
"231005","897-TW","2017/09/23 14:09:36","新北市新店區中興路三段255號","121.542445","24.9843416666667","6500600","新店區"
"231004","899-TW","2017/09/23 14:09:38","新北市新店區北新路二段156號","121.54298","24.9754633333333","6500600","新店區"
"231037","AKT-0513","2017/09/23 14:09:26","新北市新店區安康路二段341巷13號","121.497031666667","24.95482","6500600","新店區"
"235030","003-UY","2017/09/23 14:09:30","新北市中和區廣福路34號","121.504536666667","25.0023","6500300","中和區"
"235028","005-UY","2017/09/23 14:09:22","新北市中和區泰和街36號","121.49926","25.00012","6500300","中和區"
"235027","006-UY","2017/09/23 14:09:36","新北市中和區連城路249巷17弄1號","121.49377","24.99654","6500300","中和區"
"235020","096-UM","2017/09/23 14:09:37","新北市中和區員山路573號","121.47947","25.0078283333333","6500300","中和區"
"235003","097-UM","2017/09/23 14:09:20","新北市中和區秀峰街38號","121.521365","24.9903216666667","6500300","中和區"
"235029","098-UM","2017/09/23 14:09:31","新北市中和區中山路二段64巷3號","121.503681666667","25.0049333333333","6500300","中和區"
"235004","150-BY","2017/09/23 14:09:23","新北市中和區保健路44巷28號","121.508845","24.996525","6500300","中和區"
"235019","183-VK","2017/09/23 14:09:34","新北市中和區德光路111號","121.468171666667","25.0032483333333","6500300","中和區"
"235002","185-VK","2017/09/23 14:09:31","新北市中和區立人街24-5號","121.518871666667","24.9941233333333","6500300","中和區"
"235013","186-VK","2017/09/23 14:09:27","新北市中和區景安路139號","121.50574","24.9955883333333","6500300","中和區"
"235031","255-BX","2017/09/23 14:09:33","新北市中和區新生街191號","121.483731666667","25.0002516666667","6500300","中和區"
"235008","293-VK","2017/09/23 14:09:25","新北市中和區中興街178號","121.49958","24.990935","6500300","中和區"
"235036","301-VK","2017/09/23 14:09:36","新北市中和區中山路二段257號","121.497343333333","25.0023516666667","6500300","中和區"
"235032","375-QA","2017/09/23 14:09:29","新北市中和區圓通路158巷1弄3號","121.497386666667","24.995805","6500300","中和區"
"235015","376-QA","2017/09/23 14:09:35","新北市中和區景新街359號","121.512088333333","24.9907883333333","6500300","中和區"
"235025","378-QA","2017/09/23 14:09:20","新北市中和區中山路三段63巷11弄2號","121.477215","25.0041166666667","6500300","中和區"
"235014","4979-A6","2017/09/23 14:09:28","新北市中和區景安路208巷19號","121.503113333333","24.9914483333333","6500300","中和區"
"235033","4980-A6","2017/09/23 14:09:36","新北市中和區景平路738號","121.4968","25.00408","6500300","中和區"
"235006","551-UM","2017/09/23 14:09:21","新北市中和區自立路117巷1號","121.522325","24.9945216666667","6500300","中和區"
"235070","558-UM","2017/09/23 14:09:28","新北市中和區中和路212號","121.506088333333","24.99962","6500300","中和區"
"235009","565-BX","2017/09/23 14:09:29","新北市中和區景新街467巷38弄2號","121.514541666667","24.9885833333333","6500300","中和區"
"235007","611-BX","2017/09/23 14:09:29","新北市中和區景平路2號","121.524581666667","24.9904366666667","6500300","中和區"
"235018","640-BX","2017/09/23 14:09:21","新北市中和區國光街107巷2弄32號","121.469266666667","24.999055","6500300","中和區"
"235024","647-TV","2017/09/23 14:09:35","新北市中和區中山路三段120號","121.475171666667","25.006405","6500300","中和區"
"235011","732-UM","2017/09/23 14:09:21","新北市中和區興南路一段56巷4號","121.510723333333","24.990865","6500300","中和區"
"235010","733-UM","2017/09/23 14:09:37","新北市中和區忠孝街1巷8號","121.508758333333","24.9834833333333","6500300","中和區"
"235026","800-TS","2017/09/23 14:09:28","新北市中和區中山路二段406號","121.490161666667","25.00375","6500300","中和區"
"235021","801-TS","2017/09/23 14:09:38","新北市中和區民利街68巷5弄40號","121.477345","24.99873","6500300","中和區"
"235005","802-TS","2017/09/23 14:09:36","新北市中和區中安街104-1號","121.511661666667","25.0011633333333","6500300","中和區"
"235016","805-TS","2017/09/23 14:09:25","新北市中和區興南路二段114巷6號","121.504095","24.984405","6500300","中和區"
"235012","896-TW","2017/09/23 14:09:26","新北市中和區華新街143巷71弄15號","121.508308333333","24.9789","6500300","中和區"
"235017","900-TW","2017/09/23 14:09:32","新北市中和區華福街51號","121.466555","24.9967383333333","6500300","中和區"
"235001","AAC-213","2017/09/23 14:09:29","新北市中和區秀朗路三段60巷43號","121.524958333333","24.99487","6500300","中和區"
"235023","AAC-215","2017/09/23 14:09:32","新北市中和區圓通路294巷15號","121.488691666667","24.9901916666667","6500300","中和區"
"220016","013-TV","2017/09/23 14:09:33","新北市板橋區萬安街161號","121.482805","25.0262716666667","6500100","板橋區"
"220013","072-UY","2017/09/23 14:09:38","新北市板橋區民族路219巷20號","121.469348333333","25.0081166666667","6500100","板橋區"
"220034","073-UY","2017/09/23 14:09:29","新北市板橋區中正路236巷31號","121.457293333333","25.0193683333333","6500100","板橋區"
"220105","075-UY","2017/09/23 14:09:30","新北市板橋區雙十路三段9號","121.471535","25.0300633333333","6500100","板橋區"
"220017","AAD-861","2017/09/23 14:09:28","新北市板橋區四川路一段104號","121.459518333333","25.0045966666667","6500100","板橋區"
"247021","893-R6","2017/09/23 14:09:35","新北市蘆洲區三民路152號","121.470418333333","25.0879766666667","6501400","蘆洲區"
"247011","546-UM","2017/09/23 14:09:30","新北市蘆洲區信義路276號","121.477916666667","25.0871016666667","6501400","蘆洲區"
"247019","500-BY","2017/09/23 14:09:25","新北市蘆洲區仁愛街6號","121.472776666667","25.0923733333333","6501400","蘆洲區"
"247009","339-TH","2017/09/23 14:09:25","新北市蘆洲區三民路50號","121.475593333333","25.0832716666667","6501400","蘆洲區"
"247001","337-TH","2017/09/23 14:09:22","新北市蘆洲區永平街62號","121.457345","25.0917783333333","6501400","蘆洲區"
"247003","336-TH","2017/09/23 14:09:24","新北市蘆洲區中原路18號","121.460176666667","25.0833683333333","6501400","蘆洲區"
"247015","057-VK","2017/09/23 14:07:28","新北市蘆洲區中正路195號","121.468296666667","25.085585","6501400","蘆洲區"
"247005","056-VK","2017/09/23 14:09:39","新北市蘆洲區九芎街153巷33號","121.466405","25.0784816666667","6501400","蘆洲區"
"247007","053-VK","2017/09/23 14:09:20","新北市蘆洲區中山一路262號","121.471853333333","25.0797733333333","6501400","蘆洲區"
"247013","007-UY","2017/09/23 14:09:32","新北市蘆洲區忠孝路92號","121.471476666667","25.0858533333333","6501400","蘆洲區"
"247023","002-UY","2017/09/23 14:09:33","新北市蘆洲區光榮路88號","121.463598333333","25.0888966666667","6501400","蘆洲區"
"247017","001-UY","2017/09/23 14:09:29","新北市蘆洲區民族路201巷30號","121.47707","25.0889916666667","6501400","蘆洲區"
"228005","097-TW","2017/09/23 14:09:35","新北市貢寮區美豐里土地公嶺24號","121.890911666667","25.0635516666667","6502600","貢寮區"
"228004","212-TW","2017/09/23 14:09:32","新北市貢寮區雙玉里下雙溪街10-3號","121.915261666667","25.0137016666667","6502600","貢寮區"
"208004","AAC-292","2017/09/23 14:09:23","新北市金山區六股里下六股65號","121.614443333333","25.22365","6502700","金山區"
"251005","010-UM","2017/09/23 14:09:21","新北市淡水區中正路8巷2-1號","121.441773333333","25.1698916666667","6501000","淡水區"
"207002","749-BX","2017/09/23 14:08:47","新北市萬里區溪底里瑞泉路1號","121.61083","25.1459933333333","6502800","萬里區"
"252005","073-UM","2017/09/23 14:09:31","新北市三芝區橫山里橫山21號","121.540068333333","25.2626333333333","6502100","三芝區"
"207001","662-BX","2017/09/23 14:09:32","新北市萬里區磺潭里清水18號","121.637945","25.19774","6502800","萬里區"
"236068","105-UM","2017/09/23 14:09:26","新北市土城區明德路一段385-1號","121.452705","24.9797683333333","6501300","土城區"
"236041","107-UM","2017/09/23 14:09:23","新北市土城區裕生路61號","121.447723333333","24.9860916666667","6501300","土城區"
"236075","166-UM","2017/09/23 14:09:19","新北市土城區永寧路32巷4號","121.429141666667","24.9607183333333","6501300","土城區"
"236029","253-BX","2017/09/23 14:09:21","新北市土城區城林路6巷80號","121.43839","24.9798766666667","6501300","土城區"
"236025","269-VK","2017/09/23 14:09:33","新北市土城區承天路18號","121.43952","24.9634816666667","6501300","土城區"
"236013","270-VK","2017/09/23 14:09:31","新北市土城區學府路一段72號","121.456658333333","24.9882666666667","6501300","土城區"
"236035","271-VK","2017/09/23 14:09:30","新北市土城區青雲路369-2號","121.458818333333","24.9754433333333","6501300","土城區"
"236017","401-BY","2017/09/23 14:09:33","新北市土城區城林路6巷80號","121.438693333333","24.9797616666667","6501300","土城區"
"236006","498-BY","2017/09/23 14:09:36","新北市土城區中華路一段36號","121.446365","24.989375","6501300","土城區"
"236057","912-UM","2017/09/23 14:09:30","新北市土城區中央路四段22號","121.421036666667","24.9609783333333","6501300","土城區"
"236045","913-UM","2017/09/23 14:09:26","新北市土城區明德路一段398-1號","121.453601666667","24.9791483333333","6501300","土城區"
"236061","915-UM","2017/09/23 14:09:33","新北市土城區延壽路32-6號","121.470945","24.9912966666667","6501300","土城區"
"236054","AAC-216","2017/09/23 14:09:34","新北市土城區中央路二段280號","121.440808333333","24.97403","6501300","土城區"
"221012","276-VK","2017/09/23 13:23:13","新北市汐止區汐萬路一段256巷3號","121.653461666667","25.0746366666667","6501100","汐止區"
"220027","145-BY","2017/09/23 14:09:36","新北市板橋區民權路260巷33號","121.458986666667","25.0153033333333","6500100","板橋區"
"220028","200-UY","2017/09/23 14:09:31","新北市板橋區大觀路二段7巷69-3號","121.449255","25.00327","6500100","板橋區"
"220030","610-BX","2017/09/23 14:09:29","新北市板橋區大觀路三段271號","121.428826666667","24.9926183333333","6500100","板橋區"
"220050","245-BX","2017/09/23 14:09:35","新北市板橋區莊敬路166號","121.471533333333","25.0225533333333","6500100","板橋區"
"220004","276-BY","2017/09/23 14:09:32","新北市板橋區信義路110巷1弄1-1號","121.458008333333","24.99231","6500100","板橋區"
"220020","277-BY","2017/09/23 14:09:31","新北市板橋區金門街369巷57弄7號","121.429346666667","24.984105","6500100","板橋區"
"220012","280-UM","2017/09/23 14:09:26","新北市板橋區板新路88號","121.472566666667","25.0144283333333","6500100","板橋區"
"220043","283-UM","2017/09/23 14:09:31","新北市板橋區光武街151號","121.46558","25.0294583333333","6500100","板橋區"
"220019","283-VK","2017/09/23 14:09:28","新北市板橋區重慶路269巷59-2號","121.465043333333","24.9988066666667","6500100","板橋區"
"220001","285-VK","2017/09/23 14:09:19","新北市板橋區懷仁街34巷10號","121.476105","25.0192033333333","6500100","板橋區"
"220031","286-VK","2017/09/23 14:09:38","新北市板橋區大觀路二段174巷173弄6號","121.441665","25.0038166666667","6500100","板橋區"
"220029","287-VK","2017/09/23 13:34:35","新北市板橋區華東街1-10號","121.44833","24.9951766666667","6500100","板橋區"
"220039","288-VK","2017/09/23 14:09:32","新北市板橋區四維路291巷3號","121.461743333333","25.0283166666667","6500100","板橋區"
"220009","293-UM","2017/09/23 14:09:24","新北市板橋區三民路二段29巷9弄38號","121.48066","25.018145","6500100","板橋區"
"220023","297-UM","2017/09/23 14:09:40","新北市板橋區大智街25巷34號","121.454093333333","25.01495","6500100","板橋區"
"220010","303-R5","2017/09/23 14:09:37","新北市板橋區三民路二段居仁巷2號","121.479351666667","25.0130616666667","6500100","板橋區"
"220041","307-R5","2017/09/23 14:09:31","新北市板橋區文化路二段225巷60弄12號","121.469263333333","25.0287916666667","6500100","板橋區"
"220047","317-R6","2017/09/23 14:09:31","新北市板橋區四維路103巷12號","121.464726666667","25.024135","6500100","板橋區"
"220038","487-VK","2017/09/23 14:09:28","新北市板橋區文化路二段347號","121.47278","25.0305316666667","6500100","板橋區"
"220037","491-VK","2017/09/23 14:09:32","新北市板橋區文化路二段182巷5弄11號","121.471886666667","25.027445","6500100","板橋區"
"220104","560-BX","2017/09/23 14:09:19","新北市板橋區中正路360巷48號","121.456206666667","25.0228033333333","6500100","板橋區"
"220052","561-BX","2017/09/23 14:09:33","新北市板橋區文化路一段188巷9弄39號","121.469296666667","25.01918","6500100","板橋區"
"220032","568-UM","2017/09/23 14:09:26","新北市板橋區篤行路一段16號","121.431356666667","24.9955466666667","6500100","板橋區"
"220011","609-BX","2017/09/23 14:09:35","新北市板橋區三民路二段169號","121.47914","25.0144383333333","6500100","板橋區"
"220040","637-BX","2017/09/23 14:09:34","新北市板橋區萬板路518號","121.48071","25.0263566666667","6500100","板橋區"
"220005","686-BX","2017/09/23 14:09:34","新北市板橋區重慶路293-1號","121.463315","24.9991066666667","6500100","板橋區"
"220025","687-BX","2017/09/23 14:09:32","新北市板橋區龍興街48號","121.443246666667","25.0009016666667","6500100","板橋區"
"220042","689-BX","2017/09/23 14:09:24","新北市板橋區民生路三段251號","121.464415","25.0290533333333","6500100","板橋區"
"220002","741-BX","2017/09/23 14:09:22","新北市板橋區實踐路38號","121.463603333333","25.0067516666667","6500100","板橋區"
"220003","827-TW","2017/09/23 14:09:36","新北市板橋區新民街4巷1號","121.464191666667","25.0103733333333","6500100","板橋區"
"220014","829-TW","2017/09/23 14:09:39","新北市板橋區民生路一段30號","121.475828333333","25.0131716666667","6500100","板橋區"
"220051","830-TW","2017/09/23 14:09:28","新北市板橋區萬板路818巷9號","121.483053333333","25.0267683333333","6500100","板橋區"
"220045","831-TW","2017/09/23 14:09:21","新北市板橋區大同街2號","121.476861666667","25.0267566666667","6500100","板橋區"
"220022","895-R6","2017/09/23 14:09:33","新北市板橋區林園街42-2號","121.45368","25.0103","6500100","板橋區"
"220021","985-R7","2017/09/23 14:09:29","新北市板橋區民權路252號","121.458368333333","25.0147016666667","6500100","板橋區"
"220046","AAC-210","2017/09/23 14:09:31","新北市板橋區新生街98巷16號","121.458918333333","25.0217033333333","6500100","板橋區"
"220018","AAC-253","2017/09/23 14:09:26","新北市板橋區四川路一段353號","121.45839","24.9998733333333","6500100","板橋區"
