"lineid","car","time","location","longitude","latitude","cityid","cityname"
"249002","305-UY","2017/09/23 16:19:24","新北市八里區挖子尾街12號","121.415475","25.1644483333333","6502300","八里區"
"231018","107-UY","2017/09/23 16:19:37","新北市新店區中正路694巷15號","121.535368333333","24.9909233333333","6500600","新店區"
"231046","278-BY","2017/09/23 16:19:29","新北市新店區灣潭路3-2號","121.53829","24.950845","6500600","新店區"
"241011","013-R5","2017/09/23 16:19:30","新北市三重區龍門路142號","121.498335","25.0730166666667","6500200","三重區"
"241028","022-UY","2017/09/23 16:19:20","新北市三重區同安東街78號","121.498588333333","25.0574516666667","6500200","三重區"
"241009","060-VK","2017/09/23 16:19:36","新北市三重區溪尾街267號","121.4877","25.0819633333333","6500200","三重區"
"241031","061-VK","2017/09/23 16:19:26","新北市三重區重陽路一段51號","121.486731666667","25.0582316666667","6500200","三重區"
"241015","062-VK","2017/09/23 16:19:25","新北市三重區福德北路89號","121.50205","25.0661833333333","6500200","三重區"
"241017","063-VK","2017/09/23 16:19:21","新北市三重區大同北路91號","121.494676666667","25.0636516666667","6500200","三重區"
"241024","065-VK","2017/09/23 16:19:36","新北市三重區中正北路157號","121.482316666667","25.0676583333333","6500200","三重區"
"241026","066-VK","2017/09/23 16:19:28","新北市三重區正義南路38號","121.49823","25.060965","6500200","三重區"
"241002","090-VK","2017/09/23 16:19:35","新北市三重區仁義街101巷26號","121.499005","25.0798866666667","6500200","三重區"
"241003","091-VK","2017/09/23 16:19:17","新北市三重區五華街63巷15號","121.493705","25.0832316666667","6500200","三重區"
"241005","262-UM","2017/09/23 16:19:36","新北市三重區溪尾街305號","121.487566666667","25.0838033333333","6500200","三重區"
"241016","266-UM","2017/09/23 16:19:25","新北市三重區大仁街86號","121.49284","25.065445","6500200","三重區"
"241022","267-UM","2017/09/23 16:19:33","新北市三重區新北大道一段7號","121.48968","25.0616683333333","6500200","三重區"
"241013","270-UM","2017/09/23 16:19:30","新北市三重區龍門路42號","121.496106666667","25.0725916666667","6500200","三重區"
"241025","271-UM","2017/09/23 16:19:30","新北市三重區中正北路560巷100弄2號","121.4724","25.0682516666667","6500200","三重區"
"241007","398-BY","2017/09/23 16:19:23","新北市三重區仁美街83號","121.48608","25.079515","6500200","三重區"
"241020","413-TH","2017/09/23 16:19:32","新北市三重區車路頭街17巷5號","121.484245","25.0705266666667","6500200","三重區"
"241004","475-VK","2017/09/23 16:19:36","新北市三重區五華街74號","121.4935","25.0820016666667","6500200","三重區"
"241019","478-VK","2017/09/23 16:19:32","新北市三重區自強路二段24號","121.489625","25.06922","6500200","三重區"
"241030","480-VK","2017/09/23 16:19:20","新北市三重區重新路四段121號","121.4848","25.0524983333333","6500200","三重區"
"241023","545-UM","2017/09/23 16:19:38","新北市三重區忠孝路三段1號","121.481943333333","25.0677516666667","6500200","三重區"
"241001","547-UM","2017/09/23 16:19:31","新北市三重區自強路四段77號","121.490671666667","25.0789116666667","6500200","三重區"
"241006","AAD-863","2017/09/23 16:19:39","新北市三重區永福街46巷27號","121.48195","25.0775283333333","6500200","三重區"
"241018","887-TS","2017/09/23 16:19:24","新北市三重區重陽路三段7-3號","121.48913","25.066695","6500200","三重區"
"241012","941-UM","2017/09/23 16:19:38","新北市三重區河邊北街317號","121.50243","25.0749416666667","6500200","三重區"
"241029","942-UM","2017/09/23 16:19:28","新北市三重區泉州街84巷8號","121.495281666667","25.054575","6500200","三重區"
"241033","AAC-255","2017/09/23 16:19:25","新北市三重區五谷王南街8號","121.474801666667","25.0469633333333","6500200","三重區"
"235062","800-TS","2017/09/23 15:40:49","新北市中和區員山路36巷16-3號","121.484791666667","24.9915666666667","6500300","中和區"
"247001","402-BY","2017/09/23 16:19:04","新北市五股區中興路三段3-6號","121.449721666667","25.0787783333333","6501400","蘆洲區"
"247018","001-UY","2017/09/23 14:44:06","新北市五股區中興路三段163號","121.449333333333","25.0809616666667","6501400","蘆洲區"
"228003","097-TW","2017/09/23 15:10:30","新北市貢寮區貢寮里朝陽街1-2號","121.91235","25.0212866666667","6502600","貢寮區"
"224008","275-VK","2017/09/23 16:19:26","新北市瑞芳區中山路44號","121.80347","25.1063266666667","6501200","瑞芳區"
"224007","273-VK","2017/09/23 16:19:30","新北市瑞芳區大埔路220號","121.76091","25.1022333333333","6501200","瑞芳區"
"224005","271-BY","2017/09/23 16:18:45","新北市瑞芳區岳王路90-1號","121.81092","25.111415","6501200","瑞芳區"
"227010","642-TC","2017/09/23 16:19:22","新北市雙溪區三港里雙澳路80號","121.883801666667","25.053865","6502500","雙溪區"
"227002","400-TW","2017/09/23 16:19:35","新北市雙溪區上林里內平林80號","121.828366666667","25.0279883333333","6502500","雙溪區"
"251008","181-VK","2017/09/23 16:19:26","新北市淡水區中正東路二段48巷20號","121.457661666667","25.1582916666667","6501000","淡水區"
"221012","276-VK","2017/09/23 13:23:13","新北市汐止區汐萬路一段256巷3號","121.653461666667","25.0746366666667","6501100","汐止區"
"220050","245-BX","2017/09/23 16:19:28","新北市八里區商港路10號","121.396883333333","25.1442466666667","6500100","板橋區"
"220010","303-R5","2017/09/23 16:19:33","新北市樹林區水源街81號","121.426321666667","24.979155","6500100","板橋區"
