"lineid","car","time","location","longitude","latitude","cityid","cityname"
"249005","172-UM","2017/09/23 16:39:28","新北市八里區仁愛路10號","121.413336666667","25.1623983333333","6502300","八里區"
"249001","173-UM","2017/09/23 16:39:20","新北市八里區挖子尾街12號","121.415328333333","25.16425","6502300","八里區"
"249002","305-UY","2017/09/23 16:39:24","新北市八里區大堀湖8-2號","121.426153333333","25.1505183333333","6502300","八里區"
"249003","593-UM","2017/09/23 16:39:21","新北市八里區挖子尾街6號","121.415505","25.16424","6502300","八里區"
"231046","278-BY","2017/09/23 16:39:28","新北市新店區灣潭路48-1號","121.542968333333","24.94426","6500600","新店區"
"241011","013-R5","2017/09/23 16:39:30","新北市三重區仁愛街43巷12號","121.497243333333","25.07184","6500200","三重區"
"241028","022-UY","2017/09/23 16:39:20","新北市三重區中正南路32號","121.493735","25.0601983333333","6500200","三重區"
"241009","060-VK","2017/09/23 16:39:35","新北市三重區三和路四段203巷86號","121.484036666667","25.0800933333333","6500200","三重區"
"241031","061-VK","2017/09/23 16:39:26","新北市三重區重新路四段39-4號","121.487951666667","25.0578816666667","6500200","三重區"
"241015","062-VK","2017/09/23 16:39:27","新北市三重區文化北路37-2號","121.498951666667","25.065125","6500200","三重區"
"241017","063-VK","2017/09/23 16:39:21","新北市三重區中正北路25巷25弄3號","121.49326","25.06263","6500200","三重區"
"241024","065-VK","2017/09/23 16:39:36","新北市三重區中正北路315巷6弄70號","121.47659","25.07254","6500200","三重區"
"241026","066-VK","2017/09/23 16:39:28","新北市三重區福和街1號","121.502915","25.0617966666667","6500200","三重區"
"241002","090-VK","2017/09/23 16:39:35","新北市三重區自強路五段109號","121.495783333333","25.0825033333333","6500200","三重區"
"241003","091-VK","2017/09/23 16:39:37","新北市三重區五華街71巷9號","121.492866666667","25.083045","6500200","三重區"
"241008","156-TC","2017/09/23 16:39:38","新北市三重區永安北路一段17巷26號","121.477638333333","25.07528","6500200","三重區"
"241005","262-UM","2017/09/23 16:39:36","新北市三重區碧華街180號","121.48594","25.08206","6500200","三重區"
"241016","266-UM","2017/09/23 16:39:25","新北市三重區大智街60號","121.494368333333","25.065425","6500200","三重區"
"241022","267-UM","2017/09/23 16:39:33","新北市三重區新北大道一段142號","121.484543333333","25.061565","6500200","三重區"
"241032","269-UM","2017/09/23 16:39:26","新北市三重區中山路40巷1-1號","121.485781666667","25.061255","6500200","三重區"
"241013","270-UM","2017/09/23 16:39:30","新北市三重區三和路三段101巷32號","121.49509","25.0728383333333","6500200","三重區"
"241025","271-UM","2017/09/23 16:39:30","新北市三重區中正北路428巷9號","121.474543333333","25.0703066666667","6500200","三重區"
"241007","398-BY","2017/09/23 16:39:23","新北市三重區三和路四段167巷86號","121.485275","25.079505","6500200","三重區"
"241020","413-TH","2017/09/23 16:39:32","新北市三重區後竹圍街205巷25號","121.484791666667","25.0723933333333","6500200","三重區"
"241004","475-VK","2017/09/23 16:39:16","新北市三重區五福街17號","121.492613333333","25.0814966666667","6500200","三重區"
"241019","478-VK","2017/09/23 16:39:32","新北市三重區力行路一段79號","121.486871666667","25.0676183333333","6500200","三重區"
"241030","480-VK","2017/09/23 16:39:20","新北市三重區環河南路286號","121.489018333333","25.0489416666667","6500200","三重區"
"241014","543-UM","2017/09/23 16:39:38","新北市三重區龍濱路41號","121.50278","25.06844","6500200","三重區"
"241023","545-UM","2017/09/23 16:39:38","新北市三重區忠孝路三段50巷98號","121.483423333333","25.0642216666667","6500200","三重區"
"241001","547-UM","2017/09/23 16:39:33","新北市三重區仁愛街253號","121.493188333333","25.0782433333333","6500200","三重區"
"241006","AAD-863","2017/09/23 16:39:38","新北市三重區車路頭街136巷1號","121.48348","25.0754416666667","6500200","三重區"
"241018","887-TS","2017/09/23 16:39:24","新北市三重區正義北路338巷50號","121.493046666667","25.070235","6500200","三重區"
"241012","941-UM","2017/09/23 16:39:19","新北市三重區仁興街6號","121.49979","25.07382","6500200","三重區"
"241029","942-UM","2017/09/23 16:39:28","新北市三重區集美街112巷13號","121.489415","25.0541316666667","6500200","三重區"
"241033","AAC-255","2017/09/23 16:39:25","新北市三重區光華路13號","121.470275","25.0598216666667","6500200","三重區"
"235062","800-TS","2017/09/23 16:39:11","新北市中和區員山路36巷16-3號","121.484825","24.991795","6500300","中和區"
"247010","339-TH","2017/09/23 16:39:24","新北市五股區成洲一路25號","121.449543333333","25.0945616666667","6501400","蘆洲區"
"247004","336-TH","2017/09/23 16:39:26","新北市五股區中興路三段163號","121.44925","25.0806183333333","6501400","蘆洲區"
"247006","056-VK","2017/09/23 16:39:29","新北市蘆洲區永安南路二段166號","121.46127","25.079025","6501400","蘆洲區"
"247018","001-UY","2017/09/23 16:39:29","新北市五股區成泰路三段358號","121.451428333333","25.0980583333333","6501400","蘆洲區"
"228003","097-TW","2017/09/23 16:39:29","新北市貢寮區貢寮里朝陽街1-2號","121.912331666667","25.02123","6502600","貢寮區"
"224008","275-VK","2017/09/23 16:39:26","新北市瑞芳區民權街3-1號","121.809316666667","25.1083816666667","6501200","瑞芳區"
"224007","273-VK","2017/09/23 16:39:30","新北市瑞芳區月眉路19號","121.760543333333","25.107565","6501200","瑞芳區"
"224005","271-BY","2017/09/23 16:39:30","新北市瑞芳區洞頂路132-1號","121.862426666667","25.123435","6501200","瑞芳區"
"227010","642-TC","2017/09/23 16:39:22","新北市雙溪區牡丹里中正路58巷32號","121.86621","25.04193","6502500","雙溪區"
"227002","400-TW","2017/09/23 16:39:35","新北市雙溪區外柑里外柑腳56號","121.80796","25.0178733333333","6502500","雙溪區"
"251014","180-VK","2017/09/23 16:39:34","新北市淡水區新市一路一段26號","121.430311666667","25.1869533333333","6501000","淡水區"
"251008","181-VK","2017/09/23 16:39:26","台北市北投區中央北路四段30巷160號","121.47416","25.1404833333333","6501000","淡水區"
"251012","441-VK","2017/09/23 16:39:34","新北市淡水區中正路二段31號","121.419681666667","25.1815116666667","6501000","淡水區"
"251016","442-VK","2017/09/23 16:39:30","新北市淡水區北新路一段695號","121.473836666667","25.1848383333333","6501000","淡水區"
"251011","650-BX","2017/09/23 16:39:20","新北市淡水區新市二路三段20號","121.431851666667","25.1934916666667","6501000","淡水區"
"252002","178-VK","2017/09/23 16:39:36","新北市三芝區芝柏路30號","121.51187","25.255765","6502100","三芝區"
"242013","346-TH","2017/09/23 13:48:45","新北市新莊區公園一路75巷5號","121.442561666667","25.0373933333333","6500500","新莊區"
"221012","276-VK","2017/09/23 13:23:13","新北市汐止區汐萬路一段256巷3號","121.653461666667","25.0746366666667","6501100","汐止區"
"220050","245-BX","2017/09/23 16:39:28","新北市板橋區民生路三段125號","121.466311666667","25.0259683333333","6500100","板橋區"
"220010","303-R5","2017/09/23 16:39:33","新北市板橋區民生路二段120號","121.470316666667","25.0197866666667","6500100","板橋區"
