"lineid","car","time","location","longitude","latitude","cityid","cityname"
"234026","9371-KE","2017/09/23 17:59:29","新北市永和區永和路一段45-1號","121.512846666667","25.00627","6500400","永和區"
"234011","9373-KE","2017/09/23 17:59:37","新北市永和區福和路1號","121.526248333333","25.0096733333333","6500400","永和區"
"249005","172-UM","2017/09/23 17:59:28","新北市八里區荖阡坑路20-5號","121.396995","25.1368083333333","6502300","八里區"
"249001","173-UM","2017/09/23 17:59:20","新北市八里區龍米路二段36號","121.448511666667","25.1400816666667","6502300","八里區"
"249004","303-UY","2017/09/23 17:59:27","新北市八里區龍米路二段180號","121.434063333333","25.158345","6502300","八里區"
"249002","305-UY","2017/09/23 17:59:24","新北市八里區龍米路一段259號","121.45076","25.1336783333333","6502300","八里區"
"249003","593-UM","2017/09/23 17:59:21","新北市八里區中山路二段298號","121.404656666667","25.1503283333333","6502300","八里區"
"248006","077-UY","2017/09/23 17:59:27","新北市五股區中興路二段83巷26-6號","121.459998333333","25.07516","6501500","五股區"
"248008","095-VK","2017/09/23 17:59:24","新北市五股區更洲路6號","121.458608333333","25.0785933333333","6501500","五股區"
"248020","225-UY","2017/09/23 17:59:25","新北市五股區中興路二段83巷26-3號","121.460138333333","25.075365","6501500","五股區"
"248004","677-BX","2017/09/23 00:37:32","新北市五股區中興路二段37巷28號","121.460015","25.0749083333333","6501500","五股區"
"248002","678-BX","2017/09/23 17:59:36","新北市五股區中興路二段83巷26-6號","121.459991666667","25.0750616666667","6501500","五股區"
"248010","682-TV","2017/09/23 17:59:24","新北市五股區中興路二段157巷11-1號","121.458113333333","25.07684","6501500","五股區"
"232011","375-UM","2017/09/23 17:59:28","新北市坪林區北宜路八段231號","121.709085","24.9350533333333","6502000","坪林區"
"244013","069-UM","2017/09/23 17:59:34","新北市林口區林口路39號","121.390266666667","25.0788233333333","6501700","林口區"
"244007","080-UY","2017/09/23 17:59:33","新北市林口區林口路148號","121.388036666667","25.0822566666667","6501700","林口區"
"244019","403-UM","2017/09/23 17:59:39","新北市林口區忠孝路563-6號","121.373463333333","25.06809","6501700","林口區"
"244009","410-SL","2017/09/23 17:59:24","新北市林口區竹林路582巷16-1號","121.386133333333","25.0833733333333","6501700","林口區"
"244023","483-VK","2017/09/23 17:59:37","新北市林口區東湖路41巷21號","121.386421666667","25.072875","6501700","林口區"
"244017","485-VK","2017/09/23 17:59:36","新北市林口區文化二路一段230巷17號","121.370751666667","25.072175","6501700","林口區"
"244011","656-BX","2017/09/23 17:59:19","新北市林口區中正路73號","121.395071666667","25.077325","6501700","林口區"
"244025","837-TS","2017/09/23 17:59:32","新北市林口區文化三路一段39巷185號","121.359305","25.0680216666667","6501700","林口區"
"244021","838-TS","2017/09/23 17:59:27","新北市林口區新寮27-1號","121.39719","25.0679383333333","6501700","林口區"
"222003","436-BY","2017/09/23 17:59:33","新北市深坑區炮子崙24號","121.604845","24.98709","6501800","深坑區"
"222001","628-TS","2017/09/23 17:59:23","新北市深坑區北深路三段25巷12-1號","121.60899","25.0007666666667","6501800","深坑區"
"222002","659-BX","2017/09/23 17:59:19","新北市深坑區文化街94號","121.617215","25.002025","6501800","深坑區"
"231046","278-BY","2017/09/23 17:59:28","新北市新店區康雅崙路14號","121.537291666667","24.9267583333333","6500600","新店區"
"241024","065-VK","2017/09/23 17:59:36","新北市三重區後竹圍街256號","121.484108333333","25.0713033333333","6500200","三重區"
"241016","266-UM","2017/09/23 17:59:25","新北市三重區新北大道一段252號","121.479966666667","25.06166","6500200","三重區"
"241033","AAC-255","2017/09/23 17:59:25","新北市三重區重新路五段559號","121.470463333333","25.0459883333333","6500200","三重區"
"235063","006-UY","2017/09/23 17:59:21","新北市中和區員山路36巷16-3號","121.485076666667","24.9913733333333","6500300","中和區"
"235058","151-BY","2017/09/23 17:59:22","新北市中和區圓通路367巷4號","121.491401666667","24.9894283333333","6500300","中和區"
"235038","185-VK","2017/09/23 17:59:20","新北市中和區中正路637巷52弄1號","121.485456666667","24.9933333333333","6500300","中和區"
"235072","301-VK","2017/09/23 17:59:23","新北市中和區員山路36巷13號","121.48413","24.9907766666667","6500300","中和區"
"235061","378-QA","2017/09/23 17:59:21","新北市中和區中正路637巷52弄1號","121.485425","24.9934616666667","6500300","中和區"
"235062","800-TS","2017/09/23 17:57:55","新北市中和區員山路36巷16-3號","121.484805","24.991795","6500300","中和區"
"235037","AAC-213","2017/09/23 17:59:25","新北市中和區員山路36巷16號","121.4843","24.9916233333333","6500300","中和區"
"235059","AAC-215","2017/09/23 16:37:58","新北市中和區員山路36巷16-3號","121.485085","24.9912983333333","6500300","中和區"
"247022","893-R6","2017/09/23 17:59:24","新北市蘆洲區中正路486-1號","121.462258333333","25.0956216666667","6501400","蘆洲區"
"247012","546-UM","2017/09/23 17:59:27","新北市蘆洲區民族路145號","121.479695","25.0876783333333","6501400","蘆洲區"
"247020","500-BY","2017/09/23 17:59:37","新北市蘆洲區民權路121巷16弄2號","121.4714","25.089315","6501400","蘆洲區"
"247010","339-TH","2017/09/23 17:59:23","新北市蘆洲區信義路204號","121.479018333333","25.0847983333333","6501400","蘆洲區"
"247002","337-TH","2017/09/23 17:59:36","新北市蘆洲區永平街32巷45弄35號","121.458155","25.0931133333333","6501400","蘆洲區"
"247016","057-VK","2017/09/23 17:59:22","新北市蘆洲區中正路185巷78弄48號","121.465453333333","25.085275","6501400","蘆洲區"
"247006","056-VK","2017/09/23 17:59:29","新北市蘆洲區長榮路1號","121.463773333333","25.0817966666667","6501400","蘆洲區"
"247008","053-VK","2017/09/23 17:59:29","新北市五股區中興路三段2巷10號","121.448341666667","25.083645","6501400","蘆洲區"
"247014","007-UY","2017/09/23 17:59:23","新北市蘆洲區忠孝路66號","121.471613333333","25.08533","6501400","蘆洲區"
"247024","002-UY","2017/09/23 17:59:24","新北市蘆洲區長樂路1號","121.464108333333","25.08425","6501400","蘆洲區"
"247018","001-UY","2017/09/23 17:59:29","新北市蘆洲區復興路277號","121.481346666667","25.0901666666667","6501400","蘆洲區"
"228003","097-TW","2017/09/23 17:59:29","新北市貢寮區真理里美艷山街6-2號","121.928965","25.06084","6502600","貢寮區"
"228001","212-TW","2017/09/23 17:59:27","新北市貢寮區真理里新港街26巷53號","121.928266666667","25.0537916666667","6502600","貢寮區"
"228002","585-TW","2017/09/23 17:59:34","新北市貢寮區福連里香蘭街3-3號","121.972125","25.024615","6502600","貢寮區"
"224006","676-BX","2017/09/23 17:59:19","新北市瑞芳區傑魚坑路183號","121.788468333333","25.1083233333333","6501200","瑞芳區"
"224002","639-TC","2017/09/23 17:59:38","新北市瑞芳區明燈路二段99號","121.809996666667","25.107985","6501200","瑞芳區"
"224009","285-BY","2017/09/23 17:59:28","新北市瑞芳區山尖路133號","121.853616666667","25.1131933333333","6501200","瑞芳區"
"224008","275-VK","2017/09/23 17:59:27","新北市瑞芳區明燈路一段45巷1-1號","121.821476666667","25.10664","6501200","瑞芳區"
"224007","273-VK","2017/09/23 17:59:30","新北市瑞芳區大寮路62號","121.781733333333","25.098365","6501200","瑞芳區"
"224005","271-BY","2017/09/23 17:59:29","新北市瑞芳區弘祥新村10號","121.81786","25.128765","6501200","瑞芳區"
"253005","032-BX","2017/09/23 17:59:28","新北市石門區中山路62-11號","121.567585","25.2896966666667","6502200","石門區"
"253006","295-VK","2017/09/23 17:59:21","新北市石門區大丘田45-2號","121.549833333333","25.2748566666667","6502200","石門區"
"208002","742-BX","2017/09/23 17:59:33","新北市金山區三界壇路61-3號","121.626768333333","25.228185","6502700","金山區"
"208003","665-BX","2017/09/23 17:59:27","新北市金山區磺港里磺港路202-1號","121.645188333333","25.22753","6502700","金山區"
"208001","761-BX","2017/09/23 17:59:39","新北市金山區磺港里磺港路169號","121.643383333333","25.2248183333333","6502700","金山區"
"251009","008-UM","2017/09/23 17:59:40","新北市淡水區大仁街6巷1號","121.44239","25.1746166666667","6501000","淡水區"
"251004","009-UM","2017/09/23 17:59:25","新北市淡水區民權路187巷33號","121.461003333333","25.1335683333333","6501000","淡水區"
"251005","010-UM","2017/09/23 17:59:35","新北市淡水區英專路135號","121.446551666667","25.1727566666667","6501000","淡水區"
"251014","180-VK","2017/09/23 17:59:18","新北市淡水區公埔子16-6號","121.48103","25.2246266666667","6501000","淡水區"
"251008","181-VK","2017/09/23 17:59:38","新北市淡水區八勢一街55號","121.461946666667","25.1554883333333","6501000","淡水區"
"251010","413-VK","2017/09/23 17:59:18","新北市淡水區淡海路46號","121.423085","25.1800083333333","6501000","淡水區"
"251012","441-VK","2017/09/23 17:59:34","新北市淡水區北新路三段38巷7號","121.484525","25.1870316666667","6501000","淡水區"
"251016","442-VK","2017/09/23 17:59:34","新北市淡水區埤島30-15號","121.448343333333","25.1979033333333","6501000","淡水區"
"251001","559-UM","2017/09/23 17:59:30","新北市淡水區民權路94巷1號","121.463118333333","25.1248866666667","6501000","淡水區"
"251006","561-UM","2017/09/23 17:59:28","新北市淡水區真理街1號","121.438281666667","25.1729766666667","6501000","淡水區"
"251007","577-R6","2017/09/23 17:59:34","新北市淡水區中正東路二段143巷2弄1號","121.460585","25.14732","6501000","淡水區"
"251011","650-BX","2017/09/23 17:59:20","新北市淡水區三空泉5-1號","121.478063333333","25.162","6501000","淡水區"
"251002","672-BX","2017/09/23 17:59:37","新北市淡水區中正東路6號","121.447098333333","25.1672","6501000","淡水區"
"251003","673-BX","2017/09/23 17:59:35","新北市淡水區大忠街79-6號","121.445806666667","25.17721","6501000","淡水區"
"207003","550-UM","2017/09/23 17:59:24","新北市萬里區港東路野柳風景區攤販66號","121.691316666667","25.2058766666667","6502800","萬里區"
"207004","225-TW","2017/09/23 17:59:26","新北市萬里區中幅里中福路48號","121.683308333333","25.1741216666667","6502800","萬里區"
"252002","178-VK","2017/09/23 17:59:36","新北市三芝區中山路二段43號","121.502775","25.25492","6502100","三芝區"
"252001","292-VK","2017/09/23 17:59:33","新北市三芝區中興街一段30號","121.497718333333","25.25784","6502100","三芝區"
"237004","078-UY","2017/09/23 17:59:31","新北市三峽區中正路二段332號","121.365945","24.9105466666667","6500900","三峽區"
"237007","153-BY","2017/09/23 17:59:30","新北市三峽區中正路二段168號","121.366003333333","24.9152216666667","6500900","三峽區"
"237009","210-TH","2017/09/23 17:59:21","新北市三峽區中山路106巷21號","121.366041666667","24.936385","6500900","三峽區"
"237013","252-BX","2017/09/23 17:59:35","新北市三峽區長泰街78巷3號","121.376641666667","24.9336366666667","6500900","三峽區"
"237012","275-BY","2017/09/23 17:59:35","新北市三峽區民生街27巷2號","121.375855","24.9361333333333","6500900","三峽區"
"237008","302-VK","2017/09/23 17:59:27","新北市三峽區白雞38-19號","121.373388333333","24.91203","6500900","三峽區"
"237014","433-BY","2017/09/23 17:59:35","新北市三峽區復興路101巷1弄26號","121.37115","24.9376483333333","6500900","三峽區"
"237006","5529-G3","2017/09/23 17:59:25","新北市三峽區介壽路二段136巷45弄31號","121.393415","24.9333183333333","6500900","三峽區"
"237011","572-TV","2017/09/23 17:59:28","新北市三峽區永安街1號","121.37808","24.92979","6500900","三峽區"
"237016","649-BX","2017/09/23 17:59:28","新北市三峽區紫微路109號","121.407773333333","24.9114","6500900","三峽區"
"237010","706-TV","2017/09/23 17:35:35","新北市三峽區中山路222-1號","121.362956666667","24.9372616666667","6500900","三峽區"
"237005","AKY-6261","2017/09/23 17:59:37","新北市三峽區復興路119-3號","121.36963","24.9387133333333","6500900","三峽區"
"236073","105-UM","2017/09/23 17:59:24","新北市土城區青雲路474-2號","121.464066666667","24.9661566666667","6501300","土城區"
"236043","107-UM","2017/09/23 17:59:24","新北市土城區裕生路82巷2號","121.447565","24.985945","6501300","土城區"
"236079","166-UM","2017/09/23 17:59:24","新北市土城區永寧路32巷10弄21號","121.428985","24.9610316666667","6501300","土城區"
"236031","253-BX","2017/09/23 17:59:22","新北市土城區城林路6巷80號","121.438626666667","24.9796966666667","6501300","土城區"
"236027","269-VK","2017/09/23 17:59:34","新北市土城區承天路67號","121.439628333333","24.9634766666667","6501300","土城區"
"236015","270-VK","2017/09/23 17:59:17","新北市土城區城林路6巷80號","121.438391666667","24.97977","6501300","土城區"
"236038","271-VK","2017/09/23 17:59:25","新北市土城區中央路二段280號","121.440795","24.9740483333333","6501300","土城區"
"236023","401-BY","2017/09/23 17:59:31","新北市土城區城林路6巷80號","121.438513333333","24.9796833333333","6501300","土城區"
"236059","912-UM","2017/09/23 17:59:30","新北市土城區中央路三段42號","121.437613333333","24.96816","6501300","土城區"
"236049","913-UM","2017/09/23 17:59:31","新北市土城區員福街52號","121.440373333333","24.9792","6501300","土城區"
"236063","915-UM","2017/09/23 17:59:22","新北市土城區中正路82-1號","121.445441666667","24.9757766666667","6501300","土城區"
"236055","AAC-216","2017/09/23 17:59:38","新北市土城區城林路6巷80號","121.438445","24.9796683333333","6501300","土城區"
"242031","AAC-296","2017/09/23 17:59:27","新北市新莊區新泰路305巷9號","121.444871666667","25.0409683333333","6500500","新莊區"
"242051","751-BX","2017/09/23 17:59:28","新北市新莊區西盛街231巷1號","121.428276666667","25.016465","6500500","新莊區"
"242029","705-TV","2017/09/23 17:59:31","新北市新莊區中平路24號","121.444815","25.0431566666667","6500500","新莊區"
"242025","615-BX","2017/09/23 17:59:29","新北市新莊區五工路82號","121.457465","25.0640033333333","6500500","新莊區"
"242023","613-BX","2017/09/23 17:59:31","新北市新莊區福壽街58號","121.458281666667","25.0489633333333","6500500","新莊區"
"242027","612-BX","2017/09/23 17:59:25","新北市新莊區思源路455號","121.459708333333","25.0535016666667","6500500","新莊區"
"242039","566-BX","2017/09/23 17:59:36","新北市新莊區民安西路24巷1號","121.426438333333","25.02118","6500500","新莊區"
"242044","497-BY","2017/09/23 17:59:35","新北市新莊區鳳山街56巷59號","121.413035","25.0273133333333","6500500","新莊區"
"242048","441-UM","2017/09/23 17:59:31","新北市新莊區萬安街47巷3號","121.422218333333","25.024525","6500500","新莊區"
"242053","440-UM","2017/09/23 17:59:25","新北市新莊區光華街4號","121.42868","25.01064","6500500","新莊區"
"242004","413-TV","2017/09/23 17:59:28","新北市新莊區思源路177巷37號","121.459143333333","25.0467883333333","6500500","新莊區"
"242042","400-BY","2017/09/23 17:59:38","新北市新莊區中正路857號","121.419598333333","25.02815","6500500","新莊區"
"242061","362-BY","2017/09/23 17:59:34","新北市新莊區新樹路247號","121.434938333333","25.0221666666667","6500500","新莊區"
"242058","353-BY","2017/09/23 17:59:31","新北市新莊區雙鳳路134巷5號","121.412661666667","25.0280683333333","6500500","新莊區"
"242007","132-UY","2017/09/23 17:59:33","新北市新莊區自信街75巷16號","121.45589","25.0489133333333","6500500","新莊區"
"242036","133-UY","2017/09/23 17:59:35","新北市新莊區建福路59巷31號","121.428003333333","25.027745","6500500","新莊區"
"242021","135-UY","2017/09/23 17:59:25","新北市新莊區中華路一段6號","121.45196","25.036605","6500500","新莊區"
"242046","172-VK","2017/09/23 17:59:32","新北市新莊區福營路167號","121.431818333333","25.0311933333333","6500500","新莊區"
"242009","173-VK","2017/09/23 17:59:32","新北市新莊區中華路二段258巷21號","121.453118333333","25.0540633333333","6500500","新莊區"
"242015","175-VK","2017/09/23 17:59:37","新北市新莊區中平路87巷4號","121.444408333333","25.0459033333333","6500500","新莊區"
"242002","176-VK","2017/09/23 17:59:32","新北市新莊區中正路161號","121.455416666667","25.0366633333333","6500500","新莊區"
"242013","346-TH","2017/09/23 17:59:37","新北市新莊區中和街130號","121.447523333333","25.0480466666667","6500500","新莊區"
"242019","348-TH","2017/09/23 17:59:23","新北市新莊區中港路48巷23弄16號","121.456838333333","25.0386783333333","6500500","新莊區"
"242056","349-TH","2017/09/23 17:59:33","新北市新莊區豐年街120巷1號","121.44627","25.0300666666667","6500500","新莊區"
"242017","350-TH","2017/09/23 17:59:25","新北市新莊區中和街60巷47號","121.449958333333","25.04514","6500500","新莊區"
"242011","351-TH","2017/09/23 17:59:40","新北市新莊區中港路中慶巷26號","121.449713333333","25.053795","6500500","新莊區"
"238015","755-BX","2017/09/23 17:59:25","新北市樹林區復興路198號","121.419683333333","24.9911133333333","6500700","樹林區"
"238023","601-UM","2017/09/23 17:59:28","新北市樹林區龍興街30號","121.402745","25.0158283333333","6500700","樹林區"
"238019","599-UM","2017/09/23 17:59:34","新北市樹林區水源街27號","121.425358333333","24.9824166666667","6500700","樹林區"
"238018","571-TV","2017/09/23 17:59:37","新北市樹林區博愛街69號","121.427115","24.992225","6500700","樹林區"
"238024","5061-A6","2017/09/23 17:59:24","新北市樹林區保安街一段195號","121.421028333333","24.9959083333333","6500700","樹林區"
"238021","KEA-2217","2017/09/23 17:59:21","新北市樹林區柑園街一段36-8號","121.405505","24.9616016666667","6500700","樹林區"
"238022","KEA-2213","2017/09/23 17:59:36","新北市樹林區太順街96巷13號","121.416388333333","24.9790066666667","6500700","樹林區"
"238025","303-VK","2017/09/23 17:59:19","新北市樹林區俊興街211巷7弄7號","121.41701","25.0139716666667","6500700","樹林區"
"238017","283-BY","2017/09/23 17:59:30","新北市樹林區中正路464號","121.412855","25.0127433333333","6500700","樹林區"
"238014","282-BY","2017/09/23 17:59:33","新北市樹林區大安路123號","121.422656666667","24.9972083333333","6500700","樹林區"
"238020","268-VK","2017/09/23 17:59:29","新北市樹林區三俊街201號","121.420185","25.0155916666667","6500700","樹林區"
"238026","172-UY","2017/09/23 17:59:22","新北市樹林區中洲街16號","121.397313333333","24.972435","6500700","樹林區"
"238003","169-UY","2017/09/23 17:59:20","新北市樹林區復興路314號","121.41669","24.9868733333333","6500700","樹林區"
"239007","AAC-297","2017/09/23 17:59:30","新北市鶯歌區育英街85號","121.3474","24.9516183333333","6500800","鶯歌區"
"239006","891-R6","2017/09/23 17:59:22","新北市鶯歌區鶯桃路455巷6弄3號","121.331691666667","24.9645233333333","6500800","鶯歌區"
"239008","527-UM","2017/09/23 17:59:34","新北市鶯歌區朝陽街63巷5弄4號","121.339098333333","24.9779016666667","6500800","鶯歌區"
"239005","526-UM","2017/09/23 17:59:37","新北市鶯歌區大湖路361巷81-1號","121.332915","24.9750016666667","6500800","鶯歌區"
"239001","417-VK","2017/09/23 17:59:31","新北市鶯歌區中正二路299號","121.339698333333","24.9433283333333","6500800","鶯歌區"
"239003","360-BY","2017/09/23 17:59:36","新北市鶯歌區福安街32巷34號","121.335321666667","24.9635483333333","6500800","鶯歌區"
"239002","359-BY","2017/09/23 17:59:28","新北市鶯歌區光明街78號","121.346845","24.9561","6500800","鶯歌區"
"239004","193-VK","2017/09/23 17:59:21","新北市鶯歌區尖山路101巷16-1號","121.347663333333","24.941915","6500800","鶯歌區"
"221008","489-VK","2017/09/23 17:59:27","新北市汐止區明峰街19號","121.634591666667","25.0714266666667","6501100","汐止區"
"221036","130-UY","2017/09/23 17:59:39","新北市汐止區大同路三段56號","121.667585","25.07704","6501100","汐止區"
"221015","131-UY","2017/09/23 17:59:35","新北市汐止區長江街341號","121.667133333333","25.0819516666667","6501100","汐止區"
"221010","269-BY","2017/09/23 17:59:28","新北市汐止區汐萬路二段275巷1弄28號","121.6462","25.0880533333333","6501100","汐止區"
"221012","276-VK","2017/09/23 13:23:13","新北市汐止區汐萬路一段256巷3號","121.653461666667","25.0746366666667","6501100","汐止區"
"221012","278-VK","2017/09/23 17:59:37","新北市汐止區長興街二段50巷2弄2號","121.673903333333","25.08184","6501100","汐止區"
"221023","279-VK","2017/09/23 17:59:37","新北市汐止區民族六街2巷1號","121.629135","25.070635","6501100","汐止區"
"221032","280-BY","2017/09/23 17:59:24","新北市汐止區橫科路73巷22-2號","121.619361666667","25.051635","6501100","汐止區"
"221027","281-BY","2017/09/23 17:59:35","新北市汐止區汐萬路一段20號","121.65602","25.067525","6501100","汐止區"
"221038","297-VK","2017/09/23 17:59:36","新北市汐止區連興街120號","121.653688333333","25.062445","6501100","汐止區"
"221029","298-VK","2017/09/23 17:59:26","新北市汐止區樟樹二路330巷1號","121.641706666667","25.070315","6501100","汐止區"
"221021","299-VK","2017/09/23 17:59:32","新北市汐止區新興路14號","121.656293333333","25.0647116666667","6501100","汐止區"
"221035","622-UM","2017/09/23 17:59:37","新北市汐止區新江北路30巷22弄7號","121.651218333333","25.0697516666667","6501100","汐止區"
"221025","623-UM","2017/09/23 17:59:36","新北市汐止區仁愛路20號","121.659765","25.0630516666667","6501100","汐止區"
"221033","647-BX","2017/09/23 17:59:29","新北市汐止區合順街38號","121.620183333333","25.04304","6501100","汐止區"
"221002","707-TV","2017/09/23 17:59:22","新北市汐止區中興路31號","121.634873333333","25.061735","6501100","汐止區"
"221018","753-BX","2017/09/23 17:59:28","新北市汐止區招商街11巷1號","121.666465","25.0688633333333","6501100","汐止區"
"220062","303-R5","2017/09/23 17:59:23","新北市板橋區民生路二段120號","121.470466666667","25.01974","6500100","板橋區"
"242034","280-VK","2017/09/23 17:59:24","新北市新莊區中正路421巷19號","121.444706666667","25.0334766666667","6500500","新莊區"
