"lineid","car","time","location","longitude","latitude","cityid","cityname"
"234007","208-UY","2017/09/23 18:19:29","新北市永和區保生路55-1號","121.50472","25.01163","6500400","永和區"
"234030","746-BX","2017/09/23 18:19:36","新北市永和區福和路1號","121.526388333333","25.0096466666667","6500400","永和區"
"234042","862-TW","2017/09/23 18:19:18","新北市永和區福和路1號","121.526565","25.00971","6500400","永和區"
"234026","9371-KE","2017/09/23 18:19:29","新北市永和區豫溪街28巷7號","121.515213333333","25.009495","6500400","永和區"
"234011","9373-KE","2017/09/23 18:18:37","新北市永和區光復街33巷7號","121.515661666667","25.01814","6500400","永和區"
"249005","172-UM","2017/09/23 18:19:28","新北市八里區荖阡坑路15-16號","121.400225","25.140515","6502300","八里區"
"249001","173-UM","2017/09/23 18:19:40","新北市八里區龍米路一段113號","121.452488333333","25.12626","6502300","八里區"
"249004","303-UY","2017/09/23 18:19:27","新北市八里區文心街63號","121.428435","25.16093","6502300","八里區"
"249002","305-UY","2017/09/23 18:19:24","新北市八里區龍形二街52號","121.450236666667","25.1330533333333","6502300","八里區"
"248016","026-BX","2017/09/23 18:19:35","新北市五股區西雲路290號","121.44964","25.0992033333333","6501500","五股區"
"248006","077-UY","2017/09/23 18:19:36","新北市五股區中興路一段152號","121.464536666667","25.0738016666667","6501500","五股區"
"248008","095-VK","2017/09/23 18:19:24","新北市五股區更洲路32巷8弄17號","121.459268333333","25.0796633333333","6501500","五股區"
"248020","225-UY","2017/09/23 18:19:25","新北市五股區孝義路47巷21號","121.450468333333","25.1093466666667","6501500","五股區"
"248014","261-SL","2017/09/23 18:19:29","新北市五股區自強路19巷5-1號","121.434611666667","25.0737566666667","6501500","五股區"
"248012","655-BX","2017/09/23 18:19:24","新北市五股區御成路35號","121.440988333333","25.0912783333333","6501500","五股區"
"248004","677-BX","2017/09/23 18:19:41","新北市五股區成泰路二段222-2號","121.439121666667","25.0854833333333","6501500","五股區"
"248002","678-BX","2017/09/23 18:19:36","新北市五股區西雲路89號","121.44364","25.0920283333333","6501500","五股區"
"248010","682-TV","2017/09/23 18:19:24","新北市五股區成泰路一段139巷2弄2號","121.43512","25.0730016666667","6501500","五股區"
"234023","9380-KE","2017/09/23 18:19:32","新北市永和區福和路1號","121.526366666667","25.009855","6500400","永和區"
"232011","375-UM","2017/09/23 18:13:30","新北市坪林區坪雙路一段43號","121.71174","24.94246","6502000","坪林區"
"244013","069-UM","2017/09/23 18:19:34","新北市林口區林口路68巷18弄15號","121.391771666667","25.0795933333333","6501700","林口區"
"244007","080-UY","2017/09/23 18:19:33","新北市林口區後湖32-1號","121.38656","25.095895","6501700","林口區"
"244019","403-UM","2017/09/23 18:19:18","新北市林口區文化一路一段115號","121.373153333333","25.0711533333333","6501700","林口區"
"244009","410-SL","2017/09/23 18:19:32","新北市林口區中山路490號","121.380166666667","25.082435","6501700","林口區"
"244023","483-VK","2017/09/23 18:19:17","新北市林口區仁愛路二段125號","121.38338","25.0748216666667","6501700","林口區"
"244017","485-VK","2017/09/23 18:19:36","新北市林口區八德路48巷1號","121.366811666667","25.0662583333333","6501700","林口區"
"244011","656-BX","2017/09/23 18:19:38","新北市林口區新生街5號","121.394285","25.0769233333333","6501700","林口區"
"244025","837-TS","2017/09/23 18:19:32","新北市林口區文化北路一段123號","121.355953333333","25.0689266666667","6501700","林口區"
"244021","838-TS","2017/09/23 18:19:27","新北市林口區自強一街48號","121.399306666667","25.0774433333333","6501700","林口區"
"222003","436-BY","2017/09/23 18:19:33","新北市深坑區文山路一段69號","121.626713333333","25.0022083333333","6501800","深坑區"
"222001","628-TS","2017/09/23 18:19:23","新北市深坑區北深路二段58號","121.619041666667","25.004175","6501800","深坑區"
"222002","659-BX","2017/09/23 18:19:19","新北市深坑區雲鄉路3-1號","121.621018333333","25.0000866666667","6501800","深坑區"
"231055","0293-UT","2017/09/23 18:19:35","新北市新店區安康路一段107號","121.528868333333","24.9616116666667","6500600","新店區"
"231059","046-UY","2017/09/23 18:19:25","新北市新店區安華路28-1號","121.519665","24.9609066666667","6500600","新店區"
"231061","047-UY","2017/09/23 18:19:39","新北市新店區安華路28-1號","121.519088333333","24.96085","6500600","新店區"
"231060","106-UY","2017/09/23 18:19:28","新北市新店區安華路28-1號","121.51979","24.9609633333333","6500600","新店區"
"231051","107-UY","2017/09/23 18:19:26","新北市新店區安華路28-1號","121.519238333333","24.961225","6500600","新店區"
"231048","108-UY","2017/09/23 16:30:38","新北市新店區安華路28-1號","121.51941","24.9611883333333","6500600","新店區"
"231052","187-VK","2017/09/23 18:19:37","新北市新店區安康路一段186號","121.524763333333","24.9632833333333","6500600","新店區"
"231050","215-TC","2017/09/23 18:19:30","新北市新店區安華路28-1號","121.52","24.96141","6500600","新店區"
"231057","256-BX","2017/09/23 18:19:33","新北市新店區安華路28-1號","121.519755","24.96112","6500600","新店區"
"231063","268-BY","2017/09/23 18:19:28","新北市新店區安華路1-1號","121.519713333333","24.960275","6500600","新店區"
"231046","278-BY","2017/09/23 18:19:28","新北市新店區直潭七街60號","121.532241666667","24.9399466666667","6500600","新店區"
"231058","3712-VJ","2017/09/23 18:19:38","新北市新店區環河路1-3號","121.53802","24.9613433333333","6500600","新店區"
"231056","4716-K9","2017/09/23 18:19:33","新北市新店區中央路67號","121.532523333333","24.9769483333333","6500600","新店區"
"231067","4772-VM","2017/09/23 18:19:25","新北市新店區安華路28-1號","121.51908","24.9606233333333","6500600","新店區"
"231065","512-UM","2017/09/23 16:08:12","新北市新店區安華路28-1號","121.519273333333","24.9612716666667","6500600","新店區"
"231054","513-UM","2017/09/23 18:19:33","新北市新店區安華路28-1號","121.519865","24.9612816666667","6500600","新店區"
"231045","617-UM","2017/09/23 18:19:36","新北市新店區安華路28-1號","121.519601666667","24.9609716666667","6500600","新店區"
"231040","619-UM","2017/09/23 18:19:33","新北市新店區安華路28-1號","121.519703333333","24.9607783333333","6500600","新店區"
"231042","641-BX","2017/09/23 18:19:35","新北市新店區安華路28-1號","121.519691666667","24.9606633333333","6500600","新店區"
"231049","719-UM","2017/09/23 18:19:37","新北市新店區安華路28-1號","121.519735","24.9612666666667","6500600","新店區"
"231062","720-UM","2017/09/23 18:19:22","新北市新店區安康路一段355-3號","121.519206666667","24.9614166666667","6500600","新店區"
"231044","897-TW","2017/09/23 18:19:22","新北市新店區安華路30巷1號","121.51971","24.9597766666667","6500600","新店區"
"231043","899-TW","2017/09/23 15:41:21","新北市新店區安華路28-1號","121.519331666667","24.960845","6500600","新店區"
"231066","AKT-0513","2017/09/23 18:19:31","新北市新店區安華路28-1號","121.519701666667","24.960515","6500600","新店區"
"241033","AAC-255","2017/09/23 18:19:25","新北市三重區光復路一段61巷27號","121.47354","25.0491833333333","6500200","三重區"
"235066","003-UY","2017/09/23 18:19:23","新北市中和區中山路二段120號","121.502823333333","25.0037633333333","6500300","中和區"
"235064","005-UY","2017/09/23 18:19:36","新北市中和區中興街55號","121.500581666667","24.993885","6500300","中和區"
"235063","006-UY","2017/09/23 18:19:41","新北市中和區中正路589巷7號","121.485891666667","24.994125","6500300","中和區"
"235056","096-UM","2017/09/23 18:19:27","新北市板橋區民生路一段26-1號","121.477545","25.0119483333333","6500300","中和區"
"235039","097-UM","2017/09/23 18:19:28","新北市中和區景安路68號","121.505853333333","24.996695","6500300","中和區"
"235065","098-UM","2017/09/23 18:19:31","新北市中和區莊敬路49巷27號","121.501593333333","25.0061983333333","6500300","中和區"
"235040","150-BY","2017/09/23 18:19:34","新北市中和區中正路271號","121.495843333333","24.9936566666667","6500300","中和區"
"235058","151-BY","2017/09/23 18:19:22","新北市中和區圓通路369巷39號","121.489778333333","24.9860266666667","6500300","中和區"
"235055","183-VK","2017/09/23 18:19:31","新北市中和區員山路36巷16-3號","121.485118333333","24.9915216666667","6500300","中和區"
"235038","185-VK","2017/09/23 18:19:23","新北市中和區大智街42巷1-5號","121.52204","24.9920483333333","6500300","中和區"
"235049","186-VK","2017/09/23 18:19:33","新北市中和區中正路637巷52弄1號","121.485463333333","24.99351","6500300","中和區"
"235072","301-VK","2017/09/23 18:19:23","新北市中和區錦和路190號","121.490056666667","24.995135","6500300","中和區"
"235068","375-QA","2017/09/23 18:19:24","新北市中和區員山路36巷16-3號","121.48514","24.9912","6500300","中和區"
"235051","376-QA","2017/09/23 18:19:23","新北市中和區南山路308號","121.507906666667","24.986955","6500300","中和區"
"235061","378-QA","2017/09/23 18:19:21","新北市中和區國光街215巷10弄12號","121.466933333333","25.0004966666667","6500300","中和區"
"235050","4979-A6","2017/09/23 18:19:25","新北市中和區興南路一段25號","121.511153333333","24.9906983333333","6500300","中和區"
"235069","4980-A6","2017/09/23 18:19:36","新北市中和區圓通路176-1號","121.49717","24.99451","6500300","中和區"
"235042","551-UM","2017/09/23 18:19:23","新北市中和區大仁街20巷25弄10號","121.518786666667","24.993585","6500300","中和區"
"235070","558-UM","2017/09/23 18:19:32","新北市中和區中正路250號","121.495763333333","24.99396","6500300","中和區"
"235045","565-BX","2017/09/23 18:19:31","新北市中和區景安路198號","121.504091666667","24.99136","6500300","中和區"
"235043","611-BX","2017/09/23 18:19:36","新北市中和區景平路377號","121.504125","24.9933283333333","6500300","中和區"
"235054","640-BX","2017/09/23 18:19:19","新北市中和區莒光路185號","121.472693333333","24.9990366666667","6500300","中和區"
"235060","647-TV","2017/09/23 18:19:21","新北市中和區員山路36巷16-3號","121.484766666667","24.9917033333333","6500300","中和區"
"235047","732-UM","2017/09/23 18:19:32","新北市中和區南山路523-1號","121.507895","24.98723","6500300","中和區"
"235046","733-UM","2017/09/23 18:19:24","新北市中和區員山路36巷13號","121.48413","24.99099","6500300","中和區"
"235062","800-TS","2017/09/23 18:19:31","新北市中和區中山路二段312巷45弄23號","121.495011666667","25.0047266666667","6500300","中和區"
"235057","801-TS","2017/09/23 18:19:36","新北市中和區員山路36巷16-3號","121.485168333333","24.991405","6500300","中和區"
"235052","805-TS","2017/09/23 18:19:38","新北市中和區南山路222號","121.506385","24.990265","6500300","中和區"
"235048","896-TW","2017/09/23 18:19:26","新北市中和區錦和路350-1號","121.490188333333","24.9935766666667","6500300","中和區"
"235053","900-TW","2017/09/23 18:19:38","新北市中和區員山路36巷16-8號","121.485416666667","24.992465","6500300","中和區"
"235037","AAC-213","2017/09/23 18:19:25","新北市中和區景平路182號","121.516415","24.99213","6500300","中和區"
"235059","AAC-215","2017/09/23 16:37:58","新北市中和區員山路36巷16-3號","121.485085","24.9912983333333","6500300","中和區"
"247008","053-VK","2017/09/23 18:19:29","新北市八里區中山路三段409號","121.36852","25.1344683333333","6501400","蘆洲區"
"226004","312-R5","2017/09/23 18:19:31","新北市平溪區薯榔里雙菁路92號","121.714358333333","25.0211533333333","6502400","平溪區"
"228003","097-TW","2017/09/23 18:19:09","新北市貢寮區和美里和美街63號","121.922161666667","25.0712383333333","6502600","貢寮區"
"228001","212-TW","2017/09/23 18:19:27","新北市貢寮區真理里新港街26巷55弄2-1號","121.927425","25.0528816666667","6502600","貢寮區"
"228002","585-TW","2017/09/23 18:19:34","新北市貢寮區福連里馬崗街1號","121.997641666667","25.0169133333333","6502600","貢寮區"
"224006","676-BX","2017/09/23 18:19:39","新北市瑞芳區民權街3-2號","121.808093333333","25.10743","6501200","瑞芳區"
"224002","639-TC","2017/09/23 18:19:22","新北市瑞芳區三爪子坑路149巷13號","121.811021666667","25.1065466666667","6501200","瑞芳區"
"224009","285-BY","2017/09/23 18:19:31","新北市瑞芳區金光路135號","121.85385","25.1068216666667","6501200","瑞芳區"
"224008","275-VK","2017/09/23 18:19:26","新北市瑞芳區逢甲路72號","121.810613333333","25.10831","6501200","瑞芳區"
"224007","273-VK","2017/09/23 18:19:30","新北市瑞芳區大埔路45號","121.76475","25.1020316666667","6501200","瑞芳區"
"224005","271-BY","2017/09/23 18:19:25","新北市瑞芳區建基路二段84號","121.814496666667","25.129685","6501200","瑞芳區"
"227010","642-TC","2017/09/23 18:19:22","新北市雙溪區牡丹里牡丹73號","121.851716666667","25.0593766666667","6502500","雙溪區"
"227002","400-TW","2017/09/23 18:19:23","新北市雙溪區共和里中山路2號","121.863783333333","25.0337883333333","6502500","雙溪區"
"253005","032-BX","2017/09/23 18:19:29","新北市石門區中央路3-1號","121.565958333333","25.291495","6502200","石門區"
"253006","295-VK","2017/09/23 18:19:21","新北市石門區老梅路65號","121.545843333333","25.2893266666667","6502200","石門區"
"208002","742-BX","2017/09/23 18:19:33","新北市金山區清泉里清水路60巷14號","121.633425","25.2342966666667","6502700","金山區"
"208003","665-BX","2017/09/23 18:19:26","新北市金山區民生路196號","121.645413333333","25.2218416666667","6502700","金山區"
"208001","761-BX","2017/09/23 18:19:38","新北市金山區中山路69號","121.641093333333","25.2177016666667","6502700","金山區"
"251004","009-UM","2017/09/23 18:18:25","新北市淡水區民族路31巷2號","121.46242","25.1363","6501000","淡水區"
"251005","010-UM","2017/09/23 18:19:24","新北市淡水區學府路51巷6弄12號","121.447545","25.1700033333333","6501000","淡水區"
"251014","180-VK","2017/09/23 18:19:17","新北市淡水區南平17-2號","121.489975","25.220425","6501000","淡水區"
"251008","181-VK","2017/09/23 18:19:26","新北市淡水區淡金路18號","121.457238333333","25.15988","6501000","淡水區"
"251010","413-VK","2017/09/23 18:19:38","新北市淡水區淡海路199號","121.420445","25.1848233333333","6501000","淡水區"
"251012","441-VK","2017/09/23 18:19:34","新北市淡水區北新路二段77-5號","121.48055","25.18561","6501000","淡水區"
"251016","442-VK","2017/09/23 18:19:30","新北市淡水區淡金路三段228巷35號","121.450066666667","25.20482","6501000","淡水區"
"251001","559-UM","2017/09/23 18:19:29","新北市淡水區自強路110-8號","121.461611666667","25.1313916666667","6501000","淡水區"
"251006","561-UM","2017/09/23 18:19:28","新北市淡水區新民街28號","121.439576666667","25.175605","6501000","淡水區"
"251007","577-R6","2017/09/23 18:19:34","新北市淡水區中正東路二段143巷2弄1號","121.460635","25.1473916666667","6501000","淡水區"
"251011","650-BX","2017/09/23 18:19:20","新北市淡水區坪頂路52巷18號","121.457673333333","25.16242","6501000","淡水區"
"251002","672-BX","2017/09/23 18:19:37","新北市淡水區竿蓁二街34巷1號","121.453921666667","25.1629083333333","6501000","淡水區"
"251003","673-BX","2017/09/23 18:19:35","新北市淡水區北新路186-3號","121.449563333333","25.17885","6501000","淡水區"
"207003","550-UM","2017/09/23 18:19:24","新北市萬里區野柳里港東路23號","121.687358333333","25.2036733333333","6502800","萬里區"
"207004","225-TW","2017/09/23 18:19:26","新北市萬里區中幅里中福路131-4號","121.674613333333","25.1653683333333","6502800","萬里區"
"252002","178-VK","2017/09/23 18:19:16","新北市三芝區中山路二段39號","121.502925","25.255085","6502100","三芝區"
"252003","249-BX","2017/09/23 18:19:30","新北市三芝區錫板里海尾14-32號","121.47769","25.259735","6502100","三芝區"
"252001","292-VK","2017/09/23 18:19:33","新北市三芝區中興街二段2號","121.498306666667","25.2566366666667","6502100","三芝區"
"237004","078-UY","2017/09/23 18:19:31","新北市三峽區大埔1-4號","121.375053333333","24.8903933333333","6500900","三峽區"
"237007","153-BY","2017/09/23 18:19:30","新北市三峽區中正路二段582號","121.359281666667","24.9059766666667","6500900","三峽區"
"237009","210-TH","2017/09/23 18:19:21","新北市三峽區中山路152巷22號","121.365163333333","24.9369216666667","6500900","三峽區"
"237013","252-BX","2017/09/23 18:19:35","新北市三峽區永安街9巷3-9號","121.377616666667","24.9297116666667","6500900","三峽區"
"237012","275-BY","2017/09/23 18:19:35","新北市三峽區民生街1巷5-64號","121.378745","24.934915","6500900","三峽區"
"237008","302-VK","2017/09/23 18:19:27","新北市三峽區白雞68-355號","121.39271","24.908705","6500900","三峽區"
"237014","433-BY","2017/09/23 18:19:35","新北市三峽區復興路31號","121.37372","24.9366066666667","6500900","三峽區"
"237006","5529-G3","2017/09/23 18:19:25","新北市三峽區溪東路238巷9號","121.4081","24.9312216666667","6500900","三峽區"
"237011","572-TV","2017/09/23 18:03:49","新北市三峽區介壽路三段20號","121.396013333333","24.936195","6500900","三峽區"
"237016","649-BX","2017/09/23 18:19:28","新北市三峽區紫微路19-1號","121.424903333333","24.9213116666667","6500900","三峽區"
"237010","706-TV","2017/09/23 18:10:17","新北市三峽區民族街72號","121.369706666667","24.9300933333333","6500900","三峽區"
"237005","AKY-6261","2017/09/23 18:19:26","新北市三峽區長福街13-1號","121.370508333333","24.9338033333333","6500900","三峽區"
"236073","105-UM","2017/09/23 18:19:31","新北市土城區永豐路149-1號","121.467225","24.9826466666667","6501300","土城區"
"236043","107-UM","2017/09/23 18:19:23","新北市土城區裕生路21巷1弄2號","121.448665","24.9872","6501300","土城區"
"236079","166-UM","2017/09/23 18:19:24","新北市土城區永平街17號","121.428223333333","24.9625583333333","6501300","土城區"
"236031","253-BX","2017/09/23 18:19:36","新北市土城區順風路46號","121.440188333333","24.9771216666667","6501300","土城區"
"236027","269-VK","2017/09/23 18:19:14","新北市土城區承天路67號","121.439523333333","24.96352","6501300","土城區"
"236015","270-VK","2017/09/23 18:19:37","新北市土城區青雲路39巷7號","121.460316666667","24.9875816666667","6501300","土城區"
"236038","271-VK","2017/09/23 18:19:36","新北市土城區青雲路483巷10弄20號","121.459305","24.9730266666667","6501300","土城區"
"236023","401-BY","2017/09/23 18:19:31","新北市土城區明德路一段398號","121.453076666667","24.979575","6501300","土城區"
"236059","912-UM","2017/09/23 18:19:30","新北市土城區中央路四段196-1號","121.416351666667","24.9577816666667","6501300","土城區"
"236049","913-UM","2017/09/23 18:14:11","新北市土城區明德路一段398-1號","121.453615","24.9790833333333","6501300","土城區"
"236063","915-UM","2017/09/23 18:19:22","新北市土城區金城路三段202-3號","121.469585","24.9886183333333","6501300","土城區"
"236055","AAC-216","2017/09/23 18:19:38","新北市土城區中華路二段90號","121.438271666667","24.9748083333333","6501300","土城區"
"242031","AAC-296","2017/09/23 18:19:40","新北市新莊區新泰路255巷36號","121.444658333333","25.0396666666667","6500500","新莊區"
"242051","751-BX","2017/09/23 18:19:28","新北市新莊區民本街11巷30號","121.429055","25.0202566666667","6500500","新莊區"
"242029","705-TV","2017/09/23 18:19:26","新北市新莊區幸福路856號","121.443973333333","25.04904","6500500","新莊區"
"242025","615-BX","2017/09/23 18:19:38","新北市新莊區五權一路12巷21弄2號","121.457745","25.064175","6500500","新莊區"
"242027","612-BX","2017/09/23 18:19:25","新北市新莊區幸福路688號","121.450343333333","25.0492166666667","6500500","新莊區"
"242044","497-BY","2017/09/23 18:19:35","新北市新莊區新北大道七段856號","121.41399","25.023375","6500500","新莊區"
"242048","441-UM","2017/09/23 18:19:31","新北市樹林區俊興街209-4號","121.41754","25.014205","6500500","新莊區"
"242053","440-UM","2017/09/23 18:19:31","新北市新莊區民安西路410巷12弄2號","121.428061666667","25.0091416666667","6500500","新莊區"
"242004","413-TV","2017/09/23 18:19:28","新北市新莊區中港一街86號","121.449465","25.0453333333333","6500500","新莊區"
"242042","400-BY","2017/09/23 18:19:28","新北市新莊區天祥街71巷16號","121.415408333333","25.0284816666667","6500500","新莊區"
"242061","362-BY","2017/09/23 18:19:34","新北市新莊區四維路11號","121.42406","25.0240533333333","6500500","新莊區"
"242058","353-BY","2017/09/23 18:19:31","桃園市龜山區萬壽路一段36號","121.40935","25.019785","6500500","新莊區"
"242007","132-UY","2017/09/23 18:19:37","新北市新莊區自強街37巷14弄29號","121.45404","25.0473866666667","6500500","新莊區"
"242036","133-UY","2017/09/23 18:19:35","新北市新莊區後港一路49巷1弄1號","121.425831666667","25.0265666666667","6500500","新莊區"
"242021","135-UY","2017/09/23 18:19:24","新北市新莊區新興街56號","121.45076","25.037525","6500500","新莊區"
"242046","172-VK","2017/09/23 18:19:32","新北市新莊區中正路829巷22弄26號","121.420825","25.0269283333333","6500500","新莊區"
"242009","173-VK","2017/09/23 18:19:41","新北市新莊區昌盛街15號","121.453136666667","25.0500633333333","6500500","新莊區"
"242015","175-VK","2017/09/23 18:19:17","新北市新莊區中平路198巷9號","121.445613333333","25.0485033333333","6500500","新莊區"
"242002","176-VK","2017/09/23 18:19:32","新北市新莊區碧江街18-7號","121.455453333333","25.0346533333333","6500500","新莊區"
"242056","349-TH","2017/09/23 18:19:33","新北市新莊區豐年街54號","121.446513333333","25.031685","6500500","新莊區"
"242017","350-TH","2017/09/23 18:19:25","新北市新莊區中正路399號","121.44532","25.0346216666667","6500500","新莊區"
"242011","351-TH","2017/09/23 18:19:31","新北市新莊區中港路591巷32號","121.449673333333","25.052335","6500500","新莊區"
"238015","755-BX","2017/09/23 18:19:25","新北市樹林區文德街1巷4號","121.419375","24.991195","6500700","樹林區"
"238023","601-UM","2017/09/23 18:19:20","新北市樹林區三福街72號","121.404575","25.016315","6500700","樹林區"
"238018","571-TV","2017/09/23 18:19:37","新北市樹林區俊英街2號","121.43048","24.999035","6500700","樹林區"
"238021","KEA-2217","2017/09/23 18:19:38","新北市樹林區柑園街二段22號","121.387656666667","24.9556583333333","6500700","樹林區"
"238022","KEA-2213","2017/09/23 18:19:20","新北市樹林區太平路225巷1號","121.418591666667","24.97706","6500700","樹林區"
"238025","303-VK","2017/09/23 18:19:19","新北市樹林區保安街一段332號","121.418191666667","24.9977483333333","6500700","樹林區"
"238017","283-BY","2017/09/23 18:19:30","新北市樹林區保安街二段337巷23號","121.411041666667","25.0079183333333","6500700","樹林區"
"238014","282-BY","2017/09/23 18:19:33","新北市樹林區潭興街103號","121.424715","24.998495","6500700","樹林區"
"238020","268-VK","2017/09/23 18:19:29","新北市樹林區三俊街63號","121.4136","25.015755","6500700","樹林區"
"238026","172-UY","2017/09/23 18:19:22","新北市樹林區佳園路一段80巷2號","121.393316666667","24.9697116666667","6500700","樹林區"
"238003","169-UY","2017/09/23 18:19:20","新北市樹林區文化街16號","121.419801666667","24.9873866666667","6500700","樹林區"
"239006","891-R6","2017/09/23 18:19:22","新北市鶯歌區德昌街140巷28號","121.332255","24.9613816666667","6500800","鶯歌區"
"239008","527-UM","2017/09/23 18:19:34","新北市鶯歌區朝陽街2號","121.336233333333","24.976575","6500800","鶯歌區"
"239005","526-UM","2017/09/23 18:19:37","新北市鶯歌區鶯桃路668巷52弄21號","121.329755","24.97032","6500800","鶯歌區"
"239001","417-VK","2017/09/23 18:19:31","新北市鶯歌區國中街178號","121.338218333333","24.93924","6500800","鶯歌區"
"239003","360-BY","2017/09/23 18:19:36","新北市鶯歌區福安街13巷1號","121.335651666667","24.9653533333333","6500800","鶯歌區"
"239002","359-BY","2017/09/23 18:19:28","新北市鶯歌區中正一路168號","121.352558333333","24.9563333333333","6500800","鶯歌區"
"239004","193-VK","2017/09/23 18:19:21","新北市鶯歌區尖山路173巷31號","121.34546","24.9468016666667","6500800","鶯歌區"
"221008","489-VK","2017/09/23 18:19:27","新北市汐止區康寧街901號","121.651426666667","25.0750133333333","6501100","汐止區"
"221036","130-UY","2017/09/23 18:19:19","新北市汐止區長興街一段20號","121.669638333333","25.078965","6501100","汐止區"
"221015","131-UY","2017/09/23 18:19:35","新北市汐止區鄉長路二段23巷14號","121.667536666667","25.0830383333333","6501100","汐止區"
"221010","269-BY","2017/09/23 18:19:28","新北市汐止區祥雲街18巷3號","121.646545","25.0898383333333","6501100","汐止區"
"221012","276-VK","2017/09/23 13:23:13","新北市汐止區汐萬路一段256巷3號","121.653461666667","25.0746366666667","6501100","汐止區"
"221012","278-VK","2017/09/23 18:19:37","新北市汐止區保長路35巷16弄1號","121.673143333333","25.079875","6501100","汐止區"
"221023","279-VK","2017/09/23 18:19:33","新北市汐止區康寧街430號","121.63124","25.067625","6501100","汐止區"
"221032","280-BY","2017/09/23 18:19:25","新北市汐止區民權街二段109巷4弄1號","121.619016666667","25.0468083333333","6501100","汐止區"
"221027","281-BY","2017/09/23 18:19:35","新北市汐止區和平街13號","121.663025","25.0707216666667","6501100","汐止區"
"221038","297-VK","2017/09/23 18:19:36","新北市汐止區仁愛路311號","121.664711666667","25.0675283333333","6501100","汐止區"
"221029","298-VK","2017/09/23 18:19:26","新北市汐止區樟樹二路330巷68號","121.6429","25.069835","6501100","汐止區"
"221021","299-VK","2017/09/23 18:19:32","新北市汐止區連興街116號","121.653703333333","25.06267","6501100","汐止區"
"221035","622-UM","2017/09/23 18:19:37","新北市汐止區大同路二段187巷8弄1號","121.65263","25.0657283333333","6501100","汐止區"
"221025","623-UM","2017/09/23 18:19:36","新北市汐止區勤進路12巷42號","121.659076666667","25.0628266666667","6501100","汐止區"
"221033","647-BX","2017/09/23 18:19:29","新北市汐止區宜興街33巷1號","121.621973333333","25.0421216666667","6501100","汐止區"
"221002","707-TV","2017/09/23 18:19:22","新北市汐止區福德一路201巷32號","121.635818333333","25.064865","6501100","汐止區"
"221018","753-BX","2017/09/23 18:19:28","新北市汐止區茄苳路94號","121.667333333333","25.070455","6501100","汐止區"
"220062","303-R5","2017/09/23 18:19:23","新北市板橋區民生路二段120號","121.470613333333","25.019625","6500100","板橋區"
"242034","280-VK","2017/09/23 18:19:24","新北市新莊區景德路227號","121.448905","25.033715","6500500","新莊區"
