"lineid","car","time","location","longitude","latitude","cityid","cityname"
"234046","148-BY","2017/09/23 18:59:29","新北市永和區秀朗路二段148巷7弄16號","121.525845","25.0002783333333","6500400","永和區"
"234013","149-BY","2017/09/23 18:59:30","新北市永和區中山路一段60巷8號","121.513133333333","25.0110466666667","6500400","永和區"
"234007","208-UY","2017/09/23 18:59:29","新北市永和區中山路一段89號","121.51177","25.01073","6500400","永和區"
"234081","298-R6","2017/09/23 18:59:34","新北市永和區永亨路83號","121.522043333333","25.0057116666667","6500400","永和區"
"234038","336-UY","2017/09/23 18:59:37","新北市永和區成功路二段201巷6號","121.52695","24.9961016666667","6500400","永和區"
"234064","337-UY","2017/09/23 18:59:35","新北市永和區秀朗路一段164號","121.518475","25.0033616666667","6500400","永和區"
"234086","338-UY","2017/09/23 18:59:21","新北市永和區永利路18號","121.51803","25.00578","6500400","永和區"
"234070","552-UM","2017/09/23 18:59:35","新北市永和區竹林路96巷4號","121.51912","25.0121516666667","6500400","永和區"
"234054","553-UM","2017/09/23 18:59:24","新北市永和區竹林路66巷2號","121.518236666667","25.013355","6500400","永和區"
"234017","745-BX","2017/09/23 18:59:20","新北市永和區永和路二段299號","121.51599","25.0161233333333","6500400","永和區"
"234030","746-BX","2017/09/23 18:59:36","新北市永和區秀朗路二段289號","121.526243333333","24.9981133333333","6500400","永和區"
"234061","AAD-866","2017/09/23 18:59:30","新北市永和區福和路311-1號","121.516235","25.0070033333333","6500400","永和區"
"234042","862-TW","2017/09/23 18:59:26","新北市永和區永貞路267號","121.511798333333","25.0047433333333","6500400","永和區"
"234050","863-TW","2017/09/23 18:59:25","新北市永和區文化路194號","121.510838333333","25.0163266666667","6500400","永和區"
"234026","9371-KE","2017/09/23 18:59:29","新北市永和區安樂路467號","121.514363333333","25.0053683333333","6500400","永和區"
"234011","9373-KE","2017/09/23 18:59:37","新北市永和區忠孝街34巷18號","121.514478333333","25.01683","6500400","永和區"
"249005","172-UM","2017/09/23 18:59:28","新北市八里區長道坑11號","121.395423333333","25.1228316666667","6502300","八里區"
"249001","173-UM","2017/09/23 18:59:20","新北市八里區龍米路二段228-1號","121.432728333333","25.1584666666667","6502300","八里區"
"249002","305-UY","2017/09/23 18:42:10","新北市八里區龍形一街33巷6-1號","121.449356666667","25.1295133333333","6502300","八里區"
"248016","026-BX","2017/09/23 18:59:22","新北市五股區成泰路三段543巷16號","121.45091","25.102205","6501500","五股區"
"248006","077-UY","2017/09/23 18:59:27","新北市五股區中興路一段50號","121.468058333333","25.0726166666667","6501500","五股區"
"248008","095-VK","2017/09/23 18:59:24","新北市五股區中興路一段130號","121.465535","25.0737883333333","6501500","五股區"
"248020","225-UY","2017/09/23 18:59:25","新北市五股區凌雲路三段57號","121.425228333333","25.12505","6501500","五股區"
"248014","261-SL","2017/09/23 18:59:29","新北市五股區民義路一段107巷15號","121.433205","25.0853266666667","6501500","五股區"
"248012","655-BX","2017/09/23 18:59:24","新北市五股區成泰路二段141號","121.438828333333","25.085225","6501500","五股區"
"248004","677-BX","2017/09/23 18:59:21","新北市五股區民義路二段26號","121.419636666667","25.097185","6501500","五股區"
"248002","678-BX","2017/09/23 18:59:36","新北市五股區凌雲路一段149號","121.449173333333","25.10241","6501500","五股區"
"248010","682-TV","2017/09/23 18:59:24","新北市五股區水碓九路11號","121.427871666667","25.071875","6501500","五股區"
"234023","9380-KE","2017/09/23 18:59:33","新北市永和區竹林路75巷7號","121.519178333333","25.013285","6500400","永和區"
"234077","969-R7","2017/09/23 18:59:26","新北市永和區智光街28號","121.517865","24.9989616666667","6500400","永和區"
"234074","AAC-211","2017/09/23 18:59:28","新北市永和區環河東路二段98號","121.524131666667","25.0103466666667","6500400","永和區"
"234067","AAC-212","2017/09/23 18:59:18","新北市永和區永和路一段1號","121.512956666667","25.0050566666667","6500400","永和區"
"234003","AAC-295","2017/09/23 18:59:30","新北市永和區和平街38號","121.512926666667","25.00994","6500400","永和區"
"232011","375-UM","2017/09/23 18:59:25","新北市坪林區坪林街98號","121.712011666667","24.9363133333333","6502000","坪林區"
"244013","069-UM","2017/09/23 18:59:34","新北市林口區麗園路6號","121.375266666667","25.0698633333333","6501700","林口區"
"244019","403-UM","2017/09/23 18:59:39","新北市林口區麗園二街12巷4-2號","121.378405","25.0684666666667","6501700","林口區"
"244009","410-SL","2017/09/23 18:59:23","新北市林口區竹林路358巷15號","121.392463333333","25.08407","6501700","林口區"
"244023","483-VK","2017/09/23 18:59:37","新北市林口區民權路12巷1號","121.371505","25.08001","6501700","林口區"
"244017","485-VK","2017/09/23 18:59:35","新北市林口區文化二路一段68巷24-3號","121.367143333333","25.068865","6501700","林口區"
"244011","656-BX","2017/09/23 18:59:38","新北市林口區中正路311號","121.388858333333","25.0776566666667","6501700","林口區"
"244025","837-TS","2017/09/23 18:59:32","新北市林口區文化北路一段370號","121.362375","25.0743716666667","6501700","林口區"
"243013","AAD-798","2017/09/23 18:59:38","新北市泰山區明志路三段239號","121.423531666667","25.037775","6501600","泰山區"
"243009","297-R6","2017/09/23 18:59:35","新北市泰山區泰林路二段353號","121.428208333333","25.0637283333333","6501600","泰山區"
"243015","380-SR","2017/09/23 18:59:19","新北市泰山區明志路一段193號","121.43287","25.06168","6501600","泰山區"
"243014","421-VK","2017/09/23 18:59:36","新北市泰山區黎明路3號","121.421051666667","25.063235","6501600","泰山區"
"243010","KEA-2215","2017/09/23 18:59:35","新北市泰山區辭修路30號","121.428983333333","25.0582733333333","6501600","泰山區"
"243011","KEA-2216","2017/09/23 18:59:26","新北市泰山區明志路二段246-1號","121.427108333333","25.048175","6501600","泰山區"
"243012","646-TV","2017/09/23 18:59:25","新北市泰山區仁德路110號","121.432686666667","25.0569933333333","6501600","泰山區"
"243016","680-BX","2017/09/23 18:59:33","新北市泰山區明志路二段222號","121.427123333333","25.0486516666667","6501600","泰山區"
"222003","436-BY","2017/09/23 18:59:33","新北市深坑區深南路51-1號","121.621336666667","25.01017","6501800","深坑區"
"222001","628-TS","2017/09/23 18:59:23","新北市深坑區北深路一段300號","121.625003333333","25.00651","6501800","深坑區"
"222002","659-BX","2017/09/23 18:59:19","新北市深坑區文山路一段31巷2號","121.6299","25.0033533333333","6501800","深坑區"
"231041","002-UM","2017/09/23 18:59:25","新北市新店區環河路64號","121.53709","24.9627033333333","6500600","新店區"
"231055","0293-UT","2017/09/23 18:59:35","新北市新店區新生街13巷42號","121.538958333333","24.9666133333333","6500600","新店區"
"231059","046-UY","2017/09/23 18:59:30","新北市新店區安和路一段16號","121.517256666667","24.965275","6500600","新店區"
"231061","047-UY","2017/09/23 18:59:19","新北市新店區安康路一段302-3號","121.517661666667","24.9640016666667","6500600","新店區"
"231060","106-UY","2017/09/23 18:59:28","新北市新店區安豐路49號","121.50018","24.95408","6500600","新店區"
"231051","107-UY","2017/09/23 18:59:37","新北市新店區中正路385號","121.534621666667","24.9770416666667","6500600","新店區"
"231048","108-UY","2017/09/23 18:59:26","新北市新店區德正街27巷29弄14號","121.54577","24.97194","6500600","新店區"
"231052","187-VK","2017/09/23 18:59:37","新北市新店區屈尺路6號","121.54939","24.9233483333333","6500600","新店區"
"231050","215-TC","2017/09/23 18:59:30","新北市新店區新烏路一段11巷7號","121.547333333333","24.9512966666667","6500600","新店區"
"231063","268-BY","2017/09/23 18:59:28","新北市新店區車子路110號","121.505253333333","24.952085","6500600","新店區"
"231046","278-BY","2017/09/23 18:59:28","新北市新店區直潭六街20號","121.534351666667","24.9409633333333","6500600","新店區"
"231058","3712-VJ","2017/09/23 18:59:38","新北市新店區中興路一段191號","121.543213333333","24.96503","6500600","新店區"
"231056","4716-K9","2017/09/23 18:59:33","新北市新店區二十張路46巷37弄7號","121.536338333333","24.9818533333333","6500600","新店區"
"231067","4772-VM","2017/09/23 18:59:25","新北市新店區安康路一段247巷4弄4號","121.524213333333","24.962645","6500600","新店區"
"231065","512-UM","2017/09/23 18:59:16","新北市新店區安祥路110巷17弄7-1號","121.473633333333","24.95486","6500600","新店區"
"231054","513-UM","2017/09/23 18:59:33","新北市新店區新店路27-1號","121.539975","24.9528083333333","6500600","新店區"
"231064","515-UM","2017/09/23 18:59:36","新北市新店區安康路一段266巷4號","121.519943333333","24.9640066666667","6500600","新店區"
"231045","617-UM","2017/09/23 18:59:36","新北市新店區光明街1-1號","121.53812","24.9591616666667","6500600","新店區"
"231040","619-UM","2017/09/23 18:59:34","新北市新店區三民路191號","121.535516666667","24.9756316666667","6500600","新店區"
"231042","641-BX","2017/09/23 18:59:35","新北市新店區中興路一段284號","121.545825","24.9686716666667","6500600","新店區"
"231049","719-UM","2017/09/23 18:59:35","新北市新店區二十張路123號","121.53604","24.979435","6500600","新店區"
"231062","720-UM","2017/09/23 18:59:22","新北市新店區柴埕路59號","121.51364","24.9649066666667","6500600","新店區"
"231044","897-TW","2017/09/23 18:59:22","新北市新店區寶中路72號","121.54794","24.98067","6500600","新店區"
"231043","899-TW","2017/09/23 18:59:32","新北市新店區北新路二段7號","121.542726666667","24.9713633333333","6500600","新店區"
"231066","AKT-0513","2017/09/23 18:59:31","新北市新店區安康路二段380號","121.500626666667","24.9569933333333","6500600","新店區"
"241029","942-UM","2017/09/23 18:59:21","新北市三重區重安街15-1號","121.490351666667","25.057875","6500200","三重區"
"235066","003-UY","2017/09/23 18:59:23","新北市中和區中山路二段131巷5弄5號","121.502863333333","25.0029816666667","6500300","中和區"
"235064","005-UY","2017/09/23 18:59:36","新北市中和區泰和街45號","121.499133333333","24.99932","6500300","中和區"
"235063","006-UY","2017/09/23 18:59:21","新北市中和區中正路537號","121.487695","24.99432","6500300","中和區"
"235056","096-UM","2017/09/23 18:59:30","新北市中和區新民街94巷5號","121.481251666667","25.0087116666667","6500300","中和區"
"235039","097-UM","2017/09/23 18:59:28","新北市中和區安樂路217巷28號","121.513655","24.9983833333333","6500300","中和區"
"235065","098-UM","2017/09/23 18:59:31","新北市中和區中山路二段2巷45弄12號","121.501973333333","25.006735","6500300","中和區"
"235040","150-BY","2017/09/23 18:59:34","新北市中和區安樂路51巷22號","121.511516666667","24.9941066666667","6500300","中和區"
"235058","151-BY","2017/09/23 18:59:22","新北市中和區員山路143巷14-3號","121.480348333333","24.996135","6500300","中和區"
"235055","183-VK","2017/09/23 18:59:31","新北市中和區民德路8-1號","121.468806666667","25.0029133333333","6500300","中和區"
"235038","185-VK","2017/09/23 18:59:20","新北市中和區大勇街31巷1號","121.517465","24.9941616666667","6500300","中和區"
"235049","186-VK","2017/09/23 18:59:33","新北市中和區景安路167巷31號","121.506903333333","24.995015","6500300","中和區"
"235067","255-BX","2017/09/23 18:59:23","新北市中和區中正路839巷23號","121.483871666667","25.0022183333333","6500300","中和區"
"235044","293-VK","2017/09/23 18:59:24","新北市中和區中興街169號","121.499931666667","24.9904483333333","6500300","中和區"
"235072","301-VK","2017/09/23 18:59:23","新北市中和區景平路711號","121.496531666667","25.003735","6500300","中和區"
"235068","375-QA","2017/09/23 18:59:24","新北市中和區圓通路222號","121.495413333333","24.9931533333333","6500300","中和區"
"235051","376-QA","2017/09/23 18:59:23","新北市中和區忠孝街17號","121.510196666667","24.982825","6500300","中和區"
"235061","378-QA","2017/09/23 18:59:17","新北市中和區民享街69巷5號","121.474606666667","25.0022716666667","6500300","中和區"
"235050","4979-A6","2017/09/23 18:59:24","新北市中和區南山路284號","121.507928333333","24.9876666666667","6500300","中和區"
"235069","4980-A6","2017/09/23 18:59:36","新北市中和區圓通路72號","121.5002","24.9972733333333","6500300","中和區"
"235042","551-UM","2017/09/23 18:59:23","新北市中和區秀朗路三段50巷8弄4號","121.525026666667","24.9953166666667","6500300","中和區"
"235070","558-UM","2017/09/23 18:59:31","新北市中和區中和路100號","121.502","24.99955","6500300","中和區"
"235045","565-BX","2017/09/23 18:59:31","新北市中和區景新街467巷3號","121.513611666667","24.9881683333333","6500300","中和區"
"235043","611-BX","2017/09/23 18:59:36","新北市中和區秀朗路三段95號","121.52651","24.99506","6500300","中和區"
"235054","640-BX","2017/09/23 18:59:39","新北市中和區民享街35巷3號","121.474476666667","25.003975","6500300","中和區"
"235060","647-TV","2017/09/23 18:59:21","新北市中和區中山路三段148號","121.473581666667","25.0063433333333","6500300","中和區"
"235047","732-UM","2017/09/23 18:59:31","新北市中和區興南路二段54巷2-2號","121.506251666667","24.9852833333333","6500300","中和區"
"235046","733-UM","2017/09/23 18:59:24","新北市中和區興南路二段3巷7號","121.508193333333","24.9863316666667","6500300","中和區"
"235062","800-TS","2017/09/23 18:59:31","新北市中和區中山路二段456號","121.488816666667","25.00435","6500300","中和區"
"235057","801-TS","2017/09/23 18:59:37","新北市中和區民安街59號","121.478923333333","24.99993","6500300","中和區"
"235041","802-TS","2017/09/23 18:59:25","新北市中和區中安街218號","121.511933333333","24.99891","6500300","中和區"
"235052","805-TS","2017/09/23 18:59:18","新北市中和區興南路二段114巷2號","121.504336666667","24.98421","6500300","中和區"
"235048","896-TW","2017/09/23 18:59:37","新北市中和區華新街109巷1弄1號","121.50873","24.982665","6500300","中和區"
"235053","900-TW","2017/09/23 18:59:38","新北市中和區壽德街11-1號","121.465195","24.9961033333333","6500300","中和區"
"235037","AAC-213","2017/09/23 18:59:25","新北市中和區自立路99巷26號","121.523526666667","24.9946116666667","6500300","中和區"
"235059","AAC-215","2017/09/23 18:59:20","新北市中和區圓通路369巷5弄12號","121.491371666667","24.9884466666667","6500300","中和區"
"220068","013-TV","2017/09/23 18:59:30","新北市板橋區中山路二段465巷74弄2號","121.481161666667","25.02198","6500100","板橋區"
"220065","072-UY","2017/09/23 18:59:39","新北市板橋區民族路287巷12號","121.471133333333","25.0071966666667","6500100","板橋區"
"220086","073-UY","2017/09/23 18:59:29","新北市板橋區民權路209-1號","121.457856666667","25.0148066666667","6500100","板橋區"
"220106","075-UY","2017/09/23 18:59:38","新北市板橋區文化路二段124巷28-2號","121.47124","25.0256316666667","6500100","板橋區"
"220069","AAD-861","2017/09/23 18:59:20","新北市板橋區華興街67號","121.457205","25.0049616666667","6500100","板橋區"
"247010","339-TH","2017/09/23 18:58:23","新北市五股區中興路三段163號","121.449195","25.0807866666667","6501400","蘆洲區"
"247008","053-VK","2017/09/23 18:59:15","新北市五股區中興路三段163號","121.44915","25.0807216666667","6501400","蘆洲區"
"226004","312-R5","2017/09/23 18:59:31","新北市平溪區嶺腳里田子74號","121.74618","25.0285983333333","6502400","平溪區"
"228003","097-TW","2017/09/23 18:59:29","新北市貢寮區和美里龍洞街40號","121.914528333333","25.1112883333333","6502600","貢寮區"
"228001","212-TW","2017/09/23 18:59:27","新北市貢寮區仁理村研海街12-1號","121.923785","25.0517216666667","6502600","貢寮區"
"228002","585-TW","2017/09/23 18:59:33","新北市貢寮區福隆里東興街106巷25弄1號","121.946383333333","25.0183533333333","6502600","貢寮區"
"224010","AGQ-8101","2017/09/23 18:55:37","新北市瑞芳區輕便路59號","121.845046666667","25.1100116666667","6501200","瑞芳區"
"224006","676-BX","2017/09/23 18:59:39","新北市瑞芳區中正路22-1號","121.808165","25.1071516666667","6501200","瑞芳區"
"224009","285-BY","2017/09/23 18:59:27","新北市瑞芳區祈堂路8號","121.85922","25.112155","6501200","瑞芳區"
"224008","275-VK","2017/09/23 18:59:26","新北市瑞芳區逢甲路333號","121.801085","25.1122233333333","6501200","瑞芳區"
"224007","273-VK","2017/09/23 18:59:30","新北市瑞芳區中央路48巷56-22號","121.759468333333","25.1037683333333","6501200","瑞芳區"
"224005","271-BY","2017/09/23 18:59:25","新北市瑞芳區濱二路66-6號","121.831538333333","25.119425","6501200","瑞芳區"
"227010","642-TC","2017/09/23 18:59:22","新北市雙溪區牡丹里中正路58巷33號","121.86651","25.0417233333333","6502500","雙溪區"
"227002","400-TW","2017/09/23 18:59:23","新北市雙溪區平林里康福家園10號","121.858801666667","25.03734","6502500","雙溪區"
"253005","032-BX","2017/09/23 18:59:28","新北市石門區尖子鹿116-3號","121.575271666667","25.2976066666667","6502200","石門區"
"253006","295-VK","2017/09/23 18:59:21","新北市石門區下員坑46-6號","121.51724","25.277055","6502200","石門區"
"208002","742-BX","2017/09/23 18:59:33","新北市金山區仁愛路37-14號","121.63565","25.220325","6502700","金山區"
"208003","665-BX","2017/09/23 18:59:32","新北市金山區中正路61號","121.634163333333","25.22193","6502700","金山區"
"208001","761-BX","2017/09/23 18:59:18","新北市金山區中山路79號","121.64047","25.218555","6502700","金山區"
"251009","008-UM","2017/09/23 18:59:40","新北市淡水區重建街38號","121.439915","25.1713166666667","6501000","淡水區"
"251005","010-UM","2017/09/23 18:59:24","新北市淡水區新生街78號","121.439145","25.174865","6501000","淡水區"
"251014","180-VK","2017/09/23 18:59:37","新北市淡水區小中寮30號","121.490058333333","25.2277366666667","6501000","淡水區"
"251010","413-VK","2017/09/23 18:59:38","新北市淡水區淡海路111號","121.421796666667","25.1827233333333","6501000","淡水區"
"251012","441-VK","2017/09/23 18:59:34","新北市淡水區新民街294號","121.435123333333","25.1822583333333","6501000","淡水區"
"251016","442-VK","2017/09/23 18:59:30","新北市淡水區淡金路三段333號","121.44881","25.20633","6501000","淡水區"
"251001","559-UM","2017/09/23 18:59:29","新北市淡水區自強路249號","121.46307","25.12753","6501000","淡水區"
"251006","561-UM","2017/09/23 18:59:28","新北市淡水區下圭柔山90-8號","121.431296666667","25.21038","6501000","淡水區"
"251007","577-R6","2017/09/23 18:59:34","新北市淡水區民生路135巷18號","121.466291666667","25.139025","6501000","淡水區"
"251011","650-BX","2017/09/23 18:59:20","新北市淡水區中正東路二段48巷20號","121.457918333333","25.1580283333333","6501000","淡水區"
"251002","672-BX","2017/09/23 18:59:37","新北市淡水區中正東路61號","121.446946666667","25.1677883333333","6501000","淡水區"
"251003","673-BX","2017/09/23 18:59:35","新北市淡水區中山北路一段149巷28號","121.443123333333","25.1782016666667","6501000","淡水區"
"207003","550-UM","2017/09/23 18:59:24","新北市萬里區大鵬里頂社29號","121.656563333333","25.2108416666667","6502800","萬里區"
"207004","225-TW","2017/09/23 18:59:26","新北市萬里區萬里里獅頭路23號","121.693218333333","25.1783083333333","6502800","萬里區"
"252002","178-VK","2017/09/23 18:59:36","新北市三芝區中正路一段82號","121.504131666667","25.2573116666667","6502100","三芝區"
"252003","249-BX","2017/09/23 18:59:34","新北市三芝區後厝里北勢子42-3號","121.472211666667","25.25259","6502100","三芝區"
"252001","292-VK","2017/09/23 18:59:33","新北市三芝區中興街二段260號","121.501708333333","25.2530266666667","6502100","三芝區"
"237004","078-UY","2017/09/23 18:59:31","新北市三峽區有木111-1號","121.435041666667","24.8585183333333","6500900","三峽區"
"237007","153-BY","2017/09/23 18:59:33","新北市三峽區大埔路87號","121.366483333333","24.9073966666667","6500900","三峽區"
"237009","210-TH","2017/09/23 18:59:21","新北市三峽區文化路155號","121.368108333333","24.9358266666667","6500900","三峽區"
"237013","252-BX","2017/09/23 18:59:35","新北市三峽區光明路69巷27號","121.376843333333","24.9292766666667","6500900","三峽區"
"237012","275-BY","2017/09/23 18:59:35","新北市三峽區三樹路263號","121.379016666667","24.9428616666667","6500900","三峽區"
"237008","302-VK","2017/09/23 18:59:27","新北市三峽區中正路一段289號","121.371603333333","24.9256933333333","6500900","三峽區"
"237014","433-BY","2017/09/23 18:59:35","新北市三峽區大勇路1-3號","121.367085","24.938405","6500900","三峽區"
"237006","5529-G3","2017/09/23 18:59:25","新北市三峽區溪東路233巷51-1號","121.410563333333","24.9345633333333","6500900","三峽區"
"237011","572-TV","2017/09/23 18:03:49","新北市三峽區介壽路三段20號","121.396013333333","24.936195","6500900","三峽區"
"237016","649-BX","2017/09/23 18:59:28","新北市三峽區安坑46-6號","121.457416666667","24.93225","6500900","三峽區"
"237010","706-TV","2017/09/23 18:59:35","新北市三峽區國光街59號","121.374465","24.9380316666667","6500900","三峽區"
"237005","AKY-6261","2017/09/23 18:59:26","新北市三峽區中山路459巷163-3號","121.348638333333","24.9329266666667","6500900","三峽區"
"236073","105-UM","2017/09/23 18:59:24","新北市土城區清水路25巷25號","121.453135","24.9806766666667","6501300","土城區"
"236043","107-UM","2017/09/23 18:59:23","新北市土城區學府路一段256巷3號","121.451158333333","24.9846316666667","6501300","土城區"
"236079","166-UM","2017/09/23 18:59:24","新北市土城區中央路四段125巷5號","121.416581666667","24.9573066666667","6501300","土城區"
"236031","253-BX","2017/09/23 18:59:23","新北市土城區慶利街15號","121.439235","24.973755","6501300","土城區"
"236027","269-VK","2017/09/23 18:59:39","新北市土城區光明街6號","121.442075","24.9744166666667","6501300","土城區"
"236015","270-VK","2017/09/23 18:59:37","新北市土城區立德路105號","121.46364","24.987565","6501300","土城區"
"236038","271-VK","2017/09/23 18:59:25","新北市土城區明德路一段196巷17號","121.46144","24.9785133333333","6501300","土城區"
"236023","401-BY","2017/09/23 18:59:31","新北市土城區明峰街50號","121.46776","24.9864566666667","6501300","土城區"
"236059","912-UM","2017/09/23 18:59:30","新北市土城區金城路一段84號","121.444766666667","24.973405","6501300","土城區"
"236049","913-UM","2017/09/23 18:50:31","新北市土城區青雲路1-1號","121.460793333333","24.9900816666667","6501300","土城區"
"236063","915-UM","2017/09/23 18:59:22","新北市土城區延和路41巷6弄18號","121.466733333333","24.990225","6501300","土城區"
"236055","AAC-216","2017/09/23 18:59:18","新北市土城區學成路146號","121.448833333333","24.9895766666667","6501300","土城區"
"238015","755-BX","2017/09/23 18:59:25","新北市樹林區啟智街124巷11號","121.415298333333","24.9880633333333","6500700","樹林區"
"238023","601-UM","2017/09/23 18:59:20","新北市樹林區工興街14巷2號","121.398976666667","25.0136016666667","6500700","樹林區"
"238019","599-UM","2017/09/23 18:59:27","新北市樹林區東榮街91巷2弄2號","121.416006666667","24.9823416666667","6500700","樹林區"
"238018","571-TV","2017/09/23 18:59:17","新北市樹林區鎮前街165號","121.422223333333","24.9872383333333","6500700","樹林區"
"238021","KEA-2217","2017/09/23 18:59:29","新北市樹林區西圳街二段90號","121.384975","24.958125","6500700","樹林區"
"238022","KEA-2213","2017/09/23 18:59:40","新北市樹林區東興街2-4號","121.409445","24.9793816666667","6500700","樹林區"
"238025","303-VK","2017/09/23 18:59:40","新北市樹林區中山路三段172號","121.388783333333","24.9700416666667","6500700","樹林區"
"238017","283-BY","2017/09/23 18:59:30","新北市樹林區光興街44號","121.40988","25.0027766666667","6500700","樹林區"
"238014","282-BY","2017/09/23 18:59:33","新北市樹林區潭興街143巷28弄2號","121.425005","24.9996966666667","6500700","樹林區"
"238020","268-VK","2017/09/23 18:59:29","新北市樹林區俊英街176號","121.426125","25.0075716666667","6500700","樹林區"
"238026","172-UY","2017/09/23 18:59:22","新北市樹林區佳園路一段27號","121.39289","24.971035","6500700","樹林區"
"238003","169-UY","2017/09/23 18:59:20","新北市樹林區文化街28號","121.419386666667","24.9876833333333","6500700","樹林區"
"239007","AAC-297","2017/09/23 18:59:30","新北市鶯歌區中山路138巷3-10號","121.349606666667","24.9585933333333","6500800","鶯歌區"
"239006","891-R6","2017/09/23 18:59:22","新北市鶯歌區鶯桃路296巷94弄33號","121.337763333333","24.9614166666667","6500800","鶯歌區"
"239008","527-UM","2017/09/23 18:59:35","新北市鶯歌區國際二路12巷9號","121.337961666667","24.9745666666667","6500800","鶯歌區"
"239005","526-UM","2017/09/23 18:59:37","新北市鶯歌區大湖路361巷62號","121.331055","24.97735","6500800","鶯歌區"
"239001","417-VK","2017/09/23 18:59:31","新北市鶯歌區永安街60號","121.338183333333","24.9563416666667","6500800","鶯歌區"
"239003","360-BY","2017/09/23 18:59:36","新北市鶯歌區鶯桃路483號","121.331768333333","24.9662733333333","6500800","鶯歌區"
"239002","359-BY","2017/09/23 18:59:28","新北市鶯歌區中山路207號","121.346786666667","24.956975","6500800","鶯歌區"
"239004","193-VK","2017/09/23 18:59:21","新北市鶯歌區中正三路390-1號","121.32672","24.9347583333333","6500800","鶯歌區"
"221008","489-VK","2017/09/23 18:59:27","新北市汐止區康寧街815巷1號","121.641118333333","25.0750933333333","6501100","汐止區"
"221036","130-UY","2017/09/23 18:59:39","新北市汐止區忠孝東路314巷13號","121.664473333333","25.0687283333333","6501100","汐止區"
"221015","131-UY","2017/09/23 18:59:35","新北市汐止區汐萬路一段147號","121.653276666667","25.07108","6501100","汐止區"
"221010","269-BY","2017/09/23 18:59:28","新北市汐止區康寧街901號","121.651495","25.07515","6501100","汐止區"
"221012","276-VK","2017/09/23 13:23:13","新北市汐止區汐萬路一段256巷3號","121.653461666667","25.0746366666667","6501100","汐止區"
"221012","278-VK","2017/09/23 18:59:37","新北市汐止區康寧街901號","121.650806666667","25.075195","6501100","汐止區"
"221023","279-VK","2017/09/23 18:59:33","新北市汐止區康寧街901號","121.65094","25.0751116666667","6501100","汐止區"
"221032","280-BY","2017/09/23 18:59:24","新北市汐止區橫科路407巷21號","121.625605","25.047965","6501100","汐止區"
"221027","281-BY","2017/09/23 18:54:09","新北市汐止區康寧街901號","121.650883333333","25.075285","6501100","汐止區"
"221038","297-VK","2017/09/23 18:59:36","新北市汐止區康寧街901號","121.65074","25.0753216666667","6501100","汐止區"
"221029","298-VK","2017/09/23 18:59:26","新北市汐止區樟樹一路256號","121.642401666667","25.0673183333333","6501100","汐止區"
"221021","299-VK","2017/09/23 18:59:32","新北市汐止區康寧街901號","121.651373333333","25.0751066666667","6501100","汐止區"
"221035","622-UM","2017/09/23 18:59:37","新北市汐止區康寧街901號","121.651163333333","25.0751633333333","6501100","汐止區"
"221025","623-UM","2017/09/23 18:59:36","新北市汐止區汐萬路一段256巷3號","121.652521666667","25.0745733333333","6501100","汐止區"
"221033","647-BX","2017/09/23 18:59:29","新北市汐止區南勢街3號","121.627083333333","25.0374083333333","6501100","汐止區"
"221002","707-TV","2017/09/23 18:59:21","新北市汐止區大同路一段2號","121.6209","25.05517","6501100","汐止區"
"221018","753-BX","2017/09/23 18:59:28","新北市汐止區汐萬路一段145號","121.653416666667","25.071065","6501100","汐止區"
"220079","145-BY","2017/09/23 18:59:37","新北市板橋區民權路202巷9弄8號","121.460118333333","25.0155083333333","6500100","板橋區"
"220080","200-UY","2017/09/23 18:59:33","新北市板橋區大觀路二段265巷3弄3號","121.442975","24.9982883333333","6500100","板橋區"
"220082","610-BX","2017/09/23 18:59:20","新北市板橋區篤行路二段136號","121.429943333333","24.9885883333333","6500100","板橋區"
"220101","245-BX","2017/09/23 16:45:02","新北市板橋區民生路二段161巷1號","121.46996","25.0198983333333","6500100","板橋區"
"220056","276-BY","2017/09/23 18:59:35","新北市板橋區信義路136號","121.458626666667","24.9921716666667","6500100","板橋區"
"220072","277-BY","2017/09/23 18:59:40","新北市樹林區中正路6號","121.429806666667","24.9975283333333","6500100","板橋區"
"220064","280-UM","2017/09/23 18:59:33","新北市板橋區中山路一段283巷2弄25號","121.4705","25.0153983333333","6500100","板橋區"
"220094","283-UM","2017/09/23 18:59:24","新北市板橋區文化路二段76號","121.469411666667","25.0250766666667","6500100","板橋區"
"220071","283-VK","2017/09/23 18:59:33","新北市板橋區重慶路245巷67弄1號","121.465458333333","25.00118","6500100","板橋區"
"220053","285-VK","2017/09/23 18:59:35","新北市板橋區中山路二段89巷45號","121.473658333333","25.0172433333333","6500100","板橋區"
"220083","286-VK","2017/09/23 18:59:36","新北市板橋區大觀路一段38巷156弄59號","121.44298","25.0067366666667","6500100","板橋區"
"220081","287-VK","2017/09/23 18:59:39","新北市板橋區光華街15巷46號","121.452575","25.0115166666667","6500100","板橋區"
"220090","288-VK","2017/09/23 18:59:36","新北市板橋區四維路177巷2弄1號","121.464043333333","25.0262816666667","6500100","板橋區"
"220061","293-UM","2017/09/23 18:59:33","新北市板橋區縣民大道三段138號","121.475138333333","25.0211766666667","6500100","板橋區"
"220075","297-UM","2017/09/23 18:59:27","新北市板橋區館前西路225號","121.454473333333","25.0084383333333","6500100","板橋區"
"220062","303-R5","2017/09/23 18:59:23","新北市板橋區民生路一段58號","121.47428","25.0150916666667","6500100","板橋區"
"220092","307-R5","2017/09/23 18:59:22","新北市板橋區漢生東路27-1號","121.465171666667","25.016985","6500100","板橋區"
"220098","317-R6","2017/09/23 18:59:36","新北市板橋區民有街29號","121.466016666667","25.025305","6500100","板橋區"
"220089","487-VK","2017/09/23 18:59:30","新北市板橋區仁化街56號","121.475695","25.0317016666667","6500100","板橋區"
"220088","491-VK","2017/09/23 18:59:34","新北市板橋區民生路二段148號","121.471235","25.019715","6500100","板橋區"
"220035","560-BX","2017/09/23 18:59:27","新北市板橋區中正路277號","121.455548333333","25.0189333333333","6500100","板橋區"
"220103","561-BX","2017/09/23 18:59:39","新北市板橋區介壽街86號","121.470301666667","25.0184666666667","6500100","板橋區"
"220084","568-UM","2017/09/23 18:59:18","新北市板橋區大觀路二段174巷102弄27號","121.442036666667","25.00125","6500100","板橋區"
"220063","609-BX","2017/09/23 18:59:23","新北市板橋區中山路二段163號","121.475868333333","25.0167733333333","6500100","板橋區"
"220091","637-BX","2017/09/23 18:59:24","新北市板橋區莒光路165巷22號","121.474045","25.0245566666667","6500100","板橋區"
"220057","686-BX","2017/09/23 18:59:36","新北市板橋區重慶路37號","121.461655","25.0075733333333","6500100","板橋區"
"220077","687-BX","2017/09/23 18:59:34","新北市板橋區龍興街18號","121.44289","25.0000016666667","6500100","板橋區"
"220093","689-BX","2017/09/23 18:59:24","新北市板橋區民生路三段66-3號","121.467053333333","25.0258583333333","6500100","板橋區"
"220054","741-BX","2017/09/23 18:59:22","新北市板橋區後埔街48號","121.460428333333","25.0059983333333","6500100","板橋區"
"220055","827-TW","2017/09/23 18:59:35","新北市板橋區中山路一段158巷21號","121.466493333333","25.0113083333333","6500100","板橋區"
"220067","829-TW","2017/09/23 18:59:35","新北市板橋區三民路二段正隆巷14號","121.477958333333","25.0129283333333","6500100","板橋區"
"220102","830-TW","2017/09/23 16:27:07","新北市板橋區民生路二段56-6號","121.470698333333","25.018775","6500100","板橋區"
"220096","831-TW","2017/09/23 16:00:21","新北市板橋區莊敬路148-1號","121.470538333333","25.02268","6500100","板橋區"
"220074","895-R6","2017/09/23 18:59:37","新北市板橋區府中路57號","121.458401666667","25.0094316666667","6500100","板橋區"
"220073","985-R7","2017/09/23 18:58:57","新北市板橋區北門街61號","121.456186666667","25.0118266666667","6500100","板橋區"
"220097","AAC-210","2017/09/23 18:59:34","新北市板橋區陽明街162號","121.463425","25.0244533333333","6500100","板橋區"
"220070","AAC-253","2017/09/23 18:59:37","新北市板橋區四川路一段327號","121.458665","25.0004733333333","6500100","板橋區"
