"lineid","car","time","location","longitude","latitude","cityid","cityname"
"234046","148-BY","2017/09/23 20:29:29","新北市新店區安興路83-8號","121.515371666667","24.97572","6500400","永和區"
"234013","149-BY","2017/09/23 20:29:30","新北市永和區環河西路二段217巷5號","121.501693333333","25.0097916666667","6500400","永和區"
"234081","298-R6","2017/09/23 20:29:34","新北市永和區福和路143號","121.520883333333","25.0077133333333","6500400","永和區"
"234038","336-UY","2017/09/23 20:29:37","新北市永和區環河東路四段40號","121.52875","24.998895","6500400","永和區"
"234064","337-UY","2017/09/23 20:29:35","新北市永和區中正路435號","121.517151666667","25.0051283333333","6500400","永和區"
"234086","338-UY","2017/09/23 20:29:21","新北市永和區光復街21號","121.516453333333","25.0174183333333","6500400","永和區"
"234070","552-UM","2017/09/23 20:29:35","新北市永和區永亨路6-1號","121.519376666667","25.0056166666667","6500400","永和區"
"234054","553-UM","2017/09/23 20:29:24","新北市永和區光復街31-1號","121.516388333333","25.017855","6500400","永和區"
"234030","746-BX","2017/09/23 20:29:35","新北市中和區景平路71-2號","121.519566666667","24.99146","6500400","永和區"
"234061","AAD-866","2017/09/23 20:29:34","新北市永和區安樂路194巷5號","121.515333333333","25.0012916666667","6500400","永和區"
"234042","862-TW","2017/09/23 20:29:38","新北市永和區安樂路248-1號","121.514678333333","25.0033266666667","6500400","永和區"
"234050","863-TW","2017/09/23 20:29:04","新北市永和區新生路118巷1弄8號","121.506715","25.01462","6500400","永和區"
"234011","9373-KE","2017/09/23 20:29:37","新北市永和區保生路55-1號","121.504523333333","25.0109316666667","6500400","永和區"
"249001","173-UM","2017/09/23 20:29:21","新北市八里區下罟子8-3號","121.384565","25.1413583333333","6502300","八里區"
"249004","303-UY","2017/09/23 20:29:24","新北市八里區中山路一段129巷27號","121.414015","25.1585916666667","6502300","八里區"
"249002","305-UY","2017/09/23 20:29:30","新北市八里區龍米路二段125巷23號","121.445795","25.145555","6502300","八里區"
"249003","593-UM","2017/09/23 20:29:38","新北市八里區華峰一街27-1號","121.399363333333","25.1466066666667","6502300","八里區"
"234023","9380-KE","2017/09/23 20:29:32","新北市永和區竹林路39巷19弄4號","121.518758333333","25.0149716666667","6500400","永和區"
"234074","AAC-211","2017/09/23 20:29:38","新北市永和區竹林路119巷30弄11號","121.52266","25.01163","6500400","永和區"
"234067","AAC-212","2017/09/23 20:29:38","新北市永和區保平路292巷2號","121.507966666667","25.0047283333333","6500400","永和區"
"234003","AAC-295","2017/09/23 20:29:30","新北市永和區中正路638號","121.516918333333","25.0082716666667","6500400","永和區"
"244019","403-UM","2017/09/23 20:29:18","新北市八里區中山路三段383號","121.372336666667","25.1376483333333","6501700","林口區"
"243013","AAD-798","2017/09/23 20:29:38","新北市泰山區貴子路9巷6號","121.425546666667","25.0422266666667","6501600","泰山區"
"243009","297-R6","2017/09/23 20:29:15","新北市泰山區憲訓路36號","121.429045","25.0647366666667","6501600","泰山區"
"243015","380-SR","2017/09/23 20:29:39","新北市泰山區仁德路48號","121.434266666667","25.057005","6501600","泰山區"
"243014","421-VK","2017/09/23 20:29:36","新北市泰山區泰林路三段92號","121.418155","25.065285","6501600","泰山區"
"243010","KEA-2215","2017/09/23 20:29:34","新北市泰山區明志路二段273巷16弄20號","121.427666666667","25.046455","6501600","泰山區"
"243011","KEA-2216","2017/09/23 20:29:26","新北市泰山區中山路二段845號","121.424838333333","25.0346683333333","6501600","泰山區"
"243012","646-TV","2017/09/23 20:29:28","新北市泰山區忠孝街17巷2號","121.42757","25.0653066666667","6501600","泰山區"
"243016","680-BX","2017/09/23 20:29:33","新北市泰山區文程路9號","121.42797","25.0496283333333","6501600","泰山區"
"222003","436-BY","2017/09/23 20:29:29","新北市深坑區深坑街39號","121.61555","25.0019783333333","6501800","深坑區"
"222001","628-TS","2017/09/23 20:29:23","新北市深坑區北深路三段345號","121.597196666667","25.0050483333333","6501800","深坑區"
"222002","659-BX","2017/09/23 20:29:19","新北市深坑區萬福路63巷8號","121.60034","25.0078966666667","6501800","深坑區"
"231041","002-UM","2017/09/23 20:29:24","新北市新店區中正路520號","121.533778333333","24.983755","6500600","新店區"
"231059","046-UY","2017/09/23 20:29:25","新北市新店區安豐路49號","121.50001","24.9549216666667","6500600","新店區"
"231061","047-UY","2017/09/23 20:29:39","新北市新店區新和街33號","121.519101666667","24.98477","6500600","新店區"
"231060","106-UY","2017/09/23 20:29:28","新北市新店區錦秀路22號","121.479256666667","24.9443583333333","6500600","新店區"
"231051","107-UY","2017/09/23 20:29:26","新北市新店區中央七街111號","121.525655","24.977795","6500600","新店區"
"231048","108-UY","2017/09/23 20:29:26","新北市新店區寶慶街58巷12號","121.542098333333","24.987275","6500600","新店區"
"231052","187-VK","2017/09/23 20:29:37","新北市新店區松林路36號","121.546081666667","24.9102533333333","6500600","新店區"
"231050","215-TC","2017/09/23 20:29:30","新北市新店區博愛街15號","121.541081666667","24.97339","6500600","新店區"
"231057","256-BX","2017/09/23 20:29:20","新北市新店區花園五路二段1號","121.553506666667","24.934205","6500600","新店區"
"231063","268-BY","2017/09/23 20:29:27","新北市新店區薏仁坑路自強巷6號","121.496695","24.95849","6500600","新店區"
"231058","3712-VJ","2017/09/23 20:29:38","新北市新店區中央路7號","121.533503333333","24.978595","6500600","新店區"
"231056","4716-K9","2017/09/23 20:29:33","新北市新店區建安街33巷30號","121.53828","24.9753333333333","6500600","新店區"
"231065","512-UM","2017/09/23 20:29:37","新北市新店區安祥路102巷46弄87號","121.487241666667","24.9632416666667","6500600","新店區"
"231054","513-UM","2017/09/23 20:29:33","新北市新店區檳榔路109號","121.544496666667","24.9615933333333","6500600","新店區"
"231064","515-UM","2017/09/23 20:29:36","新北市新店區新和街59巷2號","121.519991666667","24.9856416666667","6500600","新店區"
"231045","617-UM","2017/09/23 20:29:36","新北市新店區新坡一街1號","121.549175","24.9623866666667","6500600","新店區"
"231040","619-UM","2017/09/23 20:29:33","新北市新店區三民路118號","121.534313333333","24.97436","6500600","新店區"
"231042","641-BX","2017/09/23 20:29:35","新北市新店區寶橋路230號","121.551458333333","24.9788716666667","6500600","新店區"
"231068","718-UY","2017/09/23 20:29:21","新北市新店區寶元路一段65號","121.542261666667","24.9858716666667","6500600","新店區"
"231049","719-UM","2017/09/23 20:29:37","新北市新店區永業路81巷12號","121.531436666667","24.9482233333333","6500600","新店區"
"231062","720-UM","2017/09/23 20:29:22","新北市新店區安泰路60巷59號","121.484051666667","24.9451833333333","6500600","新店區"
"231044","897-TW","2017/09/23 20:29:22","新北市新店區建國路133號","121.539413333333","24.9782733333333","6500600","新店區"
"231043","899-TW","2017/09/23 20:29:34","新北市新店區建國路112號","121.53964","24.9780766666667","6500600","新店區"
"241011","013-R5","2017/09/23 20:29:21","新北市三重區龍門路60號","121.49663","25.0726183333333","6500200","三重區"
"241028","022-UY","2017/09/23 20:29:29","新北市三重區光興街89號","121.497436666667","25.059985","6500200","三重區"
"241009","060-VK","2017/09/23 20:29:35","新北市三重區永福街46-1號","121.482203333333","25.078185","6500200","三重區"
"241031","061-VK","2017/09/23 20:29:26","新北市三重區三寧街15號","121.489516666667","25.0598216666667","6500200","三重區"
"241015","062-VK","2017/09/23 20:29:24","新北市三重區文化北路41-2號","121.498943333333","25.0652766666667","6500200","三重區"
"241017","063-VK","2017/09/23 20:29:21","新北市三重區大仁街12號","121.491536666667","25.0632766666667","6500200","三重區"
"241024","065-VK","2017/09/23 20:29:36","新北市三重區三民街241號","121.479853333333","25.0674883333333","6500200","三重區"
"241026","066-VK","2017/09/23 20:29:28","新北市三重區福德南路24巷8號","121.50385","25.0632333333333","6500200","三重區"
"241002","090-VK","2017/09/23 20:29:35","新北市三重區仁義街211巷33號","121.497783333333","25.082485","6500200","三重區"
"241003","091-VK","2017/09/23 20:29:19","新北市三重區富華街210號","121.493371666667","25.0851516666667","6500200","三重區"
"241008","156-TC","2017/09/23 20:29:23","新北市三重區永福街211巷11號","121.479538333333","25.0741283333333","6500200","三重區"
"241005","262-UM","2017/09/23 20:29:35","新北市三重區碧華街380號","121.491243333333","25.0845166666667","6500200","三重區"
"241016","266-UM","2017/09/23 20:29:25","新北市三重區正義北路186號","121.496148333333","25.0667916666667","6500200","三重區"
"241022","267-UM","2017/09/23 20:29:28","新北市三重區中正北路20巷2號","121.488155","25.0629","6500200","三重區"
"241013","270-UM","2017/09/23 20:29:25","新北市三重區溪尾街5巷47號","121.493361666667","25.075055","6500200","三重區"
"241025","271-UM","2017/09/23 20:29:32","新北市三重區頂崁街210巷23弄1號","121.4759","25.0682066666667","6500200","三重區"
"241007","398-BY","2017/09/23 20:29:23","新北市三重區自強路四段28號","121.488768333333","25.07671","6500200","三重區"
"241020","413-TH","2017/09/23 20:29:33","新北市三重區三和路三段170巷28號","121.491653333333","25.0726633333333","6500200","三重區"
"241004","475-VK","2017/09/23 20:29:36","新北市三重區溪尾街188號","121.488311666667","25.0809183333333","6500200","三重區"
"241019","478-VK","2017/09/23 20:29:32","新北市三重區重陽路四段77號","121.492516666667","25.07096","6500200","三重區"
"241030","480-VK","2017/09/23 20:29:40","新北市三重區成功路62號","121.488625","25.0509566666667","6500200","三重區"
"241014","543-UM","2017/09/23 20:29:18","新北市三重區長興街103號","121.501858333333","25.069205","6500200","三重區"
"241023","545-UM","2017/09/23 20:29:38","新北市三重區自由街17巷1號","121.479873333333","25.0666516666667","6500200","三重區"
"241001","547-UM","2017/09/23 20:29:41","新北市三重區福隆路12號","121.490266666667","25.077425","6500200","三重區"
"241035","743-BX","2017/09/23 20:29:25","新北市三重區正義北路26號","121.497485","25.0632033333333","6500200","三重區"
"241018","887-TS","2017/09/23 20:29:23","新北市三重區正義北路220號","121.4961","25.0676366666667","6500200","三重區"
"241012","941-UM","2017/09/23 20:29:38","新北市三重區龍濱路174號","121.50136","25.0728583333333","6500200","三重區"
"241029","942-UM","2017/09/23 20:29:21","新北市三重區集美街225號","121.491943333333","25.0551766666667","6500200","三重區"
"241033","AAC-255","2017/09/23 20:29:39","新北市三重區五谷王北街80巷54號","121.474896666667","25.0526233333333","6500200","三重區"
"235066","003-UY","2017/09/23 20:29:23","新北市中和區中山路二段3巷22弄40號","121.505673333333","25.003995","6500300","中和區"
"235039","097-UM","2017/09/23 20:29:28","新北市中和區大勇街29巷2-5號","121.516165","24.994235","6500300","中和區"
"235065","098-UM","2017/09/23 20:29:31","新北市中和區永和路69-1號","121.49633","25.0056166666667","6500300","中和區"
"235072","301-VK","2017/09/23 20:29:23","新北市三重區重化街5號","121.467835","25.0643916666667","6500300","中和區"
"235050","4979-A6","2017/09/23 20:29:24","新北市中和區中正路218-1號","121.496503333333","24.9940516666667","6500300","中和區"
"235069","4980-A6","2017/09/23 20:29:35","新北市中和區員山路226巷3弄5號","121.481638333333","25.0011466666667","6500300","中和區"
"235026","800-TS","2017/09/23 20:29:31","新北市中和區員山路36巷16-3號","121.485026666667","24.9914916666667","6500300","中和區"
"235059","AAC-215","2017/09/23 20:29:40","新北市中和區員山路36巷13號","121.484208333333","24.991405","6500300","中和區"
"220069","AAD-861","2017/09/23 20:29:19","新北市板橋區大明街20巷19弄6號","121.458378333333","25.0033066666667","6500100","板橋區"
"247022","893-R6","2017/09/23 20:29:22","新北市蘆洲區中正路321號","121.466166666667","25.0887666666667","6501400","蘆洲區"
"247012","546-UM","2017/09/23 20:29:27","新北市蘆洲區復興路245號","121.48046","25.0899316666667","6501400","蘆洲區"
"247020","500-BY","2017/09/23 20:29:26","新北市蘆洲區民族路424號","121.473901666667","25.0918383333333","6501400","蘆洲區"
"247010","339-TH","2017/09/23 20:29:36","新北市蘆洲區信義路224號","121.47901","25.085295","6501400","蘆洲區"
"247002","337-TH","2017/09/23 20:29:36","新北市蘆洲區長安街347巷30號","121.45559","25.0870566666667","6501400","蘆洲區"
"247004","336-TH","2017/09/23 20:29:26","新北市蘆洲區長安街297號","121.458096666667","25.0849016666667","6501400","蘆洲區"
"247016","057-VK","2017/09/23 20:29:21","新北市蘆洲區光華路54巷1號","121.468216666667","25.0829266666667","6501400","蘆洲區"
"247006","056-VK","2017/09/23 20:29:29","新北市蘆洲區和平路121巷8弄43號","121.465731666667","25.080835","6501400","蘆洲區"
"247008","053-VK","2017/09/23 20:29:26","新北市蘆洲區永安北路二段76巷22號","121.482796666667","25.0854266666667","6501400","蘆洲區"
"247014","007-UY","2017/09/23 20:29:30","新北市蘆洲區中山一路284號","121.470958333333","25.0790566666667","6501400","蘆洲區"
"247024","002-UY","2017/09/23 20:29:36","新北市蘆洲區光復路70巷2號","121.464451666667","25.085365","6501400","蘆洲區"
"247018","001-UY","2017/09/23 20:29:38","新北市蘆洲區民族路327巷3號","121.474503333333","25.0910583333333","6501400","蘆洲區"
"251014","180-VK","2017/09/23 20:29:37","新北市淡水區石頭厝8-6號","121.459016666667","25.23714","6501000","淡水區"
"251008","181-VK","2017/09/23 20:29:26","新北市淡水區淡海路189巷10號","121.41966","25.1845083333333","6501000","淡水區"
"251010","413-VK","2017/09/23 20:29:38","新北市淡水區沙崙路181巷15號","121.423936666667","25.1843783333333","6501000","淡水區"
"251012","441-VK","2017/09/23 20:29:34","新北市淡水區頂田寮路141號","121.46098","25.2161816666667","6501000","淡水區"
"251016","442-VK","2017/09/23 20:29:29","新北市淡水區後洲子12-1號","121.45128","25.2238166666667","6501000","淡水區"
"251001","559-UM","2017/09/23 20:29:29","新北市淡水區中山北路二段169號","121.444315","25.1845266666667","6501000","淡水區"
"251006","561-UM","2017/09/23 20:29:28","新北市淡水區商工路296號","121.460603333333","25.1860233333333","6501000","淡水區"
"251011","650-BX","2017/09/23 20:29:37","新北市淡水區崁頂36-1號","121.438718333333","25.19502","6501000","淡水區"
"251002","672-BX","2017/09/23 20:29:25","新北市淡水區中正路52號","121.443286666667","25.16962","6501000","淡水區"
"251003","673-BX","2017/09/23 20:29:35","新北市淡水區新生街39號","121.440218333333","25.1748233333333","6501000","淡水區"
"207004","225-TW","2017/09/23 20:29:05","新北市萬里區北基里孝一街9號","121.68447","25.1771833333333","6502800","萬里區"
"252002","178-VK","2017/09/23 20:29:36","新北市三芝區淡金路二段47-2號","121.503671666667","25.260635","6502100","三芝區"
"252001","292-VK","2017/09/23 20:29:33","新北市三芝區中山路一段31號","121.500616666667","25.2580266666667","6502100","三芝區"
"237004","078-UY","2017/09/23 20:29:31","新北市三峽區隆恩街245號","121.357606666667","24.9408966666667","6500900","三峽區"
"236073","105-UM","2017/09/23 20:29:23","新北市土城區城林路6巷80號","121.438043333333","24.9794516666667","6501300","土城區"
"236027","269-VK","2017/09/23 20:29:34","新北市土城區中華路二段2號","121.438828333333","24.9799116666667","6501300","土城區"
"236015","270-VK","2017/09/23 20:29:37","新北市土城區廣明街63巷31號","121.453698333333","24.9929433333333","6501300","土城區"
"236023","401-BY","2017/09/23 20:29:33","新北市土城區金城路三段208號","121.471775","24.9895916666667","6501300","土城區"
"242031","AAC-296","2017/09/23 20:29:20","新北市新莊區三和路60-22號","121.437841666667","25.0421866666667","6500500","新莊區"
"242051","751-BX","2017/09/23 20:29:28","新北市新莊區民安西路227號","121.426068333333","25.0142216666667","6500500","新莊區"
"242029","705-TV","2017/09/23 20:29:37","新北市新莊區中華路二段149號","121.452848333333","25.0513383333333","6500500","新莊區"
"242025","615-BX","2017/09/23 20:29:38","新北市新莊區五工三路62巷20號","121.460085","25.06506","6500500","新莊區"
"242023","613-BX","2017/09/23 20:29:35","新北市新莊區化成路816號","121.465","25.05987","6500500","新莊區"
"242027","612-BX","2017/09/23 20:29:36","新北市新莊區思源路331號","121.459573333333","25.049645","6500500","新莊區"
"242039","566-BX","2017/09/23 20:29:38","新北市新莊區成功街6巷2號","121.425773333333","25.0218783333333","6500500","新莊區"
"242044","497-BY","2017/09/23 20:29:27","新北市新莊區中正路新建巷55號","121.414803333333","25.0214066666667","6500500","新莊區"
"242048","441-UM","2017/09/23 20:29:35","新北市樹林區三俊街199巷20弄25號","121.42195","25.0173883333333","6500500","新莊區"
"242053","440-UM","2017/09/23 20:29:31","新北市新莊區民安西路245巷8號","121.426548333333","25.0135716666667","6500500","新莊區"
"242004","413-TV","2017/09/23 20:29:28","新北市新莊區化成路758號","121.465436666667","25.0584416666667","6500500","新莊區"
"242042","400-BY","2017/09/23 20:29:40","新北市新莊區中正路694巷3弄6號","121.418215","25.0281966666667","6500500","新莊區"
"242061","362-BY","2017/09/23 20:29:31","新北市新莊區民安路396巷3號","121.430831666667","25.022655","6500500","新莊區"
"242058","353-BY","2017/09/23 20:29:18","新北市新莊區四維路193號","121.422058333333","25.0208166666667","6500500","新莊區"
"242007","132-UY","2017/09/23 20:29:32","新北市新莊區思源路287巷1弄2號","121.45932","25.0479566666667","6500500","新莊區"
"242036","133-UY","2017/09/23 20:29:35","新北市新莊區建安街62巷22號","121.426806666667","25.0253516666667","6500500","新莊區"
"242021","135-UY","2017/09/23 20:29:33","新北市新莊區公園路38號","121.448831666667","25.0393616666667","6500500","新莊區"
"242046","172-VK","2017/09/23 20:29:32","新北市新莊區裕民街54巷27號","121.41764","25.0244583333333","6500500","新莊區"
"242009","173-VK","2017/09/23 20:29:22","新北市新莊區昌隆街92號","121.456245","25.050915","6500500","新莊區"
"242015","175-VK","2017/09/23 20:29:37","新北市新莊區中平路36巷20號","121.445573333333","25.043565","6500500","新莊區"
"242002","176-VK","2017/09/23 20:29:32","新北市新莊區中正路80號","121.457676666667","25.0373616666667","6500500","新莊區"
"242013","346-TH","2017/09/23 20:29:17","新北市新莊區中平路292巷1弄2號","121.445568333333","25.052075","6500500","新莊區"
"242019","348-TH","2017/09/23 20:29:22","新北市新莊區長青街2號","121.458156666667","25.0428916666667","6500500","新莊區"
"242056","349-TH","2017/09/23 20:29:33","新北市新莊區新莊路751巷50號","121.442726666667","25.03153","6500500","新莊區"
"242017","350-TH","2017/09/23 20:29:24","新北市新莊區中港二街118號","121.448686666667","25.0457433333333","6500500","新莊區"
"242011","351-TH","2017/09/23 20:29:24","新北市新莊區中義街37號","121.45","25.0511433333333","6500500","新莊區"
"221008","489-VK","2017/09/23 20:29:27","新北市汐止區伯爵街1巷14號","121.64131","25.07514","6501100","汐止區"
"221036","130-UY","2017/09/23 20:29:39","新北市汐止區仁愛路215號","121.665228333333","25.0668533333333","6501100","汐止區"
"221015","131-UY","2017/09/23 20:29:35","新北市汐止區建成路142巷19弄7號","121.66209","25.073885","6501100","汐止區"
"221010","269-BY","2017/09/23 20:29:28","新北市汐止區八連路二段616號","121.625165","25.1097716666667","6501100","汐止區"
"221012","276-VK","2017/09/23 13:23:13","新北市汐止區汐萬路一段256巷3號","121.653461666667","25.0746366666667","6501100","汐止區"
"221012","278-VK","2017/09/23 20:29:37","新北市汐止區大同路三段241號","121.672656666667","25.0766533333333","6501100","汐止區"
"221023","279-VK","2017/09/23 20:29:32","新北市汐止區湖東街76巷1號","121.635803333333","25.0735383333333","6501100","汐止區"
"221032","280-BY","2017/09/23 20:29:24","新北市汐止區弘道街53巷8弄1號","121.618691666667","25.0487216666667","6501100","汐止區"
"221027","281-BY","2017/09/23 20:29:26","新北市汐止區中正路186號","121.658983333333","25.0691483333333","6501100","汐止區"
"221038","297-VK","2017/09/23 20:29:36","新北市汐止區忠孝東路322號","121.664746666667","25.069265","6501100","汐止區"
"221029","298-VK","2017/09/23 20:29:26","新北市汐止區樟樹一路129巷32號","121.640538333333","25.06514","6501100","汐止區"
"221021","299-VK","2017/09/23 20:29:32","新北市汐止區水源路一段284號","121.654268333333","25.058315","6501100","汐止區"
"221035","622-UM","2017/09/23 20:29:37","新北市汐止區長江街101-5號","121.658666666667","25.0731883333333","6501100","汐止區"
"221025","623-UM","2017/09/23 20:29:36","新北市汐止區水源路二段110巷1號","121.656625","25.0554283333333","6501100","汐止區"
"221033","647-BX","2017/09/23 20:29:29","新北市汐止區林森街73巷5號","121.6235","25.0409733333333","6501100","汐止區"
"221002","707-TV","2017/09/23 20:29:21","新北市汐止區福德一路12巷13號","121.637963333333","25.0697016666667","6501100","汐止區"
"221018","753-BX","2017/09/23 20:29:28","新北市汐止區茄苳路225巷11弄8號","121.671266666667","25.069525","6501100","汐止區"
"220101","245-BX","2017/09/23 20:29:34","新北市五股區五工一路115號","121.455115","25.0722616666667","6500100","板橋區"
"220083","286-VK","2017/09/23 20:29:32","新北市板橋區僑中二街102巷51號","121.44432","25.0084983333333","6500100","板橋區"
"220081","287-VK","2017/09/23 20:29:24","新北市板橋區大觀路二段34號","121.445526666667","25.001645","6500100","板橋區"
"220061","293-UM","2017/09/23 20:29:29","新北市板橋區文華街3巷1號","121.457433333333","25.0005483333333","6500100","板橋區"
"220062","303-R5","2017/09/23 20:29:23","新北市樹林區水源街15號","121.425128333333","24.9830133333333","6500100","板橋區"
"220089","487-VK","2017/09/23 20:29:30","新北市板橋區四維路355號","121.462231666667","25.0301233333333","6500100","板橋區"
"242034","280-VK","2017/09/23 20:29:40","新北市新莊區新泰路201號","121.447185","25.0381283333333","6500500","新莊區"
"220088","491-VK","2017/09/23 20:28:27","新北市五股區中直路15號","121.423821666667","25.11087","6500100","板橋區"
"220103","561-BX","2017/09/23 20:29:38","新北市板橋區漢生東路31號","121.465371666667","25.0169983333333","6500100","板橋區"
"220074","895-R6","2017/09/23 20:29:37","新北市板橋區府後街1巷2-2號","121.459101666667","25.0105933333333","6500100","板橋區"
"220070","AAC-253","2017/09/23 20:29:37","新北市新莊區中平路377巷28號","121.442406666667","25.0533466666667","6500100","板橋區"
