"lineid","car","time","location","longitude","latitude","cityid","cityname"
"248005","653-BX","2017/12/19 09:39:45","新北市五股區成泰路一段7巷38號","121.432653333333","25.0670183333333","6501500","五股區"
"222004","289-BY","2017/12/19 09:39:42","新北市深坑區公館後2-3號","121.603603333333","24.9938083333333","6501800","深坑區"
"231007","189-VK","2017/12/19 09:39:43","新北市新店區新潭路三段215巷26號","121.507618333333","24.90351","6500600","新店區"
"231009","192-VK","2017/12/19 09:39:45","新北市新店區平廣路一段256號","121.507555","24.8880566666667","6500600","新店區"
"227006","282-VK","2017/12/19 09:21:52","新北市雙溪區長源里柑腳58-1號","121.793873333333","25.00688","6502500","雙溪區"
"227012","030-BX","2017/12/19 09:39:48","新北市坪林區鷺鶿岫3號","121.782556666667","24.9593033333333","6502500","雙溪區"
"252004","249-BX","2017/12/19 09:39:17","新北市三芝區圓山里石曹子坑64-28號","121.524516666667","25.21084","6502100","三芝區"
"252007","AAC-283","2017/12/19 09:39:42","新北市三芝區埔坪里埔頭坑41號","121.504561666667","25.2646216666667","6502100","三芝區"
"236006","498-BY","2017/12/19 09:39:42","新北市土城區忠義路55巷35-1號","121.443168333333","24.967355","6501300","土城區"
