"lineid","car","time","location","longitude","latitude","cityid","cityname"
"231007","189-VK","2017/12/19 10:19:43","新北市新店區新烏路三段215巷19號","121.50633","24.903525","6500600","新店區"
"231009","192-VK","2017/12/19 10:19:45","新北市新店區小坑一路21-1號","121.531016666667","24.9123316666667","6500600","新店區"
"227006","282-VK","2017/12/19 10:19:52","新北市雙溪區外柑里外柑腳32號","121.8143","25.021155","6502500","雙溪區"
"227012","030-BX","2017/12/19 10:17:48","新北市雙溪區泰平里料角坑43號","121.793051666667","24.956325","6502500","雙溪區"
"252007","AAC-283","2017/12/19 10:19:42","新北市三芝區新庄里番社后18號","121.496326666667","25.2746683333333","6502100","三芝區"
"239006","661-UM","2017/12/19 10:19:49","新北市樹林區中山路三段210-2號","121.381411666667","24.9657516666667","6500800","鶯歌區"
