"lineid","car","time","location","longitude","latitude","cityid","cityname"
"231009","192-VK","2017/12/19 11:59:45","新北市新店區頂石厝路8號","121.539865","24.9194983333333","6500600","新店區"
"235031","255-BX","2017/12/19 11:58:36","新北市中和區和城路一段271巷1號","121.485561666667","24.9918633333333","6500300","中和區"
"228004","212-TW","2017/12/19 11:59:41","新北市貢寮區貢寮里朝陽街1-2號","121.912166666667","25.0212766666667","6502600","貢寮區"
"228005","828-UM","2017/12/19 11:59:52","新北市貢寮區貢寮里朝陽街2號","121.91288","25.021625","6502600","貢寮區"
"227006","282-VK","2017/12/19 11:59:51","新北市雙溪區共和里東榮街20號","121.865573333333","25.0340983333333","6502500","雙溪區"
"221012","276-VK","2017/12/19 11:59:42","新北市汐止區康寧街901號","121.651006666667","25.0752","6501100","汐止區"
