"lineid","car","time","location","longitude","latitude","cityid","cityname"
"231009","192-VK","2017/12/19 12:09:45","新北市新店區屈尺路46號","121.548001666667","24.92268","6500600","新店區"
"235031","255-BX","2017/12/19 11:58:36","新北市中和區和城路一段271巷1號","121.485561666667","24.9918633333333","6500300","中和區"
"228004","212-TW","2017/12/19 12:09:41","新北市貢寮區貢寮里長泰路14號","121.907488333333","25.0196583333333","6502600","貢寮區"
"228005","828-UM","2017/12/19 12:09:51","新北市貢寮區福隆里東興街6-3號","121.951685","25.0201066666667","6502600","貢寮區"
"221012","276-VK","2017/12/19 12:09:42","新北市汐止區康寧街901號","121.651073333333","25.0751916666667","6501100","汐止區"
