"lineid","car","time","location","longitude","latitude","cityid","cityname"
"234044","148-BY","2017/12/19 12:39:44","新北市永和區永元路94號","121.522525","25.0016616666667","6500400","永和區"
"234012","149-BY","2017/12/19 12:39:54","新北市永和區保安路23號","121.510281666667","25.0167483333333","6500400","永和區"
"234005","207-UY","2017/12/19 12:39:50","新北市永和區福和路1號","121.526423333333","25.009755","6500400","永和區"
"234078","298-R6","2017/12/19 12:39:53","新北市永和區林森路81號","121.523865","25.003855","6500400","永和區"
"234036","336-UY","2017/12/19 12:39:51","新北市永和區福和路1號","121.526635","25.00994","6500400","永和區"
"234062","337-UY","2017/12/19 12:39:42","新北市永和區福和路1號","121.526691666667","25.0100916666667","6500400","永和區"
"234084","338-UY","2017/12/19 12:39:48","新北市中和區安平路100號","121.511583333333","24.9972016666667","6500400","永和區"
"234015","745-BX","2017/12/19 12:39:37","新北市永和區福和路1號","121.526261666667","25.009545","6500400","永和區"
"234060","AAD-866","2017/12/19 12:39:57","新北市永和區福和路47-1號","121.523293333333","25.00797","6500400","永和區"
"234068","847-RS","2017/12/19 12:39:51","新北市永和區福和路1號","121.525443333333","25.0094383333333","6500400","永和區"
"234040","862-TW","2017/12/19 12:39:36","新北市永和區豫溪街217巷21號","121.52479","25.01026","6500400","永和區"
"234048","863-TW","2017/12/19 12:39:51","新北市永和區保安路2號","121.510805","25.0175766666667","6500400","永和區"
"234025","9371-KE","2017/12/19 12:39:36","新北市永和區福和路1號","121.525581666667","25.0095133333333","6500400","永和區"
"234010","9373-KE","2017/12/19 12:39:47","新北市永和區環河東路二段92號","121.524465","25.0106416666667","6500400","永和區"
"234076","969-R7","2017/12/19 12:39:45","新北市中和區安樂路101-3號","121.513438333333","24.9950966666667","6500400","永和區"
"234066","AAC-212","2017/12/19 12:39:46","新北市永和區福和路244號","121.51871","25.0076033333333","6500400","永和區"
"234001","AAC-295","2017/12/19 12:39:38","新北市永和區福和路1號","121.526413333333","25.0099233333333","6500400","永和區"
"231015","KEA-2219","2017/12/19 12:39:41","新北市新店區安華路28-1號","121.519931666667","24.96124","6500600","新店區"
"231010","278-BY","2017/12/19 11:17:39","新北市新店區安華路28-1號","121.519978333333","24.961195","6500600","新店區"
"231023","AAD-862","2017/12/19 12:39:47","新北市新店區安華路28-1號","121.519771666667","24.9612866666667","6500600","新店區"
"231036","512-UM","2017/12/19 03:15:47","新北市新店區安康路一段359-27號","121.518785","24.961135","6500600","新店區"
"231013","719-UM","2017/12/19 12:39:42","新北市新店區安華路28-1號","121.519515","24.9612116666667","6500600","新店區"
"235031","255-BX","2017/12/19 12:39:44","新北市中和區連城路467-5號","121.48365","24.9959733333333","6500300","中和區"
"235025","378-QA","2017/12/19 03:53:12","新北市中和區員山路36巷12號","121.483891666667","24.9912333333333","6500300","中和區"
"235026","800-TS","2017/12/19 12:39:50","新北市中和區員山路36巷16-3號","121.485056666667","24.99167","6500300","中和區"
"228004","212-TW","2017/12/19 12:39:41","新北市貢寮區吉林里枋腳街6-2號","121.88761","25.0067766666667","6502600","貢寮區"
"228005","828-UM","2017/12/19 12:39:51","新北市貢寮區福連里蓬萊街15號","121.991956666667","25.0000466666667","6502600","貢寮區"
"208004","AAC-292","2017/12/19 12:39:52","新北市金山區磺清路135號","121.639418333333","25.2276483333333","6502700","金山區"
"221012","276-VK","2017/12/19 12:39:43","新北市汐止區中正路186號","121.659005","25.0691033333333","6501100","汐止區"
"221023","279-VK","2017/12/19 12:39:57","新北市汐止區康寧街901號","121.651705","25.0750016666667","6501100","汐止區"
