"lineid","car","time","location","longitude","latitude","cityid","cityname"
"234012","149-BY","2017/12/19 14:19:54","新北市中和區橋和路281巷1號","121.496196666667","25.0079833333333","6500400","永和區"
"234005","207-UY","2017/12/19 14:19:50","新北市永和區中山路一段146號","121.509845","25.0095","6500400","永和區"
"234078","298-R6","2017/12/19 14:19:53","新北市永和區永貞路16號","121.520828333333","25.0071166666667","6500400","永和區"
"234036","336-UY","2017/12/19 14:19:51","新北市永和區成功路一段82號","121.526785","25.003125","6500400","永和區"
"234062","337-UY","2017/12/19 14:19:42","新北市永和區得和路131號","121.519093333333","25.0001816666667","6500400","永和區"
"234084","338-UY","2017/12/19 14:19:48","新北市永和區永和路二段85號","121.514758333333","25.0113483333333","6500400","永和區"
"234052","553-UM","2017/12/19 14:19:37","新北市永和區光復街2巷16弄1號","121.517071666667","25.0163783333333","6500400","永和區"
"234028","746-BX","2017/12/19 14:19:45","新北市永和區民權路49巷9號","121.520593333333","24.997315","6500400","永和區"
"241031","838-RS","2017/12/19 13:48:06","新北市永和區保順路27號","121.503808333333","25.0104433333333","6500200","三重區"
"234060","AAD-866","2017/12/19 14:19:37","新北市永和區安樂路194巷17弄7號","121.515988333333","25.00132","6500400","永和區"
"234068","847-RS","2017/12/19 14:19:51","新北市永和區福和路263巷18號","121.517891666667","25.0066133333333","6500400","永和區"
"234040","862-TW","2017/12/19 14:19:56","新北市永和區安樂路156號","121.514428333333","25.0006466666667","6500400","永和區"
"234048","863-TW","2017/12/19 14:19:51","新北市永和區新生路27號","121.509241666667","25.0166716666667","6500400","永和區"
"234025","9371-KE","2017/12/19 14:19:56","新北市永和區安樂路144巷10號","121.514685","24.99977","6500400","永和區"
"248017","225-UY","2017/12/19 14:19:52","新北市五股區壟路7-3號","121.41599","25.089055","6501500","五股區"
"234076","969-R7","2017/12/19 14:19:46","新北市永和區民族街81巷58號","121.520103333333","24.9965716666667","6500400","永和區"
"234072","AAC-211","2017/12/19 14:19:53","新北市永和區豫溪街191巷7弄43號","121.522976666667","25.011275","6500400","永和區"
"234066","AAC-212","2017/12/19 14:19:46","新北市永和區保平路268巷51弄2號","121.507021666667","25.00634","6500400","永和區"
"234001","AAC-295","2017/12/19 14:19:58","新北市永和區自強街47號","121.516095","25.008015","6500400","永和區"
"244002","248-BX","2017/12/19 13:55:11","新北市林口區林口路76號","121.389676666667","25.0806966666667","6501700","林口區"
"231025","0293-UT","2017/12/19 14:19:47","新北市新店區二十張路66號","121.536618333333","24.980115","6500600","新店區"
"231028","046-UY","2017/12/19 14:19:40","新北市新店區安和路二段1號","121.517706666667","24.966835","6500600","新店區"
"231030","047-UY","2017/12/19 14:19:36","新北市新店區安民街50號","121.51609","24.9657566666667","6500600","新店區"
"231029","106-UY","2017/12/19 14:19:52","新北市新店區安康路二段213號","121.50888","24.9588783333333","6500600","新店區"
"231018","107-UY","2017/12/19 14:19:56","新北市新店區中央四街7號","121.529805","24.97381","6500600","新店區"
"231012","108-UY","2017/12/19 14:19:39","新北市新店區五峰路61巷5號","121.54872","24.9697016666667","6500600","新店區"
"231020","187-VK","2017/12/19 14:19:57","新北市新店區桂山路37號","121.56029","24.9031416666667","6500600","新店區"
"231015","KEA-2219","2017/12/19 14:19:41","新北市新店區中生路83巷3號","121.564675","24.9518166666667","6500600","新店區"
"231023","AAD-862","2017/12/19 14:19:47","新北市新店區光明街81號","121.538978333333","24.9607516666667","6500600","新店區"
"231027","3712-VJ","2017/12/19 14:19:53","新北市新店區北新路二段228巷1號","121.54295","24.9775983333333","6500600","新店區"
"231038","4715-K9","2017/12/19 14:19:43","新北市新店區溪洲路6巷10號","121.53399","24.9617083333333","6500600","新店區"
"231036","512-UM","2017/12/19 14:19:46","新北市新店區安祥路109巷21號","121.476181666667","24.9592683333333","6500600","新店區"
"231035","515-UM","2017/12/19 14:19:58","新北市新店區碧安街36號","121.517511666667","24.969075","6500600","新店區"
"231006","617-UM","2017/12/19 14:19:39","新北市新店區玉山路22號","121.56808","24.9556133333333","6500600","新店區"
"231002","618-UM","2017/12/19 14:19:45","新北市新店區中央路153號","121.529813333333","24.9729383333333","6500600","新店區"
"231001","619-UM","2017/12/19 14:19:38","新北市新店區北新路一段339號","121.54197","24.9688066666667","6500600","新店區"
"231003","641-BX","2017/12/19 14:19:37","新北市新店區中興路一段216號","121.543953333333","24.9657466666667","6500600","新店區"
"231034","645-TV","2017/12/19 14:19:45","新北市新店區黎明路3號","121.503603333333","24.9524816666667","6500600","新店區"
"231013","719-UM","2017/12/19 14:19:42","新北市新店區建國路249號","121.53755","24.9826316666667","6500600","新店區"
"231032","720-UM","2017/12/19 14:19:57","新北市新店區安康路一段11號","121.53345","24.9603966666667","6500600","新店區"
"231005","897-TW","2017/12/19 14:19:44","新北市新店區中興路三段221-3號","121.543421666667","24.9824316666667","6500600","新店區"
"231004","899-TW","2017/12/19 14:19:42","新北市新店區中正路249號","121.539006666667","24.9733733333333","6500600","新店區"
"231037","AKT-0513","2017/12/19 14:19:50","新北市新店區車子路67號","121.503576666667","24.9513116666667","6500600","新店區"
"235030","003-UY","2017/12/19 14:19:44","新北市中和區景新街2號","121.502603333333","24.9997433333333","6500300","中和區"
"235028","005-UY","2017/12/19 14:19:51","新北市中和區連城路2號","121.499341666667","25.0024616666667","6500300","中和區"
"235027","006-UY","2017/12/19 14:19:42","新北市中和區連城路249巷30弄2號","121.49473","24.99484","6500300","中和區"
"235010","031-BX","2017/12/19 14:19:50","新北市中和區忠孝街2巷12-1號","121.510603333333","24.9816633333333","6500300","中和區"
"235020","096-UM","2017/12/19 14:19:50","新北市中和區民富街40號","121.476603333333","25.0066733333333","6500300","中和區"
"235003","097-UM","2017/12/19 14:19:54","新北市中和區秀峰街105號","121.520635","24.9902933333333","6500300","中和區"
"235004","150-BY","2017/12/19 14:19:49","新北市中和區保健路123號","121.512328333333","24.99601","6500300","中和區"
"235022","151-BY","2017/12/19 14:19:44","新北市中和區員山路36巷16-2號","121.485236666667","24.9917433333333","6500300","中和區"
"235019","183-VK","2017/12/19 14:19:43","新北市中和區中山路三段181巷14號","121.472916666667","25.0056133333333","6500300","中和區"
"235002","185-VK","2017/12/19 14:19:43","新北市中和區大仁街10巷29號","121.519188333333","24.9925116666667","6500300","中和區"
"235013","186-VK","2017/12/19 14:19:53","新北市中和區景新街228-6號","121.50818","24.9941416666667","6500300","中和區"
"235031","255-BX","2017/12/19 14:19:44","新北市中和區新生街189號","121.48372","25.0003333333333","6500300","中和區"
"235008","293-VK","2017/12/19 14:19:47","新北市中和區中興街263-1號","121.500041666667","24.9887566666667","6500300","中和區"
"235036","301-VK","2017/12/19 14:19:45","新北市中和區莊敬路35號","121.500653333333","25.0049616666667","6500300","中和區"
"235007","352-BY","2017/12/19 14:19:49","新北市中和區景平路296號","121.513008333333","24.992735","6500300","中和區"
"235032","377-QA","2017/12/19 14:19:41","新北市中和區圓通路158巷28號","121.49856","24.9971133333333","6500300","中和區"
"235025","378-QA","2017/12/19 14:19:55","新北市中和區員山路314巷7弄1號","121.482078333333","25.0028733333333","6500300","中和區"
"235035","269-TV","2017/12/19 14:19:54","新北市中和區連城路356號","121.482125","24.9954883333333","6500300","中和區"
"235014","4979-A6","2017/12/19 14:19:50","新北市中和區復興路268號","121.503071666667","24.990385","6500300","中和區"
"235033","4980-A6","2017/12/19 14:19:57","新北市中和區福祥路7號","121.499455","25.00317","6500300","中和區"
"235006","551-UM","2017/12/19 14:19:50","新北市中和區安樂路143巷2弄7號","121.514178333333","24.9978383333333","6500300","中和區"
"235034","558-UM","2017/12/19 14:19:48","新北市中和區連城路80號","121.497238333333","25.00116","6500300","中和區"
"235009","565-BX","2017/12/19 14:19:47","新北市中和區景新街423巷26號","121.514381666667","24.989685","6500300","中和區"
"235018","640-BX","2017/12/19 14:19:42","新北市中和區民德路105號","121.468858333333","25.0007383333333","6500300","中和區"
"235024","647-TV","2017/12/19 14:19:39","新北市中和區民有街94號","121.476035","25.0034816666667","6500300","中和區"
"235011","732-UM","2017/12/19 14:18:57","新北市中和區景平路239巷3號","121.509956666667","24.9927683333333","6500300","中和區"
"235026","800-TS","2017/12/19 14:19:50","新北市中和區中山路二段362-6號","121.492301666667","25.00285","6500300","中和區"
"235021","801-TS","2017/12/19 14:19:47","新北市中和區員山路327巷6號","121.48116","25.001165","6500300","中和區"
"235005","802-TS","2017/12/19 14:19:48","新北市中和區宜安路124號","121.510096666667","24.9981383333333","6500300","中和區"
"235016","805-TS","2017/12/19 14:19:49","新北市中和區興南路二段142巷17弄26號","121.503021666667","24.9829366666667","6500300","中和區"
"235012","896-TW","2017/12/19 14:19:39","新北市中和區忠孝街2號","121.508636666667","24.982785","6500300","中和區"
"235017","900-TW","2017/12/19 14:19:55","新北市中和區華安街4號","121.466376666667","24.998265","6500300","中和區"
"235029","911-UM","2017/12/19 14:19:40","新北市中和區中山路二段2巷5弄17號","121.504248333333","25.0058616666667","6500300","中和區"
"235015","157-BY","2017/12/19 14:19:43","新北市中和區和平街38巷3號","121.509193333333","24.9907433333333","6500300","中和區"
"235001","AAC-213","2017/12/19 14:19:43","新北市中和區自立路15巷15號","121.523018333333","24.9960316666667","6500300","中和區"
"235023","AAC-215","2017/12/19 14:19:45","新北市中和區圓通路252巷5弄38號","121.492236666667","24.9915683333333","6500300","中和區"
"220016","013-TV","2017/12/19 14:19:51","新北市板橋區萬安街103巷12號","121.483066666667","25.02464","6500100","板橋區"
"220013","072-UY","2017/12/19 14:19:51","新北市板橋區國泰街75巷30號","121.467706666667","25.0058216666667","6500100","板橋區"
"220034","073-UY","2017/12/19 14:19:50","新北市板橋區中正路216巷8號","121.456293333333","25.0183016666667","6500100","板橋區"
"220105","075-UY","2017/12/19 14:19:42","新北市板橋區長江路二段280號","121.469908333333","25.0327683333333","6500100","板橋區"
"220017","AAD-861","2017/12/19 14:19:42","新北市板橋區華興街31巷19號","121.458398333333","25.003815","6500100","板橋區"
"220045","120-SR","2017/12/19 14:19:52","新北市板橋區大同街50巷35號","121.47892","25.026875","6500100","板橋區"
"247021","893-R6","2017/12/19 14:19:45","新北市蘆洲區中正路434巷8號","121.463505","25.094755","6501400","蘆洲區"
"247011","546-UM","2017/12/19 14:19:48","新北市蘆洲區民權路3巷14弄15號","121.475128333333","25.0856233333333","6501400","蘆洲區"
"247019","500-BY","2017/12/19 14:19:50","新北市蘆洲區仁愛街20號","121.472368333333","25.0929166666667","6501400","蘆洲區"
"247007","341-TH","2017/12/19 14:19:52","新北市蘆洲區信義路32號","121.474433333333","25.07932","6501400","蘆洲區"
"247009","339-TH","2017/12/19 14:19:49","新北市蘆洲區三民路26巷13號","121.476671666667","25.0828","6501400","蘆洲區"
"247001","337-TH","2017/12/19 14:19:57","新北市蘆洲區永樂街79號","121.456035","25.088555","6501400","蘆洲區"
"247003","336-TH","2017/12/19 14:19:36","新北市蘆洲區長安街172巷35弄13號","121.46015","25.0844633333333","6501400","蘆洲區"
"247015","057-VK","2017/12/19 14:18:42","新北市蘆洲區光華路70巷11號","121.467508333333","25.0832133333333","6501400","蘆洲區"
"247005","056-VK","2017/12/19 14:19:50","新北市蘆洲區長安街23巷11號","121.463718333333","25.0785933333333","6501400","蘆洲區"
"247013","053-VK","2017/12/19 14:19:42","新北市蘆洲區中山一路247號","121.473165","25.0803716666667","6501400","蘆洲區"
"247023","002-UY","2017/12/19 14:19:44","新北市蘆洲區長榮路746號","121.460736666667","25.0926466666667","6501400","蘆洲區"
"247017","001-UY","2017/12/19 14:19:43","新北市蘆洲區民權路144號","121.472728333333","25.0891933333333","6501400","蘆洲區"
"228004","212-TW","2017/12/19 14:19:41","新北市貢寮區雙玉里田寮洋街39號","121.924925","25.0139583333333","6502600","貢寮區"
"228005","828-UM","2017/12/19 14:19:51","新北市貢寮區美豐里土地公嶺54號","121.894751666667","25.06514","6502600","貢寮區"
"208004","AAC-292","2017/12/19 14:19:52","新北市金山區重和里磺溪頭81號","121.597571666667","25.2173616666667","6502700","金山區"
"207002","749-BX","2017/12/19 14:19:54","新北市萬里區溪底里瑞泉路4-1號","121.608686666667","25.1466483333333","6502800","萬里區"
"207001","662-BX","2017/12/19 14:19:43","新北市萬里區磺潭里清水18號","121.637851666667","25.1976833333333","6502800","萬里區"
"252005","AAC-283","2017/12/19 14:19:52","新北市三芝區茂長里陳厝坑51-2號","121.511026666667","25.252355","6502100","三芝區"
"236065","105-UM","2017/12/19 14:19:55","新北市土城區明德路一段128巷17號","121.463003333333","24.9788233333333","6501300","土城區"
"236041","107-UM","2017/12/19 14:19:52","新北市土城區樂利街3巷16號","121.448525","24.9863766666667","6501300","土城區"
"236075","166-UM","2017/12/19 13:59:47","新北市土城區永寧路32巷10弄1號","121.428986666667","24.9609983333333","6501300","土城區"
"236029","253-BX","2017/12/19 14:19:44","新北市土城區順風路30號","121.440008333333","24.9771116666667","6501300","土城區"
"236025","269-VK","2017/12/19 14:19:41","新北市土城區承天路18號","121.439391666667","24.9635483333333","6501300","土城區"
"236013","270-VK","2017/12/19 14:19:47","新北市土城區青雲路39巷7號","121.46033","24.98755","6501300","土城區"
"236034","271-VK","2017/12/19 14:19:44","新北市土城區青雲路453號","121.458928333333","24.9746133333333","6501300","土城區"
"236017","401-BY","2017/12/19 14:19:43","新北市土城區金城路二段217號","121.454936666667","24.981885","6501300","土城區"
"236006","498-BY","2017/12/19 14:19:49","新北市土城區中華路一段61號","121.445368333333","24.9881516666667","6501300","土城區"
"236057","912-UM","2017/12/19 14:19:44","新北市土城區中央路四段328號","121.413591666667","24.9555216666667","6501300","土城區"
"236045","913-UM","2017/12/19 14:19:50","新北市土城區明德路一段280-1號","121.457273333333","24.9775","6501300","土城區"
"236061","915-UM","2017/12/19 14:19:53","新北市土城區延壽路44巷2號","121.470923333333","24.9920216666667","6501300","土城區"
"236054","AAC-216","2017/12/19 14:19:36","新北市土城區中華路二段108號","121.438006666667","24.9741883333333","6501300","土城區"
"221012","276-VK","2017/12/19 13:19:09","新北市汐止區汐萬路一段256巷3號","121.653451666667","25.0746183333333","6501100","汐止區"
"220027","145-BY","2017/12/19 14:19:40","新北市板橋區光正街45巷2弄18號","121.460973333333","25.0173583333333","6500100","板橋區"
"220028","200-UY","2017/12/19 14:19:56","新北市板橋區大觀路二段19巷107號","121.450126666667","25.0026966666667","6500100","板橋區"
"220030","610-BX","2017/12/19 14:19:48","新北市板橋區溪城路115號","121.42746","24.98261","6500100","板橋區"
"220052","257-TC","2017/12/19 14:19:54","新北市板橋區文化路一段188巷1弄1-3號","121.466505","25.01965","6500100","板橋區"
"220004","276-BY","2017/12/19 14:19:59","新北市板橋區國慶路8號","121.458195","24.9945083333333","6500100","板橋區"
"220020","277-BY","2017/12/19 14:19:46","新北市板橋區金門街337巷7弄23號","121.430631666667","24.9852083333333","6500100","板橋區"
"220050","280-UM","2017/12/19 14:19:45","新北市板橋區莊敬路2-1號","121.474103333333","25.0285516666667","6500100","板橋區"
"220043","283-UM","2017/12/19 14:19:43","新北市板橋區吳鳳路19巷16號","121.466806666667","25.03071","6500100","板橋區"
"220019","283-VK","2017/12/19 14:19:53","新北市板橋區大豐街89號","121.462161666667","25.0004716666667","6500100","板橋區"
"220001","285-VK","2017/12/19 14:19:58","新北市板橋區縣民大道三段262-2號","121.47816","25.0229866666667","6500100","板橋區"
"220031","286-VK","2017/12/19 14:19:49","新北市板橋區大觀路二段174巷166弄22號","121.442616666667","25.00295","6500100","板橋區"
"220029","287-VK","2017/12/19 14:19:54","新北市板橋區南雅西路一段112號","121.452858333333","25.006375","6500100","板橋區"
"220039","288-VK","2017/12/19 14:19:52","新北市板橋區長江路一段106巷13弄13號","121.460591666667","25.0293633333333","6500100","板橋區"
"220009","293-UM","2017/12/19 14:19:53","新北市板橋區成功路6巷63號","121.47684","25.0177883333333","6500100","板橋區"
"220032","296-UM","2017/12/19 14:19:58","新北市板橋區滿平街136巷10弄12號","121.427211666667","24.987475","6500100","板橋區"
"220023","297-UM","2017/12/19 14:19:54","新北市板橋區館前西路79號","121.457298333333","25.007","6500100","板橋區"
"220010","305-R5","2017/12/19 14:19:47","新北市板橋區三民路二段153巷7弄1號","121.480553333333","25.015125","6500100","板橋區"
"220041","307-R5","2017/12/19 14:19:49","新北市板橋區松江街62號","121.468651666667","25.0275566666667","6500100","板橋區"
"220047","317-R6","2017/12/19 14:19:57","新北市板橋區民有街108號","121.464505","25.0282616666667","6500100","板橋區"
"220012","486-VK","2017/12/19 14:19:27","新北市板橋區中山路一段3號","121.45989","25.007845","6500100","板橋區"
"220038","487-VK","2017/12/19 14:19:43","新北市板橋區文化路一段339號","121.466398333333","25.0207533333333","6500100","板橋區"
"220037","491-VK","2017/12/19 14:19:39","新北市板橋區雙十路二段71號","121.476278333333","25.026835","6500100","板橋區"
"220104","560-BX","2017/12/19 14:19:54","新北市板橋區中正路373號","121.45441","25.0212466666667","6500100","板橋區"
"220011","609-BX","2017/12/19 14:19:37","新北市板橋區三民路二段204號","121.478853333333","25.0122333333333","6500100","板橋區"
"220040","637-BX","2017/12/19 14:19:43","新北市板橋區縣民大道三段223號","121.480551666667","25.0254383333333","6500100","板橋區"
"220005","686-BX","2017/12/19 14:19:42","新北市板橋區重慶路308巷4號","121.46332","24.9979466666667","6500100","板橋區"
"220025","687-BX","2017/12/19 14:19:48","新北市板橋區大觀路二段113號","121.446015","25.001555","6500100","板橋區"
"220042","689-BX","2017/12/19 14:19:45","新北市板橋區光正街16巷38號","121.463506666667","25.0180266666667","6500100","板橋區"
"220002","741-BX","2017/12/19 14:19:56","新北市板橋區校前街38號","121.461001666667","25.0031716666667","6500100","板橋區"
"220003","827-TW","2017/12/19 14:19:44","新北市板橋區館前東路156巷18號","121.464191666667","25.006925","6500100","板橋區"
"220014","829-TW","2017/12/19 14:19:55","新北市板橋區漢生東路313巷2弄38-8號","121.472453333333","25.007825","6500100","板橋區"
"220051","830-TW","2017/12/19 14:19:40","新北市板橋區松柏街66號","121.476313333333","25.0304266666667","6500100","板橋區"
"220042","833-TW","2017/12/19 14:19:50","新北市板橋區民生路二段120號","121.470405","25.019635","6500100","板橋區"
"220022","895-R6","2017/12/19 14:19:52","新北市板橋區民權路170巷2號","121.459796666667","25.0129366666667","6500100","板橋區"
"220021","985-R7","2017/12/19 14:19:39","新北市板橋區中正路330號","121.454398333333","25.021725","6500100","板橋區"
"220046","AAC-210","2017/12/19 14:19:52","新北市板橋區幸福路60巷31-2號","121.460566666667","25.02105","6500100","板橋區"
"220018","AAC-253","2017/12/19 14:19:53","新北市板橋區忠孝路136號","121.46355","25.0023833333333","6500100","板橋區"
