"lineid","car","time","location","longitude","latitude","cityid","cityname"
"234046","148-BY","2017/12/19 20:09:54","新北市永和區得和路395號","121.525395","24.9992316666667","6500400","永和區"
"234013","149-BY","2017/12/19 20:09:53","新北市永和區永貞路403號","121.507776666667","25.009135","6500400","永和區"
"234007","207-UY","2017/12/19 20:09:41","新北市永和區保順路37巷14號","121.502925","25.01047","6500400","永和區"
"234081","298-R6","2017/12/19 20:09:51","新北市永和區永亨路100號","121.523113333333","25.0048066666667","6500400","永和區"
"234038","336-UY","2017/12/19 20:09:42","新北市永和區成功路一段56號","121.526966666667","25.0039483333333","6500400","永和區"
"234064","337-UY","2017/12/19 20:09:43","新北市永和區秀朗路二段46號","121.521468333333","25.0023716666667","6500400","永和區"
"234086","338-UY","2017/12/19 20:09:54","新北市永和區中正路535號","121.516911666667","25.0078733333333","6500400","永和區"
"234054","553-UM","2017/12/19 20:09:45","新北市永和區博愛街21巷1號","121.517715","25.0158233333333","6500400","永和區"
"234017","745-BX","2017/12/19 20:09:55","新北市永和區文化路36號","121.51497","25.0151333333333","6500400","永和區"
"234030","746-BX","2017/12/19 20:09:43","新北市永和區民權路49巷14號","121.52082","24.9972683333333","6500400","永和區"
"234061","AAD-866","2017/12/19 20:09:47","新北市永和區中正路236號","121.516296666667","24.9980966666667","6500400","永和區"
"234070","847-RS","2017/12/19 20:09:50","新北市永和區福和路183巷1號","121.519975","25.00739","6500400","永和區"
"234042","862-TW","2017/12/19 20:09:50","新北市永和區雙和街64巷22弄5-1號","121.509801666667","25.0028383333333","6500400","永和區"
"234050","863-TW","2017/12/19 20:09:51","新北市永和區環河西路二段141號","121.505868333333","25.0142316666667","6500400","永和區"
"234011","9373-KE","2017/12/19 20:09:41","新北市永和區仁愛路352巷122弄33號","121.500891666667","25.0091933333333","6500400","永和區"
"249005","172-UM","2017/12/19 20:09:39","新北市八里區下罟子57-29號","121.387623333333","25.1372766666667","6502300","八里區"
"249001","173-UM","2017/12/19 20:09:52","新北市八里區中華路二段326號","121.403323333333","25.1479383333333","6502300","八里區"
"249004","303-UY","2017/12/19 19:59:48","新北市八里區中山路一段217巷38號","121.411728333333","25.1555883333333","6502300","八里區"
"249002","305-UY","2017/12/19 20:09:44","新北市八里區龍米路一段66號","121.455968333333","25.1204533333333","6502300","八里區"
"249003","593-UM","2017/12/19 20:09:52","新北市八里區中山路二段540巷9弄20號","121.396526666667","25.1467566666667","6502300","八里區"
"248016","026-BX","2017/12/19 20:09:47","新北市五股區凌雲路一段158巷50弄23號","121.447881666667","25.1043683333333","6501500","五股區"
"248008","095-VK","2017/12/19 20:09:44","新北市五股區中興路一段1巷14號","121.469733333333","25.0713016666667","6501500","五股區"
"248020","225-UY","2017/12/19 20:09:51","新北市五股區凌雲路二段40-2號","121.439928333333","25.1025466666667","6501500","五股區"
"248012","247-BX","2017/12/19 20:09:43","新北市五股區民義路一段212號","121.43051","25.0895","6501500","五股區"
"248010","272-BY","2017/12/19 20:09:53","新北市五股區成泰路一段7巷44號","121.432488333333","25.0671583333333","6501500","五股區"
"248004","677-BX","2017/12/19 20:09:43","新北市五股區成泰路一段72-1號","121.435586666667","25.0699933333333","6501500","五股區"
"248002","678-BX","2017/12/19 20:09:42","新北市五股區成泰路三段277號","121.447235","25.094005","6501500","五股區"
"234023","9380-KE","2017/12/19 20:09:45","新北市永和區中正路662巷12號","121.517655","25.0087816666667","6500400","永和區"
"234077","969-R7","2017/12/19 20:09:41","新北市永和區民有街24巷1弄19號","121.516695","24.99574","6500400","永和區"
"234074","AAC-211","2017/12/19 20:09:50","新北市永和區豫溪街155號","121.521278333333","25.0104083333333","6500400","永和區"
"234067","AAC-212","2017/12/19 20:09:52","新北市永和區保平路214巷9號","121.50901","25.0067183333333","6500400","永和區"
"234003","AAC-295","2017/12/19 20:09:49","新北市永和區中正路620號","121.517066666667","25.0078266666667","6500400","永和區"
"244024","837-TS","2017/12/19 20:06:34","新北市林口區粉寮路二段160巷28號","121.405148333333","25.090755","6501700","林口區"
"243012","AAD-798","2017/12/19 20:09:45","新北市泰山區楓江路83巷3號","121.436963333333","25.0635666666667","6501600","泰山區"
"243011","297-R6","2017/12/19 20:09:49","新北市泰山區明志路三段182巷18號","121.423583333333","25.039265","6501600","泰山區"
"243015","380-SR","2017/12/19 20:09:43","新北市泰山區明志路一段393號","121.43086","25.0574783333333","6501600","泰山區"
"243014","421-VK","2017/12/19 20:09:48","新北市泰山區明志路一段24號","121.433623333333","25.0654633333333","6501600","泰山區"
"243010","KEA-2215","2017/12/19 20:09:37","新北市泰山區明志路二段214巷16弄49號","121.426885","25.0505866666667","6501600","泰山區"
"243009","KEA-2216","2017/12/19 20:09:55","新北市泰山區泰林路二段115號","121.43443","25.0594516666667","6501600","泰山區"
"243013","646-TV","2017/12/19 20:09:55","新北市泰山區民國街29號","121.425883333333","25.0436766666667","6501600","泰山區"
"243016","680-BX","2017/12/19 20:09:54","新北市泰山區貴陽街4號","121.421526666667","25.0332733333333","6501600","泰山區"
"222003","436-BY","2017/12/19 20:09:56","新北市深坑區埔新街56號","121.620328333333","25.0025833333333","6501800","深坑區"
"222002","659-BX","2017/12/19 20:09:41","新北市深坑區北深路三段158巷32弄1號","121.601603333333","25.004495","6501800","深坑區"
"231059","046-UY","2017/12/19 20:09:47","新北市新店區安德街60巷35號","121.5112","24.96359","6500600","新店區"
"231061","047-UY","2017/12/19 20:09:47","新北市新店區安興路33-1號","121.515801666667","24.97039","6500600","新店區"
"231060","106-UY","2017/12/19 20:09:55","新北市新店區安康路三段314號","121.487013333333","24.95178","6500600","新店區"
"231051","107-UY","2017/12/19 20:09:44","新北市新店區中央路218號","121.52984","24.973125","6500600","新店區"
"231048","108-UY","2017/12/19 20:09:43","新北市新店區寶橋路209號","121.54851","24.977065","6500600","新店區"
"231053","187-VK","2017/12/19 20:09:38","新北市新店區新烏路三段寶島巷2弄3號","121.55199","24.8986283333333","6500600","新店區"
"231050","KEA-2219","2017/12/19 20:09:40","新北市新店區北新路一段96巷23號","121.542808333333","24.9687166666667","6500600","新店區"
"231057","256-BX","2017/12/19 20:09:52","新北市新店區花園一路一段2號","121.553095","24.9324333333333","6500600","新店區"
"231046","278-BY","2017/12/19 20:09:51","新北市新店區安康路二段414巷2號","121.495898333333","24.9576083333333","6500600","新店區"
"231054","AAD-862","2017/12/19 20:09:48","新北市新店區檳榔路38號","121.541455","24.9637716666667","6500600","新店區"
"231056","3713-VJ","2017/12/19 20:09:45","新北市新店區中正路154巷12號","121.542026666667","24.97222","6500600","新店區"
"231055","4716-K9","2017/12/19 20:09:44","新北市新店區中華路42巷38號","121.541318333333","24.96926","6500600","新店區"
"231067","4772-VM","2017/12/19 20:09:50","新北市新店區溪洲路6巷12號","121.534013333333","24.96184","6500600","新店區"
"231065","512-UM","2017/12/19 20:09:55","新北市新店區安祥路106巷135號","121.473248333333","24.9585533333333","6500600","新店區"
"231064","515-UM","2017/12/19 20:09:43","新北市新店區安光路15巷15號","121.512326666667","24.963285","6500600","新店區"
"231045","617-UM","2017/12/19 20:09:38","新北市新店區北宜路一段121-2號","121.540386666667","24.9537833333333","6500600","新店區"
"231041","618-UM","2017/12/19 20:09:55","新北市新店區中正路460號","121.533983333333","24.97934","6500600","新店區"
"231040","619-UM","2017/12/19 20:09:53","新北市新店區中正路106號","121.543136666667","24.9705866666667","6500600","新店區"
"231042","641-BX","2017/12/19 20:09:46","新北市新店區中興路二段226號","121.547956666667","24.9751333333333","6500600","新店區"
"231063","645-TV","2017/12/19 20:09:57","新北市新店區黎明路53巷1號","121.502318333333","24.94872","6500600","新店區"
"231068","718-UY","2017/12/19 20:09:48","新北市新店區中興路三段88號","121.545245","24.97888","6500600","新店區"
"231049","719-UM","2017/12/19 20:09:46","新北市新店區北新路二段97巷9弄1號","121.542253333333","24.9740066666667","6500600","新店區"
"231062","720-UM","2017/12/19 20:09:57","新北市新店區安豐路48號","121.500851666667","24.9542766666667","6500600","新店區"
"231044","897-TW","2017/12/19 20:09:44","新北市新店區寶慶街58巷8號","121.542081666667","24.9870666666667","6500600","新店區"
"231043","899-TW","2017/12/19 20:09:43","新北市新店區民族路186號","121.536811666667","24.976195","6500600","新店區"
"231066","AKT-0513","2017/12/19 20:09:45","新北市新店區安興路105號","121.514705","24.9777383333333","6500600","新店區"
"241011","013-R5","2017/12/19 20:09:52","新北市三重區仁愛街22號","121.49638","25.0714583333333","6500200","三重區"
"241028","022-UY","2017/12/19 20:09:55","新北市三重區仁化街123號","121.494638333333","25.057615","6500200","三重區"
"241008","059-VK","2017/12/19 20:09:53","新北市三重區永福街197巷19號","121.478743333333","25.074375","6500200","三重區"
"241009","060-VK","2017/12/19 20:09:50","新北市三重區永福街125巷15-1號","121.47783","25.077455","6500200","三重區"
"241015","062-VK","2017/12/19 20:09:55","新北市三重區福德北路39號","121.502438333333","25.0648566666667","6500200","三重區"
"241017","063-VK","2017/12/19 20:09:50","新北市三重區長壽西街185號","121.492316666667","25.0664833333333","6500200","三重區"
"241024","065-VK","2017/12/19 20:09:44","新北市三重區中正北路310號","121.479453333333","25.0690333333333","6500200","三重區"
"241026","066-VK","2017/12/19 20:09:48","新北市三重區中央南路134號","121.50182","25.05972","6500200","三重區"
"241002","090-VK","2017/12/19 20:09:52","新北市三重區仁義街210號","121.496425","25.0823133333333","6500200","三重區"
"241003","091-VK","2017/12/19 20:09:51","新北市三重區富華街18號","121.489595","25.0824466666667","6500200","三重區"
"241019","156-TC","2017/12/19 20:09:54","新北市三重區自強路二段67巷41號","121.489776666667","25.0699183333333","6500200","三重區"
"241005","262-UM","2017/12/19 20:09:43","新北市三重區碧華街294巷14號","121.489058333333","25.08428","6500200","三重區"
"241023","265-UM","2017/12/19 20:09:43","新北市三重區頂崁街237號","121.47698","25.068565","6500200","三重區"
"241016","266-UM","2017/12/19 20:09:00","新北市三重區大同北路97-3號","121.494311666667","25.063625","6500200","三重區"
"241022","267-UM","2017/12/19 20:09:48","新北市三重區新北大道一段66號","121.48725","25.0615366666667","6500200","三重區"
"241032","269-UM","2017/12/19 20:09:47","新北市三重區捷運路65號","121.4834","25.0556383333333","6500200","三重區"
"241013","270-UM","2017/12/19 20:09:41","新北市三重區三和路三段139巷12號","121.492975","25.0738166666667","6500200","三重區"
"241025","271-UM","2017/12/19 20:09:55","新北市三重區中正北路237號","121.475723333333","25.0704616666667","6500200","三重區"
"241007","398-BY","2017/12/19 20:09:47","新北市三重區三和路四段111-32號","121.48629","25.0772816666667","6500200","三重區"
"241031","KEA-2210","2017/12/19 20:09:50","新北市三重區集美街116號","121.488655","25.053775","6500200","三重區"
"241020","413-TH","2017/12/19 20:09:49","新北市三重區三和路三段111號","121.493343333333","25.07306","6500200","三重區"
"241035","462-BY","2017/12/19 20:09:55","新北市三重區平安街3號","121.498946666667","25.0643566666667","6500200","三重區"
"241004","475-VK","2017/12/19 20:09:37","新北市三重區仁愛街406巷3號","121.490665","25.0812533333333","6500200","三重區"
"241030","480-VK","2017/12/19 20:09:56","新北市三重區成功路145巷35號","121.487813333333","25.053145","6500200","三重區"
"241014","543-UM","2017/12/19 20:09:39","新北市三重區長樂街112號","121.501543333333","25.0696416666667","6500200","三重區"
"241001","547-UM","2017/12/19 20:09:55","新北市三重區三和路四段89巷38號","121.490646666667","25.0762833333333","6500200","三重區"
"241033","557-UM","2017/12/19 20:09:49","新北市三重區光復路一段61巷31弄2號","121.47488","25.0492583333333","6500200","三重區"
"241006","AAD-863","2017/12/19 20:09:48","新北市三重區車路頭街115號","121.484305","25.075275","6500200","三重區"
"241012","941-UM","2017/12/19 20:09:39","新北市三重區仁愛街125巷34號","121.497908333333","25.0759033333333","6500200","三重區"
"241029","942-UM","2017/12/19 20:09:54","新北市三重區光明路32巷23弄1號","121.49206","25.0587333333333","6500200","三重區"
"235066","003-UY","2017/12/19 20:09:44","新北市中和區水源路127巷15號","121.508003333333","25.0039083333333","6500300","中和區"
"235063","006-UY","2017/12/19 20:09:45","新北市中和區橋和路281巷1號","121.495318333333","25.0078233333333","6500300","中和區"
"235039","097-UM","2017/12/19 20:09:55","新北市中和區大勇街29巷14號","121.515823333333","24.9946166666667","6500300","中和區"
"235040","150-BY","2017/12/19 20:09:50","新北市中和區保健路31號","121.508615","24.9977233333333","6500300","中和區"
"235044","293-VK","2017/12/19 20:09:43","新北市中和區中興街141號","121.499938333333","24.9912916666667","6500300","中和區"
"235068","377-QA","2017/12/19 20:09:44","新北市中和區中山路二段250巷24號","121.497246666667","25.00329","6500300","中和區"
"235050","4979-A6","2017/12/19 20:09:39","新北市中和區景新街300號","121.511251666667","24.991975","6500300","中和區"
"235069","4980-A6","2017/12/19 20:09:44","新北市中和區南山路127巷27弄16號","121.503416666667","24.99797","6500300","中和區"
"235070","558-UM","2017/12/19 20:09:51","新北市中和區圓通路123號","121.499188333333","24.9961033333333","6500300","中和區"
"235054","640-BX","2017/12/19 20:09:40","新北市中和區莒光路11號","121.471893333333","25.0057116666667","6500300","中和區"
"235065","911-UM","2017/12/19 20:09:40","新北市中和區福祥路56號","121.499431666667","25.0046466666667","6500300","中和區"
"235051","157-BY","2017/12/19 20:09:51","新北市中和區景安路220巷6-1號","121.503176666667","24.9910633333333","6500300","中和區"
"235037","AAC-213","2017/12/19 20:09:48","新北市中和區自強路52號","121.520135","24.9947966666667","6500300","中和區"
"235059","AAC-215","2017/12/19 20:09:48","新北市中和區圓通路335巷33弄11號","121.49315","24.98922","6500300","中和區"
"220068","013-TV","2017/12/19 20:09:46","新北市板橋區中山路二段525號","121.483088333333","25.02119","6500100","板橋區"
"220065","072-UY","2017/12/19 20:09:47","新北市板橋區縣民大道二段106號","121.467016666667","25.0155116666667","6500100","板橋區"
"220106","075-UY","2017/12/19 20:09:54","新北市板橋區文聖街5號","121.475358333333","25.032435","6500100","板橋區"
"220069","AAD-861","2017/12/19 20:09:50","新北市板橋區大明街25巷4弄16-3號","121.457501666667","25.00215","6500100","板橋區"
"220096","120-SR","2017/12/19 20:09:45","新北市板橋區莒光路79巷4號","121.471961666667","25.0244016666667","6500100","板橋區"
"247022","893-R6","2017/12/19 20:09:42","新北市蘆洲區三民路169號","121.471103333333","25.0871133333333","6501400","蘆洲區"
"247012","546-UM","2017/12/19 20:09:51","新北市蘆洲區復興路210號","121.478695","25.0891866666667","6501400","蘆洲區"
"247020","500-BY","2017/12/19 20:09:52","新北市蘆洲區民權路106巷5弄7號","121.474211666667","25.0891116666667","6501400","蘆洲區"
"247008","341-TH","2017/12/19 20:09:46","新北市蘆洲區中山一路160號","121.47474","25.0814216666667","6501400","蘆洲區"
"247010","339-TH","2017/12/19 20:09:47","新北市蘆洲區集賢路406號","121.480178333333","25.0818833333333","6501400","蘆洲區"
"247002","337-TH","2017/12/19 20:09:48","新北市蘆洲區永康街2巷2號","121.459336666667","25.08608","6501400","蘆洲區"
"247004","336-TH","2017/12/19 20:09:43","新北市蘆洲區長安街267巷8弄1號","121.457993333333","25.0835766666667","6501400","蘆洲區"
"247016","057-VK","2017/12/19 20:09:42","新北市蘆洲區光華路162巷14號","121.464943333333","25.082855","6501400","蘆洲區"
"247006","056-VK","2017/12/19 20:09:48","新北市蘆洲區永安南路二段16巷10號","121.467871666667","25.0774266666667","6501400","蘆洲區"
"247014","053-VK","2017/12/19 20:09:41","新北市蘆洲區中山二路223號","121.470346666667","25.0802266666667","6501400","蘆洲區"
"247024","002-UY","2017/12/19 20:09:38","新北市蘆洲區光榮路66巷17號","121.463521666667","25.08818","6501400","蘆洲區"
"247018","001-UY","2017/12/19 20:09:39","新北市蘆洲區民族路314巷21號","121.478226666667","25.0905183333333","6501400","蘆洲區"
"226004","312-R5","2017/12/19 20:09:45","新北市平溪區靜安路二段550號","121.747","25.0252","6502400","平溪區"
"222001","KEA-2212","2017/12/19 20:09:49","新北市深坑區北深路三段210號","121.601238333333","25.0038283333333","6501800","深坑區"
"208003","665-BX","2017/12/19 20:09:40","新北市金山區海興路1-3號","121.634075","25.2454783333333","6502700","金山區"
"251004","009-UM","2017/12/19 20:09:43","新北市淡水區民族路31巷21-3號","121.462101666667","25.136485","6501000","淡水區"
"251014","180-VK","2017/12/19 20:09:43","新北市淡水區石頭厝1號","121.458736666667","25.235525","6501000","淡水區"
"251008","181-VK","2017/12/19 20:09:47","新北市淡水區淡海路72巷30弄14號","121.424866666667","25.1825633333333","6501000","淡水區"
"251010","413-VK","2017/12/19 20:09:44","新北市淡水區新市二路二段2號","121.425648333333","25.19628","6501000","淡水區"
"251012","441-VK","2017/12/19 20:09:53","新北市淡水區淡金路三段224號","121.44896","25.2048733333333","6501000","淡水區"
"251016","442-VK","2017/12/19 20:09:44","新北市淡水區番子田18-1號","121.456785","25.2293633333333","6501000","淡水區"
"251006","561-UM","2017/12/19 20:09:39","新北市淡水區北新路141巷29號","121.448065","25.1796533333333","6501000","淡水區"
"251009","575-R6","2017/12/19 20:09:52","新北市淡水區清水街9-8號","121.444525","25.1703266666667","6501000","淡水區"
"251002","672-BX","2017/12/19 20:09:52","新北市淡水區中正路294號","121.437566666667","25.1720066666667","6501000","淡水區"
"207003","550-UM","2017/12/19 20:09:40","新北市萬里區大鵬里萬里加投166號","121.643433333333","25.2155116666667","6502800","萬里區"
"207004","225-TW","2017/12/19 20:09:41","新北市萬里區北基里孝七街29號","121.682625","25.1766933333333","6502800","萬里區"
"252002","178-VK","2017/12/19 20:06:13","新北市三芝區忠孝街116-3號","121.505531666667","25.2576233333333","6502100","三芝區"
"252001","292-VK","2017/12/19 20:09:37","新北市三芝區公正街66號","121.499796666667","25.2574716666667","6502100","三芝區"
"237007","153-BY","2017/12/19 20:09:43","新北市三峽區麻園37-3號","121.362643333333","24.91895","6500900","三峽區"
"237012","275-BY","2017/12/19 18:36:04","新北市三峽區中山路459巷137號","121.350125","24.934035","6500900","三峽區"
"237006","5529-G3","2017/12/19 20:09:39","新北市三峽區嘉添91號","121.369056666667","24.909755","6500900","三峽區"
"237016","649-BX","2017/12/19 20:09:57","新北市三峽區介壽路二段138巷1弄146號","121.399433333333","24.930545","6500900","三峽區"
"237005","AKY-6261","2017/12/19 20:09:38","新北市三峽區三樹路98巷74弄91號","121.385066666667","24.93848","6500900","三峽區"
"236070","105-UM","2017/12/19 20:09:54","新北市土城區中央路三段161號","121.431881666667","24.9654433333333","6501300","土城區"
"236043","107-UM","2017/12/19 20:09:48","新北市土城區學成路22巷2弄2號","121.453261666667","24.9871066666667","6501300","土城區"
"236079","166-UM","2017/12/19 20:09:42","新北市土城區民族街20號","121.418998333333","24.9629366666667","6501300","土城區"
"236031","253-BX","2017/12/19 20:09:37","新北市土城區中央路一段145號","121.446836666667","24.9878816666667","6501300","土城區"
"236027","269-VK","2017/12/19 20:09:52","新北市土城區裕生路81號","121.446928333333","24.98428","6501300","土城區"
"236038","271-VK","2017/12/19 20:09:50","新北市土城區延吉街351號","121.464651666667","24.9839233333333","6501300","土城區"
"236023","401-BY","2017/12/19 20:09:49","新北市土城區延吉街137巷25弄5號","121.47151","24.9851283333333","6501300","土城區"
"236059","912-UM","2017/12/19 20:09:52","新北市土城區中央路二段125號","121.442048333333","24.97719","6501300","土城區"
"236049","913-UM","2017/12/19 20:09:51","新北市土城區清水路251號","121.46275","24.9840633333333","6501300","土城區"
"236055","AAC-216","2017/12/19 20:09:54","新北市土城區中華路一段20號","121.447531666667","24.9903033333333","6501300","土城區"
"242032","AAC-296","2017/12/19 20:09:41","新北市新莊區忠孝街29巷26號","121.443635","25.0367","6500500","新莊區"
"242029","986-R7","2017/12/19 20:09:41","新北市新莊區中榮街152巷18號","121.445978333333","25.05342","6500500","新莊區"
"242051","751-BX","2017/12/19 20:09:42","新北市新莊區民安西路170號","121.42588","25.0160033333333","6500500","新莊區"
"242025","615-BX","2017/12/19 20:09:54","新北市新莊區五權一路12巷25弄26號","121.458895","25.064755","6500500","新莊區"
"242023","613-BX","2017/12/19 20:09:52","新北市新莊區化成路620號","121.466135","25.054895","6500500","新莊區"
"242027","612-BX","2017/12/19 20:09:56","新北市新莊區幸福路789號","121.446625","25.0490916666667","6500500","新莊區"
"242039","566-BX","2017/12/19 20:09:53","新北市新莊區民安西路110號","121.426883333333","25.018885","6500500","新莊區"
"242044","497-BY","2017/12/19 20:09:54","桃園市龜山區萬壽路一段13號","121.41032","25.0208966666667","6500500","新莊區"
"242046","442-UM","2017/12/19 20:09:58","新北市新莊區裕民街85巷22弄1號","121.419515","25.02298","6500500","新莊區"
"242048","441-UM","2017/12/19 20:09:45","新北市新莊區四維路152巷16號","121.422186666667","25.0229516666667","6500500","新莊區"
"242054","440-UM","2017/12/19 20:09:48","新北市新莊區西盛街377巷8號","121.428388333333","25.0132133333333","6500500","新莊區"
"242034","415-TV","2017/12/19 20:09:47","新北市新莊區中正路318巷11號","121.44626","25.0357316666667","6500500","新莊區"
"242005","413-TV","2017/12/19 20:09:40","新北市新莊區頭前路96號","121.46389","25.0525266666667","6500500","新莊區"
"242042","400-BY","2017/12/19 20:09:50","新北市新莊區壽山路61-1號","121.410216666667","25.0326633333333","6500500","新莊區"
"242061","362-BY","2017/12/19 20:09:45","新北市新莊區瓊林路104-17號","121.443445","25.026365","6500500","新莊區"
"242058","353-BY","2017/12/19 20:09:46","新北市新莊區龍安路266巷4號","121.42163","25.0191283333333","6500500","新莊區"
"242007","132-UY","2017/12/19 20:09:39","新北市新莊區福壽街124巷41弄20號","121.45928","25.0518983333333","6500500","新莊區"
"242037","133-UY","2017/12/19 20:09:39","新北市新莊區新泰路357巷3弄1號","121.442246666667","25.041405","6500500","新莊區"
"242021","135-UY","2017/12/19 20:09:53","新北市新莊區中興街31號","121.449198333333","25.0366316666667","6500500","新莊區"
"242009","173-VK","2017/12/19 20:09:44","新北市新莊區昌盛街35巷3弄1號","121.454058333333","25.0504233333333","6500500","新莊區"
"242015","175-VK","2017/12/19 20:09:40","新北市新莊區中平路26巷25號","121.446213333333","25.0432966666667","6500500","新莊區"
"242002","176-VK","2017/12/19 20:09:51","新北市新莊區中正路147-7號","121.457648333333","25.037125","6500500","新莊區"
"242013","346-TH","2017/12/19 20:09:42","新北市新莊區幸福路710巷5弄2號","121.44968","25.0497416666667","6500500","新莊區"
"242019","348-TH","2017/12/19 20:09:46","新北市新莊區長青街2號","121.458323333333","25.042335","6500500","新莊區"
"242017","350-TH","2017/12/19 20:09:44","新北市新莊區中港路360號","121.452051666667","25.0469083333333","6500500","新莊區"
"242011","351-TH","2017/12/19 20:09:57","新北市新莊區中信街59號","121.449365","25.0508016666667","6500500","新莊區"
"238021","KEA-2217","2017/12/19 20:09:51","新北市樹林區佳園路三段101巷146號","121.399203333333","24.95043","6500700","樹林區"
"239002","359-BY","2017/12/19 20:09:43","新北市鶯歌區二甲路13號","121.344398333333","24.9353783333333","6500800","鶯歌區"
"221008","489-VK","2017/12/19 20:09:52","台北市內湖區康樂街14號","121.617893333333","25.068025","6501100","汐止區"
"221036","130-UY","2017/12/19 20:09:55","新北市汐止區新台五路二段43號","121.663178333333","25.0665416666667","6501100","汐止區"
"221010","269-BY","2017/12/19 20:09:46","新北市汐止區八連路一段327號","121.639858333333","25.0872","6501100","汐止區"
"221012","276-VK","2017/12/19 13:19:09","新北市汐止區汐萬路一段256巷3號","121.653451666667","25.0746183333333","6501100","汐止區"
"221012","278-VK","2017/12/19 20:09:46","新北市汐止區汐平路二段72號","121.69935","25.06066","6501100","汐止區"
"221023","279-VK","2017/12/19 20:09:54","新北市汐止區明峰街298巷10弄2號","121.625005","25.0687933333333","6501100","汐止區"
"221032","280-BY","2017/12/19 20:09:38","新北市汐止區弘道街8巷3弄2號","121.617103333333","25.0480766666667","6501100","汐止區"
"221027","281-BY","2017/12/19 20:09:48","新北市汐止區中正路113號","121.660581666667","25.06949","6501100","汐止區"
"221029","298-VK","2017/12/19 20:09:43","新北市汐止區樟樹一路119巷8-6號","121.641278333333","25.06444","6501100","汐止區"
"221021","299-VK","2017/12/19 20:09:44","新北市汐止區連興街146號","121.654021666667","25.0614033333333","6501100","汐止區"
"221031","353-TW","2017/12/19 20:09:41","新北市汐止區原興路76巷2號","121.631928333333","25.06636","6501100","汐止區"
"221015","567-BX","2017/12/19 20:09:44","新北市汐止區建成路13號","121.664561666667","25.0725716666667","6501100","汐止區"
"221035","622-UM","2017/12/19 20:09:51","新北市汐止區長江街79巷8號","121.657516666667","25.0726883333333","6501100","汐止區"
"221025","623-UM","2017/12/19 20:09:53","新北市汐止區水源路二段30號","121.65478","25.057375","6501100","汐止區"
"221038","646-BX","2017/12/19 20:09:49","新北市汐止區大同路三段66-3號","121.668153333333","25.07724","6501100","汐止區"
"221033","647-BX","2017/12/19 20:09:39","新北市汐止區東勢街201巷104號","121.633523333333","25.0429566666667","6501100","汐止區"
"221002","707-TV","2017/12/19 20:09:51","新北市汐止區工建路308號","121.634063333333","25.06021","6501100","汐止區"
"221018","753-BX","2017/12/19 20:09:51","新北市汐止區茄苳路301號","121.673323333333","25.06705","6501100","汐止區"
"220080","200-UY","2017/12/19 20:09:40","新北市板橋區大觀路二段179巷34號","121.44628","24.9995333333333","6500100","板橋區"
"220103","257-TC","2017/12/19 20:09:44","新北市板橋區自由路3號","121.465418333333","25.022455","6500100","板橋區"
"220072","277-BY","2017/12/19 20:09:55","新北市板橋區金門街273號","121.431461666667","24.988375","6500100","板橋區"
"220101","280-UM","2017/12/19 20:09:38","新北市板橋區莒光路165巷30號","121.474236666667","25.0247483333333","6500100","板橋區"
"220071","283-VK","2017/12/19 20:09:47","新北市板橋區和平路174巷47號","121.46556","24.9936616666667","6500100","板橋區"
"220053","285-VK","2017/12/19 20:09:41","新北市板橋區中山路二段273號","121.477686666667","25.0178966666667","6500100","板橋區"
"220083","286-VK","2017/12/19 20:09:57","新北市板橋區僑中二街88巷31-1號","121.444723333333","25.0096316666667","6500100","板橋區"
"220081","287-VK","2017/12/19 20:09:37","新北市板橋區僑中一街124巷20弄19號","121.446988333333","25.01397","6500100","板橋區"
"220061","293-UM","2017/12/19 20:09:56","新北市板橋區漢生東路268-3號","121.468136666667","25.013075","6500100","板橋區"
"220084","296-UM","2017/12/19 20:09:54","新北市板橋區篤行路三段玉平巷76弄14號","121.427516666667","24.9859033333333","6500100","板橋區"
"220062","305-R5","2017/12/19 20:09:39","新北市五股區成泰路三段320號","121.450448333333","25.0967783333333","6500100","板橋區"
"220092","307-R5","2017/12/19 20:09:52","新北市板橋區民權路254號","121.458125","25.0147033333333","6500100","板橋區"
"220064","486-VK","2017/12/19 20:09:51","新北市板橋區長安街331巷79-1號","121.472451666667","25.01284","6500100","板橋區"
"220089","487-VK","2017/12/19 20:09:38","新北市板橋區互助街102號","121.459868333333","25.0260433333333","6500100","板橋區"
"242056","280-VK","2017/12/19 20:09:42","新北市新莊區新莊路649巷15弄1號","121.444961666667","25.0316116666667","6500500","新莊區"
"220088","491-VK","2017/12/19 20:09:42","新北市板橋區民治街69號","121.479641666667","25.03274","6500100","板橋區"
"220093","689-BX","2017/12/19 20:09:53","新北市板橋區長江路一段114號","121.459846666667","25.0297083333333","6500100","板橋區"
"220055","827-TW","2017/12/19 20:09:52","新北市板橋區仁愛路75號","121.460931666667","24.9997216666667","6500100","板橋區"
"220067","829-TW","2017/12/19 20:09:41","新北市板橋區中山路二段18號","121.472431666667","25.0150616666667","6500100","板橋區"
"220102","830-TW","2017/12/19 20:09:44","新北市板橋區民治街136號","121.47768","25.0308066666667","6500100","板橋區"
"220042","833-TW","2017/12/19 14:40:53","新北市板橋區民生路二段161巷9號","121.470338333333","25.0195783333333","6500100","板橋區"
"220074","895-R6","2017/12/19 20:09:47","新北市板橋區府後街6號","121.45894","25.0103366666667","6500100","板橋區"
"220097","AAC-210","2017/12/19 20:09:42","新北市板橋區光正街45巷2弄18號","121.46102","25.0173166666667","6500100","板橋區"
"220070","AAC-253","2017/12/19 20:09:50","新北市板橋區四川路二段99巷24弄43號","121.453268333333","24.9934666666667","6500100","板橋區"
