"lineid","car","time","location","longitude","latitude","cityid","cityname"
"234013","149-BY","2017/12/19 20:29:53","新北市永和區永和路二段350號","121.515915","25.01735","6500400","永和區"
"234081","298-R6","2017/12/19 20:29:49","新北市永和區永貞路80號","121.520226666667","25.0050416666667","6500400","永和區"
"234038","336-UY","2017/12/19 20:29:54","新北市永和區民樂街31巷6弄14號","121.528916666667","25.0014566666667","6500400","永和區"
"234064","337-UY","2017/12/19 20:29:32","新北市永和區中正路417號","121.517068333333","25.00479","6500400","永和區"
"234086","338-UY","2017/12/19 20:29:54","新北市永和區光復街21號","121.516505","25.017425","6500400","永和區"
"234054","553-UM","2017/12/19 20:29:44","新北市永和區光復街60巷25號","121.517775","25.0175166666667","6500400","永和區"
"234030","746-BX","2017/12/19 20:29:43","新北市中和區景平路51號","121.521696666667","24.9906266666667","6500400","永和區"
"234061","AAD-866","2017/12/19 20:29:47","新北市永和區安樂路194巷17弄5號","121.515986666667","25.0012216666667","6500400","永和區"
"234070","847-RS","2017/12/19 20:29:42","新北市永和區永亨路6-1號","121.519466666667","25.0056366666667","6500400","永和區"
"234042","862-TW","2017/12/19 20:29:50","新北市永和區安樂路250號","121.514626666667","25.003635","6500400","永和區"
"234050","863-TW","2017/12/19 20:29:56","新北市永和區環河西路二段87號","121.506645","25.0149916666667","6500400","永和區"
"249001","173-UM","2017/12/19 20:29:52","新北市八里區下罟子5-11號","121.38684","25.1422966666667","6502300","八里區"
"249004","303-UY","2017/12/19 20:29:47","新北市八里區中山路一段129巷27號","121.413996666667","25.1586183333333","6502300","八里區"
"249002","305-UY","2017/12/19 20:29:44","新北市八里區龍米路二段150號","121.436108333333","25.1566066666667","6502300","八里區"
"249003","593-UM","2017/12/19 20:26:32","新北市八里區華峰一街45號","121.398751666667","25.1461916666667","6502300","八里區"
"234023","9380-KE","2017/12/19 20:29:45","新北市永和區光復街4號","121.516406666667","25.0167333333333","6500400","永和區"
"234074","AAC-211","2017/12/19 20:29:50","新北市永和區豫溪街191巷7弄35號","121.52306","25.0111216666667","6500400","永和區"
"234067","AAC-212","2017/12/19 20:29:50","新北市永和區保平路292巷46弄2號","121.507545","25.0053466666667","6500400","永和區"
"234003","AAC-295","2017/12/19 20:29:49","新北市永和區中正路620號","121.517076666667","25.0078283333333","6500400","永和區"
"244024","837-TS","2017/12/19 20:06:34","新北市林口區粉寮路二段160巷28號","121.405148333333","25.090755","6501700","林口區"
"243012","AAD-798","2017/12/19 20:29:45","新北市泰山區忠孝街19巷3弄1號","121.427388333333","25.0659166666667","6501600","泰山區"
"243011","297-R6","2017/12/19 20:29:57","新北市泰山區新北大道六段315號","121.423735","25.0336666666667","6501600","泰山區"
"243015","380-SR","2017/12/19 20:29:43","新北市泰山區福興三街9號","121.434766666667","25.0578483333333","6501600","泰山區"
"243014","421-VK","2017/12/19 20:29:57","新北市泰山區泰林路二段551號","121.422901666667","25.0636166666667","6501600","泰山區"
"243010","KEA-2215","2017/12/19 20:29:56","新北市泰山區明志路二段255巷3弄1號","121.427968333333","25.04754","6501600","泰山區"
"243009","KEA-2216","2017/12/19 20:29:55","新北市泰山區泰林路二段408號","121.427543333333","25.0642883333333","6501600","泰山區"
"243013","646-TV","2017/12/19 20:29:35","新北市泰山區明志路二段246號","121.427093333333","25.04796","6501600","泰山區"
"243016","680-BX","2017/12/19 20:29:54","新北市泰山區明志路二段218號","121.427336666667","25.048695","6501600","泰山區"
"222003","436-BY","2017/12/19 20:29:56","新北市深坑區深坑街27號","121.61591","25.0023633333333","6501800","深坑區"
"222002","659-BX","2017/12/19 20:29:41","新北市深坑區萬福路45號","121.59949","25.0068366666667","6501800","深坑區"
"231059","046-UY","2017/12/19 20:29:47","新北市新店區安豐路49號","121.500021666667","24.9549083333333","6500600","新店區"
"231061","047-UY","2017/12/19 20:29:47","新北市新店區新和街34號","121.519123333333","24.9847666666667","6500600","新店區"
"231060","106-UY","2017/12/19 20:29:55","新北市新店區錦秀路53號","121.47911","24.943405","6500600","新店區"
"231051","107-UY","2017/12/19 20:29:44","新北市新店區中央七街83號","121.527016666667","24.9769333333333","6500600","新店區"
"231048","108-UY","2017/12/19 20:29:43","新北市新店區寶元路一段65號","121.542205","24.9858116666667","6500600","新店區"
"231053","187-VK","2017/12/19 20:29:38","新北市新店區松林路38號","121.546243333333","24.910245","6500600","新店區"
"231050","KEA-2219","2017/12/19 20:29:40","新北市新店區博愛街13巷4號","121.540876666667","24.9734483333333","6500600","新店區"
"231057","256-BX","2017/12/19 20:29:52","新北市新店區花園五路二段3號","121.553636666667","24.93423","6500600","新店區"
"231054","AAD-862","2017/12/19 20:29:48","新北市新店區檳榔路109號","121.544476666667","24.9616566666667","6500600","新店區"
"231058","3712-VJ","2017/12/19 20:29:39","新北市新店區自由街22號","121.535056666667","24.9746116666667","6500600","新店區"
"231056","3713-VJ","2017/12/19 20:29:45","新北市新店區中正路328巷1號","121.536868333333","24.975285","6500600","新店區"
"231065","512-UM","2017/12/19 20:29:55","新北市新店區安祥路102巷46弄87號","121.487248333333","24.9632283333333","6500600","新店區"
"231064","515-UM","2017/12/19 20:29:43","新北市新店區新和街84號","121.520451666667","24.985915","6500600","新店區"
"231045","617-UM","2017/12/19 20:29:38","新北市新店區新坡一街31號","121.54982","24.9633266666667","6500600","新店區"
"231041","618-UM","2017/12/19 20:29:35","新北市新店區中正路501-2號","121.533646666667","24.9837233333333","6500600","新店區"
"231040","619-UM","2017/12/19 20:29:53","新北市新店區中正路346號","121.536415","24.97521","6500600","新店區"
"231042","641-BX","2017/12/19 20:29:46","新北市新店區寶橋路226號","121.55126","24.9788283333333","6500600","新店區"
"231063","645-TV","2017/12/19 20:29:57","新北市新店區安康路二段317-1號","121.499026666667","24.9563966666667","6500600","新店區"
"231068","718-UY","2017/12/19 20:29:47","新北市新店區民權路9號","121.542491666667","24.9828383333333","6500600","新店區"
"231049","719-UM","2017/12/19 20:29:46","新北市新店區永業路81巷12號","121.531456666667","24.9482166666667","6500600","新店區"
"231062","720-UM","2017/12/19 20:29:57","新北市新店區安泰路60巷87號","121.48415","24.9444616666667","6500600","新店區"
"231044","897-TW","2017/12/19 20:29:44","新北市新店區建國路149號","121.538783333333","24.9787466666667","6500600","新店區"
"231043","899-TW","2017/12/19 20:29:56","新北市新店區建國路104號","121.539806666667","24.97786","6500600","新店區"
"231066","AKT-0513","2017/12/19 20:29:45","新北市新店區安興路112號","121.5147","24.9775433333333","6500600","新店區"
"241011","013-R5","2017/12/19 20:29:52","新北市三重區龍門路57號","121.496501666667","25.0724216666667","6500200","三重區"
"241028","022-UY","2017/12/19 20:29:55","新北市三重區光興街93號","121.497326666667","25.059915","6500200","三重區"
"241008","059-VK","2017/12/19 20:29:53","新北市三重區下竹圍街42號","121.48108","25.0748866666667","6500200","三重區"
"241009","060-VK","2017/12/19 20:29:47","新北市三重區永福街62-4號","121.480875","25.0778716666667","6500200","三重區"
"241015","062-VK","2017/12/19 20:29:35","新北市三重區長元街2-2號","121.498775","25.0658316666667","6500200","三重區"
"241017","063-VK","2017/12/19 20:29:50","新北市三重區自強路一段207號","121.491533333333","25.0683816666667","6500200","三重區"
"241024","065-VK","2017/12/19 20:29:44","新北市三重區三民街247號","121.479593333333","25.0676066666667","6500200","三重區"
"241026","066-VK","2017/12/19 20:29:48","新北市三重區環河南路19號","121.503521666667","25.0626516666667","6500200","三重區"
"241002","090-VK","2017/12/19 20:29:52","新北市三重區仁義街211巷33號","121.497805","25.0823866666667","6500200","三重區"
"241003","091-VK","2017/12/19 20:29:51","新北市三重區富華街222號","121.493596666667","25.0852733333333","6500200","三重區"
"241019","156-TC","2017/12/19 20:29:54","新北市三重區重陽路四段126巷62號","121.49104","25.0707","6500200","三重區"
"241005","262-UM","2017/12/19 20:29:43","新北市三重區碧華街382號","121.491278333333","25.0845","6500200","三重區"
"241023","265-UM","2017/12/19 20:29:43","新北市三重區自由街19號","121.479786666667","25.0665983333333","6500200","三重區"
"241016","266-UM","2017/12/19 20:29:40","新北市三重區正義北路190巷6號","121.496108333333","25.066745","6500200","三重區"
"241022","267-UM","2017/12/19 20:29:49","新北市三重區民生街61巷18弄5號","121.487616666667","25.0629083333333","6500200","三重區"
"241018","268-UM","2017/12/19 20:29:37","新北市三重區正義北路210號","121.496056666667","25.0675216666667","6500200","三重區"
"241032","269-UM","2017/12/19 20:29:47","新北市三重區重陽路一段120巷35號","121.485106666667","25.0601666666667","6500200","三重區"
"241013","270-UM","2017/12/19 20:29:41","新北市三重區三和路三段167巷55號","121.49398","25.074705","6500200","三重區"
"241025","271-UM","2017/12/19 20:29:54","新北市三重區頂崁街210巷23弄1號","121.47587","25.068215","6500200","三重區"
"241007","398-BY","2017/12/19 20:29:47","新北市三重區自強路四段4號","121.48836","25.0760866666667","6500200","三重區"
"241031","KEA-2210","2017/12/19 20:29:36","新北市三重區三寧街30號","121.489771666667","25.0601083333333","6500200","三重區"
"241020","413-TH","2017/12/19 20:29:49","新北市三重區三和路三段144巷8號","121.492791666667","25.0724416666667","6500200","三重區"
"241035","462-BY","2017/12/19 20:29:55","新北市三重區正義北路99號","121.496948333333","25.0653683333333","6500200","三重區"
"241004","475-VK","2017/12/19 20:29:56","新北市三重區溪尾街188號","121.488321666667","25.08093","6500200","三重區"
"241030","480-VK","2017/12/19 20:29:56","新北市三重區成功路75號","121.488668333333","25.051195","6500200","三重區"
"241014","543-UM","2017/12/19 20:29:39","新北市三重區長興街91號","121.50168","25.069125","6500200","三重區"
"241001","547-UM","2017/12/19 20:29:54","新北市三重區溪尾街54號","121.490381666667","25.0774233333333","6500200","三重區"
"241033","557-UM","2017/12/19 20:29:49","新北市三重區五谷王北街80巷28號","121.475413333333","25.052695","6500200","三重區"
"241012","941-UM","2017/12/19 20:29:39","新北市三重區龍濱路269號","121.501423333333","25.0730933333333","6500200","三重區"
"241029","942-UM","2017/12/19 20:29:54","新北市三重區集美街225號","121.492","25.05513","6500200","三重區"
"235066","003-UY","2017/12/19 20:29:44","新北市中和區光華街61號","121.506478333333","25.0030633333333","6500300","中和區"
"235063","006-UY","2017/12/19 20:29:45","新北市八里區商港路88-1號","121.393016666667","25.1498133333333","6500300","中和區"
"235039","097-UM","2017/12/19 20:29:55","新北市中和區大勇街29巷1號","121.516143333333","24.9942266666667","6500300","中和區"
"235050","4979-A6","2017/12/19 20:29:39","新北市中和區景新街133號","121.505853333333","24.9972616666667","6500300","中和區"
"235069","4980-A6","2017/12/19 20:29:44","新北市中和區中正路434號","121.491256666667","24.9942266666667","6500300","中和區"
"235065","911-UM","2017/12/19 20:29:40","新北市中和區橋和路292號","121.496716666667","25.00691","6500300","中和區"
"235059","AAC-215","2017/12/19 20:29:28","新北市中和區員山路32號","121.481171666667","24.9878216666667","6500300","中和區"
"247022","893-R6","2017/12/19 20:29:42","新北市蘆洲區中正路263巷2號","121.467306666667","25.0875083333333","6501400","蘆洲區"
"247012","546-UM","2017/12/19 20:29:51","新北市蘆洲區復興路252號","121.479773333333","25.08961","6501400","蘆洲區"
"247020","500-BY","2017/12/19 20:29:52","新北市蘆洲區民族路424號","121.473851666667","25.0917983333333","6501400","蘆洲區"
"247008","341-TH","2017/12/19 20:29:46","新北市蘆洲區永安北路二段70號","121.483301666667","25.0841366666667","6501400","蘆洲區"
"247010","339-TH","2017/12/19 20:29:46","新北市蘆洲區信義路222巷12號","121.479733333333","25.085355","6501400","蘆洲區"
"247002","337-TH","2017/12/19 20:29:48","新北市蘆洲區環堤大道122號","121.455486666667","25.0873266666667","6501400","蘆洲區"
"247004","336-TH","2017/12/19 20:29:43","新北市蘆洲區長安街299巷46號","121.45655","25.0845866666667","6501400","蘆洲區"
"247016","057-VK","2017/12/19 20:29:42","新北市蘆洲區光華路47號","121.46875","25.082995","6501400","蘆洲區"
"247006","056-VK","2017/12/19 20:29:48","新北市蘆洲區光華路169號","121.464916666667","25.0819433333333","6501400","蘆洲區"
"247014","053-VK","2017/12/19 20:29:41","新北市蘆洲區中山一路158號","121.474913333333","25.081615","6501400","蘆洲區"
"247024","002-UY","2017/12/19 20:29:38","新北市蘆洲區光復路69號","121.464221666667","25.085555","6501400","蘆洲區"
"247018","001-UY","2017/12/19 20:29:39","新北市蘆洲區民族路327巷26號","121.474321666667","25.091115","6501400","蘆洲區"
"222001","KEA-2212","2017/12/19 20:29:49","新北市深坑區北深路三段329號","121.597296666667","25.0050883333333","6501800","深坑區"
"251014","180-VK","2017/12/19 20:29:43","新北市淡水區石頭厝8-6號","121.459031666667","25.2371383333333","6501000","淡水區"
"251008","181-VK","2017/12/19 20:29:47","新北市淡水區淡海路206巷6號","121.420571666667","25.185555","6501000","淡水區"
"251010","413-VK","2017/12/19 20:29:44","新北市淡水區沙崙路181巷1號","121.424005","25.184365","6501000","淡水區"
"251012","441-VK","2017/12/19 20:29:53","新北市淡水區興仁路108號","121.451645","25.2181583333333","6501000","淡水區"
"251016","442-VK","2017/12/19 20:29:44","新北市淡水區新埔子8號","121.44988","25.2282283333333","6501000","淡水區"
"251001","559-UM","2017/12/19 20:29:40","新北市淡水區中山北路二段1號","121.44447","25.1831666666667","6501000","淡水區"
"251006","561-UM","2017/12/19 20:29:39","新北市淡水區商工路329號","121.463183333333","25.1859833333333","6501000","淡水區"
"251011","650-BX","2017/12/19 20:29:54","新北市淡水區崁頂74號","121.434428333333","25.2007266666667","6501000","淡水區"
"251002","672-BX","2017/12/19 20:29:52","新北市淡水區中正路21號","121.44267","25.1695816666667","6501000","淡水區"
"251003","673-BX","2017/12/19 20:29:49","新北市淡水區新民街27號","121.439121666667","25.1757233333333","6501000","淡水區"
"252002","178-VK","2017/12/19 20:06:13","新北市三芝區忠孝街116-3號","121.505531666667","25.2576233333333","6502100","三芝區"
"252001","292-VK","2017/12/19 20:29:37","新北市三芝區中山路一段35號","121.500686666667","25.2579683333333","6502100","三芝區"
"237012","275-BY","2017/12/19 20:29:45","新北市三峽區中山路459巷163-3號","121.348938333333","24.9330983333333","6500900","三峽區"
"242032","AAC-296","2017/12/19 20:29:53","新北市新莊區三和路17-9號","121.439501666667","25.0373783333333","6500500","新莊區"
"242029","986-R7","2017/12/19 20:29:41","新北市新莊區中華路二段201號","121.452273333333","25.0526833333333","6500500","新莊區"
"242051","751-BX","2017/12/19 20:29:42","新北市新莊區民安西路189巷13號","121.426628333333","25.0153966666667","6500500","新莊區"
"242025","615-BX","2017/12/19 20:29:54","新北市新莊區五工二路51號","121.460793333333","25.065185","6500500","新莊區"
"242023","613-BX","2017/12/19 20:29:36","新北市新莊區化成路936號","121.464791666667","25.0625016666667","6500500","新莊區"
"242027","612-BX","2017/12/19 20:29:56","新北市新莊區思源路309號","121.45988","25.0489366666667","6500500","新莊區"
"242039","566-BX","2017/12/19 20:29:53","新北市新莊區成功街18號","121.425275","25.021035","6500500","新莊區"
"242044","497-BY","2017/12/19 20:29:54","新北市新莊區中正路891-46號","121.413741666667","25.0228266666667","6500500","新莊區"
"242046","442-UM","2017/12/19 20:29:58","新北市新莊區中正路881-16號","121.417531666667","25.024605","6500500","新莊區"
"242048","441-UM","2017/12/19 20:29:45","新北市新莊區裕民街85巷20號","121.419596666667","25.02323","6500500","新莊區"
"242054","440-UM","2017/12/19 20:29:47","新北市新莊區民安西路229巷10號","121.426686666667","25.0141633333333","6500500","新莊區"
"242034","415-TV","2017/12/19 20:29:45","新北市新莊區新泰路181號","121.447435","25.037465","6500500","新莊區"
"242005","413-TV","2017/12/19 20:29:55","新北市新莊區化成路746巷34號","121.467118333333","25.0581016666667","6500500","新莊區"
"242042","400-BY","2017/12/19 20:29:48","新北市新莊區中正路694巷3弄2號","121.41838","25.0283466666667","6500500","新莊區"
"242061","362-BY","2017/12/19 20:29:48","新北市新莊區新樹路244巷24號","121.431531666667","25.0185783333333","6500500","新莊區"
"242058","353-BY","2017/12/19 20:29:46","新北市新莊區四維路123號","121.42304","25.022965","6500500","新莊區"
"242007","132-UY","2017/12/19 20:29:39","新北市新莊區福壽街56巷5號","121.458723333333","25.0488333333333","6500500","新莊區"
"242037","133-UY","2017/12/19 20:29:39","新北市新莊區建安街64號","121.427045","25.0245333333333","6500500","新莊區"
"242021","135-UY","2017/12/19 20:29:48","新北市新莊區公園路64號","121.44949","25.03947","6500500","新莊區"
"242009","173-VK","2017/12/19 20:29:29","新北市新莊區昌隆街86號","121.455921666667","25.0507833333333","6500500","新莊區"
"242015","175-VK","2017/12/19 20:29:54","新北市新莊區中平路36巷29號","121.445938333333","25.0435616666667","6500500","新莊區"
"242002","176-VK","2017/12/19 20:29:51","新北市新莊區中正路78-1號","121.458513333333","25.03781","6500500","新莊區"
"242013","346-TH","2017/12/19 20:29:44","新北市新莊區中和街155巷24弄85號","121.446563333333","25.0515133333333","6500500","新莊區"
"242019","348-TH","2017/12/19 20:29:46","新北市新莊區民樂街79號","121.457995","25.0428833333333","6500500","新莊區"
"242017","350-TH","2017/12/19 20:29:44","新北市新莊區中港二街41號","121.450653333333","25.0458333333333","6500500","新莊區"
"242011","351-TH","2017/12/19 20:29:57","新北市新莊區中義街49號","121.449373333333","25.0510766666667","6500500","新莊區"
"239002","359-BY","2017/12/19 20:27:23","新北市鶯歌區二甲路171-1號","121.344096666667","24.9356033333333","6500800","鶯歌區"
"221008","489-VK","2017/12/19 20:29:52","新北市汐止區康寧街523-1號","121.633455","25.0687183333333","6501100","汐止區"
"221036","130-UY","2017/12/19 20:29:40","新北市汐止區新台五路二段116巷18弄2號","121.66313","25.0655066666667","6501100","汐止區"
"221010","269-BY","2017/12/19 20:29:46","新北市汐止區八連路二段231號","121.63295","25.0957466666667","6501100","汐止區"
"221012","276-VK","2017/12/19 13:19:09","新北市汐止區汐萬路一段256巷3號","121.653451666667","25.0746183333333","6501100","汐止區"
"221012","278-VK","2017/12/19 20:29:46","新北市汐止區大同路三段241號","121.672665","25.076725","6501100","汐止區"
"221023","279-VK","2017/12/19 20:29:54","新北市汐止區湖東街19號","121.635705","25.0724716666667","6501100","汐止區"
"221032","280-BY","2017/12/19 20:29:58","新北市汐止區弘道街53巷16號","121.618736666667","25.04917","6501100","汐止區"
"221027","281-BY","2017/12/19 20:29:40","新北市汐止區中正路246號","121.657598333333","25.06867","6501100","汐止區"
"221029","298-VK","2017/12/19 20:29:43","新北市汐止區樟樹一路135巷35號","121.64065","25.0654666666667","6501100","汐止區"
"221021","299-VK","2017/12/19 20:29:44","新北市汐止區水源路一段293號","121.654341666667","25.05832","6501100","汐止區"
"221031","353-TW","2017/12/19 20:29:41","新北市汐止區福德一路237號","121.634245","25.0647016666667","6501100","汐止區"
"221015","567-BX","2017/12/19 20:29:44","新北市汐止區建成路142巷19弄17號","121.661836666667","25.073945","6501100","汐止區"
"221035","622-UM","2017/12/19 20:29:51","新北市汐止區長江街101-5號","121.658653333333","25.0731883333333","6501100","汐止區"
"221025","623-UM","2017/12/19 20:29:53","新北市汐止區水源路二段110巷1號","121.656656666667","25.055325","6501100","汐止區"
"221038","646-BX","2017/12/19 20:29:49","新北市汐止區忠孝東路208號","121.661908333333","25.0663866666667","6501100","汐止區"
"221033","647-BX","2017/12/19 20:29:39","新北市汐止區林森街132巷6弄6號","121.624281666667","25.0406133333333","6501100","汐止區"
"221002","707-TV","2017/12/19 20:29:51","新北市汐止區福德一路86巷25號","121.637601666667","25.0687966666667","6501100","汐止區"
"221018","753-BX","2017/12/19 20:29:50","新北市汐止區茄苳路181號","121.669858333333","25.0694183333333","6501100","汐止區"
"220103","257-TC","2017/12/19 20:29:47","新北市板橋區漢生東路33巷8號","121.465615","25.0172066666667","6500100","板橋區"
"220101","280-UM","2017/12/19 20:29:38","新北市五股區成泰路三段320號","121.450611666667","25.0969683333333","6500100","板橋區"
"220083","286-VK","2017/12/19 20:29:36","新北市板橋區僑中二街104巷14號","121.445416666667","25.008035","6500100","板橋區"
"220062","305-R5","2017/12/19 20:29:39","新北市八里區中山路三段415號","121.371198333333","25.1371316666667","6500100","板橋區"
"220089","487-VK","2017/12/19 20:29:38","新北市板橋區四維路268號","121.463253333333","25.02851","6500100","板橋區"
"242056","280-VK","2017/12/19 20:29:42","新北市新莊區新莊路713巷1弄1號","121.44373","25.03256","6500500","新莊區"
"220042","833-TW","2017/12/19 14:40:53","新北市板橋區民生路二段161巷9號","121.470338333333","25.0195783333333","6500100","板橋區"
"220070","AAC-253","2017/12/19 20:29:49","新北市泰山區新五路一段131-1號","121.439613333333","25.0631183333333","6500100","板橋區"
