"lineid","car","time","location","longitude","latitude","cityid","cityname"
"224011","AGQ-8101","2017/06/25 03:48:48","新北市瑞芳區明燈路二段44-1號","121.809473333333","25.1082316666667","6501200","瑞芳區"
"251013","179-VK","2017/06/25 16:39:41","新北市淡水區大溪7號","121.496455","25.190545","6501000","淡水區"
"251014","180-VK","2017/06/25 16:39:37","新北市淡水區淡金路三段55號","121.447358333333","25.198255","6501000","淡水區"
"251015","182-VK","2017/06/25 16:39:34","新北市淡水區忠愛街4號","121.459638333333","25.1713116666667","6501000","淡水區"
"251016","442-VK","2017/06/25 16:39:36","新北市淡水區水頭43-1號","121.47689","25.185735","6501000","淡水區"
