"lineid","car","time","location","longitude","latitude","cityid","cityname"
"224011","AGQ-8101","2017/06/25 03:48:48","新北市瑞芳區明燈路二段44-1號","121.809473333333","25.1082316666667","6501200","瑞芳區"
"251013","179-VK","2017/06/25 17:29:41","新北市淡水區大竹圍5號","121.466586666667","25.1951966666667","6501000","淡水區"
"251014","180-VK","2017/06/25 17:29:42","新北市淡水區公埔子20-2號","121.469606666667","25.22892","6501000","淡水區"
"251015","182-VK","2017/06/25 17:29:38","新北市淡水區三空泉15號","121.47282","25.1635933333333","6501000","淡水區"
"251016","442-VK","2017/06/25 17:29:36","新北市淡水區埤島72號","121.456583333333","25.1929183333333","6501000","淡水區"
