"lineid","car","time","location","longitude","latitude","cityid","cityname"
"224011","AGQ-8101","2017/06/25 03:48:48","新北市瑞芳區明燈路二段44-1號","121.809473333333","25.1082316666667","6501200","瑞芳區"
"251013","179-VK","2017/06/25 17:59:41","新北市淡水區泉洲厝31號","121.479608333333","25.1910033333333","6501000","淡水區"
"251014","180-VK","2017/06/25 17:59:37","新北市淡水區公埔子16-6號","121.481025","25.224555","6501000","淡水區"
"251015","182-VK","2017/06/25 17:59:34","新北市淡水區興福寮88巷1號","121.485788333333","25.1650883333333","6501000","淡水區"
"251016","442-VK","2017/06/25 17:59:36","新北市淡水區淡金路三段30號","121.447691666667","25.1983383333333","6501000","淡水區"
