"lineid","car","time","location","longitude","latitude","cityid","cityname"
"224011","AGQ-8101","2017/06/25 18:17:26","新北市瑞芳區汽車路5號","121.847596666667","25.1116683333333","6501200","瑞芳區"
"251013","179-VK","2017/06/25 18:19:41","新北市淡水區破瓦厝子1-10號","121.47505","25.2000216666667","6501000","淡水區"
"251014","180-VK","2017/06/25 18:19:37","新北市淡水區崙頂10號","121.492913333333","25.2197666666667","6501000","淡水區"
"251015","182-VK","2017/06/25 18:19:34","新北市淡水區興福寮88巷1號","121.485663333333","25.1650616666667","6501000","淡水區"
"251016","442-VK","2017/06/25 18:19:36","新北市淡水區下圭柔山34-3號","121.450655","25.2048083333333","6501000","淡水區"
