"lineid","car","time","location","longitude","latitude","cityid","cityname"
"224011","AGQ-8101","2017/06/25 18:26:46","新北市瑞芳區崙頂路114號","121.844366666667","25.1075516666667","6501200","瑞芳區"
"251013","179-VK","2017/06/25 18:29:41","新北市淡水區椿子林19-1號","121.480573333333","25.2039566666667","6501000","淡水區"
"251014","180-VK","2017/06/25 18:29:36","新北市淡水區崙頂12-8號","121.495046666667","25.216075","6501000","淡水區"
"251015","182-VK","2017/06/25 18:29:34","新北市淡水區興福寮88巷216號","121.486013333333","25.16658","6501000","淡水區"
"251016","442-VK","2017/06/25 18:29:36","新北市淡水區下圭柔山106號","121.443483333333","25.2093616666667","6501000","淡水區"
