"lineid","car","time","location","longitude","latitude","cityid","cityname"
"232019","758-BX","2017/06/23 08:03:52","新北市坪林區坪雙路一段43號","121.711556666667","24.9426783333333","6502000","坪林區"
"244004","248-BX","2017/06/23 08:19:07","新北市林口區嘉寶里32-1號","121.358613333333","25.0983966666667","6501700","林口區"
"243002","548-UM","2017/06/23 08:05:02","新北市泰山區泰林路二段21-3號","121.437046666667","25.055265","6501600","泰山區"
"222005","289-BY","2017/06/23 08:17:52","新北市深坑區萬福路36-1號","121.605163333333","25.01223","6501800","深坑區"
"231009","188-VK","2017/06/23 08:19:09","新北市新店區北宜路一段3號","121.538561666667","24.95847","6500600","新店區"
"247002","402-BY","2017/06/23 08:18:55","新北市蘆洲區三民路157-2號","121.470943333333","25.0866766666667","6501400","蘆洲區"
"226005","5620-A6","2017/06/23 08:19:05","新北市平溪區南山里六分3號","121.79468","25.0491516666667","6502400","平溪區"
"226001","7418-A5","2017/06/23 08:18:50","新北市平溪區東勢里芊蓁林51號","121.753168333333","25.0099966666667","6502400","平溪區"
"226003","AGD-0702","2017/06/23 08:19:10","新北市平溪區十分里十分街58巷17號","121.774665","25.0431733333333","6502400","平溪區"
"223006","022-BY","2017/06/23 08:19:01","新北市石碇區雙溪47-2號","121.651968333333","25.0066683333333","6501900","石碇區"
"223002","198-BX","2017/06/23 08:18:53","新北市石碇區蛇舌子11-1號","121.65863","24.9700283333333","6501900","石碇區"
"223003","205-TH","2017/06/23 08:19:09","新北市石碇區北宜路六段獅子頭坑巷2號","121.644885","24.9405933333333","6501900","石碇區"
"223001","251-BX","2017/06/23 08:18:57","新北市石碇區北宜路六段塗潭巷2號","121.64436","24.93748","6501900","石碇區"
"223008","406-TH","2017/06/23 08:18:58","新北市石碇區靜安路一段312號","121.692821666667","25.0065816666667","6501900","石碇區"
"223004","660-BX","2017/06/23 08:19:03","新北市石碇區石崁10號","121.654678333333","24.9961866666667","6501900","石碇區"
"223007","661-BX","2017/06/23 08:18:53","新北市石碇區靜安路一段312號","121.692725","25.0065866666667","6501900","石碇區"
"223005","677-TV","2017/06/23 08:19:05","新北市石碇區碇坪路一段11號","121.652706666667","24.9988166666667","6501900","石碇區"
"227005","282-VK","2017/06/23 08:19:04","新北市雙溪區上林里大瀨10號","121.823441666667","25.0207166666667","6502500","雙溪區"
"237001","159-UY","2017/06/23 08:19:05","新北市三峽區三樹路281號","121.379011666667","24.9433533333333","6500900","三峽區"
"236010","165-UM","2017/06/23 08:18:56","新北市土城區石門路100-3號","121.458483333333","24.9513966666667","6501300","土城區"
"236004","339-SR","2017/06/23 08:19:05","新北市土城區中央路四段47號","121.422231666667","24.96173","6501300","土城區"
"236006","498-BY","2017/06/23 08:18:56","新北市土城區中央路三段253號","121.427258333333","24.9637733333333","6501300","土城區"
