"lineid","car","time","location","longitude","latitude","cityid","cityname"
"222005","289-BY","2017/06/23 09:59:02","新北市深坑區深坑街81號","121.614611666667","25.0013966666667","6501800","深坑區"
"231009","188-VK","2017/06/23 09:39:13","新北市新店區平廣路一段256號","121.507845","24.8883016666667","6500600","新店區"
"247002","402-BY","2017/06/23 09:59:01","新北市蘆洲區民族路409號","121.46908","25.0897033333333","6501400","蘆洲區"
"227005","282-VK","2017/06/23 09:57:44","新北市雙溪區泰平里灣潭路36號","121.811441666667","24.9288133333333","6502500","雙溪區"
"236004","339-SR","2017/06/23 08:24:08","新北市土城區永平街51號","121.427643333333","24.9591866666667","6501300","土城區"
"236006","498-BY","2017/06/23 09:58:56","新北市土城區中華路二段88號","121.437948333333","24.975515","6501300","土城區"
