"lineid","car","time","location","longitude","latitude","cityid","cityname"
"222005","289-BY","2017/06/23 09:59:47","新北市深坑區深坑街81號","121.614611666667","25.0013966666667","6501800","深坑區"
"231009","188-VK","2017/06/23 09:39:13","新北市新店區平廣路一段256號","121.507845","24.8883016666667","6500600","新店區"
"247002","402-BY","2017/06/23 10:09:01","新北市蘆洲區環堤大道365號","121.457226666667","25.097495","6501400","蘆洲區"
"227005","282-VK","2017/06/23 10:02:24","新北市雙溪區泰平里灣潭路36號","121.8115","24.9288316666667","6502500","雙溪區"
"236004","339-SR","2017/06/23 08:24:08","新北市土城區永平街51號","121.427643333333","24.9591866666667","6501300","土城區"
