"lineid","car","time","location","longitude","latitude","cityid","cityname"
"222005","289-BY","2017/06/23 10:33:31","新北市深坑區深坑街81號","121.614611666667","25.00148","6501800","深坑區"
"231009","188-VK","2017/06/23 10:59:09","新北市新店區廣興路101-1號","121.537126666667","24.9122666666667","6500600","新店區"
"247002","402-BY","2017/06/23 10:39:34","新北市五股區中興路三段3-6號","121.44984","25.0788716666667","6501400","蘆洲區"
"227005","282-VK","2017/06/23 10:55:44","新北市雙溪區泰平里泰平45-5號","121.831225","24.9777366666667","6502500","雙溪區"
"236004","339-SR","2017/06/23 10:59:00","新北市土城區中華路二段181號","121.438511666667","24.9748716666667","6501300","土城區"
