"lineid","car","time","location","longitude","latitude","cityid","cityname"
"234040","862-TW","2017/06/23 12:18:48","新北市永和區福和路1號","121.526361666667","25.0097566666667","6500400","永和區"
"222005","289-BY","2017/06/23 10:33:31","新北市深坑區深坑街81號","121.614611666667","25.00148","6501800","深坑區"
"231009","188-VK","2017/06/23 12:18:49","新北市新店區屈尺路55-1號","121.546288333333","24.92258","6500600","新店區"
"247002","402-BY","2017/06/23 12:19:06","新北市五股區中興路三段3-6號","121.449871666667","25.078845","6501400","蘆洲區"
"221010","276-VK","2017/06/23 12:18:56","新北市汐止區中正路251號","121.65736","25.0685383333333","6501100","汐止區"
