"lineid","car","time","location","longitude","latitude","cityid","cityname"
"234044","148-BY","2017/06/23 12:58:56","新北市永和區得和路373巷16弄1號","121.525105","25.00028","6500400","永和區"
"234012","149-BY","2017/06/23 12:59:04","新北市永和區永和路二段127號","121.514986666667","25.0120016666667","6500400","永和區"
"234005","207-UY","2017/06/23 12:59:10","新北市永和區中山路一段95號","121.511398333333","25.0105933333333","6500400","永和區"
"234078","298-R6","2017/06/23 12:59:08","新北市永和區永亨路67號","121.521363333333","25.0059833333333","6500400","永和區"
"234036","336-UY","2017/06/23 12:58:54","新北市永和區民樂街75巷1號","121.52743","24.9970483333333","6500400","永和區"
"234062","337-UY","2017/06/23 12:58:58","新北市永和區秀朗路一段198號","121.519368333333","25.0032116666667","6500400","永和區"
"234084","338-UY","2017/06/23 12:59:00","新北市永和區永利路16-1號","121.517926666667","25.0058116666667","6500400","永和區"
"234068","552-UM","2017/06/23 12:59:08","新北市永和區豫溪街57巷10弄7號","121.51759","25.0107716666667","6500400","永和區"
"234052","553-UM","2017/06/23 12:59:05","新北市永和區竹林路66巷15-7號","121.5183","25.0132483333333","6500400","永和區"
"234015","745-BX","2017/06/23 12:59:11","新北市永和區永和路二段308號","121.51615","25.0159733333333","6500400","永和區"
"234028","746-BX","2017/06/23 12:59:00","新北市永和區四維街107號","121.523785","24.9982983333333","6500400","永和區"
"234060","AAD-866","2017/06/23 12:59:04","新北市永和區中正路509巷4號","121.516528333333","25.0070633333333","6500400","永和區"
"234040","862-TW","2017/06/23 12:58:48","新北市永和區永貞路308號","121.511861666667","25.0049066666667","6500400","永和區"
"234048","863-TW","2017/06/23 12:58:57","新北市永和區保安路29號","121.50997","25.01633","6500400","永和區"
"234025","9371-KE","2017/06/23 12:59:03","新北市永和區永和路一段42號","121.513018333333","25.00553","6500400","永和區"
"234010","9373-KE","2017/06/23 12:58:59","新北市永和區文化路9巷16弄34號","121.514345","25.01469","6500400","永和區"
"248019","225-UY","2017/06/23 12:59:05","新北市五股區中興路二段83巷26-6號","121.46018","25.0752633333333","6501500","五股區"
"234022","9380-KE","2017/06/23 12:59:06","新北市永和區竹林路75巷25弄4號","121.520406666667","25.0142983333333","6500400","永和區"
"234076","969-R7","2017/06/23 12:58:59","新北市永和區智光街128號","121.514921666667","24.995605","6500400","永和區"
"234072","AAC-211","2017/06/23 12:58:51","新北市永和區環河東路二段98號","121.52407","25.01035","6500400","永和區"
"234066","AAC-212","2017/06/23 12:59:10","新北市永和區永和路一段22號","121.513095","25.0048416666667","6500400","永和區"
"234001","AAC-295","2017/06/23 12:57:18","新北市永和區永和路一段135巷4號","121.513935","25.0088266666667","6500400","永和區"
"222005","289-BY","2017/06/23 10:33:31","新北市深坑區深坑街81號","121.614611666667","25.00148","6501800","深坑區"
"231002","001-UM","2017/06/23 12:58:55","新北市新店區安華路28-1號","121.519505","24.9608233333333","6500600","新店區"
"231025","0291-UT","2017/06/23 12:58:54","新北市新店區安華路28-1號","121.519486666667","24.9605683333333","6500600","新店區"
"231028","046-UY","2017/06/23 12:59:02","新北市新店區安華路28-1號","121.519576666667","24.960835","6500600","新店區"
"231030","047-UY","2017/06/23 12:58:54","新北市新店區安華路28-1號","121.519321666667","24.9608516666667","6500600","新店區"
"231029","106-UY","2017/06/23 12:59:03","新北市新店區安華路28-1號","121.519636666667","24.9609033333333","6500600","新店區"
"231018","107-UY","2017/06/23 12:58:57","新北市新店區安華路28-1號","121.519335","24.9614233333333","6500600","新店區"
"231012","108-UY","2017/06/23 12:59:08","新北市新店區安華路28-1號","121.519493333333","24.9614166666667","6500600","新店區"
"231022","187-VK","2017/06/23 12:59:12","新北市新店區安華路28-1號","121.519525","24.961275","6500600","新店區"
"231034","268-BY","2017/06/23 12:59:03","新北市新店區安華路28-1號","121.519396666667","24.9605583333333","6500600","新店區"
"231010","278-BY","2017/06/23 12:59:03","新北市新店區安華路28-1號","121.519571666667","24.9612183333333","6500600","新店區"
"231016","AAD-862","2017/06/23 12:59:00","新北市新店區安華路28-1號","121.51971","24.9612416666667","6500600","新店區"
"231027","3712-VJ","2017/06/23 12:59:03","新北市新店區安華路28-1號","121.519408333333","24.96073","6500600","新店區"
"231024","3713-VJ","2017/06/23 12:59:04","新北市新店區安華路28-1號","121.519431666667","24.9607983333333","6500600","新店區"
"231038","4715-K9","2017/06/23 12:58:54","新北市新店區安華路28-1號","121.51946","24.9606466666667","6500600","新店區"
"231036","512-UM","2017/06/23 12:58:59","新北市新店區安華路28-1號","121.519451666667","24.961285","6500600","新店區"
"231023","513-UM","2017/06/23 12:59:11","新北市新店區安華路28-1號","121.519661666667","24.96113","6500600","新店區"
"231035","515-UM","2017/06/23 12:58:58","新北市新店區安華路28-1號","121.5196","24.9612816666667","6500600","新店區"
"231003","616-UM","2017/06/23 12:59:00","新北市新店區安華路3號","121.519363333333","24.9597883333333","6500600","新店區"
"231006","617-UM","2017/06/23 12:58:53","新北市新店區安華路28-1號","121.51947","24.9609733333333","6500600","新店區"
"231001","619-UM","2017/06/23 12:58:50","新北市新店區安華路28-1號","121.51953","24.9607266666667","6500600","新店區"
"231013","719-UM","2017/06/23 12:58:55","新北市新店區安華路28-1號","121.519478333333","24.96113","6500600","新店區"
"231032","720-UM","2017/06/23 12:58:59","新北市新店區安康路一段355-3號","121.519505","24.961575","6500600","新店區"
"231005","897-TW","2017/06/23 12:59:03","新北市新店區安華路28-1號","121.519651666667","24.9608166666667","6500600","新店區"
"231004","899-TW","2017/06/23 03:19:45","新北市新店區安華路28-1號","121.519195","24.9608716666667","6500600","新店區"
"231037","AKT-0513","2017/06/23 12:59:04","新北市新店區安華路28-1號","121.51951","24.960565","6500600","新店區"
"235028","005-UY","2017/06/23 12:58:57","新北市中和區員山路36巷16-3號","121.485098333333","24.9912966666667","6500300","中和區"
"235026","031-BX","2017/06/23 12:58:53","新北市中和區員山路36巷16-3號","121.484911666667","24.9912916666667","6500300","中和區"
"235004","150-BY","2017/06/23 12:59:08","新北市中和區和城路一段271巷1號","121.485493333333","24.99165","6500300","中和區"
"235022","151-BY","2017/06/23 12:58:54","新北市中和區中正路637巷52弄1號","121.485478333333","24.9935116666667","6500300","中和區"
"235019","183-VK","2017/06/23 12:59:12","新北市中和區員山路36巷16-3號","121.485053333333","24.9913266666667","6500300","中和區"
"235002","185-VK","2017/06/23 12:59:00","新北市中和區成功路95號","121.52602","24.991785","6500300","中和區"
"235031","255-BX","2017/06/23 12:59:00","新北市中和區中山路二段550號","121.484036666667","25.00528","6500300","中和區"
"235025","378-QA","2017/06/23 12:58:55","新北市中和區員山路36巷16-2號","121.485285","24.9916566666667","6500300","中和區"
"235001","783-BX","2017/06/23 12:59:06","新北市中和區連城路318號","121.48347","24.996055","6500300","中和區"
"247002","402-BY","2017/06/23 12:59:06","新北市五股區中興路三段5號","121.449688333333","25.0789316666667","6501400","蘆洲區"
"207002","749-BX","2017/06/23 12:55:30","新北市萬里區雙興里大坪路39號","121.625388333333","25.1714116666667","6502800","萬里區"
"207001","463-BY","2017/06/23 12:58:59","新北市萬里區萬里里獅頭路22-1號","121.693065","25.1782633333333","6502800","萬里區"
"236006","498-BY","2017/06/23 12:58:59","新北市土城區亞洲路20號","121.4365","24.9745966666667","6501300","土城區"
"221010","276-VK","2017/06/23 12:58:56","新北市汐止區大同路二段447號","121.659341666667","25.067515","6501100","汐止區"
"221032","280-BY","2017/06/23 12:58:54","新北市汐止區大同路二段252號","121.654345","25.0660383333333","6501100","汐止區"
"221002","753-BX","2017/06/23 12:59:07","新北市汐止區中興路197-1號","121.629931666667","25.067435","6501100","汐止區"
