"lineid","car","time","location","longitude","latitude","cityid","cityname"
"234044","148-BY","2017/06/23 13:28:56","新北市永和區秀朗路二段243號","121.526285","24.999665","6500400","永和區"
"234012","149-BY","2017/06/23 13:29:04","新北市永和區永平路220號","121.509111666667","25.0105566666667","6500400","永和區"
"234005","207-UY","2017/06/23 13:29:01","新北市永和區中山路一段26號","121.513705","25.01063","6500400","永和區"
"234078","298-R6","2017/06/23 13:29:08","新北市永和區環河東路三段12號","121.525783333333","25.0079516666667","6500400","永和區"
"234036","336-UY","2017/06/23 13:29:04","新北市永和區民樂街39巷13號","121.528266666667","25.000415","6500400","永和區"
"234062","337-UY","2017/06/23 13:29:00","新北市永和區中正路368巷1弄69號","121.520161666667","25.0008516666667","6500400","永和區"
"234084","338-UY","2017/06/23 13:29:00","新北市永和區林森路65號","121.52406","25.0041233333333","6500400","永和區"
"234068","552-UM","2017/06/23 13:29:08","新北市永和區永和路二段234號","121.515771666667","25.0145966666667","6500400","永和區"
"234052","553-UM","2017/06/23 13:29:05","新北市永和區復興街91號","121.517815","25.0141083333333","6500400","永和區"
"234015","745-BX","2017/06/23 13:28:51","新北市永和區環河西路一段51巷24號","121.514248333333","25.01759","6500400","永和區"
"234028","746-BX","2017/06/23 13:29:00","新北市永和區四維街103巷2號","121.523901666667","24.9979066666667","6500400","永和區"
"234060","AAD-866","2017/06/23 13:29:04","新北市永和區中正路399號","121.517113333333","25.00431","6500400","永和區"
"234040","862-TW","2017/06/23 13:29:08","新北市永和區水源街28號","121.511551666667","25.0046683333333","6500400","永和區"
"234048","863-TW","2017/06/23 13:28:57","新北市永和區保福路二段72號","121.510571666667","25.0131133333333","6500400","永和區"
"234025","9371-KE","2017/06/23 13:29:03","新北市永和區永和路一段139號","121.51411","25.0088383333333","6500400","永和區"
"234010","9373-KE","2017/06/23 13:28:59","新北市永和區仁愛路141巷30弄5號","121.511896666667","25.0115183333333","6500400","永和區"
"248019","225-UY","2017/06/23 13:29:05","新北市五股區天乙路114號","121.447225","25.112715","6501500","五股區"
"234022","9380-KE","2017/06/23 13:29:06","新北市永和區豫溪街150巷2號","121.521845","25.0104233333333","6500400","永和區"
"234076","969-R7","2017/06/23 13:29:05","新北市永和區得和路111號","121.518506666667","25.0003066666667","6500400","永和區"
"234072","AAC-211","2017/06/23 13:28:51","新北市永和區永和路二段297號","121.516095","25.016035","6500400","永和區"
"234066","AAC-212","2017/06/23 13:29:02","新北市永和區永貞路335號","121.50969","25.00704","6500400","永和區"
"234001","AAC-295","2017/06/23 13:26:58","新北市永和區永和路一段118號","121.51403","25.0077333333333","6500400","永和區"
"244004","248-BX","2017/06/23 13:28:58","新北市林口區頂福里21-2號","121.351378333333","25.085465","6501700","林口區"
"222005","289-BY","2017/06/23 10:33:31","新北市深坑區深坑街81號","121.614611666667","25.00148","6501800","深坑區"
"231002","001-UM","2017/06/23 13:28:55","新北市新店區環河路60號","121.537066666667","24.9626066666667","6500600","新店區"
"231025","0291-UT","2017/06/23 13:28:54","新北市新店區環河路114巷4-1號","121.536988333333","24.96467","6500600","新店區"
"231028","046-UY","2017/06/23 13:29:02","新北市新店區安和路一段2-2號","121.517071666667","24.9645533333333","6500600","新店區"
"231030","047-UY","2017/06/23 13:28:55","新北市新店區安康路一段355-10號","121.520823333333","24.9638183333333","6500600","新店區"
"231029","106-UY","2017/06/23 13:29:03","新北市新店區車子路18-1號","121.506466666667","24.9546166666667","6500600","新店區"
"231018","107-UY","2017/06/23 13:28:57","新北市新店區環河路111-10號","121.530633333333","24.9705883333333","6500600","新店區"
"231012","108-UY","2017/06/23 13:29:08","新北市新店區北新路二段92巷2弄5號","121.543625","24.9727966666667","6500600","新店區"
"231022","187-VK","2017/06/23 13:28:52","新北市新店區新烏路一段159號","121.544721666667","24.9352916666667","6500600","新店區"
"231026","256-BX","2017/06/23 13:29:07","新北市新店區北新路一段89號","121.538776666667","24.9615233333333","6500600","新店區"
"231034","268-BY","2017/06/23 13:29:03","新北市新店區車子路10-4號","121.504973333333","24.9544966666667","6500600","新店區"
"231010","278-BY","2017/06/23 13:29:03","新北市新店區自由街10號","121.535331666667","24.974925","6500600","新店區"
"231016","AAD-862","2017/06/23 13:29:03","新北市新店區北宜路二段56巷3弄1號","121.54915","24.9509133333333","6500600","新店區"
"231027","3712-VJ","2017/06/23 13:29:03","新北市新店區新店後街50號","121.537861666667","24.9538416666667","6500600","新店區"
"231024","3713-VJ","2017/06/23 13:29:04","新北市新店區北新路二段29巷3弄1號","121.542243333333","24.9730216666667","6500600","新店區"
"231038","4715-K9","2017/06/23 13:28:54","新北市新店區安華路30巷1號","121.519601666667","24.9592616666667","6500600","新店區"
"231036","512-UM","2017/06/23 13:29:06","新北市新店區建業路20號","121.48183","24.9533466666667","6500600","新店區"
"231023","513-UM","2017/06/23 13:28:51","新北市新店區新店路13號","121.540286666667","24.952885","6500600","新店區"
"231035","515-UM","2017/06/23 13:28:58","新北市新店區安康路二段14號","121.516076666667","24.963785","6500600","新店區"
"231003","616-UM","2017/06/23 13:29:00","新北市新店區北新路一段126巷25號","121.543423333333","24.969615","6500600","新店區"
"231006","617-UM","2017/06/23 13:28:53","新北市新店區安康路一段355-3號","121.519786666667","24.9619033333333","6500600","新店區"
"231001","619-UM","2017/06/23 13:29:10","新北市新店區安康路一段323-3號","121.52114","24.9638766666667","6500600","新店區"
"231013","719-UM","2017/06/23 13:28:55","新北市新店區中正路454-5號","121.534433333333","24.9791283333333","6500600","新店區"
"231032","720-UM","2017/06/23 13:28:59","新北市新店區安豐路54-1號","121.49977","24.9540666666667","6500600","新店區"
"231005","897-TW","2017/06/23 13:29:02","新北市新店區中正路72號","121.543966666667","24.9701416666667","6500600","新店區"
"231004","899-TW","2017/06/23 13:29:04","新北市新店區安康路一段94-1號","121.527678333333","24.9621666666667","6500600","新店區"
"231037","AKT-0513","2017/06/23 13:29:04","新北市新店區薏仁坑路47-1號","121.494186666667","24.9631483333333","6500600","新店區"
"235030","003-UY","2017/06/23 13:28:50","新北市中和區中山路二段120號","121.50277","25.0036666666667","6500300","中和區"
"235028","005-UY","2017/06/23 13:28:57","新北市中和區圓通路143號","121.498936666667","24.9955283333333","6500300","中和區"
"235027","006-UY","2017/06/23 13:29:01","新北市中和區中正路557號","121.487133333333","24.9942566666667","6500300","中和區"
"235026","031-BX","2017/06/23 13:28:53","新北市中和區景平路754號","121.4964","25.0045183333333","6500300","中和區"
"235020","096-UM","2017/06/23 13:28:58","新北市中和區中山路二段479號","121.483085","25.0048916666667","6500300","中和區"
"235003","097-UM","2017/06/23 13:28:50","新北市中和區景平路127號","121.515215","24.9922483333333","6500300","中和區"
"235004","150-BY","2017/06/23 13:29:08","新北市中和區保健路50巷66號","121.509323333333","24.9951866666667","6500300","中和區"
"235022","151-BY","2017/06/23 13:28:54","新北市中和區圓通路369巷72號","121.490155","24.982215","6500300","中和區"
"235019","183-VK","2017/06/23 13:29:12","新北市土城區延壽路118-6號","121.46905","24.9945083333333","6500300","中和區"
"235002","185-VK","2017/06/23 13:29:00","新北市中和區秀朗路三段128巷7弄1號","121.524568333333","24.992785","6500300","中和區"
"235013","186-VK","2017/06/23 13:29:01","新北市中和區景安路179號","121.505143333333","24.99402","6500300","中和區"
"235031","255-BX","2017/06/23 13:29:00","新北市中和區新生街220巷1弄12號","121.483201666667","24.9979033333333","6500300","中和區"
"235008","293-VK","2017/06/23 13:29:09","新北市中和區錦和路350-1號","121.490441666667","24.993585","6500300","中和區"
"235036","301-VK","2017/06/23 13:28:51","新北市中和區連城路265巷1號","121.491423333333","24.9964116666667","6500300","中和區"
"235007","352-BY","2017/06/23 13:29:10","新北市中和區景平路339號","121.505388333333","24.9933666666667","6500300","中和區"
"235015","376-QA","2017/06/23 13:29:05","新北市中和區興南路二段242巷12號","121.502515","24.9829483333333","6500300","中和區"
"235032","377-QA","2017/06/23 13:29:03","新北市中和區中正路250號","121.49569","24.9939283333333","6500300","中和區"
"235025","378-QA","2017/06/23 13:28:55","新北市中和區國光街38號","121.471108333333","25.0003033333333","6500300","中和區"
"235014","4979-A6","2017/06/23 13:29:11","新北市中和區景新街410巷18弄1號","121.512033333333","24.989315","6500300","中和區"
"235033","4980-A6","2017/06/23 13:29:10","新北市中和區連城路89巷44號","121.497483333333","24.998435","6500300","中和區"
"235006","551-UM","2017/06/23 13:29:00","新北市中和區自立路56巷22號","121.522411666667","24.9916633333333","6500300","中和區"
"235034","558-UM","2017/06/23 13:29:10","新北市中和區圓通路146-1號","121.498063333333","24.9957033333333","6500300","中和區"
"235009","565-BX","2017/06/23 13:29:00","新北市中和區復興路65號","121.503933333333","24.9901833333333","6500300","中和區"
"235018","640-BX","2017/06/23 13:28:55","新北市中和區民享街119巷2號","121.474385","24.9987883333333","6500300","中和區"
"235024","647-TV","2017/06/23 13:28:54","新北市中和區員山路36巷16-3號","121.48484","24.9912916666667","6500300","中和區"
"235011","732-UM","2017/06/23 13:29:10","新北市中和區南山路401號","121.506816666667","24.9899683333333","6500300","中和區"
"235010","733-UM","2017/06/23 13:29:07","新北市中和區中正路637巷52弄1號","121.485461666667","24.9934733333333","6500300","中和區"
"235001","783-BX","2017/06/23 13:29:06","新北市中和區永和路458巷1弄2號","121.484015","25.01245","6500300","中和區"
"235021","801-TS","2017/06/23 13:28:59","新北市中和區民安街148號","121.477691666667","24.9998233333333","6500300","中和區"
"235005","802-TS","2017/06/23 13:28:58","新北市中和區中和路356號","121.510286666667","25.00171","6500300","中和區"
"235016","805-TS","2017/06/23 13:29:05","新北市中和區興南路二段96號","121.504975","24.9840666666667","6500300","中和區"
"235012","896-TW","2017/06/23 13:29:05","新北市中和區員山路36巷16-8號","121.485393333333","24.9922916666667","6500300","中和區"
"235017","900-TW","2017/06/23 13:28:54","新北市中和區連城路469巷79弄8號","121.483635","24.9936616666667","6500300","中和區"
"235001","AAC-213","2017/06/23 13:29:03","新北市中和區景平路73號","121.518878333333","24.991445","6500300","中和區"
"235023","AAC-215","2017/06/23 13:28:58","新北市中和區員山路36巷16-3號","121.485108333333","24.9912933333333","6500300","中和區"
"220016","013-TV","2017/06/23 13:28:57","新北市板橋區民生路二段30號","121.472606666667","25.0168933333333","6500100","板橋區"
"220013","072-UY","2017/06/23 13:29:02","新北市板橋區民生路二段22號","121.472785","25.0166233333333","6500100","板橋區"
"220034","073-UY","2017/06/23 13:28:55","新北市板橋區華東街1-10號","121.448255","24.99505","6500100","板橋區"
"247002","402-BY","2017/06/23 13:29:06","新北市蘆洲區民族路492號","121.46986","25.0907316666667","6501400","蘆洲區"
"247005","341-TH","2017/06/23 13:28:51","新北市五股區中興路三段2巷10號","121.448763333333","25.081725","6501400","蘆洲區"
"247007","339-TH","2017/06/23 13:29:03","新北市五股區中興路四段17號","121.440398333333","25.0822066666667","6501400","蘆洲區"
"227011","400-TW","2017/06/23 13:23:13","新北市雙溪區三貂里政光路3-1號","121.85088","25.0630583333333","6502500","雙溪區"
"208004","AAC-292","2017/06/23 13:29:09","新北市金山區南勢湖66號","121.616151666667","25.2147983333333","6502700","金山區"
"207002","749-BX","2017/06/23 13:28:50","新北市萬里區崁腳里崁腳路166號","121.645158333333","25.1560416666667","6502800","萬里區"
"207001","463-BY","2017/06/23 13:28:59","新北市萬里區龜吼里翡翠路17號","121.683","25.1876383333333","6502800","萬里區"
"236006","498-BY","2017/06/23 13:28:59","新北市土城區亞洲路11巷1弄18號","121.435715","24.9718133333333","6501300","土城區"
"242044","172-VK","2017/06/23 13:28:53","新北市新莊區萬安街2號","121.421711666667","25.0253766666667","6500500","新莊區"
"221010","276-VK","2017/06/23 13:14:29","新北市汐止區汐萬路一段256巷3號","121.653461666667","25.0746033333333","6501100","汐止區"
"221032","280-BY","2017/06/23 13:28:54","新北市汐止區水源路一段56號","121.657461666667","25.0656133333333","6501100","汐止區"
"221002","753-BX","2017/06/23 13:29:07","新北市汐止區福德一路430巷18號","121.625268333333","25.0604833333333","6501100","汐止區"
"220027","145-BY","2017/06/23 13:29:06","新北市板橋區華東街1-9號","121.448195","24.99501","6500100","板橋區"
"220028","200-UY","2017/06/23 13:28:57","新北市板橋區華東街1-10號","121.448443333333","24.99499","6500100","板橋區"
"220030","610-BX","2017/06/23 13:29:11","新北市板橋區華東街1-10號","121.448268333333","24.9949433333333","6500100","板橋區"
"220004","276-BY","2017/06/23 13:28:56","新北市板橋區觀光街4巷2弄4號","121.472333333333","25.015645","6500100","板橋區"
"220019","283-VK","2017/06/23 13:29:05","新北市板橋區民生路二段36-1號","121.472525","25.016705","6500100","板橋區"
"220001","285-VK","2017/06/23 13:28:54","新北市板橋區民生路二段22號","121.4728","25.0165583333333","6500100","板橋區"
"220010","305-R5","2017/06/23 03:31:37","新北市板橋區民生路二段15-1號","121.472851666667","25.0163866666667","6500100","板橋區"
"220011","609-BX","2017/06/23 13:29:07","新北市板橋區民生路二段15-1號","121.472756666667","25.0164916666667","6500100","板橋區"
"220005","686-BX","2017/06/23 13:28:53","新北市板橋區民生路二段36-1號","121.472581666667","25.0166466666667","6500100","板橋區"
"220025","687-BX","2017/06/23 13:29:02","新北市板橋區華東街1-10號","121.448286666667","24.9949216666667","6500100","板橋區"
"220002","741-BX","2017/06/23 13:28:52","新北市板橋區民生路二段17號","121.472595","25.0164916666667","6500100","板橋區"
"220022","895-R6","2017/06/23 13:28:58","新北市板橋區南雅南路二段140號","121.451775","24.9962183333333","6500100","板橋區"
