"lineid","car","time","location","longitude","latitude","cityid","cityname"
"244004","248-BX","2017/06/23 15:18:58","新北市林口區竹林路266號","121.389656666667","25.0807483333333","6501700","林口區"
"222005","289-BY","2017/06/23 10:33:31","新北市深坑區深坑街81號","121.614611666667","25.00148","6501800","深坑區"
"231002","001-UM","2017/06/23 15:18:55","新北市新店區中正路707號","121.533831666667","24.991185","6500600","新店區"
"231025","0291-UT","2017/06/23 15:18:54","新北市新店區民權路107-4號","121.536303333333","24.9821783333333","6500600","新店區"
"231028","046-UY","2017/06/23 15:19:03","新北市新店區僑信路84巷43號","121.498508333333","24.9474533333333","6500600","新店區"
"231030","047-UY","2017/06/23 15:18:54","新北市新店區安和路二段207號","121.51772","24.975255","6500600","新店區"
"231029","106-UY","2017/06/23 15:19:03","新北市新店區安康路三段738號","121.473813333333","24.942035","6500600","新店區"
"231018","107-UY","2017/06/23 15:18:57","新北市新店區中央七街22號","121.529765","24.9751516666667","6500600","新店區"
"231012","108-UY","2017/06/23 15:19:08","新北市新店區順安街69號","121.540578333333","24.9867133333333","6500600","新店區"
"231022","187-VK","2017/06/23 15:18:52","新北市新店區花園二路三段9號","121.55536","24.9316516666667","6500600","新店區"
"231026","256-BX","2017/06/23 15:19:07","新北市新店區中正路263巷2號","121.538456666667","24.9734966666667","6500600","新店區"
"231034","268-BY","2017/06/23 15:19:02","新北市新店區玫瑰路36號","121.49568","24.9499366666667","6500600","新店區"
"231016","AAD-862","2017/06/23 15:19:00","新北市新店區明山路45號","121.563811666667","24.95588","6500600","新店區"
"231024","3713-VJ","2017/06/23 15:19:06","新北市新店區新明街20號","121.540886666667","24.96837","6500600","新店區"
"231036","512-UM","2017/06/23 15:19:05","新北市新店區安祥路69巷17號","121.481898333333","24.9613466666667","6500600","新店區"
"231023","513-UM","2017/06/23 15:18:38","新北市新店區行政街23號","121.543078333333","24.9663716666667","6500600","新店區"
"231035","515-UM","2017/06/23 15:18:58","新北市新店區安和路三段77號","121.517656666667","24.983515","6500600","新店區"
"231003","616-UM","2017/06/23 15:19:00","新北市新店區寶橋路230號","121.551473333333","24.9788616666667","6500600","新店區"
"231001","619-UM","2017/06/23 15:19:10","新北市新店區北新路一段211號","121.540515","24.9650766666667","6500600","新店區"
"231039","718-UY","2017/06/23 15:19:03","新北市新店區寶元路一段63巷50號","121.5423","24.9865833333333","6500600","新店區"
"231032","720-UM","2017/06/23 15:18:59","新北市新店區安泰路170-3號","121.48893","24.9360833333333","6500600","新店區"
"231005","897-TW","2017/06/23 15:19:02","新北市新店區北新路三段60號","121.542106666667","24.98029","6500600","新店區"
"231004","899-TW","2017/06/23 15:19:04","新北市新店區建國路31號","121.540258333333","24.9741133333333","6500600","新店區"
"231037","AKT-0513","2017/06/23 15:19:04","新北市新店區安興路91巷21號","121.514676666667","24.9745733333333","6500600","新店區"
"235030","003-UY","2017/06/23 15:18:50","新北市中和區保平路277號","121.506763333333","25.00404","6500300","中和區"
"235003","097-UM","2017/06/23 15:18:50","新北市中和區安樂路217巷14號","121.513801666667","24.9987483333333","6500300","中和區"
"235014","4979-A6","2017/06/23 15:18:51","新北市中和區景安路82巷8弄3號","121.50486","24.99656","6500300","中和區"
"235033","4980-A6","2017/06/23 15:19:10","新北市中和區新生街191號","121.483713333333","25.0002766666667","6500300","中和區"
"235034","558-UM","2017/06/23 15:19:10","新北市中和區圓通路169號","121.497691666667","24.9954233333333","6500300","中和區"
"235001","783-BX","2017/06/23 15:19:06","新北市中和區中正路774號","121.48545","25.00014","6500300","中和區"
"235012","896-TW","2017/06/23 15:19:05","新北市中和區景新街368號","121.512116666667","24.99043","6500300","中和區"
"235001","AAC-213","2017/06/23 15:19:03","新北市中和區自立路187號","121.52391","24.9914133333333","6500300","中和區"
"235023","AAC-215","2017/06/23 15:18:58","新北市中和區圓通路435巷2-8號","121.487276666667","24.986745","6500300","中和區"
"220017","AAD-861","2017/06/23 15:18:51","新北市板橋區南雅南路二段1-1號","121.454795","25.00371","6500100","板橋區"
"247002","402-BY","2017/06/23 15:19:06","新北市蘆洲區仁愛街136號","121.468891666667","25.0944266666667","6501400","蘆洲區"
"227011","400-TW","2017/06/23 13:54:08","新北市雙溪區三貂里政光路3-1號","121.85089","25.0630383333333","6502500","雙溪區"
"208004","AAC-292","2017/06/23 15:19:03","新北市金山區南勢13號","121.634136666667","25.2167483333333","6502700","金山區"
"207001","463-BY","2017/06/23 15:18:58","新北市萬里區大鵬里萬里加投9號","121.652076666667","25.207925","6502800","萬里區"
"236067","105-UM","2017/06/23 15:18:56","新北市土城區裕民路185巷36弄2號","121.454666666667","24.9847016666667","6501300","土城區"
"236041","107-UM","2017/06/23 15:19:09","新北市土城區裕民路259巷5-1號","121.45518","24.983095","6501300","土城區"
"236077","166-UM","2017/06/23 15:19:05","新北市土城區溪頭路82號","121.409615","24.951225","6501300","土城區"
"236025","269-VK","2017/06/23 15:19:05","新北市土城區中央路二段151號","121.442078333333","24.97661","6501300","土城區"
"236013","270-VK","2017/06/23 15:19:05","新北市土城區學府路一段35號","121.457986666667","24.988395","6501300","土城區"
"236035","271-VK","2017/06/23 15:19:00","新北市土城區國際路146號","121.467898333333","24.9760416666667","6501300","土城區"
"236019","401-BY","2017/06/23 15:18:57","新北市土城區峰廷街3號","121.46916","24.9873866666667","6501300","土城區"
"236057","912-UM","2017/06/23 15:18:51","新北市土城區千歲路3巷6弄30號","121.442261666667","24.9705683333333","6501300","土城區"
"236046","913-UM","2017/06/23 15:19:05","新北市土城區明德路一段51號","121.46529","24.984925","6501300","土城區"
"236061","915-UM","2017/06/23 15:19:03","新北市土城區延平街33巷1號","121.467805","24.9917","6501300","土城區"
"236054","AAC-216","2017/06/23 15:18:51","新北市土城區學府路一段233號","121.451061666667","24.98402","6501300","土城區"
"242048","751-BX","2017/06/23 15:18:49","新北市板橋區金門街215巷81弄8號","121.434876666667","24.9889233333333","6500500","新莊區"
"242044","172-VK","2017/06/23 15:18:53","新北市新莊區新泰路357巷3弄57號","121.441923333333","25.0391283333333","6500500","新莊區"
"221010","276-VK","2017/06/23 13:14:29","新北市汐止區汐萬路一段256巷3號","121.653461666667","25.0746033333333","6501100","汐止區"
"220050","245-BX","2017/06/23 15:19:08","新北市板橋區莊敬路168號","121.471643333333","25.0225783333333","6500100","板橋區"
"220031","286-VK","2017/06/23 15:19:00","新北市板橋區僑中二街102巷24號","121.445143333333","25.00857","6500100","板橋區"
"220029","287-VK","2017/06/23 15:19:09","新北市板橋區大觀路二段171號","121.445141666667","25.000345","6500100","板橋區"
"220041","307-R5","2017/06/23 15:19:08","新北市板橋區文化路一段27-1號","121.45989","25.01288","6500100","板橋區"
"220038","487-VK","2017/06/23 15:18:55","新北市板橋區四維路174號","121.464678333333","25.02624","6500100","板橋區"
"220052","561-BX","2017/06/23 15:19:01","新北市板橋區漢生東路23巷13號","121.46541","25.0175766666667","6500100","板橋區"
"220051","830-TW","2017/06/23 15:19:02","新北市板橋區漢生東路7號","121.464655","25.0174566666667","6500100","板橋區"
"220018","AAC-253","2017/06/23 15:18:50","新北市板橋區四川路二段245巷33號","121.451585","24.99279","6500100","板橋區"
