"lineid","car","time","location","longitude","latitude","cityid","cityname"
"249005","172-UM","2017/06/23 17:08:38","新北市八里區大堀湖28號","121.419646666667","25.14547","6502300","八里區"
"249001","173-UM","2017/06/23 17:08:58","新北市八里區中華路二段286號","121.404533333333","25.1489733333333","6502300","八里區"
"249004","303-UY","2017/06/23 17:09:02","新北市八里區忠孝路302號","121.417781666667","25.1614366666667","6502300","八里區"
"249002","305-UY","2017/06/23 17:07:47","新北市八里區龍米路二段153巷1號","121.44081","25.15145","6502300","八里區"
"249003","593-UM","2017/06/23 17:08:47","新北市八里區訊塘路96號","121.39751","25.1464783333333","6502300","八里區"
"244013","069-UM","2017/06/23 17:08:52","新北市林口區粉寮69號","121.405083333333","25.0908283333333","6501700","林口區"
"244007","080-UY","2017/06/23 17:08:53","新北市林口區中湖60-1號","121.376041666667","25.0938416666667","6501700","林口區"
"244023","483-VK","2017/06/23 17:08:56","新北市林口區粉寮路一段84號","121.397363333333","25.0797716666667","6501700","林口區"
"244009","656-BX","2017/06/23 17:08:52","新北市林口區粉寮路一段137號","121.399028333333","25.0811566666667","6501700","林口區"
"244021","657-BX","2017/06/23 17:09:06","新北市林口區粉寮路二段46號","121.403446666667","25.0869533333333","6501700","林口區"
"222005","289-BY","2017/06/23 10:33:31","新北市深坑區深坑街81號","121.614611666667","25.00148","6501800","深坑區"
"241011","013-R5","2017/06/23 17:08:59","新北市三重區龍濱路251號","121.50144","25.07273","6500200","三重區"
"241028","022-UY","2017/06/23 17:09:03","新北市三重區重新路三段81號","121.492061666667","25.0601883333333","6500200","三重區"
"241008","059-VK","2017/06/23 17:08:47","新北市三重區力行路二段136巷13號","121.481853333333","25.0756833333333","6500200","三重區"
"241009","060-VK","2017/06/23 17:08:49","新北市三重區三和路四段211-14號","121.48221","25.079885","6500200","三重區"
"241031","061-VK","2017/06/23 17:08:45","新北市三重區重陽路一段113巷1弄23號","121.487621666667","25.059195","6500200","三重區"
"241017","063-VK","2017/06/23 17:09:02","新北市三重區新北大道一段7號","121.489728333333","25.0614416666667","6500200","三重區"
"241024","065-VK","2017/06/23 17:09:05","新北市三重區中正北路171號","121.478171666667","25.0694366666667","6500200","三重區"
"241026","066-VK","2017/06/23 17:08:49","新北市三重區正義南路1號","121.497851666667","25.0619616666667","6500200","三重區"
"241002","090-VK","2017/06/23 17:09:01","新北市三重區五華街35巷59號","121.495895","25.0817166666667","6500200","三重區"
"241003","091-VK","2017/06/23 17:09:00","新北市三重區五華街141巷58號","121.493541666667","25.086755","6500200","三重區"
"241015","156-TC","2017/06/23 17:08:55","新北市三重區長生街33號","121.499663333333","25.0664383333333","6500200","三重區"
"241005","262-UM","2017/06/23 17:08:47","新北市三重區仁愛街654號","121.482685","25.08052","6500200","三重區"
"241029","265-UM","2017/06/23 17:08:47","新北市三重區重安街99-2號","121.493721666667","25.0552933333333","6500200","三重區"
"241016","266-UM","2017/06/23 17:09:05","新北市三重區中正北路35號","121.491311666667","25.062605","6500200","三重區"
"241022","267-UM","2017/06/23 17:09:01","新北市三重區重陽路二段18巷3號","121.486503333333","25.062375","6500200","三重區"
"241018","268-UM","2017/06/23 17:09:03","新北市三重區六張街89號","121.492715","25.0699366666667","6500200","三重區"
"241032","269-UM","2017/06/23 17:08:58","新北市三重區興華街83號","121.484645","25.0598016666667","6500200","三重區"
"241013","270-UM","2017/06/23 17:08:53","新北市三重區仁孝街22號","121.49628","25.0740416666667","6500200","三重區"
"241025","271-UM","2017/06/23 17:08:54","新北市三重區中正北路560巷49號","121.470813333333","25.0701066666667","6500200","三重區"
"241007","398-BY","2017/06/23 17:09:03","新北市三重區三和路四段163巷40號","121.485655","25.0793433333333","6500200","三重區"
"241020","413-TH","2017/06/23 17:09:03","新北市三重區後竹圍街184號","121.486446666667","25.0719933333333","6500200","三重區"
"241004","475-VK","2017/06/23 17:08:55","新北市三重區五華街98巷12號","121.491515","25.08175","6500200","三重區"
"241019","478-VK","2017/06/23 17:08:49","新北市三重區自強路二段74巷63號","121.487015","25.0694583333333","6500200","三重區"
"241030","480-VK","2017/06/23 17:08:49","新北市三重區集成路19號","121.488843333333","25.0522433333333","6500200","三重區"
"241014","543-UM","2017/06/23 17:08:59","新北市三重區龍濱路120-6號","121.501731666667","25.0712883333333","6500200","三重區"
"241023","545-UM","2017/06/23 17:09:01","新北市三重區忠孝路三段84巷1號","121.480245","25.06449","6500200","三重區"
"241001","547-UM","2017/06/23 17:08:51","新北市三重區仁愛街255巷42-1號","121.494048333333","25.078855","6500200","三重區"
"241006","AAD-863","2017/06/23 17:09:01","新北市三重區車路頭街117巷54號","121.485615","25.0758283333333","6500200","三重區"
"241012","941-UM","2017/06/23 17:09:01","新北市三重區仁壽街200號","121.50095","25.0747983333333","6500200","三重區"
"241033","AAC-255","2017/06/23 17:09:06","新北市三重區中興北街234號","121.46901","25.06082","6500200","三重區"
"235064","005-UY","2017/06/23 17:09:06","新北市中和區員山路36巷16-3號","121.485136666667","24.9913433333333","6500300","中和區"
"235026","031-BX","2017/06/23 17:08:53","新北市中和區中正路368號","121.492826666667","24.994175","6500300","中和區"
"247020","893-R6","2017/06/23 17:09:06","新北市蘆洲區仁愛街66號","121.471631666667","25.0939683333333","6501400","蘆洲區"
"247010","546-UM","2017/06/23 17:08:45","新北市蘆洲區民族路32號","121.476446666667","25.0843166666667","6501400","蘆洲區"
"247018","500-BY","2017/06/23 17:08:49","新北市蘆洲區復興路85號","121.476428333333","25.0876166666667","6501400","蘆洲區"
"247002","402-BY","2017/06/23 16:29:35","新北市五股區中興路三段3-6號","121.449576666667","25.0787083333333","6501400","蘆洲區"
"247008","339-TH","2017/06/23 17:08:55","新北市蘆洲區信義路30巷48號","121.474555","25.0781833333333","6501400","蘆洲區"
"247024","337-TH","2017/06/23 17:08:56","新北市蘆洲區長興路7號","121.464335","25.082715","6501400","蘆洲區"
"247002","336-TH","2017/06/23 17:08:47","新北市蘆洲區永樂街52-2號","121.457375","25.0884166666667","6501400","蘆洲區"
"247014","057-VK","2017/06/23 17:08:50","新北市蘆洲區中央路8號","121.473553333333","25.082565","6501400","蘆洲區"
"247004","056-VK","2017/06/23 17:08:53","新北市蘆洲區長安街207巷42-1號","121.458521666667","25.081235","6501400","蘆洲區"
"247006","053-VK","2017/06/23 17:08:09","新北市蘆洲區中華街6巷5號","121.462338333333","25.08243","6501400","蘆洲區"
"247012","007-UY","2017/06/23 17:08:49","新北市蘆洲區信義路286號","121.477746666667","25.0873466666667","6501400","蘆洲區"
"247022","002-UY","2017/06/23 17:09:00","新北市蘆洲區民族路520號","121.46915","25.0900333333333","6501400","蘆洲區"
"247016","001-UY","2017/06/23 17:09:07","新北市蘆洲區正和街96巷41號","121.467281666667","25.08157","6501400","蘆洲區"
"228001","212-TW","2017/06/23 17:09:03","新北市貢寮區仁理村研海街62-2號","121.925723333333","25.0443733333333","6502600","貢寮區"
"228002","663-BX","2017/06/23 17:09:09","新北市貢寮區龍崗里泮宮路51-1號","121.908106666667","25.0166466666667","6502600","貢寮區"
"228003","828-UM","2017/06/23 17:08:19","新北市貢寮區福隆里東興街29-5號","121.949903333333","25.018075","6502600","貢寮區"
"224010","AGQ-8101","2017/06/23 09:01:14","新北市瑞芳區民權街3-1號","121.80941","25.1082316666667","6501200","瑞芳區"
"224006","676-BX","2017/06/23 17:09:05","新北市瑞芳區大寮路69號","121.781178333333","25.09764","6501200","瑞芳區"
"224009","285-BY","2017/06/23 17:08:56","新北市瑞芳區輕便路136號","121.844085","25.113255","6501200","瑞芳區"
"224008","275-VK","2017/06/23 17:09:01","新北市瑞芳區柴寮路36號","121.827141666667","25.0864883333333","6501200","瑞芳區"
"224007","273-VK","2017/06/23 17:09:08","新北市瑞芳區粗坑口路15號","121.761118333333","25.0989866666667","6501200","瑞芳區"
"224005","271-BY","2017/06/23 17:09:00","新北市瑞芳區鼻頭路227-1號","121.914666666667","25.1240216666667","6501200","瑞芳區"
"227003","642-TC","2017/06/23 17:09:04","新北市雙溪區外柑里田寮3號","121.806541666667","25.0169816666667","6502500","雙溪區"
"227011","400-TW","2017/06/23 17:08:47","新北市雙溪區三貂里子崙坑1-6號","121.849863333333","25.05757","6502500","雙溪區"
"251004","009-UM","2017/06/23 17:08:51","新北市淡水區中正路382號","121.429826666667","25.1752583333333","6501000","淡水區"
"251005","010-UM","2017/06/23 17:08:47","新北市淡水區學府路55號","121.448053333333","25.1694033333333","6501000","淡水區"
"251002","012-UM","2017/06/23 17:08:53","新北市淡水區中正路二段31號","121.419426666667","25.1815583333333","6501000","淡水區"
"251013","180-VK","2017/06/23 17:09:03","新北市淡水區大埤頭3號","121.486146666667","25.1952916666667","6501000","淡水區"
"251008","181-VK","2017/06/23 17:08:56","新北市淡水區樹梅坑16號","121.47145","25.143205","6501000","淡水區"
"251015","182-VK","2017/06/23 17:08:55","新北市淡水區鄧公路30巷2弄42號","121.454223333333","25.1691116666667","6501000","淡水區"
"251010","413-VK","2017/06/23 17:08:53","新北市淡水區中正路二段31號","121.419461666667","25.181415","6501000","淡水區"
"251012","441-VK","2017/06/23 17:08:51","新北市淡水區中山北路二段200號","121.444126666667","25.1863433333333","6501000","淡水區"
"251006","561-UM","2017/06/23 17:08:55","新北市淡水區中正路261號","121.430946666667","25.175195","6501000","淡水區"
"251009","575-R6","2017/06/23 17:08:56","新北市淡水區三民街24號","121.439071666667","25.1718266666667","6501000","淡水區"
"251007","577-R6","2017/06/23 17:08:56","新北市淡水區民權路20號","121.45989","25.1378016666667","6501000","淡水區"
"251011","650-BX","2017/06/23 17:08:55","新北市淡水區坪頂路50號","121.458011666667","25.1625816666667","6501000","淡水區"
"252002","178-VK","2017/06/23 17:09:00","新北市三芝區智成街117號","121.50587","25.255005","6502100","三芝區"
"252001","292-VK","2017/06/23 17:08:59","新北市三芝區埔坪里埔頭坑33號","121.501686666667","25.2614116666667","6502100","三芝區"
"242021","AAC-296","2017/06/23 17:08:53","新北市新莊區新泰路357巷1弄57號","121.44256","25.039485","6500500","新莊區"
"242029","986-R7","2017/06/23 17:08:53","新北市新莊區新泰路357巷3弄57號","121.442265","25.0393866666667","6500500","新莊區"
"242048","751-BX","2017/06/23 17:08:49","新北市新莊區中正路475號","121.441643333333","25.0338383333333","6500500","新莊區"
"242025","615-BX","2017/06/23 17:08:51","新北市新莊區三和路12-21號","121.442178333333","25.0386566666667","6500500","新莊區"
"242023","613-BX","2017/06/23 17:09:05","新北市新莊區新泰路255巷83號","121.44221","25.0391333333333","6500500","新莊區"
"242027","612-BX","2017/06/23 17:08:53","新北市新莊區新泰路255巷83號","121.442105","25.0388683333333","6500500","新莊區"
"242037","566-BX","2017/06/23 15:05:45","新北市新莊區新泰路357巷3弄57號","121.442053333333","25.03914","6500500","新莊區"
"242041","497-BY","2017/06/23 17:09:04","新北市新莊區新泰路357巷3弄57號","121.442248333333","25.0394916666667","6500500","新莊區"
"242005","442-UM","2017/06/23 03:18:14","新北市新莊區新泰路255巷83號","121.442028333333","25.038885","6500500","新莊區"
"242046","441-UM","2017/06/23 17:08:47","新北市新莊區中正路461號","121.44203","25.0341466666667","6500500","新莊區"
"242050","440-UM","2017/06/23 17:09:02","新北市新莊區新泰路357巷3弄57號","121.442198333333","25.0394483333333","6500500","新莊區"
"242032","415-TV","2017/06/23 17:08:56","新北市新莊區新泰路357巷3弄57號","121.442188333333","25.03934","6500500","新莊區"
"242002","413-TV","2017/06/23 17:09:01","新北市新莊區新泰路357巷3弄57號","121.442065","25.0391816666667","6500500","新莊區"
"242039","400-BY","2017/06/23 17:08:51","新北市新莊區新泰路357巷3弄57號","121.442168333333","25.0394783333333","6500500","新莊區"
"242060","362-BY","2017/06/23 17:09:05","新北市新莊區三和路12-21號","121.442225","25.0385183333333","6500500","新莊區"
"242058","353-BY","2017/06/23 17:08:49","新北市新莊區三和路12-21號","121.44221","25.0386633333333","6500500","新莊區"
"242011","132-UY","2017/06/23 17:08:54","新北市新莊區三和路12-21號","121.441991666667","25.03837","6500500","新莊區"
"242034","133-UY","2017/06/23 17:08:53","新北市新莊區新泰路357巷3弄57號","121.442363333333","25.0396633333333","6500500","新莊區"
"242019","135-UY","2017/06/23 17:09:01","新北市新莊區三和路12-21號","121.441883333333","25.0388916666667","6500500","新莊區"
"242044","172-VK","2017/06/23 17:08:57","新北市新莊區中正路400號","121.441738333333","25.03393","6500500","新莊區"
"242007","173-VK","2017/06/23 00:35:07","新北市新莊區三和路12-21號","121.442021666667","25.0386516666667","6500500","新莊區"
"242013","175-VK","2017/06/23 17:09:04","新北市新莊區三和路12-21號","121.44204","25.038515","6500500","新莊區"
"242056","176-VK","2017/06/23 17:08:52","新北市新莊區三和路12-21號","121.441968333333","25.038775","6500500","新莊區"
"242017","348-TH","2017/06/23 17:08:55","新北市新莊區新泰路357巷3弄57號","121.442095","25.0394","6500500","新莊區"
"242054","349-TH","2017/06/23 17:08:53","新北市新莊區三和路12-17號","121.442066666667","25.0375183333333","6500500","新莊區"
"242015","350-TH","2017/06/23 17:08:55","新北市新莊區新泰路357巷3弄57號","121.442058333333","25.0391333333333","6500500","新莊區"
"242009","351-TH","2017/06/23 04:26:35","新北市新莊區新泰路357巷3弄57號","121.442033333333","25.0395683333333","6500500","新莊區"
"238015","755-BX","2017/06/23 17:08:49","新北市樹林區育德街78-1號","121.388038333333","24.96817","6500700","樹林區"
"238023","601-UM","2017/06/23 17:08:56","新北市樹林區八德街1012號","121.39135","24.9685283333333","6500700","樹林區"
"238019","599-UM","2017/06/23 17:09:00","新北市樹林區八德街1170號","121.390343333333","24.968315","6500700","樹林區"
"238018","571-TV","2017/06/23 17:08:55","新北市樹林區八德街495-1號","121.401986666667","24.9693083333333","6500700","樹林區"
"238024","5061-A6","2017/06/23 17:09:02","新北市樹林區八德街495-1號","121.40209","24.9693033333333","6500700","樹林區"
"238022","312-TH","2017/06/23 17:08:58","新北市樹林區八德街1020號","121.391186666667","24.9684716666667","6500700","樹林區"
"238021","311-TH","2017/06/23 17:09:01","新北市樹林區佳園路二段23號","121.392356666667","24.9636416666667","6500700","樹林區"
"238025","303-VK","2017/06/23 17:09:07","新北市樹林區八德街1010號","121.391423333333","24.96849","6500700","樹林區"
"238014","282-BY","2017/06/23 17:09:00","新北市樹林區育德街78-1號","121.388255","24.9682816666667","6500700","樹林區"
"238020","268-VK","2017/06/23 17:09:00","新北市樹林區中洲街30巷6弄18號","121.397016666667","24.9707733333333","6500700","樹林區"
"238026","172-UY","2017/06/23 17:08:48","新北市樹林區八德街1158號","121.390616666667","24.9683633333333","6500700","樹林區"
"238016","169-UY","2017/06/23 17:09:01","新北市樹林區佳園路一段75巷190號","121.396931666667","24.9707766666667","6500700","樹林區"
"239007","AAC-297","2017/06/23 17:08:53","新北市鶯歌區中正一路24號","121.35249","24.9533433333333","6500800","鶯歌區"
"239006","891-R6","2017/06/23 17:08:48","新北市鶯歌區八德路2巷18弄1號","121.336621666667","24.9468716666667","6500800","鶯歌區"
"239008","527-UM","2017/06/23 17:08:56","新北市鶯歌區尖山路57-3號","121.350326666667","24.9498183333333","6500800","鶯歌區"
"239005","526-UM","2017/06/23 17:09:03","新北市鶯歌區八德路37號","121.33429","24.9537133333333","6500800","鶯歌區"
"239001","417-VK","2017/06/23 17:08:52","新北市鶯歌區尖山路137巷2號","121.346756666667","24.9486833333333","6500800","鶯歌區"
"239003","360-BY","2017/06/23 17:08:58","新北市鶯歌區八德路29號","121.335208333333","24.9524016666667","6500800","鶯歌區"
"239002","359-BY","2017/06/23 17:08:58","新北市鶯歌區建國路206號","121.34934","24.9534683333333","6500800","鶯歌區"
"239004","193-VK","2017/06/23 17:08:55","新北市鶯歌區文化路256巷15弄32號","121.352171666667","24.9468833333333","6500800","鶯歌區"
"221010","276-VK","2017/06/23 13:14:29","新北市汐止區汐萬路一段256巷3號","121.653461666667","25.0746033333333","6501100","汐止區"
"220041","307-R5","2017/06/23 15:30:48","新北市板橋區民生路二段120號","121.470355","25.0196533333333","6500100","板橋區"
