"lineid","car","time","location","longitude","latitude","cityid","cityname"
"249005","172-UM","2017/06/23 17:18:38","新北市五股區中直路崩山巷36號","121.416565","25.126555","6502300","八里區"
"249001","173-UM","2017/06/23 17:18:58","新北市八里區中華路二段165巷3號","121.407651666667","25.1508983333333","6502300","八里區"
"249004","303-UY","2017/06/23 17:19:02","新北市八里區中山路一段33-2號","121.420066666667","25.15964","6502300","八里區"
"249002","305-UY","2017/06/23 17:19:07","新北市八里區龍米路二段117巷37號","121.443358333333","25.1419783333333","6502300","八里區"
"249003","593-UM","2017/06/23 17:18:47","新北市八里區商港路80號","121.39548","25.1463583333333","6502300","八里區"
"244013","069-UM","2017/06/23 17:18:52","新北市林口區粉寮69號","121.40507","25.090815","6501700","林口區"
"244007","080-UY","2017/06/23 17:18:53","新北市林口區菁埔20號","121.37764","25.0965366666667","6501700","林口區"
"244019","403-UM","2017/06/23 17:19:07","新北市林口區公園路233-4號","121.376383333333","25.0754716666667","6501700","林口區"
"244023","483-VK","2017/06/23 17:18:56","新北市林口區仁愛路一段667巷25號","121.387503333333","25.0757333333333","6501700","林口區"
"244017","485-VK","2017/06/23 17:19:02","新北市林口區粉寮69號","121.404986666667","25.0908266666667","6501700","林口區"
"244009","656-BX","2017/06/23 17:18:52","新北市林口區中華路355號","121.38134","25.092535","6501700","林口區"
"244021","657-BX","2017/06/23 17:18:46","新北市林口區粉寮路二段458號","121.40441","25.0986333333333","6501700","林口區"
"222005","289-BY","2017/06/23 10:33:31","新北市深坑區深坑街81號","121.614611666667","25.00148","6501800","深坑區"
"241011","013-R5","2017/06/23 17:18:59","新北市三重區龍濱路120-6號","121.501813333333","25.07137","6500200","三重區"
"241028","022-UY","2017/06/23 17:19:00","新北市三重區仁化商場10號","121.493608333333","25.05937","6500200","三重區"
"241008","059-VK","2017/06/23 17:19:07","新北市三重區永福街72巷37-6號","121.480643333333","25.076355","6500200","三重區"
"241009","060-VK","2017/06/23 17:18:49","新北市三重區仁愛街600巷1號","121.484001666667","25.08092","6500200","三重區"
"241017","063-VK","2017/06/23 17:19:02","新北市三重區大同北路52號","121.495043333333","25.0630633333333","6500200","三重區"
"241024","065-VK","2017/06/23 17:19:04","新北市三重區中正北路193巷21弄22號","121.477585","25.0707366666667","6500200","三重區"
"241026","066-VK","2017/06/23 17:18:49","新北市三重區文化南路31-1號","121.5001","25.0617166666667","6500200","三重區"
"241002","090-VK","2017/06/23 17:19:01","新北市三重區仁愛街367號","121.491766666667","25.080105","6500200","三重區"
"241003","091-VK","2017/06/23 17:19:00","新北市三重區富福街60號","121.491945","25.0845333333333","6500200","三重區"
"241015","156-TC","2017/06/23 17:18:55","新北市三重區福德北路89號","121.501893333333","25.066255","6500200","三重區"
"241005","262-UM","2017/06/23 17:19:06","新北市三重區碧華街50號","121.483483333333","25.0812433333333","6500200","三重區"
"241029","265-UM","2017/06/23 17:18:47","新北市三重區重新路三段150號","121.490945","25.0593983333333","6500200","三重區"
"241016","266-UM","2017/06/23 17:19:05","新北市三重區大同北路97-3號","121.494376666667","25.06361","6500200","三重區"
"241022","267-UM","2017/06/23 17:19:01","新北市三重區中正北路64巷3號","121.486471666667","25.0642366666667","6500200","三重區"
"241018","268-UM","2017/06/23 17:19:03","新北市三重區安慶街197號","121.49304","25.0683983333333","6500200","三重區"
"241032","269-UM","2017/06/23 17:18:58","新北市三重區中華路2巷11號","121.482778333333","25.0604366666667","6500200","三重區"
"241013","270-UM","2017/06/23 17:18:53","新北市三重區仁愛街104號","121.49539","25.074155","6500200","三重區"
"241025","271-UM","2017/06/23 17:18:54","新北市三重區中正北路305號","121.474278333333","25.07133","6500200","三重區"
"241007","398-BY","2017/06/23 17:18:58","新北市三重區三和路四段155巷33號","121.484836666667","25.0787283333333","6500200","三重區"
"241020","413-TH","2017/06/23 17:19:03","新北市三重區自強路三段7巷22號","121.487886666667","25.07219","6500200","三重區"
"241004","475-VK","2017/06/23 17:18:55","新北市三重區五華街110巷17弄7號","121.490808333333","25.0824116666667","6500200","三重區"
"241019","478-VK","2017/06/23 17:18:49","新北市三重區自強路二段100號","121.487403333333","25.07127","6500200","三重區"
"241030","480-VK","2017/06/23 17:18:49","新北市三重區成功路73巷21號","121.489658333333","25.0522133333333","6500200","三重區"
"241014","543-UM","2017/06/23 17:18:59","新北市三重區長榮路6號","121.500178333333","25.0685533333333","6500200","三重區"
"241023","545-UM","2017/06/23 17:19:01","新北市三重區三民街174號","121.482055","25.0655666666667","6500200","三重區"
"241006","AAD-863","2017/06/23 17:19:01","新北市三重區三和路四段264巷13號","121.485076666667","25.0768283333333","6500200","三重區"
"241012","941-UM","2017/06/23 17:19:00","新北市三重區仁興街31巷39號","121.500241666667","25.075495","6500200","三重區"
"241033","AAC-255","2017/06/23 17:18:46","新北市三重區中興北街152號","121.46894","25.05654","6500200","三重區"
"235064","005-UY","2017/06/23 17:19:06","新北市中和區員山路36巷16-3號","121.485131666667","24.9913633333333","6500300","中和區"
"235026","031-BX","2017/06/23 17:18:53","新北市中和區員山路36巷16-8號","121.485375","24.9923033333333","6500300","中和區"
"247020","893-R6","2017/06/23 17:19:06","新北市蘆洲區仁愛街25號","121.472271666667","25.09254","6501400","蘆洲區"
"247010","546-UM","2017/06/23 17:19:05","新北市蘆洲區中山一路120巷7弄33號","121.476903333333","25.0825616666667","6501400","蘆洲區"
"247018","500-BY","2017/06/23 17:18:49","新北市蘆洲區民權路82巷5弄6號","121.474975","25.0883433333333","6501400","蘆洲區"
"247002","402-BY","2017/06/23 16:29:35","新北市五股區中興路三段3-6號","121.449576666667","25.0787083333333","6501400","蘆洲區"
"247008","339-TH","2017/06/23 17:18:55","新北市蘆洲區永安北路一段72巷22號","121.47663","25.0770983333333","6501400","蘆洲區"
"247024","337-TH","2017/06/23 17:18:55","新北市蘆洲區長榮路288號","121.459945","25.0867566666667","6501400","蘆洲區"
"247002","336-TH","2017/06/23 17:18:47","新北市蘆洲區永樂街38巷45弄6號","121.457935","25.089945","6501400","蘆洲區"
"247014","057-VK","2017/06/23 17:18:50","新北市蘆洲區忠孝路12-1號","121.470438333333","25.0840666666667","6501400","蘆洲區"
"247004","056-VK","2017/06/23 17:18:53","新北市蘆洲區長安街233巷6號","121.459056666667","25.0828283333333","6501400","蘆洲區"
"247006","053-VK","2017/06/23 17:18:49","新北市蘆洲區長安街49巷8弄2號","121.462686666667","25.0789116666667","6501400","蘆洲區"
"247012","007-UY","2017/06/23 17:18:48","新北市蘆洲區信義路317號","121.478336666667","25.0864766666667","6501400","蘆洲區"
"247022","002-UY","2017/06/23 17:19:01","新北市蘆洲區三民路128巷49號","121.469741666667","25.09001","6501400","蘆洲區"
"247016","001-UY","2017/06/23 17:18:47","新北市蘆洲區光華路22巷57號","121.4679","25.0851516666667","6501400","蘆洲區"
"228001","212-TW","2017/06/23 17:19:03","新北市貢寮區仁理村尖山腳街20號","121.924171666667","25.0478083333333","6502600","貢寮區"
"228002","663-BX","2017/06/23 17:19:09","新北市貢寮區雙玉里下雙溪街28號","121.925021666667","25.01179","6502600","貢寮區"
"228003","828-UM","2017/06/23 17:18:55","新北市貢寮區福隆里興隆街24-1號","121.944113333333","25.0166366666667","6502600","貢寮區"
"224010","AGQ-8101","2017/06/23 09:01:14","新北市瑞芳區民權街3-1號","121.80941","25.1082316666667","6501200","瑞芳區"
"224006","676-BX","2017/06/23 17:18:46","新北市瑞芳區傑魚坑路263號","121.787198333333","25.1059916666667","6501200","瑞芳區"
"224009","285-BY","2017/06/23 17:18:56","新北市瑞芳區汽車路145號","121.83856","25.10987","6501200","瑞芳區"
"224008","275-VK","2017/06/23 17:19:00","新北市瑞芳區侯硐路145號","121.831818333333","25.0905933333333","6501200","瑞芳區"
"224005","271-BY","2017/06/23 17:18:51","新北市瑞芳區鼻頭路247號","121.912363333333","25.1236183333333","6501200","瑞芳區"
"227003","642-TC","2017/06/23 17:19:04","新北市雙溪區上林里內平林90號","121.827581666667","25.0275","6502500","雙溪區"
"227011","400-TW","2017/06/23 17:18:47","新北市雙溪區牡丹里牡丹102號","121.849968333333","25.0598233333333","6502500","雙溪區"
"251004","009-UM","2017/06/23 17:18:51","新北市淡水區中正東路40號","121.449868333333","25.165305","6501000","淡水區"
"251005","010-UM","2017/06/23 17:18:47","新北市淡水區鄧公路19-1號","121.450286666667","25.1699516666667","6501000","淡水區"
"251001","011-UM","2017/06/23 17:18:58","新北市淡水區中正路二段31號","121.419195","25.1821883333333","6501000","淡水區"
"251002","012-UM","2017/06/23 17:18:53","新北市淡水區中正路二段31號","121.41943","25.1816033333333","6501000","淡水區"
"251013","180-VK","2017/06/23 17:19:04","新北市淡水區竹圍子8-5號","121.478253333333","25.1933166666667","6501000","淡水區"
"251008","181-VK","2017/06/23 17:18:54","新北市淡水區大同路285號","121.467971666667","25.1424633333333","6501000","淡水區"
"251015","182-VK","2017/06/23 17:16:15","新北市淡水區樹林口20-6號","121.47871","25.1694116666667","6501000","淡水區"
"251010","413-VK","2017/06/23 17:18:53","新北市淡水區中正路二段31號","121.419155","25.1819266666667","6501000","淡水區"
"251012","441-VK","2017/06/23 17:18:51","新北市淡水區中山北路一段158號","121.4442","25.1779066666667","6501000","淡水區"
"251006","561-UM","2017/06/23 17:18:55","新北市淡水區大智街39號","121.442585","25.1742916666667","6501000","淡水區"
"251009","575-R6","2017/06/23 17:18:56","新北市淡水區三民街21號","121.439051666667","25.1718683333333","6501000","淡水區"
"251007","577-R6","2017/06/23 17:18:56","新北市淡水區民生路47-4號","121.462061666667","25.1379933333333","6501000","淡水區"
"251011","650-BX","2017/06/23 17:18:55","新北市淡水區坪頂路128號","121.464996666667","25.1611866666667","6501000","淡水區"
"251003","673-BX","2017/06/23 17:19:03","新北市淡水區中正路二段31號","121.419375","25.1816816666667","6501000","淡水區"
"207003","550-UM","2017/06/23 17:18:51","新北市萬里區萬里里瑪鋉路292號","121.688458333333","25.1814083333333","6502800","萬里區"
"252002","178-VK","2017/06/23 17:19:00","新北市三芝區忠孝街1-14號","121.505448333333","25.2539983333333","6502100","三芝區"
"252001","292-VK","2017/06/23 17:18:59","新北市三芝區淡金路一段3號","121.498095","25.2596733333333","6502100","三芝區"
"242021","AAC-296","2017/06/23 17:18:53","新北市新莊區中平路82巷26號","121.445951666667","25.0447966666667","6500500","新莊區"
"242029","986-R7","2017/06/23 17:18:53","新北市新莊區中環路二段392-1號","121.442338333333","25.0455116666667","6500500","新莊區"
"242048","751-BX","2017/06/23 17:18:49","新北市新莊區富國路69號","121.419858333333","25.0260116666667","6500500","新莊區"
"242025","615-BX","2017/06/23 17:18:51","新北市新莊區中環路二段392-1號","121.442356666667","25.045745","6500500","新莊區"
"242023","613-BX","2017/06/23 17:19:05","新北市新莊區中平路82巷4號","121.445","25.044805","6500500","新莊區"
"242027","612-BX","2017/06/23 17:18:53","新北市新莊區中平路82巷12號","121.445366666667","25.0447916666667","6500500","新莊區"
"242037","566-BX","2017/06/23 17:18:54","新北市新莊區新樹路48號","121.437695","25.0273783333333","6500500","新莊區"
"242041","497-BY","2017/06/23 17:19:04","新北市新莊區新樹路113巷25號","121.439488333333","25.0263933333333","6500500","新莊區"
"242005","442-UM","2017/06/23 17:19:01","新北市新莊區復興路一段35號","121.446601666667","25.041975","6500500","新莊區"
"242046","441-UM","2017/06/23 17:18:47","新北市新莊區新樹路67巷32號","121.440445","25.0303733333333","6500500","新莊區"
"242050","440-UM","2017/06/23 17:19:02","新北市新莊區瓊林路59-20號","121.440216666667","25.0218683333333","6500500","新莊區"
"242032","415-TV","2017/06/23 17:18:56","新北市新莊區新泰路421-1號","121.443155","25.0448066666667","6500500","新莊區"
"242002","413-TV","2017/06/23 17:19:01","新北市新莊區新莊路773號","121.442055","25.032755","6500500","新莊區"
"242039","400-BY","2017/06/23 17:18:51","新北市新莊區新樹路13號","121.440825","25.0329916666667","6500500","新莊區"
"242060","362-BY","2017/06/23 17:19:05","新北市新莊區三和路12-10號","121.442306666667","25.0367683333333","6500500","新莊區"
"242058","353-BY","2017/06/23 17:18:50","新北市新莊區三和路12-10號","121.442105","25.036765","6500500","新莊區"
"242011","132-UY","2017/06/23 17:18:54","新北市新莊區中誠街52號","121.451086666667","25.0480316666667","6500500","新莊區"
"242034","133-UY","2017/06/23 17:18:53","新北市新莊區瓊林路50-10號","121.445925","25.0287333333333","6500500","新莊區"
"242019","135-UY","2017/06/23 17:19:01","新北市新莊區中港路333號","121.452425","25.0451633333333","6500500","新莊區"
"242044","172-VK","2017/06/23 17:18:57","新北市新莊區富國路101-1號","121.421375","25.0255266666667","6500500","新莊區"
"242007","173-VK","2017/06/23 17:19:07","新北市新莊區新泰路357巷3弄37號","121.442218333333","25.04044","6500500","新莊區"
"242013","175-VK","2017/06/23 17:19:04","新北市新莊區中平路111號","121.44466","25.046425","6500500","新莊區"
"242056","176-VK","2017/06/23 17:18:52","新北市新莊區中正路400號","121.441903333333","25.0344283333333","6500500","新莊區"
"242017","348-TH","2017/06/23 17:18:55","新北市新莊區中平路82巷4號","121.444951666667","25.0448566666667","6500500","新莊區"
"242054","349-TH","2017/06/23 17:18:53","新北市新莊區瓊林路59-89號","121.442176666667","25.0245116666667","6500500","新莊區"
"242015","350-TH","2017/06/23 17:18:55","新北市新莊區建中街141號","121.444958333333","25.0364933333333","6500500","新莊區"
"242009","351-TH","2017/06/23 17:18:55","新北市新莊區中環路三段2-1號","121.442636666667","25.0553133333333","6500500","新莊區"
"238015","755-BX","2017/06/23 17:18:49","新北市樹林區東佳路18號","121.408711666667","24.9813583333333","6500700","樹林區"
"238023","601-UM","2017/06/23 17:18:56","新北市樹林區啟智街172號","121.41466","24.9873266666667","6500700","樹林區"
"238019","599-UM","2017/06/23 17:19:00","新北市樹林區八德街170號","121.421683333333","24.9781333333333","6500700","樹林區"
"238018","571-TV","2017/06/23 17:18:55","新北市板橋區篤行路三段98-1號","121.425698333333","24.98495","6500700","樹林區"
"238024","5061-A6","2017/06/23 17:19:02","新北市樹林區博愛街198號","121.42485","24.98946","6500700","樹林區"
"238022","312-TH","2017/06/23 17:18:58","新北市樹林區忠孝街31號","121.423676666667","24.9822","6500700","樹林區"
"238021","311-TH","2017/06/23 17:11:21","新北市樹林區西圳街一段172-1號","121.392655","24.9626466666667","6500700","樹林區"
"238025","303-VK","2017/06/23 17:19:07","新北市樹林區中山路一段296號","121.420261666667","24.9863916666667","6500700","樹林區"
"238017","283-BY","2017/06/23 17:19:05","新北市樹林區大安路301號","121.418001666667","24.992495","6500700","樹林區"
"238014","282-BY","2017/06/23 17:18:40","新北市樹林區東佳路18號","121.40805","24.9811433333333","6500700","樹林區"
"238020","268-VK","2017/06/23 17:19:00","新北市樹林區保安街一段193-1號","121.420691666667","24.9958066666667","6500700","樹林區"
"238026","172-UY","2017/06/23 17:18:48","新北市樹林區東順街113號","121.40748","24.9753116666667","6500700","樹林區"
"238016","169-UY","2017/06/23 17:19:01","新北市樹林區中山路二段10號","121.417583333333","24.9850833333333","6500700","樹林區"
"239007","AAC-297","2017/06/23 17:18:53","新北市鶯歌區光復街10-2號","121.351648333333","24.95524","6500800","鶯歌區"
"239006","891-R6","2017/06/23 17:18:48","新北市鶯歌區德昌街11號","121.33359","24.9602883333333","6500800","鶯歌區"
"239008","527-UM","2017/06/23 17:19:05","新北市鶯歌區西湖街曾厝巷27號","121.339425","24.96144","6500800","鶯歌區"
"239005","526-UM","2017/06/23 17:19:03","新北市鶯歌區福德五街2號","121.329678333333","24.9683466666667","6500800","鶯歌區"
"239001","417-VK","2017/06/23 17:18:52","新北市鶯歌區尖山路220號","121.343323333333","24.9468683333333","6500800","鶯歌區"
"239003","360-BY","2017/06/23 17:18:58","新北市鶯歌區德昌二街70巷32弄2號","121.332231666667","24.95821","6500800","鶯歌區"
"239002","359-BY","2017/06/23 17:18:58","新北市鶯歌區建國路174號","121.349781666667","24.95349","6500800","鶯歌區"
"239004","193-VK","2017/06/23 17:18:55","新北市鶯歌區文化路501-18號","121.353758333333","24.9484466666667","6500800","鶯歌區"
"221010","276-VK","2017/06/23 13:14:29","新北市汐止區汐萬路一段256巷3號","121.653461666667","25.0746033333333","6501100","汐止區"
"220041","307-R5","2017/06/23 15:30:48","新北市板橋區民生路二段120號","121.470355","25.0196533333333","6500100","板橋區"
