"lineid","car","time","location","longitude","latitude","cityid","cityname"
"234026","9371-KE","2017/06/23 18:08:47","新北市永和區秀朗路一段10巷21號","121.51323","25.0062433333333","6500400","永和區"
"234011","9373-KE","2017/06/23 17:50:28","新北市永和區福和路1號","121.525606666667","25.0098","6500400","永和區"
"249005","172-UM","2017/06/23 18:08:58","新北市八里區荖阡坑路15號","121.401531666667","25.1398166666667","6502300","八里區"
"249001","173-UM","2017/06/23 18:08:58","新北市八里區龍米路二段36號","121.448601666667","25.1401866666667","6502300","八里區"
"249004","303-UY","2017/06/23 18:09:02","新北市八里區龍米路二段200巷3號","121.43375","25.1588016666667","6502300","八里區"
"249002","305-UY","2017/06/23 18:08:47","新北市八里區龍米路一段356巷20號","121.452131666667","25.1307683333333","6502300","八里區"
"249003","593-UM","2017/06/23 18:08:47","新北市八里區中華路二段177號","121.406696666667","25.1505783333333","6502300","八里區"
"248016","026-BX","2017/06/23 18:08:53","新北市五股區成泰路三段221巷16號","121.445785","25.093455","6501500","五股區"
"248006","077-UY","2017/06/23 18:09:04","新北市五股區中興路二段82號","121.460768333333","25.0772916666667","6501500","五股區"
"248008","095-VK","2017/06/23 18:08:54","新北市五股區中興路二段182巷15弄13-5號","121.457411666667","25.0809716666667","6501500","五股區"
"248018","225-UY","2017/06/23 18:08:50","新北市五股區中興路三段198號","121.44115","25.08296","6501500","五股區"
"248014","261-SL","2017/06/23 18:08:50","新北市五股區成泰路一段197號","121.435171666667","25.0766566666667","6501500","五股區"
"248002","655-BX","2017/06/23 18:08:47","新北市五股區中興路三段5號","121.448806666667","25.0800483333333","6501500","五股區"
"248004","677-BX","2017/06/23 18:09:01","新北市五股區成泰路二段55號","121.437908333333","25.08338","6501500","五股區"
"248010","682-TV","2017/06/23 18:08:54","新北市五股區成泰路一段189巷32弄25號","121.433223333333","25.0766383333333","6501500","五股區"
"232011","375-UM","2017/06/23 18:09:01","新北市坪林區水柳腳25號","121.710966666667","24.9358166666667","6502000","坪林區"
"244013","069-UM","2017/06/23 18:08:52","新北市林口區中山路27號","121.395408333333","25.078235","6501700","林口區"
"244007","080-UY","2017/06/23 18:08:53","新北市林口區林口路124巷10弄5號","121.389201666667","25.08169","6501700","林口區"
"244019","403-UM","2017/06/23 18:08:47","新北市林口區忠孝路528號","121.37226","25.068395","6501700","林口區"
"244023","483-VK","2017/06/23 18:08:56","新北市林口區隆林街213號","121.383308333333","25.0740616666667","6501700","林口區"
"244017","485-VK","2017/06/23 18:09:02","新北市林口區文化一路一段26號","121.370293333333","25.0689683333333","6501700","林口區"
"244009","656-BX","2017/06/23 18:08:52","新北市林口區佳林路56巷45號","121.385073333333","25.08072","6501700","林口區"
"244021","657-BX","2017/06/23 18:09:06","新北市林口區自強一街71號","121.399881666667","25.0770916666667","6501700","林口區"
"244011","701-TV","2017/06/23 18:08:46","新北市林口區中正路30巷4號","121.395805","25.0775733333333","6501700","林口區"
"244025","837-TS","2017/06/23 18:09:07","新北市林口區南勢二街152-7號","121.358753333333","25.073185","6501700","林口區"
"222005","289-BY","2017/06/23 10:33:31","新北市深坑區深坑街81號","121.614611666667","25.00148","6501800","深坑區"
"222003","436-BY","2017/06/23 18:08:58","新北市深坑區腳坑2-5號","121.61102","24.995885","6501800","深坑區"
"222002","659-BX","2017/06/23 18:08:53","新北市深坑區文化街42號","121.619106666667","25.0016466666667","6501800","深坑區"
"222001","696-SL","2017/06/23 18:08:49","新北市深坑區北深路二段151號","121.614145","25.00223","6501800","深坑區"
"231061","047-UY","2017/06/23 18:09:01","新北市新店區安華路28-1號","121.519061666667","24.9610433333333","6500600","新店區"
"231060","106-UY","2017/06/23 18:08:47","新北市新店區安華路28-1號","121.519681666667","24.960815","6500600","新店區"
"231053","187-VK","2017/06/23 18:08:59","新北市新店區安康路一段355-3號","121.519545","24.96151","6500600","新店區"
"231046","278-BY","2017/06/23 18:08:54","新北市新店區直潭路93號","121.532211666667","24.939995","6500600","新店區"
"231058","3712-VJ","2017/06/23 18:08:56","新北市新店區安華路28-1號","121.51908","24.9606266666667","6500600","新店區"
"231055","3713-VJ","2017/06/23 18:09:05","新北市新店區安華路3號","121.51893","24.960555","6500600","新店區"
"231045","617-UM","2017/06/23 18:08:50","新北市新店區安華路28-1號","121.519376666667","24.9608733333333","6500600","新店區"
"231062","720-UM","2017/06/23 18:08:53","新北市新店區安華路28-1號","121.519338333333","24.9612716666667","6500600","新店區"
"241024","065-VK","2017/06/23 18:09:04","新北市三重區中正北路193巷33號","121.476373333333","25.0708833333333","6500200","三重區"
"241015","156-TC","2017/06/23 18:08:55","新北市三重區三和路一段2號","121.503921666667","25.0643266666667","6500200","三重區"
"241005","262-UM","2017/06/23 18:08:47","新北市三重區分子尾街117號","121.488358333333","25.0829833333333","6500200","三重區"
"241033","AAC-255","2017/06/23 18:09:05","新北市三重區中興北街62號","121.469018333333","25.0516616666667","6500200","三重區"
"235064","005-UY","2017/06/23 18:09:06","新北市中和區中正路501號","121.488981666667","24.9935283333333","6500300","中和區"
"235063","006-UY","2017/06/23 18:08:51","新北市中和區員山路36巷16-3號","121.485013333333","24.9912983333333","6500300","中和區"
"235062","031-BX","2017/06/23 18:08:48","新北市中和區新生街181號","121.483748333333","25.0005783333333","6500300","中和區"
"235056","096-UM","2017/06/23 18:08:56","新北市中和區連城路469巷1號","121.48364","24.9958766666667","6500300","中和區"
"235040","150-BY","2017/06/23 18:08:53","新北市中和區員山路36巷16-2號","121.485356666667","24.991715","6500300","中和區"
"235058","151-BY","2017/06/23 18:08:48","新北市中和區圓通路367巷33弄39號","121.4952","24.9855533333333","6500300","中和區"
"235038","185-VK","2017/06/23 18:09:07","新北市中和區景平路200號","121.515488333333","24.99229","6500300","中和區"
"235051","376-QA","2017/06/23 18:09:04","新北市中和區中正路521號","121.488378333333","24.993595","6500300","中和區"
"235061","378-QA","2017/06/23 18:08:48","新北市中和區連城路469巷79弄22號","121.483986666667","24.9936966666667","6500300","中和區"
"235050","4979-A6","2017/06/23 18:09:04","新北市中和區錦和路350-1號","121.490375","24.9935833333333","6500300","中和區"
"235069","4980-A6","2017/06/23 18:08:48","新北市中和區圓通路202號","121.496203333333","24.99419","6500300","中和區"
"235042","551-UM","2017/06/23 18:08:50","新北市中和區景平路227號","121.510251666667","24.9927933333333","6500300","中和區"
"235045","565-BX","2017/06/23 18:09:04","新北市中和區員山路36巷13號","121.48419","24.9910316666667","6500300","中和區"
"235054","640-BX","2017/06/23 18:08:50","新北市中和區連城路469巷79弄2號","121.483461666667","24.993635","6500300","中和區"
"235052","805-TS","2017/06/23 18:09:08","新北市中和區員山路36巷16-8號","121.485371666667","24.9922433333333","6500300","中和區"
"235037","AAC-213","2017/06/23 18:08:52","新北市中和區錦和路350-1號","121.490475","24.9935683333333","6500300","中和區"
"235059","AAC-215","2017/06/23 18:08:58","新北市中和區員山路36巷16-2號","121.485293333333","24.9915866666667","6500300","中和區"
"247010","546-UM","2017/06/23 18:09:05","新北市五股區凌雲路三段24巷19-1號","121.435303333333","25.1072066666667","6501400","蘆洲區"
"247002","402-BY","2017/06/23 16:29:35","新北市五股區中興路三段3-6號","121.449576666667","25.0787083333333","6501400","蘆洲區"
"247008","339-TH","2017/06/23 18:08:55","新北市五股區中直路13-7號","121.425381666667","25.1102566666667","6501400","蘆洲區"
"247006","053-VK","2017/06/23 18:08:49","新北市八里區商港路88-1號","121.393023333333","25.1498566666667","6501400","蘆洲區"
"226004","205-ST","2017/06/23 18:09:02","新北市平溪區白石里白石腳21號","121.720556666667","25.02167","6502400","平溪區"
"228001","212-TW","2017/06/23 18:09:02","新北市貢寮區真理里新港街26巷55弄2-1號","121.927385","25.0528416666667","6502600","貢寮區"
"228002","663-BX","2017/06/23 18:09:09","新北市貢寮區福連里馬崗街31-1號","122.002266666667","25.0126733333333","6502600","貢寮區"
"228003","828-UM","2017/06/23 18:07:39","新北市貢寮區真理里美艷山街6-2號","121.928881666667","25.0606933333333","6502600","貢寮區"
"224006","676-BX","2017/06/23 18:08:46","新北市瑞芳區中山路375號","121.796085","25.1101133333333","6501200","瑞芳區"
"224002","639-TC","2017/06/23 18:08:49","新北市瑞芳區三爪子坑路94-3號","121.809373333333","25.1053733333333","6501200","瑞芳區"
"224011","420-VK","2017/06/23 18:08:56","新北市瑞芳區汽車路28-1號","121.843295","25.1098633333333","6501200","瑞芳區"
"224009","285-BY","2017/06/23 18:08:56","新北市瑞芳區金光路117號","121.853535","25.106225","6501200","瑞芳區"
"224008","275-VK","2017/06/23 18:09:01","新北市瑞芳區國中新村19號","121.817455","25.107075","6501200","瑞芳區"
"224007","273-VK","2017/06/23 18:08:49","新北市瑞芳區四腳亭埔路13號","121.778045","25.1019116666667","6501200","瑞芳區"
"224005","271-BY","2017/06/23 18:08:52","新北市瑞芳區深澳路15號","121.816733333333","25.12912","6501200","瑞芳區"
"253006","032-BX","2017/06/23 18:08:52","新北市石門區老梅路52巷25弄2-1號","121.546686666667","25.2872133333333","6502200","石門區"
"253005","295-VK","2017/06/23 18:08:50","新北市石門區福安街17號","121.568613333333","25.2926216666667","6502200","石門區"
"208003","665-BX","2017/06/23 18:08:48","新北市金山區民生路202號","121.644481666667","25.2223733333333","6502700","金山區"
"208001","761-BX","2017/06/23 18:08:52","新北市金山區磺港里磺港路112號","121.64625","25.22669","6502700","金山區"
"251004","009-UM","2017/06/23 18:08:51","新北市淡水區民族路110巷11號","121.461801666667","25.1354916666667","6501000","淡水區"
"251005","010-UM","2017/06/23 18:08:47","新北市淡水區水源街一段122巷10號","121.447213333333","25.17143","6501000","淡水區"
"251001","011-UM","2017/06/23 18:08:58","新北市淡水區自立路1巷27號","121.46265","25.12961","6501000","淡水區"
"251002","012-UM","2017/06/23 18:08:53","新北市淡水區中正東路一段49號","121.452435","25.162685","6501000","淡水區"
"251013","180-VK","2017/06/23 18:09:03","新北市淡水區竹圍子12號","121.476438333333","25.1935","6501000","淡水區"
"251008","181-VK","2017/06/23 18:08:51","新北市淡水區淡金路16巷60弄1號","121.45973","25.1609633333333","6501000","淡水區"
"251015","182-VK","2017/06/23 18:08:55","新北市淡水區興福寮88巷1號","121.485593333333","25.1650966666667","6501000","淡水區"
"251010","413-VK","2017/06/23 18:08:53","新北市淡水區中正路二段52號","121.419811666667","25.1833216666667","6501000","淡水區"
"251012","441-VK","2017/06/23 18:09:05","新北市淡水區北新路三段172號","121.49273","25.19266","6501000","淡水區"
"251006","561-UM","2017/06/23 18:08:55","新北市淡水區新民街61號","121.438536666667","25.17631","6501000","淡水區"
"251009","575-R6","2017/06/23 18:08:56","新北市淡水區大忠街34巷7號","121.443575","25.175565","6501000","淡水區"
"251011","650-BX","2017/06/23 18:08:55","新北市淡水區三空泉9-2號","121.474156666667","25.1635416666667","6501000","淡水區"
"251003","673-BX","2017/06/23 18:09:03","新北市淡水區北新路184巷3-1號","121.449326666667","25.1784516666667","6501000","淡水區"
"207003","550-UM","2017/06/23 18:08:57","新北市萬里區野柳里港西路8-2號","121.685165","25.2036516666667","6502800","萬里區"
"207004","225-TW","2017/06/23 18:09:02","新北市萬里區中幅里中福路111號","121.676448333333","25.1684666666667","6502800","萬里區"
"252002","178-VK","2017/06/23 18:09:00","新北市三芝區中山路二段38號","121.502971666667","25.255145","6502100","三芝區"
"252003","249-BX","2017/06/23 18:08:55","新北市三芝區埔頭里埔頭43-3號","121.499735","25.261335","6502100","三芝區"
"252001","292-VK","2017/06/23 18:08:59","新北市三芝區中興街二段2號","121.498361666667","25.2566133333333","6502100","三芝區"
"208002","170-UY","2017/06/23 18:08:57","新北市金山區三界壇路99巷18號","121.61904","25.2275083333333","6502700","金山區"
"237004","078-UY","2017/06/23 18:09:05","新北市三峽區圳頭85號","121.379946666667","24.8801983333333","6500900","三峽區"
"237007","153-BY","2017/06/23 18:08:58","新北市三峽區中正路二段362號","121.365538333333","24.9099633333333","6500900","三峽區"
"237009","210-TH","2017/06/23 18:09:07","新北市三峽區大仁路50巷11號","121.365306666667","24.937985","6500900","三峽區"
"237013","252-BX","2017/06/23 18:08:53","新北市三峽區長泰街18巷2號","121.37877","24.9316316666667","6500900","三峽區"
"237012","275-BY","2017/06/23 18:08:59","新北市三峽區民生街19巷7弄16-2號","121.376998333333","24.9355116666667","6500900","三峽區"
"237008","302-VK","2017/06/23 18:08:56","新北市三峽區白雞44-50號","121.378508333333","24.9102166666667","6500900","三峽區"
"237014","433-BY","2017/06/23 18:08:57","新北市三峽區國光街63巷12號","121.37379","24.93789","6500900","三峽區"
"237006","5529-G3","2017/06/23 18:09:00","新北市三峽區介壽路二段138巷1弄160-9號","121.402431666667","24.9299316666667","6500900","三峽區"
"237011","572-TV","2017/06/23 18:08:48","新北市三峽區介壽路二段30號","121.390873333333","24.9352333333333","6500900","三峽區"
"237015","649-BX","2017/06/23 18:09:01","新北市三峽區紫新路38巷2號","121.422053333333","24.9225966666667","6500900","三峽區"
"237010","706-TV","2017/06/23 18:08:48","新北市三峽區民族街100號","121.369451666667","24.929425","6500900","三峽區"
"237005","AKY-6261","2017/06/23 18:09:05","新北市三峽區秀川街68號","121.37105","24.93392","6500900","三峽區"
"236072","105-UM","2017/06/23 18:09:07","新北市土城區明德路二段69-1號","121.451286666667","24.9810416666667","6501300","土城區"
"236043","107-UM","2017/06/23 18:08:50","新北市土城區裕生路65-1號","121.447513333333","24.98571","6501300","土城區"
"236079","166-UM","2017/06/23 18:08:59","新北市土城區永寧路32巷8號","121.429035","24.96079","6501300","土城區"
"236031","253-BX","2017/06/23 18:08:56","新北市土城區城林路6巷80號","121.438628333333","24.97958","6501300","土城區"
"236027","269-VK","2017/06/23 18:08:49","新北市土城區承天路18號","121.439436666667","24.9635733333333","6501300","土城區"
"236015","270-VK","2017/06/23 18:08:53","新北市土城區員福街38號","121.440906666667","24.978935","6501300","土城區"
"236039","271-VK","2017/06/23 18:08:52","新北市土城區明德路一段385-1號","121.452638333333","24.9796866666667","6501300","土城區"
"236022","401-BY","2017/06/23 18:08:54","新北市土城區福祥街24號","121.441106666667","24.9802133333333","6501300","土城區"
"236059","912-UM","2017/06/23 18:08:59","新北市土城區中央路四段20號","121.421078333333","24.9609766666667","6501300","土城區"
"236050","913-UM","2017/06/23 18:09:07","新北市土城區金城路二段8-1號","121.448856666667","24.9770583333333","6501300","土城區"
"236063","915-UM","2017/06/23 18:08:58","新北市土城區金城路三段176-2號","121.467795","24.9877383333333","6501300","土城區"
"236055","AAC-216","2017/06/23 18:08:54","新北市土城區中華路二段32-1號","121.439223333333","24.9780833333333","6501300","土城區"
"242021","AAC-296","2017/06/23 18:08:53","新北市新莊區公園路80號","121.450215","25.0394966666667","6500500","新莊區"
"242029","986-R7","2017/06/23 18:08:53","新北市新莊區中平路110巷13號","121.445728333333","25.0459483333333","6500500","新莊區"
"242048","751-BX","2017/06/23 18:09:00","新北市新莊區民安路100號","121.42384","25.0259516666667","6500500","新莊區"
"242025","615-BX","2017/06/23 18:08:51","新北市新莊區五工一路96號","121.460476666667","25.0678133333333","6500500","新莊區"
"242023","613-BX","2017/06/23 18:09:05","新北市新莊區幸福路757號","121.448206666667","25.0491183333333","6500500","新莊區"
"242027","612-BX","2017/06/23 18:09:06","新北市新莊區幸福路507號","121.45589","25.0493166666667","6500500","新莊區"
"242037","566-BX","2017/06/23 18:08:54","新北市新莊區建福路48巷5號","121.426193333333","25.0274616666667","6500500","新莊區"
"242041","497-BY","2017/06/23 18:09:04","新北市新莊區雙鳳路116巷13弄1號","121.413331666667","25.028735","6500500","新莊區"
"242005","442-UM","2017/06/23 18:09:00","新北市新莊區自由街36號","121.45575","25.0464816666667","6500500","新莊區"
"242046","441-UM","2017/06/23 18:08:51","新北市新莊區建福路27號","121.426515","25.0289783333333","6500500","新莊區"
"242050","440-UM","2017/06/23 18:09:02","新北市新莊區民本街11巷4號","121.42809","25.0203566666667","6500500","新莊區"
"242032","415-TV","2017/06/23 18:08:56","新北市新莊區新泰路282號","121.44584","25.0404483333333","6500500","新莊區"
"242002","413-TV","2017/06/23 18:09:01","新北市新莊區中正路72號","121.458781666667","25.038015","6500500","新莊區"
"242039","400-BY","2017/06/23 18:08:51","新北市新莊區民安東路145號","121.431878333333","25.020635","6500500","新莊區"
"242060","362-BY","2017/06/23 18:09:05","新北市新莊區新樹路209號","121.43574","25.023725","6500500","新莊區"
"242058","353-BY","2017/06/23 18:08:49","新北市新莊區新北大道七段556號","121.412248333333","25.02888","6500500","新莊區"
"242011","132-UY","2017/06/23 18:08:54","新北市新莊區中信街91號","121.447816666667","25.0532833333333","6500500","新莊區"
"242034","133-UY","2017/06/23 18:08:53","新北市新莊區瓊林路13-3號","121.448805","25.0309133333333","6500500","新莊區"
"242019","135-UY","2017/06/23 18:09:01","新北市新莊區公園路129-12號","121.457523333333","25.041065","6500500","新莊區"
"242044","172-VK","2017/06/23 18:08:57","新北市新莊區天泉二街1號","121.415265","25.0245883333333","6500500","新莊區"
"242007","173-VK","2017/06/23 18:08:47","新北市新莊區自信街47號","121.454658333333","25.048325","6500500","新莊區"
"242013","175-VK","2017/06/23 18:09:04","新北市新莊區三和路12-21號","121.44205","25.0386316666667","6500500","新莊區"
"242056","176-VK","2017/06/23 18:08:52","新北市新莊區豐年街豐2巷23號","121.447463333333","25.0308483333333","6500500","新莊區"
"242017","348-TH","2017/06/23 18:08:55","新北市新莊區中港路296號","121.452883333333","25.0447666666667","6500500","新莊區"
"242054","349-TH","2017/06/23 18:08:53","新北市新莊區民安西路303號","121.426871666667","25.0117033333333","6500500","新莊區"
"242015","350-TH","2017/06/23 18:08:55","新北市新莊區中平路152巷37號","121.44628","25.0474183333333","6500500","新莊區"
"242009","351-TH","2017/06/23 18:08:55","新北市新莊區昌盛街2巷1弄2號","121.453076666667","25.04953","6500500","新莊區"
"238015","755-BX","2017/06/23 18:08:49","新北市樹林區啟智街156巷9號","121.414895","24.9876983333333","6500700","樹林區"
"238023","601-UM","2017/06/23 18:08:56","新北市樹林區龍興街44號","121.40306","25.01559","6500700","樹林區"
"238019","599-UM","2017/06/23 18:09:00","新北市樹林區水源街32巷36號","121.425193333333","24.9809866666667","6500700","樹林區"
"238018","571-TV","2017/06/23 18:08:55","新北市樹林區樹新路247號","121.431315","25.0007583333333","6500700","樹林區"
"238024","5061-A6","2017/06/23 18:09:02","新北市樹林區中山路二段249巷2號","121.40202","24.9757933333333","6500700","樹林區"
"238022","312-TH","2017/06/23 18:08:58","新北市樹林區太平路150巷7號","121.41807","24.9777983333333","6500700","樹林區"
"238021","311-TH","2017/06/23 17:52:41","新北市樹林區柑園街一段253巷11號","121.396238333333","24.9558716666667","6500700","樹林區"
"238025","303-VK","2017/06/23 18:08:51","新北市樹林區保安街二段301號","121.412445","25.0064983333333","6500700","樹林區"
"238017","283-BY","2017/06/23 18:09:05","新北市樹林區中正路815號","121.409435","25.0169016666667","6500700","樹林區"
"238014","282-BY","2017/06/23 18:09:00","新北市樹林區潭興街107巷1弄3號","121.424963333333","24.998885","6500700","樹林區"
"238020","268-VK","2017/06/23 18:09:00","新北市樹林區俊興街298號","121.4186","25.0180916666667","6500700","樹林區"
"238026","172-UY","2017/06/23 18:08:48","新北市樹林區佳園路一段31號","121.39295","24.9710166666667","6500700","樹林區"
"238016","169-UY","2017/06/23 18:09:01","新北市樹林區日新街152號","121.420345","24.9886366666667","6500700","樹林區"
"239007","AAC-297","2017/06/23 18:08:53","新北市鶯歌區育英街69號","121.347291666667","24.9520416666667","6500800","鶯歌區"
"239006","891-R6","2017/06/23 18:09:08","新北市鶯歌區鶯桃路383號","121.33347","24.9635466666667","6500800","鶯歌區"
"239008","527-UM","2017/06/23 18:08:56","新北市鶯歌區朝陽街48巷1號","121.337411666667","24.977715","6500800","鶯歌區"
"239005","526-UM","2017/06/23 18:09:03","新北市鶯歌區鶯桃路668巷74-1號","121.329931666667","24.9717616666667","6500800","鶯歌區"
"239001","417-VK","2017/06/23 18:08:52","新北市鶯歌區中正三路福德巷23-1號","121.3398","24.940745","6500800","鶯歌區"
"239003","360-BY","2017/06/23 18:08:58","新北市鶯歌區福安街32巷28號","121.33516","24.963595","6500800","鶯歌區"
"239002","359-BY","2017/06/23 18:08:58","新北市鶯歌區光明街102巷8號","121.345931666667","24.9561366666667","6500800","鶯歌區"
"239004","193-VK","2017/06/23 18:08:55","新北市鶯歌區尖山路101巷4弄1號","121.347798333333","24.9484983333333","6500800","鶯歌區"
"221008","489-VK","2017/06/23 18:08:56","新北市汐止區康寧街309號","121.627128333333","25.067485","6501100","汐止區"
"221036","130-UY","2017/06/23 18:09:03","新北市汐止區大同路三段155號","121.66994","25.0777033333333","6501100","汐止區"
"221015","131-UY","2017/06/23 18:08:24","新北市汐止區鄉長路二段116號","121.664743333333","25.08603","6501100","汐止區"
"221010","269-BY","2017/06/23 18:08:54","新北市汐止區汐萬路二段273號","121.645886666667","25.08905","6501100","汐止區"
"221010","276-VK","2017/06/23 13:14:29","新北市汐止區汐萬路一段256巷3號","121.653461666667","25.0746033333333","6501100","汐止區"
"221031","277-VK","2017/06/23 00:10:29","新北市汐止區汐萬路一段256巷3號","121.65254","25.0745416666667","6501100","汐止區"
"221012","278-VK","2017/06/23 18:08:48","新北市汐止區保一街69號","121.674306666667","25.0797716666667","6501100","汐止區"
"221023","279-VK","2017/06/23 15:14:22","新北市汐止區康寧街901號","121.651766666667","25.0750083333333","6501100","汐止區"
"221032","280-BY","2017/06/23 18:08:56","新北市汐止區力行街32號","121.616733333333","25.0502966666667","6501100","汐止區"
"221027","281-BY","2017/06/23 18:08:49","新北市汐止區大同路二段488號","121.660503333333","25.0680066666667","6501100","汐止區"
"221038","297-VK","2017/06/23 18:08:51","新北市汐止區南興路82巷9號","121.652626666667","25.0585566666667","6501100","汐止區"
"221029","298-VK","2017/06/23 18:08:55","新北市汐止區樟樹二路134號","121.639923333333","25.0656683333333","6501100","汐止區"
"221021","299-VK","2017/06/23 18:08:47","新北市汐止區復興路7號","121.655983333333","25.06459","6501100","汐止區"
"221035","622-UM","2017/06/23 18:09:02","新北市汐止區大同路二段252號","121.654278333333","25.065905","6501100","汐止區"
"221025","623-UM","2017/06/23 18:08:44","新北市汐止區秀峰路160號","121.66019","25.062035","6501100","汐止區"
"221033","647-BX","2017/06/23 18:08:48","台北市南港區舊莊街一段145巷8弄24號","121.621505","25.0402033333333","6501100","汐止區"
"221002","707-TV","2017/06/23 18:08:55","新北市汐止區福德一路207號","121.635151666667","25.06552","6501100","汐止區"
"221018","753-BX","2017/06/23 18:09:04","新北市汐止區忠孝東路382巷3弄1號","121.665973333333","25.0696333333333","6501100","汐止區"
"220041","307-R5","2017/06/23 15:30:48","新北市板橋區民生路二段120號","121.470355","25.0196533333333","6500100","板橋區"
