"lineid","car","time","location","longitude","latitude","cityid","cityname"
"234026","9371-KE","2017/06/23 18:19:07","新北市永和區豫溪街42巷3號","121.515546666667","25.00956","6500400","永和區"
"234011","9373-KE","2017/06/23 18:19:01","新北市永和區環河西路一段95巷2號","121.511963333333","25.0180466666667","6500400","永和區"
"249005","172-UM","2017/06/23 18:18:58","新北市八里區荖阡坑路15-3號","121.400801666667","25.14035","6502300","八里區"
"249001","173-UM","2017/06/23 18:18:58","新北市八里區龍米路一段206號","121.451908333333","25.128165","6502300","八里區"
"249004","303-UY","2017/06/23 18:19:02","新北市八里區龍米路二段232巷3號","121.431565","25.1589833333333","6502300","八里區"
"249002","305-UY","2017/06/23 18:18:47","新北市八里區龍形二街52號","121.45032","25.13297","6502300","八里區"
"249003","593-UM","2017/06/23 18:18:52","新北市八里區松子腳3-2號","121.402995","25.1442916666667","6502300","八里區"
"248016","026-BX","2017/06/23 18:18:53","新北市五股區成泰路三段493號","121.44927","25.0995166666667","6501500","五股區"
"248006","077-UY","2017/06/23 18:19:04","新北市五股區中興路一段158號","121.464301666667","25.0739316666667","6501500","五股區"
"248008","095-VK","2017/06/23 18:18:54","新北市五股區更洲路32巷8弄14號","121.459251666667","25.079655","6501500","五股區"
"248018","225-UY","2017/06/23 18:18:50","新北市五股區御史路199-7號","121.432658333333","25.0991716666667","6501500","五股區"
"248012","247-BX","2017/06/23 18:16:18","新北市五股區御史路2巷9號","121.442681666667","25.0904016666667","6501500","五股區"
"248014","261-SL","2017/06/23 18:18:50","新北市五股區自強路19巷5-1號","121.434651666667","25.0738583333333","6501500","五股區"
"248002","655-BX","2017/06/23 18:18:47","新北市五股區西雲路16號","121.443066666667","25.0902533333333","6501500","五股區"
"248004","677-BX","2017/06/23 18:19:06","新北市五股區成泰路二段131號","121.438825","25.0851","6501500","五股區"
"248010","682-TV","2017/06/23 18:18:33","新北市五股區成泰路一段112號","121.435555","25.072905","6501500","五股區"
"232011","375-UM","2017/06/23 18:18:53","新北市坪林區坪雙路一段43號","121.711723333333","24.9424616666667","6502000","坪林區"
"244013","069-UM","2017/06/23 18:18:52","新北市林口區中山路152-1號","121.391023333333","25.07875","6501700","林口區"
"244007","080-UY","2017/06/23 18:18:53","新北市林口區竹林路548號","121.387556666667","25.0847066666667","6501700","林口區"
"244019","403-UM","2017/06/23 18:19:07","新北市林口區文化一路一段120號","121.37408","25.0719116666667","6501700","林口區"
"244023","483-VK","2017/06/23 18:18:56","新北市林口區仁愛路二段80號","121.384468333333","25.075405","6501700","林口區"
"244017","485-VK","2017/06/23 18:19:02","新北市林口區八德路56號","121.366308333333","25.06592","6501700","林口區"
"244009","656-BX","2017/06/23 18:18:52","新北市林口區中山路262-1號","121.38433","25.0802066666667","6501700","林口區"
"244021","657-BX","2017/06/23 18:18:46","新北市林口區自強四街4號","121.398916666667","25.076905","6501700","林口區"
"244011","701-TV","2017/06/23 18:19:06","新北市林口區中正路78號","121.394598333333","25.0773633333333","6501700","林口區"
"244025","837-TS","2017/06/23 18:18:47","新北市林口區南勢四街71-3號","121.354823333333","25.0698","6501700","林口區"
"222005","289-BY","2017/06/23 10:33:31","新北市深坑區深坑街81號","121.614611666667","25.00148","6501800","深坑區"
"222003","436-BY","2017/06/23 18:18:58","新北市深坑區北深路一段249巷17-1號","121.626595","25.002425","6501800","深坑區"
"222002","659-BX","2017/06/23 18:18:53","新北市深坑區雲鄉路2號","121.620933333333","24.999875","6501800","深坑區"
"222001","696-SL","2017/06/23 18:18:49","新北市深坑區北深路二段51-1號","121.619023333333","25.0040866666667","6501800","深坑區"
"231041","001-UM","2017/06/23 18:18:50","新北市新店區安華路28-1號","121.51947","24.9609916666667","6500600","新店區"
"231056","0291-UT","2017/06/23 18:18:51","新北市新店區安康路一段355號","121.51981","24.9629233333333","6500600","新店區"
"231059","046-UY","2017/06/23 18:18:49","新北市新店區安華路28-1號","121.51972","24.9608933333333","6500600","新店區"
"231061","047-UY","2017/06/23 18:19:02","新北市新店區安華路28-1號","121.519235","24.9609816666667","6500600","新店區"
"231060","106-UY","2017/06/23 18:18:47","新北市新店區安華路28-1號","121.519631666667","24.9607583333333","6500600","新店區"
"231051","107-UY","2017/06/23 18:18:54","新北市新店區安康路一段355-3號","121.519561666667","24.96181","6500600","新店區"
"231048","108-UY","2017/06/23 18:18:31","新北市新店區安華路28-1號","121.51942","24.9611583333333","6500600","新店區"
"231053","187-VK","2017/06/23 18:18:59","新北市新店區安康路一段88號","121.528013333333","24.9619416666667","6500600","新店區"
"231057","256-BX","2017/06/23 18:18:58","新北市新店區安華路28-1號","121.519785","24.96125","6500600","新店區"
"231063","268-BY","2017/06/23 18:19:00","新北市新店區安華路28-1號","121.51936","24.9606433333333","6500600","新店區"
"231046","278-BY","2017/06/23 18:18:54","新北市新店區直潭七街60號","121.532295","24.9398883333333","6500600","新店區"
"231058","3712-VJ","2017/06/23 18:18:56","新北市新店區環河路25號","121.537333333333","24.96132","6500600","新店區"
"231055","3713-VJ","2017/06/23 18:19:05","新北市新店區安康路一段82號","121.528135","24.9619683333333","6500600","新店區"
"231067","4772-VM","2017/06/23 18:18:57","新北市新店區安華路28-1號","121.519255","24.9606333333333","6500600","新店區"
"231065","512-UM","2017/06/23 15:58:05","新北市新店區安華路28-1號","121.519383333333","24.9611733333333","6500600","新店區"
"231054","513-UM","2017/06/23 18:18:54","新北市新店區安華路28-1號","121.519631666667","24.9611216666667","6500600","新店區"
"231064","515-UM","2017/06/23 16:34:39","新北市新店區安華路28-1號","121.519741666667","24.9609733333333","6500600","新店區"
"231045","617-UM","2017/06/23 18:18:50","新北市新店區安華路28-1號","121.519421666667","24.9609766666667","6500600","新店區"
"231040","619-UM","2017/06/23 18:18:54","新北市新店區安華路28-1號","121.519616666667","24.960705","6500600","新店區"
"231049","719-UM","2017/06/23 16:33:08","新北市新店區安華路28-1號","121.519498333333","24.9611416666667","6500600","新店區"
"231062","720-UM","2017/06/23 18:18:53","新北市新店區安華路28-1號","121.51928","24.9611733333333","6500600","新店區"
"231044","897-TW","2017/06/23 18:18:48","新北市新店區安華路28-1號","121.519503333333","24.9608283333333","6500600","新店區"
"231043","899-TW","2017/06/23 16:00:47","新北市新店區安華路28-1號","121.51928","24.9608483333333","6500600","新店區"
"241015","156-TC","2017/06/23 18:18:55","新北市三重區三和路一段2號","121.503921666667","25.0643266666667","6500200","三重區"
"241033","AAC-255","2017/06/23 18:19:05","新北市三重區光復路一段68巷2號","121.471873333333","25.04927","6500200","三重區"
"235064","005-UY","2017/06/23 18:19:06","新北市中和區中興街118巷10號","121.499955","24.9932233333333","6500300","中和區"
"235063","006-UY","2017/06/23 18:18:51","新北市中和區中正路637巷52弄1號","121.48549","24.9934566666667","6500300","中和區"
"235062","031-BX","2017/06/23 18:18:48","新北市中和區景平路999巷2號","121.495368333333","25.0059733333333","6500300","中和區"
"235056","096-UM","2017/06/23 18:18:56","新北市中和區員山路548號","121.478736666667","25.0102516666667","6500300","中和區"
"235039","097-UM","2017/06/23 18:19:02","新北市中和區錦和路350-1號","121.490168333333","24.9935533333333","6500300","中和區"
"235040","150-BY","2017/06/23 18:18:53","新北市中和區中正路19號","121.502803333333","24.99346","6500300","中和區"
"235058","151-BY","2017/06/23 18:18:48","新北市中和區圓通路367巷18-3號","121.491901666667","24.9887283333333","6500300","中和區"
"235055","183-VK","2017/06/23 18:19:00","新北市中和區員山路36巷16-3號","121.48501","24.9913366666667","6500300","中和區"
"235038","185-VK","2017/06/23 18:18:47","新北市中和區大智街55巷1號","121.520855","24.9920183333333","6500300","中和區"
"235049","186-VK","2017/06/23 18:18:48","新北市中和區員山路36巷13號","121.484393333333","24.9910666666667","6500300","中和區"
"235072","301-VK","2017/06/23 18:19:08","新北市中和區員山路36巷13號","121.484071666667","24.991055","6500300","中和區"
"235043","352-BY","2017/06/23 18:18:54","新北市中和區中正路273-1號","121.495621666667","24.99362","6500300","中和區"
"235051","376-QA","2017/06/23 18:19:04","新北市中和區南山路405號","121.506998333333","24.989995","6500300","中和區"
"235068","377-QA","2017/06/23 18:18:51","新北市中和區員山路36巷16-3號","121.485223333333","24.9912483333333","6500300","中和區"
"235061","378-QA","2017/06/23 18:18:48","新北市中和區民德路198號","121.468388333333","24.998715","6500300","中和區"
"235050","4979-A6","2017/06/23 18:18:44","新北市中和區捷運路61巷8號","121.508635","24.9894183333333","6500300","中和區"
"235069","4980-A6","2017/06/23 18:18:48","新北市中和區連城路139巷51號","121.496768333333","24.9974383333333","6500300","中和區"
"235042","551-UM","2017/06/23 18:18:50","新北市中和區大仁街20巷25弄12號","121.51896","24.9935066666667","6500300","中和區"
"235070","558-UM","2017/06/23 18:18:46","新北市中和區中正路446號","121.491015","24.9942666666667","6500300","中和區"
"235045","565-BX","2017/06/23 18:19:04","新北市中和區中正路13號","121.503146666667","24.9933416666667","6500300","中和區"
"235054","640-BX","2017/06/23 18:18:50","新北市中和區莒光路185號","121.472633333333","24.998985","6500300","中和區"
"235060","647-TV","2017/06/23 18:18:58","新北市中和區員山路36巷16-3號","121.484775","24.99134","6500300","中和區"
"235052","805-TS","2017/06/23 18:19:08","新北市中和區中正路13號","121.503035","24.9933333333333","6500300","中和區"
"235037","AAC-213","2017/06/23 18:18:52","新北市中和區景平路149號","121.513978333333","24.9921666666667","6500300","中和區"
"235059","AAC-215","2017/06/23 18:18:57","新北市中和區員山路36巷16-3號","121.484593333333","24.9910966666667","6500300","中和區"
"247010","546-UM","2017/06/23 18:19:05","新北市八里區中山路三段415號","121.370396666667","25.1370416666667","6501400","蘆洲區"
"247002","402-BY","2017/06/23 16:29:35","新北市五股區中興路三段3-6號","121.449576666667","25.0787083333333","6501400","蘆洲區"
"247008","339-TH","2017/06/23 18:18:55","新北市八里區中山路三段382號","121.368536666667","25.135885","6501400","蘆洲區"
"247014","057-VK","2017/06/23 18:18:50","新北市八里區商港路46號","121.396246666667","25.1450716666667","6501400","蘆洲區"
"247006","053-VK","2017/06/23 18:16:49","新北市林口區太平里180號","121.36658","25.13421","6501400","蘆洲區"
"226004","205-ST","2017/06/23 18:19:01","新北市平溪區薯榔里一坑路68號","121.712833333333","25.0226216666667","6502400","平溪區"
"228001","212-TW","2017/06/23 18:19:02","新北市貢寮區真理里新港街26巷55弄2-1號","121.927363333333","25.0528516666667","6502600","貢寮區"
"228002","663-BX","2017/06/23 18:18:49","新北市貢寮區福連里福興街24-1號","121.991135","25.0120633333333","6502600","貢寮區"
"228003","828-UM","2017/06/23 18:18:19","新北市貢寮區真理里美艷山街61-2號","121.922786666667","25.070255","6502600","貢寮區"
"224006","676-BX","2017/06/23 18:19:06","新北市瑞芳區明燈路三段19號","121.808338333333","25.1075666666667","6501200","瑞芳區"
"224002","639-TC","2017/06/23 18:19:08","新北市瑞芳區三爪子坑路97號","121.811178333333","25.1073316666667","6501200","瑞芳區"
"224011","420-VK","2017/06/23 18:18:36","新北市瑞芳區崙頂路3-1號","121.846998333333","25.1046833333333","6501200","瑞芳區"
"224009","285-BY","2017/06/23 18:18:56","新北市瑞芳區金光路133號","121.853876666667","25.1068283333333","6501200","瑞芳區"
"224008","275-VK","2017/06/23 18:19:00","新北市瑞芳區逢甲路118號","121.809005","25.108975","6501200","瑞芳區"
"224007","273-VK","2017/06/23 18:18:49","新北市瑞芳區頂埔巷1弄1號","121.766301666667","25.10246","6501200","瑞芳區"
"224005","271-BY","2017/06/23 18:18:52","新北市瑞芳區建基新村8號","121.812208333333","25.132155","6501200","瑞芳區"
"227003","642-TC","2017/06/23 18:18:47","新北市雙溪區共和里中山路2號","121.863833333333","25.033785","6502500","雙溪區"
"227011","400-TW","2017/06/23 18:18:50","新北市雙溪區牡丹里牡丹73號","121.851706666667","25.059355","6502500","雙溪區"
"253006","032-BX","2017/06/23 18:18:52","新北市石門區老梅路61號","121.54574","25.2891266666667","6502200","石門區"
"253005","295-VK","2017/06/23 18:18:50","新北市石門區中央路14號","121.567258333333","25.29175","6502200","石門區"
"208003","665-BX","2017/06/23 18:18:48","新北市金山區民生路202號","121.644611666667","25.2219866666667","6502700","金山區"
"208001","761-BX","2017/06/23 18:18:55","新北市金山區自強路21號","121.64043","25.216325","6502700","金山區"
"251004","009-UM","2017/06/23 18:18:50","新北市淡水區民族路50巷2弄2號","121.461465","25.1358783333333","6501000","淡水區"
"251005","010-UM","2017/06/23 18:18:47","新北市淡水區博愛街47-1號","121.446706666667","25.16902","6501000","淡水區"
"251001","011-UM","2017/06/23 18:18:58","新北市淡水區自強路323號","121.463178333333","25.1322483333333","6501000","淡水區"
"251002","012-UM","2017/06/23 18:18:53","新北市淡水區中正東路一段79號","121.453005","25.162","6501000","淡水區"
"251013","180-VK","2017/06/23 18:19:03","新北市淡水區行忠路796號","121.474423333333","25.2000083333333","6501000","淡水區"
"251008","181-VK","2017/06/23 18:18:51","新北市淡水區淡金路一段69號","121.458566666667","25.17339","6501000","淡水區"
"251015","182-VK","2017/06/23 18:18:55","新北市淡水區興福寮88巷1號","121.485616666667","25.16507","6501000","淡水區"
"251010","413-VK","2017/06/23 18:18:53","新北市淡水區淡海路199號","121.420403333333","25.18484","6501000","淡水區"
"251012","441-VK","2017/06/23 18:18:51","新北市淡水區北新路二段77-5號","121.480396666667","25.185505","6501000","淡水區"
"251006","561-UM","2017/06/23 18:18:55","新北市淡水區新民街46號","121.439531666667","25.17641","6501000","淡水區"
"251011","650-BX","2017/06/23 18:18:55","新北市淡水區坪頂路50號","121.457983333333","25.162605","6501000","淡水區"
"251003","673-BX","2017/06/23 18:19:03","新北市淡水區北新路180號","121.449443333333","25.178785","6501000","淡水區"
"207003","550-UM","2017/06/23 18:18:51","新北市萬里區野柳里港東路6-4號","121.686696666667","25.2032766666667","6502800","萬里區"
"207004","225-TW","2017/06/23 18:19:06","新北市萬里區中幅里中福路41號","121.678446666667","25.1669333333333","6502800","萬里區"
"252002","178-VK","2017/06/23 18:19:00","新北市三芝區中山路二段41號","121.502885","25.25503","6502100","三芝區"
"252003","249-BX","2017/06/23 18:18:55","新北市三芝區錫板里南勢崗8號","121.479156666667","25.2618716666667","6502100","三芝區"
"252001","292-VK","2017/06/23 18:18:59","新北市三芝區中興街二段2號","121.4984","25.2566716666667","6502100","三芝區"
"208002","170-UY","2017/06/23 18:18:57","新北市金山區清泉里清水路60巷10號","121.633156666667","25.2344766666667","6502700","金山區"
"237004","078-UY","2017/06/23 18:19:05","新北市三峽區五寮144號","121.359506666667","24.8583283333333","6500900","三峽區"
"237007","153-BY","2017/06/23 18:18:58","新北市三峽區中正路三段70巷32號","121.355835","24.9049816666667","6500900","三峽區"
"237009","210-TH","2017/06/23 18:18:47","新北市三峽區大勇路36巷40號","121.365545","24.9372066666667","6500900","三峽區"
"237013","252-BX","2017/06/23 18:18:53","新北市三峽區中正路一段19巷9號","121.376393333333","24.93038","6500900","三峽區"
"237012","275-BY","2017/06/23 18:18:59","新北市三峽區民生街1巷3-11號","121.377013333333","24.936185","6500900","三峽區"
"237008","302-VK","2017/06/23 18:18:56","新北市三峽區白雞68-101號","121.392553333333","24.90854","6500900","三峽區"
"237014","433-BY","2017/06/23 18:18:57","新北市三峽區復興路59號","121.373131666667","24.937255","6500900","三峽區"
"237006","5529-G3","2017/06/23 18:19:00","新北市三峽區溪東路178巷13弄10號","121.40618","24.9322183333333","6500900","三峽區"
"237011","572-TV","2017/06/23 18:19:07","新北市三峽區溪東路329號","121.41086","24.9299783333333","6500900","三峽區"
"237015","649-BX","2017/06/23 18:19:01","新北市三峽區紫微路42-1號","121.422315","24.9198283333333","6500900","三峽區"
"237010","706-TV","2017/06/23 18:18:08","新北市三峽區中山路175號","121.36378","24.93681","6500900","三峽區"
"237005","AKY-6261","2017/06/23 18:18:44","新北市三峽區民族街3-3號","121.369471666667","24.9313883333333","6500900","三峽區"
"236072","105-UM","2017/06/23 18:19:07","新北市土城區明德路一段95號","121.465613333333","24.983095","6501300","土城區"
"236043","107-UM","2017/06/23 18:19:04","新北市土城區裕生路21巷6弄2-1號","121.448773333333","24.9870883333333","6501300","土城區"
"236079","166-UM","2017/06/23 18:18:59","新北市土城區中央路三段239巷22號","121.429266666667","24.9636116666667","6501300","土城區"
"236031","253-BX","2017/06/23 18:18:56","新北市土城區順風路41號","121.440718333333","24.9767566666667","6501300","土城區"
"236027","269-VK","2017/06/23 18:18:49","新北市土城區承天路18號","121.439495","24.9635333333333","6501300","土城區"
"236015","270-VK","2017/06/23 18:18:53","新北市土城區學府路一段8號","121.459526666667","24.9884783333333","6501300","土城區"
"236039","271-VK","2017/06/23 18:18:52","新北市土城區青雲路483巷10弄15號","121.459413333333","24.9731983333333","6501300","土城區"
"236022","401-BY","2017/06/23 18:18:54","新北市土城區明德路一段295號","121.460026666667","24.9772716666667","6501300","土城區"
"236059","912-UM","2017/06/23 18:18:59","新北市土城區中央路四段201號","121.414623333333","24.956465","6501300","土城區"
"236050","913-UM","2017/06/23 18:18:47","新北市土城區明德路一段375-3號","121.45445","24.9783216666667","6501300","土城區"
"236063","915-UM","2017/06/23 18:18:58","新北市土城區延壽路44巷11號","121.471471666667","24.992905","6501300","土城區"
"236055","AAC-216","2017/06/23 18:18:54","新北市土城區中華路二段98號","121.438115","24.974485","6501300","土城區"
"242021","AAC-296","2017/06/23 18:18:53","新北市新莊區新興街14號","121.45081","25.0362616666667","6500500","新莊區"
"242029","986-R7","2017/06/23 18:18:56","新北市新莊區幸福路829號","121.444868333333","25.0490516666667","6500500","新莊區"
"242025","615-BX","2017/06/23 18:18:51","新北市新莊區五權一路12巷21弄1號","121.457685","25.06452","6500500","新莊區"
"242027","612-BX","2017/06/23 18:18:53","新北市新莊區幸福路821號","121.44537","25.0489833333333","6500500","新莊區"
"242037","566-BX","2017/06/23 18:18:54","新北市新莊區後港一路54號","121.426275","25.0262716666667","6500500","新莊區"
"242041","497-BY","2017/06/23 18:19:04","新北市新莊區雙鳳路90巷3弄3號","121.414911666667","25.0284766666667","6500500","新莊區"
"242005","442-UM","2017/06/23 18:19:00","新北市新莊區中港一街38號","121.450831666667","25.045605","6500500","新莊區"
"242046","441-UM","2017/06/23 18:18:47","新北市新莊區中正路829巷25號","121.42117","25.027495","6500500","新莊區"
"242032","415-TV","2017/06/23 18:18:55","新北市新莊區新泰路277巷43弄23號","121.443643333333","25.0398316666667","6500500","新莊區"
"242002","413-TV","2017/06/23 18:19:01","新北市新莊區新莊路171號","121.456068333333","25.0359566666667","6500500","新莊區"
"242060","362-BY","2017/06/23 18:19:05","新北市新莊區建國二路1號","121.435175","25.0234833333333","6500500","新莊區"
"242058","353-BY","2017/06/23 18:18:49","新北市新莊區中正路808號","121.410041666667","25.0209183333333","6500500","新莊區"
"242011","132-UY","2017/06/23 18:19:05","新北市新莊區中港路591巷32號","121.449671666667","25.0523516666667","6500500","新莊區"
"242019","135-UY","2017/06/23 18:19:01","新北市新莊區中港一街135號","121.448176666667","25.0450933333333","6500500","新莊區"
"242044","172-VK","2017/06/23 18:18:57","新北市新莊區新北大道七段840號","121.41366","25.0237533333333","6500500","新莊區"
"242007","173-VK","2017/06/23 18:18:47","新北市新莊區自強街37巷5號","121.45426","25.04644","6500500","新莊區"
"242056","176-VK","2017/06/23 18:18:52","新北市新莊區瓊林路59-28號","121.444173333333","25.026455","6500500","新莊區"
"242054","349-TH","2017/06/23 18:18:59","新北市新莊區民安西路383號","121.428905","25.0101466666667","6500500","新莊區"
"238015","755-BX","2017/06/23 18:18:49","新北市樹林區大安路323巷10弄16號","121.41723","24.9910016666667","6500700","樹林區"
"238023","601-UM","2017/06/23 18:19:02","新北市樹林區三福街85巷10號","121.40691","25.01555","6500700","樹林區"
"238019","599-UM","2017/06/23 18:19:00","新北市樹林區國凱街136巷25號","121.423728333333","24.979575","6500700","樹林區"
"238018","571-TV","2017/06/23 18:18:54","新北市樹林區博愛一街28號","121.425586666667","24.990935","6500700","樹林區"
"238024","5061-A6","2017/06/23 18:19:02","新北市樹林區大安路121號","121.42227","24.9977383333333","6500700","樹林區"
"238022","312-TH","2017/06/23 18:18:58","新北市樹林區太平路150巷1號","121.418593333333","24.9779766666667","6500700","樹林區"
"238021","311-TH","2017/06/23 17:52:41","新北市樹林區柑園街一段253巷11號","121.396238333333","24.9558716666667","6500700","樹林區"
"238025","303-VK","2017/06/23 18:18:47","新北市樹林區保安街一段234號","121.420365","24.996495","6500700","樹林區"
"238017","283-BY","2017/06/23 18:19:05","新北市樹林區中正路665號","121.412223333333","25.0131683333333","6500700","樹林區"
"238014","282-BY","2017/06/23 18:19:00","新北市樹林區大安路109號","121.422936666667","24.997715","6500700","樹林區"
"238020","268-VK","2017/06/23 18:18:50","新北市樹林區三俊街65巷20號","121.413365","25.01688","6500700","樹林區"
"238026","172-UY","2017/06/23 18:18:48","新北市樹林區柑園街一段72巷8號","121.392851666667","24.969715","6500700","樹林區"
"238016","169-UY","2017/06/23 18:19:01","新北市樹林區文化街28號","121.419338333333","24.9877933333333","6500700","樹林區"
"239007","AAC-297","2017/06/23 18:18:53","新北市鶯歌區重慶街86號","121.348613333333","24.9520366666667","6500800","鶯歌區"
"239006","891-R6","2017/06/23 18:18:48","新北市鶯歌區德昌街140巷2號","121.331941666667","24.96066","6500800","鶯歌區"
"239008","527-UM","2017/06/23 18:18:56","新北市鶯歌區國際一路179號","121.3362","24.9765016666667","6500800","鶯歌區"
"239005","526-UM","2017/06/23 18:19:03","新北市鶯歌區鶯桃路668巷52弄21號","121.329745","24.9703316666667","6500800","鶯歌區"
"239001","417-VK","2017/06/23 18:18:52","新北市鶯歌區國中街193號","121.33841","24.9392266666667","6500800","鶯歌區"
"239003","360-BY","2017/06/23 18:18:58","新北市鶯歌區福安街58號","121.33559","24.9652516666667","6500800","鶯歌區"
"239002","359-BY","2017/06/23 18:18:58","新北市鶯歌區建國路156號","121.35065","24.9538383333333","6500800","鶯歌區"
"239004","193-VK","2017/06/23 18:18:55","新北市鶯歌區尖山路174巷35弄24號","121.343748333333","24.9483283333333","6500800","鶯歌區"
"221008","489-VK","2017/06/23 18:18:56","新北市汐止區汐萬路一段301號","121.649576666667","25.0758216666667","6501100","汐止區"
"221036","130-UY","2017/06/23 18:19:03","新北市汐止區長安路81號","121.66922","25.0783766666667","6501100","汐止區"
"221015","131-UY","2017/06/23 18:18:44","新北市汐止區鄉長路二段23巷4號","121.667196666667","25.08291","6501100","汐止區"
"221010","269-BY","2017/06/23 18:18:54","新北市汐止區祥雲街2號","121.645613333333","25.089485","6501100","汐止區"
"221010","276-VK","2017/06/23 13:14:29","新北市汐止區汐萬路一段256巷3號","121.653461666667","25.0746033333333","6501100","汐止區"
"221031","277-VK","2017/06/23 00:10:29","新北市汐止區汐萬路一段256巷3號","121.65254","25.0745416666667","6501100","汐止區"
"221012","278-VK","2017/06/23 18:18:48","新北市汐止區保長路35巷11號","121.673005","25.0799016666667","6501100","汐止區"
"221023","279-VK","2017/06/23 18:18:54","新北市汐止區中興路244號","121.629521666667","25.068185","6501100","汐止區"
"221032","280-BY","2017/06/23 18:18:56","新北市汐止區民權街二段109巷27號","121.619956666667","25.0461583333333","6501100","汐止區"
"221027","281-BY","2017/06/23 18:19:05","新北市汐止區和平街6巷5弄2號","121.663478333333","25.07174","6501100","汐止區"
"221038","297-VK","2017/06/23 18:19:03","新北市汐止區仁愛路203號","121.664746666667","25.0661366666667","6501100","汐止區"
"221029","298-VK","2017/06/23 18:18:56","新北市汐止區樟樹二路330巷72-1號","121.643075","25.0698866666667","6501100","汐止區"
"221021","299-VK","2017/06/23 18:18:47","新北市汐止區龍安路202巷51號","121.652825","25.063995","6501100","汐止區"
"221035","622-UM","2017/06/23 18:18:52","新北市汐止區大同路二段187巷10弄4號","121.652681666667","25.0657433333333","6501100","汐止區"
"221025","623-UM","2017/06/23 18:18:44","新北市汐止區勤進路16號","121.659631666667","25.061525","6501100","汐止區"
"221033","647-BX","2017/06/23 18:19:02","新北市汐止區宜興街64號","121.622705","25.0425166666667","6501100","汐止區"
"221002","707-TV","2017/06/23 18:18:51","新北市汐止區福德一路201巷28號","121.635863333333","25.06504","6501100","汐止區"
"221018","753-BX","2017/06/23 18:19:04","新北市汐止區茄苳路72巷9號","121.66672","25.07008","6501100","汐止區"
"220056","276-BY","2017/06/23 18:18:59","新北市板橋區民生路二段36-1號","121.47257","25.0168116666667","6500100","板橋區"
"220041","307-R5","2017/06/23 15:30:48","新北市板橋區民生路二段120號","121.470355","25.0196533333333","6500100","板橋區"
